{"data": {"bikes": [{"fusion_lon": 0.0, "bike_id": "78e02b7057fa7215d65801339a6d1360", "is_disabled": 0, "is_reserved": 0, "lat": 38.908029166666665, "name": "78e02b7057fa7215d65801339a6d1360", "rental_uris": {"ios": "https://dc.lft.to/lastmile_qr_scan", "android": "https://dc.lft.to/lastmile_qr_scan"}, "type": "electric_scooter", "fusion_lat": 0.0, "lon": -77.04336316666667}, {"fusion_lon": 0.0, "bike_id": "2d9f29af2e116fec00305da753a9d461", "is_disabled": 0, "is_reserved": 0, "lat": 38.91619216666667, "name": "2d9f29af2e116fec00305da753a9d461", "rental_uris": {"ios": "https://dc.lft.to/lastmile_qr_scan", "android": "https://dc.lft.to/lastmile_qr_scan"}, "type": "electric_bike", "fusion_lat": 0.0, "lon": -77.009248}, {"fusion_lon": 0.0, "bike_id": "550837e3eb160e5ff6270a3bbe7f76ea", "is_disabled": 0, "is_reserved": 0, "lat": 38.92467833333333, "name": "550837e3eb160e5ff6270a3bbe7f76ea", "rental_uris": {"ios": "https://dc.lft.to/lastmile_qr_scan", "android": "https://dc.lft.to/lastmile_qr_scan"}, "type": "electric_scooter", "fusion_lat": 0.0, "lon": -77.03536883333334}, {"fusion_lon": 0.0, "bike_id": "38636b357daf326eac788fd3e60980de", "is_disabled": 0, "is_reserved": 0, "lat": 38.9027355, "name": "38636b357daf326eac788fd3e60980de", "rental_uris": {"ios": "https://dc.lft.to/lastmile_qr_scan", "android": "https://dc.lft.to/lastmile_qr_scan"}, "type": "electric_scooter", "fusion_lat": 0.0, "lon": -77.05178516666666}, {"fusion_lon": 0.0, "bike_id": "7d507d1effc8044f1579dc5e9bd55fbc", "is_disabled": 0, "is_reserved": 0, "lat": 38.9091805, "name": "7d507d1effc8044f1579dc5e9bd55fbc", "rental_uris": {"ios": "https://dc.lft.to/lastmile_qr_scan", "android": "https://dc.lft.to/lastmile_qr_scan"}, "type": "electric_scooter", "fusion_lat": 0.0, "lon": -77.01886683333333}, {"fusion_lon": 0.0, "bike_id": "41f6925880a99e39e23cbef27d49c921", "is_disabled": 0, "is_reserved": 0, "lat": 38.918370333333336, "name": "41f6925880a99e39e23cbef27d49c921", "rental_uris": {"ios": "https://dc.lft.to/lastmile_qr_scan", "android": "https://dc.lft.to/lastmile_qr_scan"}, "type": "electric_scooter", "fusion_lat": 0.0, "lon": -77.04519316666666}, {"fusion_lon": 0.0, "bike_id": "9c6f68a3a82a0ddb2ef08cdf870b2545", "is_disabled": 0, "is_reserved": 0, "lat": 38.91564616666667, "name": "9c6f68a3a82a0ddb2ef08cdf870b2545", "rental_uris": {"ios": "https://dc.lft.to/lastmile_qr_scan", "android": "https://dc.lft.to/lastmile_qr_scan"}, "type": "electric_scooter", "fusion_lat": 0.0, "lon": -77.03805816666667}, {"fusion_lon": 0.0, "bike_id": "255723d747ff24bf08d42a3ba547614b", "is_disabled": 0, "is_reserved": 0, "lat": 38.914156, "name": "255723d747ff24bf08d42a3ba547614b", "rental_uris": {"ios": "https://dc.lft.to/lastmile_qr_scan", "android": "https://dc.lft.to/lastmile_qr_scan"}, "type": "electric_scooter", "fusion_lat": 0.0, "lon": -77.02213066666667}, {"fusion_lon": 0.0, "bike_id": "fc36a956d663a4046f7fac5b6a22d97c", "is_disabled": 0, "is_reserved": 0, "lat": 38.92792333333333, "name": "fc36a956d663a4046f7fac5b6a22d97c", "rental_uris": {"ios": "https://dc.lft.to/lastmile_qr_scan", "android": "https://dc.lft.to/lastmile_qr_scan"}, "type": "electric_scooter", "fusion_lat": 0.0, "lon": -77.037794}, {"fusion_lon": 0.0, "bike_id": "db52ba0179852f7d19cc16efe14008c0", "is_disabled": 0, "is_reserved": 0, "lat": 38.966306833333334, "name": "db52ba0179852f7d19cc16efe14008c0", "rental_uris": {"ios": "https://dc.lft.to/lastmile_qr_scan", "android": "https://dc.lft.to/lastmile_qr_scan"}, "type": "electric_scooter", "fusion_lat": 0.0, "lon": -77.02747166666667}, {"fusion_lon": 0.0, "bike_id": "1bc85991cee16ef3883b483b4b35192c", "is_disabled": 0, "is_reserved": 0, "lat": 38.89787483333333, "name": "1bc85991cee16ef3883b483b4b35192c", "rental_uris": {"ios": "https://dc.lft.to/lastmile_qr_scan", "android": "https://dc.lft.to/lastmile_qr_scan"}, "type": "electric_scooter", "fusion_lat": 0.0, "lon": -77.0497605}, {"fusion_lon": 0.0, "bike_id": "b0b3ef72401b78d4935cb89ed1e7fcd4", "is_disabled": 0, "is_reserved": 0, "lat": 38.92071633333333, "name": "b0b3ef72401b78d4935cb89ed1e7fcd4", "rental_uris": {"ios": "https://dc.lft.to/lastmile_qr_scan", "android": "https://dc.lft.to/lastmile_qr_scan"}, "type": "electric_scooter", "fusion_lat": 0.0, "lon": -77.03853033333333}, {"fusion_lon": 0.0, "bike_id": "ac4885eb1983568247caa7ddb96f5fb2", "is_disabled": 0, "is_reserved": 0, "lat": 38.92534883333333, "name": "ac4885eb1983568247caa7ddb96f5fb2", "rental_uris": {"ios": "https://dc.lft.to/lastmile_qr_scan", "android": "https://dc.lft.to/lastmile_qr_scan"}, "type": "electric_bike", "fusion_lat": 0.0, "lon": -77.07324383333334}, {"fusion_lon": 0.0, "bike_id": "ef923068d2f1d91c8cea400ba5d8b7fc", "is_disabled": 0, "is_reserved": 0, "lat": 38.92712816666667, "name": "ef923068d2f1d91c8cea400ba5d8b7fc", "rental_uris": {"ios": "https://dc.lft.to/lastmile_qr_scan", "android": "https://dc.lft.to/lastmile_qr_scan"}, "type": "electric_scooter", "fusion_lat": 0.0, "lon": -77.06002483333333}, {"fusion_lon": 0.0, "bike_id": "cfd9b98c882d63cf67b064952f9a660b", "is_disabled": 0, "is_reserved": 0, "lat": 38.9111365, "name": "cfd9b98c882d63cf67b064952f9a660b", "rental_uris": {"ios": "https://dc.lft.to/lastmile_qr_scan", "android": "https://dc.lft.to/lastmile_qr_scan"}, "type": "electric_scooter", "fusion_lat": 0.0, "lon": -77.038686}, {"fusion_lon": 0.0, "bike_id": "d6c5f54ec9f881a397876c4cd785368e", "is_disabled": 0, "is_reserved": 0, "lat": 38.91952416666667, "name": "d6c5f54ec9f881a397876c4cd785368e", "rental_uris": {"ios": "https://dc.lft.to/lastmile_qr_scan", "android": "https://dc.lft.to/lastmile_qr_scan"}, "type": "electric_scooter", "fusion_lat": 0.0, "lon": -77.01390833333333}, {"fusion_lon": 0.0, "bike_id": "093746fc49b016a24703bbea117d0073", "is_disabled": 0, "is_reserved": 0, "lat": 38.9041705, "name": "093746fc49b016a24703bbea117d0073", "rental_uris": {"ios": "https://dc.lft.to/lastmile_qr_scan", "android": "https://dc.lft.to/lastmile_qr_scan"}, "type": "electric_scooter", "fusion_lat": 0.0, "lon": -77.02065833333333}, {"fusion_lon": 0.0, "bike_id": "0685dad657ef0b1e33e5973363cc3df0", "is_disabled": 0, "is_reserved": 0, "lat": 38.870694666666665, "name": "0685dad657ef0b1e33e5973363cc3df0", "rental_uris": {"ios": "https://dc.lft.to/lastmile_qr_scan", "android": "https://dc.lft.to/lastmile_qr_scan"}, "type": "electric_scooter", "fusion_lat": 0.0, "lon": -76.97939066666666}, {"fusion_lon": 0.0, "bike_id": "215d1b320a5cd4becb526e66fbda8c4a", "is_disabled": 0, "is_reserved": 0, "lat": 38.87509166666667, "name": "215d1b320a5cd4becb526e66fbda8c4a", "rental_uris": {"ios": "https://dc.lft.to/lastmile_qr_scan", "android": "https://dc.lft.to/lastmile_qr_scan"}, "type": "electric_scooter", "fusion_lat": 0.0, "lon": -76.9766015}, {"fusion_lon": 0.0, "bike_id": "762adaee994a476652e59781a1288c8f", "is_disabled": 0, "is_reserved": 0, "lat": 38.875306333333334, "name": "762adaee994a476652e59781a1288c8f", "rental_uris": {"ios": "https://dc.lft.to/lastmile_qr_scan", "android": "https://dc.lft.to/lastmile_qr_scan"}, "type": "electric_scooter", "fusion_lat": 0.0, "lon": -77.0005825}, {"fusion_lon": 0.0, "bike_id": "8e233ca9b2ee70d8f864d1e5e0dddc1e", "is_disabled": 0, "is_reserved": 0, "lat": 38.966915166666666, "name": "8e233ca9b2ee70d8f864d1e5e0dddc1e", "rental_uris": {"ios": "https://dc.lft.to/lastmile_qr_scan", "android": "https://dc.lft.to/lastmile_qr_scan"}, "type": "electric_bike", "fusion_lat": 0.0, "lon": -77.02274816666667}, {"fusion_lon": 0.0, "bike_id": "c103a2b60314a330e60664ef017dd333", "is_disabled": 0, "is_reserved": 0, "lat": 38.913489, "name": "c103a2b60314a330e60664ef017dd333", "rental_uris": {"ios": "https://dc.lft.to/lastmile_qr_scan", "android": "https://dc.lft.to/lastmile_qr_scan"}, "type": "electric_scooter", "fusion_lat": 0.0, "lon": -77.0381735}, {"fusion_lon": 0.0, "bike_id": "9058c069034f1603a72c4e69b2efe033", "is_disabled": 0, "is_reserved": 0, "lat": 38.83068266666667, "name": "9058c069034f1603a72c4e69b2efe033", "rental_uris": {"ios": "https://dc.lft.to/lastmile_qr_scan", "android": "https://dc.lft.to/lastmile_qr_scan"}, "type": "electric_bike", "fusion_lat": 0.0, "lon": -77.040814}, {"fusion_lon": 0.0, "bike_id": "f5d2ffda47a5a4c5bd1de4e8b1b5be8d", "is_disabled": 0, "is_reserved": 0, "lat": 38.90743033333333, "name": "f5d2ffda47a5a4c5bd1de4e8b1b5be8d", "rental_uris": {"ios": "https://dc.lft.to/lastmile_qr_scan", "android": "https://dc.lft.to/lastmile_qr_scan"}, "type": "electric_scooter", "fusion_lat": 0.0, "lon": -77.04563483333334}, {"fusion_lon": 0.0, "bike_id": "63a8cb18b695d85023e1c68b54ee38a3", "is_disabled": 0, "is_reserved": 0, "lat": 38.925387, "name": "63a8cb18b695d85023e1c68b54ee38a3", "rental_uris": {"ios": "https://dc.lft.to/lastmile_qr_scan", "android": "https://dc.lft.to/lastmile_qr_scan"}, "type": "electric_scooter", "fusion_lat": 0.0, "lon": -77.04256833333334}, {"fusion_lon": 0.0, "bike_id": "36ef1aa0e2f4794414fdb27b2195126e", "is_disabled": 0, "is_reserved": 0, "lat": 38.934760833333335, "name": "36ef1aa0e2f4794414fdb27b2195126e", "rental_uris": {"ios": "https://dc.lft.to/lastmile_qr_scan", "android": "https://dc.lft.to/lastmile_qr_scan"}, "type": "electric_scooter", "fusion_lat": 0.0, "lon": -77.0579015}, {"fusion_lon": 0.0, "bike_id": "e82bec70ed4372e2d78b8b5a7c72a20b", "is_disabled": 0, "is_reserved": 0, "lat": 38.89887183333333, "name": "e82bec70ed4372e2d78b8b5a7c72a20b", "rental_uris": {"ios": "https://dc.lft.to/lastmile_qr_scan", "android": "https://dc.lft.to/lastmile_qr_scan"}, "type": "electric_scooter", "fusion_lat": 0.0, "lon": -76.93175166666667}, {"fusion_lon": 0.0, "bike_id": "32aa7085821a78e2fc5708339c03a7c5", "is_disabled": 0, "is_reserved": 0, "lat": 38.918483333333334, "name": "32aa7085821a78e2fc5708339c03a7c5", "rental_uris": {"ios": "https://dc.lft.to/lastmile_qr_scan", "android": "https://dc.lft.to/lastmile_qr_scan"}, "type": "electric_scooter", "fusion_lat": 0.0, "lon": -77.02310183333333}, {"fusion_lon": 0.0, "bike_id": "75e308e3a4f8407c8334d0e20f60e43a", "is_disabled": 0, "is_reserved": 0, "lat": 38.921577666666664, "name": "75e308e3a4f8407c8334d0e20f60e43a", "rental_uris": {"ios": "https://dc.lft.to/lastmile_qr_scan", "android": "https://dc.lft.to/lastmile_qr_scan"}, "type": "electric_scooter", "fusion_lat": 0.0, "lon": -77.0344925}, {"fusion_lon": 0.0, "bike_id": "e9bb89641ed9203c77f14472b605bdd1", "is_disabled": 0, "is_reserved": 0, "lat": 38.92149716666667, "name": "e9bb89641ed9203c77f14472b605bdd1", "rental_uris": {"ios": "https://dc.lft.to/lastmile_qr_scan", "android": "https://dc.lft.to/lastmile_qr_scan"}, "type": "electric_scooter", "fusion_lat": 0.0, "lon": -77.038688}, {"fusion_lon": 0.0, "bike_id": "f707cc61587f993832f78785f8880215", "is_disabled": 0, "is_reserved": 0, "lat": 38.905022833333334, "name": "f707cc61587f993832f78785f8880215", "rental_uris": {"ios": "https://dc.lft.to/lastmile_qr_scan", "android": "https://dc.lft.to/lastmile_qr_scan"}, "type": "electric_scooter", "fusion_lat": 0.0, "lon": -77.02952633333334}, {"fusion_lon": 0.0, "bike_id": "83581647cfa116f23674c86936efc11c", "is_disabled": 0, "is_reserved": 0, "lat": 38.92573183333333, "name": "83581647cfa116f23674c86936efc11c", "rental_uris": {"ios": "https://dc.lft.to/lastmile_qr_scan", "android": "https://dc.lft.to/lastmile_qr_scan"}, "type": "electric_scooter", "fusion_lat": 0.0, "lon": -77.0288785}, {"fusion_lon": 0.0, "bike_id": "74cd6ad4433b8082a5b58ca7c7aa6a78", "is_disabled": 0, "is_reserved": 0, "lat": 38.893842666666664, "name": "74cd6ad4433b8082a5b58ca7c7aa6a78", "rental_uris": {"ios": "https://dc.lft.to/lastmile_qr_scan", "android": "https://dc.lft.to/lastmile_qr_scan"}, "type": "electric_scooter", "fusion_lat": 0.0, "lon": -77.02081116666666}, {"fusion_lon": 0.0, "bike_id": "89436769440a75d63a79bd03672201ea", "is_disabled": 0, "is_reserved": 0, "lat": 38.898422, "name": "89436769440a75d63a79bd03672201ea", "rental_uris": {"ios": "https://dc.lft.to/lastmile_qr_scan", "android": "https://dc.lft.to/lastmile_qr_scan"}, "type": "electric_scooter", "fusion_lat": 0.0, "lon": -77.02280016666667}, {"fusion_lon": 0.0, "bike_id": "c99acddd9456b1640ebbb835f66812d8", "is_disabled": 0, "is_reserved": 0, "lat": 38.9358415, "name": "c99acddd9456b1640ebbb835f66812d8", "rental_uris": {"ios": "https://dc.lft.to/lastmile_qr_scan", "android": "https://dc.lft.to/lastmile_qr_scan"}, "type": "electric_scooter", "fusion_lat": 0.0, "lon": -77.074314}, {"fusion_lon": 0.0, "bike_id": "4bdf48e8f5619823961239b45aa1ef1d", "is_disabled": 0, "is_reserved": 0, "lat": 38.89851, "name": "4bdf48e8f5619823961239b45aa1ef1d", "rental_uris": {"ios": "https://dc.lft.to/lastmile_qr_scan", "android": "https://dc.lft.to/lastmile_qr_scan"}, "type": "electric_scooter", "fusion_lat": 0.0, "lon": -76.93207633333333}, {"fusion_lon": 0.0, "bike_id": "84250ec7f1d18aea741c338b5f3a8f4e", "is_disabled": 0, "is_reserved": 0, "lat": 38.92962383333333, "name": "84250ec7f1d18aea741c338b5f3a8f4e", "rental_uris": {"ios": "https://dc.lft.to/lastmile_qr_scan", "android": "https://dc.lft.to/lastmile_qr_scan"}, "type": "electric_scooter", "fusion_lat": 0.0, "lon": -77.016452}, {"fusion_lon": 0.0, "bike_id": "820dc8946a2396775d3d986b8cd972ea", "is_disabled": 0, "is_reserved": 0, "lat": 38.88248133333333, "name": "820dc8946a2396775d3d986b8cd972ea", "rental_uris": {"ios": "https://dc.lft.to/lastmile_qr_scan", "android": "https://dc.lft.to/lastmile_qr_scan"}, "type": "electric_scooter", "fusion_lat": 0.0, "lon": -76.93329833333334}, {"fusion_lon": 0.0, "bike_id": "b37786721586bec776914e1bdadb9860", "is_disabled": 0, "is_reserved": 0, "lat": 38.928301833333336, "name": "b37786721586bec776914e1bdadb9860", "rental_uris": {"ios": "https://dc.lft.to/lastmile_qr_scan", "android": "https://dc.lft.to/lastmile_qr_scan"}, "type": "electric_scooter", "fusion_lat": 0.0, "lon": -77.01372133333334}, {"fusion_lon": 0.0, "bike_id": "eb1dad44509ee96b3d2eafaa28c4ed83", "is_disabled": 0, "is_reserved": 0, "lat": 38.918689666666666, "name": "eb1dad44509ee96b3d2eafaa28c4ed83", "rental_uris": {"ios": "https://dc.lft.to/lastmile_qr_scan", "android": "https://dc.lft.to/lastmile_qr_scan"}, "type": "electric_scooter", "fusion_lat": 0.0, "lon": -77.04159183333333}, {"fusion_lon": 0.0, "bike_id": "58d186164e32d6113b1be71690ae8277", "is_disabled": 0, "is_reserved": 0, "lat": 38.872473, "name": "58d186164e32d6113b1be71690ae8277", "rental_uris": {"ios": "https://dc.lft.to/lastmile_qr_scan", "android": "https://dc.lft.to/lastmile_qr_scan"}, "type": "electric_scooter", "fusion_lat": 0.0, "lon": -76.97728583333334}, {"fusion_lon": 0.0, "bike_id": "b798f0e9e6a571060de895139a16194b", "is_disabled": 0, "is_reserved": 0, "lat": 38.89624633333333, "name": "b798f0e9e6a571060de895139a16194b", "rental_uris": {"ios": "https://dc.lft.to/lastmile_qr_scan", "android": "https://dc.lft.to/lastmile_qr_scan"}, "type": "electric_scooter", "fusion_lat": 0.0, "lon": -76.9985525}, {"fusion_lon": 0.0, "bike_id": "a11fccd00e0ce79482a05e7475927cf7", "is_disabled": 0, "is_reserved": 0, "lat": 38.90426516666667, "name": "a11fccd00e0ce79482a05e7475927cf7", "rental_uris": {"ios": "https://dc.lft.to/lastmile_qr_scan", "android": "https://dc.lft.to/lastmile_qr_scan"}, "type": "electric_scooter", "fusion_lat": 0.0, "lon": -77.05329233333333}, {"fusion_lon": 0.0, "bike_id": "e40384c33638614a3579b227978a4ee4", "is_disabled": 0, "is_reserved": 0, "lat": 38.92594533333333, "name": "e40384c33638614a3579b227978a4ee4", "rental_uris": {"ios": "https://dc.lft.to/lastmile_qr_scan", "android": "https://dc.lft.to/lastmile_qr_scan"}, "type": "electric_bike", "fusion_lat": 0.0, "lon": -77.03325183333334}, {"fusion_lon": 0.0, "bike_id": "affdf2e2661a74df28ca107e67abb147", "is_disabled": 0, "is_reserved": 0, "lat": 38.93156166666667, "name": "affdf2e2661a74df28ca107e67abb147", "rental_uris": {"ios": "https://dc.lft.to/lastmile_qr_scan", "android": "https://dc.lft.to/lastmile_qr_scan"}, "type": "electric_scooter", "fusion_lat": 0.0, "lon": -77.07851766666667}, {"fusion_lon": 0.0, "bike_id": "875f2467f193762c5823608021c494ff", "is_disabled": 0, "is_reserved": 0, "lat": 38.9078555, "name": "875f2467f193762c5823608021c494ff", "rental_uris": {"ios": "https://dc.lft.to/lastmile_qr_scan", "android": "https://dc.lft.to/lastmile_qr_scan"}, "type": "electric_scooter", "fusion_lat": 0.0, "lon": -77.00360866666666}, {"fusion_lon": 0.0, "bike_id": "caa27fdf6d7c4665a9609c51825c446b", "is_disabled": 0, "is_reserved": 0, "lat": 38.917653, "name": "caa27fdf6d7c4665a9609c51825c446b", "rental_uris": {"ios": "https://dc.lft.to/lastmile_qr_scan", "android": "https://dc.lft.to/lastmile_qr_scan"}, "type": "electric_scooter", "fusion_lat": 0.0, "lon": -77.00344533333333}, {"fusion_lon": 0.0, "bike_id": "8e44881e6591f039ec8996a33e1f19aa", "is_disabled": 0, "is_reserved": 0, "lat": 38.9008405, "name": "8e44881e6591f039ec8996a33e1f19aa", "rental_uris": {"ios": "https://dc.lft.to/lastmile_qr_scan", "android": "https://dc.lft.to/lastmile_qr_scan"}, "type": "electric_scooter", "fusion_lat": 0.0, "lon": -77.05051633333333}, {"fusion_lon": 0.0, "bike_id": "8a15016fa24163f8a24644c4d03a4537", "is_disabled": 0, "is_reserved": 0, "lat": 38.892496, "name": "8a15016fa24163f8a24644c4d03a4537", "rental_uris": {"ios": "https://dc.lft.to/lastmile_qr_scan", "android": "https://dc.lft.to/lastmile_qr_scan"}, "type": "electric_scooter", "fusion_lat": 0.0, "lon": -76.95218733333333}, {"fusion_lon": 0.0, "bike_id": "75d0a1906795c768156d2bbc13fae560", "is_disabled": 0, "is_reserved": 0, "lat": 38.927367333333336, "name": "75d0a1906795c768156d2bbc13fae560", "rental_uris": {"ios": "https://dc.lft.to/lastmile_qr_scan", "android": "https://dc.lft.to/lastmile_qr_scan"}, "type": "electric_bike", "fusion_lat": 0.0, "lon": -76.99362333333333}, {"fusion_lon": 0.0, "bike_id": "9b33f26722ed6a4e914fba65de9efa17", "is_disabled": 0, "is_reserved": 0, "lat": 38.9373585, "name": "9b33f26722ed6a4e914fba65de9efa17", "rental_uris": {"ios": "https://dc.lft.to/lastmile_qr_scan", "android": "https://dc.lft.to/lastmile_qr_scan"}, "type": "electric_scooter", "fusion_lat": 0.0, "lon": -77.07358233333333}, {"fusion_lon": 0.0, "bike_id": "4f3ef3e5fddcf8ae1a153fb1c5dae17c", "is_disabled": 0, "is_reserved": 0, "lat": 38.88874166666667, "name": "4f3ef3e5fddcf8ae1a153fb1c5dae17c", "rental_uris": {"ios": "https://dc.lft.to/lastmile_qr_scan", "android": "https://dc.lft.to/lastmile_qr_scan"}, "type": "electric_scooter", "fusion_lat": 0.0, "lon": -76.990294}, {"fusion_lon": 0.0, "bike_id": "de7ace210fc5476e2f3783f08d427c45", "is_disabled": 0, "is_reserved": 0, "lat": 38.9148545, "name": "de7ace210fc5476e2f3783f08d427c45", "rental_uris": {"ios": "https://dc.lft.to/lastmile_qr_scan", "android": "https://dc.lft.to/lastmile_qr_scan"}, "type": "electric_scooter", "fusion_lat": 0.0, "lon": -77.02185216666666}, {"fusion_lon": 0.0, "bike_id": "0ca6b62c1171c72840a47a8b4c7abd99", "is_disabled": 0, "is_reserved": 0, "lat": 38.924842, "name": "0ca6b62c1171c72840a47a8b4c7abd99", "rental_uris": {"ios": "https://dc.lft.to/lastmile_qr_scan", "android": "https://dc.lft.to/lastmile_qr_scan"}, "type": "electric_scooter", "fusion_lat": 0.0, "lon": -77.022234}, {"fusion_lon": 0.0, "bike_id": "c5aac52e0162524beee5fe72f8a0db43", "is_disabled": 0, "is_reserved": 0, "lat": 38.900127833333336, "name": "c5aac52e0162524beee5fe72f8a0db43", "rental_uris": {"ios": "https://dc.lft.to/lastmile_qr_scan", "android": "https://dc.lft.to/lastmile_qr_scan"}, "type": "electric_scooter", "fusion_lat": 0.0, "lon": -76.99351633333333}, {"fusion_lon": 0.0, "bike_id": "d13a33e75f84a34bfa76d8a47ac5370d", "is_disabled": 0, "is_reserved": 0, "lat": 38.895317666666664, "name": "d13a33e75f84a34bfa76d8a47ac5370d", "rental_uris": {"ios": "https://dc.lft.to/lastmile_qr_scan", "android": "https://dc.lft.to/lastmile_qr_scan"}, "type": "electric_scooter", "fusion_lat": 0.0, "lon": -77.03178583333333}, {"fusion_lon": 0.0, "bike_id": "153ff4bb60932cb86428dd4a47cfed09", "is_disabled": 0, "is_reserved": 0, "lat": 38.90645966666666, "name": "153ff4bb60932cb86428dd4a47cfed09", "rental_uris": {"ios": "https://dc.lft.to/lastmile_qr_scan", "android": "https://dc.lft.to/lastmile_qr_scan"}, "type": "electric_scooter", "fusion_lat": 0.0, "lon": -77.05321416666666}, {"fusion_lon": 0.0, "bike_id": "6d19561e92da41d854e3550ddb8db6d2", "is_disabled": 0, "is_reserved": 0, "lat": 38.898704333333335, "name": "6d19561e92da41d854e3550ddb8db6d2", "rental_uris": {"ios": "https://dc.lft.to/lastmile_qr_scan", "android": "https://dc.lft.to/lastmile_qr_scan"}, "type": "electric_scooter", "fusion_lat": 0.0, "lon": -77.02040583333333}, {"fusion_lon": 0.0, "bike_id": "1b4eb46e4939ebd7251b261cb4665c34", "is_disabled": 0, "is_reserved": 0, "lat": 38.90822566666667, "name": "1b4eb46e4939ebd7251b261cb4665c34", "rental_uris": {"ios": "https://dc.lft.to/lastmile_qr_scan", "android": "https://dc.lft.to/lastmile_qr_scan"}, "type": "electric_scooter", "fusion_lat": 0.0, "lon": -77.03912983333333}, {"fusion_lon": 0.0, "bike_id": "baa937638f18f3625f7a8629902a033c", "is_disabled": 0, "is_reserved": 0, "lat": 38.89981616666667, "name": "baa937638f18f3625f7a8629902a033c", "rental_uris": {"ios": "https://dc.lft.to/lastmile_qr_scan", "android": "https://dc.lft.to/lastmile_qr_scan"}, "type": "electric_scooter", "fusion_lat": 0.0, "lon": -77.026423}, {"fusion_lon": 0.0, "bike_id": "dade709e4c21d48db63cc38c234feee9", "is_disabled": 0, "is_reserved": 0, "lat": 38.89999183333333, "name": "dade709e4c21d48db63cc38c234feee9", "rental_uris": {"ios": "https://dc.lft.to/lastmile_qr_scan", "android": "https://dc.lft.to/lastmile_qr_scan"}, "type": "electric_scooter", "fusion_lat": 0.0, "lon": -76.99013216666667}, {"fusion_lon": 0.0, "bike_id": "22ba4b1ef39f2f69db2b6a0d03c89fd2", "is_disabled": 0, "is_reserved": 0, "lat": 38.897354166666666, "name": "22ba4b1ef39f2f69db2b6a0d03c89fd2", "rental_uris": {"ios": "https://dc.lft.to/lastmile_qr_scan", "android": "https://dc.lft.to/lastmile_qr_scan"}, "type": "electric_scooter", "fusion_lat": 0.0, "lon": -77.02456016666666}, {"fusion_lon": 0.0, "bike_id": "e30206fe8552683bb98ff3bf56b9b38d", "is_disabled": 0, "is_reserved": 0, "lat": 38.8971975, "name": "e30206fe8552683bb98ff3bf56b9b38d", "rental_uris": {"ios": "https://dc.lft.to/lastmile_qr_scan", "android": "https://dc.lft.to/lastmile_qr_scan"}, "type": "electric_scooter", "fusion_lat": 0.0, "lon": -77.0264885}, {"fusion_lon": 0.0, "bike_id": "3ab6043e0583cb059b8b9013edd5a198", "is_disabled": 0, "is_reserved": 0, "lat": 38.924963166666664, "name": "3ab6043e0583cb059b8b9013edd5a198", "rental_uris": {"ios": "https://dc.lft.to/lastmile_qr_scan", "android": "https://dc.lft.to/lastmile_qr_scan"}, "type": "electric_scooter", "fusion_lat": 0.0, "lon": -77.03933266666667}, {"fusion_lon": 0.0, "bike_id": "4384a5233ce9078b8453f62f634761e8", "is_disabled": 0, "is_reserved": 0, "lat": 38.89228933333333, "name": "4384a5233ce9078b8453f62f634761e8", "rental_uris": {"ios": "https://dc.lft.to/lastmile_qr_scan", "android": "https://dc.lft.to/lastmile_qr_scan"}, "type": "electric_scooter", "fusion_lat": 0.0, "lon": -77.02418866666666}, {"fusion_lon": 0.0, "bike_id": "04727b70c02f6c6b24cfb8bfb3463649", "is_disabled": 0, "is_reserved": 0, "lat": 38.8973795, "name": "04727b70c02f6c6b24cfb8bfb3463649", "rental_uris": {"ios": "https://dc.lft.to/lastmile_qr_scan", "android": "https://dc.lft.to/lastmile_qr_scan"}, "type": "electric_scooter", "fusion_lat": 0.0, "lon": -76.99216283333334}, {"fusion_lon": 0.0, "bike_id": "d3433a351e13ea2abe2ef5e1a53752c3", "is_disabled": 0, "is_reserved": 0, "lat": 38.914151333333336, "name": "d3433a351e13ea2abe2ef5e1a53752c3", "rental_uris": {"ios": "https://dc.lft.to/lastmile_qr_scan", "android": "https://dc.lft.to/lastmile_qr_scan"}, "type": "electric_scooter", "fusion_lat": 0.0, "lon": -77.022153}, {"fusion_lon": 0.0, "bike_id": "9dbb3d64c13e6dd93de18e43ada78a41", "is_disabled": 0, "is_reserved": 0, "lat": 38.9147315, "name": "9dbb3d64c13e6dd93de18e43ada78a41", "rental_uris": {"ios": "https://dc.lft.to/lastmile_qr_scan", "android": "https://dc.lft.to/lastmile_qr_scan"}, "type": "electric_scooter", "fusion_lat": 0.0, "lon": -77.0088925}, {"fusion_lon": 0.0, "bike_id": "f9c53cd80257fb9d3228120df0171a98", "is_disabled": 0, "is_reserved": 0, "lat": 38.900528333333334, "name": "f9c53cd80257fb9d3228120df0171a98", "rental_uris": {"ios": "https://dc.lft.to/lastmile_qr_scan", "android": "https://dc.lft.to/lastmile_qr_scan"}, "type": "electric_scooter", "fusion_lat": 0.0, "lon": -77.01672166666667}, {"fusion_lon": 0.0, "bike_id": "549be7e5feb8eae9ab9e3b0c1c9d39fd", "is_disabled": 0, "is_reserved": 0, "lat": 38.91031016666667, "name": "549be7e5feb8eae9ab9e3b0c1c9d39fd", "rental_uris": {"ios": "https://dc.lft.to/lastmile_qr_scan", "android": "https://dc.lft.to/lastmile_qr_scan"}, "type": "electric_scooter", "fusion_lat": 0.0, "lon": -77.029404}, {"fusion_lon": 0.0, "bike_id": "313a5cc41e5f3e22bd31d91429070090", "is_disabled": 0, "is_reserved": 0, "lat": 38.92736583333333, "name": "313a5cc41e5f3e22bd31d91429070090", "rental_uris": {"ios": "https://dc.lft.to/lastmile_qr_scan", "android": "https://dc.lft.to/lastmile_qr_scan"}, "type": "electric_scooter", "fusion_lat": 0.0, "lon": -77.02216433333334}, {"fusion_lon": 0.0, "bike_id": "8d6474796e9c470c3b1e08b7989fd897", "is_disabled": 0, "is_reserved": 0, "lat": 38.899113166666666, "name": "8d6474796e9c470c3b1e08b7989fd897", "rental_uris": {"ios": "https://dc.lft.to/lastmile_qr_scan", "android": "https://dc.lft.to/lastmile_qr_scan"}, "type": "electric_scooter", "fusion_lat": 0.0, "lon": -77.00359566666667}, {"fusion_lon": 0.0, "bike_id": "a32e430d90d03b7a542a76b27052fe09", "is_disabled": 0, "is_reserved": 0, "lat": 38.917642, "name": "a32e430d90d03b7a542a76b27052fe09", "rental_uris": {"ios": "https://dc.lft.to/lastmile_qr_scan", "android": "https://dc.lft.to/lastmile_qr_scan"}, "type": "electric_scooter", "fusion_lat": 0.0, "lon": -77.03997233333334}, {"fusion_lon": 0.0, "bike_id": "5bb7d388ce024afe10bca023eea064e3", "is_disabled": 0, "is_reserved": 0, "lat": 38.918859166666664, "name": "5bb7d388ce024afe10bca023eea064e3", "rental_uris": {"ios": "https://dc.lft.to/lastmile_qr_scan", "android": "https://dc.lft.to/lastmile_qr_scan"}, "type": "electric_scooter", "fusion_lat": 0.0, "lon": -77.0351205}, {"fusion_lon": 0.0, "bike_id": "e310ba654aaee6ab73b74732568516a0", "is_disabled": 0, "is_reserved": 0, "lat": 38.913121333333336, "name": "e310ba654aaee6ab73b74732568516a0", "rental_uris": {"ios": "https://dc.lft.to/lastmile_qr_scan", "android": "https://dc.lft.to/lastmile_qr_scan"}, "type": "electric_scooter", "fusion_lat": 0.0, "lon": -77.03465816666667}, {"fusion_lon": 0.0, "bike_id": "7c07041213eaf0eeeec2b5ea17ff77d0", "is_disabled": 0, "is_reserved": 0, "lat": 38.921146, "name": "7c07041213eaf0eeeec2b5ea17ff77d0", "rental_uris": {"ios": "https://dc.lft.to/lastmile_qr_scan", "android": "https://dc.lft.to/lastmile_qr_scan"}, "type": "electric_scooter", "fusion_lat": 0.0, "lon": -77.021276}, {"fusion_lon": 0.0, "bike_id": "514374e08b26c4ab5ea1d513433ce5d8", "is_disabled": 0, "is_reserved": 0, "lat": 38.915709, "name": "514374e08b26c4ab5ea1d513433ce5d8", "rental_uris": {"ios": "https://dc.lft.to/lastmile_qr_scan", "android": "https://dc.lft.to/lastmile_qr_scan"}, "type": "electric_scooter", "fusion_lat": 0.0, "lon": -77.021836}, {"fusion_lon": 0.0, "bike_id": "916e8144dcd5aed2a1dcfba9065c06a9", "is_disabled": 0, "is_reserved": 0, "lat": 38.924282833333336, "name": "916e8144dcd5aed2a1dcfba9065c06a9", "rental_uris": {"ios": "https://dc.lft.to/lastmile_qr_scan", "android": "https://dc.lft.to/lastmile_qr_scan"}, "type": "electric_scooter", "fusion_lat": 0.0, "lon": -77.04042283333334}, {"fusion_lon": 0.0, "bike_id": "f04781acaa9542509ac1b3c181ec687b", "is_disabled": 0, "is_reserved": 0, "lat": 38.901590166666665, "name": "f04781acaa9542509ac1b3c181ec687b", "rental_uris": {"ios": "https://dc.lft.to/lastmile_qr_scan", "android": "https://dc.lft.to/lastmile_qr_scan"}, "type": "electric_scooter", "fusion_lat": 0.0, "lon": -77.03404333333333}, {"fusion_lon": 0.0, "bike_id": "025bbe6b26bd40b6511b62948cd1dc5c", "is_disabled": 0, "is_reserved": 0, "lat": 38.90912316666667, "name": "025bbe6b26bd40b6511b62948cd1dc5c", "rental_uris": {"ios": "https://dc.lft.to/lastmile_qr_scan", "android": "https://dc.lft.to/lastmile_qr_scan"}, "type": "electric_scooter", "fusion_lat": 0.0, "lon": -76.997763}, {"fusion_lon": 0.0, "bike_id": "0291f4fc0a23637251af047aff0906a7", "is_disabled": 0, "is_reserved": 0, "lat": 38.912983, "name": "0291f4fc0a23637251af047aff0906a7", "rental_uris": {"ios": "https://dc.lft.to/lastmile_qr_scan", "android": "https://dc.lft.to/lastmile_qr_scan"}, "type": "electric_scooter", "fusion_lat": 0.0, "lon": -76.98698716666667}, {"fusion_lon": 0.0, "bike_id": "85d520eabe50b10685884865796f29eb", "is_disabled": 0, "is_reserved": 0, "lat": 38.8461045, "name": "85d520eabe50b10685884865796f29eb", "rental_uris": {"ios": "https://dc.lft.to/lastmile_qr_scan", "android": "https://dc.lft.to/lastmile_qr_scan"}, "type": "electric_bike", "fusion_lat": 0.0, "lon": -76.978193}, {"fusion_lon": 0.0, "bike_id": "20056c7790c1ce4ff93b12edafb47878", "is_disabled": 0, "is_reserved": 0, "lat": 38.9068865, "name": "20056c7790c1ce4ff93b12edafb47878", "rental_uris": {"ios": "https://dc.lft.to/lastmile_qr_scan", "android": "https://dc.lft.to/lastmile_qr_scan"}, "type": "electric_scooter", "fusion_lat": 0.0, "lon": -77.06268866666667}, {"fusion_lon": 0.0, "bike_id": "ad63d052120158766bd198bd7b2aa4e4", "is_disabled": 0, "is_reserved": 0, "lat": 38.91026433333333, "name": "ad63d052120158766bd198bd7b2aa4e4", "rental_uris": {"ios": "https://dc.lft.to/lastmile_qr_scan", "android": "https://dc.lft.to/lastmile_qr_scan"}, "type": "electric_scooter", "fusion_lat": 0.0, "lon": -77.0294255}, {"fusion_lon": 0.0, "bike_id": "0aaba418f9419d69de4c4d950c5331b9", "is_disabled": 0, "is_reserved": 0, "lat": 38.881418833333335, "name": "0aaba418f9419d69de4c4d950c5331b9", "rental_uris": {"ios": "https://dc.lft.to/lastmile_qr_scan", "android": "https://dc.lft.to/lastmile_qr_scan"}, "type": "electric_scooter", "fusion_lat": 0.0, "lon": -77.01663483333333}, {"fusion_lon": 0.0, "bike_id": "8648352cd1d9efdbc40d4c2b50e9ac47", "is_disabled": 0, "is_reserved": 0, "lat": 38.90692766666667, "name": "8648352cd1d9efdbc40d4c2b50e9ac47", "rental_uris": {"ios": "https://dc.lft.to/lastmile_qr_scan", "android": "https://dc.lft.to/lastmile_qr_scan"}, "type": "electric_scooter", "fusion_lat": 0.0, "lon": -77.07198166666667}, {"fusion_lon": 0.0, "bike_id": "254783f1c21f78829ad569be384a3b0b", "is_disabled": 0, "is_reserved": 0, "lat": 38.9140785, "name": "254783f1c21f78829ad569be384a3b0b", "rental_uris": {"ios": "https://dc.lft.to/lastmile_qr_scan", "android": "https://dc.lft.to/lastmile_qr_scan"}, "type": "electric_scooter", "fusion_lat": 0.0, "lon": -77.01070716666666}, {"fusion_lon": 0.0, "bike_id": "82dae8929b31f34e435aea74a5619ac2", "is_disabled": 0, "is_reserved": 0, "lat": 38.89223583333333, "name": "82dae8929b31f34e435aea74a5619ac2", "rental_uris": {"ios": "https://dc.lft.to/lastmile_qr_scan", "android": "https://dc.lft.to/lastmile_qr_scan"}, "type": "electric_scooter", "fusion_lat": 0.0, "lon": -77.048781}, {"fusion_lon": 0.0, "bike_id": "557ba5d62d41d42d8e004fef9143adfc", "is_disabled": 0, "is_reserved": 0, "lat": 38.93491066666667, "name": "557ba5d62d41d42d8e004fef9143adfc", "rental_uris": {"ios": "https://dc.lft.to/lastmile_qr_scan", "android": "https://dc.lft.to/lastmile_qr_scan"}, "type": "electric_scooter", "fusion_lat": 0.0, "lon": -77.03288}, {"fusion_lon": 0.0, "bike_id": "db78ba0fb8db90f0fcd1275fccb86737", "is_disabled": 0, "is_reserved": 0, "lat": 38.92363133333333, "name": "db78ba0fb8db90f0fcd1275fccb86737", "rental_uris": {"ios": "https://dc.lft.to/lastmile_qr_scan", "android": "https://dc.lft.to/lastmile_qr_scan"}, "type": "electric_scooter", "fusion_lat": 0.0, "lon": -77.019528}, {"fusion_lon": 0.0, "bike_id": "c200d7c73e56b2d499c2b82a2e37431f", "is_disabled": 0, "is_reserved": 0, "lat": 38.9000185, "name": "c200d7c73e56b2d499c2b82a2e37431f", "rental_uris": {"ios": "https://dc.lft.to/lastmile_qr_scan", "android": "https://dc.lft.to/lastmile_qr_scan"}, "type": "electric_scooter", "fusion_lat": 0.0, "lon": -77.015843}, {"fusion_lon": 0.0, "bike_id": "8c61ec71104a1e440eb56568bbede92f", "is_disabled": 0, "is_reserved": 0, "lat": 38.9051315, "name": "8c61ec71104a1e440eb56568bbede92f", "rental_uris": {"ios": "https://dc.lft.to/lastmile_qr_scan", "android": "https://dc.lft.to/lastmile_qr_scan"}, "type": "electric_scooter", "fusion_lat": 0.0, "lon": -76.98483}, {"fusion_lon": 0.0, "bike_id": "0552ab8426ee14420cd42dfc21eacb6f", "is_disabled": 0, "is_reserved": 0, "lat": 38.91073266666667, "name": "0552ab8426ee14420cd42dfc21eacb6f", "rental_uris": {"ios": "https://dc.lft.to/lastmile_qr_scan", "android": "https://dc.lft.to/lastmile_qr_scan"}, "type": "electric_scooter", "fusion_lat": 0.0, "lon": -77.01606}, {"fusion_lon": 0.0, "bike_id": "16833f48cab00c24477455677fb3c9c6", "is_disabled": 0, "is_reserved": 0, "lat": 38.878565, "name": "16833f48cab00c24477455677fb3c9c6", "rental_uris": {"ios": "https://dc.lft.to/lastmile_qr_scan", "android": "https://dc.lft.to/lastmile_qr_scan"}, "type": "electric_scooter", "fusion_lat": 0.0, "lon": -77.00701616666667}, {"fusion_lon": 0.0, "bike_id": "2a8da1a3398386b44bb0d636c7c9f6f2", "is_disabled": 0, "is_reserved": 0, "lat": 38.918277333333336, "name": "2a8da1a3398386b44bb0d636c7c9f6f2", "rental_uris": {"ios": "https://dc.lft.to/lastmile_qr_scan", "android": "https://dc.lft.to/lastmile_qr_scan"}, "type": "electric_scooter", "fusion_lat": 0.0, "lon": -77.04529916666667}, {"fusion_lon": 0.0, "bike_id": "4b4f3906f6f54e5e9f1bd05e91a71c84", "is_disabled": 0, "is_reserved": 0, "lat": 38.92739383333333, "name": "4b4f3906f6f54e5e9f1bd05e91a71c84", "rental_uris": {"ios": "https://dc.lft.to/lastmile_qr_scan", "android": "https://dc.lft.to/lastmile_qr_scan"}, "type": "electric_scooter", "fusion_lat": 0.0, "lon": -77.03561866666666}, {"fusion_lon": 0.0, "bike_id": "45ed6f1fade6410c7005b79605db6be9", "is_disabled": 0, "is_reserved": 0, "lat": 38.92108483333333, "name": "45ed6f1fade6410c7005b79605db6be9", "rental_uris": {"ios": "https://dc.lft.to/lastmile_qr_scan", "android": "https://dc.lft.to/lastmile_qr_scan"}, "type": "electric_scooter", "fusion_lat": 0.0, "lon": -77.047095}, {"fusion_lon": 0.0, "bike_id": "cc4200b027c61c2d22f5e47d8faea2cf", "is_disabled": 0, "is_reserved": 0, "lat": 38.897447, "name": "cc4200b027c61c2d22f5e47d8faea2cf", "rental_uris": {"ios": "https://dc.lft.to/lastmile_qr_scan", "android": "https://dc.lft.to/lastmile_qr_scan"}, "type": "electric_scooter", "fusion_lat": 0.0, "lon": -77.04865483333333}, {"fusion_lon": 0.0, "bike_id": "a1ad1bfb0c9a57b9b7acb18ba7467c6c", "is_disabled": 0, "is_reserved": 0, "lat": 38.877940833333334, "name": "a1ad1bfb0c9a57b9b7acb18ba7467c6c", "rental_uris": {"ios": "https://dc.lft.to/lastmile_qr_scan", "android": "https://dc.lft.to/lastmile_qr_scan"}, "type": "electric_scooter", "fusion_lat": 0.0, "lon": -76.99608916666666}, {"fusion_lon": 0.0, "bike_id": "6a9b6eec26ed381a6731676d472e50a0", "is_disabled": 0, "is_reserved": 0, "lat": 38.916242, "name": "6a9b6eec26ed381a6731676d472e50a0", "rental_uris": {"ios": "https://dc.lft.to/lastmile_qr_scan", "android": "https://dc.lft.to/lastmile_qr_scan"}, "type": "electric_scooter", "fusion_lat": 0.0, "lon": -77.0280625}, {"fusion_lon": 0.0, "bike_id": "b2cc5b5965511e450753be8f713226a4", "is_disabled": 0, "is_reserved": 0, "lat": 38.899847666666666, "name": "b2cc5b5965511e450753be8f713226a4", "rental_uris": {"ios": "https://dc.lft.to/lastmile_qr_scan", "android": "https://dc.lft.to/lastmile_qr_scan"}, "type": "electric_scooter", "fusion_lat": 0.0, "lon": -77.04198083333333}, {"fusion_lon": 0.0, "bike_id": "1baae6cf82d17b908d0652cf8c692aff", "is_disabled": 0, "is_reserved": 0, "lat": 38.894453, "name": "1baae6cf82d17b908d0652cf8c692aff", "rental_uris": {"ios": "https://dc.lft.to/lastmile_qr_scan", "android": "https://dc.lft.to/lastmile_qr_scan"}, "type": "electric_scooter", "fusion_lat": 0.0, "lon": -76.97732333333333}, {"fusion_lon": 0.0, "bike_id": "bf8c1c9675ebcab42343e5fc1beeea73", "is_disabled": 0, "is_reserved": 0, "lat": 38.925502333333334, "name": "bf8c1c9675ebcab42343e5fc1beeea73", "rental_uris": {"ios": "https://dc.lft.to/lastmile_qr_scan", "android": "https://dc.lft.to/lastmile_qr_scan"}, "type": "electric_scooter", "fusion_lat": 0.0, "lon": -77.03330066666666}, {"fusion_lon": 0.0, "bike_id": "9af63e8626f113ef1c941a3f0907fd81", "is_disabled": 0, "is_reserved": 0, "lat": 38.924034666666664, "name": "9af63e8626f113ef1c941a3f0907fd81", "rental_uris": {"ios": "https://dc.lft.to/lastmile_qr_scan", "android": "https://dc.lft.to/lastmile_qr_scan"}, "type": "electric_scooter", "fusion_lat": 0.0, "lon": -77.040467}, {"fusion_lon": 0.0, "bike_id": "9e04e02e8315c08d4715e9eb3d094793", "is_disabled": 0, "is_reserved": 0, "lat": 38.91676233333333, "name": "9e04e02e8315c08d4715e9eb3d094793", "rental_uris": {"ios": "https://dc.lft.to/lastmile_qr_scan", "android": "https://dc.lft.to/lastmile_qr_scan"}, "type": "electric_scooter", "fusion_lat": 0.0, "lon": -77.04711}, {"fusion_lon": 0.0, "bike_id": "36a37d8349a548d6739290535904a855", "is_disabled": 0, "is_reserved": 0, "lat": 38.88539133333333, "name": "36a37d8349a548d6739290535904a855", "rental_uris": {"ios": "https://dc.lft.to/lastmile_qr_scan", "android": "https://dc.lft.to/lastmile_qr_scan"}, "type": "electric_scooter", "fusion_lat": 0.0, "lon": -76.95428216666667}, {"fusion_lon": 0.0, "bike_id": "8760a9d8c21012d815e47af7f5d4bfc9", "is_disabled": 0, "is_reserved": 0, "lat": 38.919479833333334, "name": "8760a9d8c21012d815e47af7f5d4bfc9", "rental_uris": {"ios": "https://dc.lft.to/lastmile_qr_scan", "android": "https://dc.lft.to/lastmile_qr_scan"}, "type": "electric_scooter", "fusion_lat": 0.0, "lon": -77.02508566666667}, {"fusion_lon": 0.0, "bike_id": "d34a95009311ca618a9fae841015ceca", "is_disabled": 0, "is_reserved": 0, "lat": 38.92466066666667, "name": "d34a95009311ca618a9fae841015ceca", "rental_uris": {"ios": "https://dc.lft.to/lastmile_qr_scan", "android": "https://dc.lft.to/lastmile_qr_scan"}, "type": "electric_scooter", "fusion_lat": 0.0, "lon": -77.02237916666667}, {"fusion_lon": 0.0, "bike_id": "88492dfca6fd8974afad146e1b9306b3", "is_disabled": 0, "is_reserved": 0, "lat": 38.878651, "name": "88492dfca6fd8974afad146e1b9306b3", "rental_uris": {"ios": "https://dc.lft.to/lastmile_qr_scan", "android": "https://dc.lft.to/lastmile_qr_scan"}, "type": "electric_scooter", "fusion_lat": 0.0, "lon": -77.0075095}, {"fusion_lon": 0.0, "bike_id": "2c43a9a66a9d99f58633d3c8896569e4", "is_disabled": 0, "is_reserved": 0, "lat": 38.90706866666667, "name": "2c43a9a66a9d99f58633d3c8896569e4", "rental_uris": {"ios": "https://dc.lft.to/lastmile_qr_scan", "android": "https://dc.lft.to/lastmile_qr_scan"}, "type": "electric_scooter", "fusion_lat": 0.0, "lon": -77.02813633333334}, {"fusion_lon": 0.0, "bike_id": "ad891764f57f75500606b8e2080d3e97", "is_disabled": 0, "is_reserved": 0, "lat": 38.998119833333334, "name": "ad891764f57f75500606b8e2080d3e97", "rental_uris": {"ios": "https://dc.lft.to/lastmile_qr_scan", "android": "https://dc.lft.to/lastmile_qr_scan"}, "type": "electric_bike", "fusion_lat": 0.0, "lon": -76.9979605}, {"fusion_lon": 0.0, "bike_id": "6aec2a3cdf84a06bc3a21b40dbe535aa", "is_disabled": 0, "is_reserved": 0, "lat": 38.89566083333333, "name": "6aec2a3cdf84a06bc3a21b40dbe535aa", "rental_uris": {"ios": "https://dc.lft.to/lastmile_qr_scan", "android": "https://dc.lft.to/lastmile_qr_scan"}, "type": "electric_bike", "fusion_lat": 0.0, "lon": -77.127385}, {"fusion_lon": 0.0, "bike_id": "98a5abf4d9cda13248f59c29d9de52c1", "is_disabled": 0, "is_reserved": 0, "lat": 38.922575, "name": "98a5abf4d9cda13248f59c29d9de52c1", "rental_uris": {"ios": "https://dc.lft.to/lastmile_qr_scan", "android": "https://dc.lft.to/lastmile_qr_scan"}, "type": "electric_scooter", "fusion_lat": 0.0, "lon": -77.02548866666666}, {"fusion_lon": 0.0, "bike_id": "6d82a001ae4336b2e1bb7125c6cb99f9", "is_disabled": 0, "is_reserved": 0, "lat": 38.874681333333335, "name": "6d82a001ae4336b2e1bb7125c6cb99f9", "rental_uris": {"ios": "https://dc.lft.to/lastmile_qr_scan", "android": "https://dc.lft.to/lastmile_qr_scan"}, "type": "electric_scooter", "fusion_lat": 0.0, "lon": -77.018941}, {"fusion_lon": 0.0, "bike_id": "072593817b20c2be2e2b08369ba48700", "is_disabled": 0, "is_reserved": 0, "lat": 38.856309, "name": "072593817b20c2be2e2b08369ba48700", "rental_uris": {"ios": "https://dc.lft.to/lastmile_qr_scan", "android": "https://dc.lft.to/lastmile_qr_scan"}, "type": "electric_scooter", "fusion_lat": 0.0, "lon": -76.990769}, {"fusion_lon": 0.0, "bike_id": "cbfc4105802e4fbd08174f06078171c3", "is_disabled": 0, "is_reserved": 0, "lat": 38.892093, "name": "cbfc4105802e4fbd08174f06078171c3", "rental_uris": {"ios": "https://dc.lft.to/lastmile_qr_scan", "android": "https://dc.lft.to/lastmile_qr_scan"}, "type": "electric_scooter", "fusion_lat": 0.0, "lon": -76.96120133333334}, {"fusion_lon": 0.0, "bike_id": "783d05efd76edec763e1b0cbfbb589a8", "is_disabled": 0, "is_reserved": 0, "lat": 38.92784366666667, "name": "783d05efd76edec763e1b0cbfbb589a8", "rental_uris": {"ios": "https://dc.lft.to/lastmile_qr_scan", "android": "https://dc.lft.to/lastmile_qr_scan"}, "type": "electric_scooter", "fusion_lat": 0.0, "lon": -77.02121933333333}, {"fusion_lon": 0.0, "bike_id": "a5741b4cd7ba58835e90810f08d03fd7", "is_disabled": 0, "is_reserved": 0, "lat": 38.931231833333335, "name": "a5741b4cd7ba58835e90810f08d03fd7", "rental_uris": {"ios": "https://dc.lft.to/lastmile_qr_scan", "android": "https://dc.lft.to/lastmile_qr_scan"}, "type": "electric_scooter", "fusion_lat": 0.0, "lon": -77.0204695}, {"fusion_lon": 0.0, "bike_id": "de4d5133be0ad5c6a487c113657bf33e", "is_disabled": 0, "is_reserved": 0, "lat": 38.92198416666667, "name": "de4d5133be0ad5c6a487c113657bf33e", "rental_uris": {"ios": "https://dc.lft.to/lastmile_qr_scan", "android": "https://dc.lft.to/lastmile_qr_scan"}, "type": "electric_scooter", "fusion_lat": 0.0, "lon": -77.04324233333334}, {"fusion_lon": 0.0, "bike_id": "d9718944b5278a6fcd0ce14afb5d65df", "is_disabled": 0, "is_reserved": 0, "lat": 38.91805083333333, "name": "d9718944b5278a6fcd0ce14afb5d65df", "rental_uris": {"ios": "https://dc.lft.to/lastmile_qr_scan", "android": "https://dc.lft.to/lastmile_qr_scan"}, "type": "electric_scooter", "fusion_lat": 0.0, "lon": -77.0400295}, {"fusion_lon": 0.0, "bike_id": "1df7301a6aa535db7102da9c90753988", "is_disabled": 0, "is_reserved": 0, "lat": 38.935796333333336, "name": "1df7301a6aa535db7102da9c90753988", "rental_uris": {"ios": "https://dc.lft.to/lastmile_qr_scan", "android": "https://dc.lft.to/lastmile_qr_scan"}, "type": "electric_scooter", "fusion_lat": 0.0, "lon": -77.02251616666666}, {"fusion_lon": 0.0, "bike_id": "9d392b147a317186514e3303fa3bd827", "is_disabled": 0, "is_reserved": 0, "lat": 38.9015785, "name": "9d392b147a317186514e3303fa3bd827", "rental_uris": {"ios": "https://dc.lft.to/lastmile_qr_scan", "android": "https://dc.lft.to/lastmile_qr_scan"}, "type": "electric_scooter", "fusion_lat": 0.0, "lon": -76.9864365}, {"fusion_lon": 0.0, "bike_id": "5cc16fa398e957df4c1f4dd96d707003", "is_disabled": 0, "is_reserved": 0, "lat": 38.87652933333333, "name": "5cc16fa398e957df4c1f4dd96d707003", "rental_uris": {"ios": "https://dc.lft.to/lastmile_qr_scan", "android": "https://dc.lft.to/lastmile_qr_scan"}, "type": "electric_scooter", "fusion_lat": 0.0, "lon": -77.0075545}, {"fusion_lon": 0.0, "bike_id": "709e5a8b2f2167153e0a73be10e30769", "is_disabled": 0, "is_reserved": 0, "lat": 38.87471466666667, "name": "709e5a8b2f2167153e0a73be10e30769", "rental_uris": {"ios": "https://dc.lft.to/lastmile_qr_scan", "android": "https://dc.lft.to/lastmile_qr_scan"}, "type": "electric_scooter", "fusion_lat": 0.0, "lon": -77.005175}, {"fusion_lon": 0.0, "bike_id": "649b70c9c2b2815d41e36a2ccb06f30a", "is_disabled": 0, "is_reserved": 0, "lat": 38.883357, "name": "649b70c9c2b2815d41e36a2ccb06f30a", "rental_uris": {"ios": "https://dc.lft.to/lastmile_qr_scan", "android": "https://dc.lft.to/lastmile_qr_scan"}, "type": "electric_scooter", "fusion_lat": 0.0, "lon": -77.01524883333333}, {"fusion_lon": 0.0, "bike_id": "9ece92c785c0f2593b8bd8b29180564c", "is_disabled": 0, "is_reserved": 0, "lat": 38.936907166666664, "name": "9ece92c785c0f2593b8bd8b29180564c", "rental_uris": {"ios": "https://dc.lft.to/lastmile_qr_scan", "android": "https://dc.lft.to/lastmile_qr_scan"}, "type": "electric_scooter", "fusion_lat": 0.0, "lon": -77.08437733333334}, {"fusion_lon": 0.0, "bike_id": "05e6be4f5fb402a73ccc6e52a567358f", "is_disabled": 0, "is_reserved": 0, "lat": 38.8843195, "name": "05e6be4f5fb402a73ccc6e52a567358f", "rental_uris": {"ios": "https://dc.lft.to/lastmile_qr_scan", "android": "https://dc.lft.to/lastmile_qr_scan"}, "type": "electric_scooter", "fusion_lat": 0.0, "lon": -77.030512}, {"fusion_lon": 0.0, "bike_id": "13b159743009b3ed21b45a2878f7ae39", "is_disabled": 0, "is_reserved": 0, "lat": 38.90086383333333, "name": "13b159743009b3ed21b45a2878f7ae39", "rental_uris": {"ios": "https://dc.lft.to/lastmile_qr_scan", "android": "https://dc.lft.to/lastmile_qr_scan"}, "type": "electric_scooter", "fusion_lat": 0.0, "lon": -76.98339983333334}, {"fusion_lon": 0.0, "bike_id": "96acd6910ecf1fc4d7b02549fcd0889b", "is_disabled": 0, "is_reserved": 0, "lat": 38.94462733333334, "name": "96acd6910ecf1fc4d7b02549fcd0889b", "rental_uris": {"ios": "https://dc.lft.to/lastmile_qr_scan", "android": "https://dc.lft.to/lastmile_qr_scan"}, "type": "electric_scooter", "fusion_lat": 0.0, "lon": -77.006576}, {"fusion_lon": 0.0, "bike_id": "25d4d35866e2f9944874ab26323296c9", "is_disabled": 0, "is_reserved": 0, "lat": 38.915405166666666, "name": "25d4d35866e2f9944874ab26323296c9", "rental_uris": {"ios": "https://dc.lft.to/lastmile_qr_scan", "android": "https://dc.lft.to/lastmile_qr_scan"}, "type": "electric_scooter", "fusion_lat": 0.0, "lon": -77.04422516666666}, {"fusion_lon": 0.0, "bike_id": "b2225385554797124411962ef08affc9", "is_disabled": 0, "is_reserved": 0, "lat": 38.89617166666667, "name": "b2225385554797124411962ef08affc9", "rental_uris": {"ios": "https://dc.lft.to/lastmile_qr_scan", "android": "https://dc.lft.to/lastmile_qr_scan"}, "type": "electric_scooter", "fusion_lat": 0.0, "lon": -77.045021}, {"fusion_lon": 0.0, "bike_id": "975a6aca7d6576f6762e062c365d7f10", "is_disabled": 0, "is_reserved": 0, "lat": 38.89743583333333, "name": "975a6aca7d6576f6762e062c365d7f10", "rental_uris": {"ios": "https://dc.lft.to/lastmile_qr_scan", "android": "https://dc.lft.to/lastmile_qr_scan"}, "type": "electric_scooter", "fusion_lat": 0.0, "lon": -77.01053833333333}, {"fusion_lon": 0.0, "bike_id": "14cae5232091ee23c11cb5c248c93913", "is_disabled": 0, "is_reserved": 0, "lat": 38.89561, "name": "14cae5232091ee23c11cb5c248c93913", "rental_uris": {"ios": "https://dc.lft.to/lastmile_qr_scan", "android": "https://dc.lft.to/lastmile_qr_scan"}, "type": "electric_scooter", "fusion_lat": 0.0, "lon": -76.930616}, {"fusion_lon": 0.0, "bike_id": "563ab3d0cd12abb8f3bdd024b7e8a879", "is_disabled": 0, "is_reserved": 0, "lat": 38.885129666666664, "name": "563ab3d0cd12abb8f3bdd024b7e8a879", "rental_uris": {"ios": "https://dc.lft.to/lastmile_qr_scan", "android": "https://dc.lft.to/lastmile_qr_scan"}, "type": "electric_scooter", "fusion_lat": 0.0, "lon": -77.00223616666666}, {"fusion_lon": 0.0, "bike_id": "93c80dcfd5e9112776d6c1b771a71387", "is_disabled": 0, "is_reserved": 0, "lat": 38.90210916666667, "name": "93c80dcfd5e9112776d6c1b771a71387", "rental_uris": {"ios": "https://dc.lft.to/lastmile_qr_scan", "android": "https://dc.lft.to/lastmile_qr_scan"}, "type": "electric_scooter", "fusion_lat": 0.0, "lon": -77.05033516666667}, {"fusion_lon": 0.0, "bike_id": "8cb4fbc52a7978972f47731dd5347d00", "is_disabled": 0, "is_reserved": 0, "lat": 38.908962, "name": "8cb4fbc52a7978972f47731dd5347d00", "rental_uris": {"ios": "https://dc.lft.to/lastmile_qr_scan", "android": "https://dc.lft.to/lastmile_qr_scan"}, "type": "electric_scooter", "fusion_lat": 0.0, "lon": -77.031429}, {"fusion_lon": 0.0, "bike_id": "afdfa3ce58f03c3c97da8b81b0900053", "is_disabled": 0, "is_reserved": 0, "lat": 38.903570333333334, "name": "afdfa3ce58f03c3c97da8b81b0900053", "rental_uris": {"ios": "https://dc.lft.to/lastmile_qr_scan", "android": "https://dc.lft.to/lastmile_qr_scan"}, "type": "electric_scooter", "fusion_lat": 0.0, "lon": -77.02186933333333}, {"fusion_lon": 0.0, "bike_id": "ab619c38de83a1a4eabd2f02a02e827b", "is_disabled": 0, "is_reserved": 0, "lat": 38.905705833333336, "name": "ab619c38de83a1a4eabd2f02a02e827b", "rental_uris": {"ios": "https://dc.lft.to/lastmile_qr_scan", "android": "https://dc.lft.to/lastmile_qr_scan"}, "type": "electric_scooter", "fusion_lat": 0.0, "lon": -77.00597066666667}, {"fusion_lon": 0.0, "bike_id": "b069b4af4dc138920e91ecebdbb9943c", "is_disabled": 0, "is_reserved": 0, "lat": 38.91692283333333, "name": "b069b4af4dc138920e91ecebdbb9943c", "rental_uris": {"ios": "https://dc.lft.to/lastmile_qr_scan", "android": "https://dc.lft.to/lastmile_qr_scan"}, "type": "electric_scooter", "fusion_lat": 0.0, "lon": -77.0175525}, {"fusion_lon": 0.0, "bike_id": "5cab1cfefd946f7b5660633bcf9ecd29", "is_disabled": 0, "is_reserved": 0, "lat": 38.930751666666666, "name": "5cab1cfefd946f7b5660633bcf9ecd29", "rental_uris": {"ios": "https://dc.lft.to/lastmile_qr_scan", "android": "https://dc.lft.to/lastmile_qr_scan"}, "type": "electric_scooter", "fusion_lat": 0.0, "lon": -77.0216555}, {"fusion_lon": 0.0, "bike_id": "e845eb0fe4806e94a246b3987b0a413f", "is_disabled": 0, "is_reserved": 0, "lat": 38.92242066666667, "name": "e845eb0fe4806e94a246b3987b0a413f", "rental_uris": {"ios": "https://dc.lft.to/lastmile_qr_scan", "android": "https://dc.lft.to/lastmile_qr_scan"}, "type": "electric_scooter", "fusion_lat": 0.0, "lon": -77.02819683333334}, {"fusion_lon": 0.0, "bike_id": "faec3fee11202d233a9edd398293fc69", "is_disabled": 0, "is_reserved": 0, "lat": 38.92102716666667, "name": "faec3fee11202d233a9edd398293fc69", "rental_uris": {"ios": "https://dc.lft.to/lastmile_qr_scan", "android": "https://dc.lft.to/lastmile_qr_scan"}, "type": "electric_scooter", "fusion_lat": 0.0, "lon": -77.08194366666666}, {"fusion_lon": 0.0, "bike_id": "6256b52de6db4dbc8c5693e466024b19", "is_disabled": 0, "is_reserved": 0, "lat": 38.89619833333333, "name": "6256b52de6db4dbc8c5693e466024b19", "rental_uris": {"ios": "https://dc.lft.to/lastmile_qr_scan", "android": "https://dc.lft.to/lastmile_qr_scan"}, "type": "electric_scooter", "fusion_lat": 0.0, "lon": -77.02210183333334}, {"fusion_lon": 0.0, "bike_id": "55abf7b581fd8d93bbe715416596bcc6", "is_disabled": 0, "is_reserved": 0, "lat": 38.91017316666667, "name": "55abf7b581fd8d93bbe715416596bcc6", "rental_uris": {"ios": "https://dc.lft.to/lastmile_qr_scan", "android": "https://dc.lft.to/lastmile_qr_scan"}, "type": "electric_scooter", "fusion_lat": 0.0, "lon": -77.05277616666666}, {"fusion_lon": 0.0, "bike_id": "2135c99c29e3f282a03e56bb59bc031b", "is_disabled": 0, "is_reserved": 0, "lat": 38.91326166666666, "name": "2135c99c29e3f282a03e56bb59bc031b", "rental_uris": {"ios": "https://dc.lft.to/lastmile_qr_scan", "android": "https://dc.lft.to/lastmile_qr_scan"}, "type": "electric_scooter", "fusion_lat": 0.0, "lon": -77.01469633333333}, {"fusion_lon": 0.0, "bike_id": "f4b30713d87809d19801f81c15f2f455", "is_disabled": 0, "is_reserved": 0, "lat": 38.905009666666665, "name": "f4b30713d87809d19801f81c15f2f455", "rental_uris": {"ios": "https://dc.lft.to/lastmile_qr_scan", "android": "https://dc.lft.to/lastmile_qr_scan"}, "type": "electric_scooter", "fusion_lat": 0.0, "lon": -77.02000466666667}, {"fusion_lon": 0.0, "bike_id": "a8718915897ae2db7a6cb6ac65f6745c", "is_disabled": 0, "is_reserved": 0, "lat": 38.909728333333334, "name": "a8718915897ae2db7a6cb6ac65f6745c", "rental_uris": {"ios": "https://dc.lft.to/lastmile_qr_scan", "android": "https://dc.lft.to/lastmile_qr_scan"}, "type": "electric_scooter", "fusion_lat": 0.0, "lon": -77.04876283333333}, {"fusion_lon": 0.0, "bike_id": "a182225562f5c0672f68f6c05fe35f15", "is_disabled": 0, "is_reserved": 0, "lat": 38.90487533333334, "name": "a182225562f5c0672f68f6c05fe35f15", "rental_uris": {"ios": "https://dc.lft.to/lastmile_qr_scan", "android": "https://dc.lft.to/lastmile_qr_scan"}, "type": "electric_scooter", "fusion_lat": 0.0, "lon": -77.06014416666666}, {"fusion_lon": 0.0, "bike_id": "b3fbc83604c13bf655165e8253a2a15f", "is_disabled": 0, "is_reserved": 0, "lat": 38.911919166666664, "name": "b3fbc83604c13bf655165e8253a2a15f", "rental_uris": {"ios": "https://dc.lft.to/lastmile_qr_scan", "android": "https://dc.lft.to/lastmile_qr_scan"}, "type": "electric_scooter", "fusion_lat": 0.0, "lon": -77.00784816666666}, {"fusion_lon": 0.0, "bike_id": "e7cbf14d1611778426df90a43db8b38a", "is_disabled": 0, "is_reserved": 0, "lat": 38.9248255, "name": "e7cbf14d1611778426df90a43db8b38a", "rental_uris": {"ios": "https://dc.lft.to/lastmile_qr_scan", "android": "https://dc.lft.to/lastmile_qr_scan"}, "type": "electric_scooter", "fusion_lat": 0.0, "lon": -77.03505666666666}, {"fusion_lon": 0.0, "bike_id": "08b6d929c08fd9efc54f91d15a33590f", "is_disabled": 0, "is_reserved": 0, "lat": 38.8987685, "name": "08b6d929c08fd9efc54f91d15a33590f", "rental_uris": {"ios": "https://dc.lft.to/lastmile_qr_scan", "android": "https://dc.lft.to/lastmile_qr_scan"}, "type": "electric_scooter", "fusion_lat": 0.0, "lon": -77.02599016666667}, {"fusion_lon": 0.0, "bike_id": "bde7e4de6c8a2cffd3e81f12f99f93fe", "is_disabled": 0, "is_reserved": 0, "lat": 38.915901166666664, "name": "bde7e4de6c8a2cffd3e81f12f99f93fe", "rental_uris": {"ios": "https://dc.lft.to/lastmile_qr_scan", "android": "https://dc.lft.to/lastmile_qr_scan"}, "type": "electric_scooter", "fusion_lat": 0.0, "lon": -77.011306}, {"fusion_lon": 0.0, "bike_id": "b9e988f50aa326a198b6e37728a20057", "is_disabled": 0, "is_reserved": 0, "lat": 38.92825116666667, "name": "b9e988f50aa326a198b6e37728a20057", "rental_uris": {"ios": "https://dc.lft.to/lastmile_qr_scan", "android": "https://dc.lft.to/lastmile_qr_scan"}, "type": "electric_scooter", "fusion_lat": 0.0, "lon": -77.0215705}, {"fusion_lon": 0.0, "bike_id": "e76093a523f858badf905519a97efb62", "is_disabled": 0, "is_reserved": 0, "lat": 38.92725933333333, "name": "e76093a523f858badf905519a97efb62", "rental_uris": {"ios": "https://dc.lft.to/lastmile_qr_scan", "android": "https://dc.lft.to/lastmile_qr_scan"}, "type": "electric_scooter", "fusion_lat": 0.0, "lon": -77.02283883333334}, {"fusion_lon": 0.0, "bike_id": "41808689a210f2369492ee5ba3ca602d", "is_disabled": 0, "is_reserved": 0, "lat": 38.9420505, "name": "41808689a210f2369492ee5ba3ca602d", "rental_uris": {"ios": "https://dc.lft.to/lastmile_qr_scan", "android": "https://dc.lft.to/lastmile_qr_scan"}, "type": "electric_scooter", "fusion_lat": 0.0, "lon": -77.02506283333334}, {"fusion_lon": 0.0, "bike_id": "955cf8f8f9232097404d88437ce8a785", "is_disabled": 0, "is_reserved": 0, "lat": 38.9397105, "name": "955cf8f8f9232097404d88437ce8a785", "rental_uris": {"ios": "https://dc.lft.to/lastmile_qr_scan", "android": "https://dc.lft.to/lastmile_qr_scan"}, "type": "electric_scooter", "fusion_lat": 0.0, "lon": -77.02942083333333}, {"fusion_lon": 0.0, "bike_id": "c51148e26b30cd64686c6bc508124004", "is_disabled": 0, "is_reserved": 0, "lat": 38.88611866666667, "name": "c51148e26b30cd64686c6bc508124004", "rental_uris": {"ios": "https://dc.lft.to/lastmile_qr_scan", "android": "https://dc.lft.to/lastmile_qr_scan"}, "type": "electric_scooter", "fusion_lat": 0.0, "lon": -77.02181816666666}, {"fusion_lon": 0.0, "bike_id": "cc89129cf0c9564dac23f55eebb129fe", "is_disabled": 0, "is_reserved": 0, "lat": 38.8729065, "name": "cc89129cf0c9564dac23f55eebb129fe", "rental_uris": {"ios": "https://dc.lft.to/lastmile_qr_scan", "android": "https://dc.lft.to/lastmile_qr_scan"}, "type": "electric_scooter", "fusion_lat": 0.0, "lon": -77.00986416666667}, {"fusion_lon": 0.0, "bike_id": "3a367d87c3fc9f0b6acb838170a358c3", "is_disabled": 0, "is_reserved": 0, "lat": 38.880069, "name": "3a367d87c3fc9f0b6acb838170a358c3", "rental_uris": {"ios": "https://dc.lft.to/lastmile_qr_scan", "android": "https://dc.lft.to/lastmile_qr_scan"}, "type": "electric_scooter", "fusion_lat": 0.0, "lon": -76.9983405}, {"fusion_lon": 0.0, "bike_id": "f38e09b1c13ef7d5d22aa69d151f8bf4", "is_disabled": 0, "is_reserved": 0, "lat": 38.89333033333333, "name": "f38e09b1c13ef7d5d22aa69d151f8bf4", "rental_uris": {"ios": "https://dc.lft.to/lastmile_qr_scan", "android": "https://dc.lft.to/lastmile_qr_scan"}, "type": "electric_scooter", "fusion_lat": 0.0, "lon": -76.99383116666667}, {"fusion_lon": 0.0, "bike_id": "65b7e5d31ea24ec6249785046521c30d", "is_disabled": 0, "is_reserved": 0, "lat": 38.89933933333333, "name": "65b7e5d31ea24ec6249785046521c30d", "rental_uris": {"ios": "https://dc.lft.to/lastmile_qr_scan", "android": "https://dc.lft.to/lastmile_qr_scan"}, "type": "electric_scooter", "fusion_lat": 0.0, "lon": -76.937665}, {"fusion_lon": 0.0, "bike_id": "baf43d1c6939938eaa20c2216e04cf4e", "is_disabled": 0, "is_reserved": 0, "lat": 39.034718166666664, "name": "baf43d1c6939938eaa20c2216e04cf4e", "rental_uris": {"ios": "https://dc.lft.to/lastmile_qr_scan", "android": "https://dc.lft.to/lastmile_qr_scan"}, "type": "electric_bike", "fusion_lat": 0.0, "lon": -77.041022}, {"fusion_lon": 0.0, "bike_id": "3f3de74f5ff544df17237d12607a83e0", "is_disabled": 0, "is_reserved": 0, "lat": 38.932056333333335, "name": "3f3de74f5ff544df17237d12607a83e0", "rental_uris": {"ios": "https://dc.lft.to/lastmile_qr_scan", "android": "https://dc.lft.to/lastmile_qr_scan"}, "type": "electric_scooter", "fusion_lat": 0.0, "lon": -77.02663366666667}, {"fusion_lon": 0.0, "bike_id": "5edfb41e68e4fb21da690ac57b69fcd3", "is_disabled": 0, "is_reserved": 0, "lat": 38.902150166666665, "name": "5edfb41e68e4fb21da690ac57b69fcd3", "rental_uris": {"ios": "https://dc.lft.to/lastmile_qr_scan", "android": "https://dc.lft.to/lastmile_qr_scan"}, "type": "electric_scooter", "fusion_lat": 0.0, "lon": -77.05118516666667}, {"fusion_lon": 0.0, "bike_id": "8e12592af6840084d396132f0d991fb3", "is_disabled": 0, "is_reserved": 0, "lat": 38.925739166666666, "name": "8e12592af6840084d396132f0d991fb3", "rental_uris": {"ios": "https://dc.lft.to/lastmile_qr_scan", "android": "https://dc.lft.to/lastmile_qr_scan"}, "type": "electric_scooter", "fusion_lat": 0.0, "lon": -77.0378995}, {"fusion_lon": 0.0, "bike_id": "5b6d71d88b3e6a3a445cb5b4a14cc439", "is_disabled": 0, "is_reserved": 0, "lat": 38.923165, "name": "5b6d71d88b3e6a3a445cb5b4a14cc439", "rental_uris": {"ios": "https://dc.lft.to/lastmile_qr_scan", "android": "https://dc.lft.to/lastmile_qr_scan"}, "type": "electric_scooter", "fusion_lat": 0.0, "lon": -77.02905466666667}, {"fusion_lon": 0.0, "bike_id": "5da4377df50a218f3849be1819b8b58f", "is_disabled": 0, "is_reserved": 0, "lat": 38.93090016666667, "name": "5da4377df50a218f3849be1819b8b58f", "rental_uris": {"ios": "https://dc.lft.to/lastmile_qr_scan", "android": "https://dc.lft.to/lastmile_qr_scan"}, "type": "electric_scooter", "fusion_lat": 0.0, "lon": -77.02548466666667}, {"fusion_lon": 0.0, "bike_id": "bf81d2406baa30b8865670d9ed6cd989", "is_disabled": 0, "is_reserved": 0, "lat": 38.901859333333334, "name": "bf81d2406baa30b8865670d9ed6cd989", "rental_uris": {"ios": "https://dc.lft.to/lastmile_qr_scan", "android": "https://dc.lft.to/lastmile_qr_scan"}, "type": "electric_scooter", "fusion_lat": 0.0, "lon": -76.976716}, {"fusion_lon": 0.0, "bike_id": "267a5ced805bb5e25bcc3fbb61c49328", "is_disabled": 0, "is_reserved": 0, "lat": 38.93340333333333, "name": "267a5ced805bb5e25bcc3fbb61c49328", "rental_uris": {"ios": "https://dc.lft.to/lastmile_qr_scan", "android": "https://dc.lft.to/lastmile_qr_scan"}, "type": "electric_scooter", "fusion_lat": 0.0, "lon": -77.05710866666666}, {"fusion_lon": 0.0, "bike_id": "2866eb25a1cc1df312fc5a4270c6c1a3", "is_disabled": 0, "is_reserved": 0, "lat": 38.914297833333336, "name": "2866eb25a1cc1df312fc5a4270c6c1a3", "rental_uris": {"ios": "https://dc.lft.to/lastmile_qr_scan", "android": "https://dc.lft.to/lastmile_qr_scan"}, "type": "electric_scooter", "fusion_lat": 0.0, "lon": -77.03208333333333}, {"fusion_lon": 0.0, "bike_id": "7b56f96f1b5a5d9fb932967673f25289", "is_disabled": 0, "is_reserved": 0, "lat": 38.9236905, "name": "7b56f96f1b5a5d9fb932967673f25289", "rental_uris": {"ios": "https://dc.lft.to/lastmile_qr_scan", "android": "https://dc.lft.to/lastmile_qr_scan"}, "type": "electric_scooter", "fusion_lat": 0.0, "lon": -77.02138566666666}, {"fusion_lon": 0.0, "bike_id": "0186af70fbf02ca595669183dcb6c749", "is_disabled": 0, "is_reserved": 0, "lat": 38.91267833333333, "name": "0186af70fbf02ca595669183dcb6c749", "rental_uris": {"ios": "https://dc.lft.to/lastmile_qr_scan", "android": "https://dc.lft.to/lastmile_qr_scan"}, "type": "electric_scooter", "fusion_lat": 0.0, "lon": -77.02229266666667}, {"fusion_lon": 0.0, "bike_id": "c124b60a18f18677aaf58165e0b3a677", "is_disabled": 0, "is_reserved": 0, "lat": 38.92739916666667, "name": "c124b60a18f18677aaf58165e0b3a677", "rental_uris": {"ios": "https://dc.lft.to/lastmile_qr_scan", "android": "https://dc.lft.to/lastmile_qr_scan"}, "type": "electric_scooter", "fusion_lat": 0.0, "lon": -77.03565466666667}, {"fusion_lon": 0.0, "bike_id": "83a9ec4e22b4783edbef0a1fb81e6d1a", "is_disabled": 0, "is_reserved": 0, "lat": 38.895118333333336, "name": "83a9ec4e22b4783edbef0a1fb81e6d1a", "rental_uris": {"ios": "https://dc.lft.to/lastmile_qr_scan", "android": "https://dc.lft.to/lastmile_qr_scan"}, "type": "electric_scooter", "fusion_lat": 0.0, "lon": -76.94892916666667}, {"fusion_lon": 0.0, "bike_id": "2d7fa57693c2aabf1de31dc4a47eecb4", "is_disabled": 0, "is_reserved": 0, "lat": 38.9057545, "name": "2d7fa57693c2aabf1de31dc4a47eecb4", "rental_uris": {"ios": "https://dc.lft.to/lastmile_qr_scan", "android": "https://dc.lft.to/lastmile_qr_scan"}, "type": "electric_scooter", "fusion_lat": 0.0, "lon": -77.02996583333334}, {"fusion_lon": 0.0, "bike_id": "ee0f0f0a009bf259fd9836897e24aee8", "is_disabled": 0, "is_reserved": 0, "lat": 38.924694833333334, "name": "ee0f0f0a009bf259fd9836897e24aee8", "rental_uris": {"ios": "https://dc.lft.to/lastmile_qr_scan", "android": "https://dc.lft.to/lastmile_qr_scan"}, "type": "electric_scooter", "fusion_lat": 0.0, "lon": -77.03056816666667}, {"fusion_lon": 0.0, "bike_id": "045616cbfe8782f18b14f31e74ebd07c", "is_disabled": 0, "is_reserved": 0, "lat": 38.949783333333336, "name": "045616cbfe8782f18b14f31e74ebd07c", "rental_uris": {"ios": "https://dc.lft.to/lastmile_qr_scan", "android": "https://dc.lft.to/lastmile_qr_scan"}, "type": "electric_scooter", "fusion_lat": 0.0, "lon": -77.02447383333333}, {"fusion_lon": 0.0, "bike_id": "0804a1cd7a70e6a36713e8204e205c86", "is_disabled": 0, "is_reserved": 0, "lat": 38.89731416666667, "name": "0804a1cd7a70e6a36713e8204e205c86", "rental_uris": {"ios": "https://dc.lft.to/lastmile_qr_scan", "android": "https://dc.lft.to/lastmile_qr_scan"}, "type": "electric_scooter", "fusion_lat": 0.0, "lon": -76.92585183333334}, {"fusion_lon": 0.0, "bike_id": "9b35354ff46775e3af957f6acc8cd096", "is_disabled": 0, "is_reserved": 0, "lat": 38.903907, "name": "9b35354ff46775e3af957f6acc8cd096", "rental_uris": {"ios": "https://dc.lft.to/lastmile_qr_scan", "android": "https://dc.lft.to/lastmile_qr_scan"}, "type": "electric_scooter", "fusion_lat": 0.0, "lon": -77.0424655}, {"fusion_lon": 0.0, "bike_id": "fef32cf47cb06ae9466e84a624ded3b1", "is_disabled": 0, "is_reserved": 0, "lat": 38.91818466666667, "name": "fef32cf47cb06ae9466e84a624ded3b1", "rental_uris": {"ios": "https://dc.lft.to/lastmile_qr_scan", "android": "https://dc.lft.to/lastmile_qr_scan"}, "type": "electric_scooter", "fusion_lat": 0.0, "lon": -77.02531166666667}, {"fusion_lon": 0.0, "bike_id": "5f89012af4c810977e10aec556746b9e", "is_disabled": 0, "is_reserved": 0, "lat": 38.914333166666665, "name": "5f89012af4c810977e10aec556746b9e", "rental_uris": {"ios": "https://dc.lft.to/lastmile_qr_scan", "android": "https://dc.lft.to/lastmile_qr_scan"}, "type": "electric_scooter", "fusion_lat": 0.0, "lon": -77.0668975}, {"fusion_lon": 0.0, "bike_id": "a36a376f11af665afaf7d6347d34d04e", "is_disabled": 0, "is_reserved": 0, "lat": 38.91464583333333, "name": "a36a376f11af665afaf7d6347d34d04e", "rental_uris": {"ios": "https://dc.lft.to/lastmile_qr_scan", "android": "https://dc.lft.to/lastmile_qr_scan"}, "type": "electric_scooter", "fusion_lat": 0.0, "lon": -77.00209966666667}, {"fusion_lon": 0.0, "bike_id": "97f9f02aea4eacaa9fe0bcf32e3fd196", "is_disabled": 0, "is_reserved": 0, "lat": 38.91872433333333, "name": "97f9f02aea4eacaa9fe0bcf32e3fd196", "rental_uris": {"ios": "https://dc.lft.to/lastmile_qr_scan", "android": "https://dc.lft.to/lastmile_qr_scan"}, "type": "electric_scooter", "fusion_lat": 0.0, "lon": -77.03732016666666}, {"fusion_lon": 0.0, "bike_id": "5437cffd9b5d7360e95a2c69563c0d4b", "is_disabled": 0, "is_reserved": 0, "lat": 38.92249, "name": "5437cffd9b5d7360e95a2c69563c0d4b", "rental_uris": {"ios": "https://dc.lft.to/lastmile_qr_scan", "android": "https://dc.lft.to/lastmile_qr_scan"}, "type": "electric_scooter", "fusion_lat": 0.0, "lon": -77.03082416666666}, {"fusion_lon": 0.0, "bike_id": "1a0124002d152b651012ba53a0574d56", "is_disabled": 0, "is_reserved": 0, "lat": 38.917041833333336, "name": "1a0124002d152b651012ba53a0574d56", "rental_uris": {"ios": "https://dc.lft.to/lastmile_qr_scan", "android": "https://dc.lft.to/lastmile_qr_scan"}, "type": "electric_scooter", "fusion_lat": 0.0, "lon": -77.01107216666666}, {"fusion_lon": 0.0, "bike_id": "94775849764cd673ec19718c4dcfda6f", "is_disabled": 0, "is_reserved": 0, "lat": 38.927407333333335, "name": "94775849764cd673ec19718c4dcfda6f", "rental_uris": {"ios": "https://dc.lft.to/lastmile_qr_scan", "android": "https://dc.lft.to/lastmile_qr_scan"}, "type": "electric_scooter", "fusion_lat": 0.0, "lon": -77.03562433333333}, {"fusion_lon": 0.0, "bike_id": "855b02f80dc2d1ffc7d1f0fcb98c43e6", "is_disabled": 0, "is_reserved": 0, "lat": 38.99499616666667, "name": "855b02f80dc2d1ffc7d1f0fcb98c43e6", "rental_uris": {"ios": "https://dc.lft.to/lastmile_qr_scan", "android": "https://dc.lft.to/lastmile_qr_scan"}, "type": "electric_bike", "fusion_lat": 0.0, "lon": -77.001347}, {"fusion_lon": 0.0, "bike_id": "e16c3631589ea1558dcf77adb5db0bef", "is_disabled": 0, "is_reserved": 0, "lat": 38.9520615, "name": "e16c3631589ea1558dcf77adb5db0bef", "rental_uris": {"ios": "https://dc.lft.to/lastmile_qr_scan", "android": "https://dc.lft.to/lastmile_qr_scan"}, "type": "electric_bike", "fusion_lat": 0.0, "lon": -77.06789633333334}, {"fusion_lon": 0.0, "bike_id": "3b43435a280726628ecdad3545329805", "is_disabled": 0, "is_reserved": 0, "lat": 38.922114, "name": "3b43435a280726628ecdad3545329805", "rental_uris": {"ios": "https://dc.lft.to/lastmile_qr_scan", "android": "https://dc.lft.to/lastmile_qr_scan"}, "type": "electric_scooter", "fusion_lat": 0.0, "lon": -77.01824533333334}, {"fusion_lon": 0.0, "bike_id": "d4ad0a6421c99d044e4d21c74ef10520", "is_disabled": 0, "is_reserved": 0, "lat": 38.92967766666666, "name": "d4ad0a6421c99d044e4d21c74ef10520", "rental_uris": {"ios": "https://dc.lft.to/lastmile_qr_scan", "android": "https://dc.lft.to/lastmile_qr_scan"}, "type": "electric_scooter", "fusion_lat": 0.0, "lon": -77.03151633333333}, {"fusion_lon": 0.0, "bike_id": "62a5c00473bef1c51c9859bf5714621b", "is_disabled": 0, "is_reserved": 0, "lat": 38.92059783333333, "name": "62a5c00473bef1c51c9859bf5714621b", "rental_uris": {"ios": "https://dc.lft.to/lastmile_qr_scan", "android": "https://dc.lft.to/lastmile_qr_scan"}, "type": "electric_scooter", "fusion_lat": 0.0, "lon": -77.04198566666666}, {"fusion_lon": 0.0, "bike_id": "0719faf719a85f42a8cd328f03760ecd", "is_disabled": 0, "is_reserved": 0, "lat": 38.89509233333333, "name": "0719faf719a85f42a8cd328f03760ecd", "rental_uris": {"ios": "https://dc.lft.to/lastmile_qr_scan", "android": "https://dc.lft.to/lastmile_qr_scan"}, "type": "electric_scooter", "fusion_lat": 0.0, "lon": -76.94890516666666}, {"fusion_lon": 0.0, "bike_id": "5d37473e3fff4741ed0d82cf252dfdfd", "is_disabled": 0, "is_reserved": 0, "lat": 38.8754725, "name": "5d37473e3fff4741ed0d82cf252dfdfd", "rental_uris": {"ios": "https://dc.lft.to/lastmile_qr_scan", "android": "https://dc.lft.to/lastmile_qr_scan"}, "type": "electric_scooter", "fusion_lat": 0.0, "lon": -77.0053785}, {"fusion_lon": 0.0, "bike_id": "7412aeb4e01363b97b94b9ce2fc20780", "is_disabled": 0, "is_reserved": 0, "lat": 38.918177666666665, "name": "7412aeb4e01363b97b94b9ce2fc20780", "rental_uris": {"ios": "https://dc.lft.to/lastmile_qr_scan", "android": "https://dc.lft.to/lastmile_qr_scan"}, "type": "electric_scooter", "fusion_lat": 0.0, "lon": -77.02930133333334}, {"fusion_lon": 0.0, "bike_id": "d984ffaecae4c87bdf8773562aac02b1", "is_disabled": 0, "is_reserved": 0, "lat": 38.913548, "name": "d984ffaecae4c87bdf8773562aac02b1", "rental_uris": {"ios": "https://dc.lft.to/lastmile_qr_scan", "android": "https://dc.lft.to/lastmile_qr_scan"}, "type": "electric_scooter", "fusion_lat": 0.0, "lon": -76.97140983333334}, {"fusion_lon": 0.0, "bike_id": "860b745c62fc2252bda60fc6f574a53d", "is_disabled": 0, "is_reserved": 0, "lat": 38.9170695, "name": "860b745c62fc2252bda60fc6f574a53d", "rental_uris": {"ios": "https://dc.lft.to/lastmile_qr_scan", "android": "https://dc.lft.to/lastmile_qr_scan"}, "type": "electric_scooter", "fusion_lat": 0.0, "lon": -77.01038933333334}, {"fusion_lon": 0.0, "bike_id": "07e29c7b482f19e4831744cfbb7c3022", "is_disabled": 0, "is_reserved": 0, "lat": 38.92053216666667, "name": "07e29c7b482f19e4831744cfbb7c3022", "rental_uris": {"ios": "https://dc.lft.to/lastmile_qr_scan", "android": "https://dc.lft.to/lastmile_qr_scan"}, "type": "electric_scooter", "fusion_lat": 0.0, "lon": -77.04189216666667}, {"fusion_lon": 0.0, "bike_id": "1c12eecaffb2432dfb0521ca045eefc9", "is_disabled": 0, "is_reserved": 0, "lat": 38.87792733333333, "name": "1c12eecaffb2432dfb0521ca045eefc9", "rental_uris": {"ios": "https://dc.lft.to/lastmile_qr_scan", "android": "https://dc.lft.to/lastmile_qr_scan"}, "type": "electric_scooter", "fusion_lat": 0.0, "lon": -77.001253}, {"fusion_lon": 0.0, "bike_id": "9d43c2ae5e4b5a0122f86b93f106ea6c", "is_disabled": 0, "is_reserved": 0, "lat": 38.92459233333334, "name": "9d43c2ae5e4b5a0122f86b93f106ea6c", "rental_uris": {"ios": "https://dc.lft.to/lastmile_qr_scan", "android": "https://dc.lft.to/lastmile_qr_scan"}, "type": "electric_scooter", "fusion_lat": 0.0, "lon": -77.03289116666667}, {"fusion_lon": 0.0, "bike_id": "923406efda59ce68953c1eab364db84c", "is_disabled": 0, "is_reserved": 0, "lat": 38.906072, "name": "923406efda59ce68953c1eab364db84c", "rental_uris": {"ios": "https://dc.lft.to/lastmile_qr_scan", "android": "https://dc.lft.to/lastmile_qr_scan"}, "type": "electric_scooter", "fusion_lat": 0.0, "lon": -77.05642}, {"fusion_lon": 0.0, "bike_id": "39f2eafaeb0b320cfa6eda3bcfdfa17e", "is_disabled": 0, "is_reserved": 0, "lat": 38.91478633333333, "name": "39f2eafaeb0b320cfa6eda3bcfdfa17e", "rental_uris": {"ios": "https://dc.lft.to/lastmile_qr_scan", "android": "https://dc.lft.to/lastmile_qr_scan"}, "type": "electric_scooter", "fusion_lat": 0.0, "lon": -77.03659516666667}, {"fusion_lon": 0.0, "bike_id": "9fe0c933dc79caaa4a303ecf7c2cacbd", "is_disabled": 0, "is_reserved": 0, "lat": 38.911895333333334, "name": "9fe0c933dc79caaa4a303ecf7c2cacbd", "rental_uris": {"ios": "https://dc.lft.to/lastmile_qr_scan", "android": "https://dc.lft.to/lastmile_qr_scan"}, "type": "electric_scooter", "fusion_lat": 0.0, "lon": -77.040488}, {"fusion_lon": 0.0, "bike_id": "6d6026d93e23c911da9976b44dd2aa65", "is_disabled": 0, "is_reserved": 0, "lat": 38.924203, "name": "6d6026d93e23c911da9976b44dd2aa65", "rental_uris": {"ios": "https://dc.lft.to/lastmile_qr_scan", "android": "https://dc.lft.to/lastmile_qr_scan"}, "type": "electric_scooter", "fusion_lat": 0.0, "lon": -77.0201305}, {"fusion_lon": 0.0, "bike_id": "e440b5341aab8a5ef97ed92321502c44", "is_disabled": 0, "is_reserved": 0, "lat": 38.8974925, "name": "e440b5341aab8a5ef97ed92321502c44", "rental_uris": {"ios": "https://dc.lft.to/lastmile_qr_scan", "android": "https://dc.lft.to/lastmile_qr_scan"}, "type": "electric_scooter", "fusion_lat": 0.0, "lon": -77.026858}, {"fusion_lon": 0.0, "bike_id": "8f2184372347b3c97ee0a39ccaabeef1", "is_disabled": 0, "is_reserved": 0, "lat": 38.934138, "name": "8f2184372347b3c97ee0a39ccaabeef1", "rental_uris": {"ios": "https://dc.lft.to/lastmile_qr_scan", "android": "https://dc.lft.to/lastmile_qr_scan"}, "type": "electric_scooter", "fusion_lat": 0.0, "lon": -77.04548433333333}, {"fusion_lon": 0.0, "bike_id": "ca20e7a84e417554cba7e9bcdb8f9b1f", "is_disabled": 0, "is_reserved": 0, "lat": 38.90782733333333, "name": "ca20e7a84e417554cba7e9bcdb8f9b1f", "rental_uris": {"ios": "https://dc.lft.to/lastmile_qr_scan", "android": "https://dc.lft.to/lastmile_qr_scan"}, "type": "electric_scooter", "fusion_lat": 0.0, "lon": -76.99859416666666}, {"fusion_lon": 0.0, "bike_id": "e34d8a640a796a432a6e207bea12233d", "is_disabled": 0, "is_reserved": 0, "lat": 38.86937866666667, "name": "e34d8a640a796a432a6e207bea12233d", "rental_uris": {"ios": "https://dc.lft.to/lastmile_qr_scan", "android": "https://dc.lft.to/lastmile_qr_scan"}, "type": "electric_scooter", "fusion_lat": 0.0, "lon": -76.97741966666666}, {"fusion_lon": 0.0, "bike_id": "21f2fddd1546a56cb434670bbb1a0e93", "is_disabled": 0, "is_reserved": 0, "lat": 38.9216155, "name": "21f2fddd1546a56cb434670bbb1a0e93", "rental_uris": {"ios": "https://dc.lft.to/lastmile_qr_scan", "android": "https://dc.lft.to/lastmile_qr_scan"}, "type": "electric_scooter", "fusion_lat": 0.0, "lon": -77.043642}, {"fusion_lon": 0.0, "bike_id": "1180a54e2b1ac0184b64967290c08a1e", "is_disabled": 0, "is_reserved": 0, "lat": 38.917662, "name": "1180a54e2b1ac0184b64967290c08a1e", "rental_uris": {"ios": "https://dc.lft.to/lastmile_qr_scan", "android": "https://dc.lft.to/lastmile_qr_scan"}, "type": "electric_bike", "fusion_lat": 0.0, "lon": -76.88443166666667}, {"fusion_lon": 0.0, "bike_id": "74990c55bd62d49813e7d24f04d3e216", "is_disabled": 0, "is_reserved": 0, "lat": 38.91933566666667, "name": "74990c55bd62d49813e7d24f04d3e216", "rental_uris": {"ios": "https://dc.lft.to/lastmile_qr_scan", "android": "https://dc.lft.to/lastmile_qr_scan"}, "type": "electric_scooter", "fusion_lat": 0.0, "lon": -77.04618033333334}, {"fusion_lon": 0.0, "bike_id": "f231ba79f0d7a09d0baee76b2dfc222c", "is_disabled": 0, "is_reserved": 0, "lat": 38.885237833333335, "name": "f231ba79f0d7a09d0baee76b2dfc222c", "rental_uris": {"ios": "https://dc.lft.to/lastmile_qr_scan", "android": "https://dc.lft.to/lastmile_qr_scan"}, "type": "electric_scooter", "fusion_lat": 0.0, "lon": -76.97710483333333}, {"fusion_lon": 0.0, "bike_id": "2178a265903d41b0b24d38da56a2f19a", "is_disabled": 0, "is_reserved": 0, "lat": 38.922475166666665, "name": "2178a265903d41b0b24d38da56a2f19a", "rental_uris": {"ios": "https://dc.lft.to/lastmile_qr_scan", "android": "https://dc.lft.to/lastmile_qr_scan"}, "type": "electric_scooter", "fusion_lat": 0.0, "lon": -77.033855}, {"fusion_lon": 0.0, "bike_id": "122c7b1e3f06d9d2a5baa9449eb95741", "is_disabled": 0, "is_reserved": 0, "lat": 38.923321, "name": "122c7b1e3f06d9d2a5baa9449eb95741", "rental_uris": {"ios": "https://dc.lft.to/lastmile_qr_scan", "android": "https://dc.lft.to/lastmile_qr_scan"}, "type": "electric_scooter", "fusion_lat": 0.0, "lon": -77.008921}, {"fusion_lon": 0.0, "bike_id": "5b59f491138e95e65564541960e7a548", "is_disabled": 0, "is_reserved": 0, "lat": 38.879427166666666, "name": "5b59f491138e95e65564541960e7a548", "rental_uris": {"ios": "https://dc.lft.to/lastmile_qr_scan", "android": "https://dc.lft.to/lastmile_qr_scan"}, "type": "electric_scooter", "fusion_lat": 0.0, "lon": -77.01004233333333}, {"fusion_lon": 0.0, "bike_id": "99cf7906b16ae2f53fbaf61c73eb3246", "is_disabled": 0, "is_reserved": 0, "lat": 38.90681583333333, "name": "99cf7906b16ae2f53fbaf61c73eb3246", "rental_uris": {"ios": "https://dc.lft.to/lastmile_qr_scan", "android": "https://dc.lft.to/lastmile_qr_scan"}, "type": "electric_scooter", "fusion_lat": 0.0, "lon": -76.98004}, {"fusion_lon": 0.0, "bike_id": "74b7bc2d9fffa50e9a80829c21fee0bf", "is_disabled": 0, "is_reserved": 0, "lat": 38.89953766666667, "name": "74b7bc2d9fffa50e9a80829c21fee0bf", "rental_uris": {"ios": "https://dc.lft.to/lastmile_qr_scan", "android": "https://dc.lft.to/lastmile_qr_scan"}, "type": "electric_scooter", "fusion_lat": 0.0, "lon": -77.04485883333334}, {"fusion_lon": 0.0, "bike_id": "751602c681569ed800178668ca4b73e5", "is_disabled": 0, "is_reserved": 0, "lat": 38.940771166666664, "name": "751602c681569ed800178668ca4b73e5", "rental_uris": {"ios": "https://dc.lft.to/lastmile_qr_scan", "android": "https://dc.lft.to/lastmile_qr_scan"}, "type": "electric_scooter", "fusion_lat": 0.0, "lon": -77.02114366666666}, {"fusion_lon": 0.0, "bike_id": "8e6c5f9b9a092aa14d40d70c55a4a821", "is_disabled": 0, "is_reserved": 0, "lat": 38.87888266666667, "name": "8e6c5f9b9a092aa14d40d70c55a4a821", "rental_uris": {"ios": "https://dc.lft.to/lastmile_qr_scan", "android": "https://dc.lft.to/lastmile_qr_scan"}, "type": "electric_scooter", "fusion_lat": 0.0, "lon": -76.96542583333333}, {"fusion_lon": 0.0, "bike_id": "db890802e80f4dfa153a9800a691eec3", "is_disabled": 0, "is_reserved": 0, "lat": 38.87681333333333, "name": "db890802e80f4dfa153a9800a691eec3", "rental_uris": {"ios": "https://dc.lft.to/lastmile_qr_scan", "android": "https://dc.lft.to/lastmile_qr_scan"}, "type": "electric_scooter", "fusion_lat": 0.0, "lon": -77.00721866666666}, {"fusion_lon": 0.0, "bike_id": "903aca9381e684266aeb9a0f7acbf73c", "is_disabled": 0, "is_reserved": 0, "lat": 38.9185565, "name": "903aca9381e684266aeb9a0f7acbf73c", "rental_uris": {"ios": "https://dc.lft.to/lastmile_qr_scan", "android": "https://dc.lft.to/lastmile_qr_scan"}, "type": "electric_scooter", "fusion_lat": 0.0, "lon": -77.02543433333334}, {"fusion_lon": 0.0, "bike_id": "d54c4a80cca3cb8de631502e23d4c200", "is_disabled": 0, "is_reserved": 0, "lat": 38.90817083333334, "name": "d54c4a80cca3cb8de631502e23d4c200", "rental_uris": {"ios": "https://dc.lft.to/lastmile_qr_scan", "android": "https://dc.lft.to/lastmile_qr_scan"}, "type": "electric_scooter", "fusion_lat": 0.0, "lon": -77.02983366666666}, {"fusion_lon": 0.0, "bike_id": "83e804327d7149d162ad38b9bd06ccef", "is_disabled": 0, "is_reserved": 0, "lat": 38.999001, "name": "83e804327d7149d162ad38b9bd06ccef", "rental_uris": {"ios": "https://dc.lft.to/lastmile_qr_scan", "android": "https://dc.lft.to/lastmile_qr_scan"}, "type": "electric_bike", "fusion_lat": 0.0, "lon": -76.91073816666666}, {"fusion_lon": 0.0, "bike_id": "e863b4eade70e2104be7600a81c0b15c", "is_disabled": 0, "is_reserved": 0, "lat": 38.90835833333333, "name": "e863b4eade70e2104be7600a81c0b15c", "rental_uris": {"ios": "https://dc.lft.to/lastmile_qr_scan", "android": "https://dc.lft.to/lastmile_qr_scan"}, "type": "electric_scooter", "fusion_lat": 0.0, "lon": -76.99195416666667}, {"fusion_lon": 0.0, "bike_id": "60d5e4d531597fc2e9318bf5a300f90f", "is_disabled": 0, "is_reserved": 0, "lat": 38.921234, "name": "60d5e4d531597fc2e9318bf5a300f90f", "rental_uris": {"ios": "https://dc.lft.to/lastmile_qr_scan", "android": "https://dc.lft.to/lastmile_qr_scan"}, "type": "electric_scooter", "fusion_lat": 0.0, "lon": -77.01769366666667}, {"fusion_lon": 0.0, "bike_id": "5b6b75c2236bdf49aa7ea8eab88e47eb", "is_disabled": 0, "is_reserved": 0, "lat": 38.866251, "name": "5b6b75c2236bdf49aa7ea8eab88e47eb", "rental_uris": {"ios": "https://dc.lft.to/lastmile_qr_scan", "android": "https://dc.lft.to/lastmile_qr_scan"}, "type": "electric_bike", "fusion_lat": 0.0, "lon": -76.9456855}, {"fusion_lon": 0.0, "bike_id": "4c5af7e902039aebb64ad4f6ee2b96fc", "is_disabled": 0, "is_reserved": 0, "lat": 38.905074166666665, "name": "4c5af7e902039aebb64ad4f6ee2b96fc", "rental_uris": {"ios": "https://dc.lft.to/lastmile_qr_scan", "android": "https://dc.lft.to/lastmile_qr_scan"}, "type": "electric_scooter", "fusion_lat": 0.0, "lon": -77.0513175}, {"fusion_lon": 0.0, "bike_id": "3ce9af97af123f1a1c39c76a74bc70cf", "is_disabled": 0, "is_reserved": 0, "lat": 38.92417566666666, "name": "3ce9af97af123f1a1c39c76a74bc70cf", "rental_uris": {"ios": "https://dc.lft.to/lastmile_qr_scan", "android": "https://dc.lft.to/lastmile_qr_scan"}, "type": "electric_scooter", "fusion_lat": 0.0, "lon": -77.02128466666667}, {"fusion_lon": 0.0, "bike_id": "b18eb0de3c83bbbae94dbbdee243419d", "is_disabled": 0, "is_reserved": 0, "lat": 38.915441666666666, "name": "b18eb0de3c83bbbae94dbbdee243419d", "rental_uris": {"ios": "https://dc.lft.to/lastmile_qr_scan", "android": "https://dc.lft.to/lastmile_qr_scan"}, "type": "electric_scooter", "fusion_lat": 0.0, "lon": -77.07552766666667}, {"fusion_lon": 0.0, "bike_id": "4fb67aa0aebe18a706a41314243bfc4d", "is_disabled": 0, "is_reserved": 0, "lat": 38.88562983333333, "name": "4fb67aa0aebe18a706a41314243bfc4d", "rental_uris": {"ios": "https://dc.lft.to/lastmile_qr_scan", "android": "https://dc.lft.to/lastmile_qr_scan"}, "type": "electric_scooter", "fusion_lat": 0.0, "lon": -77.01985983333333}, {"fusion_lon": 0.0, "bike_id": "bce05d7f229840d7b154db12e4ea3a81", "is_disabled": 0, "is_reserved": 0, "lat": 38.91149083333333, "name": "bce05d7f229840d7b154db12e4ea3a81", "rental_uris": {"ios": "https://dc.lft.to/lastmile_qr_scan", "android": "https://dc.lft.to/lastmile_qr_scan"}, "type": "electric_scooter", "fusion_lat": 0.0, "lon": -76.987309}, {"fusion_lon": 0.0, "bike_id": "63dc9dc547fff90c53b56cfdbb13d9c3", "is_disabled": 0, "is_reserved": 0, "lat": 38.91191533333333, "name": "63dc9dc547fff90c53b56cfdbb13d9c3", "rental_uris": {"ios": "https://dc.lft.to/lastmile_qr_scan", "android": "https://dc.lft.to/lastmile_qr_scan"}, "type": "electric_scooter", "fusion_lat": 0.0, "lon": -77.06617216666666}, {"fusion_lon": 0.0, "bike_id": "68d0c950e8b371434df182f212f15e56", "is_disabled": 0, "is_reserved": 0, "lat": 38.94156516666666, "name": "68d0c950e8b371434df182f212f15e56", "rental_uris": {"ios": "https://dc.lft.to/lastmile_qr_scan", "android": "https://dc.lft.to/lastmile_qr_scan"}, "type": "electric_bike", "fusion_lat": 0.0, "lon": -77.00198016666667}, {"fusion_lon": 0.0, "bike_id": "d55bc1641b37ee1b404094ebdae49089", "is_disabled": 0, "is_reserved": 0, "lat": 38.9141935, "name": "d55bc1641b37ee1b404094ebdae49089", "rental_uris": {"ios": "https://dc.lft.to/lastmile_qr_scan", "android": "https://dc.lft.to/lastmile_qr_scan"}, "type": "electric_scooter", "fusion_lat": 0.0, "lon": -77.06690733333333}, {"fusion_lon": 0.0, "bike_id": "dfbf05d019a6d76fe0412b46a4a64131", "is_disabled": 0, "is_reserved": 0, "lat": 38.9147025, "name": "dfbf05d019a6d76fe0412b46a4a64131", "rental_uris": {"ios": "https://dc.lft.to/lastmile_qr_scan", "android": "https://dc.lft.to/lastmile_qr_scan"}, "type": "electric_scooter", "fusion_lat": 0.0, "lon": -77.03890183333333}, {"fusion_lon": 0.0, "bike_id": "8bf4d59d66be7a46b957eef0a8c22530", "is_disabled": 0, "is_reserved": 0, "lat": 38.921042666666665, "name": "8bf4d59d66be7a46b957eef0a8c22530", "rental_uris": {"ios": "https://dc.lft.to/lastmile_qr_scan", "android": "https://dc.lft.to/lastmile_qr_scan"}, "type": "electric_scooter", "fusion_lat": 0.0, "lon": -77.04695716666667}, {"fusion_lon": 0.0, "bike_id": "fc927b5632173edee8f29dcff87b6c09", "is_disabled": 0, "is_reserved": 0, "lat": 38.92491533333333, "name": "fc927b5632173edee8f29dcff87b6c09", "rental_uris": {"ios": "https://dc.lft.to/lastmile_qr_scan", "android": "https://dc.lft.to/lastmile_qr_scan"}, "type": "electric_scooter", "fusion_lat": 0.0, "lon": -77.03184583333334}, {"fusion_lon": 0.0, "bike_id": "d294f6bdcb2975b8a1c06cfd1fe2ed53", "is_disabled": 0, "is_reserved": 0, "lat": 38.956264833333336, "name": "d294f6bdcb2975b8a1c06cfd1fe2ed53", "rental_uris": {"ios": "https://dc.lft.to/lastmile_qr_scan", "android": "https://dc.lft.to/lastmile_qr_scan"}, "type": "electric_bike", "fusion_lat": 0.0, "lon": -76.93869483333333}, {"fusion_lon": 0.0, "bike_id": "892f4b402291b8f587cb6b6ab750f586", "is_disabled": 0, "is_reserved": 0, "lat": 38.9045405, "name": "892f4b402291b8f587cb6b6ab750f586", "rental_uris": {"ios": "https://dc.lft.to/lastmile_qr_scan", "android": "https://dc.lft.to/lastmile_qr_scan"}, "type": "electric_scooter", "fusion_lat": 0.0, "lon": -76.98253066666666}, {"fusion_lon": 0.0, "bike_id": "afa96877d683a71c29e875ddd2cb46dd", "is_disabled": 0, "is_reserved": 0, "lat": 38.925524833333334, "name": "afa96877d683a71c29e875ddd2cb46dd", "rental_uris": {"ios": "https://dc.lft.to/lastmile_qr_scan", "android": "https://dc.lft.to/lastmile_qr_scan"}, "type": "electric_scooter", "fusion_lat": 0.0, "lon": -77.05298816666667}, {"fusion_lon": 0.0, "bike_id": "8c32b7e8576050230f47ff811d3c6ec3", "is_disabled": 0, "is_reserved": 0, "lat": 38.897715833333336, "name": "8c32b7e8576050230f47ff811d3c6ec3", "rental_uris": {"ios": "https://dc.lft.to/lastmile_qr_scan", "android": "https://dc.lft.to/lastmile_qr_scan"}, "type": "electric_scooter", "fusion_lat": 0.0, "lon": -77.027194}, {"fusion_lon": 0.0, "bike_id": "dec878451f2f4e7770f975332e34f851", "is_disabled": 0, "is_reserved": 0, "lat": 38.913148166666666, "name": "dec878451f2f4e7770f975332e34f851", "rental_uris": {"ios": "https://dc.lft.to/lastmile_qr_scan", "android": "https://dc.lft.to/lastmile_qr_scan"}, "type": "electric_scooter", "fusion_lat": 0.0, "lon": -77.02859583333333}, {"fusion_lon": 0.0, "bike_id": "add7fae4b3b3375a258e13700e839909", "is_disabled": 0, "is_reserved": 0, "lat": 39.026244166666665, "name": "add7fae4b3b3375a258e13700e839909", "rental_uris": {"ios": "https://dc.lft.to/lastmile_qr_scan", "android": "https://dc.lft.to/lastmile_qr_scan"}, "type": "electric_bike", "fusion_lat": 0.0, "lon": -77.03878316666666}, {"fusion_lon": 0.0, "bike_id": "08697cd3d61ed70f87feaa55720a0f2d", "is_disabled": 0, "is_reserved": 0, "lat": 38.90726983333333, "name": "08697cd3d61ed70f87feaa55720a0f2d", "rental_uris": {"ios": "https://dc.lft.to/lastmile_qr_scan", "android": "https://dc.lft.to/lastmile_qr_scan"}, "type": "electric_scooter", "fusion_lat": 0.0, "lon": -77.00510616666666}, {"fusion_lon": 0.0, "bike_id": "31685ebec61b61ec06fe33c721a20a6b", "is_disabled": 0, "is_reserved": 0, "lat": 38.89926066666666, "name": "31685ebec61b61ec06fe33c721a20a6b", "rental_uris": {"ios": "https://dc.lft.to/lastmile_qr_scan", "android": "https://dc.lft.to/lastmile_qr_scan"}, "type": "electric_scooter", "fusion_lat": 0.0, "lon": -76.94580066666667}, {"fusion_lon": 0.0, "bike_id": "63b3c789e8055fe6169673dfa3e4b6d3", "is_disabled": 0, "is_reserved": 0, "lat": 38.857867, "name": "63b3c789e8055fe6169673dfa3e4b6d3", "rental_uris": {"ios": "https://dc.lft.to/lastmile_qr_scan", "android": "https://dc.lft.to/lastmile_qr_scan"}, "type": "electric_bike", "fusion_lat": 0.0, "lon": -76.98760616666667}, {"fusion_lon": 0.0, "bike_id": "14be7dec00a533210496bdf755f073ee", "is_disabled": 0, "is_reserved": 0, "lat": 38.91712533333333, "name": "14be7dec00a533210496bdf755f073ee", "rental_uris": {"ios": "https://dc.lft.to/lastmile_qr_scan", "android": "https://dc.lft.to/lastmile_qr_scan"}, "type": "electric_scooter", "fusion_lat": 0.0, "lon": -77.03249916666667}, {"fusion_lon": 0.0, "bike_id": "bda0a4e73069854248b1442363e2db69", "is_disabled": 0, "is_reserved": 0, "lat": 38.987575666666665, "name": "bda0a4e73069854248b1442363e2db69", "rental_uris": {"ios": "https://dc.lft.to/lastmile_qr_scan", "android": "https://dc.lft.to/lastmile_qr_scan"}, "type": "electric_bike", "fusion_lat": 0.0, "lon": -77.02654683333333}, {"fusion_lon": 0.0, "bike_id": "e78c234ca5ec4e836fb23396fc41320d", "is_disabled": 0, "is_reserved": 0, "lat": 38.877336666666665, "name": "e78c234ca5ec4e836fb23396fc41320d", "rental_uris": {"ios": "https://dc.lft.to/lastmile_qr_scan", "android": "https://dc.lft.to/lastmile_qr_scan"}, "type": "electric_bike", "fusion_lat": 0.0, "lon": -77.11851166666666}, {"fusion_lon": 0.0, "bike_id": "8ce66af8ebc839cf8692d898e7a469da", "is_disabled": 0, "is_reserved": 0, "lat": 38.91005, "name": "8ce66af8ebc839cf8692d898e7a469da", "rental_uris": {"ios": "https://dc.lft.to/lastmile_qr_scan", "android": "https://dc.lft.to/lastmile_qr_scan"}, "type": "electric_bike", "fusion_lat": 0.0, "lon": -76.9842755}, {"fusion_lon": 0.0, "bike_id": "55794a3f628555342bee157efb913a03", "is_disabled": 0, "is_reserved": 0, "lat": 38.9113835, "name": "55794a3f628555342bee157efb913a03", "rental_uris": {"ios": "https://dc.lft.to/lastmile_qr_scan", "android": "https://dc.lft.to/lastmile_qr_scan"}, "type": "electric_scooter", "fusion_lat": 0.0, "lon": -77.01079283333333}, {"fusion_lon": 0.0, "bike_id": "0f478bac4127e8380b02703eb0f8e78f", "is_disabled": 0, "is_reserved": 0, "lat": 38.92042766666667, "name": "0f478bac4127e8380b02703eb0f8e78f", "rental_uris": {"ios": "https://dc.lft.to/lastmile_qr_scan", "android": "https://dc.lft.to/lastmile_qr_scan"}, "type": "electric_scooter", "fusion_lat": 0.0, "lon": -77.023736}, {"fusion_lon": 0.0, "bike_id": "313d476eedd14f99bde9fc312796a0ef", "is_disabled": 0, "is_reserved": 0, "lat": 38.98501783333333, "name": "313d476eedd14f99bde9fc312796a0ef", "rental_uris": {"ios": "https://dc.lft.to/lastmile_qr_scan", "android": "https://dc.lft.to/lastmile_qr_scan"}, "type": "electric_bike", "fusion_lat": 0.0, "lon": -76.9820815}, {"fusion_lon": 0.0, "bike_id": "2adf1216db03be98d2ac2fb25662b097", "is_disabled": 0, "is_reserved": 0, "lat": 38.9084755, "name": "2adf1216db03be98d2ac2fb25662b097", "rental_uris": {"ios": "https://dc.lft.to/lastmile_qr_scan", "android": "https://dc.lft.to/lastmile_qr_scan"}, "type": "electric_scooter", "fusion_lat": 0.0, "lon": -77.00083833333333}, {"fusion_lon": 0.0, "bike_id": "5d517601db3b1e1331d6b20f0f6efd27", "is_disabled": 0, "is_reserved": 0, "lat": 38.920578, "name": "5d517601db3b1e1331d6b20f0f6efd27", "rental_uris": {"ios": "https://dc.lft.to/lastmile_qr_scan", "android": "https://dc.lft.to/lastmile_qr_scan"}, "type": "electric_scooter", "fusion_lat": 0.0, "lon": -77.0172145}, {"fusion_lon": 0.0, "bike_id": "915287b01cd2ddf1dd1f508ad218cd99", "is_disabled": 0, "is_reserved": 0, "lat": 38.913851333333334, "name": "915287b01cd2ddf1dd1f508ad218cd99", "rental_uris": {"ios": "https://dc.lft.to/lastmile_qr_scan", "android": "https://dc.lft.to/lastmile_qr_scan"}, "type": "electric_scooter", "fusion_lat": 0.0, "lon": -77.01704883333333}, {"fusion_lon": 0.0, "bike_id": "c1a3d655eee4c74b7d224450b347c20f", "is_disabled": 0, "is_reserved": 0, "lat": 38.89497683333333, "name": "c1a3d655eee4c74b7d224450b347c20f", "rental_uris": {"ios": "https://dc.lft.to/lastmile_qr_scan", "android": "https://dc.lft.to/lastmile_qr_scan"}, "type": "electric_scooter", "fusion_lat": 0.0, "lon": -77.02168783333333}, {"fusion_lon": 0.0, "bike_id": "d6a36c9f33dc0665ff2fb43d3f54b4bf", "is_disabled": 0, "is_reserved": 0, "lat": 38.907802, "name": "d6a36c9f33dc0665ff2fb43d3f54b4bf", "rental_uris": {"ios": "https://dc.lft.to/lastmile_qr_scan", "android": "https://dc.lft.to/lastmile_qr_scan"}, "type": "electric_bike", "fusion_lat": 0.0, "lon": -77.08169766666667}, {"fusion_lon": 0.0, "bike_id": "8741e2296442705646498f25809a0068", "is_disabled": 0, "is_reserved": 0, "lat": 38.90065383333334, "name": "8741e2296442705646498f25809a0068", "rental_uris": {"ios": "https://dc.lft.to/lastmile_qr_scan", "android": "https://dc.lft.to/lastmile_qr_scan"}, "type": "electric_scooter", "fusion_lat": 0.0, "lon": -77.0455415}, {"fusion_lon": 0.0, "bike_id": "d10fe4b48460ed14fc0a1312f58dba17", "is_disabled": 0, "is_reserved": 0, "lat": 38.912628833333336, "name": "d10fe4b48460ed14fc0a1312f58dba17", "rental_uris": {"ios": "https://dc.lft.to/lastmile_qr_scan", "android": "https://dc.lft.to/lastmile_qr_scan"}, "type": "electric_scooter", "fusion_lat": 0.0, "lon": -77.04441933333334}, {"fusion_lon": 0.0, "bike_id": "d8ae79fec10ca00ec43605867df465f0", "is_disabled": 0, "is_reserved": 0, "lat": 38.908525, "name": "d8ae79fec10ca00ec43605867df465f0", "rental_uris": {"ios": "https://dc.lft.to/lastmile_qr_scan", "android": "https://dc.lft.to/lastmile_qr_scan"}, "type": "electric_scooter", "fusion_lat": 0.0, "lon": -77.06373733333334}, {"fusion_lon": 0.0, "bike_id": "58270d965d43a0d832de73048e749b83", "is_disabled": 0, "is_reserved": 0, "lat": 38.93932866666667, "name": "58270d965d43a0d832de73048e749b83", "rental_uris": {"ios": "https://dc.lft.to/lastmile_qr_scan", "android": "https://dc.lft.to/lastmile_qr_scan"}, "type": "electric_scooter", "fusion_lat": 0.0, "lon": -77.06054066666667}, {"fusion_lon": 0.0, "bike_id": "aa8d488bb964b5637c95b6300a7b3c38", "is_disabled": 0, "is_reserved": 0, "lat": 38.926378166666666, "name": "aa8d488bb964b5637c95b6300a7b3c38", "rental_uris": {"ios": "https://dc.lft.to/lastmile_qr_scan", "android": "https://dc.lft.to/lastmile_qr_scan"}, "type": "electric_scooter", "fusion_lat": 0.0, "lon": -77.02719316666666}, {"fusion_lon": 0.0, "bike_id": "196193316bb5cba2ba673d2d2b36692a", "is_disabled": 0, "is_reserved": 0, "lat": 38.980113333333335, "name": "196193316bb5cba2ba673d2d2b36692a", "rental_uris": {"ios": "https://dc.lft.to/lastmile_qr_scan", "android": "https://dc.lft.to/lastmile_qr_scan"}, "type": "electric_bike", "fusion_lat": 0.0, "lon": -77.064094}, {"fusion_lon": 0.0, "bike_id": "8faf2e83b4dbe45ebab7644998e5656b", "is_disabled": 0, "is_reserved": 0, "lat": 38.88989633333333, "name": "8faf2e83b4dbe45ebab7644998e5656b", "rental_uris": {"ios": "https://dc.lft.to/lastmile_qr_scan", "android": "https://dc.lft.to/lastmile_qr_scan"}, "type": "electric_scooter", "fusion_lat": 0.0, "lon": -76.9881365}, {"fusion_lon": 0.0, "bike_id": "6ffb5afbe93c143e157e9a3b98a4816f", "is_disabled": 0, "is_reserved": 0, "lat": 38.919951833333336, "name": "6ffb5afbe93c143e157e9a3b98a4816f", "rental_uris": {"ios": "https://dc.lft.to/lastmile_qr_scan", "android": "https://dc.lft.to/lastmile_qr_scan"}, "type": "electric_scooter", "fusion_lat": 0.0, "lon": -77.03276133333334}, {"fusion_lon": 0.0, "bike_id": "7e08a4aaa633692dab060d4949c5f401", "is_disabled": 0, "is_reserved": 0, "lat": 38.85784066666667, "name": "7e08a4aaa633692dab060d4949c5f401", "rental_uris": {"ios": "https://dc.lft.to/lastmile_qr_scan", "android": "https://dc.lft.to/lastmile_qr_scan"}, "type": "electric_bike", "fusion_lat": 0.0, "lon": -76.9876565}, {"fusion_lon": 0.0, "bike_id": "b26db56c2ef07ab271cb3b7e7b4e69f7", "is_disabled": 0, "is_reserved": 0, "lat": 38.9472295, "name": "b26db56c2ef07ab271cb3b7e7b4e69f7", "rental_uris": {"ios": "https://dc.lft.to/lastmile_qr_scan", "android": "https://dc.lft.to/lastmile_qr_scan"}, "type": "electric_bike", "fusion_lat": 0.0, "lon": -77.09877133333333}, {"fusion_lon": 0.0, "bike_id": "607f5572dc34758a73167c0523427b63", "is_disabled": 0, "is_reserved": 0, "lat": 38.836917166666666, "name": "607f5572dc34758a73167c0523427b63", "rental_uris": {"ios": "https://dc.lft.to/lastmile_qr_scan", "android": "https://dc.lft.to/lastmile_qr_scan"}, "type": "electric_bike", "fusion_lat": 0.0, "lon": -77.103398}, {"fusion_lon": 0.0, "bike_id": "02345c772e4ff656f5ed9c6c92f7b28c", "is_disabled": 0, "is_reserved": 0, "lat": 38.9275615, "name": "02345c772e4ff656f5ed9c6c92f7b28c", "rental_uris": {"ios": "https://dc.lft.to/lastmile_qr_scan", "android": "https://dc.lft.to/lastmile_qr_scan"}, "type": "electric_scooter", "fusion_lat": 0.0, "lon": -77.03361183333334}, {"fusion_lon": 0.0, "bike_id": "c14e56b5d915f2ded1bdb4e7c69308b1", "is_disabled": 0, "is_reserved": 0, "lat": 38.903771, "name": "c14e56b5d915f2ded1bdb4e7c69308b1", "rental_uris": {"ios": "https://dc.lft.to/lastmile_qr_scan", "android": "https://dc.lft.to/lastmile_qr_scan"}, "type": "electric_scooter", "fusion_lat": 0.0, "lon": -77.007488}, {"fusion_lon": 0.0, "bike_id": "aa11a4e739a175e96f64ef48eb96e71f", "is_disabled": 0, "is_reserved": 0, "lat": 38.92334233333333, "name": "aa11a4e739a175e96f64ef48eb96e71f", "rental_uris": {"ios": "https://dc.lft.to/lastmile_qr_scan", "android": "https://dc.lft.to/lastmile_qr_scan"}, "type": "electric_scooter", "fusion_lat": 0.0, "lon": -77.056205}, {"fusion_lon": 0.0, "bike_id": "bb5fc6142b893ef042a949a46ef436d5", "is_disabled": 0, "is_reserved": 0, "lat": 38.93750566666667, "name": "bb5fc6142b893ef042a949a46ef436d5", "rental_uris": {"ios": "https://dc.lft.to/lastmile_qr_scan", "android": "https://dc.lft.to/lastmile_qr_scan"}, "type": "electric_scooter", "fusion_lat": 0.0, "lon": -77.0343325}, {"fusion_lon": 0.0, "bike_id": "1696ceaf8b79508a1debb78842ba060c", "is_disabled": 0, "is_reserved": 0, "lat": 38.90754583333333, "name": "1696ceaf8b79508a1debb78842ba060c", "rental_uris": {"ios": "https://dc.lft.to/lastmile_qr_scan", "android": "https://dc.lft.to/lastmile_qr_scan"}, "type": "electric_scooter", "fusion_lat": 0.0, "lon": -77.0169395}, {"fusion_lon": 0.0, "bike_id": "3c6c87f8ad66b3655ab6eb34689651c1", "is_disabled": 0, "is_reserved": 0, "lat": 38.939836666666665, "name": "3c6c87f8ad66b3655ab6eb34689651c1", "rental_uris": {"ios": "https://dc.lft.to/lastmile_qr_scan", "android": "https://dc.lft.to/lastmile_qr_scan"}, "type": "electric_scooter", "fusion_lat": 0.0, "lon": -77.0296035}, {"fusion_lon": 0.0, "bike_id": "f2ebaeadf61dc5b7543ec9c26279572f", "is_disabled": 0, "is_reserved": 0, "lat": 38.92040216666667, "name": "f2ebaeadf61dc5b7543ec9c26279572f", "rental_uris": {"ios": "https://dc.lft.to/lastmile_qr_scan", "android": "https://dc.lft.to/lastmile_qr_scan"}, "type": "electric_scooter", "fusion_lat": 0.0, "lon": -77.01220166666667}, {"fusion_lon": 0.0, "bike_id": "a21015660a755cd36d69b83393514f73", "is_disabled": 0, "is_reserved": 0, "lat": 39.005350166666666, "name": "a21015660a755cd36d69b83393514f73", "rental_uris": {"ios": "https://dc.lft.to/lastmile_qr_scan", "android": "https://dc.lft.to/lastmile_qr_scan"}, "type": "electric_bike", "fusion_lat": 0.0, "lon": -77.10403033333333}, {"fusion_lon": 0.0, "bike_id": "3bce8c6ddc59054be0a2edfae004e4ed", "is_disabled": 0, "is_reserved": 0, "lat": 38.95072566666666, "name": "3bce8c6ddc59054be0a2edfae004e4ed", "rental_uris": {"ios": "https://dc.lft.to/lastmile_qr_scan", "android": "https://dc.lft.to/lastmile_qr_scan"}, "type": "electric_bike", "fusion_lat": 0.0, "lon": -77.01202683333334}, {"fusion_lon": 0.0, "bike_id": "f86018115a3a0ea5f72dd1d0f3a4a69f", "is_disabled": 0, "is_reserved": 0, "lat": 38.87739633333333, "name": "f86018115a3a0ea5f72dd1d0f3a4a69f", "rental_uris": {"ios": "https://dc.lft.to/lastmile_qr_scan", "android": "https://dc.lft.to/lastmile_qr_scan"}, "type": "electric_bike", "fusion_lat": 0.0, "lon": -77.14872616666666}, {"fusion_lon": 0.0, "bike_id": "eb5e6751e60d630dd9c5267c68c2cb3d", "is_disabled": 0, "is_reserved": 0, "lat": 38.908329333333334, "name": "eb5e6751e60d630dd9c5267c68c2cb3d", "rental_uris": {"ios": "https://dc.lft.to/lastmile_qr_scan", "android": "https://dc.lft.to/lastmile_qr_scan"}, "type": "electric_scooter", "fusion_lat": 0.0, "lon": -76.9918835}, {"fusion_lon": 0.0, "bike_id": "b7857d8a28bfcaa6e48fe8d24f95736b", "is_disabled": 0, "is_reserved": 0, "lat": 38.87845866666667, "name": "b7857d8a28bfcaa6e48fe8d24f95736b", "rental_uris": {"ios": "https://dc.lft.to/lastmile_qr_scan", "android": "https://dc.lft.to/lastmile_qr_scan"}, "type": "electric_scooter", "fusion_lat": 0.0, "lon": -77.01963216666667}, {"fusion_lon": 0.0, "bike_id": "e59d75afddc5f3dedc8448148de5a61a", "is_disabled": 0, "is_reserved": 0, "lat": 38.923501, "name": "e59d75afddc5f3dedc8448148de5a61a", "rental_uris": {"ios": "https://dc.lft.to/lastmile_qr_scan", "android": "https://dc.lft.to/lastmile_qr_scan"}, "type": "electric_scooter", "fusion_lat": 0.0, "lon": -77.03533333333333}, {"fusion_lon": 0.0, "bike_id": "03c9664ca08f63656054e19e95824237", "is_disabled": 0, "is_reserved": 0, "lat": 38.89560316666667, "name": "03c9664ca08f63656054e19e95824237", "rental_uris": {"ios": "https://dc.lft.to/lastmile_qr_scan", "android": "https://dc.lft.to/lastmile_qr_scan"}, "type": "electric_scooter", "fusion_lat": 0.0, "lon": -77.00911383333333},