{"data": {"bikes": [{"lat": 38.870036999999996, "is_disabled": 0, "type": "electric_bike", "lon": -76.95982366666667, "bike_id": "9c6b85a7a3b3ed8e0dea11581a79e6fe", "fusion_lat": 0.0, "name": "9c6b85a7a3b3ed8e0dea11581a79e6fe", "is_reserved": 0, "rental_uris": {"android": "https://dc.lft.to/lastmile_qr_scan", "ios": "https://dc.lft.to/lastmile_qr_scan"}, "fusion_lon": 0.0}, {"lat": 38.898228, "is_disabled": 0, "type": "electric_scooter", "lon": -77.031604, "bike_id": "0fea3da8dd27aa32bc8afb2f9bf22f8c", "fusion_lat": 0.0, "name": "0fea3da8dd27aa32bc8afb2f9bf22f8c", "is_reserved": 0, "rental_uris": {"android": "https://dc.lft.to/lastmile_qr_scan", "ios": "https://dc.lft.to/lastmile_qr_scan"}, "fusion_lon": 0.0}, {"lat": 38.87754133333333, "is_disabled": 0, "type": "electric_scooter", "lon": -77.00321316666667, "bike_id": "da6d6af8e05d5174c77e25694e7797e6", "fusion_lat": 0.0, "name": "da6d6af8e05d5174c77e25694e7797e6", "is_reserved": 0, "rental_uris": {"android": "https://dc.lft.to/lastmile_qr_scan", "ios": "https://dc.lft.to/lastmile_qr_scan"}, "fusion_lon": 0.0}, {"lat": 38.897411166666664, "is_disabled": 0, "type": "electric_scooter", "lon": -77.04677883333333, "bike_id": "4b133120e76ae691c497547009806990", "fusion_lat": 0.0, "name": "4b133120e76ae691c497547009806990", "is_reserved": 0, "rental_uris": {"android": "https://dc.lft.to/lastmile_qr_scan", "ios": "https://dc.lft.to/lastmile_qr_scan"}, "fusion_lon": 0.0}, {"lat": 38.908361666666664, "is_disabled": 0, "type": "electric_scooter", "lon": -76.99699766666667, "bike_id": "9c673356c2a65559ee4fe58206462af6", "fusion_lat": 0.0, "name": "9c673356c2a65559ee4fe58206462af6", "is_reserved": 0, "rental_uris": {"android": "https://dc.lft.to/lastmile_qr_scan", "ios": "https://dc.lft.to/lastmile_qr_scan"}, "fusion_lon": 0.0}, {"lat": 38.9286835, "is_disabled": 0, "type": "electric_scooter", "lon": -77.03323633333333, "bike_id": "07498cd8741a47e858b2c042f4e0f589", "fusion_lat": 0.0, "name": "07498cd8741a47e858b2c042f4e0f589", "is_reserved": 0, "rental_uris": {"android": "https://dc.lft.to/lastmile_qr_scan", "ios": "https://dc.lft.to/lastmile_qr_scan"}, "fusion_lon": 0.0}, {"lat": 38.892195, "is_disabled": 0, "type": "electric_scooter", "lon": -77.02690683333333, "bike_id": "3ddff6881d6bb8736f0d72f93033fc99", "fusion_lat": 0.0, "name": "3ddff6881d6bb8736f0d72f93033fc99", "is_reserved": 0, "rental_uris": {"android": "https://dc.lft.to/lastmile_qr_scan", "ios": "https://dc.lft.to/lastmile_qr_scan"}, "fusion_lon": 0.0}, {"lat": 38.902300333333336, "is_disabled": 0, "type": "electric_scooter", "lon": -77.024508, "bike_id": "72c12d5509f284a04aa7f3767cd73062", "fusion_lat": 0.0, "name": "72c12d5509f284a04aa7f3767cd73062", "is_reserved": 0, "rental_uris": {"android": "https://dc.lft.to/lastmile_qr_scan", "ios": "https://dc.lft.to/lastmile_qr_scan"}, "fusion_lon": 0.0}, {"lat": 38.912491, "is_disabled": 0, "type": "electric_scooter", "lon": -77.032077, "bike_id": "1b97ab5a81cc62a0ee5e3f159dbd7a07", "fusion_lat": 0.0, "name": "1b97ab5a81cc62a0ee5e3f159dbd7a07", "is_reserved": 0, "rental_uris": {"android": "https://dc.lft.to/lastmile_qr_scan", "ios": "https://dc.lft.to/lastmile_qr_scan"}, "fusion_lon": 0.0}, {"lat": 38.90786883333333, "is_disabled": 0, "type": "electric_scooter", "lon": -77.036733, "bike_id": "cc88af3752e11f6ba345d3a59a932f7c", "fusion_lat": 0.0, "name": "cc88af3752e11f6ba345d3a59a932f7c", "is_reserved": 0, "rental_uris": {"android": "https://dc.lft.to/lastmile_qr_scan", "ios": "https://dc.lft.to/lastmile_qr_scan"}, "fusion_lon": 0.0}, {"lat": 38.98503133333333, "is_disabled": 0, "type": "electric_bike", "lon": -76.98215316666666, "bike_id": "a2c44655f23297817f8da5afe64385ba", "fusion_lat": 0.0, "name": "a2c44655f23297817f8da5afe64385ba", "is_reserved": 0, "rental_uris": {"android": "https://dc.lft.to/lastmile_qr_scan", "ios": "https://dc.lft.to/lastmile_qr_scan"}, "fusion_lon": 0.0}, {"lat": 38.8964485, "is_disabled": 0, "type": "electric_scooter", "lon": -77.00904416666667, "bike_id": "557cfab9e98c5a091f6061b41f2b0efb", "fusion_lat": 0.0, "name": "557cfab9e98c5a091f6061b41f2b0efb", "is_reserved": 0, "rental_uris": {"android": "https://dc.lft.to/lastmile_qr_scan", "ios": "https://dc.lft.to/lastmile_qr_scan"}, "fusion_lon": 0.0}, {"lat": 38.911301, "is_disabled": 0, "type": "electric_scooter", "lon": -77.02202766666667, "bike_id": "af2a64588a42fdde0f1d9936dcbbfd54", "fusion_lat": 0.0, "name": "af2a64588a42fdde0f1d9936dcbbfd54", "is_reserved": 0, "rental_uris": {"android": "https://dc.lft.to/lastmile_qr_scan", "ios": "https://dc.lft.to/lastmile_qr_scan"}, "fusion_lon": 0.0}, {"lat": 38.822672833333336, "is_disabled": 0, "type": "electric_bike", "lon": -77.05816733333333, "bike_id": "f8b5188ac300a721f1224bf0639252fd", "fusion_lat": 0.0, "name": "f8b5188ac300a721f1224bf0639252fd", "is_reserved": 0, "rental_uris": {"android": "https://dc.lft.to/lastmile_qr_scan", "ios": "https://dc.lft.to/lastmile_qr_scan"}, "fusion_lon": 0.0}, {"lat": 38.938806, "is_disabled": 0, "type": "electric_scooter", "lon": -77.03281283333334, "bike_id": "db257e6abfd3febb932602d2dea58184", "fusion_lat": 0.0, "name": "db257e6abfd3febb932602d2dea58184", "is_reserved": 0, "rental_uris": {"android": "https://dc.lft.to/lastmile_qr_scan", "ios": "https://dc.lft.to/lastmile_qr_scan"}, "fusion_lon": 0.0}, {"lat": 38.857251, "is_disabled": 0, "type": "electric_scooter", "lon": -76.9789055, "bike_id": "166d738ba4c1f5ded6a6ecdb5773d8d9", "fusion_lat": 0.0, "name": "166d738ba4c1f5ded6a6ecdb5773d8d9", "is_reserved": 0, "rental_uris": {"android": "https://dc.lft.to/lastmile_qr_scan", "ios": "https://dc.lft.to/lastmile_qr_scan"}, "fusion_lon": 0.0}, {"lat": 38.922372333333335, "is_disabled": 0, "type": "electric_scooter", "lon": -77.0307945, "bike_id": "058af0d33da06c73aa36f326eebbeb7a", "fusion_lat": 0.0, "name": "058af0d33da06c73aa36f326eebbeb7a", "is_reserved": 0, "rental_uris": {"android": "https://dc.lft.to/lastmile_qr_scan", "ios": "https://dc.lft.to/lastmile_qr_scan"}, "fusion_lon": 0.0}, {"lat": 38.904675, "is_disabled": 0, "type": "electric_scooter", "lon": -77.04871, "bike_id": "1add9a4912ac4accc6451a08edf78b67", "fusion_lat": 0.0, "name": "1add9a4912ac4accc6451a08edf78b67", "is_reserved": 0, "rental_uris": {"android": "https://dc.lft.to/lastmile_qr_scan", "ios": "https://dc.lft.to/lastmile_qr_scan"}, "fusion_lon": 0.0}, {"lat": 38.8972875, "is_disabled": 0, "type": "electric_scooter", "lon": -77.049936, "bike_id": "4ac653a484b9ab43f8487b64d49bba5d", "fusion_lat": 0.0, "name": "4ac653a484b9ab43f8487b64d49bba5d", "is_reserved": 0, "rental_uris": {"android": "https://dc.lft.to/lastmile_qr_scan", "ios": "https://dc.lft.to/lastmile_qr_scan"}, "fusion_lon": 0.0}, {"lat": 38.901656333333335, "is_disabled": 0, "type": "electric_scooter", "lon": -77.0483885, "bike_id": "84cbebe194478eec769d38557eaf4271", "fusion_lat": 0.0, "name": "84cbebe194478eec769d38557eaf4271", "is_reserved": 0, "rental_uris": {"android": "https://dc.lft.to/lastmile_qr_scan", "ios": "https://dc.lft.to/lastmile_qr_scan"}, "fusion_lon": 0.0}, {"lat": 38.896157, "is_disabled": 0, "type": "electric_scooter", "lon": -77.03225066666667, "bike_id": "0fd4150af98ced8db23e9e309afb2dc1", "fusion_lat": 0.0, "name": "0fd4150af98ced8db23e9e309afb2dc1", "is_reserved": 0, "rental_uris": {"android": "https://dc.lft.to/lastmile_qr_scan", "ios": "https://dc.lft.to/lastmile_qr_scan"}, "fusion_lon": 0.0}, {"lat": 38.89249, "is_disabled": 0, "type": "electric_scooter", "lon": -77.04877666666667, "bike_id": "4713473ecc4f31731ed6097fe3aa6c1b", "fusion_lat": 0.0, "name": "4713473ecc4f31731ed6097fe3aa6c1b", "is_reserved": 0, "rental_uris": {"android": "https://dc.lft.to/lastmile_qr_scan", "ios": "https://dc.lft.to/lastmile_qr_scan"}, "fusion_lon": 0.0}, {"lat": 38.897422666666664, "is_disabled": 0, "type": "electric_scooter", "lon": -77.00874416666667, "bike_id": "7a1a8f74704ae5a5df3aaef7d66512e2", "fusion_lat": 0.0, "name": "7a1a8f74704ae5a5df3aaef7d66512e2", "is_reserved": 0, "rental_uris": {"android": "https://dc.lft.to/lastmile_qr_scan", "ios": "https://dc.lft.to/lastmile_qr_scan"}, "fusion_lon": 0.0}, {"lat": 38.8706625, "is_disabled": 0, "type": "electric_scooter", "lon": -77.00842766666666, "bike_id": "9d5e49e2cee2459555bc81df6f5b6254", "fusion_lat": 0.0, "name": "9d5e49e2cee2459555bc81df6f5b6254", "is_reserved": 0, "rental_uris": {"android": "https://dc.lft.to/lastmile_qr_scan", "ios": "https://dc.lft.to/lastmile_qr_scan"}, "fusion_lon": 0.0}, {"lat": 38.862112, "is_disabled": 0, "type": "electric_bike", "lon": -76.99782666666667, "bike_id": "53b9f80bc031a4966dd0e0bea7f2ac5a", "fusion_lat": 0.0, "name": "53b9f80bc031a4966dd0e0bea7f2ac5a", "is_reserved": 0, "rental_uris": {"android": "https://dc.lft.to/lastmile_qr_scan", "ios": "https://dc.lft.to/lastmile_qr_scan"}, "fusion_lon": 0.0}, {"lat": 38.93941, "is_disabled": 0, "type": "electric_scooter", "lon": -77.06107633333333, "bike_id": "a1ff02d5576810ebb32661ad9744dcd5", "fusion_lat": 0.0, "name": "a1ff02d5576810ebb32661ad9744dcd5", "is_reserved": 0, "rental_uris": {"android": "https://dc.lft.to/lastmile_qr_scan", "ios": "https://dc.lft.to/lastmile_qr_scan"}, "fusion_lon": 0.0}, {"lat": 38.86520333333333, "is_disabled": 0, "type": "electric_scooter", "lon": -76.99035466666666, "bike_id": "fc58bddd5d8a0207b0a47b598be53952", "fusion_lat": 0.0, "name": "fc58bddd5d8a0207b0a47b598be53952", "is_reserved": 0, "rental_uris": {"android": "https://dc.lft.to/lastmile_qr_scan", "ios": "https://dc.lft.to/lastmile_qr_scan"}, "fusion_lon": 0.0}, {"lat": 38.885344333333336, "is_disabled": 0, "type": "electric_scooter", "lon": -76.99830016666667, "bike_id": "11d4676bfa47d78cadd27e6f55d23e15", "fusion_lat": 0.0, "name": "11d4676bfa47d78cadd27e6f55d23e15", "is_reserved": 0, "rental_uris": {"android": "https://dc.lft.to/lastmile_qr_scan", "ios": "https://dc.lft.to/lastmile_qr_scan"}, "fusion_lon": 0.0}, {"lat": 38.89999916666667, "is_disabled": 0, "type": "electric_scooter", "lon": -76.99845016666667, "bike_id": "43a808fa3fbc124ab4315f828219f718", "fusion_lat": 0.0, "name": "43a808fa3fbc124ab4315f828219f718", "is_reserved": 0, "rental_uris": {"android": "https://dc.lft.to/lastmile_qr_scan", "ios": "https://dc.lft.to/lastmile_qr_scan"}, "fusion_lon": 0.0}, {"lat": 38.874607833333336, "is_disabled": 0, "type": "electric_scooter", "lon": -77.00529416666667, "bike_id": "bdbd9f869941daf1161609555c18031f", "fusion_lat": 0.0, "name": "bdbd9f869941daf1161609555c18031f", "is_reserved": 0, "rental_uris": {"android": "https://dc.lft.to/lastmile_qr_scan", "ios": "https://dc.lft.to/lastmile_qr_scan"}, "fusion_lon": 0.0}, {"lat": 38.891986833333334, "is_disabled": 0, "type": "electric_scooter", "lon": -77.02452483333333, "bike_id": "a79d52120b94ecfaee3c2f2be9a9c9f3", "fusion_lat": 0.0, "name": "a79d52120b94ecfaee3c2f2be9a9c9f3", "is_reserved": 0, "rental_uris": {"android": "https://dc.lft.to/lastmile_qr_scan", "ios": "https://dc.lft.to/lastmile_qr_scan"}, "fusion_lon": 0.0}, {"lat": 38.87232933333333, "is_disabled": 0, "type": "electric_bike", "lon": -77.01168883333334, "bike_id": "20acd8cc37a9eedc5272c44178eb9377", "fusion_lat": 0.0, "name": "20acd8cc37a9eedc5272c44178eb9377", "is_reserved": 0, "rental_uris": {"android": "https://dc.lft.to/lastmile_qr_scan", "ios": "https://dc.lft.to/lastmile_qr_scan"}, "fusion_lon": 0.0}, {"lat": 38.913772333333334, "is_disabled": 0, "type": "electric_scooter", "lon": -77.00448716666666, "bike_id": "f3aae48e3619d66ea1721d8bbd86f2d6", "fusion_lat": 0.0, "name": "f3aae48e3619d66ea1721d8bbd86f2d6", "is_reserved": 0, "rental_uris": {"android": "https://dc.lft.to/lastmile_qr_scan", "ios": "https://dc.lft.to/lastmile_qr_scan"}, "fusion_lon": 0.0}, {"lat": 38.9031495, "is_disabled": 0, "type": "electric_scooter", "lon": -76.97798666666667, "bike_id": "f238d719b7c565fd08424c10ea6fd5f2", "fusion_lat": 0.0, "name": "f238d719b7c565fd08424c10ea6fd5f2", "is_reserved": 0, "rental_uris": {"android": "https://dc.lft.to/lastmile_qr_scan", "ios": "https://dc.lft.to/lastmile_qr_scan"}, "fusion_lon": 0.0}, {"lat": 38.908652000000004, "is_disabled": 0, "type": "electric_scooter", "lon": -77.02354533333333, "bike_id": "11e48f7cc3c27ae61f026b1f77efc132", "fusion_lat": 0.0, "name": "11e48f7cc3c27ae61f026b1f77efc132", "is_reserved": 0, "rental_uris": {"android": "https://dc.lft.to/lastmile_qr_scan", "ios": "https://dc.lft.to/lastmile_qr_scan"}, "fusion_lon": 0.0}, {"lat": 38.95094016666667, "is_disabled": 0, "type": "electric_scooter", "lon": -77.023403, "bike_id": "b4e504d8ac213c51b3e3edbf717a74fa", "fusion_lat": 0.0, "name": "b4e504d8ac213c51b3e3edbf717a74fa", "is_reserved": 0, "rental_uris": {"android": "https://dc.lft.to/lastmile_qr_scan", "ios": "https://dc.lft.to/lastmile_qr_scan"}, "fusion_lon": 0.0}, {"lat": 38.885024666666666, "is_disabled": 0, "type": "electric_bike", "lon": -77.01558216666666, "bike_id": "13354b2027665ea26eadd19c62438b13", "fusion_lat": 0.0, "name": "13354b2027665ea26eadd19c62438b13", "is_reserved": 0, "rental_uris": {"android": "https://dc.lft.to/lastmile_qr_scan", "ios": "https://dc.lft.to/lastmile_qr_scan"}, "fusion_lon": 0.0}, {"lat": 38.898897, "is_disabled": 0, "type": "electric_scooter", "lon": -77.03966816666667, "bike_id": "f6ff4616a876a629ac15246ef3e7f539", "fusion_lat": 0.0, "name": "f6ff4616a876a629ac15246ef3e7f539", "is_reserved": 0, "rental_uris": {"android": "https://dc.lft.to/lastmile_qr_scan", "ios": "https://dc.lft.to/lastmile_qr_scan"}, "fusion_lon": 0.0}, {"lat": 38.902452833333335, "is_disabled": 0, "type": "electric_scooter", "lon": -77.01762183333334, "bike_id": "e1fb75a964e5cd787cbffcb15601e982", "fusion_lat": 0.0, "name": "e1fb75a964e5cd787cbffcb15601e982", "is_reserved": 0, "rental_uris": {"android": "https://dc.lft.to/lastmile_qr_scan", "ios": "https://dc.lft.to/lastmile_qr_scan"}, "fusion_lon": 0.0}, {"lat": 38.861700166666665, "is_disabled": 0, "type": "electric_bike", "lon": -77.1314765, "bike_id": "5c57cf1f81a8cade138d2401876333d7", "fusion_lat": 0.0, "name": "5c57cf1f81a8cade138d2401876333d7", "is_reserved": 0, "rental_uris": {"android": "https://dc.lft.to/lastmile_qr_scan", "ios": "https://dc.lft.to/lastmile_qr_scan"}, "fusion_lon": 0.0}, {"lat": 38.9100835, "is_disabled": 0, "type": "electric_scooter", "lon": -77.03436883333333, "bike_id": "c3c5a7ad4cc472b0d6aa5bcbc8a63423", "fusion_lat": 0.0, "name": "c3c5a7ad4cc472b0d6aa5bcbc8a63423", "is_reserved": 0, "rental_uris": {"android": "https://dc.lft.to/lastmile_qr_scan", "ios": "https://dc.lft.to/lastmile_qr_scan"}, "fusion_lon": 0.0}, {"lat": 38.910119, "is_disabled": 0, "type": "electric_scooter", "lon": -77.0889745, "bike_id": "6cd0092263957e4bc4059ed65f6804ec", "fusion_lat": 0.0, "name": "6cd0092263957e4bc4059ed65f6804ec", "is_reserved": 0, "rental_uris": {"android": "https://dc.lft.to/lastmile_qr_scan", "ios": "https://dc.lft.to/lastmile_qr_scan"}, "fusion_lon": 0.0}, {"lat": 38.914062333333334, "is_disabled": 0, "type": "electric_scooter", "lon": -77.03184833333333, "bike_id": "c495661a2c363b29bd5709f6a7977753", "fusion_lat": 0.0, "name": "c495661a2c363b29bd5709f6a7977753", "is_reserved": 0, "rental_uris": {"android": "https://dc.lft.to/lastmile_qr_scan", "ios": "https://dc.lft.to/lastmile_qr_scan"}, "fusion_lon": 0.0}, {"lat": 38.898116333333334, "is_disabled": 0, "type": "electric_scooter", "lon": -77.0329855, "bike_id": "e52f0900dcc13011b2d54a5127531186", "fusion_lat": 0.0, "name": "e52f0900dcc13011b2d54a5127531186", "is_reserved": 0, "rental_uris": {"android": "https://dc.lft.to/lastmile_qr_scan", "ios": "https://dc.lft.to/lastmile_qr_scan"}, "fusion_lon": 0.0}, {"lat": 38.93282766666667, "is_disabled": 0, "type": "electric_scooter", "lon": -77.039784, "bike_id": "c5bb38bd23915691d16c7f742a690ba2", "fusion_lat": 0.0, "name": "c5bb38bd23915691d16c7f742a690ba2", "is_reserved": 0, "rental_uris": {"android": "https://dc.lft.to/lastmile_qr_scan", "ios": "https://dc.lft.to/lastmile_qr_scan"}, "fusion_lon": 0.0}, {"lat": 38.9259, "is_disabled": 0, "type": "electric_scooter", "lon": -77.03226666666667, "bike_id": "4438f2af445632bd6a6c838cc6913dc1", "fusion_lat": 0.0, "name": "4438f2af445632bd6a6c838cc6913dc1", "is_reserved": 0, "rental_uris": {"android": "https://dc.lft.to/lastmile_qr_scan", "ios": "https://dc.lft.to/lastmile_qr_scan"}, "fusion_lon": 0.0}, {"lat": 38.896238833333335, "is_disabled": 0, "type": "electric_scooter", "lon": -76.99850133333334, "bike_id": "4b1bd009d39641e7889bd1d19bc3b5c8", "fusion_lat": 0.0, "name": "4b1bd009d39641e7889bd1d19bc3b5c8", "is_reserved": 0, "rental_uris": {"android": "https://dc.lft.to/lastmile_qr_scan", "ios": "https://dc.lft.to/lastmile_qr_scan"}, "fusion_lon": 0.0}, {"lat": 38.9246135, "is_disabled": 0, "type": "electric_scooter", "lon": -77.0226965, "bike_id": "45c0def6d647994d7d60e9cee23850b8", "fusion_lat": 0.0, "name": "45c0def6d647994d7d60e9cee23850b8", "is_reserved": 0, "rental_uris": {"android": "https://dc.lft.to/lastmile_qr_scan", "ios": "https://dc.lft.to/lastmile_qr_scan"}, "fusion_lon": 0.0}, {"lat": 38.899699, "is_disabled": 0, "type": "electric_scooter", "lon": -77.03352983333333, "bike_id": "1855d4ea6c973431f248674e8842e6b2", "fusion_lat": 0.0, "name": "1855d4ea6c973431f248674e8842e6b2", "is_reserved": 0, "rental_uris": {"android": "https://dc.lft.to/lastmile_qr_scan", "ios": "https://dc.lft.to/lastmile_qr_scan"}, "fusion_lon": 0.0}, {"lat": 38.920225333333335, "is_disabled": 0, "type": "electric_scooter", "lon": -77.03143283333333, "bike_id": "c1522a7c306074f1672eb3fa035fc257", "fusion_lat": 0.0, "name": "c1522a7c306074f1672eb3fa035fc257", "is_reserved": 0, "rental_uris": {"android": "https://dc.lft.to/lastmile_qr_scan", "ios": "https://dc.lft.to/lastmile_qr_scan"}, "fusion_lon": 0.0}, {"lat": 38.8465775, "is_disabled": 0, "type": "electric_bike", "lon": -76.97932083333333, "bike_id": "cfeb77388415d0df77469664c4297551", "fusion_lat": 0.0, "name": "cfeb77388415d0df77469664c4297551", "is_reserved": 0, "rental_uris": {"android": "https://dc.lft.to/lastmile_qr_scan", "ios": "https://dc.lft.to/lastmile_qr_scan"}, "fusion_lon": 0.0}, {"lat": 38.90005566666667, "is_disabled": 0, "type": "electric_scooter", "lon": -77.02340333333333, "bike_id": "c3e95f4cd784ed3e415e678f76fdb45c", "fusion_lat": 0.0, "name": "c3e95f4cd784ed3e415e678f76fdb45c", "is_reserved": 0, "rental_uris": {"android": "https://dc.lft.to/lastmile_qr_scan", "ios": "https://dc.lft.to/lastmile_qr_scan"}, "fusion_lon": 0.0}, {"lat": 38.89502483333333, "is_disabled": 0, "type": "electric_scooter", "lon": -77.023035, "bike_id": "eb2759b09beaf5468425f70459ea82f7", "fusion_lat": 0.0, "name": "eb2759b09beaf5468425f70459ea82f7", "is_reserved": 0, "rental_uris": {"android": "https://dc.lft.to/lastmile_qr_scan", "ios": "https://dc.lft.to/lastmile_qr_scan"}, "fusion_lon": 0.0}, {"lat": 38.95839466666666, "is_disabled": 0, "type": "electric_bike", "lon": -77.03051516666666, "bike_id": "152c7cc147af9e5c7a3dd598737a03b1", "fusion_lat": 0.0, "name": "152c7cc147af9e5c7a3dd598737a03b1", "is_reserved": 0, "rental_uris": {"android": "https://dc.lft.to/lastmile_qr_scan", "ios": "https://dc.lft.to/lastmile_qr_scan"}, "fusion_lon": 0.0}, {"lat": 38.8690885, "is_disabled": 0, "type": "electric_bike", "lon": -77.13176666666666, "bike_id": "ee36e0925459a826335d537c229c5adc", "fusion_lat": 0.0, "name": "ee36e0925459a826335d537c229c5adc", "is_reserved": 0, "rental_uris": {"android": "https://dc.lft.to/lastmile_qr_scan", "ios": "https://dc.lft.to/lastmile_qr_scan"}, "fusion_lon": 0.0}, {"lat": 38.941712833333334, "is_disabled": 0, "type": "electric_scooter", "lon": -77.02337766666666, "bike_id": "4b347f09f5c9b08c74f9f6293da04c00", "fusion_lat": 0.0, "name": "4b347f09f5c9b08c74f9f6293da04c00", "is_reserved": 0, "rental_uris": {"android": "https://dc.lft.to/lastmile_qr_scan", "ios": "https://dc.lft.to/lastmile_qr_scan"}, "fusion_lon": 0.0}, {"lat": 38.915546666666664, "is_disabled": 0, "type": "electric_scooter", "lon": -77.03174683333333, "bike_id": "5410b83a661d0588c3aa8e28ba3d52c7", "fusion_lat": 0.0, "name": "5410b83a661d0588c3aa8e28ba3d52c7", "is_reserved": 0, "rental_uris": {"android": "https://dc.lft.to/lastmile_qr_scan", "ios": "https://dc.lft.to/lastmile_qr_scan"}, "fusion_lon": 0.0}, {"lat": 38.89372683333333, "is_disabled": 0, "type": "electric_scooter", "lon": -76.94976183333333, "bike_id": "890682b1441f6acceb7bfdfadabbcb86", "fusion_lat": 0.0, "name": "890682b1441f6acceb7bfdfadabbcb86", "is_reserved": 0, "rental_uris": {"android": "https://dc.lft.to/lastmile_qr_scan", "ios": "https://dc.lft.to/lastmile_qr_scan"}, "fusion_lon": 0.0}, {"lat": 38.828697166666664, "is_disabled": 0, "type": "electric_bike", "lon": -77.11223483333333, "bike_id": "c149241b11f1d71c55721f2fef79162e", "fusion_lat": 0.0, "name": "c149241b11f1d71c55721f2fef79162e", "is_reserved": 0, "rental_uris": {"android": "https://dc.lft.to/lastmile_qr_scan", "ios": "https://dc.lft.to/lastmile_qr_scan"}, "fusion_lon": 0.0}, {"lat": 38.89221116666667, "is_disabled": 0, "type": "electric_scooter", "lon": -77.0241725, "bike_id": "d7d0c287adef428ca4fbd005e64170d7", "fusion_lat": 0.0, "name": "d7d0c287adef428ca4fbd005e64170d7", "is_reserved": 0, "rental_uris": {"android": "https://dc.lft.to/lastmile_qr_scan", "ios": "https://dc.lft.to/lastmile_qr_scan"}, "fusion_lon": 0.0}, {"lat": 38.90382916666667, "is_disabled": 0, "type": "electric_scooter", "lon": -77.02181883333333, "bike_id": "1856c6712d4ae6e9ed0c929635f3ca8f", "fusion_lat": 0.0, "name": "1856c6712d4ae6e9ed0c929635f3ca8f", "is_reserved": 0, "rental_uris": {"android": "https://dc.lft.to/lastmile_qr_scan", "ios": "https://dc.lft.to/lastmile_qr_scan"}, "fusion_lon": 0.0}, {"lat": 38.89972216666666, "is_disabled": 0, "type": "electric_scooter", "lon": -77.01993216666666, "bike_id": "15ade792c23b79f2be72c284ce36b973", "fusion_lat": 0.0, "name": "15ade792c23b79f2be72c284ce36b973", "is_reserved": 0, "rental_uris": {"android": "https://dc.lft.to/lastmile_qr_scan", "ios": "https://dc.lft.to/lastmile_qr_scan"}, "fusion_lon": 0.0}, {"lat": 38.90972933333333, "is_disabled": 0, "type": "electric_scooter", "lon": -76.99726516666666, "bike_id": "6cea5e72edaaa351afe3cb2ecb558756", "fusion_lat": 0.0, "name": "6cea5e72edaaa351afe3cb2ecb558756", "is_reserved": 0, "rental_uris": {"android": "https://dc.lft.to/lastmile_qr_scan", "ios": "https://dc.lft.to/lastmile_qr_scan"}, "fusion_lon": 0.0}, {"lat": 39.00479033333333, "is_disabled": 0, "type": "electric_bike", "lon": -76.90369366666667, "bike_id": "dfac4440765df0f24397390d73a27650", "fusion_lat": 0.0, "name": "dfac4440765df0f24397390d73a27650", "is_reserved": 0, "rental_uris": {"android": "https://dc.lft.to/lastmile_qr_scan", "ios": "https://dc.lft.to/lastmile_qr_scan"}, "fusion_lon": 0.0}, {"lat": 38.95624683333333, "is_disabled": 0, "type": "electric_scooter", "lon": -77.02784716666666, "bike_id": "76e0c4c33c1b7eed71a5ff5b3b6c0038", "fusion_lat": 0.0, "name": "76e0c4c33c1b7eed71a5ff5b3b6c0038", "is_reserved": 0, "rental_uris": {"android": "https://dc.lft.to/lastmile_qr_scan", "ios": "https://dc.lft.to/lastmile_qr_scan"}, "fusion_lon": 0.0}, {"lat": 38.9141615, "is_disabled": 0, "type": "electric_scooter", "lon": -77.0454065, "bike_id": "024d4de43671bbbd0cdef71533e25303", "fusion_lat": 0.0, "name": "024d4de43671bbbd0cdef71533e25303", "is_reserved": 0, "rental_uris": {"android": "https://dc.lft.to/lastmile_qr_scan", "ios": "https://dc.lft.to/lastmile_qr_scan"}, "fusion_lon": 0.0}, {"lat": 38.8737465, "is_disabled": 0, "type": "electric_scooter", "lon": -77.00092966666666, "bike_id": "2a35652da9c4f917c3e0305f3186de01", "fusion_lat": 0.0, "name": "2a35652da9c4f917c3e0305f3186de01", "is_reserved": 0, "rental_uris": {"android": "https://dc.lft.to/lastmile_qr_scan", "ios": "https://dc.lft.to/lastmile_qr_scan"}, "fusion_lon": 0.0}, {"lat": 38.89745933333333, "is_disabled": 0, "type": "electric_scooter", "lon": -77.04599566666667, "bike_id": "51dd588de77c835a6b6c640cde938af8", "fusion_lat": 0.0, "name": "51dd588de77c835a6b6c640cde938af8", "is_reserved": 0, "rental_uris": {"android": "https://dc.lft.to/lastmile_qr_scan", "ios": "https://dc.lft.to/lastmile_qr_scan"}, "fusion_lon": 0.0}, {"lat": 38.9133995, "is_disabled": 0, "type": "electric_scooter", "lon": -77.00226233333333, "bike_id": "d9b066c22eb22d2ef60b68b56fcd2cae", "fusion_lat": 0.0, "name": "d9b066c22eb22d2ef60b68b56fcd2cae", "is_reserved": 0, "rental_uris": {"android": "https://dc.lft.to/lastmile_qr_scan", "ios": "https://dc.lft.to/lastmile_qr_scan"}, "fusion_lon": 0.0}, {"lat": 38.8973155, "is_disabled": 0, "type": "electric_scooter", "lon": -77.0552425, "bike_id": "e4069aaecfee412dc9a96a713f1bfd3a", "fusion_lat": 0.0, "name": "e4069aaecfee412dc9a96a713f1bfd3a", "is_reserved": 0, "rental_uris": {"android": "https://dc.lft.to/lastmile_qr_scan", "ios": "https://dc.lft.to/lastmile_qr_scan"}, "fusion_lon": 0.0}, {"lat": 38.90345533333333, "is_disabled": 0, "type": "electric_scooter", "lon": -77.033318, "bike_id": "453385d0f9dba6e030c95a3e9ddca266", "fusion_lat": 0.0, "name": "453385d0f9dba6e030c95a3e9ddca266", "is_reserved": 0, "rental_uris": {"android": "https://dc.lft.to/lastmile_qr_scan", "ios": "https://dc.lft.to/lastmile_qr_scan"}, "fusion_lon": 0.0}, {"lat": 38.91014233333333, "is_disabled": 0, "type": "electric_scooter", "lon": -76.99388366666666, "bike_id": "2eef068d1d952ac49122c3ee76cd4403", "fusion_lat": 0.0, "name": "2eef068d1d952ac49122c3ee76cd4403", "is_reserved": 0, "rental_uris": {"android": "https://dc.lft.to/lastmile_qr_scan", "ios": "https://dc.lft.to/lastmile_qr_scan"}, "fusion_lon": 0.0}, {"lat": 38.92342566666667, "is_disabled": 0, "type": "electric_scooter", "lon": -77.01905666666667, "bike_id": "af57317886b921a4d08def95eeb81e95", "fusion_lat": 0.0, "name": "af57317886b921a4d08def95eeb81e95", "is_reserved": 0, "rental_uris": {"android": "https://dc.lft.to/lastmile_qr_scan", "ios": "https://dc.lft.to/lastmile_qr_scan"}, "fusion_lon": 0.0}, {"lat": 38.883349833333334, "is_disabled": 0, "type": "electric_scooter", "lon": -77.0315755, "bike_id": "4ae689423e053b2ea583618baf83d5ed", "fusion_lat": 0.0, "name": "4ae689423e053b2ea583618baf83d5ed", "is_reserved": 0, "rental_uris": {"android": "https://dc.lft.to/lastmile_qr_scan", "ios": "https://dc.lft.to/lastmile_qr_scan"}, "fusion_lon": 0.0}, {"lat": 38.91782366666666, "is_disabled": 0, "type": "electric_scooter", "lon": -77.023416, "bike_id": "38fa6bb46938dbc7c2f21b9f2ecbcff6", "fusion_lat": 0.0, "name": "38fa6bb46938dbc7c2f21b9f2ecbcff6", "is_reserved": 0, "rental_uris": {"android": "https://dc.lft.to/lastmile_qr_scan", "ios": "https://dc.lft.to/lastmile_qr_scan"}, "fusion_lon": 0.0}, {"lat": 38.90021016666667, "is_disabled": 0, "type": "electric_scooter", "lon": -77.00101416666666, "bike_id": "1bde208ef5a152b11c264c21d8081987", "fusion_lat": 0.0, "name": "1bde208ef5a152b11c264c21d8081987", "is_reserved": 0, "rental_uris": {"android": "https://dc.lft.to/lastmile_qr_scan", "ios": "https://dc.lft.to/lastmile_qr_scan"}, "fusion_lon": 0.0}, {"lat": 38.90026866666667, "is_disabled": 0, "type": "electric_scooter", "lon": -76.99873, "bike_id": "122ab76c9604ee2df61a90e08c759b4b", "fusion_lat": 0.0, "name": "122ab76c9604ee2df61a90e08c759b4b", "is_reserved": 0, "rental_uris": {"android": "https://dc.lft.to/lastmile_qr_scan", "ios": "https://dc.lft.to/lastmile_qr_scan"}, "fusion_lon": 0.0}, {"lat": 38.9111455, "is_disabled": 0, "type": "electric_scooter", "lon": -77.00249, "bike_id": "bb41a6446370ab98c7dbffcf1b3947bb", "fusion_lat": 0.0, "name": "bb41a6446370ab98c7dbffcf1b3947bb", "is_reserved": 0, "rental_uris": {"android": "https://dc.lft.to/lastmile_qr_scan", "ios": "https://dc.lft.to/lastmile_qr_scan"}, "fusion_lon": 0.0}, {"lat": 38.861066666666666, "is_disabled": 0, "type": "electric_scooter", "lon": -76.98364483333333, "bike_id": "5a109c0344877c45bdf4e6803d24a09b", "fusion_lat": 0.0, "name": "5a109c0344877c45bdf4e6803d24a09b", "is_reserved": 0, "rental_uris": {"android": "https://dc.lft.to/lastmile_qr_scan", "ios": "https://dc.lft.to/lastmile_qr_scan"}, "fusion_lon": 0.0}, {"lat": 38.919148166666666, "is_disabled": 0, "type": "electric_scooter", "lon": -77.021732, "bike_id": "78fc51adbce7cc91fc503d9b50e74937", "fusion_lat": 0.0, "name": "78fc51adbce7cc91fc503d9b50e74937", "is_reserved": 0, "rental_uris": {"android": "https://dc.lft.to/lastmile_qr_scan", "ios": "https://dc.lft.to/lastmile_qr_scan"}, "fusion_lon": 0.0}, {"lat": 38.922814333333335, "is_disabled": 0, "type": "electric_scooter", "lon": -77.03664716666667, "bike_id": "1eff7f929332622fbd1e4378d3ab9d38", "fusion_lat": 0.0, "name": "1eff7f929332622fbd1e4378d3ab9d38", "is_reserved": 0, "rental_uris": {"android": "https://dc.lft.to/lastmile_qr_scan", "ios": "https://dc.lft.to/lastmile_qr_scan"}, "fusion_lon": 0.0}, {"lat": 38.916972333333334, "is_disabled": 0, "type": "electric_scooter", "lon": -77.02743583333333, "bike_id": "10ca4e7c1daa9b402b2dc0cf4968ed04", "fusion_lat": 0.0, "name": "10ca4e7c1daa9b402b2dc0cf4968ed04", "is_reserved": 0, "rental_uris": {"android": "https://dc.lft.to/lastmile_qr_scan", "ios": "https://dc.lft.to/lastmile_qr_scan"}, "fusion_lon": 0.0}, {"lat": 38.921529166666666, "is_disabled": 0, "type": "electric_scooter", "lon": -77.03509083333333, "bike_id": "bb5273172d6ee2b996dcc9af2f1d557a", "fusion_lat": 0.0, "name": "bb5273172d6ee2b996dcc9af2f1d557a", "is_reserved": 0, "rental_uris": {"android": "https://dc.lft.to/lastmile_qr_scan", "ios": "https://dc.lft.to/lastmile_qr_scan"}, "fusion_lon": 0.0}, {"lat": 38.9051335, "is_disabled": 0, "type": "electric_scooter", "lon": -77.04777416666667, "bike_id": "9b752d19837a8d61da1dc3c4cd05f24d", "fusion_lat": 0.0, "name": "9b752d19837a8d61da1dc3c4cd05f24d", "is_reserved": 0, "rental_uris": {"android": "https://dc.lft.to/lastmile_qr_scan", "ios": "https://dc.lft.to/lastmile_qr_scan"}, "fusion_lon": 0.0}, {"lat": 38.927163666666665, "is_disabled": 0, "type": "electric_scooter", "lon": -77.03636316666666, "bike_id": "10db7f069cf1f450c145594222ee2ee7", "fusion_lat": 0.0, "name": "10db7f069cf1f450c145594222ee2ee7", "is_reserved": 0, "rental_uris": {"android": "https://dc.lft.to/lastmile_qr_scan", "ios": "https://dc.lft.to/lastmile_qr_scan"}, "fusion_lon": 0.0}, {"lat": 38.900407, "is_disabled": 0, "type": "electric_scooter", "lon": -77.03371633333333, "bike_id": "27f9491b6630dcf708acb4a1cd666ba9", "fusion_lat": 0.0, "name": "27f9491b6630dcf708acb4a1cd666ba9", "is_reserved": 0, "rental_uris": {"android": "https://dc.lft.to/lastmile_qr_scan", "ios": "https://dc.lft.to/lastmile_qr_scan"}, "fusion_lon": 0.0}, {"lat": 38.919489, "is_disabled": 0, "type": "electric_scooter", "lon": -76.9808865, "bike_id": "82b4be288b17d0103a4feebc4e4a60b1", "fusion_lat": 0.0, "name": "82b4be288b17d0103a4feebc4e4a60b1", "is_reserved": 0, "rental_uris": {"android": "https://dc.lft.to/lastmile_qr_scan", "ios": "https://dc.lft.to/lastmile_qr_scan"}, "fusion_lon": 0.0}, {"lat": 38.91872433333333, "is_disabled": 0, "type": "electric_scooter", "lon": -77.0425385, "bike_id": "aab80db0ffed913dd7e8308a2c72885b", "fusion_lat": 0.0, "name": "aab80db0ffed913dd7e8308a2c72885b", "is_reserved": 0, "rental_uris": {"android": "https://dc.lft.to/lastmile_qr_scan", "ios": "https://dc.lft.to/lastmile_qr_scan"}, "fusion_lon": 0.0}, {"lat": 38.860534666666666, "is_disabled": 0, "type": "electric_scooter", "lon": -77.05729033333333, "bike_id": "5964ebfed9051c10840ed1fb421e4241", "fusion_lat": 0.0, "name": "5964ebfed9051c10840ed1fb421e4241", "is_reserved": 0, "rental_uris": {"android": "https://dc.lft.to/lastmile_qr_scan", "ios": "https://dc.lft.to/lastmile_qr_scan"}, "fusion_lon": 0.0}, {"lat": 38.914078833333335, "is_disabled": 0, "type": "electric_scooter", "lon": -77.03263883333334, "bike_id": "ccb0d6d20dd9fb99c73cccdcc969b244", "fusion_lat": 0.0, "name": "ccb0d6d20dd9fb99c73cccdcc969b244", "is_reserved": 0, "rental_uris": {"android": "https://dc.lft.to/lastmile_qr_scan", "ios": "https://dc.lft.to/lastmile_qr_scan"}, "fusion_lon": 0.0}, {"lat": 38.90638233333333, "is_disabled": 0, "type": "electric_scooter", "lon": -77.039581, "bike_id": "45a19c7709a1714933171140037233da", "fusion_lat": 0.0, "name": "45a19c7709a1714933171140037233da", "is_reserved": 0, "rental_uris": {"android": "https://dc.lft.to/lastmile_qr_scan", "ios": "https://dc.lft.to/lastmile_qr_scan"}, "fusion_lon": 0.0}, {"lat": 38.915946, "is_disabled": 0, "type": "electric_scooter", "lon": -77.04170516666667, "bike_id": "d35b45b1277680c15b5138c236cd074c", "fusion_lat": 0.0, "name": "d35b45b1277680c15b5138c236cd074c", "is_reserved": 0, "rental_uris": {"android": "https://dc.lft.to/lastmile_qr_scan", "ios": "https://dc.lft.to/lastmile_qr_scan"}, "fusion_lon": 0.0}, {"lat": 38.903260333333336, "is_disabled": 0, "type": "electric_scooter", "lon": -77.03780033333334, "bike_id": "6ecf6df3619fa1a67d8716beffac1fb3", "fusion_lat": 0.0, "name": "6ecf6df3619fa1a67d8716beffac1fb3", "is_reserved": 0, "rental_uris": {"android": "https://dc.lft.to/lastmile_qr_scan", "ios": "https://dc.lft.to/lastmile_qr_scan"}, "fusion_lon": 0.0}, {"lat": 38.90570266666667, "is_disabled": 0, "type": "electric_scooter", "lon": -76.9887005, "bike_id": "da161ed8f58edf80cb8bc69a3d501b25", "fusion_lat": 0.0, "name": "da161ed8f58edf80cb8bc69a3d501b25", "is_reserved": 0, "rental_uris": {"android": "https://dc.lft.to/lastmile_qr_scan", "ios": "https://dc.lft.to/lastmile_qr_scan"}, "fusion_lon": 0.0}, {"lat": 38.933489, "is_disabled": 0, "type": "electric_scooter", "lon": -77.05867416666666, "bike_id": "0da91f15936fe1cbdf77edd033659be1", "fusion_lat": 0.0, "name": "0da91f15936fe1cbdf77edd033659be1", "is_reserved": 0, "rental_uris": {"android": "https://dc.lft.to/lastmile_qr_scan", "ios": "https://dc.lft.to/lastmile_qr_scan"}, "fusion_lon": 0.0}, {"lat": 38.93162933333333, "is_disabled": 0, "type": "electric_scooter", "lon": -77.03630583333333, "bike_id": "72f6a1dd63fd247df3683e628150c106", "fusion_lat": 0.0, "name": "72f6a1dd63fd247df3683e628150c106", "is_reserved": 0, "rental_uris": {"android": "https://dc.lft.to/lastmile_qr_scan", "ios": "https://dc.lft.to/lastmile_qr_scan"}, "fusion_lon": 0.0}, {"lat": 38.897374, "is_disabled": 0, "type": "electric_scooter", "lon": -77.03177833333334, "bike_id": "282f2054f32e19759d86f20ec24e1cc1", "fusion_lat": 0.0, "name": "282f2054f32e19759d86f20ec24e1cc1", "is_reserved": 0, "rental_uris": {"android": "https://dc.lft.to/lastmile_qr_scan", "ios": "https://dc.lft.to/lastmile_qr_scan"}, "fusion_lon": 0.0}, {"lat": 38.898499, "is_disabled": 0, "type": "electric_scooter", "lon": -77.02870366666667, "bike_id": "ab170f88d36874c8e668a04ef084e5f1", "fusion_lat": 0.0, "name": "ab170f88d36874c8e668a04ef084e5f1", "is_reserved": 0, "rental_uris": {"android": "https://dc.lft.to/lastmile_qr_scan", "ios": "https://dc.lft.to/lastmile_qr_scan"}, "fusion_lon": 0.0}, {"lat": 38.90516066666667, "is_disabled": 0, "type": "electric_scooter", "lon": -77.048652, "bike_id": "b945bf234cfd4de14d19c99bc23443b5", "fusion_lat": 0.0, "name": "b945bf234cfd4de14d19c99bc23443b5", "is_reserved": 0, "rental_uris": {"android": "https://dc.lft.to/lastmile_qr_scan", "ios": "https://dc.lft.to/lastmile_qr_scan"}, "fusion_lon": 0.0}, {"lat": 38.923074666666665, "is_disabled": 0, "type": "electric_scooter", "lon": -77.03967083333333, "bike_id": "72ecbe282058a8233653933b59bfd489", "fusion_lat": 0.0, "name": "72ecbe282058a8233653933b59bfd489", "is_reserved": 0, "rental_uris": {"android": "https://dc.lft.to/lastmile_qr_scan", "ios": "https://dc.lft.to/lastmile_qr_scan"}, "fusion_lon": 0.0}, {"lat": 38.9055315, "is_disabled": 0, "type": "electric_scooter", "lon": -77.04480633333333, "bike_id": "052062cd518960f9414fc4f0f304e202", "fusion_lat": 0.0, "name": "052062cd518960f9414fc4f0f304e202", "is_reserved": 0, "rental_uris": {"android": "https://dc.lft.to/lastmile_qr_scan", "ios": "https://dc.lft.to/lastmile_qr_scan"}, "fusion_lon": 0.0}, {"lat": 38.91171933333333, "is_disabled": 0, "type": "electric_scooter", "lon": -77.03865216666667, "bike_id": "3c2e928ef8be4fb9fe024d3882300ede", "fusion_lat": 0.0, "name": "3c2e928ef8be4fb9fe024d3882300ede", "is_reserved": 0, "rental_uris": {"android": "https://dc.lft.to/lastmile_qr_scan", "ios": "https://dc.lft.to/lastmile_qr_scan"}, "fusion_lon": 0.0}, {"lat": 38.89193916666667, "is_disabled": 0, "type": "electric_scooter", "lon": -76.9962685, "bike_id": "266c3f193182abb9267eb49ed4317873", "fusion_lat": 0.0, "name": "266c3f193182abb9267eb49ed4317873", "is_reserved": 0, "rental_uris": {"android": "https://dc.lft.to/lastmile_qr_scan", "ios": "https://dc.lft.to/lastmile_qr_scan"}, "fusion_lon": 0.0}, {"lat": 38.91104516666667, "is_disabled": 0, "type": "electric_scooter", "lon": -77.002159, "bike_id": "0f28872f01a99f84118438a4c6400778", "fusion_lat": 0.0, "name": "0f28872f01a99f84118438a4c6400778", "is_reserved": 0, "rental_uris": {"android": "https://dc.lft.to/lastmile_qr_scan", "ios": "https://dc.lft.to/lastmile_qr_scan"}, "fusion_lon": 0.0}, {"lat": 38.90958166666667, "is_disabled": 0, "type": "electric_scooter", "lon": -77.03212083333334, "bike_id": "1ad505a37ed8b53686787ca918574f4d", "fusion_lat": 0.0, "name": "1ad505a37ed8b53686787ca918574f4d", "is_reserved": 0, "rental_uris": {"android": "https://dc.lft.to/lastmile_qr_scan", "ios": "https://dc.lft.to/lastmile_qr_scan"}, "fusion_lon": 0.0}, {"lat": 38.90309966666667, "is_disabled": 0, "type": "electric_scooter", "lon": -77.0347515, "bike_id": "2642f9e863fefbb8c9fd61d536a4e306", "fusion_lat": 0.0, "name": "2642f9e863fefbb8c9fd61d536a4e306", "is_reserved": 0, "rental_uris": {"android": "https://dc.lft.to/lastmile_qr_scan", "ios": "https://dc.lft.to/lastmile_qr_scan"}, "fusion_lon": 0.0}, {"lat": 38.92045916666667, "is_disabled": 0, "type": "electric_scooter", "lon": -77.02436716666666, "bike_id": "53b554dd2985b3e640fa50fe31b9546c", "fusion_lat": 0.0, "name": "53b554dd2985b3e640fa50fe31b9546c", "is_reserved": 0, "rental_uris": {"android": "https://dc.lft.to/lastmile_qr_scan", "ios": "https://dc.lft.to/lastmile_qr_scan"}, "fusion_lon": 0.0}, {"lat": 38.86107716666667, "is_disabled": 0, "type": "electric_scooter", "lon": -76.983786, "bike_id": "e74fe96542473379d3605d1182f13a69", "fusion_lat": 0.0, "name": "e74fe96542473379d3605d1182f13a69", "is_reserved": 0, "rental_uris": {"android": "https://dc.lft.to/lastmile_qr_scan", "ios": "https://dc.lft.to/lastmile_qr_scan"}, "fusion_lon": 0.0}, {"lat": 38.895545, "is_disabled": 0, "type": "electric_scooter", "lon": -76.9304625, "bike_id": "355cee39578658b0b0a6f88d9e5f231c", "fusion_lat": 0.0, "name": "355cee39578658b0b0a6f88d9e5f231c", "is_reserved": 0, "rental_uris": {"android": "https://dc.lft.to/lastmile_qr_scan", "ios": "https://dc.lft.to/lastmile_qr_scan"}, "fusion_lon": 0.0}, {"lat": 38.873848, "is_disabled": 0, "type": "electric_scooter", "lon": -77.00039533333333, "bike_id": "1fa39a907175524478188d7540eca1de", "fusion_lat": 0.0, "name": "1fa39a907175524478188d7540eca1de", "is_reserved": 0, "rental_uris": {"android": "https://dc.lft.to/lastmile_qr_scan", "ios": "https://dc.lft.to/lastmile_qr_scan"}, "fusion_lon": 0.0}, {"lat": 38.84610033333333, "is_disabled": 0, "type": "electric_bike", "lon": -76.9690245, "bike_id": "be119929e3b6a9529f4d7914e0ceaf5e", "fusion_lat": 0.0, "name": "be119929e3b6a9529f4d7914e0ceaf5e", "is_reserved": 0, "rental_uris": {"android": "https://dc.lft.to/lastmile_qr_scan", "ios": "https://dc.lft.to/lastmile_qr_scan"}, "fusion_lon": 0.0}, {"lat": 38.90026233333333, "is_disabled": 0, "type": "electric_scooter", "lon": -77.04029183333333, "bike_id": "d6b217080c6a3f7a6e194b204b97b08f", "fusion_lat": 0.0, "name": "d6b217080c6a3f7a6e194b204b97b08f", "is_reserved": 0, "rental_uris": {"android": "https://dc.lft.to/lastmile_qr_scan", "ios": "https://dc.lft.to/lastmile_qr_scan"}, "fusion_lon": 0.0}, {"lat": 38.910492833333336, "is_disabled": 0, "type": "electric_scooter", "lon": -77.023979, "bike_id": "25502a2eaa93407d5015a4b236429cd6", "fusion_lat": 0.0, "name": "25502a2eaa93407d5015a4b236429cd6", "is_reserved": 0, "rental_uris": {"android": "https://dc.lft.to/lastmile_qr_scan", "ios": "https://dc.lft.to/lastmile_qr_scan"}, "fusion_lon": 0.0}, {"lat": 38.90240433333334, "is_disabled": 0, "type": "electric_scooter", "lon": -77.01748366666666, "bike_id": "f28409f05d77ce3e147c27a722387ee1", "fusion_lat": 0.0, "name": "f28409f05d77ce3e147c27a722387ee1", "is_reserved": 0, "rental_uris": {"android": "https://dc.lft.to/lastmile_qr_scan", "ios": "https://dc.lft.to/lastmile_qr_scan"}, "fusion_lon": 0.0}, {"lat": 39.058112666666666, "is_disabled": 0, "type": "electric_bike", "lon": -77.1262955, "bike_id": "043433583ca87fab69ecacbe4cae9a2d", "fusion_lat": 0.0, "name": "043433583ca87fab69ecacbe4cae9a2d", "is_reserved": 0, "rental_uris": {"android": "https://dc.lft.to/lastmile_qr_scan", "ios": "https://dc.lft.to/lastmile_qr_scan"}, "fusion_lon": 0.0}, {"lat": 38.84612583333333, "is_disabled": 0, "type": "electric_bike", "lon": -76.97823616666666, "bike_id": "9cfb3ac1c1252dedeeae694f4f676035", "fusion_lat": 0.0, "name": "9cfb3ac1c1252dedeeae694f4f676035", "is_reserved": 0, "rental_uris": {"android": "https://dc.lft.to/lastmile_qr_scan", "ios": "https://dc.lft.to/lastmile_qr_scan"}, "fusion_lon": 0.0}, {"lat": 38.90014433333333, "is_disabled": 0, "type": "electric_scooter", "lon": -76.99082683333333, "bike_id": "4f3e73681a337e6e027d05ad356d4bd5", "fusion_lat": 0.0, "name": "4f3e73681a337e6e027d05ad356d4bd5", "is_reserved": 0, "rental_uris": {"android": "https://dc.lft.to/lastmile_qr_scan", "ios": "https://dc.lft.to/lastmile_qr_scan"}, "fusion_lon": 0.0}, {"lat": 38.93078766666667, "is_disabled": 0, "type": "electric_scooter", "lon": -77.02793533333333, "bike_id": "45ded8220ca288968962bd17c31d91f4", "fusion_lat": 0.0, "name": "45ded8220ca288968962bd17c31d91f4", "is_reserved": 0, "rental_uris": {"android": "https://dc.lft.to/lastmile_qr_scan", "ios": "https://dc.lft.to/lastmile_qr_scan"}, "fusion_lon": 0.0}, {"lat": 38.9166995, "is_disabled": 0, "type": "electric_scooter", "lon": -77.03214733333333, "bike_id": "6dc89f36f6b99e490f1abb6372dd6796", "fusion_lat": 0.0, "name": "6dc89f36f6b99e490f1abb6372dd6796", "is_reserved": 0, "rental_uris": {"android": "https://dc.lft.to/lastmile_qr_scan", "ios": "https://dc.lft.to/lastmile_qr_scan"}, "fusion_lon": 0.0}, {"lat": 38.868246166666665, "is_disabled": 0, "type": "electric_bike", "lon": -76.98028216666667, "bike_id": "f844feb0c54cc6d0f58956154792f4e9", "fusion_lat": 0.0, "name": "f844feb0c54cc6d0f58956154792f4e9", "is_reserved": 0, "rental_uris": {"android": "https://dc.lft.to/lastmile_qr_scan", "ios": "https://dc.lft.to/lastmile_qr_scan"}, "fusion_lon": 0.0}, {"lat": 38.95192383333333, "is_disabled": 0, "type": "electric_bike", "lon": -76.96726616666666, "bike_id": "6e3e2de9c4401732b23434b695f443ea", "fusion_lat": 0.0, "name": "6e3e2de9c4401732b23434b695f443ea", "is_reserved": 0, "rental_uris": {"android": "https://dc.lft.to/lastmile_qr_scan", "ios": "https://dc.lft.to/lastmile_qr_scan"}, "fusion_lon": 0.0}, {"lat": 38.9149825, "is_disabled": 0, "type": "electric_scooter", "lon": -77.0266275, "bike_id": "aa0259d66fd51fe2f444d03c567676d0", "fusion_lat": 0.0, "name": "aa0259d66fd51fe2f444d03c567676d0", "is_reserved": 0, "rental_uris": {"android": "https://dc.lft.to/lastmile_qr_scan", "ios": "https://dc.lft.to/lastmile_qr_scan"}, "fusion_lon": 0.0}, {"lat": 38.903523, "is_disabled": 0, "type": "electric_scooter", "lon": -77.01088783333333, "bike_id": "86bce35aba7f5e1d968cd6f5bff340da", "fusion_lat": 0.0, "name": "86bce35aba7f5e1d968cd6f5bff340da", "is_reserved": 0, "rental_uris": {"android": "https://dc.lft.to/lastmile_qr_scan", "ios": "https://dc.lft.to/lastmile_qr_scan"}, "fusion_lon": 0.0}, {"lat": 38.92795983333333, "is_disabled": 0, "type": "electric_scooter", "lon": -77.0553125, "bike_id": "36c13e279ce315461923f5c683aeaec4", "fusion_lat": 0.0, "name": "36c13e279ce315461923f5c683aeaec4", "is_reserved": 0, "rental_uris": {"android": "https://dc.lft.to/lastmile_qr_scan", "ios": "https://dc.lft.to/lastmile_qr_scan"}, "fusion_lon": 0.0}, {"lat": 38.906861166666665, "is_disabled": 0, "type": "electric_scooter", "lon": -77.0635605, "bike_id": "e141aa8b347ab1dd7db4112c6d730c6e", "fusion_lat": 0.0, "name": "e141aa8b347ab1dd7db4112c6d730c6e", "is_reserved": 0, "rental_uris": {"android": "https://dc.lft.to/lastmile_qr_scan", "ios": "https://dc.lft.to/lastmile_qr_scan"}, "fusion_lon": 0.0}, {"lat": 39.000148333333335, "is_disabled": 0, "type": "electric_bike", "lon": -76.910797, "bike_id": "b26890fc88793efa398c58df3826914c", "fusion_lat": 0.0, "name": "b26890fc88793efa398c58df3826914c", "is_reserved": 0, "rental_uris": {"android": "https://dc.lft.to/lastmile_qr_scan", "ios": "https://dc.lft.to/lastmile_qr_scan"}, "fusion_lon": 0.0}, {"lat": 38.863847666666665, "is_disabled": 0, "type": "electric_bike", "lon": -76.98992583333333, "bike_id": "500e775fe14512b668fedc901ac03352", "fusion_lat": 0.0, "name": "500e775fe14512b668fedc901ac03352", "is_reserved": 0, "rental_uris": {"android": "https://dc.lft.to/lastmile_qr_scan", "ios": "https://dc.lft.to/lastmile_qr_scan"}, "fusion_lon": 0.0}, {"lat": 38.91854, "is_disabled": 0, "type": "electric_scooter", "lon": -77.045006, "bike_id": "0f167de62e0645ff2879b0a18704c25b", "fusion_lat": 0.0, "name": "0f167de62e0645ff2879b0a18704c25b", "is_reserved": 0, "rental_uris": {"android": "https://dc.lft.to/lastmile_qr_scan", "ios": "https://dc.lft.to/lastmile_qr_scan"}, "fusion_lon": 0.0}, {"lat": 38.93313583333333, "is_disabled": 0, "type": "electric_scooter", "lon": -77.03289366666667, "bike_id": "4ff55a40f13edd2882a582b4e8344a4d", "fusion_lat": 0.0, "name": "4ff55a40f13edd2882a582b4e8344a4d", "is_reserved": 0, "rental_uris": {"android": "https://dc.lft.to/lastmile_qr_scan", "ios": "https://dc.lft.to/lastmile_qr_scan"}, "fusion_lon": 0.0}, {"lat": 38.89528266666667, "is_disabled": 0, "type": "electric_scooter", "lon": -77.032091, "bike_id": "f49016d3357989ffdb82e1728efd608b", "fusion_lat": 0.0, "name": "f49016d3357989ffdb82e1728efd608b", "is_reserved": 0, "rental_uris": {"android": "https://dc.lft.to/lastmile_qr_scan", "ios": "https://dc.lft.to/lastmile_qr_scan"}, "fusion_lon": 0.0}, {"lat": 38.8872135, "is_disabled": 0, "type": "electric_scooter", "lon": -77.013828, "bike_id": "4c6de9f20c1d1b73bbd974089e21e8c6", "fusion_lat": 0.0, "name": "4c6de9f20c1d1b73bbd974089e21e8c6", "is_reserved": 0, "rental_uris": {"android": "https://dc.lft.to/lastmile_qr_scan", "ios": "https://dc.lft.to/lastmile_qr_scan"}, "fusion_lon": 0.0}, {"lat": 38.9397445, "is_disabled": 0, "type": "electric_scooter", "lon": -77.03588933333333, "bike_id": "18aef4157047335264bcaa32917b88db", "fusion_lat": 0.0, "name": "18aef4157047335264bcaa32917b88db", "is_reserved": 0, "rental_uris": {"android": "https://dc.lft.to/lastmile_qr_scan", "ios": "https://dc.lft.to/lastmile_qr_scan"}, "fusion_lon": 0.0}, {"lat": 38.904701833333334, "is_disabled": 0, "type": "electric_bike", "lon": -77.0675335, "bike_id": "23f4737038a180571f821c4fc2d47d29", "fusion_lat": 0.0, "name": "23f4737038a180571f821c4fc2d47d29", "is_reserved": 0, "rental_uris": {"android": "https://dc.lft.to/lastmile_qr_scan", "ios": "https://dc.lft.to/lastmile_qr_scan"}, "fusion_lon": 0.0}, {"lat": 38.86355433333333, "is_disabled": 0, "type": "electric_scooter", "lon": -76.98279616666667, "bike_id": "a018fb48cff0ad9e6f051768703d26fa", "fusion_lat": 0.0, "name": "a018fb48cff0ad9e6f051768703d26fa", "is_reserved": 0, "rental_uris": {"android": "https://dc.lft.to/lastmile_qr_scan", "ios": "https://dc.lft.to/lastmile_qr_scan"}, "fusion_lon": 0.0}, {"lat": 38.802370333333336, "is_disabled": 0, "type": "electric_bike", "lon": -77.06769533333333, "bike_id": "c71ce1a96775a7f4ed122866b3249395", "fusion_lat": 0.0, "name": "c71ce1a96775a7f4ed122866b3249395", "is_reserved": 0, "rental_uris": {"android": "https://dc.lft.to/lastmile_qr_scan", "ios": "https://dc.lft.to/lastmile_qr_scan"}, "fusion_lon": 0.0}, {"lat": 38.932382, "is_disabled": 0, "type": "electric_scooter", "lon": -77.03268783333333, "bike_id": "a3ec351b5a20588def9dc945d118c3c6", "fusion_lat": 0.0, "name": "a3ec351b5a20588def9dc945d118c3c6", "is_reserved": 0, "rental_uris": {"android": "https://dc.lft.to/lastmile_qr_scan", "ios": "https://dc.lft.to/lastmile_qr_scan"}, "fusion_lon": 0.0}, {"lat": 38.924567833333334, "is_disabled": 0, "type": "electric_scooter", "lon": -77.0122385, "bike_id": "c0aa8ec29c03ae2dc618d0cc575c1140", "fusion_lat": 0.0, "name": "c0aa8ec29c03ae2dc618d0cc575c1140", "is_reserved": 0, "rental_uris": {"android": "https://dc.lft.to/lastmile_qr_scan", "ios": "https://dc.lft.to/lastmile_qr_scan"}, "fusion_lon": 0.0}, {"lat": 38.9192125, "is_disabled": 0, "type": "electric_scooter", "lon": -77.00100833333333, "bike_id": "82f0e56ec55a6331261320375de9614f", "fusion_lat": 0.0, "name": "82f0e56ec55a6331261320375de9614f", "is_reserved": 0, "rental_uris": {"android": "https://dc.lft.to/lastmile_qr_scan", "ios": "https://dc.lft.to/lastmile_qr_scan"}, "fusion_lon": 0.0}, {"lat": 38.90787616666667, "is_disabled": 0, "type": "electric_scooter", "lon": -77.06903683333333, "bike_id": "aa1672e15cc53b2f9bd14d7062ed2fdf", "fusion_lat": 0.0, "name": "aa1672e15cc53b2f9bd14d7062ed2fdf", "is_reserved": 0, "rental_uris": {"android": "https://dc.lft.to/lastmile_qr_scan", "ios": "https://dc.lft.to/lastmile_qr_scan"}, "fusion_lon": 0.0}, {"lat": 38.90876816666667, "is_disabled": 0, "type": "electric_scooter", "lon": -77.03674716666667, "bike_id": "dc99f16161e8aa409184840273c5870c", "fusion_lat": 0.0, "name": "dc99f16161e8aa409184840273c5870c", "is_reserved": 0, "rental_uris": {"android": "https://dc.lft.to/lastmile_qr_scan", "ios": "https://dc.lft.to/lastmile_qr_scan"}, "fusion_lon": 0.0}, {"lat": 38.920665166666666, "is_disabled": 0, "type": "electric_scooter", "lon": -77.03290083333333, "bike_id": "80e2b23d060782c4a7750cab7efac6dd", "fusion_lat": 0.0, "name": "80e2b23d060782c4a7750cab7efac6dd", "is_reserved": 0, "rental_uris": {"android": "https://dc.lft.to/lastmile_qr_scan", "ios": "https://dc.lft.to/lastmile_qr_scan"}, "fusion_lon": 0.0}, {"lat": 38.89473816666667, "is_disabled": 0, "type": "electric_scooter", "lon": -77.05011916666666, "bike_id": "6f64b025e487351cf5d9f93837fbc231", "fusion_lat": 0.0, "name": "6f64b025e487351cf5d9f93837fbc231", "is_reserved": 0, "rental_uris": {"android": "https://dc.lft.to/lastmile_qr_scan", "ios": "https://dc.lft.to/lastmile_qr_scan"}, "fusion_lon": 0.0}, {"lat": 38.908828166666666, "is_disabled": 0, "type": "electric_scooter", "lon": -77.03660916666666, "bike_id": "d2ccd4a47720dd9932c6e5f4ca6d0dfa", "fusion_lat": 0.0, "name": "d2ccd4a47720dd9932c6e5f4ca6d0dfa", "is_reserved": 0, "rental_uris": {"android": "https://dc.lft.to/lastmile_qr_scan", "ios": "https://dc.lft.to/lastmile_qr_scan"}, "fusion_lon": 0.0}, {"lat": 38.903635, "is_disabled": 0, "type": "electric_scooter", "lon": -77.02015066666667, "bike_id": "292633f30437960207501770a8abaab7", "fusion_lat": 0.0, "name": "292633f30437960207501770a8abaab7", "is_reserved": 0, "rental_uris": {"android": "https://dc.lft.to/lastmile_qr_scan", "ios": "https://dc.lft.to/lastmile_qr_scan"}, "fusion_lon": 0.0}, {"lat": 38.887287666666666, "is_disabled": 0, "type": "electric_scooter", "lon": -77.02840966666666, "bike_id": "807b5e1920625cd3edcd03ee796475a5", "fusion_lat": 0.0, "name": "807b5e1920625cd3edcd03ee796475a5", "is_reserved": 0, "rental_uris": {"android": "https://dc.lft.to/lastmile_qr_scan", "ios": "https://dc.lft.to/lastmile_qr_scan"}, "fusion_lon": 0.0}, {"lat": 38.918957166666665, "is_disabled": 0, "type": "electric_scooter", "lon": -77.041564, "bike_id": "a743ab9c5dbe4068fd5e0ece23138e74", "fusion_lat": 0.0, "name": "a743ab9c5dbe4068fd5e0ece23138e74", "is_reserved": 0, "rental_uris": {"android": "https://dc.lft.to/lastmile_qr_scan", "ios": "https://dc.lft.to/lastmile_qr_scan"}, "fusion_lon": 0.0}, {"lat": 38.88080983333333, "is_disabled": 0, "type": "electric_scooter", "lon": -76.98535466666667, "bike_id": "13d91f00976f8e4294c0dd4492ee1e02", "fusion_lat": 0.0, "name": "13d91f00976f8e4294c0dd4492ee1e02", "is_reserved": 0, "rental_uris": {"android": "https://dc.lft.to/lastmile_qr_scan", "ios": "https://dc.lft.to/lastmile_qr_scan"}, "fusion_lon": 0.0}, {"lat": 38.91992466666667, "is_disabled": 0, "type": "electric_scooter", "lon": -76.97309866666667, "bike_id": "e89e2a3cd2a08ca5f741d25ad9b298ca", "fusion_lat": 0.0, "name": "e89e2a3cd2a08ca5f741d25ad9b298ca", "is_reserved": 0, "rental_uris": {"android": "https://dc.lft.to/lastmile_qr_scan", "ios": "https://dc.lft.to/lastmile_qr_scan"}, "fusion_lon": 0.0}, {"lat": 39.029304833333335, "is_disabled": 0, "type": "electric_bike", "lon": -77.04930166666666, "bike_id": "c3eefaf78a54f9e02d402ca6965b572c", "fusion_lat": 0.0, "name": "c3eefaf78a54f9e02d402ca6965b572c", "is_reserved": 0, "rental_uris": {"android": "https://dc.lft.to/lastmile_qr_scan", "ios": "https://dc.lft.to/lastmile_qr_scan"}, "fusion_lon": 0.0}, {"lat": 38.91492516666667, "is_disabled": 0, "type": "electric_scooter", "lon": -77.01865416666666, "bike_id": "892781f494e62823159f6700ed6ad3fb", "fusion_lat": 0.0, "name": "892781f494e62823159f6700ed6ad3fb", "is_reserved": 0, "rental_uris": {"android": "https://dc.lft.to/lastmile_qr_scan", "ios": "https://dc.lft.to/lastmile_qr_scan"}, "fusion_lon": 0.0}, {"lat": 38.917034666666666, "is_disabled": 0, "type": "electric_scooter", "lon": -77.03210833333333, "bike_id": "f69afbfa1b69a63282a5b5377cbf9548", "fusion_lat": 0.0, "name": "f69afbfa1b69a63282a5b5377cbf9548", "is_reserved": 0, "rental_uris": {"android": "https://dc.lft.to/lastmile_qr_scan", "ios": "https://dc.lft.to/lastmile_qr_scan"}, "fusion_lon": 0.0}, {"lat": 38.95641166666667, "is_disabled": 0, "type": "electric_scooter", "lon": -76.9979785, "bike_id": "45dc6b50797019acb32faa2804237086", "fusion_lat": 0.0, "name": "45dc6b50797019acb32faa2804237086", "is_reserved": 0, "rental_uris": {"android": "https://dc.lft.to/lastmile_qr_scan", "ios": "https://dc.lft.to/lastmile_qr_scan"}, "fusion_lon": 0.0}, {"lat": 38.95400816666667, "is_disabled": 0, "type": "electric_scooter", "lon": -77.02752233333334, "bike_id": "7176190a1b01e0d09ec0c98456acb073", "fusion_lat": 0.0, "name": "7176190a1b01e0d09ec0c98456acb073", "is_reserved": 0, "rental_uris": {"android": "https://dc.lft.to/lastmile_qr_scan", "ios": "https://dc.lft.to/lastmile_qr_scan"}, "fusion_lon": 0.0}, {"lat": 38.96021483333333, "is_disabled": 0, "type": "electric_bike", "lon": -77.01727866666667, "bike_id": "2572aae18f233d46ab3db3e40294b8c2", "fusion_lat": 0.0, "name": "2572aae18f233d46ab3db3e40294b8c2", "is_reserved": 0, "rental_uris": {"android": "https://dc.lft.to/lastmile_qr_scan", "ios": "https://dc.lft.to/lastmile_qr_scan"}, "fusion_lon": 0.0}, {"lat": 38.875894, "is_disabled": 0, "type": "electric_scooter", "lon": -77.0135995, "bike_id": "817da30ac4e2b107128e2d9e1485692c", "fusion_lat": 0.0, "name": "817da30ac4e2b107128e2d9e1485692c", "is_reserved": 0, "rental_uris": {"android": "https://dc.lft.to/lastmile_qr_scan", "ios": "https://dc.lft.to/lastmile_qr_scan"}, "fusion_lon": 0.0}, {"lat": 38.88468266666667, "is_disabled": 0, "type": "electric_scooter", "lon": -76.992619, "bike_id": "d39472154687aa6037ef23361824acc7", "fusion_lat": 0.0, "name": "d39472154687aa6037ef23361824acc7", "is_reserved": 0, "rental_uris": {"android": "https://dc.lft.to/lastmile_qr_scan", "ios": "https://dc.lft.to/lastmile_qr_scan"}, "fusion_lon": 0.0}, {"lat": 38.95073933333333, "is_disabled": 0, "type": "electric_scooter", "lon": -77.00873683333333, "bike_id": "ab82c33043064159cf7352add0743a37", "fusion_lat": 0.0, "name": "ab82c33043064159cf7352add0743a37", "is_reserved": 0, "rental_uris": {"android": "https://dc.lft.to/lastmile_qr_scan", "ios": "https://dc.lft.to/lastmile_qr_scan"}, "fusion_lon": 0.0}, {"lat": 38.908593, "is_disabled": 0, "type": "electric_bike", "lon": -77.08084166666667, "bike_id": "fd5cb957059645e17faa1a0774482433", "fusion_lat": 0.0, "name": "fd5cb957059645e17faa1a0774482433", "is_reserved": 0, "rental_uris": {"android": "https://dc.lft.to/lastmile_qr_scan", "ios": "https://dc.lft.to/lastmile_qr_scan"}, "fusion_lon": 0.0}, {"lat": 38.92906166666667, "is_disabled": 0, "type": "electric_scooter", "lon": -77.03265566666667, "bike_id": "3a2978224376acc128ddbabfe61c1f01", "fusion_lat": 0.0, "name": "3a2978224376acc128ddbabfe61c1f01", "is_reserved": 0, "rental_uris": {"android": "https://dc.lft.to/lastmile_qr_scan", "ios": "https://dc.lft.to/lastmile_qr_scan"}, "fusion_lon": 0.0}, {"lat": 38.921336833333335, "is_disabled": 0, "type": "electric_scooter", "lon": -77.01796616666667, "bike_id": "7eb820ca6b774cfc5f0a706f78a99dfc", "fusion_lat": 0.0, "name": "7eb820ca6b774cfc5f0a706f78a99dfc", "is_reserved": 0, "rental_uris": {"android": "https://dc.lft.to/lastmile_qr_scan", "ios": "https://dc.lft.to/lastmile_qr_scan"}, "fusion_lon": 0.0}, {"lat": 38.91563166666667, "is_disabled": 0, "type": "electric_scooter", "lon": -77.0502365, "bike_id": "c2b7c11fa76cca21e244ad68da8b8188", "fusion_lat": 0.0, "name": "c2b7c11fa76cca21e244ad68da8b8188", "is_reserved": 0, "rental_uris": {"android": "https://dc.lft.to/lastmile_qr_scan", "ios": "https://dc.lft.to/lastmile_qr_scan"}, "fusion_lon": 0.0}, {"lat": 38.92104766666667, "is_disabled": 0, "type": "electric_scooter", "lon": -77.04701966666667, "bike_id": "9158ee9e75471867cd859b1291ab65b9", "fusion_lat": 0.0, "name": "9158ee9e75471867cd859b1291ab65b9", "is_reserved": 0, "rental_uris": {"android": "https://dc.lft.to/lastmile_qr_scan", "ios": "https://dc.lft.to/lastmile_qr_scan"}, "fusion_lon": 0.0}, {"lat": 38.910843666666665, "is_disabled": 0, "type": "electric_scooter", "lon": -77.02400516666667, "bike_id": "16ef72875f75928ffb654bde458f372d", "fusion_lat": 0.0, "name": "16ef72875f75928ffb654bde458f372d", "is_reserved": 0, "rental_uris": {"android": "https://dc.lft.to/lastmile_qr_scan", "ios": "https://dc.lft.to/lastmile_qr_scan"}, "fusion_lon": 0.0}, {"lat": 38.917174, "is_disabled": 0, "type": "electric_scooter", "lon": -77.03274583333334, "bike_id": "2952b9d9af0ec1ab6c418fcdec0bc035", "fusion_lat": 0.0, "name": "2952b9d9af0ec1ab6c418fcdec0bc035", "is_reserved": 0, "rental_uris": {"android": "https://dc.lft.to/lastmile_qr_scan", "ios": "https://dc.lft.to/lastmile_qr_scan"}, "fusion_lon": 0.0}, {"lat": 38.89221116666667, "is_disabled": 0, "type": "electric_scooter", "lon": -77.0436605, "bike_id": "198392560316440451debe91850bc44e", "fusion_lat": 0.0, "name": "198392560316440451debe91850bc44e", "is_reserved": 0, "rental_uris": {"android": "https://dc.lft.to/lastmile_qr_scan", "ios": "https://dc.lft.to/lastmile_qr_scan"}, "fusion_lon": 0.0}, {"lat": 38.930132666666665, "is_disabled": 0, "type": "electric_scooter", "lon": -77.05522016666667, "bike_id": "df48e1da9412963f08fcc2c9ea0e9171", "fusion_lat": 0.0, "name": "df48e1da9412963f08fcc2c9ea0e9171", "is_reserved": 0, "rental_uris": {"android": "https://dc.lft.to/lastmile_qr_scan", "ios": "https://dc.lft.to/lastmile_qr_scan"}, "fusion_lon": 0.0}, {"lat": 38.89536283333333, "is_disabled": 0, "type": "electric_scooter", "lon": -76.948936, "bike_id": "8d40f06a9c721509c7732b140fc8bafd", "fusion_lat": 0.0, "name": "8d40f06a9c721509c7732b140fc8bafd", "is_reserved": 0, "rental_uris": {"android": "https://dc.lft.to/lastmile_qr_scan", "ios": "https://dc.lft.to/lastmile_qr_scan"}, "fusion_lon": 0.0}, {"lat": 38.872466, "is_disabled": 0, "type": "electric_scooter", "lon": -76.977314, "bike_id": "6c8faa00409dd6a3ba47269b1a6cde15", "fusion_lat": 0.0, "name": "6c8faa00409dd6a3ba47269b1a6cde15", "is_reserved": 0, "rental_uris": {"android": "https://dc.lft.to/lastmile_qr_scan", "ios": "https://dc.lft.to/lastmile_qr_scan"}, "fusion_lon": 0.0}, {"lat": 38.9071905, "is_disabled": 0, "type": "electric_scooter", "lon": -77.039937, "bike_id": "1bd3be34217e9d382f66d171ea9c43f9", "fusion_lat": 0.0, "name": "1bd3be34217e9d382f66d171ea9c43f9", "is_reserved": 0, "rental_uris": {"android": "https://dc.lft.to/lastmile_qr_scan", "ios": "https://dc.lft.to/lastmile_qr_scan"}, "fusion_lon": 0.0}, {"lat": 38.916802, "is_disabled": 0, "type": "electric_scooter", "lon": -77.02969283333333, "bike_id": "f8cc88a2216379a5c637be1fe31cd6fe", "fusion_lat": 0.0, "name": "f8cc88a2216379a5c637be1fe31cd6fe", "is_reserved": 0, "rental_uris": {"android": "https://dc.lft.to/lastmile_qr_scan", "ios": "https://dc.lft.to/lastmile_qr_scan"}, "fusion_lon": 0.0}, {"lat": 38.92869616666667, "is_disabled": 0, "type": "electric_scooter", "lon": -77.02730516666666, "bike_id": "eaa2f0b11598a29e5263467f7bdd405b", "fusion_lat": 0.0, "name": "eaa2f0b11598a29e5263467f7bdd405b", "is_reserved": 0, "rental_uris": {"android": "https://dc.lft.to/lastmile_qr_scan", "ios": "https://dc.lft.to/lastmile_qr_scan"}, "fusion_lon": 0.0}, {"lat": 38.919344333333335, "is_disabled": 0, "type": "electric_scooter", "lon": -77.08136633333334, "bike_id": "9ba4f14658a8401bbf2c6f45009b62fe", "fusion_lat": 0.0, "name": "9ba4f14658a8401bbf2c6f45009b62fe", "is_reserved": 0, "rental_uris": {"android": "https://dc.lft.to/lastmile_qr_scan", "ios": "https://dc.lft.to/lastmile_qr_scan"}, "fusion_lon": 0.0}, {"lat": 38.907434, "is_disabled": 0, "type": "electric_scooter", "lon": -77.03214466666667, "bike_id": "d01bb745b45dfab9917371333ff81edc", "fusion_lat": 0.0, "name": "d01bb745b45dfab9917371333ff81edc", "is_reserved": 0, "rental_uris": {"android": "https://dc.lft.to/lastmile_qr_scan", "ios": "https://dc.lft.to/lastmile_qr_scan"}, "fusion_lon": 0.0}, {"lat": 38.88435916666667, "is_disabled": 0, "type": "electric_scooter", "lon": -76.95761983333334, "bike_id": "f3ab2e47f2fa4be6aa1970e1d1cf3874", "fusion_lat": 0.0, "name": "f3ab2e47f2fa4be6aa1970e1d1cf3874", "is_reserved": 0, "rental_uris": {"android": "https://dc.lft.to/lastmile_qr_scan", "ios": "https://dc.lft.to/lastmile_qr_scan"}, "fusion_lon": 0.0}, {"lat": 38.861050166666665, "is_disabled": 0, "type": "electric_scooter", "lon": -76.98335916666667, "bike_id": "d218da6181be7d71db899bcbd6f1b48f", "fusion_lat": 0.0, "name": "d218da6181be7d71db899bcbd6f1b48f", "is_reserved": 0, "rental_uris": {"android": "https://dc.lft.to/lastmile_qr_scan", "ios": "https://dc.lft.to/lastmile_qr_scan"}, "fusion_lon": 0.0}, {"lat": 38.89222733333333, "is_disabled": 0, "type": "electric_scooter", "lon": -77.04864583333334, "bike_id": "f39d0a3330782d9c8cc86552f195da1c", "fusion_lat": 0.0, "name": "f39d0a3330782d9c8cc86552f195da1c", "is_reserved": 0, "rental_uris": {"android": "https://dc.lft.to/lastmile_qr_scan", "ios": "https://dc.lft.to/lastmile_qr_scan"}, "fusion_lon": 0.0}, {"lat": 38.93190633333333, "is_disabled": 0, "type": "electric_scooter", "lon": -77.02840766666667, "bike_id": "d5da28605a9d57531eb96a217df1fbf4", "fusion_lat": 0.0, "name": "d5da28605a9d57531eb96a217df1fbf4", "is_reserved": 0, "rental_uris": {"android": "https://dc.lft.to/lastmile_qr_scan", "ios": "https://dc.lft.to/lastmile_qr_scan"}, "fusion_lon": 0.0}, {"lat": 38.888690833333335, "is_disabled": 0, "type": "electric_bike", "lon": -77.0400105, "bike_id": "14960549057d528658d2c3c61cfd610f", "fusion_lat": 0.0, "name": "14960549057d528658d2c3c61cfd610f", "is_reserved": 0, "rental_uris": {"android": "https://dc.lft.to/lastmile_qr_scan", "ios": "https://dc.lft.to/lastmile_qr_scan"}, "fusion_lon": 0.0}, {"lat": 38.90062733333333, "is_disabled": 0, "type": "electric_scooter", "lon": -76.933879, "bike_id": "c1106732fbb7d77e7be45a99cf7a14c8", "fusion_lat": 0.0, "name": "c1106732fbb7d77e7be45a99cf7a14c8", "is_reserved": 0, "rental_uris": {"android": "https://dc.lft.to/lastmile_qr_scan", "ios": "https://dc.lft.to/lastmile_qr_scan"}, "fusion_lon": 0.0}, {"lat": 38.911261833333334, "is_disabled": 0, "type": "electric_scooter", "lon": -77.02200433333333, "bike_id": "518a2e4126c288999c90185c3117cea0", "fusion_lat": 0.0, "name": "518a2e4126c288999c90185c3117cea0", "is_reserved": 0, "rental_uris": {"android": "https://dc.lft.to/lastmile_qr_scan", "ios": "https://dc.lft.to/lastmile_qr_scan"}, "fusion_lon": 0.0}, {"lat": 39.01052133333334, "is_disabled": 0, "type": "electric_bike", "lon": -76.91106, "bike_id": "116fdee435df8f462f83a2a725940877", "fusion_lat": 0.0, "name": "116fdee435df8f462f83a2a725940877", "is_reserved": 0, "rental_uris": {"android": "https://dc.lft.to/lastmile_qr_scan", "ios": "https://dc.lft.to/lastmile_qr_scan"}, "fusion_lon": 0.0}, {"lat": 38.935720833333335, "is_disabled": 0, "type": "electric_scooter", "lon": -77.03730366666667, "bike_id": "fcd0cf48eae019a9a4d6e90b013b17da", "fusion_lat": 0.0, "name": "fcd0cf48eae019a9a4d6e90b013b17da", "is_reserved": 0, "rental_uris": {"android": "https://dc.lft.to/lastmile_qr_scan", "ios": "https://dc.lft.to/lastmile_qr_scan"}, "fusion_lon": 0.0}, {"lat": 38.892204666666665, "is_disabled": 0, "type": "electric_scooter", "lon": -77.0480345, "bike_id": "fc7cadbd76cd73db49e8cd37790bcf21", "fusion_lat": 0.0, "name": "fc7cadbd76cd73db49e8cd37790bcf21", "is_reserved": 0, "rental_uris": {"android": "https://dc.lft.to/lastmile_qr_scan", "ios": "https://dc.lft.to/lastmile_qr_scan"}, "fusion_lon": 0.0}, {"lat": 38.90333283333333, "is_disabled": 0, "type": "electric_scooter", "lon": -76.9705805, "bike_id": "9733fe2b53fecb3deac8866c633b4db4", "fusion_lat": 0.0, "name": "9733fe2b53fecb3deac8866c633b4db4", "is_reserved": 0, "rental_uris": {"android": "https://dc.lft.to/lastmile_qr_scan", "ios": "https://dc.lft.to/lastmile_qr_scan"}, "fusion_lon": 0.0}, {"lat": 38.91710333333333, "is_disabled": 0, "type": "electric_scooter", "lon": -77.02982833333333, "bike_id": "a3ed80bde15b7e8106fe15b001623baa", "fusion_lat": 0.0, "name": "a3ed80bde15b7e8106fe15b001623baa", "is_reserved": 0, "rental_uris": {"android": "https://dc.lft.to/lastmile_qr_scan", "ios": "https://dc.lft.to/lastmile_qr_scan"}, "fusion_lon": 0.0}, {"lat": 38.897367, "is_disabled": 0, "type": "electric_bike", "lon": -77.02669166666666, "bike_id": "69ca22538c772eea7c8a4c5a331c3166", "fusion_lat": 0.0, "name": "69ca22538c772eea7c8a4c5a331c3166", "is_reserved": 0, "rental_uris": {"android": "https://dc.lft.to/lastmile_qr_scan", "ios": "https://dc.lft.to/lastmile_qr_scan"}, "fusion_lon": 0.0}, {"lat": 38.894806333333335, "is_disabled": 0, "type": "electric_scooter", "lon": -76.949614, "bike_id": "ef1fe458d5d053112dd2b5364775caed", "fusion_lat": 0.0, "name": "ef1fe458d5d053112dd2b5364775caed", "is_reserved": 0, "rental_uris": {"android": "https://dc.lft.to/lastmile_qr_scan", "ios": "https://dc.lft.to/lastmile_qr_scan"}, "fusion_lon": 0.0}, {"lat": 38.91988516666667, "is_disabled": 0, "type": "electric_scooter", "lon": -77.024004, "bike_id": "298466d41416a418b0728fbb34463b09", "fusion_lat": 0.0, "name": "298466d41416a418b0728fbb34463b09", "is_reserved": 0, "rental_uris": {"android": "https://dc.lft.to/lastmile_qr_scan", "ios": "https://dc.lft.to/lastmile_qr_scan"}, "fusion_lon": 0.0}, {"lat": 38.90885016666667, "is_disabled": 0, "type": "electric_scooter", "lon": -77.0366595, "bike_id": "9efee1d2d20f7dc9adbfd406abf42172", "fusion_lat": 0.0, "name": "9efee1d2d20f7dc9adbfd406abf42172", "is_reserved": 0, "rental_uris": {"android": "https://dc.lft.to/lastmile_qr_scan", "ios": "https://dc.lft.to/lastmile_qr_scan"}, "fusion_lon": 0.0}, {"lat": 38.892224666666664, "is_disabled": 0, "type": "electric_scooter", "lon": -77.04866783333334, "bike_id": "614da9ccc20210766c00fa7dafbe506c", "fusion_lat": 0.0, "name": "614da9ccc20210766c00fa7dafbe506c", "is_reserved": 0, "rental_uris": {"android": "https://dc.lft.to/lastmile_qr_scan", "ios": "https://dc.lft.to/lastmile_qr_scan"}, "fusion_lon": 0.0}, {"lat": 38.90964366666667, "is_disabled": 0, "type": "electric_scooter", "lon": -77.04632033333333, "bike_id": "0d1bb2ea24d7c862af261c4bab4ae647", "fusion_lat": 0.0, "name": "0d1bb2ea24d7c862af261c4bab4ae647", "is_reserved": 0, "rental_uris": {"android": "https://dc.lft.to/lastmile_qr_scan", "ios": "https://dc.lft.to/lastmile_qr_scan"}, "fusion_lon": 0.0}, {"lat": 38.9181045, "is_disabled": 0, "type": "electric_scooter", "lon": -77.027852, "bike_id": "4b6af3599b7f34b5413c5aaccd7308bc", "fusion_lat": 0.0, "name": "4b6af3599b7f34b5413c5aaccd7308bc", "is_reserved": 0, "rental_uris": {"android": "https://dc.lft.to/lastmile_qr_scan", "ios": "https://dc.lft.to/lastmile_qr_scan"}, "fusion_lon": 0.0}, {"lat": 38.91257066666667, "is_disabled": 0, "type": "electric_scooter", "lon": -77.03494833333333, "bike_id": "3676efbc9fb671b6ee956cca375b54a2", "fusion_lat": 0.0, "name": "3676efbc9fb671b6ee956cca375b54a2", "is_reserved": 0, "rental_uris": {"android": "https://dc.lft.to/lastmile_qr_scan", "ios": "https://dc.lft.to/lastmile_qr_scan"}, "fusion_lon": 0.0}, {"lat": 38.9614585, "is_disabled": 0, "type": "electric_bike", "lon": -77.0323825, "bike_id": "b5bcc6c378b67cef19948c8703cce02b", "fusion_lat": 0.0, "name": "b5bcc6c378b67cef19948c8703cce02b", "is_reserved": 0, "rental_uris": {"android": "https://dc.lft.to/lastmile_qr_scan", "ios": "https://dc.lft.to/lastmile_qr_scan"}, "fusion_lon": 0.0}, {"lat": 38.922401, "is_disabled": 0, "type": "electric_scooter", "lon": -77.0291225, "bike_id": "8f19169640ceeb4aa09081c0bd30e025", "fusion_lat": 0.0, "name": "8f19169640ceeb4aa09081c0bd30e025", "is_reserved": 0, "rental_uris": {"android": "https://dc.lft.to/lastmile_qr_scan", "ios": "https://dc.lft.to/lastmile_qr_scan"}, "fusion_lon": 0.0}, {"lat": 38.89866083333333, "is_disabled": 0, "type": "electric_scooter", "lon": -77.0296425, "bike_id": "37d0be735829b9905a1080f7ce4e9f6a", "fusion_lat": 0.0, "name": "37d0be735829b9905a1080f7ce4e9f6a", "is_reserved": 0, "rental_uris": {"android": "https://dc.lft.to/lastmile_qr_scan", "ios": "https://dc.lft.to/lastmile_qr_scan"}, "fusion_lon": 0.0}, {"lat": 38.9101295, "is_disabled": 0, "type": "electric_scooter", "lon": -76.99394666666667, "bike_id": "89074560113d4ab1924ba84303d38f23", "fusion_lat": 0.0, "name": "89074560113d4ab1924ba84303d38f23", "is_reserved": 0, "rental_uris": {"android": "https://dc.lft.to/lastmile_qr_scan", "ios": "https://dc.lft.to/lastmile_qr_scan"}, "fusion_lon": 0.0}, {"lat": 38.86617416666667, "is_disabled": 0, "type": "electric_scooter", "lon": -76.98663166666667, "bike_id": "e2083080b14814c2c62b21aec6f98abb", "fusion_lat": 0.0, "name": "e2083080b14814c2c62b21aec6f98abb", "is_reserved": 0, "rental_uris": {"android": "https://dc.lft.to/lastmile_qr_scan", "ios": "https://dc.lft.to/lastmile_qr_scan"}, "fusion_lon": 0.0}, {"lat": 38.92246016666667, "is_disabled": 0, "type": "electric_scooter", "lon": -77.04257616666666, "bike_id": "7d7727bdcafb9cad171bfdcbbf9f4197", "fusion_lat": 0.0, "name": "7d7727bdcafb9cad171bfdcbbf9f4197", "is_reserved": 0, "rental_uris": {"android": "https://dc.lft.to/lastmile_qr_scan", "ios": "https://dc.lft.to/lastmile_qr_scan"}, "fusion_lon": 0.0}, {"lat": 38.95785933333333, "is_disabled": 0, "type": "electric_scooter", "lon": -77.02463783333333, "bike_id": "27aceaeafcaf3d9d2f52cb8dedba4819", "fusion_lat": 0.0, "name": "27aceaeafcaf3d9d2f52cb8dedba4819", "is_reserved": 0, "rental_uris": {"android": "https://dc.lft.to/lastmile_qr_scan", "ios": "https://dc.lft.to/lastmile_qr_scan"}, "fusion_lon": 0.0}, {"lat": 38.86343316666667, "is_disabled": 0, "type": "electric_scooter", "lon": -76.99006883333334, "bike_id": "1f7736cd6246ab2dcd3e67807b8587a9", "fusion_lat": 0.0, "name": "1f7736cd6246ab2dcd3e67807b8587a9", "is_reserved": 0, "rental_uris": {"android": "https://dc.lft.to/lastmile_qr_scan", "ios": "https://dc.lft.to/lastmile_qr_scan"}, "fusion_lon": 0.0}, {"lat": 38.9212665, "is_disabled": 0, "type": "electric_scooter", "lon": -77.04434016666667, "bike_id": "024db28f27e95266045ee8f43ac03627", "fusion_lat": 0.0, "name": "024db28f27e95266045ee8f43ac03627", "is_reserved": 0, "rental_uris": {"android": "https://dc.lft.to/lastmile_qr_scan", "ios": "https://dc.lft.to/lastmile_qr_scan"}, "fusion_lon": 0.0}, {"lat": 38.8982665, "is_disabled": 0, "type": "electric_scooter", "lon": -77.03282016666667, "bike_id": "e6d8059cf043d896226a0e81090a02f5", "fusion_lat": 0.0, "name": "e6d8059cf043d896226a0e81090a02f5", "is_reserved": 0, "rental_uris": {"android": "https://dc.lft.to/lastmile_qr_scan", "ios": "https://dc.lft.to/lastmile_qr_scan"}, "fusion_lon": 0.0}, {"lat": 38.92188083333333, "is_disabled": 0, "type": "electric_scooter", "lon": -77.0425505, "bike_id": "a27260e8c8b9e623d00d4c46ebfcb9d5", "fusion_lat": 0.0, "name": "a27260e8c8b9e623d00d4c46ebfcb9d5", "is_reserved": 0, "rental_uris": {"android": "https://dc.lft.to/lastmile_qr_scan", "ios": "https://dc.lft.to/lastmile_qr_scan"}, "fusion_lon": 0.0}, {"lat": 38.915764333333335, "is_disabled": 0, "type": "electric_bike", "lon": -77.04695083333333, "bike_id": "b24adccdf093f8327a13a433a024b725", "fusion_lat": 0.0, "name": "b24adccdf093f8327a13a433a024b725", "is_reserved": 0, "rental_uris": {"android": "https://dc.lft.to/lastmile_qr_scan", "ios": "https://dc.lft.to/lastmile_qr_scan"}, "fusion_lon": 0.0}, {"lat": 38.842930333333335, "is_disabled": 0, "type": "electric_scooter", "lon": -76.999491, "bike_id": "3004a544c48c0c12bf900b6fbc03fb96", "fusion_lat": 0.0, "name": "3004a544c48c0c12bf900b6fbc03fb96", "is_reserved": 0, "rental_uris": {"android": "https://dc.lft.to/lastmile_qr_scan", "ios": "https://dc.lft.to/lastmile_qr_scan"}, "fusion_lon": 0.0}, {"lat": 38.914138666666666, "is_disabled": 0, "type": "electric_scooter", "lon": -77.03071916666667, "bike_id": "b4db43be27743aa3cb771ef0feb05508", "fusion_lat": 0.0, "name": "b4db43be27743aa3cb771ef0feb05508", "is_reserved": 0, "rental_uris": {"android": "https://dc.lft.to/lastmile_qr_scan", "ios": "https://dc.lft.to/lastmile_qr_scan"}, "fusion_lon": 0.0}, {"lat": 38.899163333333334, "is_disabled": 0, "type": "electric_scooter", "lon": -76.933821, "bike_id": "9d7946e477a9baacc769ee8adf940798", "fusion_lat": 0.0, "name": "9d7946e477a9baacc769ee8adf940798", "is_reserved": 0, "rental_uris": {"android": "https://dc.lft.to/lastmile_qr_scan", "ios": "https://dc.lft.to/lastmile_qr_scan"}, "fusion_lon": 0.0}, {"lat": 38.927463833333334, "is_disabled": 0, "type": "electric_bike", "lon": -77.07759716666666, "bike_id": "4ce073ed72edf3ec4935d1d986ecb52c", "fusion_lat": 0.0, "name": "4ce073ed72edf3ec4935d1d986ecb52c", "is_reserved": 0, "rental_uris": {"android": "https://dc.lft.to/lastmile_qr_scan", "ios": "https://dc.lft.to/lastmile_qr_scan"}, "fusion_lon": 0.0}, {"lat": 38.88512083333333, "is_disabled": 0, "type": "electric_scooter", "lon": -77.02109033333333, "bike_id": "fb8d0a6c8644364ac0cad983e12e4002", "fusion_lat": 0.0, "name": "fb8d0a6c8644364ac0cad983e12e4002", "is_reserved": 0, "rental_uris": {"android": "https://dc.lft.to/lastmile_qr_scan", "ios": "https://dc.lft.to/lastmile_qr_scan"}, "fusion_lon": 0.0}, {"lat": 38.874921666666665, "is_disabled": 0, "type": "electric_bike", "lon": -77.00816933333333, "bike_id": "e1d244eecc70988a3336cd20ef981166", "fusion_lat": 0.0, "name": "e1d244eecc70988a3336cd20ef981166", "is_reserved": 0, "rental_uris": {"android": "https://dc.lft.to/lastmile_qr_scan", "ios": "https://dc.lft.to/lastmile_qr_scan"}, "fusion_lon": 0.0}, {"lat": 38.955561, "is_disabled": 0, "type": "electric_bike", "lon": -76.93549883333333, "bike_id": "8d799047afdfb6cfd444a1b74b304161", "fusion_lat": 0.0, "name": "8d799047afdfb6cfd444a1b74b304161", "is_reserved": 0, "rental_uris": {"android": "https://dc.lft.to/lastmile_qr_scan", "ios": "https://dc.lft.to/lastmile_qr_scan"}, "fusion_lon": 0.0}, {"lat": 38.93051, "is_disabled": 0, "type": "electric_scooter", "lon": -77.0235245, "bike_id": "7801779f8b0087a36c60c69efe4a0e48", "fusion_lat": 0.0, "name": "7801779f8b0087a36c60c69efe4a0e48", "is_reserved": 0, "rental_uris": {"android": "https://dc.lft.to/lastmile_qr_scan", "ios": "https://dc.lft.to/lastmile_qr_scan"}, "fusion_lon": 0.0}, {"lat": 38.883690333333334, "is_disabled": 0, "type": "electric_scooter", "lon": -76.9962805, "bike_id": "47e83a7fa4525ab605e664207196ce70", "fusion_lat": 0.0, "name": "47e83a7fa4525ab605e664207196ce70", "is_reserved": 0, "rental_uris": {"android": "https://dc.lft.to/lastmile_qr_scan", "ios": "https://dc.lft.to/lastmile_qr_scan"}, "fusion_lon": 0.0}, {"lat": 38.986561333333334, "is_disabled": 0, "type": "electric_bike", "lon": -77.05655666666667, "bike_id": "6fa82905790b9bd0fe0f3569a2873e51", "fusion_lat": 0.0, "name": "6fa82905790b9bd0fe0f3569a2873e51", "is_reserved": 0, "rental_uris": {"android": "https://dc.lft.to/lastmile_qr_scan", "ios": "https://dc.lft.to/lastmile_qr_scan"}, "fusion_lon": 0.0}, {"lat": 38.88598616666667, "is_disabled": 0, "type": "electric_scooter", "lon": -77.002146, "bike_id": "5d8560aefb79b6c0897e04469af13c8f", "fusion_lat": 0.0, "name": "5d8560aefb79b6c0897e04469af13c8f", "is_reserved": 0, "rental_uris": {"android": "https://dc.lft.to/lastmile_qr_scan", "ios": "https://dc.lft.to/lastmile_qr_scan"}, "fusion_lon": 0.0}, {"lat": 38.916829166666666, "is_disabled": 0, "type": "electric_scooter", "lon": -77.02969783333333, "bike_id": "ec57048555e58daf14194471a0468bd5", "fusion_lat": 0.0, "name": "ec57048555e58daf14194471a0468bd5", "is_reserved": 0, "rental_uris": {"android": "https://dc.lft.to/lastmile_qr_scan", "ios": "https://dc.lft.to/lastmile_qr_scan"}, "fusion_lon": 0.0}, {"lat": 38.869178833333336, "is_disabled": 0, "type": "electric_scooter", "lon": -76.98304983333334, "bike_id": "863cb814969032cb23252bb245ea2741", "fusion_lat": 0.0, "name": "863cb814969032cb23252bb245ea2741", "is_reserved": 0, "rental_uris": {"android": "https://dc.lft.to/lastmile_qr_scan", "ios": "https://dc.lft.to/lastmile_qr_scan"}, "fusion_lon": 0.0}, {"lat": 38.874573166666664, "is_disabled": 0, "type": "electric_scooter", "lon": -77.00548566666667, "bike_id": "74817bad02f653360a00aa0bb8dcf3cc", "fusion_lat": 0.0, "name": "74817bad02f653360a00aa0bb8dcf3cc", "is_reserved": 0, "rental_uris": {"android": "https://dc.lft.to/lastmile_qr_scan", "ios": "https://dc.lft.to/lastmile_qr_scan"}, "fusion_lon": 0.0}, {"lat": 38.8442735, "is_disabled": 0, "type": "electric_scooter", "lon": -76.9977655, "bike_id": "2d917be67017bdb5b347c0d094656f67", "fusion_lat": 0.0, "name": "2d917be67017bdb5b347c0d094656f67", "is_reserved": 0, "rental_uris": {"android": "https://dc.lft.to/lastmile_qr_scan", "ios": "https://dc.lft.to/lastmile_qr_scan"}, "fusion_lon": 0.0}, {"lat": 38.90271033333333, "is_disabled": 0, "type": "electric_scooter", "lon": -77.06294016666666, "bike_id": "df1d622e61880a819bae55110598f664", "fusion_lat": 0.0, "name": "df1d622e61880a819bae55110598f664", "is_reserved": 0, "rental_uris": {"android": "https://dc.lft.to/lastmile_qr_scan", "ios": "https://dc.lft.to/lastmile_qr_scan"}, "fusion_lon": 0.0}, {"lat": 38.86429833333333, "is_disabled": 0, "type": "electric_scooter", "lon": -76.97377833333333, "bike_id": "5250e8feb0c625bad8201cf89332dc89", "fusion_lat": 0.0, "name": "5250e8feb0c625bad8201cf89332dc89", "is_reserved": 0, "rental_uris": {"android": "https://dc.lft.to/lastmile_qr_scan", "ios": "https://dc.lft.to/lastmile_qr_scan"}, "fusion_lon": 0.0}, {"lat": 38.89958883333333, "is_disabled": 0, "type": "electric_scooter", "lon": -77.051656, "bike_id": "45b43438b18e5dd09271bd0241fbba88", "fusion_lat": 0.0, "name": "45b43438b18e5dd09271bd0241fbba88", "is_reserved": 0, "rental_uris": {"android": "https://dc.lft.to/lastmile_qr_scan", "ios": "https://dc.lft.to/lastmile_qr_scan"}, "fusion_lon": 0.0}, {"lat": 38.9151135, "is_disabled": 0, "type": "electric_scooter", "lon": -77.01904266666666, "bike_id": "d8106fc459fd3d8cf055b16e4f24e2a3", "fusion_lat": 0.0, "name": "d8106fc459fd3d8cf055b16e4f24e2a3", "is_reserved": 0, "rental_uris": {"android": "https://dc.lft.to/lastmile_qr_scan", "ios": "https://dc.lft.to/lastmile_qr_scan"}, "fusion_lon": 0.0}, {"lat": 38.90811183333334, "is_disabled": 0, "type": "electric_scooter", "lon": -76.98566966666667, "bike_id": "44982d79be5200ebe1e8bc0f84641651", "fusion_lat": 0.0, "name": "44982d79be5200ebe1e8bc0f84641651", "is_reserved": 0, "rental_uris": {"android": "https://dc.lft.to/lastmile_qr_scan", "ios": "https://dc.lft.to/lastmile_qr_scan"}, "fusion_lon": 0.0}, {"lat": 38.89742433333333, "is_disabled": 0, "type": "electric_scooter", "lon": -77.046757, "bike_id": "336a808c1882f6e3e64e543a004c7990", "fusion_lat": 0.0, "name": "336a808c1882f6e3e64e543a004c7990", "is_reserved": 0, "rental_uris": {"android": "https://dc.lft.to/lastmile_qr_scan", "ios": "https://dc.lft.to/lastmile_qr_scan"}, "fusion_lon": 0.0}, {"lat": 38.96227483333333, "is_disabled": 0, "type": "electric_scooter", "lon": -77.02780633333333, "bike_id": "ba31b1c2e670f584ef730d9c211cb507", "fusion_lat": 0.0, "name": "ba31b1c2e670f584ef730d9c211cb507", "is_reserved": 0, "rental_uris": {"android": "https://dc.lft.to/lastmile_qr_scan", "ios": "https://dc.lft.to/lastmile_qr_scan"}, "fusion_lon": 0.0}, {"lat": 38.922597, "is_disabled": 0, "type": "electric_scooter", "lon": -77.04142616666667, "bike_id": "f638af2cd3a98cffeea38d73937d9392", "fusion_lat": 0.0, "name": "f638af2cd3a98cffeea38d73937d9392", "is_reserved": 0, "rental_uris": {"android": "https://dc.lft.to/lastmile_qr_scan", "ios": "https://dc.lft.to/lastmile_qr_scan"}, "fusion_lon": 0.0}, {"lat": 38.89967766666667, "is_disabled": 0, "type": "electric_scooter", "lon": -77.05084916666667, "bike_id": "652abeed04627e3d99804a8a14d3ec6b", "fusion_lat": 0.0, "name": "652abeed04627e3d99804a8a14d3ec6b", "is_reserved": 0, "rental_uris": {"android": "https://dc.lft.to/lastmile_qr_scan", "ios": "https://dc.lft.to/lastmile_qr_scan"}, "fusion_lon": 0.0}, {"lat": 38.922576666666664, "is_disabled": 0, "type": "electric_scooter", "lon": -77.03408916666666, "bike_id": "ed21e3a10b64ac0a8b8f53af08379a23", "fusion_lat": 0.0, "name": "ed21e3a10b64ac0a8b8f53af08379a23", "is_reserved": 0, "rental_uris": {"android": "https://dc.lft.to/lastmile_qr_scan", "ios": "https://dc.lft.to/lastmile_qr_scan"}, "fusion_lon": 0.0}, {"lat": 38.92632866666667, "is_disabled": 0, "type": "electric_scooter", "lon": -77.0378405, "bike_id": "bb8216aea89aaa3ac1644309e0f52dd6", "fusion_lat": 0.0, "name": "bb8216aea89aaa3ac1644309e0f52dd6", "is_reserved": 0, "rental_uris": {"android": "https://dc.lft.to/lastmile_qr_scan", "ios": "https://dc.lft.to/lastmile_qr_scan"}, "fusion_lon": 0.0}, {"lat": 38.90028266666667, "is_disabled": 0, "type": "electric_scooter", "lon": -77.002099, "bike_id": "8828cb3388f341e3f5d4928fa4bf832b", "fusion_lat": 0.0, "name": "8828cb3388f341e3f5d4928fa4bf832b", "is_reserved": 0, "rental_uris": {"android": "https://dc.lft.to/lastmile_qr_scan", "ios": "https://dc.lft.to/lastmile_qr_scan"}, "fusion_lon": 0.0}, {"lat": 38.874734833333335, "is_disabled": 0, "type": "electric_scooter", "lon": -77.01072233333333, "bike_id": "2e3d4a31faae8a7de2a88b9fddf14b03", "fusion_lat": 0.0, "name": "2e3d4a31faae8a7de2a88b9fddf14b03", "is_reserved": 0, "rental_uris": {"android": "https://dc.lft.to/lastmile_qr_scan", "ios": "https://dc.lft.to/lastmile_qr_scan"}, "fusion_lon": 0.0}, {"lat": 38.90293366666667, "is_disabled": 0, "type": "electric_scooter", "lon": -77.05327483333333, "bike_id": "c9f6140454a8e462ac3a1bfd64d3f8ee", "fusion_lat": 0.0, "name": "c9f6140454a8e462ac3a1bfd64d3f8ee", "is_reserved": 0, "rental_uris": {"android": "https://dc.lft.to/lastmile_qr_scan", "ios": "https://dc.lft.to/lastmile_qr_scan"}, "fusion_lon": 0.0}, {"lat": 38.892207166666665, "is_disabled": 0, "type": "electric_scooter", "lon": -77.026423, "bike_id": "f965c446c26f52b5d5eb546c4a656790", "fusion_lat": 0.0, "name": "f965c446c26f52b5d5eb546c4a656790", "is_reserved": 0, "rental_uris": {"android": "https://dc.lft.to/lastmile_qr_scan", "ios": "https://dc.lft.to/lastmile_qr_scan"}, "fusion_lon": 0.0}, {"lat": 38.896746666666665, "is_disabled": 0, "type": "electric_scooter", "lon": -77.04485733333334, "bike_id": "36a0e124485ac1a86bb79dafc73b8a90", "fusion_lat": 0.0, "name": "36a0e124485ac1a86bb79dafc73b8a90", "is_reserved": 0, "rental_uris": {"android": "https://dc.lft.to/lastmile_qr_scan", "ios": "https://dc.lft.to/lastmile_qr_scan"}, "fusion_lon": 0.0}, {"lat": 38.90297, "is_disabled": 0, "type": "electric_scooter", "lon": -77.034576, "bike_id": "94807ca9031afb26f94f23b3ebc83a2e", "fusion_lat": 0.0, "name": "94807ca9031afb26f94f23b3ebc83a2e", "is_reserved": 0, "rental_uris": {"android": "https://dc.lft.to/lastmile_qr_scan", "ios": "https://dc.lft.to/lastmile_qr_scan"}, "fusion_lon": 0.0}, {"lat": 38.91704883333333, "is_disabled": 0, "type": "electric_scooter", "lon": -77.032718, "bike_id": "ff8c2da8b83e8046f87ca902c7909ee0", "fusion_lat": 0.0, "name": "ff8c2da8b83e8046f87ca902c7909ee0", "is_reserved": 0, "rental_uris": {"android": "https://dc.lft.to/lastmile_qr_scan", "ios": "https://dc.lft.to/lastmile_qr_scan"}, "fusion_lon": 0.0}, {"lat": 38.924597, "is_disabled": 0, "type": "electric_scooter", "lon": -77.03959466666667, "bike_id": "cbdea2e2719d9a58ff77c0f491de6e06", "fusion_lat": 0.0, "name": "cbdea2e2719d9a58ff77c0f491de6e06", "is_reserved": 0, "rental_uris": {"android": "https://dc.lft.to/lastmile_qr_scan", "ios": "https://dc.lft.to/lastmile_qr_scan"}, "fusion_lon": 0.0}, {"lat": 38.908100166666664, "is_disabled": 0, "type": "electric_scooter", "lon": -76.99857966666667, "bike_id": "4af5a970a2fe3a3eac92f0d820e41285", "fusion_lat": 0.0, "name": "4af5a970a2fe3a3eac92f0d820e41285", "is_reserved": 0, "rental_uris": {"android": "https://dc.lft.to/lastmile_qr_scan", "ios": "https://dc.lft.to/lastmile_qr_scan"}, "fusion_lon": 0.0}, {"lat": 38.915562666666666, "is_disabled": 0, "type": "electric_scooter", "lon": -77.03172433333333, "bike_id": "75a356adebb6c705a8c76ee1e3f0a6a2", "fusion_lat": 0.0, "name": "75a356adebb6c705a8c76ee1e3f0a6a2", "is_reserved": 0, "rental_uris": {"android": "https://dc.lft.to/lastmile_qr_scan", "ios": "https://dc.lft.to/lastmile_qr_scan"}, "fusion_lon": 0.0}, {"lat": 38.91124216666667, "is_disabled": 0, "type": "electric_scooter", "lon": -77.03210083333333, "bike_id": "0be7ba356c4d8c17542cfb6fc05bae46", "fusion_lat": 0.0, "name": "0be7ba356c4d8c17542cfb6fc05bae46", "is_reserved": 0, "rental_uris": {"android": "https://dc.lft.to/lastmile_qr_scan", "ios": "https://dc.lft.to/lastmile_qr_scan"}, "fusion_lon": 0.0}, {"lat": 38.92067466666666, "is_disabled": 0, "type": "electric_scooter", "lon": -77.04554966666667, "bike_id": "94543b17dd0ebe2ec640be8267c577f9", "fusion_lat": 0.0, "name": "94543b17dd0ebe2ec640be8267c577f9", "is_reserved": 0, "rental_uris": {"android": "https://dc.lft.to/lastmile_qr_scan", "ios": "https://dc.lft.to/lastmile_qr_scan"}, "fusion_lon": 0.0}, {"lat": 38.9059035, "is_disabled": 0, "type": "electric_scooter", "lon": -76.98636183333333, "bike_id": "900bfb0ebc013d7351c2ec1c4ce00a71", "fusion_lat": 0.0, "name": "900bfb0ebc013d7351c2ec1c4ce00a71", "is_reserved": 0, "rental_uris": {"android": "https://dc.lft.to/lastmile_qr_scan", "ios": "https://dc.lft.to/lastmile_qr_scan"}, "fusion_lon": 0.0}, {"lat": 38.897484166666665, "is_disabled": 0, "type": "electric_scooter", "lon": -77.0467125, "bike_id": "9163c5149c5720d78be557664bf039ce", "fusion_lat": 0.0, "name": "9163c5149c5720d78be557664bf039ce", "is_reserved": 0, "rental_uris": {"android": "https://dc.lft.to/lastmile_qr_scan", "ios": "https://dc.lft.to/lastmile_qr_scan"}, "fusion_lon": 0.0}, {"lat": 38.8932305, "is_disabled": 0, "type": "electric_bike", "lon": -76.92117816666666, "bike_id": "aa67d2fa4fbdc71d83c1ca5e4ba4009a", "fusion_lat": 0.0, "name": "aa67d2fa4fbdc71d83c1ca5e4ba4009a", "is_reserved": 0, "rental_uris": {"android": "https://dc.lft.to/lastmile_qr_scan", "ios": "https://dc.lft.to/lastmile_qr_scan"}, "fusion_lon": 0.0}, {"lat": 38.8781795, "is_disabled": 0, "type": "electric_scooter", "lon": -77.022465, "bike_id": "293d20f0b6c7890d72c51062ecdb820d", "fusion_lat": 0.0, "name": "293d20f0b6c7890d72c51062ecdb820d", "is_reserved": 0, "rental_uris": {"android": "https://dc.lft.to/lastmile_qr_scan", "ios": "https://dc.lft.to/lastmile_qr_scan"}, "fusion_lon": 0.0}, {"lat": 38.9352115, "is_disabled": 0, "type": "electric_bike", "lon": -76.98347083333333, "bike_id": "41aa27cf0b1b4f8eb9e58fe671776784", "fusion_lat": 0.0, "name": "41aa27cf0b1b4f8eb9e58fe671776784", "is_reserved": 0, "rental_uris": {"android": "https://dc.lft.to/lastmile_qr_scan", "ios": "https://dc.lft.to/lastmile_qr_scan"}, "fusion_lon": 0.0}, {"lat": 38.89735016666667, "is_disabled": 0, "type": "electric_scooter", "lon": -76.94727383333333, "bike_id": "835379b43e564180d7f307772f5bfcd9", "fusion_lat": 0.0, "name": "835379b43e564180d7f307772f5bfcd9", "is_reserved": 0, "rental_uris": {"android": "https://dc.lft.to/lastmile_qr_scan", "ios": "https://dc.lft.to/lastmile_qr_scan"}, "fusion_lon": 0.0}, {"lat": 38.899316, "is_disabled": 0, "type": "electric_scooter", "lon": -77.04174083333334, "bike_id": "b5334f0659fce549e589f81cc6424a79", "fusion_lat": 0.0, "name": "b5334f0659fce549e589f81cc6424a79", "is_reserved": 0, "rental_uris": {"android": "https://dc.lft.to/lastmile_qr_scan", "ios": "https://dc.lft.to/lastmile_qr_scan"}, "fusion_lon": 0.0}, {"lat": 38.90378783333333, "is_disabled": 0, "type": "electric_scooter", "lon": -77.05795783333333, "bike_id": "f065a87be600e69789e961abb6eb934f", "fusion_lat": 0.0, "name": "f065a87be600e69789e961abb6eb934f", "is_reserved": 0, "rental_uris": {"android": "https://dc.lft.to/lastmile_qr_scan", "ios": "https://dc.lft.to/lastmile_qr_scan"}, "fusion_lon": 0.0}, {"lat": 38.900152, "is_disabled": 0, "type": "electric_scooter", "lon": -77.011843, "bike_id": "ba0908b08e815b7266032bdfde96f763", "fusion_lat": 0.0, "name": "ba0908b08e815b7266032bdfde96f763", "is_reserved": 0, "rental_uris": {"android": "https://dc.lft.to/lastmile_qr_scan", "ios": "https://dc.lft.to/lastmile_qr_scan"}, "fusion_lon": 0.0}, {"lat": 38.917082666666666, "is_disabled": 0, "type": "electric_scooter", "lon": -77.029806, "bike_id": "0594c6c921d8c6b78e11c32d14a466f6", "fusion_lat": 0.0, "name": "0594c6c921d8c6b78e11c32d14a466f6", "is_reserved": 0, "rental_uris": {"android": "https://dc.lft.to/lastmile_qr_scan", "ios": "https://dc.lft.to/lastmile_qr_scan"}, "fusion_lon": 0.0}, {"lat": 38.914386666666665, "is_disabled": 0, "type": "electric_scooter", "lon": -77.03665616666666, "bike_id": "85fb1e43486cddcd1c1269d1efcd4588", "fusion_lat": 0.0, "name": "85fb1e43486cddcd1c1269d1efcd4588", "is_reserved": 0, "rental_uris": {"android": "https://dc.lft.to/lastmile_qr_scan", "ios": "https://dc.lft.to/lastmile_qr_scan"}, "fusion_lon": 0.0}, {"lat": 38.8645085, "is_disabled": 0, "type": "electric_bike", "lon": -76.945417, "bike_id": "ec05f9c8c680bb54c01e0afcf28a2a3e", "fusion_lat": 0.0, "name": "ec05f9c8c680bb54c01e0afcf28a2a3e", "is_reserved": 0, "rental_uris": {"android": "https://dc.lft.to/lastmile_qr_scan", "ios": "https://dc.lft.to/lastmile_qr_scan"}, "fusion_lon": 0.0}, {"lat": 38.91736916666667, "is_disabled": 0, "type": "electric_scooter", "lon": -77.02117116666666, "bike_id": "77f93be3d93421b509ffa30522f25803", "fusion_lat": 0.0, "name": "77f93be3d93421b509ffa30522f25803", "is_reserved": 0, "rental_uris": {"android": "https://dc.lft.to/lastmile_qr_scan", "ios": "https://dc.lft.to/lastmile_qr_scan"}, "fusion_lon": 0.0}, {"lat": 38.87149316666667, "is_disabled": 0, "type": "electric_bike", "lon": -76.93705033333333, "bike_id": "c52ed00b93c06d122810e4320ca25add", "fusion_lat": 0.0, "name": "c52ed00b93c06d122810e4320ca25add", "is_reserved": 0, "rental_uris": {"android": "https://dc.lft.to/lastmile_qr_scan", "ios": "https://dc.lft.to/lastmile_qr_scan"}, "fusion_lon": 0.0}, {"lat": 38.90915316666667, "is_disabled": 0, "type": "electric_scooter", "lon": -76.99903116666667, "bike_id": "86101c4be5f1d1290a4e43de75628c22", "fusion_lat": 0.0, "name": "86101c4be5f1d1290a4e43de75628c22", "is_reserved": 0, "rental_uris": {"android": "https://dc.lft.to/lastmile_qr_scan", "ios": "https://dc.lft.to/lastmile_qr_scan"}, "fusion_lon": 0.0}, {"lat": 38.916768166666664, "is_disabled": 0, "type": "electric_scooter", "lon": -77.0295735, "bike_id": "63616dc39c61630aff4bcfa488a75057", "fusion_lat": 0.0, "name": "63616dc39c61630aff4bcfa488a75057", "is_reserved": 0, "rental_uris": {"android": "https://dc.lft.to/lastmile_qr_scan", "ios": "https://dc.lft.to/lastmile_qr_scan"}, "fusion_lon": 0.0}, {"lat": 38.8745865, "is_disabled": 0, "type": "electric_scooter", "lon": -77.0054345, "bike_id": "ac9c351ef815dd3701c598e2ec8fad3e", "fusion_lat": 0.0, "name": "ac9c351ef815dd3701c598e2ec8fad3e", "is_reserved": 0, "rental_uris": {"android": "https://dc.lft.to/lastmile_qr_scan", "ios": "https://dc.lft.to/lastmile_qr_scan"}, "fusion_lon": 0.0}, {"lat": 38.956344, "is_disabled": 0, "type": "electric_scooter", "lon": -77.03308383333334, "bike_id": "2d9400022749764d9d58b86497379545", "fusion_lat": 0.0, "name": "2d9400022749764d9d58b86497379545", "is_reserved": 0, "rental_uris": {"android": "https://dc.lft.to/lastmile_qr_scan", "ios": "https://dc.lft.to/lastmile_qr_scan"}, "fusion_lon": 0.0}, {"lat": 38.87393133333333, "is_disabled": 0, "type": "electric_scooter", "lon": -77.00029016666667, "bike_id": "b8b5c92a0823781d80ff23ab7bc7a5c4", "fusion_lat": 0.0, "name": "b8b5c92a0823781d80ff23ab7bc7a5c4", "is_reserved": 0, "rental_uris": {"android": "https://dc.lft.to/lastmile_qr_scan", "ios": "https://dc.lft.to/lastmile_qr_scan"}, "fusion_lon": 0.0}, {"lat": 38.898504, "is_disabled": 0, "type": "electric_scooter", "lon": -77.03939816666667, "bike_id": "ae5b0f6d450ac931e1b08036a0a1e3e2", "fusion_lat": 0.0, "name": "ae5b0f6d450ac931e1b08036a0a1e3e2", "is_reserved": 0, "rental_uris": {"android": "https://dc.lft.to/lastmile_qr_scan", "ios": "https://dc.lft.to/lastmile_qr_scan"}, "fusion_lon": 0.0}, {"lat": 38.9182985, "is_disabled": 0, "type": "electric_scooter", "lon": -77.03186533333333, "bike_id": "e98443699c14237d4382a7fcac7dba40", "fusion_lat": 0.0, "name": "e98443699c14237d4382a7fcac7dba40", "is_reserved": 0, "rental_uris": {"android": "https://dc.lft.to/lastmile_qr_scan", "ios": "https://dc.lft.to/lastmile_qr_scan"}, "fusion_lon": 0.0}, {"lat": 38.9191135, "is_disabled": 0, "type": "electric_scooter", "lon": -77.02400866666666, "bike_id": "e03b5ef6379405c4479e7aed71cf1775", "fusion_lat": 0.0, "name": "e03b5ef6379405c4479e7aed71cf1775", "is_reserved": 0, "rental_uris": {"android": "https://dc.lft.to/lastmile_qr_scan", "ios": "https://dc.lft.to/lastmile_qr_scan"}, "fusion_lon": 0.0}, {"lat": 38.919070833333336, "is_disabled": 0, "type": "electric_scooter", "lon": -77.02456866666667, "bike_id": "b18412215ee682b23b5a20465471570c", "fusion_lat": 0.0, "name": "b18412215ee682b23b5a20465471570c", "is_reserved": 0, "rental_uris": {"android": "https://dc.lft.to/lastmile_qr_scan", "ios": "https://dc.lft.to/lastmile_qr_scan"}, "fusion_lon": 0.0}, {"lat": 38.9086095, "is_disabled": 0, "type": "electric_scooter", "lon": -77.04590716666667, "bike_id": "73f102d050b0680733fda74639818f8d", "fusion_lat": 0.0, "name": "73f102d050b0680733fda74639818f8d", "is_reserved": 0, "rental_uris": {"android": "https://dc.lft.to/lastmile_qr_scan", "ios": "https://dc.lft.to/lastmile_qr_scan"}, "fusion_lon": 0.0}, {"lat": 38.93496, "is_disabled": 0, "type": "electric_scooter", "lon": -77.058027, "bike_id": "df97c67c3ae63479fc19bdb74e113fb6", "fusion_lat": 0.0, "name": "df97c67c3ae63479fc19bdb74e113fb6", "is_reserved": 0, "rental_uris": {"android": "https://dc.lft.to/lastmile_qr_scan", "ios": "https://dc.lft.to/lastmile_qr_scan"}, "fusion_lon": 0.0}, {"lat": 38.917125, "is_disabled": 0, "type": "electric_scooter", "lon": -77.03331283333333, "bike_id": "cca2c141b84cca9fad450fd6d3d667cb", "fusion_lat": 0.0, "name": "cca2c141b84cca9fad450fd6d3d667cb", "is_reserved": 0, "rental_uris": {"android": "https://dc.lft.to/lastmile_qr_scan", "ios": "https://dc.lft.to/lastmile_qr_scan"}, "fusion_lon": 0.0}, {"lat": 38.876819833333336, "is_disabled": 0, "type": "electric_scooter", "lon": -77.00746666666667, "bike_id": "e6762290e28a68b091c872841d4eba06", "fusion_lat": 0.0, "name": "e6762290e28a68b091c872841d4eba06", "is_reserved": 0, "rental_uris": {"android": "https://dc.lft.to/lastmile_qr_scan", "ios": "https://dc.lft.to/lastmile_qr_scan"}, "fusion_lon": 0.0}, {"lat": 38.92385433333333, "is_disabled": 0, "type": "electric_scooter", "lon": -77.036637, "bike_id": "e199982378d87db2ad5aea139c4452bf", "fusion_lat": 0.0, "name": "e199982378d87db2ad5aea139c4452bf", "is_reserved": 0, "rental_uris": {"android": "https://dc.lft.to/lastmile_qr_scan", "ios": "https://dc.lft.to/lastmile_qr_scan"}, "fusion_lon": 0.0}, {"lat": 38.870134, "is_disabled": 0, "type": "electric_bike", "lon": -76.96023116666667, "bike_id": "14783cd3a26efbadecc2dd97a3d8bcc9", "fusion_lat": 0.0, "name": "14783cd3a26efbadecc2dd97a3d8bcc9", "is_reserved": 0, "rental_uris": {"android": "https://dc.lft.to/lastmile_qr_scan", "ios": "https://dc.lft.to/lastmile_qr_scan"}, "fusion_lon": 0.0}, {"lat": 38.922462333333335, "is_disabled": 0, "type": "electric_scooter", "lon": -77.04270216666667, "bike_id": "efb17ae421ad3a18e96558d9b7d01840", "fusion_lat": 0.0, "name": "efb17ae421ad3a18e96558d9b7d01840", "is_reserved": 0, "rental_uris": {"android": "https://dc.lft.to/lastmile_qr_scan", "ios": "https://dc.lft.to/lastmile_qr_scan"}, "fusion_lon": 0.0}, {"lat": 38.9004265, "is_disabled": 0, "type": "electric_scooter", "lon": -76.99015283333334, "bike_id": "e53251cf5ff5f619f01b2306c3827597", "fusion_lat": 0.0, "name": "e53251cf5ff5f619f01b2306c3827597", "is_reserved": 0, "rental_uris": {"android": "https://dc.lft.to/lastmile_qr_scan", "ios": "https://dc.lft.to/lastmile_qr_scan"}, "fusion_lon": 0.0}, {"lat": 38.917302666666664, "is_disabled": 0, "type": "electric_scooter", "lon": -77.02296566666666, "bike_id": "f66215ce535fc0b5f82d55a815b9c5f3", "fusion_lat": 0.0, "name": "f66215ce535fc0b5f82d55a815b9c5f3", "is_reserved": 0, "rental_uris": {"android": "https://dc.lft.to/lastmile_qr_scan", "ios": "https://dc.lft.to/lastmile_qr_scan"}, "fusion_lon": 0.0}, {"lat": 38.93183916666667, "is_disabled": 0, "type": "electric_bike", "lon": -77.02355816666666, "bike_id": "30818972cb033e1309008441f9f2ddb0", "fusion_lat": 0.0, "name": "30818972cb033e1309008441f9f2ddb0", "is_reserved": 0, "rental_uris": {"android": "https://dc.lft.to/lastmile_qr_scan", "ios": "https://dc.lft.to/lastmile_qr_scan"}, "fusion_lon": 0.0}, {"lat": 38.8368535, "is_disabled": 0, "type": "electric_scooter", "lon": -77.0057985, "bike_id": "3e216cd204d3332af54ea5e19f9005f6", "fusion_lat": 0.0, "name": "3e216cd204d3332af54ea5e19f9005f6", "is_reserved": 0, "rental_uris": {"android": "https://dc.lft.to/lastmile_qr_scan", "ios": "https://dc.lft.to/lastmile_qr_scan"}, "fusion_lon": 0.0}, {"lat": 38.92999866666667, "is_disabled": 0, "type": "electric_scooter", "lon": -77.0323285, "bike_id": "b0e3ec1d0abd89f7b5f2d716fcc527dd", "fusion_lat": 0.0, "name": "b0e3ec1d0abd89f7b5f2d716fcc527dd", "is_reserved": 0, "rental_uris": {"android": "https://dc.lft.to/lastmile_qr_scan", "ios": "https://dc.lft.to/lastmile_qr_scan"}, "fusion_lon": 0.0}, {"lat": 38.936331833333334, "is_disabled": 0, "type": "electric_scooter", "lon": -77.08177666666667, "bike_id": "24455cd7e083cc57550ac0cb1c3c53aa", "fusion_lat": 0.0, "name": "24455cd7e083cc57550ac0cb1c3c53aa", "is_reserved": 0, "rental_uris": {"android": "https://dc.lft.to/lastmile_qr_scan", "ios": "https://dc.lft.to/lastmile_qr_scan"}, "fusion_lon": 0.0}, {"lat": 38.949054833333335, "is_disabled": 0, "type": "electric_bike", "lon": -76.9723785, "bike_id": "8c5630dec70e6eea4300480d29aa5863", "fusion_lat": 0.0, "name": "8c5630dec70e6eea4300480d29aa5863", "is_reserved": 0, "rental_uris": {"android": "https://dc.lft.to/lastmile_qr_scan", "ios": "https://dc.lft.to/lastmile_qr_scan"}, "fusion_lon": 0.0}, {"lat": 38.9168475, "is_disabled": 0, "type": "electric_scooter", "lon": -77.0296145, "bike_id": "6c7ad49b40310f40ac508cb65bc57ac8", "fusion_lat": 0.0, "name": "6c7ad49b40310f40ac508cb65bc57ac8", "is_reserved": 0, "rental_uris": {"android": "https://dc.lft.to/lastmile_qr_scan", "ios": "https://dc.lft.to/lastmile_qr_scan"}, "fusion_lon": 0.0}, {"lat": 38.930829, "is_disabled": 0, "type": "electric_scooter", "lon": -77.0258625, "bike_id": "9b63a42a8b3fb8e928d67b0065614580", "fusion_lat": 0.0, "name": "9b63a42a8b3fb8e928d67b0065614580", "is_reserved": 0, "rental_uris": {"android": "https://dc.lft.to/lastmile_qr_scan", "ios": "https://dc.lft.to/lastmile_qr_scan"}, "fusion_lon": 0.0},