{"data": {"bikes": [{"is_reserved": 0, "bike_id": "bad291699fc0dac5f0bedb5f53be72e8", "type": "electric_bike", "name": "bad291699fc0dac5f0bedb5f53be72e8", "is_disabled": 0, "fusion_lon": 0.0, "rental_uris": {"android": "https://dc.lft.to/lastmile_qr_scan", "ios": "https://dc.lft.to/lastmile_qr_scan"}, "lat": 38.894195, "lon": -76.99983216666666, "fusion_lat": 0.0}, {"is_reserved": 0, "bike_id": "3bf3be457071a4c91002458d77216b34", "type": "electric_scooter", "name": "3bf3be457071a4c91002458d77216b34", "is_disabled": 0, "fusion_lon": 0.0, "rental_uris": {"android": "https://dc.lft.to/lastmile_qr_scan", "ios": "https://dc.lft.to/lastmile_qr_scan"}, "lat": 38.92332366666667, "lon": -77.05687033333334, "fusion_lat": 0.0}, {"is_reserved": 0, "bike_id": "00cd844712c7b48bbe1d54e5aac0aa91", "type": "electric_scooter", "name": "00cd844712c7b48bbe1d54e5aac0aa91", "is_disabled": 0, "fusion_lon": 0.0, "rental_uris": {"android": "https://dc.lft.to/lastmile_qr_scan", "ios": "https://dc.lft.to/lastmile_qr_scan"}, "lat": 38.924375166666664, "lon": -77.04241916666666, "fusion_lat": 0.0}, {"is_reserved": 0, "bike_id": "93738032923a1c3ff48e9649ed1bc176", "type": "electric_scooter", "name": "93738032923a1c3ff48e9649ed1bc176", "is_disabled": 0, "fusion_lon": 0.0, "rental_uris": {"android": "https://dc.lft.to/lastmile_qr_scan", "ios": "https://dc.lft.to/lastmile_qr_scan"}, "lat": 38.905911333333336, "lon": -77.01223966666667, "fusion_lat": 0.0}, {"is_reserved": 0, "bike_id": "e8bb2279355eaa3e87753b310cce6b53", "type": "electric_scooter", "name": "e8bb2279355eaa3e87753b310cce6b53", "is_disabled": 0, "fusion_lon": 0.0, "rental_uris": {"android": "https://dc.lft.to/lastmile_qr_scan", "ios": "https://dc.lft.to/lastmile_qr_scan"}, "lat": 38.92505, "lon": -77.02354016666666, "fusion_lat": 0.0}, {"is_reserved": 0, "bike_id": "08b9e2d0d55305808390e0b2c0b2a6b6", "type": "electric_scooter", "name": "08b9e2d0d55305808390e0b2c0b2a6b6", "is_disabled": 0, "fusion_lon": 0.0, "rental_uris": {"android": "https://dc.lft.to/lastmile_qr_scan", "ios": "https://dc.lft.to/lastmile_qr_scan"}, "lat": 38.90036166666667, "lon": -76.99145266666666, "fusion_lat": 0.0}, {"is_reserved": 0, "bike_id": "bcd14f6f01718eacab4d864ca6fc35bc", "type": "electric_scooter", "name": "bcd14f6f01718eacab4d864ca6fc35bc", "is_disabled": 0, "fusion_lon": 0.0, "rental_uris": {"android": "https://dc.lft.to/lastmile_qr_scan", "ios": "https://dc.lft.to/lastmile_qr_scan"}, "lat": 38.9306415, "lon": -77.02336216666667, "fusion_lat": 0.0}, {"is_reserved": 0, "bike_id": "7d7714d5c078f644631f40a8e83aae20", "type": "electric_scooter", "name": "7d7714d5c078f644631f40a8e83aae20", "is_disabled": 0, "fusion_lon": 0.0, "rental_uris": {"android": "https://dc.lft.to/lastmile_qr_scan", "ios": "https://dc.lft.to/lastmile_qr_scan"}, "lat": 38.900267166666666, "lon": -77.01136316666667, "fusion_lat": 0.0}, {"is_reserved": 0, "bike_id": "42fb3a8343bd230d63cd4f74c0ce96d0", "type": "electric_scooter", "name": "42fb3a8343bd230d63cd4f74c0ce96d0", "is_disabled": 0, "fusion_lon": 0.0, "rental_uris": {"android": "https://dc.lft.to/lastmile_qr_scan", "ios": "https://dc.lft.to/lastmile_qr_scan"}, "lat": 38.91350466666667, "lon": -77.04348316666666, "fusion_lat": 0.0}, {"is_reserved": 0, "bike_id": "1cd28058ff5e112520a1243426270410", "type": "electric_scooter", "name": "1cd28058ff5e112520a1243426270410", "is_disabled": 0, "fusion_lon": 0.0, "rental_uris": {"android": "https://dc.lft.to/lastmile_qr_scan", "ios": "https://dc.lft.to/lastmile_qr_scan"}, "lat": 38.89185166666667, "lon": -77.015305, "fusion_lat": 0.0}, {"is_reserved": 0, "bike_id": "e05bd0a3619307e94ba2a34367f11867", "type": "electric_scooter", "name": "e05bd0a3619307e94ba2a34367f11867", "is_disabled": 0, "fusion_lon": 0.0, "rental_uris": {"android": "https://dc.lft.to/lastmile_qr_scan", "ios": "https://dc.lft.to/lastmile_qr_scan"}, "lat": 38.93203416666667, "lon": -77.04123716666666, "fusion_lat": 0.0}, {"is_reserved": 0, "bike_id": "e7df51d5d6e1d8a13dce58337e515ccc", "type": "electric_scooter", "name": "e7df51d5d6e1d8a13dce58337e515ccc", "is_disabled": 0, "fusion_lon": 0.0, "rental_uris": {"android": "https://dc.lft.to/lastmile_qr_scan", "ios": "https://dc.lft.to/lastmile_qr_scan"}, "lat": 38.901506833333336, "lon": -77.0416195, "fusion_lat": 0.0}, {"is_reserved": 0, "bike_id": "056a8175b19745d6ca97955af12035f6", "type": "electric_scooter", "name": "056a8175b19745d6ca97955af12035f6", "is_disabled": 0, "fusion_lon": 0.0, "rental_uris": {"android": "https://dc.lft.to/lastmile_qr_scan", "ios": "https://dc.lft.to/lastmile_qr_scan"}, "lat": 38.915701, "lon": -77.03650683333333, "fusion_lat": 0.0}, {"is_reserved": 0, "bike_id": "4e78ea28a9a5cdbf55f42a57610bc9df", "type": "electric_scooter", "name": "4e78ea28a9a5cdbf55f42a57610bc9df", "is_disabled": 0, "fusion_lon": 0.0, "rental_uris": {"android": "https://dc.lft.to/lastmile_qr_scan", "ios": "https://dc.lft.to/lastmile_qr_scan"}, "lat": 38.9075465, "lon": -77.01696933333334, "fusion_lat": 0.0}, {"is_reserved": 0, "bike_id": "e6541ef39ccca955eb8c4b77d41a5a71", "type": "electric_scooter", "name": "e6541ef39ccca955eb8c4b77d41a5a71", "is_disabled": 0, "fusion_lon": 0.0, "rental_uris": {"android": "https://dc.lft.to/lastmile_qr_scan", "ios": "https://dc.lft.to/lastmile_qr_scan"}, "lat": 38.911936, "lon": -77.07504916666667, "fusion_lat": 0.0}, {"is_reserved": 0, "bike_id": "403f4c2b7f677119b3a60dc1eb65f65e", "type": "electric_scooter", "name": "403f4c2b7f677119b3a60dc1eb65f65e", "is_disabled": 0, "fusion_lon": 0.0, "rental_uris": {"android": "https://dc.lft.to/lastmile_qr_scan", "ios": "https://dc.lft.to/lastmile_qr_scan"}, "lat": 38.89361666666667, "lon": -77.00332416666667, "fusion_lat": 0.0}, {"is_reserved": 0, "bike_id": "2ec2cf9526ec78bb62d035a9aca19b0c", "type": "electric_scooter", "name": "2ec2cf9526ec78bb62d035a9aca19b0c", "is_disabled": 0, "fusion_lon": 0.0, "rental_uris": {"android": "https://dc.lft.to/lastmile_qr_scan", "ios": "https://dc.lft.to/lastmile_qr_scan"}, "lat": 38.91772183333333, "lon": -77.04414483333333, "fusion_lat": 0.0}, {"is_reserved": 0, "bike_id": "752a85e87078d5640452101c45f5b55c", "type": "electric_scooter", "name": "752a85e87078d5640452101c45f5b55c", "is_disabled": 0, "fusion_lon": 0.0, "rental_uris": {"android": "https://dc.lft.to/lastmile_qr_scan", "ios": "https://dc.lft.to/lastmile_qr_scan"}, "lat": 38.941806666666665, "lon": -77.0240595, "fusion_lat": 0.0}, {"is_reserved": 0, "bike_id": "dcbb5bddf12aaae87b1c36b042f985d9", "type": "electric_scooter", "name": "dcbb5bddf12aaae87b1c36b042f985d9", "is_disabled": 0, "fusion_lon": 0.0, "rental_uris": {"android": "https://dc.lft.to/lastmile_qr_scan", "ios": "https://dc.lft.to/lastmile_qr_scan"}, "lat": 38.895104833333335, "lon": -76.9488755, "fusion_lat": 0.0}, {"is_reserved": 0, "bike_id": "f95568a36ed07224c441efadd5ee4056", "type": "electric_scooter", "name": "f95568a36ed07224c441efadd5ee4056", "is_disabled": 0, "fusion_lon": 0.0, "rental_uris": {"android": "https://dc.lft.to/lastmile_qr_scan", "ios": "https://dc.lft.to/lastmile_qr_scan"}, "lat": 38.9591725, "lon": -77.0229965, "fusion_lat": 0.0}, {"is_reserved": 0, "bike_id": "71d7e0abcb81982b1125ec31489fe8e2", "type": "electric_bike", "name": "71d7e0abcb81982b1125ec31489fe8e2", "is_disabled": 0, "fusion_lon": 0.0, "rental_uris": {"android": "https://dc.lft.to/lastmile_qr_scan", "ios": "https://dc.lft.to/lastmile_qr_scan"}, "lat": 38.87739116666667, "lon": -77.1487255, "fusion_lat": 0.0}, {"is_reserved": 0, "bike_id": "534e2492703250ef385a095c4c527cb9", "type": "electric_scooter", "name": "534e2492703250ef385a095c4c527cb9", "is_disabled": 0, "fusion_lon": 0.0, "rental_uris": {"android": "https://dc.lft.to/lastmile_qr_scan", "ios": "https://dc.lft.to/lastmile_qr_scan"}, "lat": 38.909510833333336, "lon": -77.01277233333333, "fusion_lat": 0.0}, {"is_reserved": 0, "bike_id": "fe19ac725085d784b45d4440a391246d", "type": "electric_scooter", "name": "fe19ac725085d784b45d4440a391246d", "is_disabled": 0, "fusion_lon": 0.0, "rental_uris": {"android": "https://dc.lft.to/lastmile_qr_scan", "ios": "https://dc.lft.to/lastmile_qr_scan"}, "lat": 38.917137, "lon": -77.0415845, "fusion_lat": 0.0}, {"is_reserved": 0, "bike_id": "2fc14ac4c7314fb1e776c42ce0344a63", "type": "electric_scooter", "name": "2fc14ac4c7314fb1e776c42ce0344a63", "is_disabled": 0, "fusion_lon": 0.0, "rental_uris": {"android": "https://dc.lft.to/lastmile_qr_scan", "ios": "https://dc.lft.to/lastmile_qr_scan"}, "lat": 38.910452666666664, "lon": -77.01671416666667, "fusion_lat": 0.0}, {"is_reserved": 0, "bike_id": "1f193168af68ee4911ae923788fd063b", "type": "electric_bike", "name": "1f193168af68ee4911ae923788fd063b", "is_disabled": 0, "fusion_lon": 0.0, "rental_uris": {"android": "https://dc.lft.to/lastmile_qr_scan", "ios": "https://dc.lft.to/lastmile_qr_scan"}, "lat": 38.9100745, "lon": -76.9939585, "fusion_lat": 0.0}, {"is_reserved": 0, "bike_id": "20034dce99db435cd716b587e492f703", "type": "electric_scooter", "name": "20034dce99db435cd716b587e492f703", "is_disabled": 0, "fusion_lon": 0.0, "rental_uris": {"android": "https://dc.lft.to/lastmile_qr_scan", "ios": "https://dc.lft.to/lastmile_qr_scan"}, "lat": 38.938056833333334, "lon": -76.99231266666666, "fusion_lat": 0.0}, {"is_reserved": 0, "bike_id": "b1eebc806d7372ac036f6c8b1a35ac7b", "type": "electric_scooter", "name": "b1eebc806d7372ac036f6c8b1a35ac7b", "is_disabled": 0, "fusion_lon": 0.0, "rental_uris": {"android": "https://dc.lft.to/lastmile_qr_scan", "ios": "https://dc.lft.to/lastmile_qr_scan"}, "lat": 38.91686816666667, "lon": -77.0376395, "fusion_lat": 0.0}, {"is_reserved": 0, "bike_id": "1cc5930e373e690e8808f53ff228ac01", "type": "electric_scooter", "name": "1cc5930e373e690e8808f53ff228ac01", "is_disabled": 0, "fusion_lon": 0.0, "rental_uris": {"android": "https://dc.lft.to/lastmile_qr_scan", "ios": "https://dc.lft.to/lastmile_qr_scan"}, "lat": 38.91689683333333, "lon": -77.03124766666667, "fusion_lat": 0.0}, {"is_reserved": 0, "bike_id": "3243560dc91f361813d3f9d3b2d94b02", "type": "electric_scooter", "name": "3243560dc91f361813d3f9d3b2d94b02", "is_disabled": 0, "fusion_lon": 0.0, "rental_uris": {"android": "https://dc.lft.to/lastmile_qr_scan", "ios": "https://dc.lft.to/lastmile_qr_scan"}, "lat": 38.920669, "lon": -77.0716445, "fusion_lat": 0.0}, {"is_reserved": 0, "bike_id": "af52eedf1a917a72fb3866cd9ed7b49d", "type": "electric_bike", "name": "af52eedf1a917a72fb3866cd9ed7b49d", "is_disabled": 0, "fusion_lon": 0.0, "rental_uris": {"android": "https://dc.lft.to/lastmile_qr_scan", "ios": "https://dc.lft.to/lastmile_qr_scan"}, "lat": 38.9521245, "lon": -77.00250416666667, "fusion_lat": 0.0}, {"is_reserved": 0, "bike_id": "0c78eb07f8484aa437109c8bc04b79c0", "type": "electric_scooter", "name": "0c78eb07f8484aa437109c8bc04b79c0", "is_disabled": 0, "fusion_lon": 0.0, "rental_uris": {"android": "https://dc.lft.to/lastmile_qr_scan", "ios": "https://dc.lft.to/lastmile_qr_scan"}, "lat": 38.9163715, "lon": -77.028756, "fusion_lat": 0.0}, {"is_reserved": 0, "bike_id": "ba8023b5ce8ec0c86842cae2afb1925c", "type": "electric_scooter", "name": "ba8023b5ce8ec0c86842cae2afb1925c", "is_disabled": 0, "fusion_lon": 0.0, "rental_uris": {"android": "https://dc.lft.to/lastmile_qr_scan", "ios": "https://dc.lft.to/lastmile_qr_scan"}, "lat": 38.9748995, "lon": -77.01721133333334, "fusion_lat": 0.0}, {"is_reserved": 0, "bike_id": "4ed5869a2248ed2eeaa35e43903bf4bd", "type": "electric_scooter", "name": "4ed5869a2248ed2eeaa35e43903bf4bd", "is_disabled": 0, "fusion_lon": 0.0, "rental_uris": {"android": "https://dc.lft.to/lastmile_qr_scan", "ios": "https://dc.lft.to/lastmile_qr_scan"}, "lat": 38.90052383333333, "lon": -77.02603516666667, "fusion_lat": 0.0}, {"is_reserved": 0, "bike_id": "1a63d66ea0904165cfd8d5504888c095", "type": "electric_scooter", "name": "1a63d66ea0904165cfd8d5504888c095", "is_disabled": 0, "fusion_lon": 0.0, "rental_uris": {"android": "https://dc.lft.to/lastmile_qr_scan", "ios": "https://dc.lft.to/lastmile_qr_scan"}, "lat": 38.91413816666667, "lon": -77.0255845, "fusion_lat": 0.0}, {"is_reserved": 0, "bike_id": "f964247a5cfbbcc53105c390ba984e6d", "type": "electric_scooter", "name": "f964247a5cfbbcc53105c390ba984e6d", "is_disabled": 0, "fusion_lon": 0.0, "rental_uris": {"android": "https://dc.lft.to/lastmile_qr_scan", "ios": "https://dc.lft.to/lastmile_qr_scan"}, "lat": 38.92073033333333, "lon": -77.02318233333334, "fusion_lat": 0.0}, {"is_reserved": 0, "bike_id": "bca33bc9c61780b0939cfebb0e23fc14", "type": "electric_scooter", "name": "bca33bc9c61780b0939cfebb0e23fc14", "is_disabled": 0, "fusion_lon": 0.0, "rental_uris": {"android": "https://dc.lft.to/lastmile_qr_scan", "ios": "https://dc.lft.to/lastmile_qr_scan"}, "lat": 38.898287833333335, "lon": -77.04478483333334, "fusion_lat": 0.0}, {"is_reserved": 0, "bike_id": "bf54e6d1d5d3ca9db422c748e1c8a414", "type": "electric_scooter", "name": "bf54e6d1d5d3ca9db422c748e1c8a414", "is_disabled": 0, "fusion_lon": 0.0, "rental_uris": {"android": "https://dc.lft.to/lastmile_qr_scan", "ios": "https://dc.lft.to/lastmile_qr_scan"}, "lat": 38.9305795, "lon": -77.03940833333333, "fusion_lat": 0.0}, {"is_reserved": 0, "bike_id": "48f50fff06907b90c03de5345ba170cb", "type": "electric_scooter", "name": "48f50fff06907b90c03de5345ba170cb", "is_disabled": 0, "fusion_lon": 0.0, "rental_uris": {"android": "https://dc.lft.to/lastmile_qr_scan", "ios": "https://dc.lft.to/lastmile_qr_scan"}, "lat": 38.8927285, "lon": -76.9837115, "fusion_lat": 0.0}, {"is_reserved": 0, "bike_id": "61dd5bdc816991bad1b79b7b0b12b110", "type": "electric_scooter", "name": "61dd5bdc816991bad1b79b7b0b12b110", "is_disabled": 0, "fusion_lon": 0.0, "rental_uris": {"android": "https://dc.lft.to/lastmile_qr_scan", "ios": "https://dc.lft.to/lastmile_qr_scan"}, "lat": 38.916286666666664, "lon": -77.03504983333333, "fusion_lat": 0.0}, {"is_reserved": 0, "bike_id": "630152e60af54e84bc5fb787b96be6c4", "type": "electric_scooter", "name": "630152e60af54e84bc5fb787b96be6c4", "is_disabled": 0, "fusion_lon": 0.0, "rental_uris": {"android": "https://dc.lft.to/lastmile_qr_scan", "ios": "https://dc.lft.to/lastmile_qr_scan"}, "lat": 38.91852, "lon": -77.03187383333334, "fusion_lat": 0.0}, {"is_reserved": 0, "bike_id": "17f19e49f9540e42943822d5143f849d", "type": "electric_scooter", "name": "17f19e49f9540e42943822d5143f849d", "is_disabled": 0, "fusion_lon": 0.0, "rental_uris": {"android": "https://dc.lft.to/lastmile_qr_scan", "ios": "https://dc.lft.to/lastmile_qr_scan"}, "lat": 38.935794666666666, "lon": -77.0212225, "fusion_lat": 0.0}, {"is_reserved": 0, "bike_id": "593a7a2721adc15f07481199554d6af2", "type": "electric_scooter", "name": "593a7a2721adc15f07481199554d6af2", "is_disabled": 0, "fusion_lon": 0.0, "rental_uris": {"android": "https://dc.lft.to/lastmile_qr_scan", "ios": "https://dc.lft.to/lastmile_qr_scan"}, "lat": 38.8992845, "lon": -77.04998983333333, "fusion_lat": 0.0}, {"is_reserved": 0, "bike_id": "a9b4fc2f9c521c2afff715af839dac04", "type": "electric_scooter", "name": "a9b4fc2f9c521c2afff715af839dac04", "is_disabled": 0, "fusion_lon": 0.0, "rental_uris": {"android": "https://dc.lft.to/lastmile_qr_scan", "ios": "https://dc.lft.to/lastmile_qr_scan"}, "lat": 38.9053095, "lon": -77.05001033333333, "fusion_lat": 0.0}, {"is_reserved": 0, "bike_id": "ed0aa46a5a51f0ec14421ad978a2d48b", "type": "electric_scooter", "name": "ed0aa46a5a51f0ec14421ad978a2d48b", "is_disabled": 0, "fusion_lon": 0.0, "rental_uris": {"android": "https://dc.lft.to/lastmile_qr_scan", "ios": "https://dc.lft.to/lastmile_qr_scan"}, "lat": 38.88867233333333, "lon": -77.03999916666666, "fusion_lat": 0.0}, {"is_reserved": 0, "bike_id": "b520b6e6ed112c37e8308d7c2e256db5", "type": "electric_scooter", "name": "b520b6e6ed112c37e8308d7c2e256db5", "is_disabled": 0, "fusion_lon": 0.0, "rental_uris": {"android": "https://dc.lft.to/lastmile_qr_scan", "ios": "https://dc.lft.to/lastmile_qr_scan"}, "lat": 38.926712, "lon": -77.04045333333333, "fusion_lat": 0.0}, {"is_reserved": 0, "bike_id": "65072dce65b9510809dc0cd9cbaf1519", "type": "electric_scooter", "name": "65072dce65b9510809dc0cd9cbaf1519", "is_disabled": 0, "fusion_lon": 0.0, "rental_uris": {"android": "https://dc.lft.to/lastmile_qr_scan", "ios": "https://dc.lft.to/lastmile_qr_scan"}, "lat": 38.92162966666667, "lon": -77.0338345, "fusion_lat": 0.0}, {"is_reserved": 0, "bike_id": "6c7af1b4b9a37e11b289345e8aab3043", "type": "electric_scooter", "name": "6c7af1b4b9a37e11b289345e8aab3043", "is_disabled": 0, "fusion_lon": 0.0, "rental_uris": {"android": "https://dc.lft.to/lastmile_qr_scan", "ios": "https://dc.lft.to/lastmile_qr_scan"}, "lat": 38.89980283333333, "lon": -77.02203466666667, "fusion_lat": 0.0}, {"is_reserved": 0, "bike_id": "5d972a1287ca97773ee2387f0019fcca", "type": "electric_scooter", "name": "5d972a1287ca97773ee2387f0019fcca", "is_disabled": 0, "fusion_lon": 0.0, "rental_uris": {"android": "https://dc.lft.to/lastmile_qr_scan", "ios": "https://dc.lft.to/lastmile_qr_scan"}, "lat": 38.920958166666665, "lon": -77.02513266666666, "fusion_lat": 0.0}, {"is_reserved": 0, "bike_id": "686dc9290ba100f808baaa8a9be19039", "type": "electric_scooter", "name": "686dc9290ba100f808baaa8a9be19039", "is_disabled": 0, "fusion_lon": 0.0, "rental_uris": {"android": "https://dc.lft.to/lastmile_qr_scan", "ios": "https://dc.lft.to/lastmile_qr_scan"}, "lat": 38.9021055, "lon": -77.03863516666667, "fusion_lat": 0.0}, {"is_reserved": 0, "bike_id": "f3c0a39572ea8ca72090732bbd855f85", "type": "electric_scooter", "name": "f3c0a39572ea8ca72090732bbd855f85", "is_disabled": 0, "fusion_lon": 0.0, "rental_uris": {"android": "https://dc.lft.to/lastmile_qr_scan", "ios": "https://dc.lft.to/lastmile_qr_scan"}, "lat": 38.93938266666667, "lon": -77.032662, "fusion_lat": 0.0}, {"is_reserved": 0, "bike_id": "67648c6a00740a2e2490ef3deef6273a", "type": "electric_scooter", "name": "67648c6a00740a2e2490ef3deef6273a", "is_disabled": 0, "fusion_lon": 0.0, "rental_uris": {"android": "https://dc.lft.to/lastmile_qr_scan", "ios": "https://dc.lft.to/lastmile_qr_scan"}, "lat": 38.921512666666665, "lon": -77.034671, "fusion_lat": 0.0}, {"is_reserved": 0, "bike_id": "edaddb398724caa57bc6a56809b72932", "type": "electric_scooter", "name": "edaddb398724caa57bc6a56809b72932", "is_disabled": 0, "fusion_lon": 0.0, "rental_uris": {"android": "https://dc.lft.to/lastmile_qr_scan", "ios": "https://dc.lft.to/lastmile_qr_scan"}, "lat": 38.900866, "lon": -77.025407, "fusion_lat": 0.0}, {"is_reserved": 0, "bike_id": "28d3b44c63b9a65072be54f0c347724c", "type": "electric_bike", "name": "28d3b44c63b9a65072be54f0c347724c", "is_disabled": 0, "fusion_lon": 0.0, "rental_uris": {"android": "https://dc.lft.to/lastmile_qr_scan", "ios": "https://dc.lft.to/lastmile_qr_scan"}, "lat": 38.9362255, "lon": -77.02636933333334, "fusion_lat": 0.0}, {"is_reserved": 0, "bike_id": "698b9bba6b4e6dfee78c288853239c8d", "type": "electric_scooter", "name": "698b9bba6b4e6dfee78c288853239c8d", "is_disabled": 0, "fusion_lon": 0.0, "rental_uris": {"android": "https://dc.lft.to/lastmile_qr_scan", "ios": "https://dc.lft.to/lastmile_qr_scan"}, "lat": 38.90155016666667, "lon": -77.04361216666666, "fusion_lat": 0.0}, {"is_reserved": 0, "bike_id": "2cae20def71ab88dec8640393b786b71", "type": "electric_scooter", "name": "2cae20def71ab88dec8640393b786b71", "is_disabled": 0, "fusion_lon": 0.0, "rental_uris": {"android": "https://dc.lft.to/lastmile_qr_scan", "ios": "https://dc.lft.to/lastmile_qr_scan"}, "lat": 38.909744333333336, "lon": -77.04730516666666, "fusion_lat": 0.0}, {"is_reserved": 0, "bike_id": "9b186c5aad00552659c042dab835e507", "type": "electric_scooter", "name": "9b186c5aad00552659c042dab835e507", "is_disabled": 0, "fusion_lon": 0.0, "rental_uris": {"android": "https://dc.lft.to/lastmile_qr_scan", "ios": "https://dc.lft.to/lastmile_qr_scan"}, "lat": 38.87707283333334, "lon": -77.00427883333333, "fusion_lat": 0.0}, {"is_reserved": 0, "bike_id": "dd47e319ff6b7676a116454cc840d1c3", "type": "electric_scooter", "name": "dd47e319ff6b7676a116454cc840d1c3", "is_disabled": 0, "fusion_lon": 0.0, "rental_uris": {"android": "https://dc.lft.to/lastmile_qr_scan", "ios": "https://dc.lft.to/lastmile_qr_scan"}, "lat": 38.918760666666664, "lon": -77.043091, "fusion_lat": 0.0}, {"is_reserved": 0, "bike_id": "d339f234afe0cbfeb4309b0102f0f225", "type": "electric_scooter", "name": "d339f234afe0cbfeb4309b0102f0f225", "is_disabled": 0, "fusion_lon": 0.0, "rental_uris": {"android": "https://dc.lft.to/lastmile_qr_scan", "ios": "https://dc.lft.to/lastmile_qr_scan"}, "lat": 38.89249366666667, "lon": -77.03960383333333, "fusion_lat": 0.0}, {"is_reserved": 0, "bike_id": "9680b35b1dd3ae9ce39ffd9521ce4261", "type": "electric_scooter", "name": "9680b35b1dd3ae9ce39ffd9521ce4261", "is_disabled": 0, "fusion_lon": 0.0, "rental_uris": {"android": "https://dc.lft.to/lastmile_qr_scan", "ios": "https://dc.lft.to/lastmile_qr_scan"}, "lat": 38.893536, "lon": -77.00335016666666, "fusion_lat": 0.0}, {"is_reserved": 0, "bike_id": "1a0c51c54ce172c2376fe2bd209fb618", "type": "electric_scooter", "name": "1a0c51c54ce172c2376fe2bd209fb618", "is_disabled": 0, "fusion_lon": 0.0, "rental_uris": {"android": "https://dc.lft.to/lastmile_qr_scan", "ios": "https://dc.lft.to/lastmile_qr_scan"}, "lat": 38.914287, "lon": -77.02814133333334, "fusion_lat": 0.0}, {"is_reserved": 0, "bike_id": "b3ce6253a39d09c4b344d7c7c25693a4", "type": "electric_scooter", "name": "b3ce6253a39d09c4b344d7c7c25693a4", "is_disabled": 0, "fusion_lon": 0.0, "rental_uris": {"android": "https://dc.lft.to/lastmile_qr_scan", "ios": "https://dc.lft.to/lastmile_qr_scan"}, "lat": 38.95734366666667, "lon": -77.02339766666667, "fusion_lat": 0.0}, {"is_reserved": 0, "bike_id": "e3350048480d3c32d6a1dbe032df8af9", "type": "electric_scooter", "name": "e3350048480d3c32d6a1dbe032df8af9", "is_disabled": 0, "fusion_lon": 0.0, "rental_uris": {"android": "https://dc.lft.to/lastmile_qr_scan", "ios": "https://dc.lft.to/lastmile_qr_scan"}, "lat": 38.91255666666667, "lon": -77.047363, "fusion_lat": 0.0}, {"is_reserved": 0, "bike_id": "f64ec142e6a7cdc9bf6f5ca7ef5743cd", "type": "electric_scooter", "name": "f64ec142e6a7cdc9bf6f5ca7ef5743cd", "is_disabled": 0, "fusion_lon": 0.0, "rental_uris": {"android": "https://dc.lft.to/lastmile_qr_scan", "ios": "https://dc.lft.to/lastmile_qr_scan"}, "lat": 38.91692416666667, "lon": -77.04607516666667, "fusion_lat": 0.0}, {"is_reserved": 0, "bike_id": "b0973568c2e0af49306f5a71cccf7757", "type": "electric_scooter", "name": "b0973568c2e0af49306f5a71cccf7757", "is_disabled": 0, "fusion_lon": 0.0, "rental_uris": {"android": "https://dc.lft.to/lastmile_qr_scan", "ios": "https://dc.lft.to/lastmile_qr_scan"}, "lat": 38.92247, "lon": -77.038703, "fusion_lat": 0.0}, {"is_reserved": 0, "bike_id": "bd662ac5b96af3692af346509038b349", "type": "electric_scooter", "name": "bd662ac5b96af3692af346509038b349", "is_disabled": 0, "fusion_lon": 0.0, "rental_uris": {"android": "https://dc.lft.to/lastmile_qr_scan", "ios": "https://dc.lft.to/lastmile_qr_scan"}, "lat": 38.93028533333333, "lon": -77.02636716666666, "fusion_lat": 0.0}, {"is_reserved": 0, "bike_id": "f68dc4e9951872d31c337481d887264b", "type": "electric_scooter", "name": "f68dc4e9951872d31c337481d887264b", "is_disabled": 0, "fusion_lon": 0.0, "rental_uris": {"android": "https://dc.lft.to/lastmile_qr_scan", "ios": "https://dc.lft.to/lastmile_qr_scan"}, "lat": 38.9232375, "lon": -77.055687, "fusion_lat": 0.0}, {"is_reserved": 0, "bike_id": "fe40a34e379bb8959d24df99fe073cdc", "type": "electric_scooter", "name": "fe40a34e379bb8959d24df99fe073cdc", "is_disabled": 0, "fusion_lon": 0.0, "rental_uris": {"android": "https://dc.lft.to/lastmile_qr_scan", "ios": "https://dc.lft.to/lastmile_qr_scan"}, "lat": 38.890449333333336, "lon": -76.9900945, "fusion_lat": 0.0}, {"is_reserved": 0, "bike_id": "889e6d941d27d38e451946bc60230e0c", "type": "electric_scooter", "name": "889e6d941d27d38e451946bc60230e0c", "is_disabled": 0, "fusion_lon": 0.0, "rental_uris": {"android": "https://dc.lft.to/lastmile_qr_scan", "ios": "https://dc.lft.to/lastmile_qr_scan"}, "lat": 38.9078235, "lon": -77.07254633333334, "fusion_lat": 0.0}, {"is_reserved": 0, "bike_id": "0e2b55476a304c6c454a7c9e02d9e2f5", "type": "electric_bike", "name": "0e2b55476a304c6c454a7c9e02d9e2f5", "is_disabled": 0, "fusion_lon": 0.0, "rental_uris": {"android": "https://dc.lft.to/lastmile_qr_scan", "ios": "https://dc.lft.to/lastmile_qr_scan"}, "lat": 38.881411666666665, "lon": -76.98114033333333, "fusion_lat": 0.0}, {"is_reserved": 0, "bike_id": "7fddbd201f5791529e4b3e90ef703966", "type": "electric_scooter", "name": "7fddbd201f5791529e4b3e90ef703966", "is_disabled": 0, "fusion_lon": 0.0, "rental_uris": {"android": "https://dc.lft.to/lastmile_qr_scan", "ios": "https://dc.lft.to/lastmile_qr_scan"}, "lat": 38.8984755, "lon": -77.04366233333333, "fusion_lat": 0.0}, {"is_reserved": 0, "bike_id": "e03451e4b88cc22a83c3e031403e49e7", "type": "electric_scooter", "name": "e03451e4b88cc22a83c3e031403e49e7", "is_disabled": 0, "fusion_lon": 0.0, "rental_uris": {"android": "https://dc.lft.to/lastmile_qr_scan", "ios": "https://dc.lft.to/lastmile_qr_scan"}, "lat": 38.91046033333333, "lon": -77.06458983333333, "fusion_lat": 0.0}, {"is_reserved": 0, "bike_id": "2c1393bae3ef32e61b06522fd8cd1f2f", "type": "electric_scooter", "name": "2c1393bae3ef32e61b06522fd8cd1f2f", "is_disabled": 0, "fusion_lon": 0.0, "rental_uris": {"android": "https://dc.lft.to/lastmile_qr_scan", "ios": "https://dc.lft.to/lastmile_qr_scan"}, "lat": 38.907014333333336, "lon": -76.98700916666667, "fusion_lat": 0.0}, {"is_reserved": 0, "bike_id": "b95869df7b1a72dcb49a0132b7eec860", "type": "electric_bike", "name": "b95869df7b1a72dcb49a0132b7eec860", "is_disabled": 0, "fusion_lon": 0.0, "rental_uris": {"android": "https://dc.lft.to/lastmile_qr_scan", "ios": "https://dc.lft.to/lastmile_qr_scan"}, "lat": 38.932680166666664, "lon": -77.06567666666666, "fusion_lat": 0.0}, {"is_reserved": 0, "bike_id": "ad7de495048b279bb41ab9c2b797c3d3", "type": "electric_scooter", "name": "ad7de495048b279bb41ab9c2b797c3d3", "is_disabled": 0, "fusion_lon": 0.0, "rental_uris": {"android": "https://dc.lft.to/lastmile_qr_scan", "ios": "https://dc.lft.to/lastmile_qr_scan"}, "lat": 38.91718316666667, "lon": -77.04155233333333, "fusion_lat": 0.0}, {"is_reserved": 0, "bike_id": "2c099b3b9f2819e1ab2efd6d2012939d", "type": "electric_scooter", "name": "2c099b3b9f2819e1ab2efd6d2012939d", "is_disabled": 0, "fusion_lon": 0.0, "rental_uris": {"android": "https://dc.lft.to/lastmile_qr_scan", "ios": "https://dc.lft.to/lastmile_qr_scan"}, "lat": 38.9276275, "lon": -77.03658516666667, "fusion_lat": 0.0}, {"is_reserved": 0, "bike_id": "19edbe532cf5cb2879a7a73ddacaed30", "type": "electric_scooter", "name": "19edbe532cf5cb2879a7a73ddacaed30", "is_disabled": 0, "fusion_lon": 0.0, "rental_uris": {"android": "https://dc.lft.to/lastmile_qr_scan", "ios": "https://dc.lft.to/lastmile_qr_scan"}, "lat": 38.9008695, "lon": -77.050207, "fusion_lat": 0.0}, {"is_reserved": 0, "bike_id": "4f48809dc60b21d075cac758b0c9701a", "type": "electric_scooter", "name": "4f48809dc60b21d075cac758b0c9701a", "is_disabled": 0, "fusion_lon": 0.0, "rental_uris": {"android": "https://dc.lft.to/lastmile_qr_scan", "ios": "https://dc.lft.to/lastmile_qr_scan"}, "lat": 38.90115766666667, "lon": -77.04982666666666, "fusion_lat": 0.0}, {"is_reserved": 0, "bike_id": "465b78e37f7cf8d00c0232a5817c2ba6", "type": "electric_scooter", "name": "465b78e37f7cf8d00c0232a5817c2ba6", "is_disabled": 0, "fusion_lon": 0.0, "rental_uris": {"android": "https://dc.lft.to/lastmile_qr_scan", "ios": "https://dc.lft.to/lastmile_qr_scan"}, "lat": 38.884275333333335, "lon": -77.0304625, "fusion_lat": 0.0}, {"is_reserved": 0, "bike_id": "1f537f3271f63647e02029e5223e828b", "type": "electric_scooter", "name": "1f537f3271f63647e02029e5223e828b", "is_disabled": 0, "fusion_lon": 0.0, "rental_uris": {"android": "https://dc.lft.to/lastmile_qr_scan", "ios": "https://dc.lft.to/lastmile_qr_scan"}, "lat": 38.901246666666665, "lon": -77.0361715, "fusion_lat": 0.0}, {"is_reserved": 0, "bike_id": "5ec4ef1c91366050231a6857038adf88", "type": "electric_scooter", "name": "5ec4ef1c91366050231a6857038adf88", "is_disabled": 0, "fusion_lon": 0.0, "rental_uris": {"android": "https://dc.lft.to/lastmile_qr_scan", "ios": "https://dc.lft.to/lastmile_qr_scan"}, "lat": 38.912716, "lon": -77.022104, "fusion_lat": 0.0}, {"is_reserved": 0, "bike_id": "b47bb5f4c8c40ed4ddfc15d0b6211530", "type": "electric_scooter", "name": "b47bb5f4c8c40ed4ddfc15d0b6211530", "is_disabled": 0, "fusion_lon": 0.0, "rental_uris": {"android": "https://dc.lft.to/lastmile_qr_scan", "ios": "https://dc.lft.to/lastmile_qr_scan"}, "lat": 38.896181, "lon": -76.98558183333333, "fusion_lat": 0.0}, {"is_reserved": 0, "bike_id": "a82704c94055f678b1ac5406ce847780", "type": "electric_scooter", "name": "a82704c94055f678b1ac5406ce847780", "is_disabled": 0, "fusion_lon": 0.0, "rental_uris": {"android": "https://dc.lft.to/lastmile_qr_scan", "ios": "https://dc.lft.to/lastmile_qr_scan"}, "lat": 38.91406216666667, "lon": -77.0101645, "fusion_lat": 0.0}, {"is_reserved": 0, "bike_id": "f1a7357419ed2ee60d3e38c18d8e6db1", "type": "electric_scooter", "name": "f1a7357419ed2ee60d3e38c18d8e6db1", "is_disabled": 0, "fusion_lon": 0.0, "rental_uris": {"android": "https://dc.lft.to/lastmile_qr_scan", "ios": "https://dc.lft.to/lastmile_qr_scan"}, "lat": 38.923356166666665, "lon": -77.05684333333333, "fusion_lat": 0.0}, {"is_reserved": 0, "bike_id": "6fe5b8cb4d701dca3ac9b8c9b2eac0f9", "type": "electric_bike", "name": "6fe5b8cb4d701dca3ac9b8c9b2eac0f9", "is_disabled": 0, "fusion_lon": 0.0, "rental_uris": {"android": "https://dc.lft.to/lastmile_qr_scan", "ios": "https://dc.lft.to/lastmile_qr_scan"}, "lat": 38.8528815, "lon": -77.049638, "fusion_lat": 0.0}, {"is_reserved": 0, "bike_id": "f5a74dcac15cdbf95f17198a1a9628fc", "type": "electric_scooter", "name": "f5a74dcac15cdbf95f17198a1a9628fc", "is_disabled": 0, "fusion_lon": 0.0, "rental_uris": {"android": "https://dc.lft.to/lastmile_qr_scan", "ios": "https://dc.lft.to/lastmile_qr_scan"}, "lat": 38.95415633333333, "lon": -77.027643, "fusion_lat": 0.0}, {"is_reserved": 0, "bike_id": "3aa596a869e16816dd6a375b9df243b4", "type": "electric_scooter", "name": "3aa596a869e16816dd6a375b9df243b4", "is_disabled": 0, "fusion_lon": 0.0, "rental_uris": {"android": "https://dc.lft.to/lastmile_qr_scan", "ios": "https://dc.lft.to/lastmile_qr_scan"}, "lat": 38.90645833333333, "lon": -77.0534425, "fusion_lat": 0.0}, {"is_reserved": 0, "bike_id": "4bfc90040acab246d561019d5be8c974", "type": "electric_scooter", "name": "4bfc90040acab246d561019d5be8c974", "is_disabled": 0, "fusion_lon": 0.0, "rental_uris": {"android": "https://dc.lft.to/lastmile_qr_scan", "ios": "https://dc.lft.to/lastmile_qr_scan"}, "lat": 38.931848333333335, "lon": -77.036964, "fusion_lat": 0.0}, {"is_reserved": 0, "bike_id": "c84616bd6bdfc0f2f912d40ba0577960", "type": "electric_scooter", "name": "c84616bd6bdfc0f2f912d40ba0577960", "is_disabled": 0, "fusion_lon": 0.0, "rental_uris": {"android": "https://dc.lft.to/lastmile_qr_scan", "ios": "https://dc.lft.to/lastmile_qr_scan"}, "lat": 38.944554333333336, "lon": -77.06349883333333, "fusion_lat": 0.0}, {"is_reserved": 0, "bike_id": "319056e8d19fb1f090cf6314af334e18", "type": "electric_scooter", "name": "319056e8d19fb1f090cf6314af334e18", "is_disabled": 0, "fusion_lon": 0.0, "rental_uris": {"android": "https://dc.lft.to/lastmile_qr_scan", "ios": "https://dc.lft.to/lastmile_qr_scan"}, "lat": 38.900166666666664, "lon": -77.04379566666667, "fusion_lat": 0.0}, {"is_reserved": 0, "bike_id": "115ff3e8acf9f14e336a8d449729ea38", "type": "electric_scooter", "name": "115ff3e8acf9f14e336a8d449729ea38", "is_disabled": 0, "fusion_lon": 0.0, "rental_uris": {"android": "https://dc.lft.to/lastmile_qr_scan", "ios": "https://dc.lft.to/lastmile_qr_scan"}, "lat": 38.89859666666667, "lon": -76.9318765, "fusion_lat": 0.0}, {"is_reserved": 0, "bike_id": "078b7dd929223ed144a1548b2b4cfec9", "type": "electric_scooter", "name": "078b7dd929223ed144a1548b2b4cfec9", "is_disabled": 0, "fusion_lon": 0.0, "rental_uris": {"android": "https://dc.lft.to/lastmile_qr_scan", "ios": "https://dc.lft.to/lastmile_qr_scan"}, "lat": 38.905845166666666, "lon": -76.98623966666666, "fusion_lat": 0.0}, {"is_reserved": 0, "bike_id": "93de9ced1ef80cd482856e1e82c8ba43", "type": "electric_scooter", "name": "93de9ced1ef80cd482856e1e82c8ba43", "is_disabled": 0, "fusion_lon": 0.0, "rental_uris": {"android": "https://dc.lft.to/lastmile_qr_scan", "ios": "https://dc.lft.to/lastmile_qr_scan"}, "lat": 38.916847833333335, "lon": -77.02949966666667, "fusion_lat": 0.0}, {"is_reserved": 0, "bike_id": "f169fbf709281055ea7b63de390f43cd", "type": "electric_scooter", "name": "f169fbf709281055ea7b63de390f43cd", "is_disabled": 0, "fusion_lon": 0.0, "rental_uris": {"android": "https://dc.lft.to/lastmile_qr_scan", "ios": "https://dc.lft.to/lastmile_qr_scan"}, "lat": 38.918021, "lon": -77.06826, "fusion_lat": 0.0}, {"is_reserved": 0, "bike_id": "0227838987132ca790fcf7a178b4f88f", "type": "electric_scooter", "name": "0227838987132ca790fcf7a178b4f88f", "is_disabled": 0, "fusion_lon": 0.0, "rental_uris": {"android": "https://dc.lft.to/lastmile_qr_scan", "ios": "https://dc.lft.to/lastmile_qr_scan"}, "lat": 38.896019333333335, "lon": -77.022135, "fusion_lat": 0.0}, {"is_reserved": 0, "bike_id": "e0743adb9643e8e085a3b28035b7e9ee", "type": "electric_scooter", "name": "e0743adb9643e8e085a3b28035b7e9ee", "is_disabled": 0, "fusion_lon": 0.0, "rental_uris": {"android": "https://dc.lft.to/lastmile_qr_scan", "ios": "https://dc.lft.to/lastmile_qr_scan"}, "lat": 38.985191666666665, "lon": -77.05426666666666, "fusion_lat": 0.0}, {"is_reserved": 0, "bike_id": "9ec14039b81ef971dd6e5fec0c58f94d", "type": "electric_scooter", "name": "9ec14039b81ef971dd6e5fec0c58f94d", "is_disabled": 0, "fusion_lon": 0.0, "rental_uris": {"android": "https://dc.lft.to/lastmile_qr_scan", "ios": "https://dc.lft.to/lastmile_qr_scan"}, "lat": 38.93224683333333, "lon": -77.0412375, "fusion_lat": 0.0}, {"is_reserved": 0, "bike_id": "41e95350145172a89771811b2423891e", "type": "electric_scooter", "name": "41e95350145172a89771811b2423891e", "is_disabled": 0, "fusion_lon": 0.0, "rental_uris": {"android": "https://dc.lft.to/lastmile_qr_scan", "ios": "https://dc.lft.to/lastmile_qr_scan"}, "lat": 38.90627716666667, "lon": -77.025968, "fusion_lat": 0.0}, {"is_reserved": 0, "bike_id": "8371763449cffbc66df04801cc353dc0", "type": "electric_scooter", "name": "8371763449cffbc66df04801cc353dc0", "is_disabled": 0, "fusion_lon": 0.0, "rental_uris": {"android": "https://dc.lft.to/lastmile_qr_scan", "ios": "https://dc.lft.to/lastmile_qr_scan"}, "lat": 38.942991666666664, "lon": -77.059321, "fusion_lat": 0.0}, {"is_reserved": 0, "bike_id": "fadf48e08d6bcea924a7a5ed82471de2", "type": "electric_scooter", "name": "fadf48e08d6bcea924a7a5ed82471de2", "is_disabled": 0, "fusion_lon": 0.0, "rental_uris": {"android": "https://dc.lft.to/lastmile_qr_scan", "ios": "https://dc.lft.to/lastmile_qr_scan"}, "lat": 38.93411616666667, "lon": -77.041634, "fusion_lat": 0.0}, {"is_reserved": 0, "bike_id": "0484f9acc477367ae9a4bff9faf3a681", "type": "electric_scooter", "name": "0484f9acc477367ae9a4bff9faf3a681", "is_disabled": 0, "fusion_lon": 0.0, "rental_uris": {"android": "https://dc.lft.to/lastmile_qr_scan", "ios": "https://dc.lft.to/lastmile_qr_scan"}, "lat": 38.901134, "lon": -77.04981816666667, "fusion_lat": 0.0}, {"is_reserved": 0, "bike_id": "a949e4824260f85636bac29d1f5c916d", "type": "electric_scooter", "name": "a949e4824260f85636bac29d1f5c916d", "is_disabled": 0, "fusion_lon": 0.0, "rental_uris": {"android": "https://dc.lft.to/lastmile_qr_scan", "ios": "https://dc.lft.to/lastmile_qr_scan"}, "lat": 38.90568616666667, "lon": -77.06279316666667, "fusion_lat": 0.0}, {"is_reserved": 0, "bike_id": "c1fdaa0c2d2f8f40e3beacfb740c8ad7", "type": "electric_scooter", "name": "c1fdaa0c2d2f8f40e3beacfb740c8ad7", "is_disabled": 0, "fusion_lon": 0.0, "rental_uris": {"android": "https://dc.lft.to/lastmile_qr_scan", "ios": "https://dc.lft.to/lastmile_qr_scan"}, "lat": 38.8783325, "lon": -77.0086595, "fusion_lat": 0.0}, {"is_reserved": 0, "bike_id": "cb9981de6eb4f30dc33ab700e6b574dd", "type": "electric_scooter", "name": "cb9981de6eb4f30dc33ab700e6b574dd", "is_disabled": 0, "fusion_lon": 0.0, "rental_uris": {"android": "https://dc.lft.to/lastmile_qr_scan", "ios": "https://dc.lft.to/lastmile_qr_scan"}, "lat": 38.920445, "lon": -77.02374516666667, "fusion_lat": 0.0}, {"is_reserved": 0, "bike_id": "ff98445056cf545ed648f593500dbd30", "type": "electric_scooter", "name": "ff98445056cf545ed648f593500dbd30", "is_disabled": 0, "fusion_lon": 0.0, "rental_uris": {"android": "https://dc.lft.to/lastmile_qr_scan", "ios": "https://dc.lft.to/lastmile_qr_scan"}, "lat": 38.9210745, "lon": -77.04014516666666, "fusion_lat": 0.0}, {"is_reserved": 0, "bike_id": "21ca053b678a128262ce0140d97baef3", "type": "electric_scooter", "name": "21ca053b678a128262ce0140d97baef3", "is_disabled": 0, "fusion_lon": 0.0, "rental_uris": {"android": "https://dc.lft.to/lastmile_qr_scan", "ios": "https://dc.lft.to/lastmile_qr_scan"}, "lat": 38.90035066666667, "lon": -77.03423016666666, "fusion_lat": 0.0}, {"is_reserved": 0, "bike_id": "c0785c73b31b415d5efb49bdb2539978", "type": "electric_scooter", "name": "c0785c73b31b415d5efb49bdb2539978", "is_disabled": 0, "fusion_lon": 0.0, "rental_uris": {"android": "https://dc.lft.to/lastmile_qr_scan", "ios": "https://dc.lft.to/lastmile_qr_scan"}, "lat": 38.920753166666664, "lon": -77.0236875, "fusion_lat": 0.0}, {"is_reserved": 0, "bike_id": "a6fdea83735d744d361b09031c453be3", "type": "electric_scooter", "name": "a6fdea83735d744d361b09031c453be3", "is_disabled": 0, "fusion_lon": 0.0, "rental_uris": {"android": "https://dc.lft.to/lastmile_qr_scan", "ios": "https://dc.lft.to/lastmile_qr_scan"}, "lat": 38.925942, "lon": -77.02621666666667, "fusion_lat": 0.0}, {"is_reserved": 0, "bike_id": "e97a93a584a3aa2617e226da72e28fb6", "type": "electric_scooter", "name": "e97a93a584a3aa2617e226da72e28fb6", "is_disabled": 0, "fusion_lon": 0.0, "rental_uris": {"android": "https://dc.lft.to/lastmile_qr_scan", "ios": "https://dc.lft.to/lastmile_qr_scan"}, "lat": 38.90528533333333, "lon": -77.04808166666666, "fusion_lat": 0.0}, {"is_reserved": 0, "bike_id": "ca7b0c91c7ac794058438f0496c75811", "type": "electric_scooter", "name": "ca7b0c91c7ac794058438f0496c75811", "is_disabled": 0, "fusion_lon": 0.0, "rental_uris": {"android": "https://dc.lft.to/lastmile_qr_scan", "ios": "https://dc.lft.to/lastmile_qr_scan"}, "lat": 38.91658133333333, "lon": -77.0224305, "fusion_lat": 0.0}, {"is_reserved": 0, "bike_id": "23b3985274f8223891a20ef113b5ec83", "type": "electric_scooter", "name": "23b3985274f8223891a20ef113b5ec83", "is_disabled": 0, "fusion_lon": 0.0, "rental_uris": {"android": "https://dc.lft.to/lastmile_qr_scan", "ios": "https://dc.lft.to/lastmile_qr_scan"}, "lat": 38.93287133333333, "lon": -77.03982483333333, "fusion_lat": 0.0}, {"is_reserved": 0, "bike_id": "2ed2fdb720056d8885c2a69f94eebafd", "type": "electric_scooter", "name": "2ed2fdb720056d8885c2a69f94eebafd", "is_disabled": 0, "fusion_lon": 0.0, "rental_uris": {"android": "https://dc.lft.to/lastmile_qr_scan", "ios": "https://dc.lft.to/lastmile_qr_scan"}, "lat": 38.88428433333333, "lon": -76.99598133333333, "fusion_lat": 0.0}, {"is_reserved": 0, "bike_id": "54ff200332afaff9627edae02f411056", "type": "electric_scooter", "name": "54ff200332afaff9627edae02f411056", "is_disabled": 0, "fusion_lon": 0.0, "rental_uris": {"android": "https://dc.lft.to/lastmile_qr_scan", "ios": "https://dc.lft.to/lastmile_qr_scan"}, "lat": 38.920428, "lon": -77.01681933333333, "fusion_lat": 0.0}, {"is_reserved": 0, "bike_id": "35cce128f5b5062134f1a7e1ff4264ae", "type": "electric_bike", "name": "35cce128f5b5062134f1a7e1ff4264ae", "is_disabled": 0, "fusion_lon": 0.0, "rental_uris": {"android": "https://dc.lft.to/lastmile_qr_scan", "ios": "https://dc.lft.to/lastmile_qr_scan"}, "lat": 38.94265333333333, "lon": -76.99072816666667, "fusion_lat": 0.0}, {"is_reserved": 0, "bike_id": "64095dc09fb4408c847de8e7802de468", "type": "electric_bike", "name": "64095dc09fb4408c847de8e7802de468", "is_disabled": 0, "fusion_lon": 0.0, "rental_uris": {"android": "https://dc.lft.to/lastmile_qr_scan", "ios": "https://dc.lft.to/lastmile_qr_scan"}, "lat": 38.85066716666667, "lon": -76.958289, "fusion_lat": 0.0}, {"is_reserved": 0, "bike_id": "6466572452d915e8cd7b6a907a1091ce", "type": "electric_scooter", "name": "6466572452d915e8cd7b6a907a1091ce", "is_disabled": 0, "fusion_lon": 0.0, "rental_uris": {"android": "https://dc.lft.to/lastmile_qr_scan", "ios": "https://dc.lft.to/lastmile_qr_scan"}, "lat": 38.9207855, "lon": -77.023136, "fusion_lat": 0.0}, {"is_reserved": 0, "bike_id": "90dc4de8e82359460ad0c8c419be2b72", "type": "electric_scooter", "name": "90dc4de8e82359460ad0c8c419be2b72", "is_disabled": 0, "fusion_lon": 0.0, "rental_uris": {"android": "https://dc.lft.to/lastmile_qr_scan", "ios": "https://dc.lft.to/lastmile_qr_scan"}, "lat": 38.9191745, "lon": -77.02139483333333, "fusion_lat": 0.0}, {"is_reserved": 0, "bike_id": "f8f30873e729f1d9cb535d4a0a61edeb", "type": "electric_scooter", "name": "f8f30873e729f1d9cb535d4a0a61edeb", "is_disabled": 0, "fusion_lon": 0.0, "rental_uris": {"android": "https://dc.lft.to/lastmile_qr_scan", "ios": "https://dc.lft.to/lastmile_qr_scan"}, "lat": 38.91819683333333, "lon": -77.02790433333334, "fusion_lat": 0.0}, {"is_reserved": 0, "bike_id": "9d179cef46adbb099811fe7a0b758961", "type": "electric_scooter", "name": "9d179cef46adbb099811fe7a0b758961", "is_disabled": 0, "fusion_lon": 0.0, "rental_uris": {"android": "https://dc.lft.to/lastmile_qr_scan", "ios": "https://dc.lft.to/lastmile_qr_scan"}, "lat": 38.90067666666667, "lon": -77.01971516666667, "fusion_lat": 0.0}, {"is_reserved": 0, "bike_id": "fd35950d6d9bbe2d7f91d22c1a80cb47", "type": "electric_scooter", "name": "fd35950d6d9bbe2d7f91d22c1a80cb47", "is_disabled": 0, "fusion_lon": 0.0, "rental_uris": {"android": "https://dc.lft.to/lastmile_qr_scan", "ios": "https://dc.lft.to/lastmile_qr_scan"}, "lat": 38.87635483333333, "lon": -76.99296916666667, "fusion_lat": 0.0}, {"is_reserved": 0, "bike_id": "47a4590f442aca3179795d60a1d44f60", "type": "electric_scooter", "name": "47a4590f442aca3179795d60a1d44f60", "is_disabled": 0, "fusion_lon": 0.0, "rental_uris": {"android": "https://dc.lft.to/lastmile_qr_scan", "ios": "https://dc.lft.to/lastmile_qr_scan"}, "lat": 38.94204166666667, "lon": -77.01656233333334, "fusion_lat": 0.0}, {"is_reserved": 0, "bike_id": "804998ac439f0aba44aec57801f7371f", "type": "electric_scooter", "name": "804998ac439f0aba44aec57801f7371f", "is_disabled": 0, "fusion_lon": 0.0, "rental_uris": {"android": "https://dc.lft.to/lastmile_qr_scan", "ios": "https://dc.lft.to/lastmile_qr_scan"}, "lat": 38.923306, "lon": -77.01966916666667, "fusion_lat": 0.0}, {"is_reserved": 0, "bike_id": "d45b9e622e114709f6b5e91e58ca77c5", "type": "electric_scooter", "name": "d45b9e622e114709f6b5e91e58ca77c5", "is_disabled": 0, "fusion_lon": 0.0, "rental_uris": {"android": "https://dc.lft.to/lastmile_qr_scan", "ios": "https://dc.lft.to/lastmile_qr_scan"}, "lat": 38.90123833333333, "lon": -77.04113266666667, "fusion_lat": 0.0}, {"is_reserved": 0, "bike_id": "31c15eb797b2c14819b485c9c8e35908", "type": "electric_scooter", "name": "31c15eb797b2c14819b485c9c8e35908", "is_disabled": 0, "fusion_lon": 0.0, "rental_uris": {"android": "https://dc.lft.to/lastmile_qr_scan", "ios": "https://dc.lft.to/lastmile_qr_scan"}, "lat": 38.9171555, "lon": -77.02402683333334, "fusion_lat": 0.0}, {"is_reserved": 0, "bike_id": "de5326417b537458485b213c96a5fba3", "type": "electric_scooter", "name": "de5326417b537458485b213c96a5fba3", "is_disabled": 0, "fusion_lon": 0.0, "rental_uris": {"android": "https://dc.lft.to/lastmile_qr_scan", "ios": "https://dc.lft.to/lastmile_qr_scan"}, "lat": 38.896739, "lon": -77.032156, "fusion_lat": 0.0}, {"is_reserved": 0, "bike_id": "34688fd7d65286a53a11d52cae34b50a", "type": "electric_scooter", "name": "34688fd7d65286a53a11d52cae34b50a", "is_disabled": 0, "fusion_lon": 0.0, "rental_uris": {"android": "https://dc.lft.to/lastmile_qr_scan", "ios": "https://dc.lft.to/lastmile_qr_scan"}, "lat": 38.928935333333335, "lon": -77.03487016666666, "fusion_lat": 0.0}, {"is_reserved": 0, "bike_id": "88aedf67daca1d8219ad44331fdcce36", "type": "electric_scooter", "name": "88aedf67daca1d8219ad44331fdcce36", "is_disabled": 0, "fusion_lon": 0.0, "rental_uris": {"android": "https://dc.lft.to/lastmile_qr_scan", "ios": "https://dc.lft.to/lastmile_qr_scan"}, "lat": 38.92160616666666, "lon": -77.042299, "fusion_lat": 0.0}, {"is_reserved": 0, "bike_id": "cc87f20b75d40978f22c6124e2e9ec8e", "type": "electric_scooter", "name": "cc87f20b75d40978f22c6124e2e9ec8e", "is_disabled": 0, "fusion_lon": 0.0, "rental_uris": {"android": "https://dc.lft.to/lastmile_qr_scan", "ios": "https://dc.lft.to/lastmile_qr_scan"}, "lat": 38.87665, "lon": -77.00338066666667, "fusion_lat": 0.0}, {"is_reserved": 0, "bike_id": "4dff50611fb2337b7999b12e34cd01cf", "type": "electric_scooter", "name": "4dff50611fb2337b7999b12e34cd01cf", "is_disabled": 0, "fusion_lon": 0.0, "rental_uris": {"android": "https://dc.lft.to/lastmile_qr_scan", "ios": "https://dc.lft.to/lastmile_qr_scan"}, "lat": 38.8984355, "lon": -77.03331766666666, "fusion_lat": 0.0}, {"is_reserved": 0, "bike_id": "2376be9c38a9d74e8c06fe48da5d2395", "type": "electric_scooter", "name": "2376be9c38a9d74e8c06fe48da5d2395", "is_disabled": 0, "fusion_lon": 0.0, "rental_uris": {"android": "https://dc.lft.to/lastmile_qr_scan", "ios": "https://dc.lft.to/lastmile_qr_scan"}, "lat": 38.902040166666666, "lon": -77.02319983333334, "fusion_lat": 0.0}, {"is_reserved": 0, "bike_id": "f0bcce07d8d11429091f2168c8ad29f6", "type": "electric_scooter", "name": "f0bcce07d8d11429091f2168c8ad29f6", "is_disabled": 0, "fusion_lon": 0.0, "rental_uris": {"android": "https://dc.lft.to/lastmile_qr_scan", "ios": "https://dc.lft.to/lastmile_qr_scan"}, "lat": 38.916000333333336, "lon": -77.03668816666666, "fusion_lat": 0.0}, {"is_reserved": 0, "bike_id": "8355d1085f8cd358425c93eba77c6b3e", "type": "electric_scooter", "name": "8355d1085f8cd358425c93eba77c6b3e", "is_disabled": 0, "fusion_lon": 0.0, "rental_uris": {"android": "https://dc.lft.to/lastmile_qr_scan", "ios": "https://dc.lft.to/lastmile_qr_scan"}, "lat": 38.88088283333333, "lon": -76.9950545, "fusion_lat": 0.0}, {"is_reserved": 0, "bike_id": "221c5a9d605f3904f5b1c3f68d9a227c", "type": "electric_scooter", "name": "221c5a9d605f3904f5b1c3f68d9a227c", "is_disabled": 0, "fusion_lon": 0.0, "rental_uris": {"android": "https://dc.lft.to/lastmile_qr_scan", "ios": "https://dc.lft.to/lastmile_qr_scan"}, "lat": 38.88598666666667, "lon": -76.9250565, "fusion_lat": 0.0}, {"is_reserved": 0, "bike_id": "6044012238b89e04c4b1859ccbd9f7b8", "type": "electric_scooter", "name": "6044012238b89e04c4b1859ccbd9f7b8", "is_disabled": 0, "fusion_lon": 0.0, "rental_uris": {"android": "https://dc.lft.to/lastmile_qr_scan", "ios": "https://dc.lft.to/lastmile_qr_scan"}, "lat": 38.87293416666667, "lon": -77.01704616666666, "fusion_lat": 0.0}, {"is_reserved": 0, "bike_id": "ad930db6cf81dd5aeb37031fc547cfeb", "type": "electric_scooter", "name": "ad930db6cf81dd5aeb37031fc547cfeb", "is_disabled": 0, "fusion_lon": 0.0, "rental_uris": {"android": "https://dc.lft.to/lastmile_qr_scan", "ios": "https://dc.lft.to/lastmile_qr_scan"}, "lat": 38.876773, "lon": -77.00059, "fusion_lat": 0.0}, {"is_reserved": 0, "bike_id": "efea715787e493ee09469063a8c8c99c", "type": "electric_scooter", "name": "efea715787e493ee09469063a8c8c99c", "is_disabled": 0, "fusion_lon": 0.0, "rental_uris": {"android": "https://dc.lft.to/lastmile_qr_scan", "ios": "https://dc.lft.to/lastmile_qr_scan"}, "lat": 38.9241365, "lon": -77.03541433333334, "fusion_lat": 0.0}, {"is_reserved": 0, "bike_id": "05224812472a1bd4507dacd409df51b8", "type": "electric_scooter", "name": "05224812472a1bd4507dacd409df51b8", "is_disabled": 0, "fusion_lon": 0.0, "rental_uris": {"android": "https://dc.lft.to/lastmile_qr_scan", "ios": "https://dc.lft.to/lastmile_qr_scan"}, "lat": 38.956138833333334, "lon": -77.0276055, "fusion_lat": 0.0}, {"is_reserved": 0, "bike_id": "b4f9c03637bdc421265c251dc3431066", "type": "electric_scooter", "name": "b4f9c03637bdc421265c251dc3431066", "is_disabled": 0, "fusion_lon": 0.0, "rental_uris": {"android": "https://dc.lft.to/lastmile_qr_scan", "ios": "https://dc.lft.to/lastmile_qr_scan"}, "lat": 38.92074683333333, "lon": -77.03656683333334, "fusion_lat": 0.0}, {"is_reserved": 0, "bike_id": "6d6f0cf266c5ff450a76b006598e1d95", "type": "electric_scooter", "name": "6d6f0cf266c5ff450a76b006598e1d95", "is_disabled": 0, "fusion_lon": 0.0, "rental_uris": {"android": "https://dc.lft.to/lastmile_qr_scan", "ios": "https://dc.lft.to/lastmile_qr_scan"}, "lat": 38.931133333333335, "lon": -77.0559055, "fusion_lat": 0.0}, {"is_reserved": 0, "bike_id": "c495fb58993d03cd18de2a44e8c9f89c", "type": "electric_scooter", "name": "c495fb58993d03cd18de2a44e8c9f89c", "is_disabled": 0, "fusion_lon": 0.0, "rental_uris": {"android": "https://dc.lft.to/lastmile_qr_scan", "ios": "https://dc.lft.to/lastmile_qr_scan"}, "lat": 38.90252383333333, "lon": -77.01795333333334, "fusion_lat": 0.0}, {"is_reserved": 0, "bike_id": "c166a11b3c65d9155fdad16c87fd23f3", "type": "electric_bike", "name": "c166a11b3c65d9155fdad16c87fd23f3", "is_disabled": 0, "fusion_lon": 0.0, "rental_uris": {"android": "https://dc.lft.to/lastmile_qr_scan", "ios": "https://dc.lft.to/lastmile_qr_scan"}, "lat": 38.90036166666667, "lon": -76.97227783333334, "fusion_lat": 0.0}, {"is_reserved": 0, "bike_id": "0b210f94da182d86526196673c7726c7", "type": "electric_scooter", "name": "0b210f94da182d86526196673c7726c7", "is_disabled": 0, "fusion_lon": 0.0, "rental_uris": {"android": "https://dc.lft.to/lastmile_qr_scan", "ios": "https://dc.lft.to/lastmile_qr_scan"}, "lat": 38.8872245, "lon": -77.02191416666666, "fusion_lat": 0.0}, {"is_reserved": 0, "bike_id": "f48d3a205fc15e8f7848852f98b5bc92", "type": "electric_bike", "name": "f48d3a205fc15e8f7848852f98b5bc92", "is_disabled": 0, "fusion_lon": 0.0, "rental_uris": {"android": "https://dc.lft.to/lastmile_qr_scan", "ios": "https://dc.lft.to/lastmile_qr_scan"}, "lat": 38.88871016666667, "lon": -76.97843016666667, "fusion_lat": 0.0}, {"is_reserved": 0, "bike_id": "e69cb719cf24fec4587278158b622014", "type": "electric_bike", "name": "e69cb719cf24fec4587278158b622014", "is_disabled": 0, "fusion_lon": 0.0, "rental_uris": {"android": "https://dc.lft.to/lastmile_qr_scan", "ios": "https://dc.lft.to/lastmile_qr_scan"}, "lat": 38.89618633333333, "lon": -76.90748283333333, "fusion_lat": 0.0}, {"is_reserved": 0, "bike_id": "33e378fc639b47a270fcb1b361443932", "type": "electric_scooter", "name": "33e378fc639b47a270fcb1b361443932", "is_disabled": 0, "fusion_lon": 0.0, "rental_uris": {"android": "https://dc.lft.to/lastmile_qr_scan", "ios": "https://dc.lft.to/lastmile_qr_scan"}, "lat": 38.898185833333336, "lon": -77.03158966666666, "fusion_lat": 0.0}, {"is_reserved": 0, "bike_id": "1c7623531b80a96e1d2c6bd1080d1023", "type": "electric_scooter", "name": "1c7623531b80a96e1d2c6bd1080d1023", "is_disabled": 0, "fusion_lon": 0.0, "rental_uris": {"android": "https://dc.lft.to/lastmile_qr_scan", "ios": "https://dc.lft.to/lastmile_qr_scan"}, "lat": 38.92234966666667, "lon": -77.02335466666666, "fusion_lat": 0.0}, {"is_reserved": 0, "bike_id": "440f3e4bb0edcca6e0a529edbea00976", "type": "electric_scooter", "name": "440f3e4bb0edcca6e0a529edbea00976", "is_disabled": 0, "fusion_lon": 0.0, "rental_uris": {"android": "https://dc.lft.to/lastmile_qr_scan", "ios": "https://dc.lft.to/lastmile_qr_scan"}, "lat": 38.8851165, "lon": -76.92440916666666, "fusion_lat": 0.0}, {"is_reserved": 0, "bike_id": "5eb0d7daf203246aa19e0ab163e35c21", "type": "electric_scooter", "name": "5eb0d7daf203246aa19e0ab163e35c21", "is_disabled": 0, "fusion_lon": 0.0, "rental_uris": {"android": "https://dc.lft.to/lastmile_qr_scan", "ios": "https://dc.lft.to/lastmile_qr_scan"}, "lat": 38.913341, "lon": -77.01206966666666, "fusion_lat": 0.0}, {"is_reserved": 0, "bike_id": "b4f84260e1025bb45ed9cb41fb469743", "type": "electric_scooter", "name": "b4f84260e1025bb45ed9cb41fb469743", "is_disabled": 0, "fusion_lon": 0.0, "rental_uris": {"android": "https://dc.lft.to/lastmile_qr_scan", "ios": "https://dc.lft.to/lastmile_qr_scan"}, "lat": 38.90568716666667, "lon": -77.0060705, "fusion_lat": 0.0}, {"is_reserved": 0, "bike_id": "1fd3835ff419e53332a493632f7453c8", "type": "electric_scooter", "name": "1fd3835ff419e53332a493632f7453c8", "is_disabled": 0, "fusion_lon": 0.0, "rental_uris": {"android": "https://dc.lft.to/lastmile_qr_scan", "ios": "https://dc.lft.to/lastmile_qr_scan"}, "lat": 38.9156585, "lon": -77.0318745, "fusion_lat": 0.0}, {"is_reserved": 0, "bike_id": "81441f8077c355acf74dc11f76bdd2ce", "type": "electric_scooter", "name": "81441f8077c355acf74dc11f76bdd2ce", "is_disabled": 0, "fusion_lon": 0.0, "rental_uris": {"android": "https://dc.lft.to/lastmile_qr_scan", "ios": "https://dc.lft.to/lastmile_qr_scan"}, "lat": 38.926742833333336, "lon": -77.07832116666667, "fusion_lat": 0.0}, {"is_reserved": 0, "bike_id": "38e412d13bc8ad5427ac28cf88c84a9d", "type": "electric_scooter", "name": "38e412d13bc8ad5427ac28cf88c84a9d", "is_disabled": 0, "fusion_lon": 0.0, "rental_uris": {"android": "https://dc.lft.to/lastmile_qr_scan", "ios": "https://dc.lft.to/lastmile_qr_scan"}, "lat": 38.9050125, "lon": -77.02946316666667, "fusion_lat": 0.0}, {"is_reserved": 0, "bike_id": "ddd67e7a716e467fab9336da3ab0f880", "type": "electric_scooter", "name": "ddd67e7a716e467fab9336da3ab0f880", "is_disabled": 0, "fusion_lon": 0.0, "rental_uris": {"android": "https://dc.lft.to/lastmile_qr_scan", "ios": "https://dc.lft.to/lastmile_qr_scan"}, "lat": 38.907060666666666, "lon": -77.03235716666667, "fusion_lat": 0.0}, {"is_reserved": 0, "bike_id": "4ea57355254c2907c4c4c50e4a9e610b", "type": "electric_scooter", "name": "4ea57355254c2907c4c4c50e4a9e610b", "is_disabled": 0, "fusion_lon": 0.0, "rental_uris": {"android": "https://dc.lft.to/lastmile_qr_scan", "ios": "https://dc.lft.to/lastmile_qr_scan"}, "lat": 38.8552335, "lon": -76.98650516666666, "fusion_lat": 0.0}, {"is_reserved": 0, "bike_id": "a6b740e83045431588619a9b3c575e79", "type": "electric_scooter", "name": "a6b740e83045431588619a9b3c575e79", "is_disabled": 0, "fusion_lon": 0.0, "rental_uris": {"android": "https://dc.lft.to/lastmile_qr_scan", "ios": "https://dc.lft.to/lastmile_qr_scan"}, "lat": 38.926128, "lon": -77.02160383333333, "fusion_lat": 0.0}, {"is_reserved": 0, "bike_id": "673e1618ca92ae2a7ae1bb6bef7bfdb6", "type": "electric_scooter", "name": "673e1618ca92ae2a7ae1bb6bef7bfdb6", "is_disabled": 0, "fusion_lon": 0.0, "rental_uris": {"android": "https://dc.lft.to/lastmile_qr_scan", "ios": "https://dc.lft.to/lastmile_qr_scan"}, "lat": 38.901171, "lon": -77.03180266666666, "fusion_lat": 0.0}, {"is_reserved": 0, "bike_id": "2c83cc16c5c2a6d892070678cddede7a", "type": "electric_bike", "name": "2c83cc16c5c2a6d892070678cddede7a", "is_disabled": 0, "fusion_lon": 0.0, "rental_uris": {"android": "https://dc.lft.to/lastmile_qr_scan", "ios": "https://dc.lft.to/lastmile_qr_scan"}, "lat": 38.905604333333336, "lon": -77.01851266666667, "fusion_lat": 0.0}, {"is_reserved": 0, "bike_id": "65ba846b85c27c2c345a3fcc563d2b66", "type": "electric_scooter", "name": "65ba846b85c27c2c345a3fcc563d2b66", "is_disabled": 0, "fusion_lon": 0.0, "rental_uris": {"android": "https://dc.lft.to/lastmile_qr_scan", "ios": "https://dc.lft.to/lastmile_qr_scan"}, "lat": 38.9213625, "lon": -77.01798216666667, "fusion_lat": 0.0}, {"is_reserved": 0, "bike_id": "d42901b7a2feca9c3927d9d3f4c9675a", "type": "electric_scooter", "name": "d42901b7a2feca9c3927d9d3f4c9675a", "is_disabled": 0, "fusion_lon": 0.0, "rental_uris": {"android": "https://dc.lft.to/lastmile_qr_scan", "ios": "https://dc.lft.to/lastmile_qr_scan"}, "lat": 38.87881766666667, "lon": -77.00054716666666, "fusion_lat": 0.0}, {"is_reserved": 0, "bike_id": "8062ff415bc061f0f2ce1e6fd6717350", "type": "electric_scooter", "name": "8062ff415bc061f0f2ce1e6fd6717350", "is_disabled": 0, "fusion_lon": 0.0, "rental_uris": {"android": "https://dc.lft.to/lastmile_qr_scan", "ios": "https://dc.lft.to/lastmile_qr_scan"}, "lat": 38.9246765, "lon": -77.05235833333333, "fusion_lat": 0.0}, {"is_reserved": 0, "bike_id": "ffd2a2e509982425e636e277376b22b7", "type": "electric_scooter", "name": "ffd2a2e509982425e636e277376b22b7", "is_disabled": 0, "fusion_lon": 0.0, "rental_uris": {"android": "https://dc.lft.to/lastmile_qr_scan", "ios": "https://dc.lft.to/lastmile_qr_scan"}, "lat": 38.91192916666667, "lon": -77.03217716666667, "fusion_lat": 0.0}, {"is_reserved": 0, "bike_id": "2ecee42295958abb1f3fd453559537f1", "type": "electric_scooter", "name": "2ecee42295958abb1f3fd453559537f1", "is_disabled": 0, "fusion_lon": 0.0, "rental_uris": {"android": "https://dc.lft.to/lastmile_qr_scan", "ios": "https://dc.lft.to/lastmile_qr_scan"}, "lat": 38.89546716666667, "lon": -77.00913516666667, "fusion_lat": 0.0}, {"is_reserved": 0, "bike_id": "1b6d1ebb1ed6a6b1270a712ae7fc3687", "type": "electric_scooter", "name": "1b6d1ebb1ed6a6b1270a712ae7fc3687", "is_disabled": 0, "fusion_lon": 0.0, "rental_uris": {"android": "https://dc.lft.to/lastmile_qr_scan", "ios": "https://dc.lft.to/lastmile_qr_scan"}, "lat": 38.91613916666667, "lon": -77.0487155, "fusion_lat": 0.0}, {"is_reserved": 0, "bike_id": "a9322cd3d06e4b4a327704d16d72cdfe", "type": "electric_scooter", "name": "a9322cd3d06e4b4a327704d16d72cdfe", "is_disabled": 0, "fusion_lon": 0.0, "rental_uris": {"android": "https://dc.lft.to/lastmile_qr_scan", "ios": "https://dc.lft.to/lastmile_qr_scan"}, "lat": 38.914150166666666, "lon": -77.02181366666667, "fusion_lat": 0.0}, {"is_reserved": 0, "bike_id": "f509202d2505c873225a9374a1f4f418", "type": "electric_scooter", "name": "f509202d2505c873225a9374a1f4f418", "is_disabled": 0, "fusion_lon": 0.0, "rental_uris": {"android": "https://dc.lft.to/lastmile_qr_scan", "ios": "https://dc.lft.to/lastmile_qr_scan"}, "lat": 38.877972166666666, "lon": -77.0012685, "fusion_lat": 0.0}, {"is_reserved": 0, "bike_id": "c02bbc4032aeadf19099eed8dce3dfcf", "type": "electric_scooter", "name": "c02bbc4032aeadf19099eed8dce3dfcf", "is_disabled": 0, "fusion_lon": 0.0, "rental_uris": {"android": "https://dc.lft.to/lastmile_qr_scan", "ios": "https://dc.lft.to/lastmile_qr_scan"}, "lat": 38.8954475, "lon": -76.98242916666666, "fusion_lat": 0.0}, {"is_reserved": 0, "bike_id": "a05e0207b5aea9dd73336b53da8e5dee", "type": "electric_bike", "name": "a05e0207b5aea9dd73336b53da8e5dee", "is_disabled": 0, "fusion_lon": 0.0, "rental_uris": {"android": "https://dc.lft.to/lastmile_qr_scan", "ios": "https://dc.lft.to/lastmile_qr_scan"}, "lat": 38.904743, "lon": -76.92948516666667, "fusion_lat": 0.0}, {"is_reserved": 0, "bike_id": "43f34ae9add84804049b504d08dcef82", "type": "electric_scooter", "name": "43f34ae9add84804049b504d08dcef82", "is_disabled": 0, "fusion_lon": 0.0, "rental_uris": {"android": "https://dc.lft.to/lastmile_qr_scan", "ios": "https://dc.lft.to/lastmile_qr_scan"}, "lat": 38.8972625, "lon": -76.92589383333333, "fusion_lat": 0.0}, {"is_reserved": 0, "bike_id": "6a4c92009ca0e45ebe8e4e50e1963638", "type": "electric_scooter", "name": "6a4c92009ca0e45ebe8e4e50e1963638", "is_disabled": 0, "fusion_lon": 0.0, "rental_uris": {"android": "https://dc.lft.to/lastmile_qr_scan", "ios": "https://dc.lft.to/lastmile_qr_scan"}, "lat": 38.92487716666667, "lon": -77.0213665, "fusion_lat": 0.0}, {"is_reserved": 0, "bike_id": "b74c84cff59e8bb9661204631a91676c", "type": "electric_scooter", "name": "b74c84cff59e8bb9661204631a91676c", "is_disabled": 0, "fusion_lon": 0.0, "rental_uris": {"android": "https://dc.lft.to/lastmile_qr_scan", "ios": "https://dc.lft.to/lastmile_qr_scan"}, "lat": 38.91941083333333, "lon": -77.018016, "fusion_lat": 0.0}, {"is_reserved": 0, "bike_id": "c6e19dff42285569d384b58c39e7c7db", "type": "electric_scooter", "name": "c6e19dff42285569d384b58c39e7c7db", "is_disabled": 0, "fusion_lon": 0.0, "rental_uris": {"android": "https://dc.lft.to/lastmile_qr_scan", "ios": "https://dc.lft.to/lastmile_qr_scan"}, "lat": 38.93132416666667, "lon": -77.05728166666667, "fusion_lat": 0.0}, {"is_reserved": 0, "bike_id": "40dea3b08f150ff1d33c9239ff3f97d5", "type": "electric_bike", "name": "40dea3b08f150ff1d33c9239ff3f97d5", "is_disabled": 0, "fusion_lon": 0.0, "rental_uris": {"android": "https://dc.lft.to/lastmile_qr_scan", "ios": "https://dc.lft.to/lastmile_qr_scan"}, "lat": 38.838650333333334, "lon": -76.99694033333333, "fusion_lat": 0.0}, {"is_reserved": 0, "bike_id": "fcd34e9ea0470603869ada2ccb788999", "type": "electric_scooter", "name": "fcd34e9ea0470603869ada2ccb788999", "is_disabled": 0, "fusion_lon": 0.0, "rental_uris": {"android": "https://dc.lft.to/lastmile_qr_scan", "ios": "https://dc.lft.to/lastmile_qr_scan"}, "lat": 38.922412666666666, "lon": -77.03910316666666, "fusion_lat": 0.0}, {"is_reserved": 0, "bike_id": "2f8cf93f74eb22b1fea55c40961f5f59", "type": "electric_scooter", "name": "2f8cf93f74eb22b1fea55c40961f5f59", "is_disabled": 0, "fusion_lon": 0.0, "rental_uris": {"android": "https://dc.lft.to/lastmile_qr_scan", "ios": "https://dc.lft.to/lastmile_qr_scan"}, "lat": 38.89995716666667, "lon": -77.02162583333333, "fusion_lat": 0.0}, {"is_reserved": 0, "bike_id": "511e791e97c78011c8e9019dcb63365c", "type": "electric_scooter", "name": "511e791e97c78011c8e9019dcb63365c", "is_disabled": 0, "fusion_lon": 0.0, "rental_uris": {"android": "https://dc.lft.to/lastmile_qr_scan", "ios": "https://dc.lft.to/lastmile_qr_scan"}, "lat": 38.914176833333336, "lon": -77.0217825, "fusion_lat": 0.0}, {"is_reserved": 0, "bike_id": "5faa9dcfc8bc3f869a6357f4447d87f9", "type": "electric_scooter", "name": "5faa9dcfc8bc3f869a6357f4447d87f9", "is_disabled": 0, "fusion_lon": 0.0, "rental_uris": {"android": "https://dc.lft.to/lastmile_qr_scan", "ios": "https://dc.lft.to/lastmile_qr_scan"}, "lat": 38.89959366666667, "lon": -77.01611583333333, "fusion_lat": 0.0}, {"is_reserved": 0, "bike_id": "7ec7a058a675d21269151cfe3ff9ef11", "type": "electric_scooter", "name": "7ec7a058a675d21269151cfe3ff9ef11", "is_disabled": 0, "fusion_lon": 0.0, "rental_uris": {"android": "https://dc.lft.to/lastmile_qr_scan", "ios": "https://dc.lft.to/lastmile_qr_scan"}, "lat": 38.923155666666666, "lon": -77.03862466666666, "fusion_lat": 0.0}, {"is_reserved": 0, "bike_id": "ffe12d9b11bb83355caa46f510c44041", "type": "electric_scooter", "name": "ffe12d9b11bb83355caa46f510c44041", "is_disabled": 0, "fusion_lon": 0.0, "rental_uris": {"android": "https://dc.lft.to/lastmile_qr_scan", "ios": "https://dc.lft.to/lastmile_qr_scan"}, "lat": 38.9247455, "lon": -77.0222475, "fusion_lat": 0.0}, {"is_reserved": 0, "bike_id": "c77d1ed160d30e0239b24941f65715ab", "type": "electric_scooter", "name": "c77d1ed160d30e0239b24941f65715ab", "is_disabled": 0, "fusion_lon": 0.0, "rental_uris": {"android": "https://dc.lft.to/lastmile_qr_scan", "ios": "https://dc.lft.to/lastmile_qr_scan"}, "lat": 38.934038, "lon": -77.041252, "fusion_lat": 0.0}, {"is_reserved": 0, "bike_id": "f7eec8adb70cde51fc0e73fa207f5c6f", "type": "electric_scooter", "name": "f7eec8adb70cde51fc0e73fa207f5c6f", "is_disabled": 0, "fusion_lon": 0.0, "rental_uris": {"android": "https://dc.lft.to/lastmile_qr_scan", "ios": "https://dc.lft.to/lastmile_qr_scan"}, "lat": 38.924923666666665, "lon": -77.02175983333333, "fusion_lat": 0.0}, {"is_reserved": 0, "bike_id": "4120829eaea83a144c8aa31656b66ee8", "type": "electric_bike", "name": "4120829eaea83a144c8aa31656b66ee8", "is_disabled": 0, "fusion_lon": 0.0, "rental_uris": {"android": "https://dc.lft.to/lastmile_qr_scan", "ios": "https://dc.lft.to/lastmile_qr_scan"}, "lat": 38.9554005, "lon": -76.96856966666667, "fusion_lat": 0.0}, {"is_reserved": 0, "bike_id": "3d5bb71fdf31ec7ea9a2d8b82b6bd841", "type": "electric_scooter", "name": "3d5bb71fdf31ec7ea9a2d8b82b6bd841", "is_disabled": 0, "fusion_lon": 0.0, "rental_uris": {"android": "https://dc.lft.to/lastmile_qr_scan", "ios": "https://dc.lft.to/lastmile_qr_scan"}, "lat": 38.91404633333333, "lon": -77.01806883333333, "fusion_lat": 0.0}, {"is_reserved": 0, "bike_id": "7c3bbcfd35d4877ed2f7d0a34c4ab8b4", "type": "electric_scooter", "name": "7c3bbcfd35d4877ed2f7d0a34c4ab8b4", "is_disabled": 0, "fusion_lon": 0.0, "rental_uris": {"android": "https://dc.lft.to/lastmile_qr_scan", "ios": "https://dc.lft.to/lastmile_qr_scan"}, "lat": 38.877754, "lon": -76.99618766666667, "fusion_lat": 0.0}, {"is_reserved": 0, "bike_id": "c1241f8d74ee4f376fdcc0e5e81af36a", "type": "electric_scooter", "name": "c1241f8d74ee4f376fdcc0e5e81af36a", "is_disabled": 0, "fusion_lon": 0.0, "rental_uris": {"android": "https://dc.lft.to/lastmile_qr_scan", "ios": "https://dc.lft.to/lastmile_qr_scan"}, "lat": 38.918887, "lon": -77.03832, "fusion_lat": 0.0}, {"is_reserved": 0, "bike_id": "35d69454b28194b58135fac576747758", "type": "electric_bike", "name": "35d69454b28194b58135fac576747758", "is_disabled": 0, "fusion_lon": 0.0, "rental_uris": {"android": "https://dc.lft.to/lastmile_qr_scan", "ios": "https://dc.lft.to/lastmile_qr_scan"}, "lat": 38.948018833333336, "lon": -76.959724, "fusion_lat": 0.0}, {"is_reserved": 0, "bike_id": "3f4354e3bca181e1dbd746f6b50715b1", "type": "electric_scooter", "name": "3f4354e3bca181e1dbd746f6b50715b1", "is_disabled": 0, "fusion_lon": 0.0, "rental_uris": {"android": "https://dc.lft.to/lastmile_qr_scan", "ios": "https://dc.lft.to/lastmile_qr_scan"}, "lat": 38.88710966666667, "lon": -77.01527333333334, "fusion_lat": 0.0}, {"is_reserved": 0, "bike_id": "3c8e41e84b997bf3dbaa8be3e2f7632c", "type": "electric_scooter", "name": "3c8e41e84b997bf3dbaa8be3e2f7632c", "is_disabled": 0, "fusion_lon": 0.0, "rental_uris": {"android": "https://dc.lft.to/lastmile_qr_scan", "ios": "https://dc.lft.to/lastmile_qr_scan"}, "lat": 38.87373083333333, "lon": -77.001286, "fusion_lat": 0.0}, {"is_reserved": 0, "bike_id": "0959cb1104ab1e318b4541c99eb34178", "type": "electric_scooter", "name": "0959cb1104ab1e318b4541c99eb34178", "is_disabled": 0, "fusion_lon": 0.0, "rental_uris": {"android": "https://dc.lft.to/lastmile_qr_scan", "ios": "https://dc.lft.to/lastmile_qr_scan"}, "lat": 38.907238, "lon": -77.047188, "fusion_lat": 0.0}, {"is_reserved": 0, "bike_id": "6377e94df3ada71254ce44eae81d1ea4", "type": "electric_scooter", "name": "6377e94df3ada71254ce44eae81d1ea4", "is_disabled": 0, "fusion_lon": 0.0, "rental_uris": {"android": "https://dc.lft.to/lastmile_qr_scan", "ios": "https://dc.lft.to/lastmile_qr_scan"}, "lat": 38.919139666666666, "lon": -77.0327645, "fusion_lat": 0.0}, {"is_reserved": 0, "bike_id": "07b51c4106ec373f64fca8a3a08e1bb4", "type": "electric_scooter", "name": "07b51c4106ec373f64fca8a3a08e1bb4", "is_disabled": 0, "fusion_lon": 0.0, "rental_uris": {"android": "https://dc.lft.to/lastmile_qr_scan", "ios": "https://dc.lft.to/lastmile_qr_scan"}, "lat": 38.8989855, "lon": -77.03927433333334, "fusion_lat": 0.0}, {"is_reserved": 0, "bike_id": "42753d6bdcc9cf23eae249436add70fa", "type": "electric_scooter", "name": "42753d6bdcc9cf23eae249436add70fa", "is_disabled": 0, "fusion_lon": 0.0, "rental_uris": {"android": "https://dc.lft.to/lastmile_qr_scan", "ios": "https://dc.lft.to/lastmile_qr_scan"}, "lat": 38.918023, "lon": -77.0226925, "fusion_lat": 0.0}, {"is_reserved": 0, "bike_id": "18c78bc41451108436880c19f02453fd", "type": "electric_scooter", "name": "18c78bc41451108436880c19f02453fd", "is_disabled": 0, "fusion_lon": 0.0, "rental_uris": {"android": "https://dc.lft.to/lastmile_qr_scan", "ios": "https://dc.lft.to/lastmile_qr_scan"}, "lat": 38.9183525, "lon": -77.0317625, "fusion_lat": 0.0}, {"is_reserved": 0, "bike_id": "0889973effaf48375a361a89c3c7037d", "type": "electric_bike", "name": "0889973effaf48375a361a89c3c7037d", "is_disabled": 0, "fusion_lon": 0.0, "rental_uris": {"android": "https://dc.lft.to/lastmile_qr_scan", "ios": "https://dc.lft.to/lastmile_qr_scan"}, "lat": 38.84912216666667, "lon": -77.07928733333334, "fusion_lat": 0.0}, {"is_reserved": 0, "bike_id": "9dbcf63420abd9d263c6cf093464757b", "type": "electric_scooter", "name": "9dbcf63420abd9d263c6cf093464757b", "is_disabled": 0, "fusion_lon": 0.0, "rental_uris": {"android": "https://dc.lft.to/lastmile_qr_scan", "ios": "https://dc.lft.to/lastmile_qr_scan"}, "lat": 38.92160616666666, "lon": -77.020799, "fusion_lat": 0.0}, {"is_reserved": 0, "bike_id": "09d3d2dd9c8422f78e89087f31d54ace", "type": "electric_scooter", "name": "09d3d2dd9c8422f78e89087f31d54ace", "is_disabled": 0, "fusion_lon": 0.0, "rental_uris": {"android": "https://dc.lft.to/lastmile_qr_scan", "ios": "https://dc.lft.to/lastmile_qr_scan"}, "lat": 38.92617333333333, "lon": -77.02167333333334, "fusion_lat": 0.0}, {"is_reserved": 0, "bike_id": "a0827e8918f5bca415dc2bffd1a9162d", "type": "electric_scooter", "name": "a0827e8918f5bca415dc2bffd1a9162d", "is_disabled": 0, "fusion_lon": 0.0, "rental_uris": {"android": "https://dc.lft.to/lastmile_qr_scan", "ios": "https://dc.lft.to/lastmile_qr_scan"}, "lat": 38.939652333333335, "lon": -77.0328395, "fusion_lat": 0.0}, {"is_reserved": 0, "bike_id": "2c735d318b7be8cc0dfee2fed512751e", "type": "electric_scooter", "name": "2c735d318b7be8cc0dfee2fed512751e", "is_disabled": 0, "fusion_lon": 0.0, "rental_uris": {"android": "https://dc.lft.to/lastmile_qr_scan", "ios": "https://dc.lft.to/lastmile_qr_scan"}, "lat": 38.87682783333333, "lon": -77.01788816666667, "fusion_lat": 0.0}, {"is_reserved": 0, "bike_id": "2bbd9409d0db1af00b7ff3c812c9e032", "type": "electric_scooter", "name": "2bbd9409d0db1af00b7ff3c812c9e032", "is_disabled": 0, "fusion_lon": 0.0, "rental_uris": {"android": "https://dc.lft.to/lastmile_qr_scan", "ios": "https://dc.lft.to/lastmile_qr_scan"}, "lat": 38.91327733333333, "lon": -77.01363533333334, "fusion_lat": 0.0}, {"is_reserved": 0, "bike_id": "37f698f039a0be65dae725d9e421bb45", "type": "electric_scooter", "name": "37f698f039a0be65dae725d9e421bb45", "is_disabled": 0, "fusion_lon": 0.0, "rental_uris": {"android": "https://dc.lft.to/lastmile_qr_scan", "ios": "https://dc.lft.to/lastmile_qr_scan"}, "lat": 38.91327166666667, "lon": -77.045531, "fusion_lat": 0.0}, {"is_reserved": 0, "bike_id": "1b3f2ffcd28aceadfe57debdbefaf864", "type": "electric_scooter", "name": "1b3f2ffcd28aceadfe57debdbefaf864", "is_disabled": 0, "fusion_lon": 0.0, "rental_uris": {"android": "https://dc.lft.to/lastmile_qr_scan", "ios": "https://dc.lft.to/lastmile_qr_scan"}, "lat": 38.91843983333333, "lon": -77.03881266666667, "fusion_lat": 0.0}, {"is_reserved": 0, "bike_id": "28840c490ee168069cf2feb4294f4295", "type": "electric_bike", "name": "28840c490ee168069cf2feb4294f4295", "is_disabled": 0, "fusion_lon": 0.0, "rental_uris": {"android": "https://dc.lft.to/lastmile_qr_scan", "ios": "https://dc.lft.to/lastmile_qr_scan"}, "lat": 39.08509133333333, "lon": -76.95061633333333, "fusion_lat": 0.0}, {"is_reserved": 0, "bike_id": "93bccf3b4ae9e55f4a7fea0e567f4774", "type": "electric_scooter", "name": "93bccf3b4ae9e55f4a7fea0e567f4774", "is_disabled": 0, "fusion_lon": 0.0, "rental_uris": {"android": "https://dc.lft.to/lastmile_qr_scan", "ios": "https://dc.lft.to/lastmile_qr_scan"}, "lat": 38.921418, "lon": -77.01802783333333, "fusion_lat": 0.0}, {"is_reserved": 0, "bike_id": "4764aa730927c5e91df1811082c50909", "type": "electric_scooter", "name": "4764aa730927c5e91df1811082c50909", "is_disabled": 0, "fusion_lon": 0.0, "rental_uris": {"android": "https://dc.lft.to/lastmile_qr_scan", "ios": "https://dc.lft.to/lastmile_qr_scan"}, "lat": 38.91318233333333, "lon": -77.01444783333334, "fusion_lat": 0.0}, {"is_reserved": 0, "bike_id": "c486162c9327cf5b418c57d267fe7e45", "type": "electric_scooter", "name": "c486162c9327cf5b418c57d267fe7e45", "is_disabled": 0, "fusion_lon": 0.0, "rental_uris": {"android": "https://dc.lft.to/lastmile_qr_scan", "ios": "https://dc.lft.to/lastmile_qr_scan"}, "lat": 38.894815, "lon": -77.020174, "fusion_lat": 0.0}, {"is_reserved": 0, "bike_id": "2bb3279e2cee87f95da3260fd2c0e527", "type": "electric_scooter", "name": "2bb3279e2cee87f95da3260fd2c0e527", "is_disabled": 0, "fusion_lon": 0.0, "rental_uris": {"android": "https://dc.lft.to/lastmile_qr_scan", "ios": "https://dc.lft.to/lastmile_qr_scan"}, "lat": 38.86750033333333, "lon": -77.00147916666667, "fusion_lat": 0.0}, {"is_reserved": 0, "bike_id": "419f5c5059b19deb467c613c3000ecc8", "type": "electric_scooter", "name": "419f5c5059b19deb467c613c3000ecc8", "is_disabled": 0, "fusion_lon": 0.0, "rental_uris": {"android": "https://dc.lft.to/lastmile_qr_scan", "ios": "https://dc.lft.to/lastmile_qr_scan"}, "lat": 38.8988905, "lon": -77.03936066666667, "fusion_lat": 0.0}, {"is_reserved": 0, "bike_id": "94a36b77bd216aedddba604566b5541f", "type": "electric_scooter", "name": "94a36b77bd216aedddba604566b5541f", "is_disabled": 0, "fusion_lon": 0.0, "rental_uris": {"android": "https://dc.lft.to/lastmile_qr_scan", "ios": "https://dc.lft.to/lastmile_qr_scan"}, "lat": 38.901144, "lon": -77.04472583333333, "fusion_lat": 0.0}, {"is_reserved": 0, "bike_id": "eb9598e1a6b69220ba3b9b34952c0ad6", "type": "electric_scooter", "name": "eb9598e1a6b69220ba3b9b34952c0ad6", "is_disabled": 0, "fusion_lon": 0.0, "rental_uris": {"android": "https://dc.lft.to/lastmile_qr_scan", "ios": "https://dc.lft.to/lastmile_qr_scan"}, "lat": 38.8918935, "lon": -77.01540133333333, "fusion_lat": 0.0}, {"is_reserved": 0, "bike_id": "29ec4d2f6611a7977428bdb8c54f580a", "type": "electric_scooter", "name": "29ec4d2f6611a7977428bdb8c54f580a", "is_disabled": 0, "fusion_lon": 0.0, "rental_uris": {"android": "https://dc.lft.to/lastmile_qr_scan", "ios": "https://dc.lft.to/lastmile_qr_scan"}, "lat": 38.9682515, "lon": -77.03295483333333, "fusion_lat": 0.0}, {"is_reserved": 0, "bike_id": "8dae2280d549135dda9e4608bf66592a", "type": "electric_scooter", "name": "8dae2280d549135dda9e4608bf66592a", "is_disabled": 0, "fusion_lon": 0.0, "rental_uris": {"android": "https://dc.lft.to/lastmile_qr_scan", "ios": "https://dc.lft.to/lastmile_qr_scan"}, "lat": 38.94279616666667, "lon": -77.0293595, "fusion_lat": 0.0}, {"is_reserved": 0, "bike_id": "80558a2b08a7f7d551051698f450e0e2", "type": "electric_bike", "name": "80558a2b08a7f7d551051698f450e0e2", "is_disabled": 0, "fusion_lon": 0.0, "rental_uris": {"android": "https://dc.lft.to/lastmile_qr_scan", "ios": "https://dc.lft.to/lastmile_qr_scan"}, "lat": 38.887724166666665, "lon": -77.07597466666667, "fusion_lat": 0.0}, {"is_reserved": 0, "bike_id": "df26d17450e061e082b3da85196f7a29", "type": "electric_scooter", "name": "df26d17450e061e082b3da85196f7a29", "is_disabled": 0, "fusion_lon": 0.0, "rental_uris": {"android": "https://dc.lft.to/lastmile_qr_scan", "ios": "https://dc.lft.to/lastmile_qr_scan"}, "lat": 38.90118983333333, "lon": -77.044723, "fusion_lat": 0.0}, {"is_reserved": 0, "bike_id": "370cbadad8bd60be2ae2875755c99ca9", "type": "electric_scooter", "name": "370cbadad8bd60be2ae2875755c99ca9", "is_disabled": 0, "fusion_lon": 0.0, "rental_uris": {"android": "https://dc.lft.to/lastmile_qr_scan", "ios": "https://dc.lft.to/lastmile_qr_scan"}, "lat": 38.884901, "lon": -77.00728, "fusion_lat": 0.0}, {"is_reserved": 0, "bike_id": "72187efd6aba3d9afdd1f75c91e2c594", "type": "electric_scooter", "name": "72187efd6aba3d9afdd1f75c91e2c594", "is_disabled": 0, "fusion_lon": 0.0, "rental_uris": {"android": "https://dc.lft.to/lastmile_qr_scan", "ios": "https://dc.lft.to/lastmile_qr_scan"}, "lat": 38.921294, "lon": -77.01859933333333, "fusion_lat": 0.0}, {"is_reserved": 0, "bike_id": "a4a8c5b543616a032b848c9fd26b548e", "type": "electric_scooter", "name": "a4a8c5b543616a032b848c9fd26b548e", "is_disabled": 0, "fusion_lon": 0.0, "rental_uris": {"android": "https://dc.lft.to/lastmile_qr_scan", "ios": "https://dc.lft.to/lastmile_qr_scan"}, "lat": 38.928490833333335, "lon": -77.03315716666667, "fusion_lat": 0.0}, {"is_reserved": 0, "bike_id": "85e737b62794f8fbe84e0634fca9ea5d", "type": "electric_scooter", "name": "85e737b62794f8fbe84e0634fca9ea5d", "is_disabled": 0, "fusion_lon": 0.0, "rental_uris": {"android": "https://dc.lft.to/lastmile_qr_scan", "ios": "https://dc.lft.to/lastmile_qr_scan"}, "lat": 38.91724033333333, "lon": -77.06837483333334, "fusion_lat": 0.0}, {"is_reserved": 0, "bike_id": "b00430cb36752b9bc32593b490b2cb1a", "type": "electric_scooter", "name": "b00430cb36752b9bc32593b490b2cb1a", "is_disabled": 0, "fusion_lon": 0.0, "rental_uris": {"android": "https://dc.lft.to/lastmile_qr_scan", "ios": "https://dc.lft.to/lastmile_qr_scan"}, "lat": 38.905846833333335, "lon": -77.00599716666666, "fusion_lat": 0.0}, {"is_reserved": 0, "bike_id": "be375a81159bb85be880d8c1812a5679", "type": "electric_scooter", "name": "be375a81159bb85be880d8c1812a5679", "is_disabled": 0, "fusion_lon": 0.0, "rental_uris": {"android": "https://dc.lft.to/lastmile_qr_scan", "ios": "https://dc.lft.to/lastmile_qr_scan"}, "lat": 38.887254, "lon": -76.98356083333333, "fusion_lat": 0.0}, {"is_reserved": 0, "bike_id": "14dcafcd1603e4180a34f5dccda0e907", "type": "electric_scooter", "name": "14dcafcd1603e4180a34f5dccda0e907", "is_disabled": 0, "fusion_lon": 0.0, "rental_uris": {"android": "https://dc.lft.to/lastmile_qr_scan", "ios": "https://dc.lft.to/lastmile_qr_scan"}, "lat": 38.9087275, "lon": -77.08593216666667, "fusion_lat": 0.0}, {"is_reserved": 0, "bike_id": "a5393dfc23c7ba4f4d83aa18506e0f8a", "type": "electric_scooter", "name": "a5393dfc23c7ba4f4d83aa18506e0f8a", "is_disabled": 0, "fusion_lon": 0.0, "rental_uris": {"android": "https://dc.lft.to/lastmile_qr_scan", "ios": "https://dc.lft.to/lastmile_qr_scan"}, "lat": 38.909684166666665, "lon": -77.08128216666667, "fusion_lat": 0.0}, {"is_reserved": 0, "bike_id": "5dfd7a4f4ac41ba9b0f52c8349d26bff", "type": "electric_scooter", "name": "5dfd7a4f4ac41ba9b0f52c8349d26bff", "is_disabled": 0, "fusion_lon": 0.0, "rental_uris": {"android": "https://dc.lft.to/lastmile_qr_scan", "ios": "https://dc.lft.to/lastmile_qr_scan"}, "lat": 38.87544466666667, "lon": -77.00537616666666, "fusion_lat": 0.0}, {"is_reserved": 0, "bike_id": "172d1214647966418ad10982e726422d", "type": "electric_scooter", "name": "172d1214647966418ad10982e726422d", "is_disabled": 0, "fusion_lon": 0.0, "rental_uris": {"android": "https://dc.lft.to/lastmile_qr_scan", "ios": "https://dc.lft.to/lastmile_qr_scan"}, "lat": 38.92171583333333, "lon": -77.0191035, "fusion_lat": 0.0}, {"is_reserved": 0, "bike_id": "20b4fcbdcb8f45a2ff6cb1696d37a639", "type": "electric_scooter", "name": "20b4fcbdcb8f45a2ff6cb1696d37a639", "is_disabled": 0, "fusion_lon": 0.0, "rental_uris": {"android": "https://dc.lft.to/lastmile_qr_scan", "ios": "https://dc.lft.to/lastmile_qr_scan"}, "lat": 38.92951033333333, "lon": -77.04405733333333, "fusion_lat": 0.0}, {"is_reserved": 0, "bike_id": "78e09eefda43ae03e495a42108a6ca32", "type": "electric_scooter", "name": "78e09eefda43ae03e495a42108a6ca32", "is_disabled": 0, "fusion_lon": 0.0, "rental_uris": {"android": "https://dc.lft.to/lastmile_qr_scan", "ios": "https://dc.lft.to/lastmile_qr_scan"}, "lat": 38.8791495, "lon": -76.98539116666667, "fusion_lat": 0.0}, {"is_reserved": 0, "bike_id": "36964a9cda1fa91aca272be9c4c2ab56", "type": "electric_scooter", "name": "36964a9cda1fa91aca272be9c4c2ab56", "is_disabled": 0, "fusion_lon": 0.0, "rental_uris": {"android": "https://dc.lft.to/lastmile_qr_scan", "ios": "https://dc.lft.to/lastmile_qr_scan"}, "lat": 38.9060585, "lon": -77.0568205, "fusion_lat": 0.0}, {"is_reserved": 0, "bike_id": "e7052669926434947b9473a628596752", "type": "electric_scooter", "name": "e7052669926434947b9473a628596752", "is_disabled": 0, "fusion_lon": 0.0, "rental_uris": {"android": "https://dc.lft.to/lastmile_qr_scan", "ios": "https://dc.lft.to/lastmile_qr_scan"}, "lat": 38.902377666666666, "lon": -77.00204733333334, "fusion_lat": 0.0}, {"is_reserved": 0, "bike_id": "7f6a42cb5104fd343eb7595405fd8ff2", "type": "electric_scooter", "name": "7f6a42cb5104fd343eb7595405fd8ff2", "is_disabled": 0, "fusion_lon": 0.0, "rental_uris": {"android": "https://dc.lft.to/lastmile_qr_scan", "ios": "https://dc.lft.to/lastmile_qr_scan"}, "lat": 38.898874666666664, "lon": -77.043365, "fusion_lat": 0.0}, {"is_reserved": 0, "bike_id": "88f8697ab2c87b7d745544f9d7066c77", "type": "electric_scooter", "name": "88f8697ab2c87b7d745544f9d7066c77", "is_disabled": 0, "fusion_lon": 0.0, "rental_uris": {"android": "https://dc.lft.to/lastmile_qr_scan", "ios": "https://dc.lft.to/lastmile_qr_scan"}, "lat": 38.872923, "lon": -77.00989066666666, "fusion_lat": 0.0}, {"is_reserved": 0, "bike_id": "60c2be16096fbe0ac93ca9357f70b42d", "type": "electric_scooter", "name": "60c2be16096fbe0ac93ca9357f70b42d", "is_disabled": 0, "fusion_lon": 0.0, "rental_uris": {"android": "https://dc.lft.to/lastmile_qr_scan", "ios": "https://dc.lft.to/lastmile_qr_scan"}, "lat": 38.92866383333333, "lon": -77.0142045, "fusion_lat": 0.0}, {"is_reserved": 0, "bike_id": "3332528565b6b8ccfe0ab35104ada592", "type": "electric_bike", "name": "3332528565b6b8ccfe0ab35104ada592", "is_disabled": 0, "fusion_lon": 0.0, "rental_uris": {"android": "https://dc.lft.to/lastmile_qr_scan", "ios": "https://dc.lft.to/lastmile_qr_scan"}, "lat": 38.903738833333335, "lon": -77.03170816666666, "fusion_lat": 0.0}, {"is_reserved": 0, "bike_id": "f75c3f8ff1dbbd23ddf69f08d8ad83e1", "type": "electric_scooter", "name": "f75c3f8ff1dbbd23ddf69f08d8ad83e1", "is_disabled": 0, "fusion_lon": 0.0, "rental_uris": {"android": "https://dc.lft.to/lastmile_qr_scan", "ios": "https://dc.lft.to/lastmile_qr_scan"}, "lat": 38.898426666666666, "lon": -77.049945, "fusion_lat": 0.0}, {"is_reserved": 0, "bike_id": "2e153ec752a532821181457e8cb00bd5", "type": "electric_scooter", "name": "2e153ec752a532821181457e8cb00bd5", "is_disabled": 0, "fusion_lon": 0.0, "rental_uris": {"android": "https://dc.lft.to/lastmile_qr_scan", "ios": "https://dc.lft.to/lastmile_qr_scan"}, "lat": 38.90264066666667, "lon": -77.0176305, "fusion_lat": 0.0}, {"is_reserved": 0, "bike_id": "f59f366521a3e08a7fd2563579b7c278", "type": "electric_scooter", "name": "f59f366521a3e08a7fd2563579b7c278", "is_disabled": 0, "fusion_lon": 0.0, "rental_uris": {"android": "https://dc.lft.to/lastmile_qr_scan", "ios": "https://dc.lft.to/lastmile_qr_scan"}, "lat": 38.8813405, "lon": -77.02340866666667, "fusion_lat": 0.0}, {"is_reserved": 0, "bike_id": "426b120572a7c9ca0e951703b34df05c", "type": "electric_scooter", "name": "426b120572a7c9ca0e951703b34df05c", "is_disabled": 0, "fusion_lon": 0.0, "rental_uris": {"android": "https://dc.lft.to/lastmile_qr_scan", "ios": "https://dc.lft.to/lastmile_qr_scan"}, "lat": 38.877792, "lon": -76.9940795, "fusion_lat": 0.0}, {"is_reserved": 0, "bike_id": "fb0cf4d20c383c388c1dbea2906dd027", "type": "electric_scooter", "name": "fb0cf4d20c383c388c1dbea2906dd027", "is_disabled": 0, "fusion_lon": 0.0, "rental_uris": {"android": "https://dc.lft.to/lastmile_qr_scan", "ios": "https://dc.lft.to/lastmile_qr_scan"}, "lat": 38.90984983333333, "lon": -77.06605083333334, "fusion_lat": 0.0}, {"is_reserved": 0, "bike_id": "8ad486593f864afafac57e122cf522f1", "type": "electric_scooter", "name": "8ad486593f864afafac57e122cf522f1", "is_disabled": 0, "fusion_lon": 0.0, "rental_uris": {"android": "https://dc.lft.to/lastmile_qr_scan", "ios": "https://dc.lft.to/lastmile_qr_scan"}, "lat": 38.90188883333333, "lon": -77.04344166666667, "fusion_lat": 0.0}, {"is_reserved": 0, "bike_id": "0d4b52665747c51f6227c66d281ab5d8", "type": "electric_scooter", "name": "0d4b52665747c51f6227c66d281ab5d8", "is_disabled": 0, "fusion_lon": 0.0, "rental_uris": {"android": "https://dc.lft.to/lastmile_qr_scan", "ios": "https://dc.lft.to/lastmile_qr_scan"}, "lat": 38.910562, "lon": -77.052903, "fusion_lat": 0.0}, {"is_reserved": 0, "bike_id": "64760734d9f2d5844ca13081f3d1c573", "type": "electric_scooter", "name": "64760734d9f2d5844ca13081f3d1c573", "is_disabled": 0, "fusion_lon": 0.0, "rental_uris": {"android": "https://dc.lft.to/lastmile_qr_scan", "ios": "https://dc.lft.to/lastmile_qr_scan"}, "lat": 38.91118933333333, "lon": -77.05034333333333, "fusion_lat": 0.0}, {"is_reserved": 0, "bike_id": "2e75e85b56282e8af61baef3e5e169f1", "type": "electric_scooter", "name": "2e75e85b56282e8af61baef3e5e169f1", "is_disabled": 0, "fusion_lon": 0.0, "rental_uris": {"android": "https://dc.lft.to/lastmile_qr_scan", "ios": "https://dc.lft.to/lastmile_qr_scan"}, "lat": 38.93607316666667, "lon": -77.05889933333333, "fusion_lat": 0.0}, {"is_reserved": 0, "bike_id": "2d5fe173d6d6c931ac3a99b98dd2d2c3", "type": "electric_scooter", "name": "2d5fe173d6d6c931ac3a99b98dd2d2c3", "is_disabled": 0, "fusion_lon": 0.0, "rental_uris": {"android": "https://dc.lft.to/lastmile_qr_scan", "ios": "https://dc.lft.to/lastmile_qr_scan"}, "lat": 38.9040775, "lon": -77.04360016666666, "fusion_lat": 0.0}, {"is_reserved": 0, "bike_id": "a9d3eb3602cf39efbee193a6a164c857", "type": "electric_scooter", "name": "a9d3eb3602cf39efbee193a6a164c857", "is_disabled": 0, "fusion_lon": 0.0, "rental_uris": {"android": "https://dc.lft.to/lastmile_qr_scan", "ios": "https://dc.lft.to/lastmile_qr_scan"}, "lat": 38.91926333333333, "lon": -77.03421833333333, "fusion_lat": 0.0}, {"is_reserved": 0, "bike_id": "fccf202787d6f6a401249a59a337b8e1", "type": "electric_scooter", "name": "fccf202787d6f6a401249a59a337b8e1", "is_disabled": 0, "fusion_lon": 0.0, "rental_uris": {"android": "https://dc.lft.to/lastmile_qr_scan", "ios": "https://dc.lft.to/lastmile_qr_scan"}, "lat": 38.8897185, "lon": -77.040193, "fusion_lat": 0.0}, {"is_reserved": 0, "bike_id": "1994833bb33bb10184c51a05437e2176", "type": "electric_scooter", "name": "1994833bb33bb10184c51a05437e2176", "is_disabled": 0, "fusion_lon": 0.0, "rental_uris": {"android": "https://dc.lft.to/lastmile_qr_scan", "ios": "https://dc.lft.to/lastmile_qr_scan"}, "lat": 38.92653416666667, "lon": -77.03729316666667, "fusion_lat": 0.0}, {"is_reserved": 0, "bike_id": "0fa938050ba0f3404aa3c415d1afb48b", "type": "electric_scooter", "name": "0fa938050ba0f3404aa3c415d1afb48b", "is_disabled": 0, "fusion_lon": 0.0, "rental_uris": {"android": "https://dc.lft.to/lastmile_qr_scan", "ios": "https://dc.lft.to/lastmile_qr_scan"}, "lat": 38.914091666666664, "lon": -77.01011083333333, "fusion_lat": 0.0}, {"is_reserved": 0, "bike_id": "6b113f81fd4cda2cb4bb2172b2f47a03", "type": "electric_scooter", "name": "6b113f81fd4cda2cb4bb2172b2f47a03", "is_disabled": 0, "fusion_lon": 0.0, "rental_uris": {"android": "https://dc.lft.to/lastmile_qr_scan", "ios": "https://dc.lft.to/lastmile_qr_scan"}, "lat": 38.903484, "lon": -76.92944716666666, "fusion_lat": 0.0}, {"is_reserved": 0, "bike_id": "8eff576551bf5ca85194fb879bc36247", "type": "electric_scooter", "name": "8eff576551bf5ca85194fb879bc36247", "is_disabled": 0, "fusion_lon": 0.0, "rental_uris": {"android": "https://dc.lft.to/lastmile_qr_scan", "ios": "https://dc.lft.to/lastmile_qr_scan"}, "lat": 38.92363916666667, "lon": -77.07234366666667, "fusion_lat": 0.0}, {"is_reserved": 0, "bike_id": "b3d177eea34b01476c1eb5a2594a145a", "type": "electric_scooter", "name": "b3d177eea34b01476c1eb5a2594a145a", "is_disabled": 0, "fusion_lon": 0.0, "rental_uris": {"android": "https://dc.lft.to/lastmile_qr_scan", "ios": "https://dc.lft.to/lastmile_qr_scan"}, "lat": 38.929169333333334, "lon": -77.03482333333334, "fusion_lat": 0.0}, {"is_reserved": 0, "bike_id": "038ed25042c2ead19e16afa9c8607d30", "type": "electric_scooter", "name": "038ed25042c2ead19e16afa9c8607d30", "is_disabled": 0, "fusion_lon": 0.0, "rental_uris": {"android": "https://dc.lft.to/lastmile_qr_scan", "ios": "https://dc.lft.to/lastmile_qr_scan"}, "lat": 38.916200333333336, "lon": -77.00342183333333, "fusion_lat": 0.0}, {"is_reserved": 0, "bike_id": "e65234c38b88b9c8ca53657236dfefad", "type": "electric_scooter", "name": "e65234c38b88b9c8ca53657236dfefad", "is_disabled": 0, "fusion_lon": 0.0, "rental_uris": {"android": "https://dc.lft.to/lastmile_qr_scan", "ios": "https://dc.lft.to/lastmile_qr_scan"}, "lat": 38.95733933333333, "lon": -77.02390783333334, "fusion_lat": 0.0}, {"is_reserved": 0, "bike_id": "5269184cf91c0bbe17fd3493b0b31176", "type": "electric_scooter", "name": "5269184cf91c0bbe17fd3493b0b31176", "is_disabled": 0, "fusion_lon": 0.0, "rental_uris": {"android": "https://dc.lft.to/lastmile_qr_scan", "ios": "https://dc.lft.to/lastmile_qr_scan"}, "lat": 38.903484, "lon": -77.016359, "fusion_lat": 0.0}, {"is_reserved": 0, "bike_id": "870e34abcf77c2ead02c5a354377e92a", "type": "electric_scooter", "name": "870e34abcf77c2ead02c5a354377e92a", "is_disabled": 0, "fusion_lon": 0.0, "rental_uris": {"android": "https://dc.lft.to/lastmile_qr_scan", "ios": "https://dc.lft.to/lastmile_qr_scan"}, "lat": 38.905886833333334, "lon": -76.98543666666667, "fusion_lat": 0.0}, {"is_reserved": 0, "bike_id": "59e54957ef10d11b24dc9cff52bf11cf", "type": "electric_scooter", "name": "59e54957ef10d11b24dc9cff52bf11cf", "is_disabled": 0, "fusion_lon": 0.0, "rental_uris": {"android": "https://dc.lft.to/lastmile_qr_scan", "ios": "https://dc.lft.to/lastmile_qr_scan"}, "lat": 38.89978383333333, "lon": -76.99144133333333, "fusion_lat": 0.0}, {"is_reserved": 0, "bike_id": "c00574c42d9a73a03c4d9350814bf469", "type": "electric_bike", "name": "c00574c42d9a73a03c4d9350814bf469", "is_disabled": 0, "fusion_lon": 0.0, "rental_uris": {"android": "https://dc.lft.to/lastmile_qr_scan", "ios": "https://dc.lft.to/lastmile_qr_scan"}, "lat": 38.82207666666667, "lon": -76.97701, "fusion_lat": 0.0}, {"is_reserved": 0, "bike_id": "e32f54b34a6d2e1ea5a692e36eafafb9", "type": "electric_scooter", "name": "e32f54b34a6d2e1ea5a692e36eafafb9", "is_disabled": 0, "fusion_lon": 0.0, "rental_uris": {"android": "https://dc.lft.to/lastmile_qr_scan", "ios": "https://dc.lft.to/lastmile_qr_scan"}, "lat": 38.89635116666667, "lon": -77.03313483333334, "fusion_lat": 0.0}, {"is_reserved": 0, "bike_id": "bbb26beac421a53210b16cb7f984af8a", "type": "electric_scooter", "name": "bbb26beac421a53210b16cb7f984af8a", "is_disabled": 0, "fusion_lon": 0.0, "rental_uris": {"android": "https://dc.lft.to/lastmile_qr_scan", "ios": "https://dc.lft.to/lastmile_qr_scan"}, "lat": 38.87895616666667, "lon": -76.935221, "fusion_lat": 0.0}, {"is_reserved": 0, "bike_id": "7f27c638e461d1eafb24c17c385332c7", "type": "electric_scooter", "name": "7f27c638e461d1eafb24c17c385332c7", "is_disabled": 0, "fusion_lon": 0.0, "rental_uris": {"android": "https://dc.lft.to/lastmile_qr_scan", "ios": "https://dc.lft.to/lastmile_qr_scan"}, "lat": 38.923154, "lon": -77.01945466666666, "fusion_lat": 0.0}, {"is_reserved": 0, "bike_id": "599cfa75759a4e8c530c69940d899823", "type": "electric_scooter", "name": "599cfa75759a4e8c530c69940d899823", "is_disabled": 0, "fusion_lon": 0.0, "rental_uris": {"android": "https://dc.lft.to/lastmile_qr_scan", "ios": "https://dc.lft.to/lastmile_qr_scan"}, "lat": 38.906508333333335, "lon": -76.98381083333334, "fusion_lat": 0.0}, {"is_reserved": 0, "bike_id": "f93f8b1dba1db8577efdb7177206de2e", "type": "electric_scooter", "name": "f93f8b1dba1db8577efdb7177206de2e", "is_disabled": 0, "fusion_lon": 0.0, "rental_uris": {"android": "https://dc.lft.to/lastmile_qr_scan", "ios": "https://dc.lft.to/lastmile_qr_scan"}, "lat": 38.9011235, "lon": -77.0217995, "fusion_lat": 0.0}, {"is_reserved": 0, "bike_id": "ef09deae4615e309828c94fd3a4aa914", "type": "electric_scooter", "name": "ef09deae4615e309828c94fd3a4aa914", "is_disabled": 0, "fusion_lon": 0.0, "rental_uris": {"android": "https://dc.lft.to/lastmile_qr_scan", "ios": "https://dc.lft.to/lastmile_qr_scan"}, "lat": 38.91340733333333, "lon": -77.0093435, "fusion_lat": 0.0}, {"is_reserved": 0, "bike_id": "267da0422cfd3cda499bdf3d5dcd6d86", "type": "electric_scooter", "name": "267da0422cfd3cda499bdf3d5dcd6d86", "is_disabled": 0, "fusion_lon": 0.0, "rental_uris": {"android": "https://dc.lft.to/lastmile_qr_scan", "ios": "https://dc.lft.to/lastmile_qr_scan"}, "lat": 38.91538283333333, "lon": -77.01224733333333, "fusion_lat": 0.0}, {"is_reserved": 0, "bike_id": "ce272f91c71fbf3532f6840200e75ee6", "type": "electric_scooter", "name": "ce272f91c71fbf3532f6840200e75ee6", "is_disabled": 0, "fusion_lon": 0.0, "rental_uris": {"android": "https://dc.lft.to/lastmile_qr_scan", "ios": "https://dc.lft.to/lastmile_qr_scan"}, "lat": 38.906558, "lon": -76.98604133333333, "fusion_lat": 0.0}, {"is_reserved": 0, "bike_id": "c821eca557b6491aebb8cd3d2e315497", "type": "electric_scooter", "name": "c821eca557b6491aebb8cd3d2e315497", "is_disabled": 0, "fusion_lon": 0.0, "rental_uris": {"android": "https://dc.lft.to/lastmile_qr_scan", "ios": "https://dc.lft.to/lastmile_qr_scan"}, "lat": 38.924926, "lon": -77.02179633333333, "fusion_lat": 0.0}, {"is_reserved": 0, "bike_id": "8c3dc1e63c11c02952c7cd89cc576ba9", "type": "electric_scooter", "name": "8c3dc1e63c11c02952c7cd89cc576ba9", "is_disabled": 0, "fusion_lon": 0.0, "rental_uris": {"android": "https://dc.lft.to/lastmile_qr_scan", "ios": "https://dc.lft.to/lastmile_qr_scan"}, "lat": 38.898838833333336, "lon": -77.03276516666666, "fusion_lat": 0.0}, {"is_reserved": 0, "bike_id": "6a8eada07c6661b41536b2e91e531971", "type": "electric_scooter", "name": "6a8eada07c6661b41536b2e91e531971", "is_disabled": 0, "fusion_lon": 0.0, "rental_uris": {"android": "https://dc.lft.to/lastmile_qr_scan", "ios": "https://dc.lft.to/lastmile_qr_scan"}, "lat": 38.92609433333333, "lon": -77.02962766666667, "fusion_lat": 0.0}, {"is_reserved": 0, "bike_id": "20c943b960f03c72227996f89b45bcd2", "type": "electric_bike", "name": "20c943b960f03c72227996f89b45bcd2", "is_disabled": 0, "fusion_lon": 0.0, "rental_uris": {"android": "https://dc.lft.to/lastmile_qr_scan", "ios": "https://dc.lft.to/lastmile_qr_scan"}, "lat": 38.9982965, "lon": -76.99791616666667, "fusion_lat": 0.0}, {"is_reserved": 0, "bike_id": "bbd7f45ef122ddea793adce3d5611355", "type": "electric_scooter", "name": "bbd7f45ef122ddea793adce3d5611355", "is_disabled": 0, "fusion_lon": 0.0, "rental_uris": {"android": "https://dc.lft.to/lastmile_qr_scan", "ios": "https://dc.lft.to/lastmile_qr_scan"}, "lat": 38.89911166666667, "lon": -77.0392755, "fusion_lat": 0.0}, {"is_reserved": 0, "bike_id": "0cf3a816db7664e2faf7d792fd96a413", "type": "electric_scooter", "name": "0cf3a816db7664e2faf7d792fd96a413", "is_disabled": 0, "fusion_lon": 0.0, "rental_uris": {"android": "https://dc.lft.to/lastmile_qr_scan", "ios": "https://dc.lft.to/lastmile_qr_scan"}, "lat": 38.9073685, "lon": -77.03448766666666, "fusion_lat": 0.0}, {"is_reserved": 0, "bike_id": "d002495f9b034ea95d788262882914c5", "type": "electric_scooter", "name": "d002495f9b034ea95d788262882914c5", "is_disabled": 0, "fusion_lon": 0.0, "rental_uris": {"android": "https://dc.lft.to/lastmile_qr_scan", "ios": "https://dc.lft.to/lastmile_qr_scan"}, "lat": 38.916956166666665, "lon": -77.00809466666666, "fusion_lat": 0.0}, {"is_reserved": 0, "bike_id": "30e913f5c3e24cca6ec583107b36c155", "type": "electric_scooter", "name": "30e913f5c3e24cca6ec583107b36c155", "is_disabled": 0, "fusion_lon": 0.0, "rental_uris": {"android": "https://dc.lft.to/lastmile_qr_scan", "ios": "https://dc.lft.to/lastmile_qr_scan"}, "lat": 38.920408, "lon": -77.04185566666666, "fusion_lat": 0.0}, {"is_reserved": 0, "bike_id": "a84c98dd11db1b371c794f03e3b3ee97", "type": "electric_scooter", "name": "a84c98dd11db1b371c794f03e3b3ee97", "is_disabled": 0, "fusion_lon": 0.0, "rental_uris": {"android": "https://dc.lft.to/lastmile_qr_scan", "ios": "https://dc.lft.to/lastmile_qr_scan"}, "lat": 38.921721, "lon": -77.0267515, "fusion_lat": 0.0}, {"is_reserved": 0, "bike_id": "ba7d20bdbaa6fb3cabc0166e114efaeb", "type": "electric_scooter", "name": "ba7d20bdbaa6fb3cabc0166e114efaeb", "is_disabled": 0, "fusion_lon": 0.0, "rental_uris": {"android": "https://dc.lft.to/lastmile_qr_scan", "ios": "https://dc.lft.to/lastmile_qr_scan"}, "lat": 38.8811465, "lon": -77.02649883333333, "fusion_lat": 0.0}, {"is_reserved": 0, "bike_id": "0d60436a73ee37dc7e38d7ccb880a95b", "type": "electric_scooter", "name": "0d60436a73ee37dc7e38d7ccb880a95b", "is_disabled": 0, "fusion_lon": 0.0, "rental_uris": {"android": "https://dc.lft.to/lastmile_qr_scan", "ios": "https://dc.lft.to/lastmile_qr_scan"}, "lat": 38.896074166666665, "lon": -77.0225465, "fusion_lat": 0.0}, {"is_reserved": 0, "bike_id": "8574e97a7c89adb6bead1c95fc3961be", "type": "electric_scooter", "name": "8574e97a7c89adb6bead1c95fc3961be", "is_disabled": 0, "fusion_lon": 0.0, "rental_uris": {"android": "https://dc.lft.to/lastmile_qr_scan", "ios": "https://dc.lft.to/lastmile_qr_scan"}, "lat": 38.934685333333334, "lon": -76.98872983333334, "fusion_lat": 0.0}, {"is_reserved": 0, "bike_id": "240339b7bc2d55ea12689f45a3c8a787", "type": "electric_scooter", "name": "240339b7bc2d55ea12689f45a3c8a787", "is_disabled": 0, "fusion_lon": 0.0, "rental_uris": {"android": "https://dc.lft.to/lastmile_qr_scan", "ios": "https://dc.lft.to/lastmile_qr_scan"}, "lat": 38.909888, "lon": -77.06476616666667, "fusion_lat": 0.0}, {"is_reserved": 0, "bike_id": "43c6d6aa47b937dff1251e837bdcafdd", "type": "electric_scooter", "name": "43c6d6aa47b937dff1251e837bdcafdd", "is_disabled": 0, "fusion_lon": 0.0, "rental_uris": {"android": "https://dc.lft.to/lastmile_qr_scan", "ios": "https://dc.lft.to/lastmile_qr_scan"}, "lat": 38.89049, "lon": -76.98985066666667, "fusion_lat": 0.0}, {"is_reserved": 0, "bike_id": "2ffe4f62a1609c10cfa3c8d271997a8c", "type": "electric_scooter", "name": "2ffe4f62a1609c10cfa3c8d271997a8c", "is_disabled": 0, "fusion_lon": 0.0, "rental_uris": {"android": "https://dc.lft.to/lastmile_qr_scan", "ios": "https://dc.lft.to/lastmile_qr_scan"}, "lat": 38.909776, "lon": -77.00896616666667, "fusion_lat": 0.0}, {"is_reserved": 0, "bike_id": "007b9942f9fc2e6765435187269a7454", "type": "electric_scooter", "name": "007b9942f9fc2e6765435187269a7454", "is_disabled": 0, "fusion_lon": 0.0, "rental_uris": {"android": "https://dc.lft.to/lastmile_qr_scan", "ios": "https://dc.lft.to/lastmile_qr_scan"}, "lat": 38.8886225, "lon": -76.97906333333333, "fusion_lat": 0.0}, {"is_reserved": 0, "bike_id": "ec42524870a2ab49d3dbf06a64f85489", "type": "electric_scooter", "name": "ec42524870a2ab49d3dbf06a64f85489", "is_disabled": 0, "fusion_lon": 0.0, "rental_uris": {"android": "https://dc.lft.to/lastmile_qr_scan", "ios": "https://dc.lft.to/lastmile_qr_scan"}, "lat": 38.878773, "lon": -77.00057916666667, "fusion_lat": 0.0}, {"is_reserved": 0, "bike_id": "273a2f3bc427af470976d4e891b1e1a5", "type": "electric_scooter", "name": "273a2f3bc427af470976d4e891b1e1a5", "is_disabled": 0, "fusion_lon": 0.0, "rental_uris": {"android": "https://dc.lft.to/lastmile_qr_scan", "ios": "https://dc.lft.to/lastmile_qr_scan"}, "lat": 38.900412, "lon": -76.98834416666666, "fusion_lat": 0.0}, {"is_reserved": 0, "bike_id": "7196c097d865a96033d061ff6673d0d0", "type": "electric_bike", "name": "7196c097d865a96033d061ff6673d0d0", "is_disabled": 0, "fusion_lon": 0.0, "rental_uris": {"android": "https://dc.lft.to/lastmile_qr_scan", "ios": "https://dc.lft.to/lastmile_qr_scan"}, "lat": 38.8757925, "lon": -77.23410966666667, "fusion_lat": 0.0}, {"is_reserved": 0, "bike_id": "7d28dfb3ffbae7875dff39684ea28eff", "type": "electric_scooter", "name": "7d28dfb3ffbae7875dff39684ea28eff", "is_disabled": 0, "fusion_lon": 0.0, "rental_uris": {"android": "https://dc.lft.to/lastmile_qr_scan", "ios": "https://dc.lft.to/lastmile_qr_scan"}, "lat": 38.909760166666665, "lon": -77.04873366666666, "fusion_lat": 0.0}, {"is_reserved": 0, "bike_id": "566fbf6b11d4acdfa7f222dbb9397b1e", "type": "electric_scooter", "name": "566fbf6b11d4acdfa7f222dbb9397b1e", "is_disabled": 0, "fusion_lon": 0.0, "rental_uris": {"android": "https://dc.lft.to/lastmile_qr_scan", "ios": "https://dc.lft.to/lastmile_qr_scan"}, "lat": 38.886878, "lon": -76.976358, "fusion_lat": 0.0}, {"is_reserved": 0, "bike_id": "257ffd9e410f9cafa0d2dff7ae0b34d3", "type": "electric_scooter", "name": "257ffd9e410f9cafa0d2dff7ae0b34d3", "is_disabled": 0, "fusion_lon": 0.0, "rental_uris": {"android": "https://dc.lft.to/lastmile_qr_scan", "ios": "https://dc.lft.to/lastmile_qr_scan"}, "lat": 38.914173166666664, "lon": -77.01804983333334, "fusion_lat": 0.0},