{"data": {"bikes": [{"is_reserved": 0, "type": "electric_scooter", "bike_id": "15a068e1d4a044620e39aab91328031a", "lat": 38.92033383333333, "lon": -77.01220133333334, "rental_uris": {"android": "https://dc.lft.to/lastmile_qr_scan", "ios": "https://dc.lft.to/lastmile_qr_scan"}, "is_disabled": 0, "fusion_lat": 0.0, "name": "15a068e1d4a044620e39aab91328031a", "fusion_lon": 0.0}, {"is_reserved": 0, "type": "electric_bike", "bike_id": "2f4c99a3f52478c3ff132e708583dbc0", "lat": 39.0848985, "lon": -76.9506265, "rental_uris": {"android": "https://dc.lft.to/lastmile_qr_scan", "ios": "https://dc.lft.to/lastmile_qr_scan"}, "is_disabled": 0, "fusion_lat": 0.0, "name": "2f4c99a3f52478c3ff132e708583dbc0", "fusion_lon": 0.0}, {"is_reserved": 0, "type": "electric_scooter", "bike_id": "902ada5fc65a98bdfd82a82fa3dfff48", "lat": 38.944356, "lon": -76.9796135, "rental_uris": {"android": "https://dc.lft.to/lastmile_qr_scan", "ios": "https://dc.lft.to/lastmile_qr_scan"}, "is_disabled": 0, "fusion_lat": 0.0, "name": "902ada5fc65a98bdfd82a82fa3dfff48", "fusion_lon": 0.0}, {"is_reserved": 0, "type": "electric_scooter", "bike_id": "adc313136782c7edc360c9e12de13bd0", "lat": 38.92579666666666, "lon": -77.0259955, "rental_uris": {"android": "https://dc.lft.to/lastmile_qr_scan", "ios": "https://dc.lft.to/lastmile_qr_scan"}, "is_disabled": 0, "fusion_lat": 0.0, "name": "adc313136782c7edc360c9e12de13bd0", "fusion_lon": 0.0}, {"is_reserved": 0, "type": "electric_scooter", "bike_id": "9b2bb1899d55e0dd9eb20e51780b5509", "lat": 38.92615166666667, "lon": -77.04325533333333, "rental_uris": {"android": "https://dc.lft.to/lastmile_qr_scan", "ios": "https://dc.lft.to/lastmile_qr_scan"}, "is_disabled": 0, "fusion_lat": 0.0, "name": "9b2bb1899d55e0dd9eb20e51780b5509", "fusion_lon": 0.0}, {"is_reserved": 0, "type": "electric_scooter", "bike_id": "78bef31a4b19181fc705a9bccf745782", "lat": 38.91577433333333, "lon": -77.0122895, "rental_uris": {"android": "https://dc.lft.to/lastmile_qr_scan", "ios": "https://dc.lft.to/lastmile_qr_scan"}, "is_disabled": 0, "fusion_lat": 0.0, "name": "78bef31a4b19181fc705a9bccf745782", "fusion_lon": 0.0}, {"is_reserved": 0, "type": "electric_scooter", "bike_id": "2dacc8e090f8b5be22b0b6f985799a68", "lat": 38.91107316666667, "lon": -77.03827616666666, "rental_uris": {"android": "https://dc.lft.to/lastmile_qr_scan", "ios": "https://dc.lft.to/lastmile_qr_scan"}, "is_disabled": 0, "fusion_lat": 0.0, "name": "2dacc8e090f8b5be22b0b6f985799a68", "fusion_lon": 0.0}, {"is_reserved": 0, "type": "electric_scooter", "bike_id": "91054f089993a441dfa60c3e07875a0f", "lat": 38.9269735, "lon": -76.99772083333333, "rental_uris": {"android": "https://dc.lft.to/lastmile_qr_scan", "ios": "https://dc.lft.to/lastmile_qr_scan"}, "is_disabled": 0, "fusion_lat": 0.0, "name": "91054f089993a441dfa60c3e07875a0f", "fusion_lon": 0.0}, {"is_reserved": 0, "type": "electric_scooter", "bike_id": "0a04464202396fb5b68fd0c5a55f6755", "lat": 38.9057105, "lon": -77.00610833333333, "rental_uris": {"android": "https://dc.lft.to/lastmile_qr_scan", "ios": "https://dc.lft.to/lastmile_qr_scan"}, "is_disabled": 0, "fusion_lat": 0.0, "name": "0a04464202396fb5b68fd0c5a55f6755", "fusion_lon": 0.0}, {"is_reserved": 0, "type": "electric_scooter", "bike_id": "383d64b182374b40c66b9eda0c085a20", "lat": 38.90443783333333, "lon": -77.031121, "rental_uris": {"android": "https://dc.lft.to/lastmile_qr_scan", "ios": "https://dc.lft.to/lastmile_qr_scan"}, "is_disabled": 0, "fusion_lat": 0.0, "name": "383d64b182374b40c66b9eda0c085a20", "fusion_lon": 0.0}, {"is_reserved": 0, "type": "electric_scooter", "bike_id": "307cf0ea18f7beb3bf5c64a3a7dbfcb1", "lat": 38.8998155, "lon": -77.02283616666666, "rental_uris": {"android": "https://dc.lft.to/lastmile_qr_scan", "ios": "https://dc.lft.to/lastmile_qr_scan"}, "is_disabled": 0, "fusion_lat": 0.0, "name": "307cf0ea18f7beb3bf5c64a3a7dbfcb1", "fusion_lon": 0.0}, {"is_reserved": 0, "type": "electric_scooter", "bike_id": "fe61a4413d6c8a430ac4e862b51caa6f", "lat": 38.90745033333334, "lon": -77.03448066666667, "rental_uris": {"android": "https://dc.lft.to/lastmile_qr_scan", "ios": "https://dc.lft.to/lastmile_qr_scan"}, "is_disabled": 0, "fusion_lat": 0.0, "name": "fe61a4413d6c8a430ac4e862b51caa6f", "fusion_lon": 0.0}, {"is_reserved": 0, "type": "electric_scooter", "bike_id": "8295b96b9d478a47f033ca56b6160fb9", "lat": 38.90033616666667, "lon": -76.99148416666667, "rental_uris": {"android": "https://dc.lft.to/lastmile_qr_scan", "ios": "https://dc.lft.to/lastmile_qr_scan"}, "is_disabled": 0, "fusion_lat": 0.0, "name": "8295b96b9d478a47f033ca56b6160fb9", "fusion_lon": 0.0}, {"is_reserved": 0, "type": "electric_scooter", "bike_id": "583362ddf454cb02a42686a78e9a0b7b", "lat": 38.8983185, "lon": -77.0129285, "rental_uris": {"android": "https://dc.lft.to/lastmile_qr_scan", "ios": "https://dc.lft.to/lastmile_qr_scan"}, "is_disabled": 0, "fusion_lat": 0.0, "name": "583362ddf454cb02a42686a78e9a0b7b", "fusion_lon": 0.0}, {"is_reserved": 0, "type": "electric_scooter", "bike_id": "6efee8ed21feb9d1e07f9f78f4eb17e3", "lat": 38.923388333333335, "lon": -77.01897766666667, "rental_uris": {"android": "https://dc.lft.to/lastmile_qr_scan", "ios": "https://dc.lft.to/lastmile_qr_scan"}, "is_disabled": 0, "fusion_lat": 0.0, "name": "6efee8ed21feb9d1e07f9f78f4eb17e3", "fusion_lon": 0.0}, {"is_reserved": 0, "type": "electric_bike", "bike_id": "90a3f0f1ed952e533d5169e8d9da8124", "lat": 38.99935966666666, "lon": -77.05134583333333, "rental_uris": {"android": "https://dc.lft.to/lastmile_qr_scan", "ios": "https://dc.lft.to/lastmile_qr_scan"}, "is_disabled": 0, "fusion_lat": 0.0, "name": "90a3f0f1ed952e533d5169e8d9da8124", "fusion_lon": 0.0}, {"is_reserved": 0, "type": "electric_scooter", "bike_id": "d54f647757abff3a50594f2c9e798f45", "lat": 38.90625133333333, "lon": -77.0315115, "rental_uris": {"android": "https://dc.lft.to/lastmile_qr_scan", "ios": "https://dc.lft.to/lastmile_qr_scan"}, "is_disabled": 0, "fusion_lat": 0.0, "name": "d54f647757abff3a50594f2c9e798f45", "fusion_lon": 0.0}, {"is_reserved": 0, "type": "electric_scooter", "bike_id": "d74790c7e22d01798278002d93495ef0", "lat": 38.874679, "lon": -77.0033485, "rental_uris": {"android": "https://dc.lft.to/lastmile_qr_scan", "ios": "https://dc.lft.to/lastmile_qr_scan"}, "is_disabled": 0, "fusion_lat": 0.0, "name": "d74790c7e22d01798278002d93495ef0", "fusion_lon": 0.0}, {"is_reserved": 0, "type": "electric_scooter", "bike_id": "78b47f1d10b65444744195f11b21520d", "lat": 38.918869666666666, "lon": -77.03455033333333, "rental_uris": {"android": "https://dc.lft.to/lastmile_qr_scan", "ios": "https://dc.lft.to/lastmile_qr_scan"}, "is_disabled": 0, "fusion_lat": 0.0, "name": "78b47f1d10b65444744195f11b21520d", "fusion_lon": 0.0}, {"is_reserved": 0, "type": "electric_scooter", "bike_id": "06ea225acc8b292960db9f6b2e4b6da1", "lat": 38.892187, "lon": -77.04364583333333, "rental_uris": {"android": "https://dc.lft.to/lastmile_qr_scan", "ios": "https://dc.lft.to/lastmile_qr_scan"}, "is_disabled": 0, "fusion_lat": 0.0, "name": "06ea225acc8b292960db9f6b2e4b6da1", "fusion_lon": 0.0}, {"is_reserved": 0, "type": "electric_scooter", "bike_id": "39ec4b59471eeea473a4766222de9140", "lat": 38.9110425, "lon": -77.04973583333333, "rental_uris": {"android": "https://dc.lft.to/lastmile_qr_scan", "ios": "https://dc.lft.to/lastmile_qr_scan"}, "is_disabled": 0, "fusion_lat": 0.0, "name": "39ec4b59471eeea473a4766222de9140", "fusion_lon": 0.0}, {"is_reserved": 0, "type": "electric_bike", "bike_id": "86755ebaff15c9e06ec9fb2732cd3ea0", "lat": 38.972601833333336, "lon": -77.14968766666667, "rental_uris": {"android": "https://dc.lft.to/lastmile_qr_scan", "ios": "https://dc.lft.to/lastmile_qr_scan"}, "is_disabled": 0, "fusion_lat": 0.0, "name": "86755ebaff15c9e06ec9fb2732cd3ea0", "fusion_lon": 0.0}, {"is_reserved": 0, "type": "electric_scooter", "bike_id": "9e54080c5eb5b83edcca1fe2592f7550", "lat": 38.897314, "lon": -77.044178, "rental_uris": {"android": "https://dc.lft.to/lastmile_qr_scan", "ios": "https://dc.lft.to/lastmile_qr_scan"}, "is_disabled": 0, "fusion_lat": 0.0, "name": "9e54080c5eb5b83edcca1fe2592f7550", "fusion_lon": 0.0}, {"is_reserved": 0, "type": "electric_scooter", "bike_id": "6f8e42889bec751b0832a3d57b663371", "lat": 38.915797, "lon": -77.0123345, "rental_uris": {"android": "https://dc.lft.to/lastmile_qr_scan", "ios": "https://dc.lft.to/lastmile_qr_scan"}, "is_disabled": 0, "fusion_lat": 0.0, "name": "6f8e42889bec751b0832a3d57b663371", "fusion_lon": 0.0}, {"is_reserved": 0, "type": "electric_scooter", "bike_id": "8faf80830c0a911d032d4de0904e9047", "lat": 38.905400666666665, "lon": -77.05699966666667, "rental_uris": {"android": "https://dc.lft.to/lastmile_qr_scan", "ios": "https://dc.lft.to/lastmile_qr_scan"}, "is_disabled": 0, "fusion_lat": 0.0, "name": "8faf80830c0a911d032d4de0904e9047", "fusion_lon": 0.0}, {"is_reserved": 0, "type": "electric_scooter", "bike_id": "e1c50d7d0eaf5a33dc2b43a7a82f554d", "lat": 38.907279833333334, "lon": -77.04886916666666, "rental_uris": {"android": "https://dc.lft.to/lastmile_qr_scan", "ios": "https://dc.lft.to/lastmile_qr_scan"}, "is_disabled": 0, "fusion_lat": 0.0, "name": "e1c50d7d0eaf5a33dc2b43a7a82f554d", "fusion_lon": 0.0}, {"is_reserved": 0, "type": "electric_scooter", "bike_id": "b7d5ef0c323fbad5400e10ec0fc10a0c", "lat": 38.89222616666667, "lon": -77.03153816666666, "rental_uris": {"android": "https://dc.lft.to/lastmile_qr_scan", "ios": "https://dc.lft.to/lastmile_qr_scan"}, "is_disabled": 0, "fusion_lat": 0.0, "name": "b7d5ef0c323fbad5400e10ec0fc10a0c", "fusion_lon": 0.0}, {"is_reserved": 0, "type": "electric_scooter", "bike_id": "113408b7a6b7fec744c61d5dddc9f081", "lat": 38.84813916666667, "lon": -76.97819783333334, "rental_uris": {"android": "https://dc.lft.to/lastmile_qr_scan", "ios": "https://dc.lft.to/lastmile_qr_scan"}, "is_disabled": 0, "fusion_lat": 0.0, "name": "113408b7a6b7fec744c61d5dddc9f081", "fusion_lon": 0.0}, {"is_reserved": 0, "type": "electric_scooter", "bike_id": "ee8fe33ff669e053c09d623802c0e9c8", "lat": 38.927599666666666, "lon": -77.02875716666667, "rental_uris": {"android": "https://dc.lft.to/lastmile_qr_scan", "ios": "https://dc.lft.to/lastmile_qr_scan"}, "is_disabled": 0, "fusion_lat": 0.0, "name": "ee8fe33ff669e053c09d623802c0e9c8", "fusion_lon": 0.0}, {"is_reserved": 0, "type": "electric_scooter", "bike_id": "63b2468dde4a81c1707c63a1672eaca8", "lat": 38.926266166666665, "lon": -77.0378725, "rental_uris": {"android": "https://dc.lft.to/lastmile_qr_scan", "ios": "https://dc.lft.to/lastmile_qr_scan"}, "is_disabled": 0, "fusion_lat": 0.0, "name": "63b2468dde4a81c1707c63a1672eaca8", "fusion_lon": 0.0}, {"is_reserved": 0, "type": "electric_scooter", "bike_id": "115ad9c9acbdc8de2f55323f57f472de", "lat": 38.92522666666667, "lon": -77.0326115, "rental_uris": {"android": "https://dc.lft.to/lastmile_qr_scan", "ios": "https://dc.lft.to/lastmile_qr_scan"}, "is_disabled": 0, "fusion_lat": 0.0, "name": "115ad9c9acbdc8de2f55323f57f472de", "fusion_lon": 0.0}, {"is_reserved": 0, "type": "electric_scooter", "bike_id": "18b5d96b2766e2c22492fb9dd525fdb9", "lat": 38.90364366666667, "lon": -77.0418135, "rental_uris": {"android": "https://dc.lft.to/lastmile_qr_scan", "ios": "https://dc.lft.to/lastmile_qr_scan"}, "is_disabled": 0, "fusion_lat": 0.0, "name": "18b5d96b2766e2c22492fb9dd525fdb9", "fusion_lon": 0.0}, {"is_reserved": 0, "type": "electric_bike", "bike_id": "01290bfb2d7af6d44b1194a4fb4364df", "lat": 38.8038015, "lon": -76.98817133333333, "rental_uris": {"android": "https://dc.lft.to/lastmile_qr_scan", "ios": "https://dc.lft.to/lastmile_qr_scan"}, "is_disabled": 0, "fusion_lat": 0.0, "name": "01290bfb2d7af6d44b1194a4fb4364df", "fusion_lon": 0.0}, {"is_reserved": 0, "type": "electric_scooter", "bike_id": "79daf31202cf67d722b7b54bf173df22", "lat": 38.89361383333333, "lon": -76.94103, "rental_uris": {"android": "https://dc.lft.to/lastmile_qr_scan", "ios": "https://dc.lft.to/lastmile_qr_scan"}, "is_disabled": 0, "fusion_lat": 0.0, "name": "79daf31202cf67d722b7b54bf173df22", "fusion_lon": 0.0}, {"is_reserved": 0, "type": "electric_scooter", "bike_id": "bd41b65b6823099d8beffa161476a0d6", "lat": 38.89899333333334, "lon": -77.03191766666667, "rental_uris": {"android": "https://dc.lft.to/lastmile_qr_scan", "ios": "https://dc.lft.to/lastmile_qr_scan"}, "is_disabled": 0, "fusion_lat": 0.0, "name": "bd41b65b6823099d8beffa161476a0d6", "fusion_lon": 0.0}, {"is_reserved": 0, "type": "electric_scooter", "bike_id": "b9ce4e3ee98ece3d73b8f2a2da376e42", "lat": 38.922519666666666, "lon": -76.99746433333334, "rental_uris": {"android": "https://dc.lft.to/lastmile_qr_scan", "ios": "https://dc.lft.to/lastmile_qr_scan"}, "is_disabled": 0, "fusion_lat": 0.0, "name": "b9ce4e3ee98ece3d73b8f2a2da376e42", "fusion_lon": 0.0}, {"is_reserved": 0, "type": "electric_bike", "bike_id": "14d18c539d21e769df7b10080cb8a66e", "lat": 38.951289, "lon": -76.96593016666667, "rental_uris": {"android": "https://dc.lft.to/lastmile_qr_scan", "ios": "https://dc.lft.to/lastmile_qr_scan"}, "is_disabled": 0, "fusion_lat": 0.0, "name": "14d18c539d21e769df7b10080cb8a66e", "fusion_lon": 0.0}, {"is_reserved": 0, "type": "electric_scooter", "bike_id": "773823758f1299fba0bc1f8dc50a8a9d", "lat": 38.947350666666665, "lon": -77.02457433333333, "rental_uris": {"android": "https://dc.lft.to/lastmile_qr_scan", "ios": "https://dc.lft.to/lastmile_qr_scan"}, "is_disabled": 0, "fusion_lat": 0.0, "name": "773823758f1299fba0bc1f8dc50a8a9d", "fusion_lon": 0.0}, {"is_reserved": 0, "type": "electric_scooter", "bike_id": "a9f95773ee93504dca64e1a106eefa7b", "lat": 38.92965933333333, "lon": -77.02338616666667, "rental_uris": {"android": "https://dc.lft.to/lastmile_qr_scan", "ios": "https://dc.lft.to/lastmile_qr_scan"}, "is_disabled": 0, "fusion_lat": 0.0, "name": "a9f95773ee93504dca64e1a106eefa7b", "fusion_lon": 0.0}, {"is_reserved": 0, "type": "electric_scooter", "bike_id": "347a36209280d3498e1881afb60ea54c", "lat": 38.9337375, "lon": -77.057232, "rental_uris": {"android": "https://dc.lft.to/lastmile_qr_scan", "ios": "https://dc.lft.to/lastmile_qr_scan"}, "is_disabled": 0, "fusion_lat": 0.0, "name": "347a36209280d3498e1881afb60ea54c", "fusion_lon": 0.0}, {"is_reserved": 0, "type": "electric_scooter", "bike_id": "c1649a7200d7e641d68f799c99e5e233", "lat": 38.92237266666667, "lon": -77.021257, "rental_uris": {"android": "https://dc.lft.to/lastmile_qr_scan", "ios": "https://dc.lft.to/lastmile_qr_scan"}, "is_disabled": 0, "fusion_lat": 0.0, "name": "c1649a7200d7e641d68f799c99e5e233", "fusion_lon": 0.0}, {"is_reserved": 0, "type": "electric_scooter", "bike_id": "56aed4e325a5f79753427287357c9e6d", "lat": 38.899943, "lon": -77.02286383333333, "rental_uris": {"android": "https://dc.lft.to/lastmile_qr_scan", "ios": "https://dc.lft.to/lastmile_qr_scan"}, "is_disabled": 0, "fusion_lat": 0.0, "name": "56aed4e325a5f79753427287357c9e6d", "fusion_lon": 0.0}, {"is_reserved": 0, "type": "electric_scooter", "bike_id": "ef0d82d3962bf1178cefd6add87aeac0", "lat": 38.9117745, "lon": -77.00495916666667, "rental_uris": {"android": "https://dc.lft.to/lastmile_qr_scan", "ios": "https://dc.lft.to/lastmile_qr_scan"}, "is_disabled": 0, "fusion_lat": 0.0, "name": "ef0d82d3962bf1178cefd6add87aeac0", "fusion_lon": 0.0}, {"is_reserved": 0, "type": "electric_scooter", "bike_id": "27580b025d8d3c3c1db2d46f5a9a7240", "lat": 38.925663166666666, "lon": -76.97003766666667, "rental_uris": {"android": "https://dc.lft.to/lastmile_qr_scan", "ios": "https://dc.lft.to/lastmile_qr_scan"}, "is_disabled": 0, "fusion_lat": 0.0, "name": "27580b025d8d3c3c1db2d46f5a9a7240", "fusion_lon": 0.0}, {"is_reserved": 0, "type": "electric_scooter", "bike_id": "3b647a5019b6e4c455921db4bf968897", "lat": 38.900354666666665, "lon": -76.991528, "rental_uris": {"android": "https://dc.lft.to/lastmile_qr_scan", "ios": "https://dc.lft.to/lastmile_qr_scan"}, "is_disabled": 0, "fusion_lat": 0.0, "name": "3b647a5019b6e4c455921db4bf968897", "fusion_lon": 0.0}, {"is_reserved": 0, "type": "electric_scooter", "bike_id": "3dcdf620bc44801b3d669a1a4042e924", "lat": 38.8922145, "lon": -77.02314, "rental_uris": {"android": "https://dc.lft.to/lastmile_qr_scan", "ios": "https://dc.lft.to/lastmile_qr_scan"}, "is_disabled": 0, "fusion_lat": 0.0, "name": "3dcdf620bc44801b3d669a1a4042e924", "fusion_lon": 0.0}, {"is_reserved": 0, "type": "electric_scooter", "bike_id": "3c493ae0583f0c9ab0a65445795cf779", "lat": 38.93094933333333, "lon": -77.03440866666666, "rental_uris": {"android": "https://dc.lft.to/lastmile_qr_scan", "ios": "https://dc.lft.to/lastmile_qr_scan"}, "is_disabled": 0, "fusion_lat": 0.0, "name": "3c493ae0583f0c9ab0a65445795cf779", "fusion_lon": 0.0}, {"is_reserved": 0, "type": "electric_scooter", "bike_id": "5f3aba6c3de564c6d3894f5bad692017", "lat": 38.921131333333335, "lon": -77.0222195, "rental_uris": {"android": "https://dc.lft.to/lastmile_qr_scan", "ios": "https://dc.lft.to/lastmile_qr_scan"}, "is_disabled": 0, "fusion_lat": 0.0, "name": "5f3aba6c3de564c6d3894f5bad692017", "fusion_lon": 0.0}, {"is_reserved": 0, "type": "electric_scooter", "bike_id": "47a31a55697d94bbc06132e0b711c14a", "lat": 38.930634, "lon": -77.03818333333334, "rental_uris": {"android": "https://dc.lft.to/lastmile_qr_scan", "ios": "https://dc.lft.to/lastmile_qr_scan"}, "is_disabled": 0, "fusion_lat": 0.0, "name": "47a31a55697d94bbc06132e0b711c14a", "fusion_lon": 0.0}, {"is_reserved": 0, "type": "electric_scooter", "bike_id": "8234772edc0cf46e2544d22d6aab159a", "lat": 38.89983266666667, "lon": -77.027127, "rental_uris": {"android": "https://dc.lft.to/lastmile_qr_scan", "ios": "https://dc.lft.to/lastmile_qr_scan"}, "is_disabled": 0, "fusion_lat": 0.0, "name": "8234772edc0cf46e2544d22d6aab159a", "fusion_lon": 0.0}, {"is_reserved": 0, "type": "electric_scooter", "bike_id": "498a56983faf913eb93ebc2cd6eba811", "lat": 38.9071835, "lon": -77.02445566666667, "rental_uris": {"android": "https://dc.lft.to/lastmile_qr_scan", "ios": "https://dc.lft.to/lastmile_qr_scan"}, "is_disabled": 0, "fusion_lat": 0.0, "name": "498a56983faf913eb93ebc2cd6eba811", "fusion_lon": 0.0}, {"is_reserved": 0, "type": "electric_scooter", "bike_id": "d42d9330efceefb2382feb618ab89e4b", "lat": 38.919148166666666, "lon": -77.03425033333333, "rental_uris": {"android": "https://dc.lft.to/lastmile_qr_scan", "ios": "https://dc.lft.to/lastmile_qr_scan"}, "is_disabled": 0, "fusion_lat": 0.0, "name": "d42d9330efceefb2382feb618ab89e4b", "fusion_lon": 0.0}, {"is_reserved": 0, "type": "electric_scooter", "bike_id": "62cdc496cdc9432cd84a3095f5033f56", "lat": 38.9238035, "lon": -77.02956166666667, "rental_uris": {"android": "https://dc.lft.to/lastmile_qr_scan", "ios": "https://dc.lft.to/lastmile_qr_scan"}, "is_disabled": 0, "fusion_lat": 0.0, "name": "62cdc496cdc9432cd84a3095f5033f56", "fusion_lon": 0.0}, {"is_reserved": 0, "type": "electric_scooter", "bike_id": "f96390646a2e4265fe2ca46139e93333", "lat": 38.93451066666667, "lon": -77.02952066666667, "rental_uris": {"android": "https://dc.lft.to/lastmile_qr_scan", "ios": "https://dc.lft.to/lastmile_qr_scan"}, "is_disabled": 0, "fusion_lat": 0.0, "name": "f96390646a2e4265fe2ca46139e93333", "fusion_lon": 0.0}, {"is_reserved": 0, "type": "electric_bike", "bike_id": "9bcb0b543c394a2ee9366d78887618da", "lat": 38.88341966666667, "lon": -76.93627833333333, "rental_uris": {"android": "https://dc.lft.to/lastmile_qr_scan", "ios": "https://dc.lft.to/lastmile_qr_scan"}, "is_disabled": 0, "fusion_lat": 0.0, "name": "9bcb0b543c394a2ee9366d78887618da", "fusion_lon": 0.0}, {"is_reserved": 0, "type": "electric_scooter", "bike_id": "f5725be5bf5efa90367b4b9f69447568", "lat": 38.922999, "lon": -77.0302775, "rental_uris": {"android": "https://dc.lft.to/lastmile_qr_scan", "ios": "https://dc.lft.to/lastmile_qr_scan"}, "is_disabled": 0, "fusion_lat": 0.0, "name": "f5725be5bf5efa90367b4b9f69447568", "fusion_lon": 0.0}, {"is_reserved": 0, "type": "electric_scooter", "bike_id": "d72397401f61d10615e96d2ef32dce04", "lat": 38.937202, "lon": -77.03635833333334, "rental_uris": {"android": "https://dc.lft.to/lastmile_qr_scan", "ios": "https://dc.lft.to/lastmile_qr_scan"}, "is_disabled": 0, "fusion_lat": 0.0, "name": "d72397401f61d10615e96d2ef32dce04", "fusion_lon": 0.0}, {"is_reserved": 0, "type": "electric_scooter", "bike_id": "2acf475b10ddf6653253332ef3941b8d", "lat": 38.8924315, "lon": -77.03347083333334, "rental_uris": {"android": "https://dc.lft.to/lastmile_qr_scan", "ios": "https://dc.lft.to/lastmile_qr_scan"}, "is_disabled": 0, "fusion_lat": 0.0, "name": "2acf475b10ddf6653253332ef3941b8d", "fusion_lon": 0.0}, {"is_reserved": 0, "type": "electric_scooter", "bike_id": "9ed6e656fac9eec1c609af4d68f3d300", "lat": 38.900568, "lon": -77.04966116666667, "rental_uris": {"android": "https://dc.lft.to/lastmile_qr_scan", "ios": "https://dc.lft.to/lastmile_qr_scan"}, "is_disabled": 0, "fusion_lat": 0.0, "name": "9ed6e656fac9eec1c609af4d68f3d300", "fusion_lon": 0.0}, {"is_reserved": 0, "type": "electric_scooter", "bike_id": "842763e55c1472b7aa26fbe68fd675ed", "lat": 38.917778166666665, "lon": -77.023063, "rental_uris": {"android": "https://dc.lft.to/lastmile_qr_scan", "ios": "https://dc.lft.to/lastmile_qr_scan"}, "is_disabled": 0, "fusion_lat": 0.0, "name": "842763e55c1472b7aa26fbe68fd675ed", "fusion_lon": 0.0}, {"is_reserved": 0, "type": "electric_scooter", "bike_id": "53621b5beb2ca30721b94ff1512ed31e", "lat": 38.92244483333333, "lon": -77.035225, "rental_uris": {"android": "https://dc.lft.to/lastmile_qr_scan", "ios": "https://dc.lft.to/lastmile_qr_scan"}, "is_disabled": 0, "fusion_lat": 0.0, "name": "53621b5beb2ca30721b94ff1512ed31e", "fusion_lon": 0.0}, {"is_reserved": 0, "type": "electric_scooter", "bike_id": "1c5b8cbeaa28e3c62f012c5814a9bdab", "lat": 38.92321916666667, "lon": -77.03724016666666, "rental_uris": {"android": "https://dc.lft.to/lastmile_qr_scan", "ios": "https://dc.lft.to/lastmile_qr_scan"}, "is_disabled": 0, "fusion_lat": 0.0, "name": "1c5b8cbeaa28e3c62f012c5814a9bdab", "fusion_lon": 0.0}, {"is_reserved": 0, "type": "electric_scooter", "bike_id": "7fb5c361c42754f426bb93ac4026b6df", "lat": 38.926725833333336, "lon": -77.00735033333333, "rental_uris": {"android": "https://dc.lft.to/lastmile_qr_scan", "ios": "https://dc.lft.to/lastmile_qr_scan"}, "is_disabled": 0, "fusion_lat": 0.0, "name": "7fb5c361c42754f426bb93ac4026b6df", "fusion_lon": 0.0}, {"is_reserved": 0, "type": "electric_scooter", "bike_id": "6bc1e3899b5351688e48b87aaaef9e8f", "lat": 38.895465, "lon": -76.98338066666666, "rental_uris": {"android": "https://dc.lft.to/lastmile_qr_scan", "ios": "https://dc.lft.to/lastmile_qr_scan"}, "is_disabled": 0, "fusion_lat": 0.0, "name": "6bc1e3899b5351688e48b87aaaef9e8f", "fusion_lon": 0.0}, {"is_reserved": 0, "type": "electric_scooter", "bike_id": "6e0cdfecb8196883a19850e2d568c4cd", "lat": 38.9269915, "lon": -77.0207145, "rental_uris": {"android": "https://dc.lft.to/lastmile_qr_scan", "ios": "https://dc.lft.to/lastmile_qr_scan"}, "is_disabled": 0, "fusion_lat": 0.0, "name": "6e0cdfecb8196883a19850e2d568c4cd", "fusion_lon": 0.0}, {"is_reserved": 0, "type": "electric_scooter", "bike_id": "cd24309e793293ee108d87937adf6618", "lat": 38.915498166666666, "lon": -77.03681083333333, "rental_uris": {"android": "https://dc.lft.to/lastmile_qr_scan", "ios": "https://dc.lft.to/lastmile_qr_scan"}, "is_disabled": 0, "fusion_lat": 0.0, "name": "cd24309e793293ee108d87937adf6618", "fusion_lon": 0.0}, {"is_reserved": 0, "type": "electric_scooter", "bike_id": "df5d440eca13c9dd2535ce03dd0f0fd6", "lat": 38.90863083333333, "lon": -77.04657383333333, "rental_uris": {"android": "https://dc.lft.to/lastmile_qr_scan", "ios": "https://dc.lft.to/lastmile_qr_scan"}, "is_disabled": 0, "fusion_lat": 0.0, "name": "df5d440eca13c9dd2535ce03dd0f0fd6", "fusion_lon": 0.0}, {"is_reserved": 0, "type": "electric_scooter", "bike_id": "bbb9da8bca65beb8f38149398c97e1d5", "lat": 38.90558566666667, "lon": -77.00709383333333, "rental_uris": {"android": "https://dc.lft.to/lastmile_qr_scan", "ios": "https://dc.lft.to/lastmile_qr_scan"}, "is_disabled": 0, "fusion_lat": 0.0, "name": "bbb9da8bca65beb8f38149398c97e1d5", "fusion_lon": 0.0}, {"is_reserved": 0, "type": "electric_scooter", "bike_id": "dd22889cf3dec8039423cacebefbc7b9", "lat": 38.9400605, "lon": -77.0190565, "rental_uris": {"android": "https://dc.lft.to/lastmile_qr_scan", "ios": "https://dc.lft.to/lastmile_qr_scan"}, "is_disabled": 0, "fusion_lat": 0.0, "name": "dd22889cf3dec8039423cacebefbc7b9", "fusion_lon": 0.0}, {"is_reserved": 0, "type": "electric_scooter", "bike_id": "faaf60295a7ad07948556d8712e373f4", "lat": 38.92158633333333, "lon": -77.03359733333333, "rental_uris": {"android": "https://dc.lft.to/lastmile_qr_scan", "ios": "https://dc.lft.to/lastmile_qr_scan"}, "is_disabled": 0, "fusion_lat": 0.0, "name": "faaf60295a7ad07948556d8712e373f4", "fusion_lon": 0.0}, {"is_reserved": 0, "type": "electric_scooter", "bike_id": "842c9a879a18bf045b8ab9029eed6ed5", "lat": 38.916313333333335, "lon": -77.01577533333334, "rental_uris": {"android": "https://dc.lft.to/lastmile_qr_scan", "ios": "https://dc.lft.to/lastmile_qr_scan"}, "is_disabled": 0, "fusion_lat": 0.0, "name": "842c9a879a18bf045b8ab9029eed6ed5", "fusion_lon": 0.0}, {"is_reserved": 0, "type": "electric_scooter", "bike_id": "ec1294b961c94d6ff48cbdf460e7ff2e", "lat": 38.9119455, "lon": -77.004503, "rental_uris": {"android": "https://dc.lft.to/lastmile_qr_scan", "ios": "https://dc.lft.to/lastmile_qr_scan"}, "is_disabled": 0, "fusion_lat": 0.0, "name": "ec1294b961c94d6ff48cbdf460e7ff2e", "fusion_lon": 0.0}, {"is_reserved": 0, "type": "electric_scooter", "bike_id": "1275bbfce4983947d309f5c3074e2b22", "lat": 38.899860833333335, "lon": -77.02713583333333, "rental_uris": {"android": "https://dc.lft.to/lastmile_qr_scan", "ios": "https://dc.lft.to/lastmile_qr_scan"}, "is_disabled": 0, "fusion_lat": 0.0, "name": "1275bbfce4983947d309f5c3074e2b22", "fusion_lon": 0.0}, {"is_reserved": 0, "type": "electric_scooter", "bike_id": "dc5d6eca17d91cc7b3649704e3fd1fee", "lat": 38.95181183333333, "lon": -77.02613316666667, "rental_uris": {"android": "https://dc.lft.to/lastmile_qr_scan", "ios": "https://dc.lft.to/lastmile_qr_scan"}, "is_disabled": 0, "fusion_lat": 0.0, "name": "dc5d6eca17d91cc7b3649704e3fd1fee", "fusion_lon": 0.0}, {"is_reserved": 0, "type": "electric_bike", "bike_id": "0f4e20cfcae095c71ff959519e67da20", "lat": 38.99549616666667, "lon": -77.07462016666666, "rental_uris": {"android": "https://dc.lft.to/lastmile_qr_scan", "ios": "https://dc.lft.to/lastmile_qr_scan"}, "is_disabled": 0, "fusion_lat": 0.0, "name": "0f4e20cfcae095c71ff959519e67da20", "fusion_lon": 0.0}, {"is_reserved": 0, "type": "electric_scooter", "bike_id": "f8cdef5c6f27778e8bb3c906d8a6756c", "lat": 38.905625, "lon": -77.00597483333334, "rental_uris": {"android": "https://dc.lft.to/lastmile_qr_scan", "ios": "https://dc.lft.to/lastmile_qr_scan"}, "is_disabled": 0, "fusion_lat": 0.0, "name": "f8cdef5c6f27778e8bb3c906d8a6756c", "fusion_lon": 0.0}, {"is_reserved": 0, "type": "electric_bike", "bike_id": "588bc8d74f2a85c8f6091f9dafa4b7e5", "lat": 38.94912166666667, "lon": -77.00792133333333, "rental_uris": {"android": "https://dc.lft.to/lastmile_qr_scan", "ios": "https://dc.lft.to/lastmile_qr_scan"}, "is_disabled": 0, "fusion_lat": 0.0, "name": "588bc8d74f2a85c8f6091f9dafa4b7e5", "fusion_lon": 0.0}, {"is_reserved": 0, "type": "electric_scooter", "bike_id": "ccf158ea4f63de432da93a6f685e9baa", "lat": 38.9140175, "lon": -77.04364016666666, "rental_uris": {"android": "https://dc.lft.to/lastmile_qr_scan", "ios": "https://dc.lft.to/lastmile_qr_scan"}, "is_disabled": 0, "fusion_lat": 0.0, "name": "ccf158ea4f63de432da93a6f685e9baa", "fusion_lon": 0.0}, {"is_reserved": 0, "type": "electric_bike", "bike_id": "840b8a21f62afea199a04e6dacbe1b56", "lat": 38.894466, "lon": -77.01995433333333, "rental_uris": {"android": "https://dc.lft.to/lastmile_qr_scan", "ios": "https://dc.lft.to/lastmile_qr_scan"}, "is_disabled": 0, "fusion_lat": 0.0, "name": "840b8a21f62afea199a04e6dacbe1b56", "fusion_lon": 0.0}, {"is_reserved": 0, "type": "electric_scooter", "bike_id": "4bffcafc6b2695d95db7b35e1dda4b85", "lat": 38.952647666666664, "lon": -77.02403533333333, "rental_uris": {"android": "https://dc.lft.to/lastmile_qr_scan", "ios": "https://dc.lft.to/lastmile_qr_scan"}, "is_disabled": 0, "fusion_lat": 0.0, "name": "4bffcafc6b2695d95db7b35e1dda4b85", "fusion_lon": 0.0}, {"is_reserved": 0, "type": "electric_scooter", "bike_id": "81bfcae95f6b1f9be53a849b701c9e83", "lat": 38.9036795, "lon": -77.01759266666667, "rental_uris": {"android": "https://dc.lft.to/lastmile_qr_scan", "ios": "https://dc.lft.to/lastmile_qr_scan"}, "is_disabled": 0, "fusion_lat": 0.0, "name": "81bfcae95f6b1f9be53a849b701c9e83", "fusion_lon": 0.0}, {"is_reserved": 0, "type": "electric_scooter", "bike_id": "3e08c24d08b5b8c635f60428cfc60107", "lat": 38.882525, "lon": -77.00630366666667, "rental_uris": {"android": "https://dc.lft.to/lastmile_qr_scan", "ios": "https://dc.lft.to/lastmile_qr_scan"}, "is_disabled": 0, "fusion_lat": 0.0, "name": "3e08c24d08b5b8c635f60428cfc60107", "fusion_lon": 0.0}, {"is_reserved": 0, "type": "electric_scooter", "bike_id": "9a3834b35e2359ff0f8c203132f53d54", "lat": 38.92596116666667, "lon": -77.03938933333333, "rental_uris": {"android": "https://dc.lft.to/lastmile_qr_scan", "ios": "https://dc.lft.to/lastmile_qr_scan"}, "is_disabled": 0, "fusion_lat": 0.0, "name": "9a3834b35e2359ff0f8c203132f53d54", "fusion_lon": 0.0}, {"is_reserved": 0, "type": "electric_scooter", "bike_id": "79d7e82aa689ceac5950e07a979b0049", "lat": 38.924023, "lon": -77.0506395, "rental_uris": {"android": "https://dc.lft.to/lastmile_qr_scan", "ios": "https://dc.lft.to/lastmile_qr_scan"}, "is_disabled": 0, "fusion_lat": 0.0, "name": "79d7e82aa689ceac5950e07a979b0049", "fusion_lon": 0.0}, {"is_reserved": 0, "type": "electric_scooter", "bike_id": "8249a0ab7fb4636837b4edbdd7b15eea", "lat": 38.900825, "lon": -77.01617233333333, "rental_uris": {"android": "https://dc.lft.to/lastmile_qr_scan", "ios": "https://dc.lft.to/lastmile_qr_scan"}, "is_disabled": 0, "fusion_lat": 0.0, "name": "8249a0ab7fb4636837b4edbdd7b15eea", "fusion_lon": 0.0}, {"is_reserved": 0, "type": "electric_bike", "bike_id": "a0c4e7ede2b59557d96c0da88835ae1b", "lat": 38.90800683333333, "lon": -77.02382933333334, "rental_uris": {"android": "https://dc.lft.to/lastmile_qr_scan", "ios": "https://dc.lft.to/lastmile_qr_scan"}, "is_disabled": 0, "fusion_lat": 0.0, "name": "a0c4e7ede2b59557d96c0da88835ae1b", "fusion_lon": 0.0}, {"is_reserved": 0, "type": "electric_scooter", "bike_id": "f945a7904a87d313bc1626fc9cf604a6", "lat": 38.91316616666667, "lon": -77.01444466666666, "rental_uris": {"android": "https://dc.lft.to/lastmile_qr_scan", "ios": "https://dc.lft.to/lastmile_qr_scan"}, "is_disabled": 0, "fusion_lat": 0.0, "name": "f945a7904a87d313bc1626fc9cf604a6", "fusion_lon": 0.0}, {"is_reserved": 0, "type": "electric_scooter", "bike_id": "bc0471c791e121ea0fcdbdc80f8a7666", "lat": 38.8874195, "lon": -77.017386, "rental_uris": {"android": "https://dc.lft.to/lastmile_qr_scan", "ios": "https://dc.lft.to/lastmile_qr_scan"}, "is_disabled": 0, "fusion_lat": 0.0, "name": "bc0471c791e121ea0fcdbdc80f8a7666", "fusion_lon": 0.0}, {"is_reserved": 0, "type": "electric_scooter", "bike_id": "f13a38a4f818bf0f1c514ca77a34a1b2", "lat": 38.940039666666664, "lon": -77.02737466666666, "rental_uris": {"android": "https://dc.lft.to/lastmile_qr_scan", "ios": "https://dc.lft.to/lastmile_qr_scan"}, "is_disabled": 0, "fusion_lat": 0.0, "name": "f13a38a4f818bf0f1c514ca77a34a1b2", "fusion_lon": 0.0}, {"is_reserved": 0, "type": "electric_scooter", "bike_id": "43d68e17d039c3457f51e16fbdfd7616", "lat": 38.93779716666667, "lon": -77.07451583333334, "rental_uris": {"android": "https://dc.lft.to/lastmile_qr_scan", "ios": "https://dc.lft.to/lastmile_qr_scan"}, "is_disabled": 0, "fusion_lat": 0.0, "name": "43d68e17d039c3457f51e16fbdfd7616", "fusion_lon": 0.0}, {"is_reserved": 0, "type": "electric_scooter", "bike_id": "2602f70f1fac97abad66bfbfe26dddfd", "lat": 38.905592666666664, "lon": -76.99778083333334, "rental_uris": {"android": "https://dc.lft.to/lastmile_qr_scan", "ios": "https://dc.lft.to/lastmile_qr_scan"}, "is_disabled": 0, "fusion_lat": 0.0, "name": "2602f70f1fac97abad66bfbfe26dddfd", "fusion_lon": 0.0}, {"is_reserved": 0, "type": "electric_scooter", "bike_id": "649241e415a9de9972e747e15d15a4e4", "lat": 38.91238533333333, "lon": -77.03851166666666, "rental_uris": {"android": "https://dc.lft.to/lastmile_qr_scan", "ios": "https://dc.lft.to/lastmile_qr_scan"}, "is_disabled": 0, "fusion_lat": 0.0, "name": "649241e415a9de9972e747e15d15a4e4", "fusion_lon": 0.0}, {"is_reserved": 0, "type": "electric_scooter", "bike_id": "d86ef2ace4781288edafd5d0ca2a48c8", "lat": 38.949753333333334, "lon": -77.02451383333333, "rental_uris": {"android": "https://dc.lft.to/lastmile_qr_scan", "ios": "https://dc.lft.to/lastmile_qr_scan"}, "is_disabled": 0, "fusion_lat": 0.0, "name": "d86ef2ace4781288edafd5d0ca2a48c8", "fusion_lon": 0.0}, {"is_reserved": 0, "type": "electric_scooter", "bike_id": "5f805847008ad58a0cc6f2e17626dac8", "lat": 38.9110155, "lon": -77.00350366666666, "rental_uris": {"android": "https://dc.lft.to/lastmile_qr_scan", "ios": "https://dc.lft.to/lastmile_qr_scan"}, "is_disabled": 0, "fusion_lat": 0.0, "name": "5f805847008ad58a0cc6f2e17626dac8", "fusion_lon": 0.0}, {"is_reserved": 0, "type": "electric_bike", "bike_id": "c4a4692d75521d2959cef686bc2439c9", "lat": 38.955941833333334, "lon": -76.9953185, "rental_uris": {"android": "https://dc.lft.to/lastmile_qr_scan", "ios": "https://dc.lft.to/lastmile_qr_scan"}, "is_disabled": 0, "fusion_lat": 0.0, "name": "c4a4692d75521d2959cef686bc2439c9", "fusion_lon": 0.0}, {"is_reserved": 0, "type": "electric_scooter", "bike_id": "334caeecb9b41dce1ede85e168ca66d5", "lat": 38.928773166666666, "lon": -77.03441833333333, "rental_uris": {"android": "https://dc.lft.to/lastmile_qr_scan", "ios": "https://dc.lft.to/lastmile_qr_scan"}, "is_disabled": 0, "fusion_lat": 0.0, "name": "334caeecb9b41dce1ede85e168ca66d5", "fusion_lon": 0.0}, {"is_reserved": 0, "type": "electric_scooter", "bike_id": "919bad61b143d07b8f8806860d7715db", "lat": 38.89950133333333, "lon": -77.05390983333334, "rental_uris": {"android": "https://dc.lft.to/lastmile_qr_scan", "ios": "https://dc.lft.to/lastmile_qr_scan"}, "is_disabled": 0, "fusion_lat": 0.0, "name": "919bad61b143d07b8f8806860d7715db", "fusion_lon": 0.0}, {"is_reserved": 0, "type": "electric_scooter", "bike_id": "791bfeac4ae71c5b273583159928a807", "lat": 38.924469333333334, "lon": -77.02032716666666, "rental_uris": {"android": "https://dc.lft.to/lastmile_qr_scan", "ios": "https://dc.lft.to/lastmile_qr_scan"}, "is_disabled": 0, "fusion_lat": 0.0, "name": "791bfeac4ae71c5b273583159928a807", "fusion_lon": 0.0}, {"is_reserved": 0, "type": "electric_bike", "bike_id": "cdef4da80f1d921bfb67f230dc384616", "lat": 38.920350666666664, "lon": -76.97955216666666, "rental_uris": {"android": "https://dc.lft.to/lastmile_qr_scan", "ios": "https://dc.lft.to/lastmile_qr_scan"}, "is_disabled": 0, "fusion_lat": 0.0, "name": "cdef4da80f1d921bfb67f230dc384616", "fusion_lon": 0.0}, {"is_reserved": 0, "type": "electric_scooter", "bike_id": "a066b18e1744c49ca89f5f8acfc058fc", "lat": 38.891969, "lon": -77.022303, "rental_uris": {"android": "https://dc.lft.to/lastmile_qr_scan", "ios": "https://dc.lft.to/lastmile_qr_scan"}, "is_disabled": 0, "fusion_lat": 0.0, "name": "a066b18e1744c49ca89f5f8acfc058fc", "fusion_lon": 0.0}, {"is_reserved": 0, "type": "electric_scooter", "bike_id": "67e800b549de5b26fa2fa8f0da4b0548", "lat": 38.91764933333333, "lon": -77.00451783333334, "rental_uris": {"android": "https://dc.lft.to/lastmile_qr_scan", "ios": "https://dc.lft.to/lastmile_qr_scan"}, "is_disabled": 0, "fusion_lat": 0.0, "name": "67e800b549de5b26fa2fa8f0da4b0548", "fusion_lon": 0.0}, {"is_reserved": 0, "type": "electric_scooter", "bike_id": "01f9ed0749ce1f4ec20477a4f127eb06", "lat": 38.8827645, "lon": -77.02388166666667, "rental_uris": {"android": "https://dc.lft.to/lastmile_qr_scan", "ios": "https://dc.lft.to/lastmile_qr_scan"}, "is_disabled": 0, "fusion_lat": 0.0, "name": "01f9ed0749ce1f4ec20477a4f127eb06", "fusion_lon": 0.0}, {"is_reserved": 0, "type": "electric_bike", "bike_id": "f95c941e024515e082a53b7f82271f59", "lat": 38.92063866666667, "lon": -76.99577, "rental_uris": {"android": "https://dc.lft.to/lastmile_qr_scan", "ios": "https://dc.lft.to/lastmile_qr_scan"}, "is_disabled": 0, "fusion_lat": 0.0, "name": "f95c941e024515e082a53b7f82271f59", "fusion_lon": 0.0}, {"is_reserved": 0, "type": "electric_scooter", "bike_id": "fbfa725c2dbdac57f325935113280896", "lat": 38.926845166666666, "lon": -77.0323315, "rental_uris": {"android": "https://dc.lft.to/lastmile_qr_scan", "ios": "https://dc.lft.to/lastmile_qr_scan"}, "is_disabled": 0, "fusion_lat": 0.0, "name": "fbfa725c2dbdac57f325935113280896", "fusion_lon": 0.0}, {"is_reserved": 0, "type": "electric_scooter", "bike_id": "ba35d21adc15ec1231db29459c57ba2b", "lat": 38.8921515, "lon": -77.04361183333333, "rental_uris": {"android": "https://dc.lft.to/lastmile_qr_scan", "ios": "https://dc.lft.to/lastmile_qr_scan"}, "is_disabled": 0, "fusion_lat": 0.0, "name": "ba35d21adc15ec1231db29459c57ba2b", "fusion_lon": 0.0}, {"is_reserved": 0, "type": "electric_bike", "bike_id": "d419a321bac3992dd563176f5cbcbf50", "lat": 38.91705666666667, "lon": -77.057194, "rental_uris": {"android": "https://dc.lft.to/lastmile_qr_scan", "ios": "https://dc.lft.to/lastmile_qr_scan"}, "is_disabled": 0, "fusion_lat": 0.0, "name": "d419a321bac3992dd563176f5cbcbf50", "fusion_lon": 0.0}, {"is_reserved": 0, "type": "electric_scooter", "bike_id": "f838a145d797b1e06845a490ea5dc59e", "lat": 38.89682083333334, "lon": -77.04334033333333, "rental_uris": {"android": "https://dc.lft.to/lastmile_qr_scan", "ios": "https://dc.lft.to/lastmile_qr_scan"}, "is_disabled": 0, "fusion_lat": 0.0, "name": "f838a145d797b1e06845a490ea5dc59e", "fusion_lon": 0.0}, {"is_reserved": 0, "type": "electric_scooter", "bike_id": "91c776d003c695ab8bd05ced6d1c89ce", "lat": 38.903169166666665, "lon": -77.01078566666666, "rental_uris": {"android": "https://dc.lft.to/lastmile_qr_scan", "ios": "https://dc.lft.to/lastmile_qr_scan"}, "is_disabled": 0, "fusion_lat": 0.0, "name": "91c776d003c695ab8bd05ced6d1c89ce", "fusion_lon": 0.0}, {"is_reserved": 0, "type": "electric_scooter", "bike_id": "2b514e8dcc9fc92a2a71268712b74b61", "lat": 38.919189833333334, "lon": -77.0098125, "rental_uris": {"android": "https://dc.lft.to/lastmile_qr_scan", "ios": "https://dc.lft.to/lastmile_qr_scan"}, "is_disabled": 0, "fusion_lat": 0.0, "name": "2b514e8dcc9fc92a2a71268712b74b61", "fusion_lon": 0.0}, {"is_reserved": 0, "type": "electric_scooter", "bike_id": "f49e060e2f74838bcf817e6df0caa8d7", "lat": 38.8959465, "lon": -76.92986, "rental_uris": {"android": "https://dc.lft.to/lastmile_qr_scan", "ios": "https://dc.lft.to/lastmile_qr_scan"}, "is_disabled": 0, "fusion_lat": 0.0, "name": "f49e060e2f74838bcf817e6df0caa8d7", "fusion_lon": 0.0}, {"is_reserved": 0, "type": "electric_scooter", "bike_id": "674f25a088afe9562461cb344f47c14a", "lat": 38.91824916666667, "lon": -77.04524033333334, "rental_uris": {"android": "https://dc.lft.to/lastmile_qr_scan", "ios": "https://dc.lft.to/lastmile_qr_scan"}, "is_disabled": 0, "fusion_lat": 0.0, "name": "674f25a088afe9562461cb344f47c14a", "fusion_lon": 0.0}, {"is_reserved": 0, "type": "electric_scooter", "bike_id": "dcbeaabecf2042f722571722dee78c81", "lat": 38.9053595, "lon": -76.98826633333333, "rental_uris": {"android": "https://dc.lft.to/lastmile_qr_scan", "ios": "https://dc.lft.to/lastmile_qr_scan"}, "is_disabled": 0, "fusion_lat": 0.0, "name": "dcbeaabecf2042f722571722dee78c81", "fusion_lon": 0.0}, {"is_reserved": 0, "type": "electric_bike", "bike_id": "322d0ffd06fc3375b292910128ea80fe", "lat": 38.91662916666667, "lon": -77.04696483333333, "rental_uris": {"android": "https://dc.lft.to/lastmile_qr_scan", "ios": "https://dc.lft.to/lastmile_qr_scan"}, "is_disabled": 0, "fusion_lat": 0.0, "name": "322d0ffd06fc3375b292910128ea80fe", "fusion_lon": 0.0}, {"is_reserved": 0, "type": "electric_scooter", "bike_id": "40eb06f7f15d0dc4fd426721c9928405", "lat": 38.902614166666666, "lon": -77.01743466666667, "rental_uris": {"android": "https://dc.lft.to/lastmile_qr_scan", "ios": "https://dc.lft.to/lastmile_qr_scan"}, "is_disabled": 0, "fusion_lat": 0.0, "name": "40eb06f7f15d0dc4fd426721c9928405", "fusion_lon": 0.0}, {"is_reserved": 0, "type": "electric_bike", "bike_id": "85c7a6b9fe839e6d0c29396a72152f93", "lat": 38.909783, "lon": -76.98518733333333, "rental_uris": {"android": "https://dc.lft.to/lastmile_qr_scan", "ios": "https://dc.lft.to/lastmile_qr_scan"}, "is_disabled": 0, "fusion_lat": 0.0, "name": "85c7a6b9fe839e6d0c29396a72152f93", "fusion_lon": 0.0}, {"is_reserved": 0, "type": "electric_scooter", "bike_id": "22687fc963a1edc0f8a7fc92a323a5f4", "lat": 38.899651, "lon": -77.0262715, "rental_uris": {"android": "https://dc.lft.to/lastmile_qr_scan", "ios": "https://dc.lft.to/lastmile_qr_scan"}, "is_disabled": 0, "fusion_lat": 0.0, "name": "22687fc963a1edc0f8a7fc92a323a5f4", "fusion_lon": 0.0}, {"is_reserved": 0, "type": "electric_scooter", "bike_id": "c3197d255cd252bead50c4fa5d249e21", "lat": 38.9141595, "lon": -77.01873833333333, "rental_uris": {"android": "https://dc.lft.to/lastmile_qr_scan", "ios": "https://dc.lft.to/lastmile_qr_scan"}, "is_disabled": 0, "fusion_lat": 0.0, "name": "c3197d255cd252bead50c4fa5d249e21", "fusion_lon": 0.0}, {"is_reserved": 0, "type": "electric_scooter", "bike_id": "22f073316b1518efdbdde52290f26caf", "lat": 38.915011, "lon": -77.003488, "rental_uris": {"android": "https://dc.lft.to/lastmile_qr_scan", "ios": "https://dc.lft.to/lastmile_qr_scan"}, "is_disabled": 0, "fusion_lat": 0.0, "name": "22f073316b1518efdbdde52290f26caf", "fusion_lon": 0.0}, {"is_reserved": 0, "type": "electric_scooter", "bike_id": "5d49f90d9666888cf68cf337602b03a1", "lat": 38.9207855, "lon": -77.02219283333334, "rental_uris": {"android": "https://dc.lft.to/lastmile_qr_scan", "ios": "https://dc.lft.to/lastmile_qr_scan"}, "is_disabled": 0, "fusion_lat": 0.0, "name": "5d49f90d9666888cf68cf337602b03a1", "fusion_lon": 0.0}, {"is_reserved": 0, "type": "electric_scooter", "bike_id": "376258beb95cab8fad6bc79bbfdfdd6a", "lat": 38.92481166666666, "lon": -77.0319475, "rental_uris": {"android": "https://dc.lft.to/lastmile_qr_scan", "ios": "https://dc.lft.to/lastmile_qr_scan"}, "is_disabled": 0, "fusion_lat": 0.0, "name": "376258beb95cab8fad6bc79bbfdfdd6a", "fusion_lon": 0.0}, {"is_reserved": 0, "type": "electric_scooter", "bike_id": "eb0e76c060e18c42321f396524083a06", "lat": 38.880017, "lon": -77.00544416666666, "rental_uris": {"android": "https://dc.lft.to/lastmile_qr_scan", "ios": "https://dc.lft.to/lastmile_qr_scan"}, "is_disabled": 0, "fusion_lat": 0.0, "name": "eb0e76c060e18c42321f396524083a06", "fusion_lon": 0.0}, {"is_reserved": 0, "type": "electric_scooter", "bike_id": "f6fa5c7ed85c1b1bd9a519c70c4b41dc", "lat": 38.91707816666667, "lon": -77.0385625, "rental_uris": {"android": "https://dc.lft.to/lastmile_qr_scan", "ios": "https://dc.lft.to/lastmile_qr_scan"}, "is_disabled": 0, "fusion_lat": 0.0, "name": "f6fa5c7ed85c1b1bd9a519c70c4b41dc", "fusion_lon": 0.0}, {"is_reserved": 0, "type": "electric_scooter", "bike_id": "2946243248e88c91314750640535cdf8", "lat": 38.899652833333334, "lon": -76.9903035, "rental_uris": {"android": "https://dc.lft.to/lastmile_qr_scan", "ios": "https://dc.lft.to/lastmile_qr_scan"}, "is_disabled": 0, "fusion_lat": 0.0, "name": "2946243248e88c91314750640535cdf8", "fusion_lon": 0.0}, {"is_reserved": 0, "type": "electric_scooter", "bike_id": "391fcdd9a43cd6c52d616f82c443cfd4", "lat": 38.901013666666664, "lon": -77.03165166666666, "rental_uris": {"android": "https://dc.lft.to/lastmile_qr_scan", "ios": "https://dc.lft.to/lastmile_qr_scan"}, "is_disabled": 0, "fusion_lat": 0.0, "name": "391fcdd9a43cd6c52d616f82c443cfd4", "fusion_lon": 0.0}, {"is_reserved": 0, "type": "electric_scooter", "bike_id": "84832f5db73a3023179b736c656ab95d", "lat": 38.90132083333334, "lon": -77.0509365, "rental_uris": {"android": "https://dc.lft.to/lastmile_qr_scan", "ios": "https://dc.lft.to/lastmile_qr_scan"}, "is_disabled": 0, "fusion_lat": 0.0, "name": "84832f5db73a3023179b736c656ab95d", "fusion_lon": 0.0}, {"is_reserved": 0, "type": "electric_scooter", "bike_id": "bc3943881b60b30911f85791ae288e58", "lat": 38.92482033333334, "lon": -77.022746, "rental_uris": {"android": "https://dc.lft.to/lastmile_qr_scan", "ios": "https://dc.lft.to/lastmile_qr_scan"}, "is_disabled": 0, "fusion_lat": 0.0, "name": "bc3943881b60b30911f85791ae288e58", "fusion_lon": 0.0}, {"is_reserved": 0, "type": "electric_bike", "bike_id": "c1b76dd4810055f9f09e0b0943b22797", "lat": 38.845314, "lon": -77.07637083333333, "rental_uris": {"android": "https://dc.lft.to/lastmile_qr_scan", "ios": "https://dc.lft.to/lastmile_qr_scan"}, "is_disabled": 0, "fusion_lat": 0.0, "name": "c1b76dd4810055f9f09e0b0943b22797", "fusion_lon": 0.0}, {"is_reserved": 0, "type": "electric_bike", "bike_id": "ea85143d0f00598e6b988faf9ce65103", "lat": 38.949462833333335, "lon": -77.01617616666667, "rental_uris": {"android": "https://dc.lft.to/lastmile_qr_scan", "ios": "https://dc.lft.to/lastmile_qr_scan"}, "is_disabled": 0, "fusion_lat": 0.0, "name": "ea85143d0f00598e6b988faf9ce65103", "fusion_lon": 0.0}, {"is_reserved": 0, "type": "electric_scooter", "bike_id": "0f49e3c39f225ab2f57d491660fdbae0", "lat": 38.92410983333333, "lon": -77.03537233333333, "rental_uris": {"android": "https://dc.lft.to/lastmile_qr_scan", "ios": "https://dc.lft.to/lastmile_qr_scan"}, "is_disabled": 0, "fusion_lat": 0.0, "name": "0f49e3c39f225ab2f57d491660fdbae0", "fusion_lon": 0.0}, {"is_reserved": 0, "type": "electric_scooter", "bike_id": "63cb7ea17fd6af6dc6264b231d004bb4", "lat": 38.92178533333333, "lon": -77.01038333333334, "rental_uris": {"android": "https://dc.lft.to/lastmile_qr_scan", "ios": "https://dc.lft.to/lastmile_qr_scan"}, "is_disabled": 0, "fusion_lat": 0.0, "name": "63cb7ea17fd6af6dc6264b231d004bb4", "fusion_lon": 0.0}, {"is_reserved": 0, "type": "electric_scooter", "bike_id": "d8a1c43904ce6a4e4298c2c78754a717", "lat": 38.9177755, "lon": -77.0297145, "rental_uris": {"android": "https://dc.lft.to/lastmile_qr_scan", "ios": "https://dc.lft.to/lastmile_qr_scan"}, "is_disabled": 0, "fusion_lat": 0.0, "name": "d8a1c43904ce6a4e4298c2c78754a717", "fusion_lon": 0.0}, {"is_reserved": 0, "type": "electric_scooter", "bike_id": "147ed2d44bfe486fecc2cbae5a973be3", "lat": 38.87682483333333, "lon": -76.99624716666666, "rental_uris": {"android": "https://dc.lft.to/lastmile_qr_scan", "ios": "https://dc.lft.to/lastmile_qr_scan"}, "is_disabled": 0, "fusion_lat": 0.0, "name": "147ed2d44bfe486fecc2cbae5a973be3", "fusion_lon": 0.0}, {"is_reserved": 0, "type": "electric_scooter", "bike_id": "b1e67293e6d61ec9a86ae3553c8686bb", "lat": 38.90546916666667, "lon": -77.04569466666666, "rental_uris": {"android": "https://dc.lft.to/lastmile_qr_scan", "ios": "https://dc.lft.to/lastmile_qr_scan"}, "is_disabled": 0, "fusion_lat": 0.0, "name": "b1e67293e6d61ec9a86ae3553c8686bb", "fusion_lon": 0.0}, {"is_reserved": 0, "type": "electric_scooter", "bike_id": "1d375892ad36166c41e707bcce8cf1d9", "lat": 38.920980166666666, "lon": -77.04690283333333, "rental_uris": {"android": "https://dc.lft.to/lastmile_qr_scan", "ios": "https://dc.lft.to/lastmile_qr_scan"}, "is_disabled": 0, "fusion_lat": 0.0, "name": "1d375892ad36166c41e707bcce8cf1d9", "fusion_lon": 0.0}, {"is_reserved": 0, "type": "electric_scooter", "bike_id": "9f9b1a17a80ae402b273db2146f78ea4", "lat": 38.901532333333336, "lon": -77.0318905, "rental_uris": {"android": "https://dc.lft.to/lastmile_qr_scan", "ios": "https://dc.lft.to/lastmile_qr_scan"}, "is_disabled": 0, "fusion_lat": 0.0, "name": "9f9b1a17a80ae402b273db2146f78ea4", "fusion_lon": 0.0}, {"is_reserved": 0, "type": "electric_bike", "bike_id": "d51f5251044e360c7afefef7da509194", "lat": 38.839301166666665, "lon": -77.079014, "rental_uris": {"android": "https://dc.lft.to/lastmile_qr_scan", "ios": "https://dc.lft.to/lastmile_qr_scan"}, "is_disabled": 0, "fusion_lat": 0.0, "name": "d51f5251044e360c7afefef7da509194", "fusion_lon": 0.0}, {"is_reserved": 0, "type": "electric_scooter", "bike_id": "49d17e3b1abc29d5d5774c5ed99aea5b", "lat": 38.9338525, "lon": -77.02390483333333, "rental_uris": {"android": "https://dc.lft.to/lastmile_qr_scan", "ios": "https://dc.lft.to/lastmile_qr_scan"}, "is_disabled": 0, "fusion_lat": 0.0, "name": "49d17e3b1abc29d5d5774c5ed99aea5b", "fusion_lon": 0.0}, {"is_reserved": 0, "type": "electric_scooter", "bike_id": "a5b7f0e99aedb677be312a3972d43cfb", "lat": 38.905423, "lon": -77.05696616666667, "rental_uris": {"android": "https://dc.lft.to/lastmile_qr_scan", "ios": "https://dc.lft.to/lastmile_qr_scan"}, "is_disabled": 0, "fusion_lat": 0.0, "name": "a5b7f0e99aedb677be312a3972d43cfb", "fusion_lon": 0.0}, {"is_reserved": 0, "type": "electric_scooter", "bike_id": "ced6b02bc7b88b49339271442fdf0d9d", "lat": 38.8990075, "lon": -77.03968516666667, "rental_uris": {"android": "https://dc.lft.to/lastmile_qr_scan", "ios": "https://dc.lft.to/lastmile_qr_scan"}, "is_disabled": 0, "fusion_lat": 0.0, "name": "ced6b02bc7b88b49339271442fdf0d9d", "fusion_lon": 0.0}, {"is_reserved": 0, "type": "electric_scooter", "bike_id": "da4ab0f803c967494e4e038204e3de85", "lat": 38.924844, "lon": -77.03180966666666, "rental_uris": {"android": "https://dc.lft.to/lastmile_qr_scan", "ios": "https://dc.lft.to/lastmile_qr_scan"}, "is_disabled": 0, "fusion_lat": 0.0, "name": "da4ab0f803c967494e4e038204e3de85", "fusion_lon": 0.0}, {"is_reserved": 0, "type": "electric_scooter", "bike_id": "534368dc74c4f334a9c03c44835f995d", "lat": 38.904821166666665, "lon": -77.06860483333334, "rental_uris": {"android": "https://dc.lft.to/lastmile_qr_scan", "ios": "https://dc.lft.to/lastmile_qr_scan"}, "is_disabled": 0, "fusion_lat": 0.0, "name": "534368dc74c4f334a9c03c44835f995d", "fusion_lon": 0.0}, {"is_reserved": 0, "type": "electric_scooter", "bike_id": "4028654a43c1791f4573613e83ed3770", "lat": 38.937536333333334, "lon": -77.0293015, "rental_uris": {"android": "https://dc.lft.to/lastmile_qr_scan", "ios": "https://dc.lft.to/lastmile_qr_scan"}, "is_disabled": 0, "fusion_lat": 0.0, "name": "4028654a43c1791f4573613e83ed3770", "fusion_lon": 0.0}, {"is_reserved": 0, "type": "electric_scooter", "bike_id": "e69927df0937be919476b13f00f2b24f", "lat": 38.91806066666667, "lon": -77.040319, "rental_uris": {"android": "https://dc.lft.to/lastmile_qr_scan", "ios": "https://dc.lft.to/lastmile_qr_scan"}, "is_disabled": 0, "fusion_lat": 0.0, "name": "e69927df0937be919476b13f00f2b24f", "fusion_lon": 0.0}, {"is_reserved": 0, "type": "electric_scooter", "bike_id": "526e7f2a95f9b121c17199d199255a07", "lat": 38.8924715, "lon": -77.039573, "rental_uris": {"android": "https://dc.lft.to/lastmile_qr_scan", "ios": "https://dc.lft.to/lastmile_qr_scan"}, "is_disabled": 0, "fusion_lat": 0.0, "name": "526e7f2a95f9b121c17199d199255a07", "fusion_lon": 0.0}, {"is_reserved": 0, "type": "electric_bike", "bike_id": "f264fd3210214b638e747c96afa8a674", "lat": 38.88785333333333, "lon": -76.923466, "rental_uris": {"android": "https://dc.lft.to/lastmile_qr_scan", "ios": "https://dc.lft.to/lastmile_qr_scan"}, "is_disabled": 0, "fusion_lat": 0.0, "name": "f264fd3210214b638e747c96afa8a674", "fusion_lon": 0.0}, {"is_reserved": 0, "type": "electric_scooter", "bike_id": "98903e543b20f58edc1e7f4ff77e738b", "lat": 38.92434, "lon": -77.02117916666667, "rental_uris": {"android": "https://dc.lft.to/lastmile_qr_scan", "ios": "https://dc.lft.to/lastmile_qr_scan"}, "is_disabled": 0, "fusion_lat": 0.0, "name": "98903e543b20f58edc1e7f4ff77e738b", "fusion_lon": 0.0}, {"is_reserved": 0, "type": "electric_scooter", "bike_id": "6505ec7b916afe3803a0ca3a2066b598", "lat": 38.91621, "lon": -77.00199583333334, "rental_uris": {"android": "https://dc.lft.to/lastmile_qr_scan", "ios": "https://dc.lft.to/lastmile_qr_scan"}, "is_disabled": 0, "fusion_lat": 0.0, "name": "6505ec7b916afe3803a0ca3a2066b598", "fusion_lon": 0.0}, {"is_reserved": 0, "type": "electric_scooter", "bike_id": "6f463d398165fe0e946a40ddd7a1a589", "lat": 38.89901416666667, "lon": -77.03968633333334, "rental_uris": {"android": "https://dc.lft.to/lastmile_qr_scan", "ios": "https://dc.lft.to/lastmile_qr_scan"}, "is_disabled": 0, "fusion_lat": 0.0, "name": "6f463d398165fe0e946a40ddd7a1a589", "fusion_lon": 0.0}, {"is_reserved": 0, "type": "electric_scooter", "bike_id": "a93628546ffcc3c41daf16c748b194f6", "lat": 38.91490816666666, "lon": -77.012191, "rental_uris": {"android": "https://dc.lft.to/lastmile_qr_scan", "ios": "https://dc.lft.to/lastmile_qr_scan"}, "is_disabled": 0, "fusion_lat": 0.0, "name": "a93628546ffcc3c41daf16c748b194f6", "fusion_lon": 0.0}, {"is_reserved": 0, "type": "electric_scooter", "bike_id": "c198d333e58a8b81d3e43c8e846b3c00", "lat": 38.89910883333334, "lon": -77.00364533333334, "rental_uris": {"android": "https://dc.lft.to/lastmile_qr_scan", "ios": "https://dc.lft.to/lastmile_qr_scan"}, "is_disabled": 0, "fusion_lat": 0.0, "name": "c198d333e58a8b81d3e43c8e846b3c00", "fusion_lon": 0.0}, {"is_reserved": 0, "type": "electric_scooter", "bike_id": "85bcfeeed6c76badb9da979108ff45bb", "lat": 38.92035166666667, "lon": -77.0418255, "rental_uris": {"android": "https://dc.lft.to/lastmile_qr_scan", "ios": "https://dc.lft.to/lastmile_qr_scan"}, "is_disabled": 0, "fusion_lat": 0.0, "name": "85bcfeeed6c76badb9da979108ff45bb", "fusion_lon": 0.0}, {"is_reserved": 0, "type": "electric_scooter", "bike_id": "0f2f8375c770b291c20eefb546554c74", "lat": 38.9262505, "lon": -77.07713, "rental_uris": {"android": "https://dc.lft.to/lastmile_qr_scan", "ios": "https://dc.lft.to/lastmile_qr_scan"}, "is_disabled": 0, "fusion_lat": 0.0, "name": "0f2f8375c770b291c20eefb546554c74", "fusion_lon": 0.0}, {"is_reserved": 0, "type": "electric_scooter", "bike_id": "653d1380167422384cb0ed2883a74e19", "lat": 38.923548333333336, "lon": -76.990861, "rental_uris": {"android": "https://dc.lft.to/lastmile_qr_scan", "ios": "https://dc.lft.to/lastmile_qr_scan"}, "is_disabled": 0, "fusion_lat": 0.0, "name": "653d1380167422384cb0ed2883a74e19", "fusion_lon": 0.0}, {"is_reserved": 0, "type": "electric_scooter", "bike_id": "15e28cca6e18a77a80a3b0ce5cda54d7", "lat": 38.91322, "lon": -77.0480065, "rental_uris": {"android": "https://dc.lft.to/lastmile_qr_scan", "ios": "https://dc.lft.to/lastmile_qr_scan"}, "is_disabled": 0, "fusion_lat": 0.0, "name": "15e28cca6e18a77a80a3b0ce5cda54d7", "fusion_lon": 0.0}, {"is_reserved": 0, "type": "electric_scooter", "bike_id": "7491c4d079951b1759023224504dfd9c", "lat": 38.902341166666666, "lon": -77.05334683333334, "rental_uris": {"android": "https://dc.lft.to/lastmile_qr_scan", "ios": "https://dc.lft.to/lastmile_qr_scan"}, "is_disabled": 0, "fusion_lat": 0.0, "name": "7491c4d079951b1759023224504dfd9c", "fusion_lon": 0.0}, {"is_reserved": 0, "type": "electric_scooter", "bike_id": "84100a9c9ea609540fc8ef7e07b390d9", "lat": 38.90496233333333, "lon": -77.0638355, "rental_uris": {"android": "https://dc.lft.to/lastmile_qr_scan", "ios": "https://dc.lft.to/lastmile_qr_scan"}, "is_disabled": 0, "fusion_lat": 0.0, "name": "84100a9c9ea609540fc8ef7e07b390d9", "fusion_lon": 0.0}, {"is_reserved": 0, "type": "electric_scooter", "bike_id": "3f25e4441cc13c2c27e01ec2c71d3834", "lat": 38.92583716666667, "lon": -77.01219583333334, "rental_uris": {"android": "https://dc.lft.to/lastmile_qr_scan", "ios": "https://dc.lft.to/lastmile_qr_scan"}, "is_disabled": 0, "fusion_lat": 0.0, "name": "3f25e4441cc13c2c27e01ec2c71d3834", "fusion_lon": 0.0}, {"is_reserved": 0, "type": "electric_scooter", "bike_id": "4b2ea65de948cfa6610aa6cbcafc9e35", "lat": 38.898948833333336, "lon": -77.03190533333333, "rental_uris": {"android": "https://dc.lft.to/lastmile_qr_scan", "ios": "https://dc.lft.to/lastmile_qr_scan"}, "is_disabled": 0, "fusion_lat": 0.0, "name": "4b2ea65de948cfa6610aa6cbcafc9e35", "fusion_lon": 0.0}, {"is_reserved": 0, "type": "electric_bike", "bike_id": "15bd0819c170cea28cd56be8cd03e781", "lat": 38.840498333333336, "lon": -77.05596933333334, "rental_uris": {"android": "https://dc.lft.to/lastmile_qr_scan", "ios": "https://dc.lft.to/lastmile_qr_scan"}, "is_disabled": 0, "fusion_lat": 0.0, "name": "15bd0819c170cea28cd56be8cd03e781", "fusion_lon": 0.0}, {"is_reserved": 0, "type": "electric_scooter", "bike_id": "cbb5ed9e19365520b59ff6f3256a86f9", "lat": 38.923621833333335, "lon": -77.0365455, "rental_uris": {"android": "https://dc.lft.to/lastmile_qr_scan", "ios": "https://dc.lft.to/lastmile_qr_scan"}, "is_disabled": 0, "fusion_lat": 0.0, "name": "cbb5ed9e19365520b59ff6f3256a86f9", "fusion_lon": 0.0}, {"is_reserved": 0, "type": "electric_scooter", "bike_id": "78d78257064330f97efc88c717519de0", "lat": 38.92150316666667, "lon": -77.0350665, "rental_uris": {"android": "https://dc.lft.to/lastmile_qr_scan", "ios": "https://dc.lft.to/lastmile_qr_scan"}, "is_disabled": 0, "fusion_lat": 0.0, "name": "78d78257064330f97efc88c717519de0", "fusion_lon": 0.0}, {"is_reserved": 0, "type": "electric_scooter", "bike_id": "f82bfeaff89d69448dcebe2a2033fe98", "lat": 38.90566916666667, "lon": -77.0058415, "rental_uris": {"android": "https://dc.lft.to/lastmile_qr_scan", "ios": "https://dc.lft.to/lastmile_qr_scan"}, "is_disabled": 0, "fusion_lat": 0.0, "name": "f82bfeaff89d69448dcebe2a2033fe98", "fusion_lon": 0.0}, {"is_reserved": 0, "type": "electric_scooter", "bike_id": "b23542cec1912ecce4f5cb45f645c14a", "lat": 38.935686, "lon": -77.03257933333333, "rental_uris": {"android": "https://dc.lft.to/lastmile_qr_scan", "ios": "https://dc.lft.to/lastmile_qr_scan"}, "is_disabled": 0, "fusion_lat": 0.0, "name": "b23542cec1912ecce4f5cb45f645c14a", "fusion_lon": 0.0}, {"is_reserved": 0, "type": "electric_bike", "bike_id": "6bac7bbf1bc52019aa55285ec12be566", "lat": 38.9453305, "lon": -77.34455383333334, "rental_uris": {"android": "https://dc.lft.to/lastmile_qr_scan", "ios": "https://dc.lft.to/lastmile_qr_scan"}, "is_disabled": 0, "fusion_lat": 0.0, "name": "6bac7bbf1bc52019aa55285ec12be566", "fusion_lon": 0.0}, {"is_reserved": 0, "type": "electric_bike", "bike_id": "2ec58ade3c068ca96e68c548d62549af", "lat": 39.084306833333336, "lon": -76.95147333333334, "rental_uris": {"android": "https://dc.lft.to/lastmile_qr_scan", "ios": "https://dc.lft.to/lastmile_qr_scan"}, "is_disabled": 0, "fusion_lat": 0.0, "name": "2ec58ade3c068ca96e68c548d62549af", "fusion_lon": 0.0}, {"is_reserved": 0, "type": "electric_scooter", "bike_id": "6a5220431cebd19ad22a896feb963c5b", "lat": 38.907948166666664, "lon": -77.0448855, "rental_uris": {"android": "https://dc.lft.to/lastmile_qr_scan", "ios": "https://dc.lft.to/lastmile_qr_scan"}, "is_disabled": 0, "fusion_lat": 0.0, "name": "6a5220431cebd19ad22a896feb963c5b", "fusion_lon": 0.0}, {"is_reserved": 0, "type": "electric_scooter", "bike_id": "d35cb1c2381c563e2c9ffadefa4521ca", "lat": 38.90845516666667, "lon": -77.04740733333334, "rental_uris": {"android": "https://dc.lft.to/lastmile_qr_scan", "ios": "https://dc.lft.to/lastmile_qr_scan"}, "is_disabled": 0, "fusion_lat": 0.0, "name": "d35cb1c2381c563e2c9ffadefa4521ca", "fusion_lon": 0.0}, {"is_reserved": 0, "type": "electric_scooter", "bike_id": "5824f33ee6fa06600019dc9ab293f277", "lat": 38.934537, "lon": -77.02094016666666, "rental_uris": {"android": "https://dc.lft.to/lastmile_qr_scan", "ios": "https://dc.lft.to/lastmile_qr_scan"}, "is_disabled": 0, "fusion_lat": 0.0, "name": "5824f33ee6fa06600019dc9ab293f277", "fusion_lon": 0.0}, {"is_reserved": 0, "type": "electric_bike", "bike_id": "20c6ecd79956ea1a39cf3818cad0cbb3", "lat": 38.819393166666664, "lon": -77.00203166666667, "rental_uris": {"android": "https://dc.lft.to/lastmile_qr_scan", "ios": "https://dc.lft.to/lastmile_qr_scan"}, "is_disabled": 0, "fusion_lat": 0.0, "name": "20c6ecd79956ea1a39cf3818cad0cbb3", "fusion_lon": 0.0}, {"is_reserved": 0, "type": "electric_scooter", "bike_id": "8a932d5ad4a6aa3808e087a9c09fdefd", "lat": 38.88988033333333, "lon": -76.99296633333333, "rental_uris": {"android": "https://dc.lft.to/lastmile_qr_scan", "ios": "https://dc.lft.to/lastmile_qr_scan"}, "is_disabled": 0, "fusion_lat": 0.0, "name": "8a932d5ad4a6aa3808e087a9c09fdefd", "fusion_lon": 0.0}, {"is_reserved": 0, "type": "electric_scooter", "bike_id": "f96a26fa728998267cc3aff276ceef6e", "lat": 38.88276466666667, "lon": -76.9948555, "rental_uris": {"android": "https://dc.lft.to/lastmile_qr_scan", "ios": "https://dc.lft.to/lastmile_qr_scan"}, "is_disabled": 0, "fusion_lat": 0.0, "name": "f96a26fa728998267cc3aff276ceef6e", "fusion_lon": 0.0}, {"is_reserved": 0, "type": "electric_scooter", "bike_id": "f1365292fa60a6a8571d41291492afab", "lat": 38.90498683333333, "lon": -77.02949866666667, "rental_uris": {"android": "https://dc.lft.to/lastmile_qr_scan", "ios": "https://dc.lft.to/lastmile_qr_scan"}, "is_disabled": 0, "fusion_lat": 0.0, "name": "f1365292fa60a6a8571d41291492afab", "fusion_lon": 0.0}, {"is_reserved": 0, "type": "electric_scooter", "bike_id": "14afc1a6a49d6b6a791a2a58a3e10cd7", "lat": 38.929018666666664, "lon": -77.02210783333334, "rental_uris": {"android": "https://dc.lft.to/lastmile_qr_scan", "ios": "https://dc.lft.to/lastmile_qr_scan"}, "is_disabled": 0, "fusion_lat": 0.0, "name": "14afc1a6a49d6b6a791a2a58a3e10cd7", "fusion_lon": 0.0}, {"is_reserved": 0, "type": "electric_scooter", "bike_id": "7c18efe189949ff7a9d71c59cbe9ac59", "lat": 38.920259, "lon": -77.02713883333334, "rental_uris": {"android": "https://dc.lft.to/lastmile_qr_scan", "ios": "https://dc.lft.to/lastmile_qr_scan"}, "is_disabled": 0, "fusion_lat": 0.0, "name": "7c18efe189949ff7a9d71c59cbe9ac59", "fusion_lon": 0.0}, {"is_reserved": 0, "type": "electric_scooter", "bike_id": "cff71ad88b2a88dc22383c83d9af05bc", "lat": 38.93035883333334, "lon": -77.02962616666667, "rental_uris": {"android": "https://dc.lft.to/lastmile_qr_scan", "ios": "https://dc.lft.to/lastmile_qr_scan"}, "is_disabled": 0, "fusion_lat": 0.0, "name": "cff71ad88b2a88dc22383c83d9af05bc", "fusion_lon": 0.0}, {"is_reserved": 0, "type": "electric_scooter", "bike_id": "ec9e3b943e4d753f6ea178c4ce4ea136", "lat": 38.91771766666667, "lon": -77.04748233333333, "rental_uris": {"android": "https://dc.lft.to/lastmile_qr_scan", "ios": "https://dc.lft.to/lastmile_qr_scan"}, "is_disabled": 0, "fusion_lat": 0.0, "name": "ec9e3b943e4d753f6ea178c4ce4ea136", "fusion_lon": 0.0}, {"is_reserved": 0, "type": "electric_scooter", "bike_id": "22ce324f209d5a31a644b3b1c9db29ca", "lat": 38.904021, "lon": -77.00432733333334, "rental_uris": {"android": "https://dc.lft.to/lastmile_qr_scan", "ios": "https://dc.lft.to/lastmile_qr_scan"}, "is_disabled": 0, "fusion_lat": 0.0, "name": "22ce324f209d5a31a644b3b1c9db29ca", "fusion_lon": 0.0}, {"is_reserved": 0, "type": "electric_scooter", "bike_id": "30ee4e962ea52f1f2cc609ab7dc45e77", "lat": 38.918471, "lon": -77.04527133333333, "rental_uris": {"android": "https://dc.lft.to/lastmile_qr_scan", "ios": "https://dc.lft.to/lastmile_qr_scan"}, "is_disabled": 0, "fusion_lat": 0.0, "name": "30ee4e962ea52f1f2cc609ab7dc45e77", "fusion_lon": 0.0}, {"is_reserved": 0, "type": "electric_scooter", "bike_id": "5ef4fe66177e6b1183f14404999a305a", "lat": 38.92186916666667, "lon": -76.996227, "rental_uris": {"android": "https://dc.lft.to/lastmile_qr_scan", "ios": "https://dc.lft.to/lastmile_qr_scan"}, "is_disabled": 0, "fusion_lat": 0.0, "name": "5ef4fe66177e6b1183f14404999a305a", "fusion_lon": 0.0}, {"is_reserved": 0, "type": "electric_scooter", "bike_id": "a710d5dd0a8d2879969fbaf1e71f1d97", "lat": 38.90565516666667, "lon": -77.0265485, "rental_uris": {"android": "https://dc.lft.to/lastmile_qr_scan", "ios": "https://dc.lft.to/lastmile_qr_scan"}, "is_disabled": 0, "fusion_lat": 0.0, "name": "a710d5dd0a8d2879969fbaf1e71f1d97", "fusion_lon": 0.0}, {"is_reserved": 0, "type": "electric_scooter", "bike_id": "6f214f93e65cb360c41a0e41f89cbcd6", "lat": 38.912832333333334, "lon": -77.04742183333333, "rental_uris": {"android": "https://dc.lft.to/lastmile_qr_scan", "ios": "https://dc.lft.to/lastmile_qr_scan"}, "is_disabled": 0, "fusion_lat": 0.0, "name": "6f214f93e65cb360c41a0e41f89cbcd6", "fusion_lon": 0.0}, {"is_reserved": 0, "type": "electric_scooter", "bike_id": "d48cbfda25b73868417935e0be1d663a", "lat": 38.90561016666667, "lon": -77.04163983333333, "rental_uris": {"android": "https://dc.lft.to/lastmile_qr_scan", "ios": "https://dc.lft.to/lastmile_qr_scan"}, "is_disabled": 0, "fusion_lat": 0.0, "name": "d48cbfda25b73868417935e0be1d663a", "fusion_lon": 0.0}, {"is_reserved": 0, "type": "electric_scooter", "bike_id": "5822c9e1dc67374ff294c4ac8d1f06e0", "lat": 38.9169315, "lon": -77.02574466666667, "rental_uris": {"android": "https://dc.lft.to/lastmile_qr_scan", "ios": "https://dc.lft.to/lastmile_qr_scan"}, "is_disabled": 0, "fusion_lat": 0.0, "name": "5822c9e1dc67374ff294c4ac8d1f06e0", "fusion_lon": 0.0}, {"is_reserved": 0, "type": "electric_scooter", "bike_id": "2c6f1c0a2426e3371832a1e9e9bbdec8", "lat": 38.89230766666667, "lon": -77.04898883333334, "rental_uris": {"android": "https://dc.lft.to/lastmile_qr_scan", "ios": "https://dc.lft.to/lastmile_qr_scan"}, "is_disabled": 0, "fusion_lat": 0.0, "name": "2c6f1c0a2426e3371832a1e9e9bbdec8", "fusion_lon": 0.0}, {"is_reserved": 0, "type": "electric_bike", "bike_id": "be3b017529235917e987ff94078e8c69", "lat": 38.84941516666667, "lon": -77.11750683333334, "rental_uris": {"android": "https://dc.lft.to/lastmile_qr_scan", "ios": "https://dc.lft.to/lastmile_qr_scan"}, "is_disabled": 0, "fusion_lat": 0.0, "name": "be3b017529235917e987ff94078e8c69", "fusion_lon": 0.0}, {"is_reserved": 0, "type": "electric_scooter", "bike_id": "a0e536f38e8c0e2a1ff73fb41272994d", "lat": 38.93304166666667, "lon": -77.0388335, "rental_uris": {"android": "https://dc.lft.to/lastmile_qr_scan", "ios": "https://dc.lft.to/lastmile_qr_scan"}, "is_disabled": 0, "fusion_lat": 0.0, "name": "a0e536f38e8c0e2a1ff73fb41272994d", "fusion_lon": 0.0}, {"is_reserved": 0, "type": "electric_scooter", "bike_id": "e3323873162efceb5ca6fe533786fd09", "lat": 38.89966116666667, "lon": -77.02617533333333, "rental_uris": {"android": "https://dc.lft.to/lastmile_qr_scan", "ios": "https://dc.lft.to/lastmile_qr_scan"}, "is_disabled": 0, "fusion_lat": 0.0, "name": "e3323873162efceb5ca6fe533786fd09", "fusion_lon": 0.0}, {"is_reserved": 0, "type": "electric_scooter", "bike_id": "71af14bb7cab930da9963f36385c37df", "lat": 38.920303833333335, "lon": -77.01737683333333, "rental_uris": {"android": "https://dc.lft.to/lastmile_qr_scan", "ios": "https://dc.lft.to/lastmile_qr_scan"}, "is_disabled": 0, "fusion_lat": 0.0, "name": "71af14bb7cab930da9963f36385c37df", "fusion_lon": 0.0}, {"is_reserved": 0, "type": "electric_scooter", "bike_id": "7da7a8f55f23bea0e5fa29bd9e39bead", "lat": 38.90558466666667, "lon": -76.98136366666667, "rental_uris": {"android": "https://dc.lft.to/lastmile_qr_scan", "ios": "https://dc.lft.to/lastmile_qr_scan"}, "is_disabled": 0, "fusion_lat": 0.0, "name": "7da7a8f55f23bea0e5fa29bd9e39bead", "fusion_lon": 0.0}, {"is_reserved": 0, "type": "electric_scooter", "bike_id": "28460625a94720b4f2bcd3c68ae6b6c7", "lat": 38.937029333333335, "lon": -77.0559615, "rental_uris": {"android": "https://dc.lft.to/lastmile_qr_scan", "ios": "https://dc.lft.to/lastmile_qr_scan"}, "is_disabled": 0, "fusion_lat": 0.0, "name": "28460625a94720b4f2bcd3c68ae6b6c7", "fusion_lon": 0.0}, {"is_reserved": 0, "type": "electric_scooter", "bike_id": "7744f14110f121625ac9df84f696e305", "lat": 38.895135, "lon": -76.992195, "rental_uris": {"android": "https://dc.lft.to/lastmile_qr_scan", "ios": "https://dc.lft.to/lastmile_qr_scan"}, "is_disabled": 0, "fusion_lat": 0.0, "name": "7744f14110f121625ac9df84f696e305", "fusion_lon": 0.0}, {"is_reserved": 0, "type": "electric_scooter", "bike_id": "601eaae9667d301fac368b45ff1ade45", "lat": 38.910785, "lon": -77.016276, "rental_uris": {"android": "https://dc.lft.to/lastmile_qr_scan", "ios": "https://dc.lft.to/lastmile_qr_scan"}, "is_disabled": 0, "fusion_lat": 0.0, "name": "601eaae9667d301fac368b45ff1ade45", "fusion_lon": 0.0}, {"is_reserved": 0, "type": "electric_scooter", "bike_id": "1166bb8785c927c7598744bd143d4bcf", "lat": 38.896599333333334, "lon": -77.04333916666667, "rental_uris": {"android": "https://dc.lft.to/lastmile_qr_scan", "ios": "https://dc.lft.to/lastmile_qr_scan"}, "is_disabled": 0, "fusion_lat": 0.0, "name": "1166bb8785c927c7598744bd143d4bcf", "fusion_lon": 0.0}, {"is_reserved": 0, "type": "electric_scooter", "bike_id": "cec871ae5241272e4fa3598788afea13", "lat": 38.9072785, "lon": -77.02444533333333, "rental_uris": {"android": "https://dc.lft.to/lastmile_qr_scan", "ios": "https://dc.lft.to/lastmile_qr_scan"}, "is_disabled": 0, "fusion_lat": 0.0, "name": "cec871ae5241272e4fa3598788afea13", "fusion_lon": 0.0}, {"is_reserved": 0, "type": "electric_scooter", "bike_id": "c0776f6998cec1768bce781592e9a944", "lat": 38.9198735, "lon": -77.0346875, "rental_uris": {"android": "https://dc.lft.to/lastmile_qr_scan", "ios": "https://dc.lft.to/lastmile_qr_scan"}, "is_disabled": 0, "fusion_lat": 0.0, "name": "c0776f6998cec1768bce781592e9a944", "fusion_lon": 0.0}, {"is_reserved": 0, "type": "electric_scooter", "bike_id": "903218352c8153649b461ae970302ad8", "lat": 38.92616616666667, "lon": -77.05645316666667, "rental_uris": {"android": "https://dc.lft.to/lastmile_qr_scan", "ios": "https://dc.lft.to/lastmile_qr_scan"}, "is_disabled": 0, "fusion_lat": 0.0, "name": "903218352c8153649b461ae970302ad8", "fusion_lon": 0.0}, {"is_reserved": 0, "type": "electric_scooter", "bike_id": "825e386ab91aa93395f1320e2898172a", "lat": 38.89618016666667, "lon": -77.03205116666666, "rental_uris": {"android": "https://dc.lft.to/lastmile_qr_scan", "ios": "https://dc.lft.to/lastmile_qr_scan"}, "is_disabled": 0, "fusion_lat": 0.0, "name": "825e386ab91aa93395f1320e2898172a", "fusion_lon": 0.0}, {"is_reserved": 0, "type": "electric_scooter", "bike_id": "68735fcdaa883cd321f86fea3f277019", "lat": 38.93272666666667, "lon": -76.98532333333333, "rental_uris": {"android": "https://dc.lft.to/lastmile_qr_scan", "ios": "https://dc.lft.to/lastmile_qr_scan"}, "is_disabled": 0, "fusion_lat": 0.0, "name": "68735fcdaa883cd321f86fea3f277019", "fusion_lon": 0.0}, {"is_reserved": 0, "type": "electric_bike", "bike_id": "99387f9c0ade2eaecc165e309945e31e", "lat": 38.869203166666665, "lon": -76.95960316666667, "rental_uris": {"android": "https://dc.lft.to/lastmile_qr_scan", "ios": "https://dc.lft.to/lastmile_qr_scan"}, "is_disabled": 0, "fusion_lat": 0.0, "name": "99387f9c0ade2eaecc165e309945e31e", "fusion_lon": 0.0}, {"is_reserved": 0, "type": "electric_scooter", "bike_id": "b79c54cd17c9c15afb55d320726de91a", "lat": 38.916062333333336, "lon": -77.04867016666667, "rental_uris": {"android": "https://dc.lft.to/lastmile_qr_scan", "ios": "https://dc.lft.to/lastmile_qr_scan"}, "is_disabled": 0, "fusion_lat": 0.0, "name": "b79c54cd17c9c15afb55d320726de91a", "fusion_lon": 0.0}, {"is_reserved": 0, "type": "electric_scooter", "bike_id": "0775a8d971f25ad9609ca0f02dfa8461", "lat": 38.92454166666667, "lon": -77.03289083333334, "rental_uris": {"android": "https://dc.lft.to/lastmile_qr_scan", "ios": "https://dc.lft.to/lastmile_qr_scan"}, "is_disabled": 0, "fusion_lat": 0.0, "name": "0775a8d971f25ad9609ca0f02dfa8461", "fusion_lon": 0.0}, {"is_reserved": 0, "type": "electric_scooter", "bike_id": "f9364fcace9cc07ff7d5d60ba7d0dccd", "lat": 38.889698, "lon": -76.99936316666667, "rental_uris": {"android": "https://dc.lft.to/lastmile_qr_scan", "ios": "https://dc.lft.to/lastmile_qr_scan"}, "is_disabled": 0, "fusion_lat": 0.0, "name": "f9364fcace9cc07ff7d5d60ba7d0dccd", "fusion_lon": 0.0}, {"is_reserved": 0, "type": "electric_scooter", "bike_id": "7991e0c2435b9379d9df8182fcff2fa6", "lat": 38.892336, "lon": -77.04480433333333, "rental_uris": {"android": "https://dc.lft.to/lastmile_qr_scan", "ios": "https://dc.lft.to/lastmile_qr_scan"}, "is_disabled": 0, "fusion_lat": 0.0, "name": "7991e0c2435b9379d9df8182fcff2fa6", "fusion_lon": 0.0}, {"is_reserved": 0, "type": "electric_scooter", "bike_id": "c27a9f10c352503eb622b0c1fa5bbc2d", "lat": 38.89998883333333, "lon": -76.99843116666666, "rental_uris": {"android": "https://dc.lft.to/lastmile_qr_scan", "ios": "https://dc.lft.to/lastmile_qr_scan"}, "is_disabled": 0, "fusion_lat": 0.0, "name": "c27a9f10c352503eb622b0c1fa5bbc2d", "fusion_lon": 0.0}, {"is_reserved": 0, "type": "electric_scooter", "bike_id": "9d279f61bda005f09814d70ee2738258", "lat": 38.915539333333335, "lon": -77.03306433333333, "rental_uris": {"android": "https://dc.lft.to/lastmile_qr_scan", "ios": "https://dc.lft.to/lastmile_qr_scan"}, "is_disabled": 0, "fusion_lat": 0.0, "name": "9d279f61bda005f09814d70ee2738258", "fusion_lon": 0.0}, {"is_reserved": 0, "type": "electric_scooter", "bike_id": "3a0e00c46ed24f603666f5b85f16ae3b", "lat": 38.92372966666667, "lon": -77.03056233333334, "rental_uris": {"android": "https://dc.lft.to/lastmile_qr_scan", "ios": "https://dc.lft.to/lastmile_qr_scan"}, "is_disabled": 0, "fusion_lat": 0.0, "name": "3a0e00c46ed24f603666f5b85f16ae3b", "fusion_lon": 0.0}, {"is_reserved": 0, "type": "electric_scooter", "bike_id": "5171981daa5e0d6d07818eca484719cd", "lat": 38.89906333333333, "lon": -77.03195516666666, "rental_uris": {"android": "https://dc.lft.to/lastmile_qr_scan", "ios": "https://dc.lft.to/lastmile_qr_scan"}, "is_disabled": 0, "fusion_lat": 0.0, "name": "5171981daa5e0d6d07818eca484719cd", "fusion_lon": 0.0}, {"is_reserved": 0, "type": "electric_bike", "bike_id": "3ac9766a4bf992d15d7a31c6d6e59389", "lat": 38.92218966666667, "lon": -77.04335633333334, "rental_uris": {"android": "https://dc.lft.to/lastmile_qr_scan", "ios": "https://dc.lft.to/lastmile_qr_scan"}, "is_disabled": 0, "fusion_lat": 0.0, "name": "3ac9766a4bf992d15d7a31c6d6e59389", "fusion_lon": 0.0}, {"is_reserved": 0, "type": "electric_scooter", "bike_id": "5152a0aa1e280ed497a83d5c978ae714", "lat": 38.88161366666667, "lon": -76.994808, "rental_uris": {"android": "https://dc.lft.to/lastmile_qr_scan", "ios": "https://dc.lft.to/lastmile_qr_scan"}, "is_disabled": 0, "fusion_lat": 0.0, "name": "5152a0aa1e280ed497a83d5c978ae714", "fusion_lon": 0.0}, {"is_reserved": 0, "type": "electric_scooter", "bike_id": "32512d0b454d69d9115ce05be892a8a9", "lat": 38.874975166666665, "lon": -77.00338283333333, "rental_uris": {"android": "https://dc.lft.to/lastmile_qr_scan", "ios": "https://dc.lft.to/lastmile_qr_scan"}, "is_disabled": 0, "fusion_lat": 0.0, "name": "32512d0b454d69d9115ce05be892a8a9", "fusion_lon": 0.0}, {"is_reserved": 0, "type": "electric_scooter", "bike_id": "ef01e318723454b3b6f802673db996fc", "lat": 38.892289833333336, "lon": -77.03183133333333, "rental_uris": {"android": "https://dc.lft.to/lastmile_qr_scan", "ios": "https://dc.lft.to/lastmile_qr_scan"}, "is_disabled": 0, "fusion_lat": 0.0, "name": "ef01e318723454b3b6f802673db996fc", "fusion_lon": 0.0}, {"is_reserved": 0, "type": "electric_scooter", "bike_id": "4628a0ccab563b44f5ee0ac23abd94a2", "lat": 38.87751983333333, "lon": -77.0189525, "rental_uris": {"android": "https://dc.lft.to/lastmile_qr_scan", "ios": "https://dc.lft.to/lastmile_qr_scan"}, "is_disabled": 0, "fusion_lat": 0.0, "name": "4628a0ccab563b44f5ee0ac23abd94a2", "fusion_lon": 0.0}, {"is_reserved": 0, "type": "electric_scooter", "bike_id": "58b91340ceb8d0b56904f94c60d656a1", "lat": 38.8720885, "lon": -77.01349816666666, "rental_uris": {"android": "https://dc.lft.to/lastmile_qr_scan", "ios": "https://dc.lft.to/lastmile_qr_scan"}, "is_disabled": 0, "fusion_lat": 0.0, "name": "58b91340ceb8d0b56904f94c60d656a1", "fusion_lon": 0.0}, {"is_reserved": 0, "type": "electric_scooter", "bike_id": "9eb152b0e64da244554cbf291247ee95", "lat": 38.90726733333333, "lon": -77.01431383333333, "rental_uris": {"android": "https://dc.lft.to/lastmile_qr_scan", "ios": "https://dc.lft.to/lastmile_qr_scan"}, "is_disabled": 0, "fusion_lat": 0.0, "name": "9eb152b0e64da244554cbf291247ee95", "fusion_lon": 0.0}, {"is_reserved": 0, "type": "electric_scooter", "bike_id": "d8e4ce948ca0c6c940200a5d922fcd69", "lat": 38.909295, "lon": -76.99628316666667, "rental_uris": {"android": "https://dc.lft.to/lastmile_qr_scan", "ios": "https://dc.lft.to/lastmile_qr_scan"}, "is_disabled": 0, "fusion_lat": 0.0, "name": "d8e4ce948ca0c6c940200a5d922fcd69", "fusion_lon": 0.0}, {"is_reserved": 0, "type": "electric_scooter", "bike_id": "a4738b57d0081175589b2189cab00842", "lat": 38.93523183333333, "lon": -77.01941566666666, "rental_uris": {"android": "https://dc.lft.to/lastmile_qr_scan", "ios": "https://dc.lft.to/lastmile_qr_scan"}, "is_disabled": 0, "fusion_lat": 0.0, "name": "a4738b57d0081175589b2189cab00842", "fusion_lon": 0.0}, {"is_reserved": 0, "type": "electric_scooter", "bike_id": "11d5349d1b2d2fca0a50e51e7581d576", "lat": 38.90649833333333, "lon": -76.98371916666666, "rental_uris": {"android": "https://dc.lft.to/lastmile_qr_scan", "ios": "https://dc.lft.to/lastmile_qr_scan"}, "is_disabled": 0, "fusion_lat": 0.0, "name": "11d5349d1b2d2fca0a50e51e7581d576", "fusion_lon": 0.0}, {"is_reserved": 0, "type": "electric_scooter", "bike_id": "ea2ae1d8e4d6b91529ef4a94aa05f5c8", "lat": 38.9163035, "lon": -77.0390345, "rental_uris": {"android": "https://dc.lft.to/lastmile_qr_scan", "ios": "https://dc.lft.to/lastmile_qr_scan"}, "is_disabled": 0, "fusion_lat": 0.0, "name": "ea2ae1d8e4d6b91529ef4a94aa05f5c8", "fusion_lon": 0.0}, {"is_reserved": 0, "type": "electric_scooter", "bike_id": "f4fa88cddb61671c1ce426341d734a55", "lat": 38.90543616666667, "lon": -77.05698866666667, "rental_uris": {"android": "https://dc.lft.to/lastmile_qr_scan", "ios": "https://dc.lft.to/lastmile_qr_scan"}, "is_disabled": 0, "fusion_lat": 0.0, "name": "f4fa88cddb61671c1ce426341d734a55", "fusion_lon": 0.0}, {"is_reserved": 0, "type": "electric_scooter", "bike_id": "9e4bc18460d65b88a7766d33826a43b6", "lat": 38.899524, "lon": -76.979056, "rental_uris": {"android": "https://dc.lft.to/lastmile_qr_scan", "ios": "https://dc.lft.to/lastmile_qr_scan"}, "is_disabled": 0, "fusion_lat": 0.0, "name": "9e4bc18460d65b88a7766d33826a43b6", "fusion_lon": 0.0}, {"is_reserved": 0, "type": "electric_scooter", "bike_id": "58466b3282e25df97cb57ad15368b54e", "lat": 38.91554466666667, "lon": -77.038316, "rental_uris": {"android": "https://dc.lft.to/lastmile_qr_scan", "ios": "https://dc.lft.to/lastmile_qr_scan"}, "is_disabled": 0, "fusion_lat": 0.0, "name": "58466b3282e25df97cb57ad15368b54e", "fusion_lon": 0.0}, {"is_reserved": 0, "type": "electric_scooter", "bike_id": "e8f4c1667f5d37fb5027f9ad85b28371", "lat": 38.91758033333333, "lon": -77.00447683333333, "rental_uris": {"android": "https://dc.lft.to/lastmile_qr_scan", "ios": "https://dc.lft.to/lastmile_qr_scan"}, "is_disabled": 0, "fusion_lat": 0.0, "name": "e8f4c1667f5d37fb5027f9ad85b28371", "fusion_lon": 0.0}, {"is_reserved": 0, "type": "electric_scooter", "bike_id": "6f9176c2e3ca49e52ebc84f708a51165", "lat": 38.933254166666664, "lon": -77.0291375, "rental_uris": {"android": "https://dc.lft.to/lastmile_qr_scan", "ios": "https://dc.lft.to/lastmile_qr_scan"}, "is_disabled": 0, "fusion_lat": 0.0, "name": "6f9176c2e3ca49e52ebc84f708a51165", "fusion_lon": 0.0}, {"is_reserved": 0, "type": "electric_scooter", "bike_id": "7818a5b082f845763cefcba05eeae2b7", "lat": 38.914694, "lon": -77.03203166666667, "rental_uris": {"android": "https://dc.lft.to/lastmile_qr_scan", "ios": "https://dc.lft.to/lastmile_qr_scan"}, "is_disabled": 0, "fusion_lat": 0.0, "name": "7818a5b082f845763cefcba05eeae2b7", "fusion_lon": 0.0}, {"is_reserved": 0, "type": "electric_scooter", "bike_id": "86203df9e24e22ab7f4bdd7c3bdef5b1", "lat": 38.916317, "lon": -77.04263966666667, "rental_uris": {"android": "https://dc.lft.to/lastmile_qr_scan", "ios": "https://dc.lft.to/lastmile_qr_scan"}, "is_disabled": 0, "fusion_lat": 0.0, "name": "86203df9e24e22ab7f4bdd7c3bdef5b1", "fusion_lon": 0.0}, {"is_reserved": 0, "type": "electric_scooter", "bike_id": "21fee900b79d7ac64f06df73ea57eb17", "lat": 38.949774166666664, "lon": -77.02446233333333, "rental_uris": {"android": "https://dc.lft.to/lastmile_qr_scan", "ios": "https://dc.lft.to/lastmile_qr_scan"}, "is_disabled": 0, "fusion_lat": 0.0, "name": "21fee900b79d7ac64f06df73ea57eb17", "fusion_lon": 0.0}, {"is_reserved": 0, "type": "electric_scooter", "bike_id": "6f19bc5f8af4ce3845d8bb045f314042", "lat": 38.907826166666666, "lon": -77.00958916666667, "rental_uris": {"android": "https://dc.lft.to/lastmile_qr_scan", "ios": "https://dc.lft.to/lastmile_qr_scan"}, "is_disabled": 0, "fusion_lat": 0.0, "name": "6f19bc5f8af4ce3845d8bb045f314042", "fusion_lon": 0.0}, {"is_reserved": 0, "type": "electric_scooter", "bike_id": "e700c485bee8e5cbafb384f5a18f77c2", "lat": 38.8797375, "lon": -77.00857933333333, "rental_uris": {"android": "https://dc.lft.to/lastmile_qr_scan", "ios": "https://dc.lft.to/lastmile_qr_scan"}, "is_disabled": 0, "fusion_lat": 0.0, "name": "e700c485bee8e5cbafb384f5a18f77c2", "fusion_lon": 0.0}, {"is_reserved": 0, "type": "electric_scooter", "bike_id": "ad0815a79570bd0d9ff8270e7828ef9a", "lat": 38.90236783333334, "lon": -77.01633116666666, "rental_uris": {"android": "https://dc.lft.to/lastmile_qr_scan", "ios": "https://dc.lft.to/lastmile_qr_scan"}, "is_disabled": 0, "fusion_lat": 0.0, "name": "ad0815a79570bd0d9ff8270e7828ef9a", "fusion_lon": 0.0}, {"is_reserved": 0, "type": "electric_scooter", "bike_id": "08c4d44ea753660ac38468ead61e922a", "lat": 38.90805566666667, "lon": -77.04883383333333, "rental_uris": {"android": "https://dc.lft.to/lastmile_qr_scan", "ios": "https://dc.lft.to/lastmile_qr_scan"}, "is_disabled": 0, "fusion_lat": 0.0, "name": "08c4d44ea753660ac38468ead61e922a", "fusion_lon": 0.0}, {"is_reserved": 0, "type": "electric_bike", "bike_id": "51d7c2af2d9e677cb5494b53a5844ed9", "lat": 38.89192233333333, "lon": -76.985565, "rental_uris": {"android": "https://dc.lft.to/lastmile_qr_scan", "ios": "https://dc.lft.to/lastmile_qr_scan"}, "is_disabled": 0, "fusion_lat": 0.0, "name": "51d7c2af2d9e677cb5494b53a5844ed9", "fusion_lon": 0.0}, {"is_reserved": 0, "type": "electric_scooter", "bike_id": "f2c29b0de59779014aaf6c38a0241aa5", "lat": 38.90554983333333, "lon": -77.00590466666667, "rental_uris": {"android": "https://dc.lft.to/lastmile_qr_scan", "ios": "https://dc.lft.to/lastmile_qr_scan"}, "is_disabled": 0, "fusion_lat": 0.0, "name": "f2c29b0de59779014aaf6c38a0241aa5", "fusion_lon": 0.0}, {"is_reserved": 0, "type": "electric_scooter", "bike_id": "ec05b74a49088d571f2deb46f8396468", "lat": 38.916260333333334, "lon": -77.04553, "rental_uris": {"android": "https://dc.lft.to/lastmile_qr_scan", "ios": "https://dc.lft.to/lastmile_qr_scan"}, "is_disabled": 0, "fusion_lat": 0.0, "name": "ec05b74a49088d571f2deb46f8396468", "fusion_lon": 0.0}, {"is_reserved": 0, "type": "electric_scooter", "bike_id": "617948bb045c3bff5ad39439bd4bf991", "lat": 38.892273333333335, "lon": -77.031857, "rental_uris": {"android": "https://dc.lft.to/lastmile_qr_scan", "ios": "https://dc.lft.to/lastmile_qr_scan"}, "is_disabled": 0, "fusion_lat": 0.0, "name": "617948bb045c3bff5ad39439bd4bf991", "fusion_lon": 0.0}, {"is_reserved": 0, "type": "electric_scooter", "bike_id": "b6f5394c7f4f778c3b9711307f65e82f", "lat": 38.8850775, "lon": -76.99589183333333, "rental_uris": {"android": "https://dc.lft.to/lastmile_qr_scan", "ios": "https://dc.lft.to/lastmile_qr_scan"}, "is_disabled": 0, "fusion_lat": 0.0, "name": "b6f5394c7f4f778c3b9711307f65e82f", "fusion_lon": 0.0}, {"is_reserved": 0, "type": "electric_scooter", "bike_id": "8dfde23c086730c761ee191961e685aa", "lat": 38.92198483333333, "lon": -77.0469905, "rental_uris": {"android": "https://dc.lft.to/lastmile_qr_scan", "ios": "https://dc.lft.to/lastmile_qr_scan"}, "is_disabled": 0, "fusion_lat": 0.0, "name": "8dfde23c086730c761ee191961e685aa", "fusion_lon": 0.0}, {"is_reserved": 0, "type": "electric_scooter", "bike_id": "d649df6914eabbc878da2aee2972a122", "lat": 38.92768066666667, "lon": -77.02779266666667, "rental_uris": {"android": "https://dc.lft.to/lastmile_qr_scan", "ios": "https://dc.lft.to/lastmile_qr_scan"}, "is_disabled": 0, "fusion_lat": 0.0, "name": "d649df6914eabbc878da2aee2972a122", "fusion_lon": 0.0}, {"is_reserved": 0, "type": "electric_scooter", "bike_id": "24614c626865568aa47cc78290983bea", "lat": 38.91944633333333, "lon": -77.01363883333333, "rental_uris": {"android": "https://dc.lft.to/lastmile_qr_scan", "ios": "https://dc.lft.to/lastmile_qr_scan"}, "is_disabled": 0, "fusion_lat": 0.0, "name": "24614c626865568aa47cc78290983bea", "fusion_lon": 0.0}, {"is_reserved": 0, "type": "electric_scooter", "bike_id": "b6fa41eaaa0cd33586045e7a343a3cf3", "lat": 38.900951166666665, "lon": -77.04867183333333, "rental_uris": {"android": "https://dc.lft.to/lastmile_qr_scan", "ios": "https://dc.lft.to/lastmile_qr_scan"}, "is_disabled": 0, "fusion_lat": 0.0, "name": "b6fa41eaaa0cd33586045e7a343a3cf3", "fusion_lon": 0.0}, {"is_reserved": 0, "type": "electric_scooter", "bike_id": "11f5eee9940bcb84ba0bc21bbb6adbcb", "lat": 38.942262666666664, "lon": -77.07153116666667, "rental_uris": {"android": "https://dc.lft.to/lastmile_qr_scan", "ios": "https://dc.lft.to/lastmile_qr_scan"}, "is_disabled": 0, "fusion_lat": 0.0, "name": "11f5eee9940bcb84ba0bc21bbb6adbcb", "fusion_lon": 0.0}, {"is_reserved": 0, "type": "electric_scooter", "bike_id": "67de91c9025a052a1ad1348817e9ce23", "lat": 38.89874483333333, "lon": -76.93185966666667, "rental_uris": {"android": "https://dc.lft.to/lastmile_qr_scan", "ios": "https://dc.lft.to/lastmile_qr_scan"}, "is_disabled": 0, "fusion_lat": 0.0, "name": "67de91c9025a052a1ad1348817e9ce23", "fusion_lon": 0.0}, {"is_reserved": 0, "type": "electric_scooter", "bike_id": "2cb4275da12c1fb5705b7a3028479260", "lat": 38.917508166666664, "lon": -77.0278985, "rental_uris": {"android": "https://dc.lft.to/lastmile_qr_scan", "ios": "https://dc.lft.to/lastmile_qr_scan"}, "is_disabled": 0, "fusion_lat": 0.0, "name": "2cb4275da12c1fb5705b7a3028479260", "fusion_lon": 0.0}, {"is_reserved": 0, "type": "electric_scooter", "bike_id": "987904d43fb0a36939d2df5ee7d1433c", "lat": 38.9068215, "lon": -77.0625155, "rental_uris": {"android": "https://dc.lft.to/lastmile_qr_scan", "ios": "https://dc.lft.to/lastmile_qr_scan"}, "is_disabled": 0, "fusion_lat": 0.0, "name": "987904d43fb0a36939d2df5ee7d1433c", "fusion_lon": 0.0}, {"is_reserved": 0, "type": "electric_scooter", "bike_id": "bfc10a629b1ffccab112305f03069510", "lat": 38.90333433333333, "lon": -77.031744, "rental_uris": {"android": "https://dc.lft.to/lastmile_qr_scan", "ios": "https://dc.lft.to/lastmile_qr_scan"}, "is_disabled": 0, "fusion_lat": 0.0, "name": "bfc10a629b1ffccab112305f03069510", "fusion_lon": 0.0}, {"is_reserved": 0, "type": "electric_scooter", "bike_id": "5e2b0947544c56b5b083df60aa5b038e", "lat": 38.90652733333334, "lon": -77.00889816666667, "rental_uris": {"android": "https://dc.lft.to/lastmile_qr_scan", "ios": "https://dc.lft.to/lastmile_qr_scan"}, "is_disabled": 0, "fusion_lat": 0.0, "name": "5e2b0947544c56b5b083df60aa5b038e", "fusion_lon": 0.0}, {"is_reserved": 0, "type": "electric_scooter", "bike_id": "4da4197865a962ed40bd65bd24441d83", "lat": 38.9203325, "lon": -77.0418015, "rental_uris": {"android": "https://dc.lft.to/lastmile_qr_scan", "ios": "https://dc.lft.to/lastmile_qr_scan"}, "is_disabled": 0, "fusion_lat": 0.0, "name": "4da4197865a962ed40bd65bd24441d83", "fusion_lon": 0.0}, {"is_reserved": 0, "type": "electric_scooter", "bike_id": "de7b3e2e8c2c0d7d31532bffb3b3c0e2", "lat": 38.90014683333333, "lon": -77.011828, "rental_uris": {"android": "https://dc.lft.to/lastmile_qr_scan", "ios": "https://dc.lft.to/lastmile_qr_scan"}, "is_disabled": 0, "fusion_lat": 0.0, "name": "de7b3e2e8c2c0d7d31532bffb3b3c0e2", "fusion_lon": 0.0}, {"is_reserved": 0, "type": "electric_scooter", "bike_id": "9047953c4897b9db4ed16efd351f744a", "lat": 38.92748366666667, "lon": -77.02454383333334, "rental_uris": {"android": "https://dc.lft.to/lastmile_qr_scan", "ios": "https://dc.lft.to/lastmile_qr_scan"}, "is_disabled": 0, "fusion_lat": 0.0, "name": "9047953c4897b9db4ed16efd351f744a", "fusion_lon": 0.0}, {"is_reserved": 0, "type": "electric_scooter", "bike_id": "b18b252abd0d447dc822d9b8c296753b", "lat": 38.928388, "lon": -77.05513416666666, "rental_uris": {"android": "https://dc.lft.to/lastmile_qr_scan", "ios": "https://dc.lft.to/lastmile_qr_scan"}, "is_disabled": 0, "fusion_lat": 0.0, "name": "b18b252abd0d447dc822d9b8c296753b", "fusion_lon": 0.0}, {"is_reserved": 0, "type": "electric_scooter", "bike_id": "560ff5ad15dcc347c31ef65014cae172", "lat": 38.91785, "lon": -77.02311683333333, "rental_uris": {"android": "https://dc.lft.to/lastmile_qr_scan", "ios": "https://dc.lft.to/lastmile_qr_scan"}, "is_disabled": 0, "fusion_lat": 0.0, "name": "560ff5ad15dcc347c31ef65014cae172", "fusion_lon": 0.0}, {"is_reserved": 0, "type": "electric_scooter", "bike_id": "7ad6b110a5b62c7894957aebb301474f", "lat": 38.94078616666667, "lon": -77.05490616666667, "rental_uris": {"android": "https://dc.lft.to/lastmile_qr_scan", "ios": "https://dc.lft.to/lastmile_qr_scan"}, "is_disabled": 0, "fusion_lat": 0.0, "name": "7ad6b110a5b62c7894957aebb301474f", "fusion_lon": 0.0}, {"is_reserved": 0, "type": "electric_scooter", "bike_id": "ae505dbe91708e2e951b78133ba561ab", "lat": 38.926222833333334, "lon": -77.03622716666666, "rental_uris": {"android": "https://dc.lft.to/lastmile_qr_scan", "ios": "https://dc.lft.to/lastmile_qr_scan"}, "is_disabled": 0, "fusion_lat": 0.0, "name": "ae505dbe91708e2e951b78133ba561ab", "fusion_lon": 0.0}, {"is_reserved": 0, "type": "electric_scooter", "bike_id": "dcab61b5b2aab2112db869582289c700", "lat": 38.879452, "lon": -77.0166265, "rental_uris": {"android": "https://dc.lft.to/lastmile_qr_scan", "ios": "https://dc.lft.to/lastmile_qr_scan"}, "is_disabled": 0, "fusion_lat": 0.0, "name": "dcab61b5b2aab2112db869582289c700", "fusion_lon": 0.0}, {"is_reserved": 0, "type": "electric_scooter", "bike_id": "4e26df50d970339f84c05bfb5ab27c10", "lat": 38.907507, "lon": -76.99882983333333, "rental_uris": {"android": "https://dc.lft.to/lastmile_qr_scan", "ios": "https://dc.lft.to/lastmile_qr_scan"}, "is_disabled": 0, "fusion_lat": 0.0, "name": "4e26df50d970339f84c05bfb5ab27c10", "fusion_lon": 0.0}, {"is_reserved": 0, "type": "electric_scooter", "bike_id": "a8150f903cecc65443ddc1e04e825e64", "lat": 38.925057333333335, "lon": -77.02163916666667, "rental_uris": {"android": "https://dc.lft.to/lastmile_qr_scan", "ios": "https://dc.lft.to/lastmile_qr_scan"}, "is_disabled": 0, "fusion_lat": 0.0, "name": "a8150f903cecc65443ddc1e04e825e64", "fusion_lon": 0.0}, {"is_reserved": 0, "type": "electric_bike", "bike_id": "0a3342ac5fb33cb5d2b230582c42c37b", "lat": 38.9903195, "lon": -77.02551166666667, "rental_uris": {"android": "https://dc.lft.to/lastmile_qr_scan", "ios": "https://dc.lft.to/lastmile_qr_scan"}, "is_disabled": 0, "fusion_lat": 0.0, "name": "0a3342ac5fb33cb5d2b230582c42c37b", "fusion_lon": 0.0}, {"is_reserved": 0, "type": "electric_scooter", "bike_id": "cf2d8b0b9450d2dfa41260b501ca15d1", "lat": 38.9313385, "lon": -77.03258866666667, "rental_uris": {"android": "https://dc.lft.to/lastmile_qr_scan", "ios": "https://dc.lft.to/lastmile_qr_scan"}, "is_disabled": 0, "fusion_lat": 0.0, "name": "cf2d8b0b9450d2dfa41260b501ca15d1", "fusion_lon": 0.0}, {"is_reserved": 0, "type": "electric_scooter", "bike_id": "5490e3a3871b393588580a69f0a8e65f", "lat": 38.92794466666667, "lon": -77.04066483333334, "rental_uris": {"android": "https://dc.lft.to/lastmile_qr_scan", "ios": "https://dc.lft.to/lastmile_qr_scan"}, "is_disabled": 0, "fusion_lat": 0.0, "name": "5490e3a3871b393588580a69f0a8e65f", "fusion_lon": 0.0}, {"is_reserved": 0, "type": "electric_scooter", "bike_id": "5f2ed5ba034fd9777a2705fd380d5b47", "lat": 38.95622516666667, "lon": -77.03563683333333, "rental_uris": {"android": "https://dc.lft.to/lastmile_qr_scan", "ios": "https://dc.lft.to/lastmile_qr_scan"}, "is_disabled": 0, "fusion_lat": 0.0, "name": "5f2ed5ba034fd9777a2705fd380d5b47", "fusion_lon": 0.0}, {"is_reserved": 0, "type": "electric_scooter", "bike_id": "fb33a9bde5dc75d816587fd3a7188f4f", "lat": 38.91107733333333, "lon": -77.03832316666667, "rental_uris": {"android": "https://dc.lft.to/lastmile_qr_scan", "ios": "https://dc.lft.to/lastmile_qr_scan"}, "is_disabled": 0, "fusion_lat": 0.0, "name": "fb33a9bde5dc75d816587fd3a7188f4f", "fusion_lon": 0.0}, {"is_reserved": 0, "type": "electric_scooter", "bike_id": "7e3817f97e35e1619eabdd84960f47f0", "lat": 38.915198333333336, "lon": -77.00344833333334, "rental_uris": {"android": "https://dc.lft.to/lastmile_qr_scan", "ios": "https://dc.lft.to/lastmile_qr_scan"}, "is_disabled": 0, "fusion_lat": 0.0, "name": "7e3817f97e35e1619eabdd84960f47f0", "fusion_lon": 0.0}, {"is_reserved": 0, "type": "electric_bike", "bike_id": "a954ff99ef3197dec73e53544a78f168", "lat": 38.80559133333333, "lon": -77.13230166666666, "rental_uris": {"android": "https://dc.lft.to/lastmile_qr_scan", "ios": "https://dc.lft.to/lastmile_qr_scan"}, "is_disabled": 0, "fusion_lat": 0.0, "name": "a954ff99ef3197dec73e53544a78f168", "fusion_lon": 0.0}, {"is_reserved": 0, "type": "electric_scooter", "bike_id": "a1b934b750005eec6791d9e9bf75c4ad", "lat": 38.895456, "lon": -76.983356, "rental_uris": {"android": "https://dc.lft.to/lastmile_qr_scan", "ios": "https://dc.lft.to/lastmile_qr_scan"}, "is_disabled": 0, "fusion_lat": 0.0, "name": "a1b934b750005eec6791d9e9bf75c4ad", "fusion_lon": 0.0}, {"is_reserved": 0, "type": "electric_bike", "bike_id": "4d330bac2872d827236246cb9bf739a5", "lat": 38.98713333333333, "lon": -76.945858, "rental_uris": {"android": "https://dc.lft.to/lastmile_qr_scan", "ios": "https://dc.lft.to/lastmile_qr_scan"}, "is_disabled": 0, "fusion_lat": 0.0, "name": "4d330bac2872d827236246cb9bf739a5", "fusion_lon": 0.0}, {"is_reserved": 0, "type": "electric_scooter", "bike_id": "8dc3c8d95d23a11f88d59231b2237944", "lat": 38.88648333333333, "lon": -76.996111, "rental_uris": {"android": "https://dc.lft.to/lastmile_qr_scan", "ios": "https://dc.lft.to/lastmile_qr_scan"}, "is_disabled": 0, "fusion_lat": 0.0, "name": "8dc3c8d95d23a11f88d59231b2237944", "fusion_lon": 0.0}, {"is_reserved": 0, "type": "electric_scooter", "bike_id": "fc559156266d05a6819b9b5453f93eca", "lat": 38.9361495, "lon": -77.08189683333333, "rental_uris": {"android": "https://dc.lft.to/lastmile_qr_scan", "ios": "https://dc.lft.to/lastmile_qr_scan"}, "is_disabled": 0, "fusion_lat": 0.0, "name": "fc559156266d05a6819b9b5453f93eca", "fusion_lon": 0.0}, {"is_reserved": 0, "type": "electric_scooter", "bike_id": "8cee7466ffacb65298890e6121d4c277", "lat": 38.899306833333334, "lon": -77.00354883333333, "rental_uris": {"android": "https://dc.lft.to/lastmile_qr_scan", "ios": "https://dc.lft.to/lastmile_qr_scan"}, "is_disabled": 0, "fusion_lat": 0.0, "name": "8cee7466ffacb65298890e6121d4c277", "fusion_lon": 0.0}, {"is_reserved": 0, "type": "electric_scooter", "bike_id": "7201d17548bc5d6d276417aeaff8604f", "lat": 38.883893, "lon": -77.01932833333333, "rental_uris": {"android": "https://dc.lft.to/lastmile_qr_scan", "ios": "https://dc.lft.to/lastmile_qr_scan"}, "is_disabled": 0, "fusion_lat": 0.0, "name": "7201d17548bc5d6d276417aeaff8604f", "fusion_lon": 0.0}, {"is_reserved": 0, "type": "electric_scooter", "bike_id": "6f8fbe7b594d3e510b4cfe3c6766e6bb", "lat": 38.921118666666665, "lon": -77.03184633333333, "rental_uris": {"android": "https://dc.lft.to/lastmile_qr_scan", "ios": "https://dc.lft.to/lastmile_qr_scan"}, "is_disabled": 0, "fusion_lat": 0.0, "name": "6f8fbe7b594d3e510b4cfe3c6766e6bb", "fusion_lon": 0.0}, {"is_reserved": 0, "type": "electric_scooter", "bike_id": "ba132980edddc57a747f108f9e1f4611", "lat": 38.91266, "lon": -77.037099, "rental_uris": {"android": "https://dc.lft.to/lastmile_qr_scan", "ios": "https://dc.lft.to/lastmile_qr_scan"}, "is_disabled": 0, "fusion_lat": 0.0, "name": "ba132980edddc57a747f108f9e1f4611", "fusion_lon": 0.0}, {"is_reserved": 0, "type": "electric_scooter", "bike_id": "e374f201a304bc868b2cdff845666c6a", "lat": 38.92864466666666, "lon": -77.03713733333333, "rental_uris": {"android": "https://dc.lft.to/lastmile_qr_scan", "ios": "https://dc.lft.to/lastmile_qr_scan"}, "is_disabled": 0, "fusion_lat": 0.0, "name": "e374f201a304bc868b2cdff845666c6a", "fusion_lon": 0.0}, {"is_reserved": 0, "type": "electric_bike", "bike_id": "abbf7af287bb02ef1342d8b267c69d6f", "lat": 38.9479685, "lon": -76.94251383333334, "rental_uris": {"android": "https://dc.lft.to/lastmile_qr_scan", "ios": "https://dc.lft.to/lastmile_qr_scan"}, "is_disabled": 0, "fusion_lat": 0.0, "name": "abbf7af287bb02ef1342d8b267c69d6f", "fusion_lon": 0.0}, {"is_reserved": 0, "type": "electric_scooter", "bike_id": "7bc7c6dc135372a3ef52b3bb05ef960c", "lat": 38.90345833333333, "lon": -77.02199983333334, "rental_uris": {"android": "https://dc.lft.to/lastmile_qr_scan", "ios": "https://dc.lft.to/lastmile_qr_scan"}, "is_disabled": 0, "fusion_lat": 0.0, "name": "7bc7c6dc135372a3ef52b3bb05ef960c", "fusion_lon": 0.0}, {"is_reserved": 0, "type": "electric_bike", "bike_id": "ce675188edbb0e3069ed33faa418ddbd", "lat": 38.96548683333333, "lon": -77.01623516666666, "rental_uris": {"android": "https://dc.lft.to/lastmile_qr_scan", "ios": "https://dc.lft.to/lastmile_qr_scan"}, "is_disabled": 0, "fusion_lat": 0.0, "name": "ce675188edbb0e3069ed33faa418ddbd", "fusion_lon": 0.0}, {"is_reserved": 0, "type": "electric_scooter", "bike_id": "c79170eaa303b31c4dcbba4fa99eadd1", "lat": 38.94228783333333, "lon": -77.07156816666667, "rental_uris": {"android": "https://dc.lft.to/lastmile_qr_scan", "ios": "https://dc.lft.to/lastmile_qr_scan"}, "is_disabled": 0, "fusion_lat": 0.0, "name": "c79170eaa303b31c4dcbba4fa99eadd1", "fusion_lon": 0.0}, {"is_reserved": 0, "type": "electric_scooter", "bike_id": "d3f56478894916467380e231b7cadf1c", "lat": 38.898491166666666, "lon": -76.99032966666667, "rental_uris": {"android": "https://dc.lft.to/lastmile_qr_scan", "ios": "https://dc.lft.to/lastmile_qr_scan"}, "is_disabled": 0, "fusion_lat": 0.0, "name": "d3f56478894916467380e231b7cadf1c", "fusion_lon": 0.0}, {"is_reserved": 0, "type": "electric_scooter", "bike_id": "99a97fdb7c46a6402748939cd3d05ef1", "lat": 38.9017755, "lon": -76.93011783333333, "rental_uris": {"android": "https://dc.lft.to/lastmile_qr_scan", "ios": "https://dc.lft.to/lastmile_qr_scan"}, "is_disabled": 0, "fusion_lat": 0.0, "name": "99a97fdb7c46a6402748939cd3d05ef1", "fusion_lon": 0.0}, {"is_reserved": 0, "type": "electric_bike", "bike_id": "0b6606e4e9efc8b189c599af52643cae", "lat": 38.85789, "lon": -77.099634, "rental_uris": {"android": "https://dc.lft.to/lastmile_qr_scan", "ios": "https://dc.lft.to/lastmile_qr_scan"}, "is_disabled": 0, "fusion_lat": 0.0, "name": "0b6606e4e9efc8b189c599af52643cae", "fusion_lon": 0.0}, {"is_reserved": 0, "type": "electric_scooter", "bike_id": "ec2e9cf0b8f9cc42f5575f6311cff042", "lat": 38.903912166666665, "lon": -77.04888166666667, "rental_uris": {"android": "https://dc.lft.to/lastmile_qr_scan", "ios": "https://dc.lft.to/lastmile_qr_scan"}, "is_disabled": 0, "fusion_lat": 0.0, "name": "ec2e9cf0b8f9cc42f5575f6311cff042", "fusion_lon": 0.0}, {"is_reserved": 0, "type": "electric_scooter", "bike_id": "bcc463ef1a48cf734fc5ff1f3a8652d5", "lat": 38.90561666666667, "lon": -77.02817566666667, "rental_uris": {"android": "https://dc.lft.to/lastmile_qr_scan", "ios": "https://dc.lft.to/lastmile_qr_scan"}, "is_disabled": 0, "fusion_lat": 0.0, "name": "bcc463ef1a48cf734fc5ff1f3a8652d5", "fusion_lon": 0.0}, {"is_reserved": 0, "type": "electric_scooter", "bike_id": "c703cb22752073c5f70c7cd06e2fc334", "lat": 38.9061845, "lon": -77.0281005, "rental_uris": {"android": "https://dc.lft.to/lastmile_qr_scan", "ios": "https://dc.lft.to/lastmile_qr_scan"}, "is_disabled": 0, "fusion_lat": 0.0, "name": "c703cb22752073c5f70c7cd06e2fc334", "fusion_lon": 0.0}, {"is_reserved": 0, "type": "electric_scooter", "bike_id": "c379ba2c2d0b83c9ae81464a463253be", "lat": 38.91180083333333, "lon": -77.023032, "rental_uris": {"android": "https://dc.lft.to/lastmile_qr_scan", "ios": "https://dc.lft.to/lastmile_qr_scan"}, "is_disabled": 0, "fusion_lat": 0.0, "name": "c379ba2c2d0b83c9ae81464a463253be", "fusion_lon": 0.0},