{"data": {"bikes": [{"is_reserved": 0, "bike_id": "e66b1222cd3118482feb6766d226a96a", "type": "electric_scooter", "name": "e66b1222cd3118482feb6766d226a96a", "is_disabled": 0, "fusion_lon": 0.0, "rental_uris": {"android": "https://dc.lft.to/lastmile_qr_scan", "ios": "https://dc.lft.to/lastmile_qr_scan"}, "lat": 38.91432666666667, "lon": -77.02817066666667, "fusion_lat": 0.0}, {"is_reserved": 0, "bike_id": "1308d7ffc76e95f113e95687762aa3dc", "type": "electric_scooter", "name": "1308d7ffc76e95f113e95687762aa3dc", "is_disabled": 0, "fusion_lon": 0.0, "rental_uris": {"android": "https://dc.lft.to/lastmile_qr_scan", "ios": "https://dc.lft.to/lastmile_qr_scan"}, "lat": 38.90728, "lon": -77.01073683333334, "fusion_lat": 0.0}, {"is_reserved": 0, "bike_id": "0c48bedb5d03f103284fc7c702caff67", "type": "electric_scooter", "name": "0c48bedb5d03f103284fc7c702caff67", "is_disabled": 0, "fusion_lon": 0.0, "rental_uris": {"android": "https://dc.lft.to/lastmile_qr_scan", "ios": "https://dc.lft.to/lastmile_qr_scan"}, "lat": 38.893614166666666, "lon": -77.00338066666667, "fusion_lat": 0.0}, {"is_reserved": 0, "bike_id": "b60f924919db7cf684576c02dce88a69", "type": "electric_scooter", "name": "b60f924919db7cf684576c02dce88a69", "is_disabled": 0, "fusion_lon": 0.0, "rental_uris": {"android": "https://dc.lft.to/lastmile_qr_scan", "ios": "https://dc.lft.to/lastmile_qr_scan"}, "lat": 38.9005165, "lon": -77.04826033333333, "fusion_lat": 0.0}, {"is_reserved": 0, "bike_id": "c5631dc4fab7b9cf2573d39b74ae6036", "type": "electric_scooter", "name": "c5631dc4fab7b9cf2573d39b74ae6036", "is_disabled": 0, "fusion_lon": 0.0, "rental_uris": {"android": "https://dc.lft.to/lastmile_qr_scan", "ios": "https://dc.lft.to/lastmile_qr_scan"}, "lat": 38.91690783333333, "lon": -77.04615066666666, "fusion_lat": 0.0}, {"is_reserved": 0, "bike_id": "513a9c581823de4f3c2bf006ff81a472", "type": "electric_scooter", "name": "513a9c581823de4f3c2bf006ff81a472", "is_disabled": 0, "fusion_lon": 0.0, "rental_uris": {"android": "https://dc.lft.to/lastmile_qr_scan", "ios": "https://dc.lft.to/lastmile_qr_scan"}, "lat": 38.912649333333334, "lon": -77.04738133333333, "fusion_lat": 0.0}, {"is_reserved": 0, "bike_id": "b12bdb00029527057389234ed2d4ed6b", "type": "electric_scooter", "name": "b12bdb00029527057389234ed2d4ed6b", "is_disabled": 0, "fusion_lon": 0.0, "rental_uris": {"android": "https://dc.lft.to/lastmile_qr_scan", "ios": "https://dc.lft.to/lastmile_qr_scan"}, "lat": 38.95744716666667, "lon": -77.02337883333334, "fusion_lat": 0.0}, {"is_reserved": 0, "bike_id": "3148e8b592de15554c3757dcd3062a0f", "type": "electric_scooter", "name": "3148e8b592de15554c3757dcd3062a0f", "is_disabled": 0, "fusion_lon": 0.0, "rental_uris": {"android": "https://dc.lft.to/lastmile_qr_scan", "ios": "https://dc.lft.to/lastmile_qr_scan"}, "lat": 38.901465333333334, "lon": -77.04354516666666, "fusion_lat": 0.0}, {"is_reserved": 0, "bike_id": "4798961d8dbe8ff1893414de472187fe", "type": "electric_bike", "name": "4798961d8dbe8ff1893414de472187fe", "is_disabled": 0, "fusion_lon": 0.0, "rental_uris": {"android": "https://dc.lft.to/lastmile_qr_scan", "ios": "https://dc.lft.to/lastmile_qr_scan"}, "lat": 38.93604116666667, "lon": -77.02633983333334, "fusion_lat": 0.0}, {"is_reserved": 0, "bike_id": "4c2f1c17454130a530b5c53cfc6bf259", "type": "electric_scooter", "name": "4c2f1c17454130a530b5c53cfc6bf259", "is_disabled": 0, "fusion_lon": 0.0, "rental_uris": {"android": "https://dc.lft.to/lastmile_qr_scan", "ios": "https://dc.lft.to/lastmile_qr_scan"}, "lat": 38.8770295, "lon": -77.00395416666667, "fusion_lat": 0.0}, {"is_reserved": 0, "bike_id": "973ce7100a62ac267d285ac7b206b688", "type": "electric_scooter", "name": "973ce7100a62ac267d285ac7b206b688", "is_disabled": 0, "fusion_lon": 0.0, "rental_uris": {"android": "https://dc.lft.to/lastmile_qr_scan", "ios": "https://dc.lft.to/lastmile_qr_scan"}, "lat": 38.91808966666667, "lon": -77.02772166666666, "fusion_lat": 0.0}, {"is_reserved": 0, "bike_id": "f890440b4afaf13907fc74bfa9db6960", "type": "electric_scooter", "name": "f890440b4afaf13907fc74bfa9db6960", "is_disabled": 0, "fusion_lon": 0.0, "rental_uris": {"android": "https://dc.lft.to/lastmile_qr_scan", "ios": "https://dc.lft.to/lastmile_qr_scan"}, "lat": 38.91868183333333, "lon": -77.04319883333334, "fusion_lat": 0.0}, {"is_reserved": 0, "bike_id": "7e1b1afd98523b5e22d1d97cf8d0eef5", "type": "electric_scooter", "name": "7e1b1afd98523b5e22d1d97cf8d0eef5", "is_disabled": 0, "fusion_lon": 0.0, "rental_uris": {"android": "https://dc.lft.to/lastmile_qr_scan", "ios": "https://dc.lft.to/lastmile_qr_scan"}, "lat": 38.892487, "lon": -77.03954366666666, "fusion_lat": 0.0}, {"is_reserved": 0, "bike_id": "c3ce051f0601bb472453627e370c6d60", "type": "electric_scooter", "name": "c3ce051f0601bb472453627e370c6d60", "is_disabled": 0, "fusion_lon": 0.0, "rental_uris": {"android": "https://dc.lft.to/lastmile_qr_scan", "ios": "https://dc.lft.to/lastmile_qr_scan"}, "lat": 38.885085333333336, "lon": -77.00569133333333, "fusion_lat": 0.0}, {"is_reserved": 0, "bike_id": "466803940c20142d0b7763f011b5d33c", "type": "electric_scooter", "name": "466803940c20142d0b7763f011b5d33c", "is_disabled": 0, "fusion_lon": 0.0, "rental_uris": {"android": "https://dc.lft.to/lastmile_qr_scan", "ios": "https://dc.lft.to/lastmile_qr_scan"}, "lat": 38.923130666666665, "lon": -77.04214066666667, "fusion_lat": 0.0}, {"is_reserved": 0, "bike_id": "3b65bb502a9c32106939b549992f193b", "type": "electric_scooter", "name": "3b65bb502a9c32106939b549992f193b", "is_disabled": 0, "fusion_lon": 0.0, "rental_uris": {"android": "https://dc.lft.to/lastmile_qr_scan", "ios": "https://dc.lft.to/lastmile_qr_scan"}, "lat": 38.91547083333333, "lon": -77.03790016666666, "fusion_lat": 0.0}, {"is_reserved": 0, "bike_id": "029eebf837ca9942d9e579859db7c819", "type": "electric_scooter", "name": "029eebf837ca9942d9e579859db7c819", "is_disabled": 0, "fusion_lon": 0.0, "rental_uris": {"android": "https://dc.lft.to/lastmile_qr_scan", "ios": "https://dc.lft.to/lastmile_qr_scan"}, "lat": 38.907989, "lon": -77.0416915, "fusion_lat": 0.0}, {"is_reserved": 0, "bike_id": "254121fac81477d79b0041fe9876e705", "type": "electric_scooter", "name": "254121fac81477d79b0041fe9876e705", "is_disabled": 0, "fusion_lon": 0.0, "rental_uris": {"android": "https://dc.lft.to/lastmile_qr_scan", "ios": "https://dc.lft.to/lastmile_qr_scan"}, "lat": 38.90885883333333, "lon": -76.99122133333333, "fusion_lat": 0.0}, {"is_reserved": 0, "bike_id": "2cf88f9c40971b77500616ea2ed0f0f1", "type": "electric_scooter", "name": "2cf88f9c40971b77500616ea2ed0f0f1", "is_disabled": 0, "fusion_lon": 0.0, "rental_uris": {"android": "https://dc.lft.to/lastmile_qr_scan", "ios": "https://dc.lft.to/lastmile_qr_scan"}, "lat": 38.855022166666664, "lon": -76.99113016666666, "fusion_lat": 0.0}, {"is_reserved": 0, "bike_id": "6e2ac41b6d748ba2cfa123d169a78d24", "type": "electric_scooter", "name": "6e2ac41b6d748ba2cfa123d169a78d24", "is_disabled": 0, "fusion_lon": 0.0, "rental_uris": {"android": "https://dc.lft.to/lastmile_qr_scan", "ios": "https://dc.lft.to/lastmile_qr_scan"}, "lat": 38.90493716666667, "lon": -76.949578, "fusion_lat": 0.0}, {"is_reserved": 0, "bike_id": "e5bf7431690a4e935d33fc16916f3137", "type": "electric_scooter", "name": "e5bf7431690a4e935d33fc16916f3137", "is_disabled": 0, "fusion_lon": 0.0, "rental_uris": {"android": "https://dc.lft.to/lastmile_qr_scan", "ios": "https://dc.lft.to/lastmile_qr_scan"}, "lat": 38.921751666666665, "lon": -77.04009616666667, "fusion_lat": 0.0}, {"is_reserved": 0, "bike_id": "1143b9a39e59e41610e75ef3e3754ca5", "type": "electric_scooter", "name": "1143b9a39e59e41610e75ef3e3754ca5", "is_disabled": 0, "fusion_lon": 0.0, "rental_uris": {"android": "https://dc.lft.to/lastmile_qr_scan", "ios": "https://dc.lft.to/lastmile_qr_scan"}, "lat": 38.88729433333334, "lon": -76.983611, "fusion_lat": 0.0}, {"is_reserved": 0, "bike_id": "e9d4f857b19a8127d6c1874fdafd5b05", "type": "electric_scooter", "name": "e9d4f857b19a8127d6c1874fdafd5b05", "is_disabled": 0, "fusion_lon": 0.0, "rental_uris": {"android": "https://dc.lft.to/lastmile_qr_scan", "ios": "https://dc.lft.to/lastmile_qr_scan"}, "lat": 38.92236533333333, "lon": -77.046125, "fusion_lat": 0.0}, {"is_reserved": 0, "bike_id": "cf4946493805d74dc91f24eb0d7e4799", "type": "electric_bike", "name": "cf4946493805d74dc91f24eb0d7e4799", "is_disabled": 0, "fusion_lon": 0.0, "rental_uris": {"android": "https://dc.lft.to/lastmile_qr_scan", "ios": "https://dc.lft.to/lastmile_qr_scan"}, "lat": 38.88879633333333, "lon": -76.957034, "fusion_lat": 0.0}, {"is_reserved": 0, "bike_id": "df42611bc42cf8d18dbcf45068e8d323", "type": "electric_scooter", "name": "df42611bc42cf8d18dbcf45068e8d323", "is_disabled": 0, "fusion_lon": 0.0, "rental_uris": {"android": "https://dc.lft.to/lastmile_qr_scan", "ios": "https://dc.lft.to/lastmile_qr_scan"}, "lat": 38.90475766666667, "lon": -77.048696, "fusion_lat": 0.0}, {"is_reserved": 0, "bike_id": "360df97d6fa06ae7fb919dcebef59699", "type": "electric_scooter", "name": "360df97d6fa06ae7fb919dcebef59699", "is_disabled": 0, "fusion_lon": 0.0, "rental_uris": {"android": "https://dc.lft.to/lastmile_qr_scan", "ios": "https://dc.lft.to/lastmile_qr_scan"}, "lat": 38.92101566666667, "lon": -77.02198283333334, "fusion_lat": 0.0}, {"is_reserved": 0, "bike_id": "9ca8f6e83fc0c128390aaeb9b7b402a6", "type": "electric_scooter", "name": "9ca8f6e83fc0c128390aaeb9b7b402a6", "is_disabled": 0, "fusion_lon": 0.0, "rental_uris": {"android": "https://dc.lft.to/lastmile_qr_scan", "ios": "https://dc.lft.to/lastmile_qr_scan"}, "lat": 38.90518933333333, "lon": -77.06034383333333, "fusion_lat": 0.0}, {"is_reserved": 0, "bike_id": "667181ae0f76dae245d937ef2c1cd4cb", "type": "electric_bike", "name": "667181ae0f76dae245d937ef2c1cd4cb", "is_disabled": 0, "fusion_lon": 0.0, "rental_uris": {"android": "https://dc.lft.to/lastmile_qr_scan", "ios": "https://dc.lft.to/lastmile_qr_scan"}, "lat": 38.924229833333335, "lon": -77.0504625, "fusion_lat": 0.0}, {"is_reserved": 0, "bike_id": "98fa2d8c318f03406c2c75b729bba7f5", "type": "electric_scooter", "name": "98fa2d8c318f03406c2c75b729bba7f5", "is_disabled": 0, "fusion_lon": 0.0, "rental_uris": {"android": "https://dc.lft.to/lastmile_qr_scan", "ios": "https://dc.lft.to/lastmile_qr_scan"}, "lat": 38.915419166666666, "lon": -77.0445795, "fusion_lat": 0.0}, {"is_reserved": 0, "bike_id": "29868e8957e5e80567e82432b778f198", "type": "electric_scooter", "name": "29868e8957e5e80567e82432b778f198", "is_disabled": 0, "fusion_lon": 0.0, "rental_uris": {"android": "https://dc.lft.to/lastmile_qr_scan", "ios": "https://dc.lft.to/lastmile_qr_scan"}, "lat": 38.90523983333333, "lon": -77.06249633333333, "fusion_lat": 0.0}, {"is_reserved": 0, "bike_id": "52c9b6a95aedc044d3ca673fd2d6515b", "type": "electric_scooter", "name": "52c9b6a95aedc044d3ca673fd2d6515b", "is_disabled": 0, "fusion_lon": 0.0, "rental_uris": {"android": "https://dc.lft.to/lastmile_qr_scan", "ios": "https://dc.lft.to/lastmile_qr_scan"}, "lat": 38.921296166666664, "lon": -77.041134, "fusion_lat": 0.0}, {"is_reserved": 0, "bike_id": "71d2dbd7108c9cf570691f97a1103fe6", "type": "electric_scooter", "name": "71d2dbd7108c9cf570691f97a1103fe6", "is_disabled": 0, "fusion_lon": 0.0, "rental_uris": {"android": "https://dc.lft.to/lastmile_qr_scan", "ios": "https://dc.lft.to/lastmile_qr_scan"}, "lat": 38.92674733333333, "lon": -77.01475916666666, "fusion_lat": 0.0}, {"is_reserved": 0, "bike_id": "b867d54d1118be396f90759a4ae47784", "type": "electric_bike", "name": "b867d54d1118be396f90759a4ae47784", "is_disabled": 0, "fusion_lon": 0.0, "rental_uris": {"android": "https://dc.lft.to/lastmile_qr_scan", "ios": "https://dc.lft.to/lastmile_qr_scan"}, "lat": 38.92605866666667, "lon": -77.02431033333333, "fusion_lat": 0.0}, {"is_reserved": 0, "bike_id": "b2a15fd228d65731efb4dab113c02949", "type": "electric_scooter", "name": "b2a15fd228d65731efb4dab113c02949", "is_disabled": 0, "fusion_lon": 0.0, "rental_uris": {"android": "https://dc.lft.to/lastmile_qr_scan", "ios": "https://dc.lft.to/lastmile_qr_scan"}, "lat": 38.923435833333336, "lon": -77.051823, "fusion_lat": 0.0}, {"is_reserved": 0, "bike_id": "76e84dadef00e8995b345dec634f68c2", "type": "electric_bike", "name": "76e84dadef00e8995b345dec634f68c2", "is_disabled": 0, "fusion_lon": 0.0, "rental_uris": {"android": "https://dc.lft.to/lastmile_qr_scan", "ios": "https://dc.lft.to/lastmile_qr_scan"}, "lat": 38.91749216666667, "lon": -77.00770566666667, "fusion_lat": 0.0}, {"is_reserved": 0, "bike_id": "880913964cdc09766624a0ea1f87a137", "type": "electric_scooter", "name": "880913964cdc09766624a0ea1f87a137", "is_disabled": 0, "fusion_lon": 0.0, "rental_uris": {"android": "https://dc.lft.to/lastmile_qr_scan", "ios": "https://dc.lft.to/lastmile_qr_scan"}, "lat": 38.90028916666667, "lon": -76.98908433333334, "fusion_lat": 0.0}, {"is_reserved": 0, "bike_id": "b996822d2ef617735eb036a476ff0b9d", "type": "electric_scooter", "name": "b996822d2ef617735eb036a476ff0b9d", "is_disabled": 0, "fusion_lon": 0.0, "rental_uris": {"android": "https://dc.lft.to/lastmile_qr_scan", "ios": "https://dc.lft.to/lastmile_qr_scan"}, "lat": 38.941983, "lon": -77.03104783333333, "fusion_lat": 0.0}, {"is_reserved": 0, "bike_id": "1fe7190e1b20b3c6bb1ff60bf9ac56f6", "type": "electric_scooter", "name": "1fe7190e1b20b3c6bb1ff60bf9ac56f6", "is_disabled": 0, "fusion_lon": 0.0, "rental_uris": {"android": "https://dc.lft.to/lastmile_qr_scan", "ios": "https://dc.lft.to/lastmile_qr_scan"}, "lat": 38.90438783333333, "lon": -77.0284315, "fusion_lat": 0.0}, {"is_reserved": 0, "bike_id": "9d8dcddaa2389e2b91876e9990eabc19", "type": "electric_scooter", "name": "9d8dcddaa2389e2b91876e9990eabc19", "is_disabled": 0, "fusion_lon": 0.0, "rental_uris": {"android": "https://dc.lft.to/lastmile_qr_scan", "ios": "https://dc.lft.to/lastmile_qr_scan"}, "lat": 38.87642016666667, "lon": -77.001166, "fusion_lat": 0.0}, {"is_reserved": 0, "bike_id": "d00197a096751513cea9b8b51e83edd1", "type": "electric_scooter", "name": "d00197a096751513cea9b8b51e83edd1", "is_disabled": 0, "fusion_lon": 0.0, "rental_uris": {"android": "https://dc.lft.to/lastmile_qr_scan", "ios": "https://dc.lft.to/lastmile_qr_scan"}, "lat": 38.892099, "lon": -76.95698683333333, "fusion_lat": 0.0}, {"is_reserved": 0, "bike_id": "8d5d548aea28c08696851e3292301f90", "type": "electric_scooter", "name": "8d5d548aea28c08696851e3292301f90", "is_disabled": 0, "fusion_lon": 0.0, "rental_uris": {"android": "https://dc.lft.to/lastmile_qr_scan", "ios": "https://dc.lft.to/lastmile_qr_scan"}, "lat": 38.9262175, "lon": -77.03313216666666, "fusion_lat": 0.0}, {"is_reserved": 0, "bike_id": "3ee38628357c33327b7b811b1c91c028", "type": "electric_scooter", "name": "3ee38628357c33327b7b811b1c91c028", "is_disabled": 0, "fusion_lon": 0.0, "rental_uris": {"android": "https://dc.lft.to/lastmile_qr_scan", "ios": "https://dc.lft.to/lastmile_qr_scan"}, "lat": 38.96094733333334, "lon": -77.073388, "fusion_lat": 0.0}, {"is_reserved": 0, "bike_id": "962beea9e9bd714f599d8c465f6958a2", "type": "electric_scooter", "name": "962beea9e9bd714f599d8c465f6958a2", "is_disabled": 0, "fusion_lon": 0.0, "rental_uris": {"android": "https://dc.lft.to/lastmile_qr_scan", "ios": "https://dc.lft.to/lastmile_qr_scan"}, "lat": 38.906953666666666, "lon": -77.02986016666667, "fusion_lat": 0.0}, {"is_reserved": 0, "bike_id": "c6618aa8beafecd8816e6b7f4d87b8ae", "type": "electric_bike", "name": "c6618aa8beafecd8816e6b7f4d87b8ae", "is_disabled": 0, "fusion_lon": 0.0, "rental_uris": {"android": "https://dc.lft.to/lastmile_qr_scan", "ios": "https://dc.lft.to/lastmile_qr_scan"}, "lat": 38.99502433333333, "lon": -77.0013875, "fusion_lat": 0.0}, {"is_reserved": 0, "bike_id": "86a65232dc79cb81c607a5d0c1db7896", "type": "electric_scooter", "name": "86a65232dc79cb81c607a5d0c1db7896", "is_disabled": 0, "fusion_lon": 0.0, "rental_uris": {"android": "https://dc.lft.to/lastmile_qr_scan", "ios": "https://dc.lft.to/lastmile_qr_scan"}, "lat": 38.90647833333333, "lon": -77.01689516666667, "fusion_lat": 0.0}, {"is_reserved": 0, "bike_id": "3b403ac039867092f8e7f634bdc4c1ef", "type": "electric_scooter", "name": "3b403ac039867092f8e7f634bdc4c1ef", "is_disabled": 0, "fusion_lon": 0.0, "rental_uris": {"android": "https://dc.lft.to/lastmile_qr_scan", "ios": "https://dc.lft.to/lastmile_qr_scan"}, "lat": 38.90532833333333, "lon": -77.047474, "fusion_lat": 0.0}, {"is_reserved": 0, "bike_id": "21b549919f970f30798031eb72d90632", "type": "electric_scooter", "name": "21b549919f970f30798031eb72d90632", "is_disabled": 0, "fusion_lon": 0.0, "rental_uris": {"android": "https://dc.lft.to/lastmile_qr_scan", "ios": "https://dc.lft.to/lastmile_qr_scan"}, "lat": 38.91097766666667, "lon": -77.025512, "fusion_lat": 0.0}, {"is_reserved": 0, "bike_id": "f61171c960834cdccfca979a83bea60a", "type": "electric_scooter", "name": "f61171c960834cdccfca979a83bea60a", "is_disabled": 0, "fusion_lon": 0.0, "rental_uris": {"android": "https://dc.lft.to/lastmile_qr_scan", "ios": "https://dc.lft.to/lastmile_qr_scan"}, "lat": 38.886031833333334, "lon": -76.92502216666666, "fusion_lat": 0.0}, {"is_reserved": 0, "bike_id": "25dfd64cb1bdf558758874fcc809c6f8", "type": "electric_scooter", "name": "25dfd64cb1bdf558758874fcc809c6f8", "is_disabled": 0, "fusion_lon": 0.0, "rental_uris": {"android": "https://dc.lft.to/lastmile_qr_scan", "ios": "https://dc.lft.to/lastmile_qr_scan"}, "lat": 38.948817, "lon": -77.0645275, "fusion_lat": 0.0}, {"is_reserved": 0, "bike_id": "55fbbe72a108e5b3c5b606772c70e3ac", "type": "electric_scooter", "name": "55fbbe72a108e5b3c5b606772c70e3ac", "is_disabled": 0, "fusion_lon": 0.0, "rental_uris": {"android": "https://dc.lft.to/lastmile_qr_scan", "ios": "https://dc.lft.to/lastmile_qr_scan"}, "lat": 38.89633933333333, "lon": -77.03327383333334, "fusion_lat": 0.0}, {"is_reserved": 0, "bike_id": "6f7f0755ea029ced859c76b1686a8f4e", "type": "electric_scooter", "name": "6f7f0755ea029ced859c76b1686a8f4e", "is_disabled": 0, "fusion_lon": 0.0, "rental_uris": {"android": "https://dc.lft.to/lastmile_qr_scan", "ios": "https://dc.lft.to/lastmile_qr_scan"}, "lat": 38.88739483333333, "lon": -77.01505383333334, "fusion_lat": 0.0}, {"is_reserved": 0, "bike_id": "d26d65f4f9b9dea6ecbc6fb8a1a37a89", "type": "electric_scooter", "name": "d26d65f4f9b9dea6ecbc6fb8a1a37a89", "is_disabled": 0, "fusion_lon": 0.0, "rental_uris": {"android": "https://dc.lft.to/lastmile_qr_scan", "ios": "https://dc.lft.to/lastmile_qr_scan"}, "lat": 38.919174166666664, "lon": -77.03182883333334, "fusion_lat": 0.0}, {"is_reserved": 0, "bike_id": "2b77e9f14696b1368632171e3cdc67cd", "type": "electric_scooter", "name": "2b77e9f14696b1368632171e3cdc67cd", "is_disabled": 0, "fusion_lon": 0.0, "rental_uris": {"android": "https://dc.lft.to/lastmile_qr_scan", "ios": "https://dc.lft.to/lastmile_qr_scan"}, "lat": 38.876928166666666, "lon": -77.00297116666667, "fusion_lat": 0.0}, {"is_reserved": 0, "bike_id": "de105df619c8d721a52f4f3425e1a329", "type": "electric_bike", "name": "de105df619c8d721a52f4f3425e1a329", "is_disabled": 0, "fusion_lon": 0.0, "rental_uris": {"android": "https://dc.lft.to/lastmile_qr_scan", "ios": "https://dc.lft.to/lastmile_qr_scan"}, "lat": 38.95017383333333, "lon": -77.01561266666667, "fusion_lat": 0.0}, {"is_reserved": 0, "bike_id": "115010a0ab0e83a69562b226a05e5e43", "type": "electric_scooter", "name": "115010a0ab0e83a69562b226a05e5e43", "is_disabled": 0, "fusion_lon": 0.0, "rental_uris": {"android": "https://dc.lft.to/lastmile_qr_scan", "ios": "https://dc.lft.to/lastmile_qr_scan"}, "lat": 38.905873, "lon": -77.00715666666666, "fusion_lat": 0.0}, {"is_reserved": 0, "bike_id": "5936832cdfbd5157940a4694e538dd88", "type": "electric_scooter", "name": "5936832cdfbd5157940a4694e538dd88", "is_disabled": 0, "fusion_lon": 0.0, "rental_uris": {"android": "https://dc.lft.to/lastmile_qr_scan", "ios": "https://dc.lft.to/lastmile_qr_scan"}, "lat": 38.92695033333333, "lon": -77.0257505, "fusion_lat": 0.0}, {"is_reserved": 0, "bike_id": "d2f741c0f793c39ffe08ada325d53d40", "type": "electric_scooter", "name": "d2f741c0f793c39ffe08ada325d53d40", "is_disabled": 0, "fusion_lon": 0.0, "rental_uris": {"android": "https://dc.lft.to/lastmile_qr_scan", "ios": "https://dc.lft.to/lastmile_qr_scan"}, "lat": 38.923306833333335, "lon": -77.01959016666666, "fusion_lat": 0.0}, {"is_reserved": 0, "bike_id": "d52fc10dd83d4699a364220d191027c6", "type": "electric_scooter", "name": "d52fc10dd83d4699a364220d191027c6", "is_disabled": 0, "fusion_lon": 0.0, "rental_uris": {"android": "https://dc.lft.to/lastmile_qr_scan", "ios": "https://dc.lft.to/lastmile_qr_scan"}, "lat": 38.9208505, "lon": -77.02505083333334, "fusion_lat": 0.0}, {"is_reserved": 0, "bike_id": "cc82daadc60b9b3c83e1c693c991fbd2", "type": "electric_scooter", "name": "cc82daadc60b9b3c83e1c693c991fbd2", "is_disabled": 0, "fusion_lon": 0.0, "rental_uris": {"android": "https://dc.lft.to/lastmile_qr_scan", "ios": "https://dc.lft.to/lastmile_qr_scan"}, "lat": 38.9154735, "lon": -77.02201433333333, "fusion_lat": 0.0}, {"is_reserved": 0, "bike_id": "546dae094a164983a4dad0e7712d347c", "type": "electric_scooter", "name": "546dae094a164983a4dad0e7712d347c", "is_disabled": 0, "fusion_lon": 0.0, "rental_uris": {"android": "https://dc.lft.to/lastmile_qr_scan", "ios": "https://dc.lft.to/lastmile_qr_scan"}, "lat": 38.914184, "lon": -77.02234633333333, "fusion_lat": 0.0}, {"is_reserved": 0, "bike_id": "49617eeac911772e5f782122a3cda2b8", "type": "electric_bike", "name": "49617eeac911772e5f782122a3cda2b8", "is_disabled": 0, "fusion_lon": 0.0, "rental_uris": {"android": "https://dc.lft.to/lastmile_qr_scan", "ios": "https://dc.lft.to/lastmile_qr_scan"}, "lat": 38.835881666666666, "lon": -76.99023433333333, "fusion_lat": 0.0}, {"is_reserved": 0, "bike_id": "6d376555366609ac7bbda151b2124034", "type": "electric_bike", "name": "6d376555366609ac7bbda151b2124034", "is_disabled": 0, "fusion_lon": 0.0, "rental_uris": {"android": "https://dc.lft.to/lastmile_qr_scan", "ios": "https://dc.lft.to/lastmile_qr_scan"}, "lat": 38.920691, "lon": -77.03062916666667, "fusion_lat": 0.0}, {"is_reserved": 0, "bike_id": "484b9e81585619a5da7f2c7d9d3512c1", "type": "electric_scooter", "name": "484b9e81585619a5da7f2c7d9d3512c1", "is_disabled": 0, "fusion_lon": 0.0, "rental_uris": {"android": "https://dc.lft.to/lastmile_qr_scan", "ios": "https://dc.lft.to/lastmile_qr_scan"}, "lat": 38.914076666666666, "lon": -77.01805066666667, "fusion_lat": 0.0}, {"is_reserved": 0, "bike_id": "df743ecfd5cb6d4e6ea910413f584ae5", "type": "electric_scooter", "name": "df743ecfd5cb6d4e6ea910413f584ae5", "is_disabled": 0, "fusion_lon": 0.0, "rental_uris": {"android": "https://dc.lft.to/lastmile_qr_scan", "ios": "https://dc.lft.to/lastmile_qr_scan"}, "lat": 38.953051333333335, "lon": -77.02772066666667, "fusion_lat": 0.0}, {"is_reserved": 0, "bike_id": "faf6a2da67b1f9ee1b5842ab090a7e6f", "type": "electric_scooter", "name": "faf6a2da67b1f9ee1b5842ab090a7e6f", "is_disabled": 0, "fusion_lon": 0.0, "rental_uris": {"android": "https://dc.lft.to/lastmile_qr_scan", "ios": "https://dc.lft.to/lastmile_qr_scan"}, "lat": 38.92482033333334, "lon": -77.03052816666667, "fusion_lat": 0.0}, {"is_reserved": 0, "bike_id": "c3c33d9a43138644d5804430c724506b", "type": "electric_scooter", "name": "c3c33d9a43138644d5804430c724506b", "is_disabled": 0, "fusion_lon": 0.0, "rental_uris": {"android": "https://dc.lft.to/lastmile_qr_scan", "ios": "https://dc.lft.to/lastmile_qr_scan"}, "lat": 38.909800833333335, "lon": -77.04619516666666, "fusion_lat": 0.0}, {"is_reserved": 0, "bike_id": "00e8739b8a1ad12281217ca5abf3d3b8", "type": "electric_scooter", "name": "00e8739b8a1ad12281217ca5abf3d3b8", "is_disabled": 0, "fusion_lon": 0.0, "rental_uris": {"android": "https://dc.lft.to/lastmile_qr_scan", "ios": "https://dc.lft.to/lastmile_qr_scan"}, "lat": 38.922169333333336, "lon": -77.02033666666667, "fusion_lat": 0.0}, {"is_reserved": 0, "bike_id": "a18532e6cd57969793502d6adb793a5a", "type": "electric_scooter", "name": "a18532e6cd57969793502d6adb793a5a", "is_disabled": 0, "fusion_lon": 0.0, "rental_uris": {"android": "https://dc.lft.to/lastmile_qr_scan", "ios": "https://dc.lft.to/lastmile_qr_scan"}, "lat": 38.91211366666667, "lon": -77.03837033333333, "fusion_lat": 0.0}, {"is_reserved": 0, "bike_id": "470042e9a0c8c0c52cf823dab4a51ea8", "type": "electric_scooter", "name": "470042e9a0c8c0c52cf823dab4a51ea8", "is_disabled": 0, "fusion_lon": 0.0, "rental_uris": {"android": "https://dc.lft.to/lastmile_qr_scan", "ios": "https://dc.lft.to/lastmile_qr_scan"}, "lat": 38.92413033333333, "lon": -77.021287, "fusion_lat": 0.0}, {"is_reserved": 0, "bike_id": "4756896205ec6695c8cd8701af82a44e", "type": "electric_scooter", "name": "4756896205ec6695c8cd8701af82a44e", "is_disabled": 0, "fusion_lon": 0.0, "rental_uris": {"android": "https://dc.lft.to/lastmile_qr_scan", "ios": "https://dc.lft.to/lastmile_qr_scan"}, "lat": 38.897340666666665, "lon": -77.02457716666666, "fusion_lat": 0.0}, {"is_reserved": 0, "bike_id": "ab0e75db2d33750636bbd439d9e21567", "type": "electric_scooter", "name": "ab0e75db2d33750636bbd439d9e21567", "is_disabled": 0, "fusion_lon": 0.0, "rental_uris": {"android": "https://dc.lft.to/lastmile_qr_scan", "ios": "https://dc.lft.to/lastmile_qr_scan"}, "lat": 38.9244685, "lon": -77.029815, "fusion_lat": 0.0}, {"is_reserved": 0, "bike_id": "f5080a2004dd3bf8d1fbaa7e523909ba", "type": "electric_scooter", "name": "f5080a2004dd3bf8d1fbaa7e523909ba", "is_disabled": 0, "fusion_lon": 0.0, "rental_uris": {"android": "https://dc.lft.to/lastmile_qr_scan", "ios": "https://dc.lft.to/lastmile_qr_scan"}, "lat": 38.943085833333335, "lon": -77.02954933333334, "fusion_lat": 0.0}, {"is_reserved": 0, "bike_id": "3f57f7807381d00880f5089d6ab99cdf", "type": "electric_bike", "name": "3f57f7807381d00880f5089d6ab99cdf", "is_disabled": 0, "fusion_lon": 0.0, "rental_uris": {"android": "https://dc.lft.to/lastmile_qr_scan", "ios": "https://dc.lft.to/lastmile_qr_scan"}, "lat": 38.89564583333333, "lon": -77.12730033333334, "fusion_lat": 0.0}, {"is_reserved": 0, "bike_id": "68325c93b0a82772504439466f813fe2", "type": "electric_scooter", "name": "68325c93b0a82772504439466f813fe2", "is_disabled": 0, "fusion_lon": 0.0, "rental_uris": {"android": "https://dc.lft.to/lastmile_qr_scan", "ios": "https://dc.lft.to/lastmile_qr_scan"}, "lat": 38.907751, "lon": -77.06295866666666, "fusion_lat": 0.0}, {"is_reserved": 0, "bike_id": "b948289f39e822d1b42354d632ad7ac2", "type": "electric_scooter", "name": "b948289f39e822d1b42354d632ad7ac2", "is_disabled": 0, "fusion_lon": 0.0, "rental_uris": {"android": "https://dc.lft.to/lastmile_qr_scan", "ios": "https://dc.lft.to/lastmile_qr_scan"}, "lat": 38.90400133333333, "lon": -76.99047266666666, "fusion_lat": 0.0}, {"is_reserved": 0, "bike_id": "57fbe1d7110a5dac25dde38670cbdebc", "type": "electric_scooter", "name": "57fbe1d7110a5dac25dde38670cbdebc", "is_disabled": 0, "fusion_lon": 0.0, "rental_uris": {"android": "https://dc.lft.to/lastmile_qr_scan", "ios": "https://dc.lft.to/lastmile_qr_scan"}, "lat": 38.89227183333333, "lon": -77.02414583333334, "fusion_lat": 0.0}, {"is_reserved": 0, "bike_id": "6e6d9a7067885631909ebf18af7f14c0", "type": "electric_scooter", "name": "6e6d9a7067885631909ebf18af7f14c0", "is_disabled": 0, "fusion_lon": 0.0, "rental_uris": {"android": "https://dc.lft.to/lastmile_qr_scan", "ios": "https://dc.lft.to/lastmile_qr_scan"}, "lat": 38.922539666666665, "lon": -77.04715233333333, "fusion_lat": 0.0}, {"is_reserved": 0, "bike_id": "fd45a22282c764b20ab25ed4f386d04e", "type": "electric_scooter", "name": "fd45a22282c764b20ab25ed4f386d04e", "is_disabled": 0, "fusion_lon": 0.0, "rental_uris": {"android": "https://dc.lft.to/lastmile_qr_scan", "ios": "https://dc.lft.to/lastmile_qr_scan"}, "lat": 38.92416216666667, "lon": -77.01944216666666, "fusion_lat": 0.0}, {"is_reserved": 0, "bike_id": "273995b38e51be798d478940e5613cb8", "type": "electric_scooter", "name": "273995b38e51be798d478940e5613cb8", "is_disabled": 0, "fusion_lon": 0.0, "rental_uris": {"android": "https://dc.lft.to/lastmile_qr_scan", "ios": "https://dc.lft.to/lastmile_qr_scan"}, "lat": 38.929158, "lon": -77.01869216666667, "fusion_lat": 0.0}, {"is_reserved": 0, "bike_id": "69f1e7355deda4a2451b47d725a3ed94", "type": "electric_scooter", "name": "69f1e7355deda4a2451b47d725a3ed94", "is_disabled": 0, "fusion_lon": 0.0, "rental_uris": {"android": "https://dc.lft.to/lastmile_qr_scan", "ios": "https://dc.lft.to/lastmile_qr_scan"}, "lat": 38.9170235, "lon": -77.02941166666666, "fusion_lat": 0.0}, {"is_reserved": 0, "bike_id": "29dd60f86d0136265e26530bb737c4d5", "type": "electric_scooter", "name": "29dd60f86d0136265e26530bb737c4d5", "is_disabled": 0, "fusion_lon": 0.0, "rental_uris": {"android": "https://dc.lft.to/lastmile_qr_scan", "ios": "https://dc.lft.to/lastmile_qr_scan"}, "lat": 38.92292183333333, "lon": -77.02245533333334, "fusion_lat": 0.0}, {"is_reserved": 0, "bike_id": "d500a7d55f494b4578cb4751534f8be1", "type": "electric_scooter", "name": "d500a7d55f494b4578cb4751534f8be1", "is_disabled": 0, "fusion_lon": 0.0, "rental_uris": {"android": "https://dc.lft.to/lastmile_qr_scan", "ios": "https://dc.lft.to/lastmile_qr_scan"}, "lat": 38.90895033333334, "lon": -76.98239366666667, "fusion_lat": 0.0}, {"is_reserved": 0, "bike_id": "a0cb134da9792074c276926ee40f4fac", "type": "electric_bike", "name": "a0cb134da9792074c276926ee40f4fac", "is_disabled": 0, "fusion_lon": 0.0, "rental_uris": {"android": "https://dc.lft.to/lastmile_qr_scan", "ios": "https://dc.lft.to/lastmile_qr_scan"}, "lat": 38.9667905, "lon": -77.0229505, "fusion_lat": 0.0}, {"is_reserved": 0, "bike_id": "963ad32a4878a52d91f6f81671bd5f24", "type": "electric_scooter", "name": "963ad32a4878a52d91f6f81671bd5f24", "is_disabled": 0, "fusion_lon": 0.0, "rental_uris": {"android": "https://dc.lft.to/lastmile_qr_scan", "ios": "https://dc.lft.to/lastmile_qr_scan"}, "lat": 38.88062883333333, "lon": -76.93221216666667, "fusion_lat": 0.0}, {"is_reserved": 0, "bike_id": "357688457c4b0a60ed65cb4277337ba2", "type": "electric_scooter", "name": "357688457c4b0a60ed65cb4277337ba2", "is_disabled": 0, "fusion_lon": 0.0, "rental_uris": {"android": "https://dc.lft.to/lastmile_qr_scan", "ios": "https://dc.lft.to/lastmile_qr_scan"}, "lat": 38.925559666666665, "lon": -77.05297233333333, "fusion_lat": 0.0}, {"is_reserved": 0, "bike_id": "c747a167f38279e76aa96023d7eb2930", "type": "electric_scooter", "name": "c747a167f38279e76aa96023d7eb2930", "is_disabled": 0, "fusion_lon": 0.0, "rental_uris": {"android": "https://dc.lft.to/lastmile_qr_scan", "ios": "https://dc.lft.to/lastmile_qr_scan"}, "lat": 38.892108, "lon": -76.99011, "fusion_lat": 0.0}, {"is_reserved": 0, "bike_id": "fcbcc97a6121f3a2bb5329dd811f7f74", "type": "electric_scooter", "name": "fcbcc97a6121f3a2bb5329dd811f7f74", "is_disabled": 0, "fusion_lon": 0.0, "rental_uris": {"android": "https://dc.lft.to/lastmile_qr_scan", "ios": "https://dc.lft.to/lastmile_qr_scan"}, "lat": 38.919237333333335, "lon": -77.02996166666667, "fusion_lat": 0.0}, {"is_reserved": 0, "bike_id": "adb02c2ef5c5202a3e233d7f84792788", "type": "electric_scooter", "name": "adb02c2ef5c5202a3e233d7f84792788", "is_disabled": 0, "fusion_lon": 0.0, "rental_uris": {"android": "https://dc.lft.to/lastmile_qr_scan", "ios": "https://dc.lft.to/lastmile_qr_scan"}, "lat": 38.927035333333336, "lon": -77.02080983333333, "fusion_lat": 0.0}, {"is_reserved": 0, "bike_id": "caec39e7c32b5cb68fa154c5fc67e434", "type": "electric_scooter", "name": "caec39e7c32b5cb68fa154c5fc67e434", "is_disabled": 0, "fusion_lon": 0.0, "rental_uris": {"android": "https://dc.lft.to/lastmile_qr_scan", "ios": "https://dc.lft.to/lastmile_qr_scan"}, "lat": 38.9120765, "lon": -77.03203933333333, "fusion_lat": 0.0}, {"is_reserved": 0, "bike_id": "9d623ef32dc82e456257176662869341", "type": "electric_scooter", "name": "9d623ef32dc82e456257176662869341", "is_disabled": 0, "fusion_lon": 0.0, "rental_uris": {"android": "https://dc.lft.to/lastmile_qr_scan", "ios": "https://dc.lft.to/lastmile_qr_scan"}, "lat": 38.89880383333333, "lon": -77.032803, "fusion_lat": 0.0}, {"is_reserved": 0, "bike_id": "1b7b5769d3b5b37098660343fd9ce6e7", "type": "electric_bike", "name": "1b7b5769d3b5b37098660343fd9ce6e7", "is_disabled": 0, "fusion_lon": 0.0, "rental_uris": {"android": "https://dc.lft.to/lastmile_qr_scan", "ios": "https://dc.lft.to/lastmile_qr_scan"}, "lat": 38.998338, "lon": -76.99773283333333, "fusion_lat": 0.0}, {"is_reserved": 0, "bike_id": "0aaf60dafcfd681d0caf7e8cec39ff8c", "type": "electric_scooter", "name": "0aaf60dafcfd681d0caf7e8cec39ff8c", "is_disabled": 0, "fusion_lon": 0.0, "rental_uris": {"android": "https://dc.lft.to/lastmile_qr_scan", "ios": "https://dc.lft.to/lastmile_qr_scan"}, "lat": 38.91841766666667, "lon": -77.034464, "fusion_lat": 0.0}, {"is_reserved": 0, "bike_id": "9e14ca4aa172b1a1feb10eb7f17a98ed", "type": "electric_scooter", "name": "9e14ca4aa172b1a1feb10eb7f17a98ed", "is_disabled": 0, "fusion_lon": 0.0, "rental_uris": {"android": "https://dc.lft.to/lastmile_qr_scan", "ios": "https://dc.lft.to/lastmile_qr_scan"}, "lat": 38.9144735, "lon": -77.02197633333333, "fusion_lat": 0.0}, {"is_reserved": 0, "bike_id": "725fb6cacf764e4de5d0bb950767ef42", "type": "electric_scooter", "name": "725fb6cacf764e4de5d0bb950767ef42", "is_disabled": 0, "fusion_lon": 0.0, "rental_uris": {"android": "https://dc.lft.to/lastmile_qr_scan", "ios": "https://dc.lft.to/lastmile_qr_scan"}, "lat": 38.90661516666667, "lon": -76.98596566666667, "fusion_lat": 0.0}, {"is_reserved": 0, "bike_id": "2936d8236b22b7a359d887703bee47f0", "type": "electric_scooter", "name": "2936d8236b22b7a359d887703bee47f0", "is_disabled": 0, "fusion_lon": 0.0, "rental_uris": {"android": "https://dc.lft.to/lastmile_qr_scan", "ios": "https://dc.lft.to/lastmile_qr_scan"}, "lat": 38.940643, "lon": -77.03288166666667, "fusion_lat": 0.0}, {"is_reserved": 0, "bike_id": "9d428ffa7e2a7c39ebe33c8f5272a976", "type": "electric_scooter", "name": "9d428ffa7e2a7c39ebe33c8f5272a976", "is_disabled": 0, "fusion_lon": 0.0, "rental_uris": {"android": "https://dc.lft.to/lastmile_qr_scan", "ios": "https://dc.lft.to/lastmile_qr_scan"}, "lat": 38.924962666666666, "lon": -77.02178383333333, "fusion_lat": 0.0}, {"is_reserved": 0, "bike_id": "6a60fe4235441bd470cc7f74c03146a5", "type": "electric_scooter", "name": "6a60fe4235441bd470cc7f74c03146a5", "is_disabled": 0, "fusion_lon": 0.0, "rental_uris": {"android": "https://dc.lft.to/lastmile_qr_scan", "ios": "https://dc.lft.to/lastmile_qr_scan"}, "lat": 38.91190433333333, "lon": -77.00221966666666, "fusion_lat": 0.0}, {"is_reserved": 0, "bike_id": "96390af5d82ceb7208350bd82341cd10", "type": "electric_bike", "name": "96390af5d82ceb7208350bd82341cd10", "is_disabled": 0, "fusion_lon": 0.0, "rental_uris": {"android": "https://dc.lft.to/lastmile_qr_scan", "ios": "https://dc.lft.to/lastmile_qr_scan"}, "lat": 38.92624166666667, "lon": -77.033118, "fusion_lat": 0.0}, {"is_reserved": 0, "bike_id": "859f8696ffc7b28ef2203d922236c0c9", "type": "electric_scooter", "name": "859f8696ffc7b28ef2203d922236c0c9", "is_disabled": 0, "fusion_lon": 0.0, "rental_uris": {"android": "https://dc.lft.to/lastmile_qr_scan", "ios": "https://dc.lft.to/lastmile_qr_scan"}, "lat": 38.92611, "lon": -77.02961483333333, "fusion_lat": 0.0}, {"is_reserved": 0, "bike_id": "09e49cf2b0f1c8902b6e26b6833e7e70", "type": "electric_scooter", "name": "09e49cf2b0f1c8902b6e26b6833e7e70", "is_disabled": 0, "fusion_lon": 0.0, "rental_uris": {"android": "https://dc.lft.to/lastmile_qr_scan", "ios": "https://dc.lft.to/lastmile_qr_scan"}, "lat": 38.90651366666667, "lon": -76.98371683333333, "fusion_lat": 0.0}, {"is_reserved": 0, "bike_id": "3b2a8843ba7e3941983ac955774ab411", "type": "electric_scooter", "name": "3b2a8843ba7e3941983ac955774ab411", "is_disabled": 0, "fusion_lon": 0.0, "rental_uris": {"android": "https://dc.lft.to/lastmile_qr_scan", "ios": "https://dc.lft.to/lastmile_qr_scan"}, "lat": 38.92369333333333, "lon": -77.02062766666667, "fusion_lat": 0.0}, {"is_reserved": 0, "bike_id": "11c60f78573664d0cba976fbdba4be18", "type": "electric_scooter", "name": "11c60f78573664d0cba976fbdba4be18", "is_disabled": 0, "fusion_lon": 0.0, "rental_uris": {"android": "https://dc.lft.to/lastmile_qr_scan", "ios": "https://dc.lft.to/lastmile_qr_scan"}, "lat": 38.8811745, "lon": -77.02650033333333, "fusion_lat": 0.0}, {"is_reserved": 0, "bike_id": "0adee58fbcabfa907e0ce7573418dbc3", "type": "electric_scooter", "name": "0adee58fbcabfa907e0ce7573418dbc3", "is_disabled": 0, "fusion_lon": 0.0, "rental_uris": {"android": "https://dc.lft.to/lastmile_qr_scan", "ios": "https://dc.lft.to/lastmile_qr_scan"}, "lat": 38.92167233333333, "lon": -77.02671866666667, "fusion_lat": 0.0}, {"is_reserved": 0, "bike_id": "29c937408eafa7efd13c0ccac1464b14", "type": "electric_scooter", "name": "29c937408eafa7efd13c0ccac1464b14", "is_disabled": 0, "fusion_lon": 0.0, "rental_uris": {"android": "https://dc.lft.to/lastmile_qr_scan", "ios": "https://dc.lft.to/lastmile_qr_scan"}, "lat": 38.9112535, "lon": -77.02096783333333, "fusion_lat": 0.0}, {"is_reserved": 0, "bike_id": "ec8a223f5c6cb69b20243f60301db5f6", "type": "electric_scooter", "name": "ec8a223f5c6cb69b20243f60301db5f6", "is_disabled": 0, "fusion_lon": 0.0, "rental_uris": {"android": "https://dc.lft.to/lastmile_qr_scan", "ios": "https://dc.lft.to/lastmile_qr_scan"}, "lat": 38.896051166666666, "lon": -77.02256766666666, "fusion_lat": 0.0}, {"is_reserved": 0, "bike_id": "adae206d0e2da15aaabfe803ccd500f0", "type": "electric_scooter", "name": "adae206d0e2da15aaabfe803ccd500f0", "is_disabled": 0, "fusion_lon": 0.0, "rental_uris": {"android": "https://dc.lft.to/lastmile_qr_scan", "ios": "https://dc.lft.to/lastmile_qr_scan"}, "lat": 38.89912, "lon": -77.03931816666666, "fusion_lat": 0.0}, {"is_reserved": 0, "bike_id": "990bb4e54869168a372136d923be3182", "type": "electric_scooter", "name": "990bb4e54869168a372136d923be3182", "is_disabled": 0, "fusion_lon": 0.0, "rental_uris": {"android": "https://dc.lft.to/lastmile_qr_scan", "ios": "https://dc.lft.to/lastmile_qr_scan"}, "lat": 38.93476416666667, "lon": -76.98869433333333, "fusion_lat": 0.0}, {"is_reserved": 0, "bike_id": "f68a48d8ef9db0ab618eee71f5cc9027", "type": "electric_scooter", "name": "f68a48d8ef9db0ab618eee71f5cc9027", "is_disabled": 0, "fusion_lon": 0.0, "rental_uris": {"android": "https://dc.lft.to/lastmile_qr_scan", "ios": "https://dc.lft.to/lastmile_qr_scan"}, "lat": 38.905555, "lon": -77.04236366666666, "fusion_lat": 0.0}, {"is_reserved": 0, "bike_id": "353119a06db26be71989b21a79c2124f", "type": "electric_scooter", "name": "353119a06db26be71989b21a79c2124f", "is_disabled": 0, "fusion_lon": 0.0, "rental_uris": {"android": "https://dc.lft.to/lastmile_qr_scan", "ios": "https://dc.lft.to/lastmile_qr_scan"}, "lat": 38.91354166666667, "lon": -77.032129, "fusion_lat": 0.0}, {"is_reserved": 0, "bike_id": "85a929aba165f91cce5bb4746127baad", "type": "electric_scooter", "name": "85a929aba165f91cce5bb4746127baad", "is_disabled": 0, "fusion_lon": 0.0, "rental_uris": {"android": "https://dc.lft.to/lastmile_qr_scan", "ios": "https://dc.lft.to/lastmile_qr_scan"}, "lat": 38.906281166666666, "lon": -77.02407133333334, "fusion_lat": 0.0}, {"is_reserved": 0, "bike_id": "ddbaf998d3779c517ca3d3b375e00175", "type": "electric_scooter", "name": "ddbaf998d3779c517ca3d3b375e00175", "is_disabled": 0, "fusion_lon": 0.0, "rental_uris": {"android": "https://dc.lft.to/lastmile_qr_scan", "ios": "https://dc.lft.to/lastmile_qr_scan"}, "lat": 38.9222975, "lon": -77.0235005, "fusion_lat": 0.0}, {"is_reserved": 0, "bike_id": "c40425356a533e5f0ef948142730175d", "type": "electric_scooter", "name": "c40425356a533e5f0ef948142730175d", "is_disabled": 0, "fusion_lon": 0.0, "rental_uris": {"android": "https://dc.lft.to/lastmile_qr_scan", "ios": "https://dc.lft.to/lastmile_qr_scan"}, "lat": 38.887843, "lon": -76.9553815, "fusion_lat": 0.0}, {"is_reserved": 0, "bike_id": "630d25c374ab36ecfedc2c35a9a9de2d", "type": "electric_scooter", "name": "630d25c374ab36ecfedc2c35a9a9de2d", "is_disabled": 0, "fusion_lon": 0.0, "rental_uris": {"android": "https://dc.lft.to/lastmile_qr_scan", "ios": "https://dc.lft.to/lastmile_qr_scan"}, "lat": 38.9289045, "lon": -77.03466366666666, "fusion_lat": 0.0}, {"is_reserved": 0, "bike_id": "460d21582fc19a523bf0fd33d7b4efa9", "type": "electric_scooter", "name": "460d21582fc19a523bf0fd33d7b4efa9", "is_disabled": 0, "fusion_lon": 0.0, "rental_uris": {"android": "https://dc.lft.to/lastmile_qr_scan", "ios": "https://dc.lft.to/lastmile_qr_scan"}, "lat": 38.89687683333333, "lon": -77.03238583333334, "fusion_lat": 0.0}, {"is_reserved": 0, "bike_id": "b52c43f14330759f109ed19a92b6c1fb", "type": "electric_scooter", "name": "b52c43f14330759f109ed19a92b6c1fb", "is_disabled": 0, "fusion_lon": 0.0, "rental_uris": {"android": "https://dc.lft.to/lastmile_qr_scan", "ios": "https://dc.lft.to/lastmile_qr_scan"}, "lat": 38.9006985, "lon": -77.0197485, "fusion_lat": 0.0}, {"is_reserved": 0, "bike_id": "b7faac29cff7233b80e6cee4eff29f4c", "type": "electric_scooter", "name": "b7faac29cff7233b80e6cee4eff29f4c", "is_disabled": 0, "fusion_lon": 0.0, "rental_uris": {"android": "https://dc.lft.to/lastmile_qr_scan", "ios": "https://dc.lft.to/lastmile_qr_scan"}, "lat": 38.921626, "lon": -77.04244983333334, "fusion_lat": 0.0}, {"is_reserved": 0, "bike_id": "3051fc6c070b62906c1fabc8e962d686", "type": "electric_scooter", "name": "3051fc6c070b62906c1fabc8e962d686", "is_disabled": 0, "fusion_lon": 0.0, "rental_uris": {"android": "https://dc.lft.to/lastmile_qr_scan", "ios": "https://dc.lft.to/lastmile_qr_scan"}, "lat": 38.90296216666667, "lon": -77.03660483333333, "fusion_lat": 0.0}, {"is_reserved": 0, "bike_id": "8444e55feef56f493f106602ff33a30e", "type": "electric_scooter", "name": "8444e55feef56f493f106602ff33a30e", "is_disabled": 0, "fusion_lon": 0.0, "rental_uris": {"android": "https://dc.lft.to/lastmile_qr_scan", "ios": "https://dc.lft.to/lastmile_qr_scan"}, "lat": 38.911183333333334, "lon": -77.011445, "fusion_lat": 0.0}, {"is_reserved": 0, "bike_id": "bf9a434c40de3805d480b013729e3b4f", "type": "electric_scooter", "name": "bf9a434c40de3805d480b013729e3b4f", "is_disabled": 0, "fusion_lon": 0.0, "rental_uris": {"android": "https://dc.lft.to/lastmile_qr_scan", "ios": "https://dc.lft.to/lastmile_qr_scan"}, "lat": 38.87681116666667, "lon": -77.003573, "fusion_lat": 0.0}, {"is_reserved": 0, "bike_id": "f95bc3a5d19b654f778f6ab44e62629e", "type": "electric_scooter", "name": "f95bc3a5d19b654f778f6ab44e62629e", "is_disabled": 0, "fusion_lon": 0.0, "rental_uris": {"android": "https://dc.lft.to/lastmile_qr_scan", "ios": "https://dc.lft.to/lastmile_qr_scan"}, "lat": 38.90110766666667, "lon": -77.04094416666666, "fusion_lat": 0.0}, {"is_reserved": 0, "bike_id": "a042cd66f150e04e261e0d3023ace937", "type": "electric_scooter", "name": "a042cd66f150e04e261e0d3023ace937", "is_disabled": 0, "fusion_lon": 0.0, "rental_uris": {"android": "https://dc.lft.to/lastmile_qr_scan", "ios": "https://dc.lft.to/lastmile_qr_scan"}, "lat": 38.942059, "lon": -77.0165185, "fusion_lat": 0.0}, {"is_reserved": 0, "bike_id": "ee3efb8e025e057df667e97ce682ff58", "type": "electric_scooter", "name": "ee3efb8e025e057df667e97ce682ff58", "is_disabled": 0, "fusion_lon": 0.0, "rental_uris": {"android": "https://dc.lft.to/lastmile_qr_scan", "ios": "https://dc.lft.to/lastmile_qr_scan"}, "lat": 38.876444166666666, "lon": -76.99294516666667, "fusion_lat": 0.0}, {"is_reserved": 0, "bike_id": "432f405ee3a4af0fcd7ac0122f862963", "type": "electric_scooter", "name": "432f405ee3a4af0fcd7ac0122f862963", "is_disabled": 0, "fusion_lon": 0.0, "rental_uris": {"android": "https://dc.lft.to/lastmile_qr_scan", "ios": "https://dc.lft.to/lastmile_qr_scan"}, "lat": 38.8923245, "lon": -77.03178466666667, "fusion_lat": 0.0}, {"is_reserved": 0, "bike_id": "4a557e1c81dc4f1a0e3d807614370a74", "type": "electric_scooter", "name": "4a557e1c81dc4f1a0e3d807614370a74", "is_disabled": 0, "fusion_lon": 0.0, "rental_uris": {"android": "https://dc.lft.to/lastmile_qr_scan", "ios": "https://dc.lft.to/lastmile_qr_scan"}, "lat": 38.926603166666666, "lon": -77.02272866666667, "fusion_lat": 0.0}, {"is_reserved": 0, "bike_id": "fa99aae258166db4f37ae471b26db42d", "type": "electric_scooter", "name": "fa99aae258166db4f37ae471b26db42d", "is_disabled": 0, "fusion_lon": 0.0, "rental_uris": {"android": "https://dc.lft.to/lastmile_qr_scan", "ios": "https://dc.lft.to/lastmile_qr_scan"}, "lat": 38.927962666666666, "lon": -77.0314455, "fusion_lat": 0.0}, {"is_reserved": 0, "bike_id": "3cc4aebd48bf54140f5c722ca92845df", "type": "electric_scooter", "name": "3cc4aebd48bf54140f5c722ca92845df", "is_disabled": 0, "fusion_lon": 0.0, "rental_uris": {"android": "https://dc.lft.to/lastmile_qr_scan", "ios": "https://dc.lft.to/lastmile_qr_scan"}, "lat": 38.91676066666667, "lon": -77.02209366666666, "fusion_lat": 0.0}, {"is_reserved": 0, "bike_id": "0c62406b53fd86716b6f1155e741c80f", "type": "electric_bike", "name": "0c62406b53fd86716b6f1155e741c80f", "is_disabled": 0, "fusion_lon": 0.0, "rental_uris": {"android": "https://dc.lft.to/lastmile_qr_scan", "ios": "https://dc.lft.to/lastmile_qr_scan"}, "lat": 38.95879433333333, "lon": -77.01024583333333, "fusion_lat": 0.0}, {"is_reserved": 0, "bike_id": "f869bce93bc264c0413f985cf37c5e51", "type": "electric_scooter", "name": "f869bce93bc264c0413f985cf37c5e51", "is_disabled": 0, "fusion_lon": 0.0, "rental_uris": {"android": "https://dc.lft.to/lastmile_qr_scan", "ios": "https://dc.lft.to/lastmile_qr_scan"}, "lat": 38.899981, "lon": -77.003552, "fusion_lat": 0.0}, {"is_reserved": 0, "bike_id": "f3c8f08957174e0406475290550c1344", "type": "electric_scooter", "name": "f3c8f08957174e0406475290550c1344", "is_disabled": 0, "fusion_lon": 0.0, "rental_uris": {"android": "https://dc.lft.to/lastmile_qr_scan", "ios": "https://dc.lft.to/lastmile_qr_scan"}, "lat": 38.911095, "lon": -77.02639183333334, "fusion_lat": 0.0}, {"is_reserved": 0, "bike_id": "82528993825d7c5741f6f8d8eb3a63c8", "type": "electric_scooter", "name": "82528993825d7c5741f6f8d8eb3a63c8", "is_disabled": 0, "fusion_lon": 0.0, "rental_uris": {"android": "https://dc.lft.to/lastmile_qr_scan", "ios": "https://dc.lft.to/lastmile_qr_scan"}, "lat": 38.9660995, "lon": -77.02104033333333, "fusion_lat": 0.0}, {"is_reserved": 0, "bike_id": "5fab7969762c700cda9b782ef0346c90", "type": "electric_scooter", "name": "5fab7969762c700cda9b782ef0346c90", "is_disabled": 0, "fusion_lon": 0.0, "rental_uris": {"android": "https://dc.lft.to/lastmile_qr_scan", "ios": "https://dc.lft.to/lastmile_qr_scan"}, "lat": 38.9356315, "lon": -77.05873483333333, "fusion_lat": 0.0}, {"is_reserved": 0, "bike_id": "99c124501411a44f9ec820fd697450ad", "type": "electric_scooter", "name": "99c124501411a44f9ec820fd697450ad", "is_disabled": 0, "fusion_lon": 0.0, "rental_uris": {"android": "https://dc.lft.to/lastmile_qr_scan", "ios": "https://dc.lft.to/lastmile_qr_scan"}, "lat": 38.91855316666667, "lon": -76.96541466666666, "fusion_lat": 0.0}, {"is_reserved": 0, "bike_id": "4fd53e1fae01841eb1a12fa383d6a477", "type": "electric_scooter", "name": "4fd53e1fae01841eb1a12fa383d6a477", "is_disabled": 0, "fusion_lon": 0.0, "rental_uris": {"android": "https://dc.lft.to/lastmile_qr_scan", "ios": "https://dc.lft.to/lastmile_qr_scan"}, "lat": 38.87525633333333, "lon": -77.00086733333333, "fusion_lat": 0.0}, {"is_reserved": 0, "bike_id": "d2e4cc5e83d13b27afddce8c347fe6d0", "type": "electric_scooter", "name": "d2e4cc5e83d13b27afddce8c347fe6d0", "is_disabled": 0, "fusion_lon": 0.0, "rental_uris": {"android": "https://dc.lft.to/lastmile_qr_scan", "ios": "https://dc.lft.to/lastmile_qr_scan"}, "lat": 38.88694566666667, "lon": -77.02203866666666, "fusion_lat": 0.0}, {"is_reserved": 0, "bike_id": "b01e51cf2a46d559ee61e688a25de11f", "type": "electric_bike", "name": "b01e51cf2a46d559ee61e688a25de11f", "is_disabled": 0, "fusion_lon": 0.0, "rental_uris": {"android": "https://dc.lft.to/lastmile_qr_scan", "ios": "https://dc.lft.to/lastmile_qr_scan"}, "lat": 38.88135616666667, "lon": -77.00196383333333, "fusion_lat": 0.0}, {"is_reserved": 0, "bike_id": "1e99de2f6055fd915f89c2b0fd175aea", "type": "electric_scooter", "name": "1e99de2f6055fd915f89c2b0fd175aea", "is_disabled": 0, "fusion_lon": 0.0, "rental_uris": {"android": "https://dc.lft.to/lastmile_qr_scan", "ios": "https://dc.lft.to/lastmile_qr_scan"}, "lat": 38.89083083333333, "lon": -76.99503116666666, "fusion_lat": 0.0}, {"is_reserved": 0, "bike_id": "d82b42eb1890cb3c94124886132cd918", "type": "electric_scooter", "name": "d82b42eb1890cb3c94124886132cd918", "is_disabled": 0, "fusion_lon": 0.0, "rental_uris": {"android": "https://dc.lft.to/lastmile_qr_scan", "ios": "https://dc.lft.to/lastmile_qr_scan"}, "lat": 38.8850225, "lon": -77.00598966666666, "fusion_lat": 0.0}, {"is_reserved": 0, "bike_id": "a64c3543a65d22abdcbc94ff7a8d6771", "type": "electric_scooter", "name": "a64c3543a65d22abdcbc94ff7a8d6771", "is_disabled": 0, "fusion_lon": 0.0, "rental_uris": {"android": "https://dc.lft.to/lastmile_qr_scan", "ios": "https://dc.lft.to/lastmile_qr_scan"}, "lat": 38.90394233333333, "lon": -77.0536495, "fusion_lat": 0.0}, {"is_reserved": 0, "bike_id": "354970e6adbecee41b9608e188a5585d", "type": "electric_scooter", "name": "354970e6adbecee41b9608e188a5585d", "is_disabled": 0, "fusion_lon": 0.0, "rental_uris": {"android": "https://dc.lft.to/lastmile_qr_scan", "ios": "https://dc.lft.to/lastmile_qr_scan"}, "lat": 38.9059195, "lon": -76.98543783333334, "fusion_lat": 0.0}, {"is_reserved": 0, "bike_id": "2b2f120869de674a7972a1cb8a06955a", "type": "electric_scooter", "name": "2b2f120869de674a7972a1cb8a06955a", "is_disabled": 0, "fusion_lon": 0.0, "rental_uris": {"android": "https://dc.lft.to/lastmile_qr_scan", "ios": "https://dc.lft.to/lastmile_qr_scan"}, "lat": 38.8763955, "lon": -77.0057025, "fusion_lat": 0.0}, {"is_reserved": 0, "bike_id": "5bd6174bc577a1433f3f158fb9d96a2d", "type": "electric_scooter", "name": "5bd6174bc577a1433f3f158fb9d96a2d", "is_disabled": 0, "fusion_lon": 0.0, "rental_uris": {"android": "https://dc.lft.to/lastmile_qr_scan", "ios": "https://dc.lft.to/lastmile_qr_scan"}, "lat": 38.9161835, "lon": -77.00343266666667, "fusion_lat": 0.0}, {"is_reserved": 0, "bike_id": "abd86becbefac6a1a9de12dfb3ee94e0", "type": "electric_scooter", "name": "abd86becbefac6a1a9de12dfb3ee94e0", "is_disabled": 0, "fusion_lon": 0.0, "rental_uris": {"android": "https://dc.lft.to/lastmile_qr_scan", "ios": "https://dc.lft.to/lastmile_qr_scan"}, "lat": 38.89635233333333, "lon": -77.03312416666667, "fusion_lat": 0.0}, {"is_reserved": 0, "bike_id": "024e39a64695ea66cccbd2dfba4aa18b", "type": "electric_scooter", "name": "024e39a64695ea66cccbd2dfba4aa18b", "is_disabled": 0, "fusion_lon": 0.0, "rental_uris": {"android": "https://dc.lft.to/lastmile_qr_scan", "ios": "https://dc.lft.to/lastmile_qr_scan"}, "lat": 38.92368183333333, "lon": -77.072339, "fusion_lat": 0.0}, {"is_reserved": 0, "bike_id": "f37e22d2e888db569f3e73e68d12dc19", "type": "electric_scooter", "name": "f37e22d2e888db569f3e73e68d12dc19", "is_disabled": 0, "fusion_lon": 0.0, "rental_uris": {"android": "https://dc.lft.to/lastmile_qr_scan", "ios": "https://dc.lft.to/lastmile_qr_scan"}, "lat": 38.878981333333336, "lon": -76.93523483333334, "fusion_lat": 0.0}, {"is_reserved": 0, "bike_id": "30774353a1886ea104fa126e3576f68d", "type": "electric_scooter", "name": "30774353a1886ea104fa126e3576f68d", "is_disabled": 0, "fusion_lon": 0.0, "rental_uris": {"android": "https://dc.lft.to/lastmile_qr_scan", "ios": "https://dc.lft.to/lastmile_qr_scan"}, "lat": 38.93463716666667, "lon": -77.0307425, "fusion_lat": 0.0}, {"is_reserved": 0, "bike_id": "4bd550a08638ca758e69e0625ceab21c", "type": "electric_scooter", "name": "4bd550a08638ca758e69e0625ceab21c", "is_disabled": 0, "fusion_lon": 0.0, "rental_uris": {"android": "https://dc.lft.to/lastmile_qr_scan", "ios": "https://dc.lft.to/lastmile_qr_scan"}, "lat": 38.92917, "lon": -77.03475183333333, "fusion_lat": 0.0}, {"is_reserved": 0, "bike_id": "98b125ff2986ecada2fe7d6b3ab0df59", "type": "electric_scooter", "name": "98b125ff2986ecada2fe7d6b3ab0df59", "is_disabled": 0, "fusion_lon": 0.0, "rental_uris": {"android": "https://dc.lft.to/lastmile_qr_scan", "ios": "https://dc.lft.to/lastmile_qr_scan"}, "lat": 38.8998165, "lon": -76.99144116666666, "fusion_lat": 0.0}, {"is_reserved": 0, "bike_id": "7cdd6fa0886fa1b768032d47f05a21ee", "type": "electric_scooter", "name": "7cdd6fa0886fa1b768032d47f05a21ee", "is_disabled": 0, "fusion_lon": 0.0, "rental_uris": {"android": "https://dc.lft.to/lastmile_qr_scan", "ios": "https://dc.lft.to/lastmile_qr_scan"}, "lat": 38.957452833333335, "lon": -77.02394133333334, "fusion_lat": 0.0}, {"is_reserved": 0, "bike_id": "8a04cb190fdeff7cb4d8975fd3fb7b1d", "type": "electric_scooter", "name": "8a04cb190fdeff7cb4d8975fd3fb7b1d", "is_disabled": 0, "fusion_lon": 0.0, "rental_uris": {"android": "https://dc.lft.to/lastmile_qr_scan", "ios": "https://dc.lft.to/lastmile_qr_scan"}, "lat": 38.90327833333333, "lon": -77.0162805, "fusion_lat": 0.0}, {"is_reserved": 0, "bike_id": "24fe6d414db8cd007da0910ad00e70d4", "type": "electric_bike", "name": "24fe6d414db8cd007da0910ad00e70d4", "is_disabled": 0, "fusion_lon": 0.0, "rental_uris": {"android": "https://dc.lft.to/lastmile_qr_scan", "ios": "https://dc.lft.to/lastmile_qr_scan"}, "lat": 38.822115, "lon": -76.9770225, "fusion_lat": 0.0}, {"is_reserved": 0, "bike_id": "976fdcff1e1ca61e93357e9c87ef02be", "type": "electric_scooter", "name": "976fdcff1e1ca61e93357e9c87ef02be", "is_disabled": 0, "fusion_lon": 0.0, "rental_uris": {"android": "https://dc.lft.to/lastmile_qr_scan", "ios": "https://dc.lft.to/lastmile_qr_scan"}, "lat": 38.956535333333335, "lon": -77.0131975, "fusion_lat": 0.0}, {"is_reserved": 0, "bike_id": "7d16d30034e574598cd2adf536e79280", "type": "electric_scooter", "name": "7d16d30034e574598cd2adf536e79280", "is_disabled": 0, "fusion_lon": 0.0, "rental_uris": {"android": "https://dc.lft.to/lastmile_qr_scan", "ios": "https://dc.lft.to/lastmile_qr_scan"}, "lat": 38.88603616666666, "lon": -77.01798433333333, "fusion_lat": 0.0}, {"is_reserved": 0, "bike_id": "e537f74fd8d7cb4d6cedbdf58468e269", "type": "electric_scooter", "name": "e537f74fd8d7cb4d6cedbdf58468e269", "is_disabled": 0, "fusion_lon": 0.0, "rental_uris": {"android": "https://dc.lft.to/lastmile_qr_scan", "ios": "https://dc.lft.to/lastmile_qr_scan"}, "lat": 38.9446365, "lon": -77.00659066666667, "fusion_lat": 0.0}, {"is_reserved": 0, "bike_id": "3754248d7b0dda9e2f6035fd84912b01", "type": "electric_scooter", "name": "3754248d7b0dda9e2f6035fd84912b01", "is_disabled": 0, "fusion_lon": 0.0, "rental_uris": {"android": "https://dc.lft.to/lastmile_qr_scan", "ios": "https://dc.lft.to/lastmile_qr_scan"}, "lat": 38.92437233333333, "lon": -77.04254366666666, "fusion_lat": 0.0}, {"is_reserved": 0, "bike_id": "7ec65560b6bf388e82072a4665a597bd", "type": "electric_scooter", "name": "7ec65560b6bf388e82072a4665a597bd", "is_disabled": 0, "fusion_lon": 0.0, "rental_uris": {"android": "https://dc.lft.to/lastmile_qr_scan", "ios": "https://dc.lft.to/lastmile_qr_scan"}, "lat": 38.9047825, "lon": -77.0486895, "fusion_lat": 0.0}, {"is_reserved": 0, "bike_id": "f19ffa39218067458ce02e58cd1674c9", "type": "electric_bike", "name": "f19ffa39218067458ce02e58cd1674c9", "is_disabled": 0, "fusion_lon": 0.0, "rental_uris": {"android": "https://dc.lft.to/lastmile_qr_scan", "ios": "https://dc.lft.to/lastmile_qr_scan"}, "lat": 38.86487066666667, "lon": -76.97754016666667, "fusion_lat": 0.0}, {"is_reserved": 0, "bike_id": "7f4180b7e24fe70daeab999544a7b861", "type": "electric_scooter", "name": "7f4180b7e24fe70daeab999544a7b861", "is_disabled": 0, "fusion_lon": 0.0, "rental_uris": {"android": "https://dc.lft.to/lastmile_qr_scan", "ios": "https://dc.lft.to/lastmile_qr_scan"}, "lat": 38.90253666666667, "lon": -76.98965416666667, "fusion_lat": 0.0}, {"is_reserved": 0, "bike_id": "b0c78f55f7bdd6074d1dd2109151f999", "type": "electric_scooter", "name": "b0c78f55f7bdd6074d1dd2109151f999", "is_disabled": 0, "fusion_lon": 0.0, "rental_uris": {"android": "https://dc.lft.to/lastmile_qr_scan", "ios": "https://dc.lft.to/lastmile_qr_scan"}, "lat": 38.90806233333333, "lon": -77.08399066666666, "fusion_lat": 0.0}, {"is_reserved": 0, "bike_id": "6105e252c6b98a0426de169feb318a7f", "type": "electric_scooter", "name": "6105e252c6b98a0426de169feb318a7f", "is_disabled": 0, "fusion_lon": 0.0, "rental_uris": {"android": "https://dc.lft.to/lastmile_qr_scan", "ios": "https://dc.lft.to/lastmile_qr_scan"}, "lat": 38.9130305, "lon": -77.01738, "fusion_lat": 0.0}, {"is_reserved": 0, "bike_id": "9ba82149cddc2ea3e6c935a24162150b", "type": "electric_scooter", "name": "9ba82149cddc2ea3e6c935a24162150b", "is_disabled": 0, "fusion_lon": 0.0, "rental_uris": {"android": "https://dc.lft.to/lastmile_qr_scan", "ios": "https://dc.lft.to/lastmile_qr_scan"}, "lat": 38.91608883333333, "lon": -77.03674433333333, "fusion_lat": 0.0}, {"is_reserved": 0, "bike_id": "71ad132f745996f33c7f5edc82acb747", "type": "electric_scooter", "name": "71ad132f745996f33c7f5edc82acb747", "is_disabled": 0, "fusion_lon": 0.0, "rental_uris": {"android": "https://dc.lft.to/lastmile_qr_scan", "ios": "https://dc.lft.to/lastmile_qr_scan"}, "lat": 38.92081233333333, "lon": -77.036596, "fusion_lat": 0.0}, {"is_reserved": 0, "bike_id": "1a0d64c25330394e22eee081dd3234a2", "type": "electric_scooter", "name": "1a0d64c25330394e22eee081dd3234a2", "is_disabled": 0, "fusion_lon": 0.0, "rental_uris": {"android": "https://dc.lft.to/lastmile_qr_scan", "ios": "https://dc.lft.to/lastmile_qr_scan"}, "lat": 38.95623666666667, "lon": -77.02759766666667, "fusion_lat": 0.0}, {"is_reserved": 0, "bike_id": "3d00265ad1913678fdffdd42aa0b6441", "type": "electric_scooter", "name": "3d00265ad1913678fdffdd42aa0b6441", "is_disabled": 0, "fusion_lon": 0.0, "rental_uris": {"android": "https://dc.lft.to/lastmile_qr_scan", "ios": "https://dc.lft.to/lastmile_qr_scan"}, "lat": 38.92420933333333, "lon": -77.0355505, "fusion_lat": 0.0}, {"is_reserved": 0, "bike_id": "239ae7e5b398223d0ec0f59701b89184", "type": "electric_scooter", "name": "239ae7e5b398223d0ec0f59701b89184", "is_disabled": 0, "fusion_lon": 0.0, "rental_uris": {"android": "https://dc.lft.to/lastmile_qr_scan", "ios": "https://dc.lft.to/lastmile_qr_scan"}, "lat": 38.91272716666667, "lon": -77.03872533333333, "fusion_lat": 0.0}, {"is_reserved": 0, "bike_id": "772aa07a80af28551f8b507c940280f1", "type": "electric_scooter", "name": "772aa07a80af28551f8b507c940280f1", "is_disabled": 0, "fusion_lon": 0.0, "rental_uris": {"android": "https://dc.lft.to/lastmile_qr_scan", "ios": "https://dc.lft.to/lastmile_qr_scan"}, "lat": 38.88604433333333, "lon": -76.92503033333334, "fusion_lat": 0.0}, {"is_reserved": 0, "bike_id": "ba6a01ea93091744d1b07b49ed22331f", "type": "electric_scooter", "name": "ba6a01ea93091744d1b07b49ed22331f", "is_disabled": 0, "fusion_lon": 0.0, "rental_uris": {"android": "https://dc.lft.to/lastmile_qr_scan", "ios": "https://dc.lft.to/lastmile_qr_scan"}, "lat": 38.872924, "lon": -77.01697616666667, "fusion_lat": 0.0}, {"is_reserved": 0, "bike_id": "0067d6890c706288b461d68cd3ccbdf9", "type": "electric_scooter", "name": "0067d6890c706288b461d68cd3ccbdf9", "is_disabled": 0, "fusion_lon": 0.0, "rental_uris": {"android": "https://dc.lft.to/lastmile_qr_scan", "ios": "https://dc.lft.to/lastmile_qr_scan"}, "lat": 38.88095666666667, "lon": -76.99507283333334, "fusion_lat": 0.0}, {"is_reserved": 0, "bike_id": "b00f679ee461de1bc610401a38c4b5a3", "type": "electric_scooter", "name": "b00f679ee461de1bc610401a38c4b5a3", "is_disabled": 0, "fusion_lon": 0.0, "rental_uris": {"android": "https://dc.lft.to/lastmile_qr_scan", "ios": "https://dc.lft.to/lastmile_qr_scan"}, "lat": 38.876858, "lon": -77.00083, "fusion_lat": 0.0}, {"is_reserved": 0, "bike_id": "da9e87c632881a71f3cc496a1b7498c9", "type": "electric_scooter", "name": "da9e87c632881a71f3cc496a1b7498c9", "is_disabled": 0, "fusion_lon": 0.0, "rental_uris": {"android": "https://dc.lft.to/lastmile_qr_scan", "ios": "https://dc.lft.to/lastmile_qr_scan"}, "lat": 38.92328033333333, "lon": -77.01964516666666, "fusion_lat": 0.0}, {"is_reserved": 0, "bike_id": "1ede96cde92f9fde68e27999d663dc2f", "type": "electric_scooter", "name": "1ede96cde92f9fde68e27999d663dc2f", "is_disabled": 0, "fusion_lon": 0.0, "rental_uris": {"android": "https://dc.lft.to/lastmile_qr_scan", "ios": "https://dc.lft.to/lastmile_qr_scan"}, "lat": 38.92978766666667, "lon": -77.031777, "fusion_lat": 0.0}, {"is_reserved": 0, "bike_id": "df6749188f7f51171c3e120250e6a170", "type": "electric_scooter", "name": "df6749188f7f51171c3e120250e6a170", "is_disabled": 0, "fusion_lon": 0.0, "rental_uris": {"android": "https://dc.lft.to/lastmile_qr_scan", "ios": "https://dc.lft.to/lastmile_qr_scan"}, "lat": 38.9407735, "lon": -77.06133266666667, "fusion_lat": 0.0}, {"is_reserved": 0, "bike_id": "f807d547b3763ddf8cbf37a28734c8a3", "type": "electric_scooter", "name": "f807d547b3763ddf8cbf37a28734c8a3", "is_disabled": 0, "fusion_lon": 0.0, "rental_uris": {"android": "https://dc.lft.to/lastmile_qr_scan", "ios": "https://dc.lft.to/lastmile_qr_scan"}, "lat": 38.92018616666667, "lon": -77.06361233333334, "fusion_lat": 0.0}, {"is_reserved": 0, "bike_id": "a61b976d3b55e35dc06692bc1c7f7e79", "type": "electric_scooter", "name": "a61b976d3b55e35dc06692bc1c7f7e79", "is_disabled": 0, "fusion_lon": 0.0, "rental_uris": {"android": "https://dc.lft.to/lastmile_qr_scan", "ios": "https://dc.lft.to/lastmile_qr_scan"}, "lat": 38.899973, "lon": -77.02732333333333, "fusion_lat": 0.0}, {"is_reserved": 0, "bike_id": "cc978bf5c8dbd87308936c4a01544761", "type": "electric_scooter", "name": "cc978bf5c8dbd87308936c4a01544761", "is_disabled": 0, "fusion_lon": 0.0, "rental_uris": {"android": "https://dc.lft.to/lastmile_qr_scan", "ios": "https://dc.lft.to/lastmile_qr_scan"}, "lat": 38.94201433333333, "lon": -77.023435, "fusion_lat": 0.0}, {"is_reserved": 0, "bike_id": "af998c099c91ad85e0e0e29ef1998c7a", "type": "electric_scooter", "name": "af998c099c91ad85e0e0e29ef1998c7a", "is_disabled": 0, "fusion_lon": 0.0, "rental_uris": {"android": "https://dc.lft.to/lastmile_qr_scan", "ios": "https://dc.lft.to/lastmile_qr_scan"}, "lat": 38.93103466666667, "lon": -77.03490283333333, "fusion_lat": 0.0}, {"is_reserved": 0, "bike_id": "d96c58ec87dec1cfb07d85a2624a9e7f", "type": "electric_scooter", "name": "d96c58ec87dec1cfb07d85a2624a9e7f", "is_disabled": 0, "fusion_lon": 0.0, "rental_uris": {"android": "https://dc.lft.to/lastmile_qr_scan", "ios": "https://dc.lft.to/lastmile_qr_scan"}, "lat": 38.914176499999996, "lon": -77.02587016666666, "fusion_lat": 0.0}, {"is_reserved": 0, "bike_id": "7aee4a9ee0e1fb9e59f9e7fc7c7ac638", "type": "electric_scooter", "name": "7aee4a9ee0e1fb9e59f9e7fc7c7ac638", "is_disabled": 0, "fusion_lon": 0.0, "rental_uris": {"android": "https://dc.lft.to/lastmile_qr_scan", "ios": "https://dc.lft.to/lastmile_qr_scan"}, "lat": 38.877211, "lon": -77.005848, "fusion_lat": 0.0}, {"is_reserved": 0, "bike_id": "09878a38ac1dc29386d7a6fb399fa891", "type": "electric_scooter", "name": "09878a38ac1dc29386d7a6fb399fa891", "is_disabled": 0, "fusion_lon": 0.0, "rental_uris": {"android": "https://dc.lft.to/lastmile_qr_scan", "ios": "https://dc.lft.to/lastmile_qr_scan"}, "lat": 38.94181616666667, "lon": -77.03652033333333, "fusion_lat": 0.0}, {"is_reserved": 0, "bike_id": "324ce942b9c4fa7337ef0e93219f8e95", "type": "electric_scooter", "name": "324ce942b9c4fa7337ef0e93219f8e95", "is_disabled": 0, "fusion_lon": 0.0, "rental_uris": {"android": "https://dc.lft.to/lastmile_qr_scan", "ios": "https://dc.lft.to/lastmile_qr_scan"}, "lat": 38.92712916666667, "lon": -77.02085016666666, "fusion_lat": 0.0}, {"is_reserved": 0, "bike_id": "0ba527701d222847d2b9a1a4c96852e0", "type": "electric_scooter", "name": "0ba527701d222847d2b9a1a4c96852e0", "is_disabled": 0, "fusion_lon": 0.0, "rental_uris": {"android": "https://dc.lft.to/lastmile_qr_scan", "ios": "https://dc.lft.to/lastmile_qr_scan"}, "lat": 38.93427366666667, "lon": -77.03451916666667, "fusion_lat": 0.0}, {"is_reserved": 0, "bike_id": "428c985f956fb65d10e5a0cbce2a840e", "type": "electric_scooter", "name": "428c985f956fb65d10e5a0cbce2a840e", "is_disabled": 0, "fusion_lon": 0.0, "rental_uris": {"android": "https://dc.lft.to/lastmile_qr_scan", "ios": "https://dc.lft.to/lastmile_qr_scan"}, "lat": 38.9357855, "lon": -77.0334915, "fusion_lat": 0.0}, {"is_reserved": 0, "bike_id": "308a8108a718ed98c0be879759f75571", "type": "electric_scooter", "name": "308a8108a718ed98c0be879759f75571", "is_disabled": 0, "fusion_lon": 0.0, "rental_uris": {"android": "https://dc.lft.to/lastmile_qr_scan", "ios": "https://dc.lft.to/lastmile_qr_scan"}, "lat": 38.913226333333334, "lon": -77.04540566666667, "fusion_lat": 0.0}, {"is_reserved": 0, "bike_id": "7d194272eb6aaf0d2ad1532a3685c720", "type": "electric_scooter", "name": "7d194272eb6aaf0d2ad1532a3685c720", "is_disabled": 0, "fusion_lon": 0.0, "rental_uris": {"android": "https://dc.lft.to/lastmile_qr_scan", "ios": "https://dc.lft.to/lastmile_qr_scan"}, "lat": 38.91571616666667, "lon": -77.04607233333333, "fusion_lat": 0.0}, {"is_reserved": 0, "bike_id": "91948875592a4b9e03f92a932be6c64b", "type": "electric_scooter", "name": "91948875592a4b9e03f92a932be6c64b", "is_disabled": 0, "fusion_lon": 0.0, "rental_uris": {"android": "https://dc.lft.to/lastmile_qr_scan", "ios": "https://dc.lft.to/lastmile_qr_scan"}, "lat": 38.90900516666667, "lon": -77.00323316666666, "fusion_lat": 0.0}, {"is_reserved": 0, "bike_id": "4071bc788270d46498380ac29aee3663", "type": "electric_scooter", "name": "4071bc788270d46498380ac29aee3663", "is_disabled": 0, "fusion_lon": 0.0, "rental_uris": {"android": "https://dc.lft.to/lastmile_qr_scan", "ios": "https://dc.lft.to/lastmile_qr_scan"}, "lat": 38.91563816666667, "lon": -77.06798716666667, "fusion_lat": 0.0}, {"is_reserved": 0, "bike_id": "38281701e5b7d0b84e02398f87beae41", "type": "electric_scooter", "name": "38281701e5b7d0b84e02398f87beae41", "is_disabled": 0, "fusion_lon": 0.0, "rental_uris": {"android": "https://dc.lft.to/lastmile_qr_scan", "ios": "https://dc.lft.to/lastmile_qr_scan"}, "lat": 38.91667483333333, "lon": -77.03845466666667, "fusion_lat": 0.0}, {"is_reserved": 0, "bike_id": "ba8dbed267eef56b451dcd6fe8723c78", "type": "electric_scooter", "name": "ba8dbed267eef56b451dcd6fe8723c78", "is_disabled": 0, "fusion_lon": 0.0, "rental_uris": {"android": "https://dc.lft.to/lastmile_qr_scan", "ios": "https://dc.lft.to/lastmile_qr_scan"}, "lat": 38.91190666666667, "lon": -77.06085416666667, "fusion_lat": 0.0}, {"is_reserved": 0, "bike_id": "d808df9b06ce9044bf1154a0fe7c5539", "type": "electric_scooter", "name": "d808df9b06ce9044bf1154a0fe7c5539", "is_disabled": 0, "fusion_lon": 0.0, "rental_uris": {"android": "https://dc.lft.to/lastmile_qr_scan", "ios": "https://dc.lft.to/lastmile_qr_scan"}, "lat": 38.92126416666667, "lon": -77.03150183333334, "fusion_lat": 0.0}, {"is_reserved": 0, "bike_id": "5980e4cd4c1e9d895c4858730d350a63", "type": "electric_scooter", "name": "5980e4cd4c1e9d895c4858730d350a63", "is_disabled": 0, "fusion_lon": 0.0, "rental_uris": {"android": "https://dc.lft.to/lastmile_qr_scan", "ios": "https://dc.lft.to/lastmile_qr_scan"}, "lat": 38.9351095, "lon": -77.02854166666667, "fusion_lat": 0.0}, {"is_reserved": 0, "bike_id": "d17805d93e66a0088e96b3e486c1ac95", "type": "electric_scooter", "name": "d17805d93e66a0088e96b3e486c1ac95", "is_disabled": 0, "fusion_lon": 0.0, "rental_uris": {"android": "https://dc.lft.to/lastmile_qr_scan", "ios": "https://dc.lft.to/lastmile_qr_scan"}, "lat": 38.9032095, "lon": -77.0418955, "fusion_lat": 0.0}, {"is_reserved": 0, "bike_id": "c13975cd5827e665f5c4cf263039c133", "type": "electric_scooter", "name": "c13975cd5827e665f5c4cf263039c133", "is_disabled": 0, "fusion_lon": 0.0, "rental_uris": {"android": "https://dc.lft.to/lastmile_qr_scan", "ios": "https://dc.lft.to/lastmile_qr_scan"}, "lat": 38.9441535, "lon": -77.06337833333333, "fusion_lat": 0.0}, {"is_reserved": 0, "bike_id": "b7cd5f35fb1a82082885a27f7314ec98", "type": "electric_scooter", "name": "b7cd5f35fb1a82082885a27f7314ec98", "is_disabled": 0, "fusion_lon": 0.0, "rental_uris": {"android": "https://dc.lft.to/lastmile_qr_scan", "ios": "https://dc.lft.to/lastmile_qr_scan"}, "lat": 38.930803, "lon": -77.0020025, "fusion_lat": 0.0}, {"is_reserved": 0, "bike_id": "85626cefcb6feb917e60d53bd442aa76", "type": "electric_scooter", "name": "85626cefcb6feb917e60d53bd442aa76", "is_disabled": 0, "fusion_lon": 0.0, "rental_uris": {"android": "https://dc.lft.to/lastmile_qr_scan", "ios": "https://dc.lft.to/lastmile_qr_scan"}, "lat": 38.9700015, "lon": -77.02551966666667, "fusion_lat": 0.0}, {"is_reserved": 0, "bike_id": "ab23ef60164514c5dc8556c47a35384f", "type": "electric_scooter", "name": "ab23ef60164514c5dc8556c47a35384f", "is_disabled": 0, "fusion_lon": 0.0, "rental_uris": {"android": "https://dc.lft.to/lastmile_qr_scan", "ios": "https://dc.lft.to/lastmile_qr_scan"}, "lat": 38.93080966666667, "lon": -77.03497966666667, "fusion_lat": 0.0}, {"is_reserved": 0, "bike_id": "d4db3fe7dbabf5d732f07c6571449364", "type": "electric_scooter", "name": "d4db3fe7dbabf5d732f07c6571449364", "is_disabled": 0, "fusion_lon": 0.0, "rental_uris": {"android": "https://dc.lft.to/lastmile_qr_scan", "ios": "https://dc.lft.to/lastmile_qr_scan"}, "lat": 38.90288133333333, "lon": -77.0161285, "fusion_lat": 0.0}, {"is_reserved": 0, "bike_id": "f35fa8d32771d3ae962f0b9842ed7ab3", "type": "electric_bike", "name": "f35fa8d32771d3ae962f0b9842ed7ab3", "is_disabled": 0, "fusion_lon": 0.0, "rental_uris": {"android": "https://dc.lft.to/lastmile_qr_scan", "ios": "https://dc.lft.to/lastmile_qr_scan"}, "lat": 38.867550666666666, "lon": -76.9452945, "fusion_lat": 0.0}, {"is_reserved": 0, "bike_id": "ba606c5e0422675e66627f0cf4366ddc", "type": "electric_scooter", "name": "ba606c5e0422675e66627f0cf4366ddc", "is_disabled": 0, "fusion_lon": 0.0, "rental_uris": {"android": "https://dc.lft.to/lastmile_qr_scan", "ios": "https://dc.lft.to/lastmile_qr_scan"}, "lat": 38.923406166666666, "lon": -77.053949, "fusion_lat": 0.0}, {"is_reserved": 0, "bike_id": "db71314e8427afcb1a25cd2131a0cf0d", "type": "electric_scooter", "name": "db71314e8427afcb1a25cd2131a0cf0d", "is_disabled": 0, "fusion_lon": 0.0, "rental_uris": {"android": "https://dc.lft.to/lastmile_qr_scan", "ios": "https://dc.lft.to/lastmile_qr_scan"}, "lat": 38.89360633333333, "lon": -77.002867, "fusion_lat": 0.0}, {"is_reserved": 0, "bike_id": "19c52e8d9859624e50d5ec4f383fd4b3", "type": "electric_scooter", "name": "19c52e8d9859624e50d5ec4f383fd4b3", "is_disabled": 0, "fusion_lon": 0.0, "rental_uris": {"android": "https://dc.lft.to/lastmile_qr_scan", "ios": "https://dc.lft.to/lastmile_qr_scan"}, "lat": 38.900761833333334, "lon": -77.01286866666666, "fusion_lat": 0.0}, {"is_reserved": 0, "bike_id": "67d1c5b5bc7f23d32d2b4e5a338fd8b9", "type": "electric_scooter", "name": "67d1c5b5bc7f23d32d2b4e5a338fd8b9", "is_disabled": 0, "fusion_lon": 0.0, "rental_uris": {"android": "https://dc.lft.to/lastmile_qr_scan", "ios": "https://dc.lft.to/lastmile_qr_scan"}, "lat": 38.9306545, "lon": -77.0234965, "fusion_lat": 0.0}, {"is_reserved": 0, "bike_id": "12d28c7e629334ebcd2bf51778617b6a", "type": "electric_scooter", "name": "12d28c7e629334ebcd2bf51778617b6a", "is_disabled": 0, "fusion_lon": 0.0, "rental_uris": {"android": "https://dc.lft.to/lastmile_qr_scan", "ios": "https://dc.lft.to/lastmile_qr_scan"}, "lat": 38.924167, "lon": -77.0201325, "fusion_lat": 0.0}, {"is_reserved": 0, "bike_id": "780f935e9ada37f62105c242c605d7b9", "type": "electric_scooter", "name": "780f935e9ada37f62105c242c605d7b9", "is_disabled": 0, "fusion_lon": 0.0, "rental_uris": {"android": "https://dc.lft.to/lastmile_qr_scan", "ios": "https://dc.lft.to/lastmile_qr_scan"}, "lat": 38.91854983333333, "lon": -77.03205016666666, "fusion_lat": 0.0}, {"is_reserved": 0, "bike_id": "28dbec7861204ff17b73718f72f223ad", "type": "electric_scooter", "name": "28dbec7861204ff17b73718f72f223ad", "is_disabled": 0, "fusion_lon": 0.0, "rental_uris": {"android": "https://dc.lft.to/lastmile_qr_scan", "ios": "https://dc.lft.to/lastmile_qr_scan"}, "lat": 38.90129133333333, "lon": -77.00321416666667, "fusion_lat": 0.0}, {"is_reserved": 0, "bike_id": "6c7e20436ba46971f6d5116377ab0f24", "type": "electric_scooter", "name": "6c7e20436ba46971f6d5116377ab0f24", "is_disabled": 0, "fusion_lon": 0.0, "rental_uris": {"android": "https://dc.lft.to/lastmile_qr_scan", "ios": "https://dc.lft.to/lastmile_qr_scan"}, "lat": 38.913092166666665, "lon": -77.01611, "fusion_lat": 0.0}, {"is_reserved": 0, "bike_id": "5b9f8878ce330583352df50212228d41", "type": "electric_scooter", "name": "5b9f8878ce330583352df50212228d41", "is_disabled": 0, "fusion_lon": 0.0, "rental_uris": {"android": "https://dc.lft.to/lastmile_qr_scan", "ios": "https://dc.lft.to/lastmile_qr_scan"}, "lat": 38.911137833333335, "lon": -77.04835066666666, "fusion_lat": 0.0}, {"is_reserved": 0, "bike_id": "906711923a2b049bed693420eee8e0ad", "type": "electric_scooter", "name": "906711923a2b049bed693420eee8e0ad", "is_disabled": 0, "fusion_lon": 0.0, "rental_uris": {"android": "https://dc.lft.to/lastmile_qr_scan", "ios": "https://dc.lft.to/lastmile_qr_scan"}, "lat": 38.923800666666665, "lon": -77.02957333333333, "fusion_lat": 0.0}, {"is_reserved": 0, "bike_id": "2667b8a11f57211d9aad90ae105acaf2", "type": "electric_scooter", "name": "2667b8a11f57211d9aad90ae105acaf2", "is_disabled": 0, "fusion_lon": 0.0, "rental_uris": {"android": "https://dc.lft.to/lastmile_qr_scan", "ios": "https://dc.lft.to/lastmile_qr_scan"}, "lat": 38.891228166666664, "lon": -76.9408915, "fusion_lat": 0.0}, {"is_reserved": 0, "bike_id": "d4133e93928eeb7cac61dfa574ea71b7", "type": "electric_scooter", "name": "d4133e93928eeb7cac61dfa574ea71b7", "is_disabled": 0, "fusion_lon": 0.0, "rental_uris": {"android": "https://dc.lft.to/lastmile_qr_scan", "ios": "https://dc.lft.to/lastmile_qr_scan"}, "lat": 38.930981, "lon": -77.024729, "fusion_lat": 0.0}, {"is_reserved": 0, "bike_id": "5d297c4bc0ddab210a11e39144560742", "type": "electric_scooter", "name": "5d297c4bc0ddab210a11e39144560742", "is_disabled": 0, "fusion_lon": 0.0, "rental_uris": {"android": "https://dc.lft.to/lastmile_qr_scan", "ios": "https://dc.lft.to/lastmile_qr_scan"}, "lat": 38.94342533333333, "lon": -77.06128416666667, "fusion_lat": 0.0}, {"is_reserved": 0, "bike_id": "055db597fb9ae6a673d06db27da9e336", "type": "electric_scooter", "name": "055db597fb9ae6a673d06db27da9e336", "is_disabled": 0, "fusion_lon": 0.0, "rental_uris": {"android": "https://dc.lft.to/lastmile_qr_scan", "ios": "https://dc.lft.to/lastmile_qr_scan"}, "lat": 38.89880633333333, "lon": -77.04889283333333, "fusion_lat": 0.0}, {"is_reserved": 0, "bike_id": "a0b597afd8f707cdc6c4a3545f16a00b", "type": "electric_scooter", "name": "a0b597afd8f707cdc6c4a3545f16a00b", "is_disabled": 0, "fusion_lon": 0.0, "rental_uris": {"android": "https://dc.lft.to/lastmile_qr_scan", "ios": "https://dc.lft.to/lastmile_qr_scan"}, "lat": 38.898849166666665, "lon": -77.00908916666667, "fusion_lat": 0.0}, {"is_reserved": 0, "bike_id": "ce49990d978496369a7003a7d85413a9", "type": "electric_scooter", "name": "ce49990d978496369a7003a7d85413a9", "is_disabled": 0, "fusion_lon": 0.0, "rental_uris": {"android": "https://dc.lft.to/lastmile_qr_scan", "ios": "https://dc.lft.to/lastmile_qr_scan"}, "lat": 38.8956405, "lon": -77.01512533333333, "fusion_lat": 0.0}, {"is_reserved": 0, "bike_id": "1a4366c80e85a5b9932d165194c37455", "type": "electric_scooter", "name": "1a4366c80e85a5b9932d165194c37455", "is_disabled": 0, "fusion_lon": 0.0, "rental_uris": {"android": "https://dc.lft.to/lastmile_qr_scan", "ios": "https://dc.lft.to/lastmile_qr_scan"}, "lat": 38.95275016666667, "lon": -77.0237935, "fusion_lat": 0.0}, {"is_reserved": 0, "bike_id": "6b833f21049dd54ead96f0e19d9c950c", "type": "electric_scooter", "name": "6b833f21049dd54ead96f0e19d9c950c", "is_disabled": 0, "fusion_lon": 0.0, "rental_uris": {"android": "https://dc.lft.to/lastmile_qr_scan", "ios": "https://dc.lft.to/lastmile_qr_scan"}, "lat": 38.90593, "lon": -77.0122175, "fusion_lat": 0.0}, {"is_reserved": 0, "bike_id": "2ffba324c0cf8f15d88414128c146896", "type": "electric_scooter", "name": "2ffba324c0cf8f15d88414128c146896", "is_disabled": 0, "fusion_lon": 0.0, "rental_uris": {"android": "https://dc.lft.to/lastmile_qr_scan", "ios": "https://dc.lft.to/lastmile_qr_scan"}, "lat": 38.92329183333333, "lon": -77.05675766666667, "fusion_lat": 0.0}, {"is_reserved": 0, "bike_id": "d633ac5a668c3bfa88efe8a3fe358135", "type": "electric_bike", "name": "d633ac5a668c3bfa88efe8a3fe358135", "is_disabled": 0, "fusion_lon": 0.0, "rental_uris": {"android": "https://dc.lft.to/lastmile_qr_scan", "ios": "https://dc.lft.to/lastmile_qr_scan"}, "lat": 38.89418883333333, "lon": -76.999841, "fusion_lat": 0.0}, {"is_reserved": 0, "bike_id": "d75e4b0e60df5c1a060245e2a1b0dd5b", "type": "electric_scooter", "name": "d75e4b0e60df5c1a060245e2a1b0dd5b", "is_disabled": 0, "fusion_lon": 0.0, "rental_uris": {"android": "https://dc.lft.to/lastmile_qr_scan", "ios": "https://dc.lft.to/lastmile_qr_scan"}, "lat": 38.9251415, "lon": -77.02359016666666, "fusion_lat": 0.0}, {"is_reserved": 0, "bike_id": "6f98019af578982580dd85707009d853", "type": "electric_scooter", "name": "6f98019af578982580dd85707009d853", "is_disabled": 0, "fusion_lon": 0.0, "rental_uris": {"android": "https://dc.lft.to/lastmile_qr_scan", "ios": "https://dc.lft.to/lastmile_qr_scan"}, "lat": 38.932061166666664, "lon": -77.04124516666667, "fusion_lat": 0.0}, {"is_reserved": 0, "bike_id": "2f37e91177e478bb8013af47ed37bfe0", "type": "electric_scooter", "name": "2f37e91177e478bb8013af47ed37bfe0", "is_disabled": 0, "fusion_lon": 0.0, "rental_uris": {"android": "https://dc.lft.to/lastmile_qr_scan", "ios": "https://dc.lft.to/lastmile_qr_scan"}, "lat": 38.922383333333336, "lon": -77.02110716666667, "fusion_lat": 0.0}, {"is_reserved": 0, "bike_id": "ffe5c4679d10e737d3811ab9dc97fcb1", "type": "electric_scooter", "name": "ffe5c4679d10e737d3811ab9dc97fcb1", "is_disabled": 0, "fusion_lon": 0.0, "rental_uris": {"android": "https://dc.lft.to/lastmile_qr_scan", "ios": "https://dc.lft.to/lastmile_qr_scan"}, "lat": 38.901515833333335, "lon": -77.041607, "fusion_lat": 0.0}, {"is_reserved": 0, "bike_id": "2d387cee1875b867599638c916d18401", "type": "electric_scooter", "name": "2d387cee1875b867599638c916d18401", "is_disabled": 0, "fusion_lon": 0.0, "rental_uris": {"android": "https://dc.lft.to/lastmile_qr_scan", "ios": "https://dc.lft.to/lastmile_qr_scan"}, "lat": 38.89188216666667, "lon": -77.01531666666666, "fusion_lat": 0.0}, {"is_reserved": 0, "bike_id": "93961198b47a70b3f7d7e2613e099638", "type": "electric_scooter", "name": "93961198b47a70b3f7d7e2613e099638", "is_disabled": 0, "fusion_lon": 0.0, "rental_uris": {"android": "https://dc.lft.to/lastmile_qr_scan", "ios": "https://dc.lft.to/lastmile_qr_scan"}, "lat": 38.91125533333334, "lon": -77.0378885, "fusion_lat": 0.0}, {"is_reserved": 0, "bike_id": "ff4f14c339c71789c25ca4148735ee9c", "type": "electric_scooter", "name": "ff4f14c339c71789c25ca4148735ee9c", "is_disabled": 0, "fusion_lon": 0.0, "rental_uris": {"android": "https://dc.lft.to/lastmile_qr_scan", "ios": "https://dc.lft.to/lastmile_qr_scan"}, "lat": 38.92135916666667, "lon": -77.04245666666667, "fusion_lat": 0.0}, {"is_reserved": 0, "bike_id": "96ea5dc87587499d93c1658efce9846a", "type": "electric_scooter", "name": "96ea5dc87587499d93c1658efce9846a", "is_disabled": 0, "fusion_lon": 0.0, "rental_uris": {"android": "https://dc.lft.to/lastmile_qr_scan", "ios": "https://dc.lft.to/lastmile_qr_scan"}, "lat": 38.924467666666665, "lon": -77.04250766666667, "fusion_lat": 0.0}, {"is_reserved": 0, "bike_id": "3d8ddec997956935949b01685710f313", "type": "electric_scooter", "name": "3d8ddec997956935949b01685710f313", "is_disabled": 0, "fusion_lon": 0.0, "rental_uris": {"android": "https://dc.lft.to/lastmile_qr_scan", "ios": "https://dc.lft.to/lastmile_qr_scan"}, "lat": 38.902466, "lon": -77.00202916666667, "fusion_lat": 0.0}, {"is_reserved": 0, "bike_id": "29de2585a0b2d2d0cbc5dcfe9ab1b0c6", "type": "electric_scooter", "name": "29de2585a0b2d2d0cbc5dcfe9ab1b0c6", "is_disabled": 0, "fusion_lon": 0.0, "rental_uris": {"android": "https://dc.lft.to/lastmile_qr_scan", "ios": "https://dc.lft.to/lastmile_qr_scan"}, "lat": 38.915243, "lon": -77.0346505, "fusion_lat": 0.0}, {"is_reserved": 0, "bike_id": "117c3ff91aeb2fa917559788f2783b8f", "type": "electric_scooter", "name": "117c3ff91aeb2fa917559788f2783b8f", "is_disabled": 0, "fusion_lon": 0.0, "rental_uris": {"android": "https://dc.lft.to/lastmile_qr_scan", "ios": "https://dc.lft.to/lastmile_qr_scan"}, "lat": 38.923647333333335, "lon": -77.05041033333333, "fusion_lat": 0.0}, {"is_reserved": 0, "bike_id": "b6633c5b5abb21bc053a1c492ad4cad0", "type": "electric_scooter", "name": "b6633c5b5abb21bc053a1c492ad4cad0", "is_disabled": 0, "fusion_lon": 0.0, "rental_uris": {"android": "https://dc.lft.to/lastmile_qr_scan", "ios": "https://dc.lft.to/lastmile_qr_scan"}, "lat": 38.895001, "lon": -76.9487335, "fusion_lat": 0.0}, {"is_reserved": 0, "bike_id": "bd8ee31cb98dd53b3490b5c0c3e25062", "type": "electric_bike", "name": "bd8ee31cb98dd53b3490b5c0c3e25062", "is_disabled": 0, "fusion_lon": 0.0, "rental_uris": {"android": "https://dc.lft.to/lastmile_qr_scan", "ios": "https://dc.lft.to/lastmile_qr_scan"}, "lat": 38.8652325, "lon": -76.973377, "fusion_lat": 0.0}, {"is_reserved": 0, "bike_id": "0ba5faf1a044dc15aba63f6348dbd62c", "type": "electric_scooter", "name": "0ba5faf1a044dc15aba63f6348dbd62c", "is_disabled": 0, "fusion_lon": 0.0, "rental_uris": {"android": "https://dc.lft.to/lastmile_qr_scan", "ios": "https://dc.lft.to/lastmile_qr_scan"}, "lat": 38.941904, "lon": -77.02409433333334, "fusion_lat": 0.0}, {"is_reserved": 0, "bike_id": "311ed0bbf0521c74d3b75fde72deffb3", "type": "electric_bike", "name": "311ed0bbf0521c74d3b75fde72deffb3", "is_disabled": 0, "fusion_lon": 0.0, "rental_uris": {"android": "https://dc.lft.to/lastmile_qr_scan", "ios": "https://dc.lft.to/lastmile_qr_scan"}, "lat": 38.877433, "lon": -77.14871916666667, "fusion_lat": 0.0}, {"is_reserved": 0, "bike_id": "c5291bf61602e55fa56b1f2945c663bd", "type": "electric_scooter", "name": "c5291bf61602e55fa56b1f2945c663bd", "is_disabled": 0, "fusion_lon": 0.0, "rental_uris": {"android": "https://dc.lft.to/lastmile_qr_scan", "ios": "https://dc.lft.to/lastmile_qr_scan"}, "lat": 38.90765733333333, "lon": -77.01698116666667, "fusion_lat": 0.0}, {"is_reserved": 0, "bike_id": "1015b9c973cdb542797bbd4cd4cb18f3", "type": "electric_scooter", "name": "1015b9c973cdb542797bbd4cd4cb18f3", "is_disabled": 0, "fusion_lon": 0.0, "rental_uris": {"android": "https://dc.lft.to/lastmile_qr_scan", "ios": "https://dc.lft.to/lastmile_qr_scan"}, "lat": 38.9176755, "lon": -77.04416466666666, "fusion_lat": 0.0}, {"is_reserved": 0, "bike_id": "1d0002f535e8429faa05667e90de6802", "type": "electric_scooter", "name": "1d0002f535e8429faa05667e90de6802", "is_disabled": 0, "fusion_lon": 0.0, "rental_uris": {"android": "https://dc.lft.to/lastmile_qr_scan", "ios": "https://dc.lft.to/lastmile_qr_scan"}, "lat": 38.90353616666667, "lon": -77.00738683333333, "fusion_lat": 0.0}, {"is_reserved": 0, "bike_id": "acec4a74c8d404f3a4ca849ddf8a3553", "type": "electric_scooter", "name": "acec4a74c8d404f3a4ca849ddf8a3553", "is_disabled": 0, "fusion_lon": 0.0, "rental_uris": {"android": "https://dc.lft.to/lastmile_qr_scan", "ios": "https://dc.lft.to/lastmile_qr_scan"}, "lat": 38.899608666666666, "lon": -76.9857265, "fusion_lat": 0.0}, {"is_reserved": 0, "bike_id": "720bf57127078f9159dae33869e8ede2", "type": "electric_scooter", "name": "720bf57127078f9159dae33869e8ede2", "is_disabled": 0, "fusion_lon": 0.0, "rental_uris": {"android": "https://dc.lft.to/lastmile_qr_scan", "ios": "https://dc.lft.to/lastmile_qr_scan"}, "lat": 38.91934533333333, "lon": -77.04504, "fusion_lat": 0.0}, {"is_reserved": 0, "bike_id": "1e17c50c3db70f413d9acfa460c4b35b", "type": "electric_scooter", "name": "1e17c50c3db70f413d9acfa460c4b35b", "is_disabled": 0, "fusion_lon": 0.0, "rental_uris": {"android": "https://dc.lft.to/lastmile_qr_scan", "ios": "https://dc.lft.to/lastmile_qr_scan"}, "lat": 38.923367999999996, "lon": -77.046307, "fusion_lat": 0.0}, {"is_reserved": 0, "bike_id": "0033d93e59dda2b442b8f251845a9575", "type": "electric_scooter", "name": "0033d93e59dda2b442b8f251845a9575", "is_disabled": 0, "fusion_lon": 0.0, "rental_uris": {"android": "https://dc.lft.to/lastmile_qr_scan", "ios": "https://dc.lft.to/lastmile_qr_scan"}, "lat": 38.900944333333335, "lon": -77.03188866666666, "fusion_lat": 0.0}, {"is_reserved": 0, "bike_id": "a3b20d94411c69199ee6dbcd8fa561c3", "type": "electric_bike", "name": "a3b20d94411c69199ee6dbcd8fa561c3", "is_disabled": 0, "fusion_lon": 0.0, "rental_uris": {"android": "https://dc.lft.to/lastmile_qr_scan", "ios": "https://dc.lft.to/lastmile_qr_scan"}, "lat": 38.83068166666666, "lon": -77.04080433333333, "fusion_lat": 0.0}, {"is_reserved": 0, "bike_id": "07c21b34e94ebdab389efa4c286671f5", "type": "electric_scooter", "name": "07c21b34e94ebdab389efa4c286671f5", "is_disabled": 0, "fusion_lon": 0.0, "rental_uris": {"android": "https://dc.lft.to/lastmile_qr_scan", "ios": "https://dc.lft.to/lastmile_qr_scan"}, "lat": 38.903730833333334, "lon": -76.987161, "fusion_lat": 0.0}, {"is_reserved": 0, "bike_id": "12f55b18871f02194c947397732a0f6d", "type": "electric_scooter", "name": "12f55b18871f02194c947397732a0f6d", "is_disabled": 0, "fusion_lon": 0.0, "rental_uris": {"android": "https://dc.lft.to/lastmile_qr_scan", "ios": "https://dc.lft.to/lastmile_qr_scan"}, "lat": 38.91899216666667, "lon": -77.031168, "fusion_lat": 0.0}, {"is_reserved": 0, "bike_id": "febed54d917e44fdb7b1494ce031060c", "type": "electric_bike", "name": "febed54d917e44fdb7b1494ce031060c", "is_disabled": 0, "fusion_lon": 0.0, "rental_uris": {"android": "https://dc.lft.to/lastmile_qr_scan", "ios": "https://dc.lft.to/lastmile_qr_scan"}, "lat": 38.921152666666664, "lon": -76.98883216666667, "fusion_lat": 0.0}, {"is_reserved": 0, "bike_id": "59cf2182b04364c7c16a4977b45eb379", "type": "electric_scooter", "name": "59cf2182b04364c7c16a4977b45eb379", "is_disabled": 0, "fusion_lon": 0.0, "rental_uris": {"android": "https://dc.lft.to/lastmile_qr_scan", "ios": "https://dc.lft.to/lastmile_qr_scan"}, "lat": 38.931074, "lon": -77.0267245, "fusion_lat": 0.0}, {"is_reserved": 0, "bike_id": "5aa417c791466696a57cef84c3ffe337", "type": "electric_scooter", "name": "5aa417c791466696a57cef84c3ffe337", "is_disabled": 0, "fusion_lon": 0.0, "rental_uris": {"android": "https://dc.lft.to/lastmile_qr_scan", "ios": "https://dc.lft.to/lastmile_qr_scan"}, "lat": 38.887333, "lon": -77.02579416666667, "fusion_lat": 0.0}, {"is_reserved": 0, "bike_id": "bdc06023160c287d367fdc79c6ffeeee", "type": "electric_scooter", "name": "bdc06023160c287d367fdc79c6ffeeee", "is_disabled": 0, "fusion_lon": 0.0, "rental_uris": {"android": "https://dc.lft.to/lastmile_qr_scan", "ios": "https://dc.lft.to/lastmile_qr_scan"}, "lat": 38.90292783333334, "lon": -77.036676, "fusion_lat": 0.0}, {"is_reserved": 0, "bike_id": "ab332d74d1e4112211c8f5e6f3a3eb3a", "type": "electric_scooter", "name": "ab332d74d1e4112211c8f5e6f3a3eb3a", "is_disabled": 0, "fusion_lon": 0.0, "rental_uris": {"android": "https://dc.lft.to/lastmile_qr_scan", "ios": "https://dc.lft.to/lastmile_qr_scan"}, "lat": 38.9011915, "lon": -77.0384125, "fusion_lat": 0.0}, {"is_reserved": 0, "bike_id": "0c16115dcb20c4235290f2d9e97c9985", "type": "electric_scooter", "name": "0c16115dcb20c4235290f2d9e97c9985", "is_disabled": 0, "fusion_lon": 0.0, "rental_uris": {"android": "https://dc.lft.to/lastmile_qr_scan", "ios": "https://dc.lft.to/lastmile_qr_scan"}, "lat": 38.922369333333336, "lon": -77.04438833333333, "fusion_lat": 0.0}, {"is_reserved": 0, "bike_id": "0a2bcaa9198c592a81abfb41bfc8e6d4", "type": "electric_scooter", "name": "0a2bcaa9198c592a81abfb41bfc8e6d4", "is_disabled": 0, "fusion_lon": 0.0, "rental_uris": {"android": "https://dc.lft.to/lastmile_qr_scan", "ios": "https://dc.lft.to/lastmile_qr_scan"}, "lat": 38.902897, "lon": -77.03662, "fusion_lat": 0.0}, {"is_reserved": 0, "bike_id": "f8bfca9c3dc76048a0ac1dc7f62c7d5e", "type": "electric_bike", "name": "f8bfca9c3dc76048a0ac1dc7f62c7d5e", "is_disabled": 0, "fusion_lon": 0.0, "rental_uris": {"android": "https://dc.lft.to/lastmile_qr_scan", "ios": "https://dc.lft.to/lastmile_qr_scan"}, "lat": 38.909081, "lon": -77.09000266666666, "fusion_lat": 0.0}, {"is_reserved": 0, "bike_id": "fb74629ec954eca5e009397b3b0d35fb", "type": "electric_scooter", "name": "fb74629ec954eca5e009397b3b0d35fb", "is_disabled": 0, "fusion_lon": 0.0, "rental_uris": {"android": "https://dc.lft.to/lastmile_qr_scan", "ios": "https://dc.lft.to/lastmile_qr_scan"}, "lat": 38.920191, "lon": -77.0713915, "fusion_lat": 0.0}, {"is_reserved": 0, "bike_id": "58f8839c2b1c3c2bffaa7b57cc1edf99", "type": "electric_scooter", "name": "58f8839c2b1c3c2bffaa7b57cc1edf99", "is_disabled": 0, "fusion_lon": 0.0, "rental_uris": {"android": "https://dc.lft.to/lastmile_qr_scan", "ios": "https://dc.lft.to/lastmile_qr_scan"}, "lat": 38.89873883333333, "lon": -76.94665283333333, "fusion_lat": 0.0}, {"is_reserved": 0, "bike_id": "2e5daf4ce7fa484f6d7f80441404b6f9", "type": "electric_scooter", "name": "2e5daf4ce7fa484f6d7f80441404b6f9", "is_disabled": 0, "fusion_lon": 0.0, "rental_uris": {"android": "https://dc.lft.to/lastmile_qr_scan", "ios": "https://dc.lft.to/lastmile_qr_scan"}, "lat": 38.91040566666667, "lon": -77.03246666666666, "fusion_lat": 0.0}, {"is_reserved": 0, "bike_id": "04f5bc74360f918c28727920540833f5", "type": "electric_bike", "name": "04f5bc74360f918c28727920540833f5", "is_disabled": 0, "fusion_lon": 0.0, "rental_uris": {"android": "https://dc.lft.to/lastmile_qr_scan", "ios": "https://dc.lft.to/lastmile_qr_scan"}, "lat": 38.89970666666667, "lon": -77.04963333333333, "fusion_lat": 0.0}, {"is_reserved": 0, "bike_id": "41106a012137a89f2e17271e2da910aa", "type": "electric_scooter", "name": "41106a012137a89f2e17271e2da910aa", "is_disabled": 0, "fusion_lon": 0.0, "rental_uris": {"android": "https://dc.lft.to/lastmile_qr_scan", "ios": "https://dc.lft.to/lastmile_qr_scan"}, "lat": 38.919705666666665, "lon": -77.03853, "fusion_lat": 0.0}, {"is_reserved": 0, "bike_id": "aaae95f47fd3950874854ff855afb62c", "type": "electric_scooter", "name": "aaae95f47fd3950874854ff855afb62c", "is_disabled": 0, "fusion_lon": 0.0, "rental_uris": {"android": "https://dc.lft.to/lastmile_qr_scan", "ios": "https://dc.lft.to/lastmile_qr_scan"}, "lat": 38.910165, "lon": -76.99389533333333, "fusion_lat": 0.0}, {"is_reserved": 0, "bike_id": "0af21fd6805f1f15c81e326d9c5dcebf", "type": "electric_scooter", "name": "0af21fd6805f1f15c81e326d9c5dcebf", "is_disabled": 0, "fusion_lon": 0.0, "rental_uris": {"android": "https://dc.lft.to/lastmile_qr_scan", "ios": "https://dc.lft.to/lastmile_qr_scan"}, "lat": 38.962205, "lon": -77.02781533333334, "fusion_lat": 0.0}, {"is_reserved": 0, "bike_id": "2d4753b2464729ee55f9512a41475517", "type": "electric_scooter", "name": "2d4753b2464729ee55f9512a41475517", "is_disabled": 0, "fusion_lon": 0.0, "rental_uris": {"android": "https://dc.lft.to/lastmile_qr_scan", "ios": "https://dc.lft.to/lastmile_qr_scan"}, "lat": 38.897575833333335, "lon": -76.94181366666666, "fusion_lat": 0.0}, {"is_reserved": 0, "bike_id": "7091789fec45f288d53a55db9fba711d", "type": "electric_scooter", "name": "7091789fec45f288d53a55db9fba711d", "is_disabled": 0, "fusion_lon": 0.0, "rental_uris": {"android": "https://dc.lft.to/lastmile_qr_scan", "ios": "https://dc.lft.to/lastmile_qr_scan"}, "lat": 38.899834, "lon": -77.04655766666667, "fusion_lat": 0.0}, {"is_reserved": 0, "bike_id": "0707b34e3c70a8a5d404a422e22f222a", "type": "electric_scooter", "name": "0707b34e3c70a8a5d404a422e22f222a", "is_disabled": 0, "fusion_lon": 0.0, "rental_uris": {"android": "https://dc.lft.to/lastmile_qr_scan", "ios": "https://dc.lft.to/lastmile_qr_scan"}, "lat": 38.883402, "lon": -77.01602716666666, "fusion_lat": 0.0}, {"is_reserved": 0, "bike_id": "1b75fa637a82fb109d766c2bfb0aa86b", "type": "electric_scooter", "name": "1b75fa637a82fb109d766c2bfb0aa86b", "is_disabled": 0, "fusion_lon": 0.0, "rental_uris": {"android": "https://dc.lft.to/lastmile_qr_scan", "ios": "https://dc.lft.to/lastmile_qr_scan"}, "lat": 38.905127, "lon": -77.03058183333333, "fusion_lat": 0.0}, {"is_reserved": 0, "bike_id": "600060974bb96bd9344e2c52d074c8e3", "type": "electric_bike", "name": "600060974bb96bd9344e2c52d074c8e3", "is_disabled": 0, "fusion_lon": 0.0, "rental_uris": {"android": "https://dc.lft.to/lastmile_qr_scan", "ios": "https://dc.lft.to/lastmile_qr_scan"}, "lat": 38.990686, "lon": -77.100294, "fusion_lat": 0.0}, {"is_reserved": 0, "bike_id": "5ec1a61d56d57fd887ddbaf966d4c16b", "type": "electric_scooter", "name": "5ec1a61d56d57fd887ddbaf966d4c16b", "is_disabled": 0, "fusion_lon": 0.0, "rental_uris": {"android": "https://dc.lft.to/lastmile_qr_scan", "ios": "https://dc.lft.to/lastmile_qr_scan"}, "lat": 38.900145, "lon": -77.011906, "fusion_lat": 0.0}, {"is_reserved": 0, "bike_id": "4993a13e97c05eb954ee7ef032812a90", "type": "electric_scooter", "name": "4993a13e97c05eb954ee7ef032812a90", "is_disabled": 0, "fusion_lon": 0.0, "rental_uris": {"android": "https://dc.lft.to/lastmile_qr_scan", "ios": "https://dc.lft.to/lastmile_qr_scan"}, "lat": 38.893981333333336, "lon": -76.978198, "fusion_lat": 0.0}, {"is_reserved": 0, "bike_id": "59b8727cde2765bf223ba63433b5f8e6", "type": "electric_scooter", "name": "59b8727cde2765bf223ba63433b5f8e6", "is_disabled": 0, "fusion_lon": 0.0, "rental_uris": {"android": "https://dc.lft.to/lastmile_qr_scan", "ios": "https://dc.lft.to/lastmile_qr_scan"}, "lat": 38.922501, "lon": -77.03348683333333, "fusion_lat": 0.0}, {"is_reserved": 0, "bike_id": "8680babeff68b46d2937a0ae37b60976", "type": "electric_scooter", "name": "8680babeff68b46d2937a0ae37b60976", "is_disabled": 0, "fusion_lon": 0.0, "rental_uris": {"android": "https://dc.lft.to/lastmile_qr_scan", "ios": "https://dc.lft.to/lastmile_qr_scan"}, "lat": 38.91929733333333, "lon": -77.0196655, "fusion_lat": 0.0}, {"is_reserved": 0, "bike_id": "acd457145947d6f870aa2b798f0bb3de", "type": "electric_scooter", "name": "acd457145947d6f870aa2b798f0bb3de", "is_disabled": 0, "fusion_lon": 0.0, "rental_uris": {"android": "https://dc.lft.to/lastmile_qr_scan", "ios": "https://dc.lft.to/lastmile_qr_scan"}, "lat": 38.923199333333336, "lon": -77.038026, "fusion_lat": 0.0}, {"is_reserved": 0, "bike_id": "bf57ad05b9fcc462f46195b32ac740ba", "type": "electric_scooter", "name": "bf57ad05b9fcc462f46195b32ac740ba", "is_disabled": 0, "fusion_lon": 0.0, "rental_uris": {"android": "https://dc.lft.to/lastmile_qr_scan", "ios": "https://dc.lft.to/lastmile_qr_scan"}, "lat": 38.92095616666667, "lon": -77.0221875, "fusion_lat": 0.0}, {"is_reserved": 0, "bike_id": "0bae76a91b81ffe171281dafa6343d04", "type": "electric_bike", "name": "0bae76a91b81ffe171281dafa6343d04", "is_disabled": 0, "fusion_lon": 0.0, "rental_uris": {"android": "https://dc.lft.to/lastmile_qr_scan", "ios": "https://dc.lft.to/lastmile_qr_scan"}, "lat": 38.809847500000004, "lon": -77.07661433333334, "fusion_lat": 0.0}, {"is_reserved": 0, "bike_id": "6f4d0f1a17f918b91775eed8a7421bf3", "type": "electric_scooter", "name": "6f4d0f1a17f918b91775eed8a7421bf3", "is_disabled": 0, "fusion_lon": 0.0, "rental_uris": {"android": "https://dc.lft.to/lastmile_qr_scan", "ios": "https://dc.lft.to/lastmile_qr_scan"}, "lat": 38.9247655, "lon": -77.02996666666667, "fusion_lat": 0.0}, {"is_reserved": 0, "bike_id": "4cc2c1a92a6c49df1ca3df156f977c84", "type": "electric_scooter", "name": "4cc2c1a92a6c49df1ca3df156f977c84", "is_disabled": 0, "fusion_lon": 0.0, "rental_uris": {"android": "https://dc.lft.to/lastmile_qr_scan", "ios": "https://dc.lft.to/lastmile_qr_scan"}, "lat": 38.8768185, "lon": -77.00114533333333, "fusion_lat": 0.0}, {"is_reserved": 0, "bike_id": "b78a4128f8daa8d190b1dcf7f714b171", "type": "electric_scooter", "name": "b78a4128f8daa8d190b1dcf7f714b171", "is_disabled": 0, "fusion_lon": 0.0, "rental_uris": {"android": "https://dc.lft.to/lastmile_qr_scan", "ios": "https://dc.lft.to/lastmile_qr_scan"}, "lat": 38.92559116666666, "lon": -77.03762016666667, "fusion_lat": 0.0}, {"is_reserved": 0, "bike_id": "448c43d92cd71d31b5749764cd032f0a", "type": "electric_scooter", "name": "448c43d92cd71d31b5749764cd032f0a", "is_disabled": 0, "fusion_lon": 0.0, "rental_uris": {"android": "https://dc.lft.to/lastmile_qr_scan", "ios": "https://dc.lft.to/lastmile_qr_scan"}, "lat": 38.931330833333334, "lon": -77.03536833333334, "fusion_lat": 0.0}, {"is_reserved": 0, "bike_id": "fe05baca613cb094142bd5409d81be37", "type": "electric_scooter", "name": "fe05baca613cb094142bd5409d81be37", "is_disabled": 0, "fusion_lon": 0.0, "rental_uris": {"android": "https://dc.lft.to/lastmile_qr_scan", "ios": "https://dc.lft.to/lastmile_qr_scan"}, "lat": 38.91882233333333, "lon": -77.04518633333333, "fusion_lat": 0.0}, {"is_reserved": 0, "bike_id": "50089f3227d321d08a6f9fd71fbaee2c", "type": "electric_scooter", "name": "50089f3227d321d08a6f9fd71fbaee2c", "is_disabled": 0, "fusion_lon": 0.0, "rental_uris": {"android": "https://dc.lft.to/lastmile_qr_scan", "ios": "https://dc.lft.to/lastmile_qr_scan"}, "lat": 38.903983833333335, "lon": -77.06843533333333, "fusion_lat": 0.0}, {"is_reserved": 0, "bike_id": "e310377d28a71b7689201c494e13a931", "type": "electric_scooter", "name": "e310377d28a71b7689201c494e13a931", "is_disabled": 0, "fusion_lon": 0.0, "rental_uris": {"android": "https://dc.lft.to/lastmile_qr_scan", "ios": "https://dc.lft.to/lastmile_qr_scan"}, "lat": 38.916470333333336, "lon": -77.02876283333333, "fusion_lat": 0.0}, {"is_reserved": 0, "bike_id": "80d11ffc5f2ddf0ba04b0c81a0c6bb66", "type": "electric_bike", "name": "80d11ffc5f2ddf0ba04b0c81a0c6bb66", "is_disabled": 0, "fusion_lon": 0.0, "rental_uris": {"android": "https://dc.lft.to/lastmile_qr_scan", "ios": "https://dc.lft.to/lastmile_qr_scan"}, "lat": 38.89824083333333, "lon": -76.99081766666667, "fusion_lat": 0.0}, {"is_reserved": 0, "bike_id": "d010466c93b6ddcebe44be4bc31c979e", "type": "electric_scooter", "name": "d010466c93b6ddcebe44be4bc31c979e", "is_disabled": 0, "fusion_lon": 0.0, "rental_uris": {"android": "https://dc.lft.to/lastmile_qr_scan", "ios": "https://dc.lft.to/lastmile_qr_scan"}, "lat": 38.901555333333334, "lon": -77.041632, "fusion_lat": 0.0}, {"is_reserved": 0, "bike_id": "fa3d1361e25f0fb09517bcd700759615", "type": "electric_scooter", "name": "fa3d1361e25f0fb09517bcd700759615", "is_disabled": 0, "fusion_lon": 0.0, "rental_uris": {"android": "https://dc.lft.to/lastmile_qr_scan", "ios": "https://dc.lft.to/lastmile_qr_scan"}, "lat": 38.924468833333336, "lon": -77.03319166666667, "fusion_lat": 0.0}, {"is_reserved": 0, "bike_id": "e14a1c8b3eb6e639e7121b88e890b11e", "type": "electric_scooter", "name": "e14a1c8b3eb6e639e7121b88e890b11e", "is_disabled": 0, "fusion_lon": 0.0, "rental_uris": {"android": "https://dc.lft.to/lastmile_qr_scan", "ios": "https://dc.lft.to/lastmile_qr_scan"}, "lat": 38.90660166666667, "lon": -77.01109666666666, "fusion_lat": 0.0}, {"is_reserved": 0, "bike_id": "bfc342ad133389cc44f8c9a80ef56e05", "type": "electric_bike", "name": "bfc342ad133389cc44f8c9a80ef56e05", "is_disabled": 0, "fusion_lon": 0.0, "rental_uris": {"android": "https://dc.lft.to/lastmile_qr_scan", "ios": "https://dc.lft.to/lastmile_qr_scan"}, "lat": 38.950759166666664, "lon": -76.99597833333333, "fusion_lat": 0.0}, {"is_reserved": 0, "bike_id": "3803a303601bc54bdf1a0db3e2f0f4c7", "type": "electric_scooter", "name": "3803a303601bc54bdf1a0db3e2f0f4c7", "is_disabled": 0, "fusion_lon": 0.0, "rental_uris": {"android": "https://dc.lft.to/lastmile_qr_scan", "ios": "https://dc.lft.to/lastmile_qr_scan"}, "lat": 38.920838833333335, "lon": -77.0245865, "fusion_lat": 0.0}, {"is_reserved": 0, "bike_id": "376c708a2df8217d0f2907aa0b8b53b8", "type": "electric_scooter", "name": "376c708a2df8217d0f2907aa0b8b53b8", "is_disabled": 0, "fusion_lon": 0.0, "rental_uris": {"android": "https://dc.lft.to/lastmile_qr_scan", "ios": "https://dc.lft.to/lastmile_qr_scan"}, "lat": 38.90627716666667, "lon": -77.00592716666667, "fusion_lat": 0.0},