{"data": {"bikes": [{"fusion_lat": 0.0, "name": "0390830346e6089c49229f1c61627e95", "is_disabled": 0, "rental_uris": {"android": "https://dc.lft.to/lastmile_qr_scan", "ios": "https://dc.lft.to/lastmile_qr_scan"}, "fusion_lon": 0.0, "lat": 38.92989133333333, "bike_id": "0390830346e6089c49229f1c61627e95", "type": "electric_scooter", "is_reserved": 0, "lon": -77.032288}, {"fusion_lat": 0.0, "name": "892fc92833ed6b9eb11a9bfff382a873", "is_disabled": 0, "rental_uris": {"android": "https://dc.lft.to/lastmile_qr_scan", "ios": "https://dc.lft.to/lastmile_qr_scan"}, "fusion_lon": 0.0, "lat": 38.92581583333333, "bike_id": "892fc92833ed6b9eb11a9bfff382a873", "type": "electric_scooter", "is_reserved": 0, "lon": -77.027279}, {"fusion_lat": 0.0, "name": "a812d8f945a1f65654f2055e8f6a2d4c", "is_disabled": 0, "rental_uris": {"android": "https://dc.lft.to/lastmile_qr_scan", "ios": "https://dc.lft.to/lastmile_qr_scan"}, "fusion_lon": 0.0, "lat": 38.9019045, "bike_id": "a812d8f945a1f65654f2055e8f6a2d4c", "type": "electric_scooter", "is_reserved": 0, "lon": -77.05910516666667}, {"fusion_lat": 0.0, "name": "1c09bd662e90728e0e8840ec498c9060", "is_disabled": 0, "rental_uris": {"android": "https://dc.lft.to/lastmile_qr_scan", "ios": "https://dc.lft.to/lastmile_qr_scan"}, "fusion_lon": 0.0, "lat": 38.91552766666667, "bike_id": "1c09bd662e90728e0e8840ec498c9060", "type": "electric_scooter", "is_reserved": 0, "lon": -77.03239083333334}, {"fusion_lat": 0.0, "name": "d1c387577817b82167ce28543979c5b8", "is_disabled": 0, "rental_uris": {"android": "https://dc.lft.to/lastmile_qr_scan", "ios": "https://dc.lft.to/lastmile_qr_scan"}, "fusion_lon": 0.0, "lat": 38.923687666666666, "bike_id": "d1c387577817b82167ce28543979c5b8", "type": "electric_scooter", "is_reserved": 0, "lon": -77.0814725}, {"fusion_lat": 0.0, "name": "14fca0e54bcdffd78c8e095c404fcfcd", "is_disabled": 0, "rental_uris": {"android": "https://dc.lft.to/lastmile_qr_scan", "ios": "https://dc.lft.to/lastmile_qr_scan"}, "fusion_lon": 0.0, "lat": 38.961326666666665, "bike_id": "14fca0e54bcdffd78c8e095c404fcfcd", "type": "electric_scooter", "is_reserved": 0, "lon": -77.0278775}, {"fusion_lat": 0.0, "name": "a4ad2b11ef29fda1b08b090e4122b9cd", "is_disabled": 0, "rental_uris": {"android": "https://dc.lft.to/lastmile_qr_scan", "ios": "https://dc.lft.to/lastmile_qr_scan"}, "fusion_lon": 0.0, "lat": 38.92064633333333, "bike_id": "a4ad2b11ef29fda1b08b090e4122b9cd", "type": "electric_scooter", "is_reserved": 0, "lon": -77.02711133333334}, {"fusion_lat": 0.0, "name": "2e8cffab3a840a1f7dd088c66f964ab9", "is_disabled": 0, "rental_uris": {"android": "https://dc.lft.to/lastmile_qr_scan", "ios": "https://dc.lft.to/lastmile_qr_scan"}, "fusion_lon": 0.0, "lat": 38.900297, "bike_id": "2e8cffab3a840a1f7dd088c66f964ab9", "type": "electric_scooter", "is_reserved": 0, "lon": -76.99131983333334}, {"fusion_lat": 0.0, "name": "2379b32c07723e03f870ccc8016f4983", "is_disabled": 0, "rental_uris": {"android": "https://dc.lft.to/lastmile_qr_scan", "ios": "https://dc.lft.to/lastmile_qr_scan"}, "fusion_lon": 0.0, "lat": 38.91672466666667, "bike_id": "2379b32c07723e03f870ccc8016f4983", "type": "electric_scooter", "is_reserved": 0, "lon": -77.022765}, {"fusion_lat": 0.0, "name": "dc3d4f158ada55c8ee96398fc4c39567", "is_disabled": 0, "rental_uris": {"android": "https://dc.lft.to/lastmile_qr_scan", "ios": "https://dc.lft.to/lastmile_qr_scan"}, "fusion_lon": 0.0, "lat": 38.922961, "bike_id": "dc3d4f158ada55c8ee96398fc4c39567", "type": "electric_scooter", "is_reserved": 0, "lon": -76.99420083333334}, {"fusion_lat": 0.0, "name": "bc767b96583a460f4fa0244e09e7ac7e", "is_disabled": 0, "rental_uris": {"android": "https://dc.lft.to/lastmile_qr_scan", "ios": "https://dc.lft.to/lastmile_qr_scan"}, "fusion_lon": 0.0, "lat": 38.87685116666667, "bike_id": "bc767b96583a460f4fa0244e09e7ac7e", "type": "electric_scooter", "is_reserved": 0, "lon": -77.017548}, {"fusion_lat": 0.0, "name": "46b5b60eeac642675a70c935e7a9be65", "is_disabled": 0, "rental_uris": {"android": "https://dc.lft.to/lastmile_qr_scan", "ios": "https://dc.lft.to/lastmile_qr_scan"}, "fusion_lon": 0.0, "lat": 38.889622333333335, "bike_id": "46b5b60eeac642675a70c935e7a9be65", "type": "electric_scooter", "is_reserved": 0, "lon": -77.01502516666666}, {"fusion_lat": 0.0, "name": "de7afefe2e3c41b6ea1b7de2f487d63b", "is_disabled": 0, "rental_uris": {"android": "https://dc.lft.to/lastmile_qr_scan", "ios": "https://dc.lft.to/lastmile_qr_scan"}, "fusion_lon": 0.0, "lat": 38.89006766666667, "bike_id": "de7afefe2e3c41b6ea1b7de2f487d63b", "type": "electric_scooter", "is_reserved": 0, "lon": -76.9373795}, {"fusion_lat": 0.0, "name": "2954ebcd1d379ce764708e74b00889de", "is_disabled": 0, "rental_uris": {"android": "https://dc.lft.to/lastmile_qr_scan", "ios": "https://dc.lft.to/lastmile_qr_scan"}, "fusion_lon": 0.0, "lat": 38.8847315, "bike_id": "2954ebcd1d379ce764708e74b00889de", "type": "electric_scooter", "is_reserved": 0, "lon": -77.0243265}, {"fusion_lat": 0.0, "name": "927ea9c7f2e7811eac87c816e83ffa3e", "is_disabled": 0, "rental_uris": {"android": "https://dc.lft.to/lastmile_qr_scan", "ios": "https://dc.lft.to/lastmile_qr_scan"}, "fusion_lon": 0.0, "lat": 38.91341583333333, "bike_id": "927ea9c7f2e7811eac87c816e83ffa3e", "type": "electric_scooter", "is_reserved": 0, "lon": -77.00337716666667}, {"fusion_lat": 0.0, "name": "9d1d9824d78519ff5e3a5a3c755a7a47", "is_disabled": 0, "rental_uris": {"android": "https://dc.lft.to/lastmile_qr_scan", "ios": "https://dc.lft.to/lastmile_qr_scan"}, "fusion_lon": 0.0, "lat": 38.924556333333335, "bike_id": "9d1d9824d78519ff5e3a5a3c755a7a47", "type": "electric_scooter", "is_reserved": 0, "lon": -77.02406983333333}, {"fusion_lat": 0.0, "name": "4d1ff9b4f397bbba9354521671331a45", "is_disabled": 0, "rental_uris": {"android": "https://dc.lft.to/lastmile_qr_scan", "ios": "https://dc.lft.to/lastmile_qr_scan"}, "fusion_lon": 0.0, "lat": 38.903835, "bike_id": "4d1ff9b4f397bbba9354521671331a45", "type": "electric_scooter", "is_reserved": 0, "lon": -76.98482883333334}, {"fusion_lat": 0.0, "name": "e771826f5b3709ce9bbf52e77beec478", "is_disabled": 0, "rental_uris": {"android": "https://dc.lft.to/lastmile_qr_scan", "ios": "https://dc.lft.to/lastmile_qr_scan"}, "fusion_lon": 0.0, "lat": 38.90241483333333, "bike_id": "e771826f5b3709ce9bbf52e77beec478", "type": "electric_scooter", "is_reserved": 0, "lon": -77.00760966666667}, {"fusion_lat": 0.0, "name": "0ddac8244c88fe29f95474b97ae769df", "is_disabled": 0, "rental_uris": {"android": "https://dc.lft.to/lastmile_qr_scan", "ios": "https://dc.lft.to/lastmile_qr_scan"}, "fusion_lon": 0.0, "lat": 38.897094833333334, "bike_id": "0ddac8244c88fe29f95474b97ae769df", "type": "electric_scooter", "is_reserved": 0, "lon": -77.02683716666667}, {"fusion_lat": 0.0, "name": "6384905f9c25e8a270f0c6ed8590f8a5", "is_disabled": 0, "rental_uris": {"android": "https://dc.lft.to/lastmile_qr_scan", "ios": "https://dc.lft.to/lastmile_qr_scan"}, "fusion_lon": 0.0, "lat": 38.933678, "bike_id": "6384905f9c25e8a270f0c6ed8590f8a5", "type": "electric_scooter", "is_reserved": 0, "lon": -77.02431566666667}, {"fusion_lat": 0.0, "name": "050e6f228affc3d950401cd04f8f3a51", "is_disabled": 0, "rental_uris": {"android": "https://dc.lft.to/lastmile_qr_scan", "ios": "https://dc.lft.to/lastmile_qr_scan"}, "fusion_lon": 0.0, "lat": 39.0525325, "bike_id": "050e6f228affc3d950401cd04f8f3a51", "type": "electric_bike", "is_reserved": 0, "lon": -77.080623}, {"fusion_lat": 0.0, "name": "56346a1ace89b89d8ff71da99ddb814d", "is_disabled": 0, "rental_uris": {"android": "https://dc.lft.to/lastmile_qr_scan", "ios": "https://dc.lft.to/lastmile_qr_scan"}, "fusion_lon": 0.0, "lat": 38.9351715, "bike_id": "56346a1ace89b89d8ff71da99ddb814d", "type": "electric_scooter", "is_reserved": 0, "lon": -77.07257933333334}, {"fusion_lat": 0.0, "name": "5d5acba09d1b0f622756cfcc9f3743f6", "is_disabled": 0, "rental_uris": {"android": "https://dc.lft.to/lastmile_qr_scan", "ios": "https://dc.lft.to/lastmile_qr_scan"}, "fusion_lon": 0.0, "lat": 38.89851183333333, "bike_id": "5d5acba09d1b0f622756cfcc9f3743f6", "type": "electric_scooter", "is_reserved": 0, "lon": -76.99030783333333}, {"fusion_lat": 0.0, "name": "ea367d8e11c00c55b7646ca56de44b3a", "is_disabled": 0, "rental_uris": {"android": "https://dc.lft.to/lastmile_qr_scan", "ios": "https://dc.lft.to/lastmile_qr_scan"}, "fusion_lon": 0.0, "lat": 38.883353, "bike_id": "ea367d8e11c00c55b7646ca56de44b3a", "type": "electric_scooter", "is_reserved": 0, "lon": -77.01764233333333}, {"fusion_lat": 0.0, "name": "1c5630686611f963877413bfa5239295", "is_disabled": 0, "rental_uris": {"android": "https://dc.lft.to/lastmile_qr_scan", "ios": "https://dc.lft.to/lastmile_qr_scan"}, "fusion_lon": 0.0, "lat": 38.9181695, "bike_id": "1c5630686611f963877413bfa5239295", "type": "electric_scooter", "is_reserved": 0, "lon": -77.03719683333334}, {"fusion_lat": 0.0, "name": "cd76edd4921be4c4c71fd88d5d4ccb7a", "is_disabled": 0, "rental_uris": {"android": "https://dc.lft.to/lastmile_qr_scan", "ios": "https://dc.lft.to/lastmile_qr_scan"}, "fusion_lon": 0.0, "lat": 38.89873166666667, "bike_id": "cd76edd4921be4c4c71fd88d5d4ccb7a", "type": "electric_scooter", "is_reserved": 0, "lon": -76.9318515}, {"fusion_lat": 0.0, "name": "aec19f1b2393d3b5ff8cbdd74ce1c74b", "is_disabled": 0, "rental_uris": {"android": "https://dc.lft.to/lastmile_qr_scan", "ios": "https://dc.lft.to/lastmile_qr_scan"}, "fusion_lon": 0.0, "lat": 38.84754016666667, "bike_id": "aec19f1b2393d3b5ff8cbdd74ce1c74b", "type": "electric_scooter", "is_reserved": 0, "lon": -76.9949945}, {"fusion_lat": 0.0, "name": "c02d137d514d5226c57fdae4a558e450", "is_disabled": 0, "rental_uris": {"android": "https://dc.lft.to/lastmile_qr_scan", "ios": "https://dc.lft.to/lastmile_qr_scan"}, "fusion_lon": 0.0, "lat": 38.912944333333336, "bike_id": "c02d137d514d5226c57fdae4a558e450", "type": "electric_scooter", "is_reserved": 0, "lon": -77.0486425}, {"fusion_lat": 0.0, "name": "993b0fc9b989b6a3f40308555864bc9f", "is_disabled": 0, "rental_uris": {"android": "https://dc.lft.to/lastmile_qr_scan", "ios": "https://dc.lft.to/lastmile_qr_scan"}, "fusion_lon": 0.0, "lat": 38.91949533333333, "bike_id": "993b0fc9b989b6a3f40308555864bc9f", "type": "electric_scooter", "is_reserved": 0, "lon": -77.07090833333334}, {"fusion_lat": 0.0, "name": "489a837f19bf821fa3231831807c9109", "is_disabled": 0, "rental_uris": {"android": "https://dc.lft.to/lastmile_qr_scan", "ios": "https://dc.lft.to/lastmile_qr_scan"}, "fusion_lon": 0.0, "lat": 38.911077, "bike_id": "489a837f19bf821fa3231831807c9109", "type": "electric_scooter", "is_reserved": 0, "lon": -77.02061066666667}, {"fusion_lat": 0.0, "name": "0ffc46721932bf1a051b6bf51158efca", "is_disabled": 0, "rental_uris": {"android": "https://dc.lft.to/lastmile_qr_scan", "ios": "https://dc.lft.to/lastmile_qr_scan"}, "fusion_lon": 0.0, "lat": 38.92559716666667, "bike_id": "0ffc46721932bf1a051b6bf51158efca", "type": "electric_scooter", "is_reserved": 0, "lon": -77.07765083333334}, {"fusion_lat": 0.0, "name": "327d2778fc35a67c0eb27aa23b57671d", "is_disabled": 0, "rental_uris": {"android": "https://dc.lft.to/lastmile_qr_scan", "ios": "https://dc.lft.to/lastmile_qr_scan"}, "fusion_lon": 0.0, "lat": 38.931313333333335, "bike_id": "327d2778fc35a67c0eb27aa23b57671d", "type": "electric_scooter", "is_reserved": 0, "lon": -77.03254233333334}, {"fusion_lat": 0.0, "name": "8575ebb1ca0b3ba71cfb7442303fa17f", "is_disabled": 0, "rental_uris": {"android": "https://dc.lft.to/lastmile_qr_scan", "ios": "https://dc.lft.to/lastmile_qr_scan"}, "fusion_lon": 0.0, "lat": 38.8961555, "bike_id": "8575ebb1ca0b3ba71cfb7442303fa17f", "type": "electric_scooter", "is_reserved": 0, "lon": -77.02270616666667}, {"fusion_lat": 0.0, "name": "8b88f36c093a168d0d6613813d947be6", "is_disabled": 0, "rental_uris": {"android": "https://dc.lft.to/lastmile_qr_scan", "ios": "https://dc.lft.to/lastmile_qr_scan"}, "fusion_lon": 0.0, "lat": 38.819111166666666, "bike_id": "8b88f36c093a168d0d6613813d947be6", "type": "electric_bike", "is_reserved": 0, "lon": -77.126617}, {"fusion_lat": 0.0, "name": "43decdefb347c610fb2b10eff8011e27", "is_disabled": 0, "rental_uris": {"android": "https://dc.lft.to/lastmile_qr_scan", "ios": "https://dc.lft.to/lastmile_qr_scan"}, "fusion_lon": 0.0, "lat": 38.89282716666666, "bike_id": "43decdefb347c610fb2b10eff8011e27", "type": "electric_scooter", "is_reserved": 0, "lon": -76.983102}, {"fusion_lat": 0.0, "name": "185975bfa0fa6d14314fd3072479267a", "is_disabled": 0, "rental_uris": {"android": "https://dc.lft.to/lastmile_qr_scan", "ios": "https://dc.lft.to/lastmile_qr_scan"}, "fusion_lon": 0.0, "lat": 38.918041, "bike_id": "185975bfa0fa6d14314fd3072479267a", "type": "electric_scooter", "is_reserved": 0, "lon": -77.01127266666667}, {"fusion_lat": 0.0, "name": "9f33476ab6f4a55d992aead8c72038cb", "is_disabled": 0, "rental_uris": {"android": "https://dc.lft.to/lastmile_qr_scan", "ios": "https://dc.lft.to/lastmile_qr_scan"}, "fusion_lon": 0.0, "lat": 38.948962, "bike_id": "9f33476ab6f4a55d992aead8c72038cb", "type": "electric_bike", "is_reserved": 0, "lon": -76.96376733333334}, {"fusion_lat": 0.0, "name": "83fcd87c7bac45dcbe6abdec7c4a51d9", "is_disabled": 0, "rental_uris": {"android": "https://dc.lft.to/lastmile_qr_scan", "ios": "https://dc.lft.to/lastmile_qr_scan"}, "fusion_lon": 0.0, "lat": 38.948739833333335, "bike_id": "83fcd87c7bac45dcbe6abdec7c4a51d9", "type": "electric_scooter", "is_reserved": 0, "lon": -77.02687033333333}, {"fusion_lat": 0.0, "name": "41649949fa478d2599f5eca10cad4fdd", "is_disabled": 0, "rental_uris": {"android": "https://dc.lft.to/lastmile_qr_scan", "ios": "https://dc.lft.to/lastmile_qr_scan"}, "fusion_lon": 0.0, "lat": 38.92792416666666, "bike_id": "41649949fa478d2599f5eca10cad4fdd", "type": "electric_scooter", "is_reserved": 0, "lon": -77.03209866666667}, {"fusion_lat": 0.0, "name": "3c709691dddf112e019a1c55cc2003b8", "is_disabled": 0, "rental_uris": {"android": "https://dc.lft.to/lastmile_qr_scan", "ios": "https://dc.lft.to/lastmile_qr_scan"}, "fusion_lon": 0.0, "lat": 38.9111855, "bike_id": "3c709691dddf112e019a1c55cc2003b8", "type": "electric_scooter", "is_reserved": 0, "lon": -76.99768183333333}, {"fusion_lat": 0.0, "name": "baa16e8b1421eda4c7da7c3d480dfa53", "is_disabled": 0, "rental_uris": {"android": "https://dc.lft.to/lastmile_qr_scan", "ios": "https://dc.lft.to/lastmile_qr_scan"}, "fusion_lon": 0.0, "lat": 38.9363015, "bike_id": "baa16e8b1421eda4c7da7c3d480dfa53", "type": "electric_scooter", "is_reserved": 0, "lon": -77.036558}, {"fusion_lat": 0.0, "name": "a204952077b9630445fe288721a5a8ee", "is_disabled": 0, "rental_uris": {"android": "https://dc.lft.to/lastmile_qr_scan", "ios": "https://dc.lft.to/lastmile_qr_scan"}, "fusion_lon": 0.0, "lat": 38.9296315, "bike_id": "a204952077b9630445fe288721a5a8ee", "type": "electric_scooter", "is_reserved": 0, "lon": -77.02013083333334}, {"fusion_lat": 0.0, "name": "5b6c2920fa088d672d29c8bfc2d4172b", "is_disabled": 0, "rental_uris": {"android": "https://dc.lft.to/lastmile_qr_scan", "ios": "https://dc.lft.to/lastmile_qr_scan"}, "fusion_lon": 0.0, "lat": 38.90953733333333, "bike_id": "5b6c2920fa088d672d29c8bfc2d4172b", "type": "electric_scooter", "is_reserved": 0, "lon": -77.02383433333334}, {"fusion_lat": 0.0, "name": "e255105bb50a4a5ab19600e988cd7809", "is_disabled": 0, "rental_uris": {"android": "https://dc.lft.to/lastmile_qr_scan", "ios": "https://dc.lft.to/lastmile_qr_scan"}, "fusion_lon": 0.0, "lat": 38.90035316666667, "bike_id": "e255105bb50a4a5ab19600e988cd7809", "type": "electric_scooter", "is_reserved": 0, "lon": -77.0019815}, {"fusion_lat": 0.0, "name": "93366a20979be5d34786c4c0c67b6f85", "is_disabled": 0, "rental_uris": {"android": "https://dc.lft.to/lastmile_qr_scan", "ios": "https://dc.lft.to/lastmile_qr_scan"}, "fusion_lon": 0.0, "lat": 38.889905666666664, "bike_id": "93366a20979be5d34786c4c0c67b6f85", "type": "electric_scooter", "is_reserved": 0, "lon": -76.9963525}, {"fusion_lat": 0.0, "name": "a4f1b7dfb467a0070cff44c9ad2789ca", "is_disabled": 0, "rental_uris": {"android": "https://dc.lft.to/lastmile_qr_scan", "ios": "https://dc.lft.to/lastmile_qr_scan"}, "fusion_lon": 0.0, "lat": 38.858883666666664, "bike_id": "a4f1b7dfb467a0070cff44c9ad2789ca", "type": "electric_bike", "is_reserved": 0, "lon": -77.09543816666667}, {"fusion_lat": 0.0, "name": "a304fd7892ba6363c512c37a7e7f40c2", "is_disabled": 0, "rental_uris": {"android": "https://dc.lft.to/lastmile_qr_scan", "ios": "https://dc.lft.to/lastmile_qr_scan"}, "fusion_lon": 0.0, "lat": 38.909328, "bike_id": "a304fd7892ba6363c512c37a7e7f40c2", "type": "electric_scooter", "is_reserved": 0, "lon": -77.02123216666666}, {"fusion_lat": 0.0, "name": "3aa6b1f718a961b85d5f3cb54cccbf8c", "is_disabled": 0, "rental_uris": {"android": "https://dc.lft.to/lastmile_qr_scan", "ios": "https://dc.lft.to/lastmile_qr_scan"}, "fusion_lon": 0.0, "lat": 38.91732116666667, "bike_id": "3aa6b1f718a961b85d5f3cb54cccbf8c", "type": "electric_scooter", "is_reserved": 0, "lon": -77.04824983333333}, {"fusion_lat": 0.0, "name": "300d62af5bdab46b7a2e575171518527", "is_disabled": 0, "rental_uris": {"android": "https://dc.lft.to/lastmile_qr_scan", "ios": "https://dc.lft.to/lastmile_qr_scan"}, "fusion_lon": 0.0, "lat": 38.899439, "bike_id": "300d62af5bdab46b7a2e575171518527", "type": "electric_scooter", "is_reserved": 0, "lon": -77.05356383333333}, {"fusion_lat": 0.0, "name": "a2bd8c98d68867f29d3e48c7141f3847", "is_disabled": 0, "rental_uris": {"android": "https://dc.lft.to/lastmile_qr_scan", "ios": "https://dc.lft.to/lastmile_qr_scan"}, "fusion_lon": 0.0, "lat": 38.920495, "bike_id": "a2bd8c98d68867f29d3e48c7141f3847", "type": "electric_scooter", "is_reserved": 0, "lon": -77.03390916666666}, {"fusion_lat": 0.0, "name": "faa067ec504eb86528f5950ce57de34e", "is_disabled": 0, "rental_uris": {"android": "https://dc.lft.to/lastmile_qr_scan", "ios": "https://dc.lft.to/lastmile_qr_scan"}, "fusion_lon": 0.0, "lat": 38.9139025, "bike_id": "faa067ec504eb86528f5950ce57de34e", "type": "electric_scooter", "is_reserved": 0, "lon": -77.0346545}, {"fusion_lat": 0.0, "name": "7aab1b48f932a2ef5d1273f759c56583", "is_disabled": 0, "rental_uris": {"android": "https://dc.lft.to/lastmile_qr_scan", "ios": "https://dc.lft.to/lastmile_qr_scan"}, "fusion_lon": 0.0, "lat": 38.88984966666666, "bike_id": "7aab1b48f932a2ef5d1273f759c56583", "type": "electric_scooter", "is_reserved": 0, "lon": -76.98735633333334}, {"fusion_lat": 0.0, "name": "d3a056594db3f95f73c6697095b69875", "is_disabled": 0, "rental_uris": {"android": "https://dc.lft.to/lastmile_qr_scan", "ios": "https://dc.lft.to/lastmile_qr_scan"}, "fusion_lon": 0.0, "lat": 38.93949166666667, "bike_id": "d3a056594db3f95f73c6697095b69875", "type": "electric_scooter", "is_reserved": 0, "lon": -77.033285}, {"fusion_lat": 0.0, "name": "5538c2b3cfcad2b4e43e377cc680d21a", "is_disabled": 0, "rental_uris": {"android": "https://dc.lft.to/lastmile_qr_scan", "ios": "https://dc.lft.to/lastmile_qr_scan"}, "fusion_lon": 0.0, "lat": 38.92381066666667, "bike_id": "5538c2b3cfcad2b4e43e377cc680d21a", "type": "electric_scooter", "is_reserved": 0, "lon": -77.03649733333333}, {"fusion_lat": 0.0, "name": "927773181bb871a70c699243fa6fbf7d", "is_disabled": 0, "rental_uris": {"android": "https://dc.lft.to/lastmile_qr_scan", "ios": "https://dc.lft.to/lastmile_qr_scan"}, "fusion_lon": 0.0, "lat": 38.9077875, "bike_id": "927773181bb871a70c699243fa6fbf7d", "type": "electric_scooter", "is_reserved": 0, "lon": -77.01859283333333}, {"fusion_lat": 0.0, "name": "f0711bc37bdbef990f5e8728146c0564", "is_disabled": 0, "rental_uris": {"android": "https://dc.lft.to/lastmile_qr_scan", "ios": "https://dc.lft.to/lastmile_qr_scan"}, "fusion_lon": 0.0, "lat": 38.95882483333333, "bike_id": "f0711bc37bdbef990f5e8728146c0564", "type": "electric_scooter", "is_reserved": 0, "lon": -77.01162433333333}, {"fusion_lat": 0.0, "name": "a207dbb82df6f3e2874cb2a1aa96f92c", "is_disabled": 0, "rental_uris": {"android": "https://dc.lft.to/lastmile_qr_scan", "ios": "https://dc.lft.to/lastmile_qr_scan"}, "fusion_lon": 0.0, "lat": 38.876615666666666, "bike_id": "a207dbb82df6f3e2874cb2a1aa96f92c", "type": "electric_scooter", "is_reserved": 0, "lon": -77.009087}, {"fusion_lat": 0.0, "name": "c35e0557998c995498204ebc01b9ea4b", "is_disabled": 0, "rental_uris": {"android": "https://dc.lft.to/lastmile_qr_scan", "ios": "https://dc.lft.to/lastmile_qr_scan"}, "fusion_lon": 0.0, "lat": 38.91184333333333, "bike_id": "c35e0557998c995498204ebc01b9ea4b", "type": "electric_scooter", "is_reserved": 0, "lon": -77.03813033333333}, {"fusion_lat": 0.0, "name": "3df35c666c3667765cc3f95a3e8fde6c", "is_disabled": 0, "rental_uris": {"android": "https://dc.lft.to/lastmile_qr_scan", "ios": "https://dc.lft.to/lastmile_qr_scan"}, "fusion_lon": 0.0, "lat": 38.91334883333333, "bike_id": "3df35c666c3667765cc3f95a3e8fde6c", "type": "electric_scooter", "is_reserved": 0, "lon": -77.04282583333334}, {"fusion_lat": 0.0, "name": "0628a49f8dce0efdb2df7358a82fe197", "is_disabled": 0, "rental_uris": {"android": "https://dc.lft.to/lastmile_qr_scan", "ios": "https://dc.lft.to/lastmile_qr_scan"}, "fusion_lon": 0.0, "lat": 38.92397416666667, "bike_id": "0628a49f8dce0efdb2df7358a82fe197", "type": "electric_scooter", "is_reserved": 0, "lon": -77.0525165}, {"fusion_lat": 0.0, "name": "5c7af6aefe44f410e1d9ee4be86fe292", "is_disabled": 0, "rental_uris": {"android": "https://dc.lft.to/lastmile_qr_scan", "ios": "https://dc.lft.to/lastmile_qr_scan"}, "fusion_lon": 0.0, "lat": 38.930739333333335, "bike_id": "5c7af6aefe44f410e1d9ee4be86fe292", "type": "electric_scooter", "is_reserved": 0, "lon": -77.07759083333333}, {"fusion_lat": 0.0, "name": "d5676c5dbbe5b13b8532b91107661067", "is_disabled": 0, "rental_uris": {"android": "https://dc.lft.to/lastmile_qr_scan", "ios": "https://dc.lft.to/lastmile_qr_scan"}, "fusion_lon": 0.0, "lat": 38.907340833333336, "bike_id": "d5676c5dbbe5b13b8532b91107661067", "type": "electric_scooter", "is_reserved": 0, "lon": -77.02896383333334}, {"fusion_lat": 0.0, "name": "991e2d23c4e65ebcad259826f8408461", "is_disabled": 0, "rental_uris": {"android": "https://dc.lft.to/lastmile_qr_scan", "ios": "https://dc.lft.to/lastmile_qr_scan"}, "fusion_lon": 0.0, "lat": 38.95235016666667, "bike_id": "991e2d23c4e65ebcad259826f8408461", "type": "electric_scooter", "is_reserved": 0, "lon": -76.99005933333333}, {"fusion_lat": 0.0, "name": "5e0e3ca4942a11bafe54652edbfc10e0", "is_disabled": 0, "rental_uris": {"android": "https://dc.lft.to/lastmile_qr_scan", "ios": "https://dc.lft.to/lastmile_qr_scan"}, "fusion_lon": 0.0, "lat": 38.92152633333333, "bike_id": "5e0e3ca4942a11bafe54652edbfc10e0", "type": "electric_scooter", "is_reserved": 0, "lon": -77.0335605}, {"fusion_lat": 0.0, "name": "eaeac97970cb4290cea642b5efd9b264", "is_disabled": 0, "rental_uris": {"android": "https://dc.lft.to/lastmile_qr_scan", "ios": "https://dc.lft.to/lastmile_qr_scan"}, "fusion_lon": 0.0, "lat": 38.90396033333333, "bike_id": "eaeac97970cb4290cea642b5efd9b264", "type": "electric_scooter", "is_reserved": 0, "lon": -76.99004616666667}, {"fusion_lat": 0.0, "name": "50e652381aa02c8bd63b22b8469b9038", "is_disabled": 0, "rental_uris": {"android": "https://dc.lft.to/lastmile_qr_scan", "ios": "https://dc.lft.to/lastmile_qr_scan"}, "fusion_lon": 0.0, "lat": 38.907246666666666, "bike_id": "50e652381aa02c8bd63b22b8469b9038", "type": "electric_scooter", "is_reserved": 0, "lon": -77.01220283333333}, {"fusion_lat": 0.0, "name": "a490e0f1761dc30b3839d9ef479a6ea6", "is_disabled": 0, "rental_uris": {"android": "https://dc.lft.to/lastmile_qr_scan", "ios": "https://dc.lft.to/lastmile_qr_scan"}, "fusion_lon": 0.0, "lat": 38.9352165, "bike_id": "a490e0f1761dc30b3839d9ef479a6ea6", "type": "electric_scooter", "is_reserved": 0, "lon": -77.03258866666667}, {"fusion_lat": 0.0, "name": "0e9462efb7171fe569c058052c9ede59", "is_disabled": 0, "rental_uris": {"android": "https://dc.lft.to/lastmile_qr_scan", "ios": "https://dc.lft.to/lastmile_qr_scan"}, "fusion_lon": 0.0, "lat": 38.904078, "bike_id": "0e9462efb7171fe569c058052c9ede59", "type": "electric_scooter", "is_reserved": 0, "lon": -76.9732855}, {"fusion_lat": 0.0, "name": "69759fa2bb7769f0fbd0ba9331470873", "is_disabled": 0, "rental_uris": {"android": "https://dc.lft.to/lastmile_qr_scan", "ios": "https://dc.lft.to/lastmile_qr_scan"}, "fusion_lon": 0.0, "lat": 38.860137, "bike_id": "69759fa2bb7769f0fbd0ba9331470873", "type": "electric_bike", "is_reserved": 0, "lon": -77.12804433333334}, {"fusion_lat": 0.0, "name": "a3a9a1d7124abf664153da413492f199", "is_disabled": 0, "rental_uris": {"android": "https://dc.lft.to/lastmile_qr_scan", "ios": "https://dc.lft.to/lastmile_qr_scan"}, "fusion_lon": 0.0, "lat": 38.9025805, "bike_id": "a3a9a1d7124abf664153da413492f199", "type": "electric_scooter", "is_reserved": 0, "lon": -76.9745435}, {"fusion_lat": 0.0, "name": "ab945191499e33434956701e57446a3c", "is_disabled": 0, "rental_uris": {"android": "https://dc.lft.to/lastmile_qr_scan", "ios": "https://dc.lft.to/lastmile_qr_scan"}, "fusion_lon": 0.0, "lat": 38.92927316666667, "bike_id": "ab945191499e33434956701e57446a3c", "type": "electric_scooter", "is_reserved": 0, "lon": -77.02337016666667}, {"fusion_lat": 0.0, "name": "8e198bae0a44b803757eadd5f6a3e290", "is_disabled": 0, "rental_uris": {"android": "https://dc.lft.to/lastmile_qr_scan", "ios": "https://dc.lft.to/lastmile_qr_scan"}, "fusion_lon": 0.0, "lat": 38.92316783333333, "bike_id": "8e198bae0a44b803757eadd5f6a3e290", "type": "electric_scooter", "is_reserved": 0, "lon": -77.02033366666667}, {"fusion_lat": 0.0, "name": "1ef9d643e9138d8e53ce3f4b56962d8c", "is_disabled": 0, "rental_uris": {"android": "https://dc.lft.to/lastmile_qr_scan", "ios": "https://dc.lft.to/lastmile_qr_scan"}, "fusion_lon": 0.0, "lat": 38.905574333333334, "bike_id": "1ef9d643e9138d8e53ce3f4b56962d8c", "type": "electric_scooter", "is_reserved": 0, "lon": -77.029231}, {"fusion_lat": 0.0, "name": "3487d1f58b10ec44b7af81485db2f913", "is_disabled": 0, "rental_uris": {"android": "https://dc.lft.to/lastmile_qr_scan", "ios": "https://dc.lft.to/lastmile_qr_scan"}, "fusion_lon": 0.0, "lat": 38.863669333333334, "bike_id": "3487d1f58b10ec44b7af81485db2f913", "type": "electric_bike", "is_reserved": 0, "lon": -76.9700725}, {"fusion_lat": 0.0, "name": "c7800b93b5f73cb479ca77cdf99fd35f", "is_disabled": 0, "rental_uris": {"android": "https://dc.lft.to/lastmile_qr_scan", "ios": "https://dc.lft.to/lastmile_qr_scan"}, "fusion_lon": 0.0, "lat": 38.887641333333335, "bike_id": "c7800b93b5f73cb479ca77cdf99fd35f", "type": "electric_scooter", "is_reserved": 0, "lon": -76.97744583333333}, {"fusion_lat": 0.0, "name": "e2430abb1f94a96759df06f3543d9209", "is_disabled": 0, "rental_uris": {"android": "https://dc.lft.to/lastmile_qr_scan", "ios": "https://dc.lft.to/lastmile_qr_scan"}, "fusion_lon": 0.0, "lat": 38.901521, "bike_id": "e2430abb1f94a96759df06f3543d9209", "type": "electric_scooter", "is_reserved": 0, "lon": -76.93063133333334}, {"fusion_lat": 0.0, "name": "3125fc7e68dca9ef1b5a424ac634aecc", "is_disabled": 0, "rental_uris": {"android": "https://dc.lft.to/lastmile_qr_scan", "ios": "https://dc.lft.to/lastmile_qr_scan"}, "fusion_lon": 0.0, "lat": 38.937629333333334, "bike_id": "3125fc7e68dca9ef1b5a424ac634aecc", "type": "electric_scooter", "is_reserved": 0, "lon": -77.0328095}, {"fusion_lat": 0.0, "name": "e70fd47c0167169e030542885273dd8d", "is_disabled": 0, "rental_uris": {"android": "https://dc.lft.to/lastmile_qr_scan", "ios": "https://dc.lft.to/lastmile_qr_scan"}, "fusion_lon": 0.0, "lat": 38.89733783333333, "bike_id": "e70fd47c0167169e030542885273dd8d", "type": "electric_scooter", "is_reserved": 0, "lon": -77.02504366666666}, {"fusion_lat": 0.0, "name": "4445785c74ee2e1bfa69bae219f6fb34", "is_disabled": 0, "rental_uris": {"android": "https://dc.lft.to/lastmile_qr_scan", "ios": "https://dc.lft.to/lastmile_qr_scan"}, "fusion_lon": 0.0, "lat": 38.93142366666667, "bike_id": "4445785c74ee2e1bfa69bae219f6fb34", "type": "electric_bike", "is_reserved": 0, "lon": -77.0382915}, {"fusion_lat": 0.0, "name": "76ce6508ce59d4af41dbca3eb8948a77", "is_disabled": 0, "rental_uris": {"android": "https://dc.lft.to/lastmile_qr_scan", "ios": "https://dc.lft.to/lastmile_qr_scan"}, "fusion_lon": 0.0, "lat": 38.909398333333336, "bike_id": "76ce6508ce59d4af41dbca3eb8948a77", "type": "electric_scooter", "is_reserved": 0, "lon": -77.0184675}, {"fusion_lat": 0.0, "name": "54f667a010d29c85bd3e3c48a66e7544", "is_disabled": 0, "rental_uris": {"android": "https://dc.lft.to/lastmile_qr_scan", "ios": "https://dc.lft.to/lastmile_qr_scan"}, "fusion_lon": 0.0, "lat": 38.906807666666666, "bike_id": "54f667a010d29c85bd3e3c48a66e7544", "type": "electric_bike", "is_reserved": 0, "lon": -76.9448995}, {"fusion_lat": 0.0, "name": "e10dd4b4249dcfa031a235555bfd40dd", "is_disabled": 0, "rental_uris": {"android": "https://dc.lft.to/lastmile_qr_scan", "ios": "https://dc.lft.to/lastmile_qr_scan"}, "fusion_lon": 0.0, "lat": 38.954697833333334, "bike_id": "e10dd4b4249dcfa031a235555bfd40dd", "type": "electric_scooter", "is_reserved": 0, "lon": -77.0777635}, {"fusion_lat": 0.0, "name": "89370b7c4cc0ea275aa62c6f320b61c3", "is_disabled": 0, "rental_uris": {"android": "https://dc.lft.to/lastmile_qr_scan", "ios": "https://dc.lft.to/lastmile_qr_scan"}, "fusion_lon": 0.0, "lat": 38.9225355, "bike_id": "89370b7c4cc0ea275aa62c6f320b61c3", "type": "electric_scooter", "is_reserved": 0, "lon": -77.038737}, {"fusion_lat": 0.0, "name": "6585331f73f8fbb4e2ae6dceda61fdb0", "is_disabled": 0, "rental_uris": {"android": "https://dc.lft.to/lastmile_qr_scan", "ios": "https://dc.lft.to/lastmile_qr_scan"}, "fusion_lon": 0.0, "lat": 38.951044, "bike_id": "6585331f73f8fbb4e2ae6dceda61fdb0", "type": "electric_scooter", "is_reserved": 0, "lon": -77.0585505}, {"fusion_lat": 0.0, "name": "d296f2ccc18b1ee33960785738fc6f3f", "is_disabled": 0, "rental_uris": {"android": "https://dc.lft.to/lastmile_qr_scan", "ios": "https://dc.lft.to/lastmile_qr_scan"}, "fusion_lon": 0.0, "lat": 38.90852266666667, "bike_id": "d296f2ccc18b1ee33960785738fc6f3f", "type": "electric_scooter", "is_reserved": 0, "lon": -77.02722883333334}, {"fusion_lat": 0.0, "name": "27abea0863de0d7a26ac525b8928477b", "is_disabled": 0, "rental_uris": {"android": "https://dc.lft.to/lastmile_qr_scan", "ios": "https://dc.lft.to/lastmile_qr_scan"}, "fusion_lon": 0.0, "lat": 38.87454233333333, "bike_id": "27abea0863de0d7a26ac525b8928477b", "type": "electric_bike", "is_reserved": 0, "lon": -76.99935983333333}, {"fusion_lat": 0.0, "name": "dcd8fda23bb0d63d61d0d72d88d6afc9", "is_disabled": 0, "rental_uris": {"android": "https://dc.lft.to/lastmile_qr_scan", "ios": "https://dc.lft.to/lastmile_qr_scan"}, "fusion_lon": 0.0, "lat": 38.932334, "bike_id": "dcd8fda23bb0d63d61d0d72d88d6afc9", "type": "electric_bike", "is_reserved": 0, "lon": -76.9742025}, {"fusion_lat": 0.0, "name": "d3ddb7634cc125b00db34fe4ff122d7f", "is_disabled": 0, "rental_uris": {"android": "https://dc.lft.to/lastmile_qr_scan", "ios": "https://dc.lft.to/lastmile_qr_scan"}, "fusion_lon": 0.0, "lat": 38.86625383333333, "bike_id": "d3ddb7634cc125b00db34fe4ff122d7f", "type": "electric_scooter", "is_reserved": 0, "lon": -76.98710816666667}, {"fusion_lat": 0.0, "name": "0d15a5c4f43fa40b67e890d231e952e5", "is_disabled": 0, "rental_uris": {"android": "https://dc.lft.to/lastmile_qr_scan", "ios": "https://dc.lft.to/lastmile_qr_scan"}, "fusion_lon": 0.0, "lat": 38.87968883333333, "bike_id": "0d15a5c4f43fa40b67e890d231e952e5", "type": "electric_bike", "is_reserved": 0, "lon": -77.17837216666666}, {"fusion_lat": 0.0, "name": "bed4ff13707b29b6802201c0c29995b2", "is_disabled": 0, "rental_uris": {"android": "https://dc.lft.to/lastmile_qr_scan", "ios": "https://dc.lft.to/lastmile_qr_scan"}, "fusion_lon": 0.0, "lat": 38.91171766666667, "bike_id": "bed4ff13707b29b6802201c0c29995b2", "type": "electric_scooter", "is_reserved": 0, "lon": -77.03657883333334}, {"fusion_lat": 0.0, "name": "314839e64998f07e802cee4ca8a38c29", "is_disabled": 0, "rental_uris": {"android": "https://dc.lft.to/lastmile_qr_scan", "ios": "https://dc.lft.to/lastmile_qr_scan"}, "fusion_lon": 0.0, "lat": 38.9170705, "bike_id": "314839e64998f07e802cee4ca8a38c29", "type": "electric_scooter", "is_reserved": 0, "lon": -77.0371025}, {"fusion_lat": 0.0, "name": "efc5e7d986a4a46a9193ef3f99bed5d4", "is_disabled": 0, "rental_uris": {"android": "https://dc.lft.to/lastmile_qr_scan", "ios": "https://dc.lft.to/lastmile_qr_scan"}, "fusion_lon": 0.0, "lat": 38.94226066666667, "bike_id": "efc5e7d986a4a46a9193ef3f99bed5d4", "type": "electric_scooter", "is_reserved": 0, "lon": -77.02333733333333}, {"fusion_lat": 0.0, "name": "c5a4dc10cbf385a221b50cfb86eb6093", "is_disabled": 0, "rental_uris": {"android": "https://dc.lft.to/lastmile_qr_scan", "ios": "https://dc.lft.to/lastmile_qr_scan"}, "fusion_lon": 0.0, "lat": 38.90961716666666, "bike_id": "c5a4dc10cbf385a221b50cfb86eb6093", "type": "electric_scooter", "is_reserved": 0, "lon": -77.04863383333333}, {"fusion_lat": 0.0, "name": "ed95f488669f1efb2a3b363480569d08", "is_disabled": 0, "rental_uris": {"android": "https://dc.lft.to/lastmile_qr_scan", "ios": "https://dc.lft.to/lastmile_qr_scan"}, "fusion_lon": 0.0, "lat": 38.91960816666667, "bike_id": "ed95f488669f1efb2a3b363480569d08", "type": "electric_scooter", "is_reserved": 0, "lon": -77.0176995}, {"fusion_lat": 0.0, "name": "c6ceb6f3c796484dbac76a86c9e850d0", "is_disabled": 0, "rental_uris": {"android": "https://dc.lft.to/lastmile_qr_scan", "ios": "https://dc.lft.to/lastmile_qr_scan"}, "fusion_lon": 0.0, "lat": 38.93049466666667, "bike_id": "c6ceb6f3c796484dbac76a86c9e850d0", "type": "electric_scooter", "is_reserved": 0, "lon": -77.040631}, {"fusion_lat": 0.0, "name": "0f52dd50eb01aa49660a8deff80ee1f1", "is_disabled": 0, "rental_uris": {"android": "https://dc.lft.to/lastmile_qr_scan", "ios": "https://dc.lft.to/lastmile_qr_scan"}, "fusion_lon": 0.0, "lat": 38.9140255, "bike_id": "0f52dd50eb01aa49660a8deff80ee1f1", "type": "electric_scooter", "is_reserved": 0, "lon": -77.03214933333334}, {"fusion_lat": 0.0, "name": "a77c06fcab846e2fa4b9183c6ab93067", "is_disabled": 0, "rental_uris": {"android": "https://dc.lft.to/lastmile_qr_scan", "ios": "https://dc.lft.to/lastmile_qr_scan"}, "fusion_lon": 0.0, "lat": 38.922050666666664, "bike_id": "a77c06fcab846e2fa4b9183c6ab93067", "type": "electric_scooter", "is_reserved": 0, "lon": -77.04129616666667}, {"fusion_lat": 0.0, "name": "26adb50a5881a0f02736d93cd6576e0d", "is_disabled": 0, "rental_uris": {"android": "https://dc.lft.to/lastmile_qr_scan", "ios": "https://dc.lft.to/lastmile_qr_scan"}, "fusion_lon": 0.0, "lat": 38.8995865, "bike_id": "26adb50a5881a0f02736d93cd6576e0d", "type": "electric_scooter", "is_reserved": 0, "lon": -77.01501916666666}, {"fusion_lat": 0.0, "name": "2220ff7cfbb877c5fa1f04a0011f22a1", "is_disabled": 0, "rental_uris": {"android": "https://dc.lft.to/lastmile_qr_scan", "ios": "https://dc.lft.to/lastmile_qr_scan"}, "fusion_lon": 0.0, "lat": 38.924183, "bike_id": "2220ff7cfbb877c5fa1f04a0011f22a1", "type": "electric_scooter", "is_reserved": 0, "lon": -77.0200395}, {"fusion_lat": 0.0, "name": "e73c7328b97c05cfde959ce0619665e3", "is_disabled": 0, "rental_uris": {"android": "https://dc.lft.to/lastmile_qr_scan", "ios": "https://dc.lft.to/lastmile_qr_scan"}, "fusion_lon": 0.0, "lat": 38.90929283333333, "bike_id": "e73c7328b97c05cfde959ce0619665e3", "type": "electric_scooter", "is_reserved": 0, "lon": -77.03851966666667}, {"fusion_lat": 0.0, "name": "9a8e4616288263aa2afaf9e35890399b", "is_disabled": 0, "rental_uris": {"android": "https://dc.lft.to/lastmile_qr_scan", "ios": "https://dc.lft.to/lastmile_qr_scan"}, "fusion_lon": 0.0, "lat": 38.95658933333333, "bike_id": "9a8e4616288263aa2afaf9e35890399b", "type": "electric_scooter", "is_reserved": 0, "lon": -77.03322716666666}, {"fusion_lat": 0.0, "name": "568d2a327fcb443e5ca09aa52db06f35", "is_disabled": 0, "rental_uris": {"android": "https://dc.lft.to/lastmile_qr_scan", "ios": "https://dc.lft.to/lastmile_qr_scan"}, "fusion_lon": 0.0, "lat": 39.01077016666667, "bike_id": "568d2a327fcb443e5ca09aa52db06f35", "type": "electric_bike", "is_reserved": 0, "lon": -76.91064716666666}, {"fusion_lat": 0.0, "name": "9a1be9999747ec23e13c14b521773448", "is_disabled": 0, "rental_uris": {"android": "https://dc.lft.to/lastmile_qr_scan", "ios": "https://dc.lft.to/lastmile_qr_scan"}, "fusion_lon": 0.0, "lat": 38.907862, "bike_id": "9a1be9999747ec23e13c14b521773448", "type": "electric_scooter", "is_reserved": 0, "lon": -77.03836716666666}, {"fusion_lat": 0.0, "name": "18b2b79d861a9d65466f2063a74666c7", "is_disabled": 0, "rental_uris": {"android": "https://dc.lft.to/lastmile_qr_scan", "ios": "https://dc.lft.to/lastmile_qr_scan"}, "fusion_lon": 0.0, "lat": 38.876862833333334, "bike_id": "18b2b79d861a9d65466f2063a74666c7", "type": "electric_scooter", "is_reserved": 0, "lon": -77.01755166666666}, {"fusion_lat": 0.0, "name": "6a7b68954fa74ac7c756b1228880dbea", "is_disabled": 0, "rental_uris": {"android": "https://dc.lft.to/lastmile_qr_scan", "ios": "https://dc.lft.to/lastmile_qr_scan"}, "fusion_lon": 0.0, "lat": 38.9236325, "bike_id": "6a7b68954fa74ac7c756b1228880dbea", "type": "electric_scooter", "is_reserved": 0, "lon": -77.02053383333333}, {"fusion_lat": 0.0, "name": "252fabebbb4b094bfa79bc72d721a7a2", "is_disabled": 0, "rental_uris": {"android": "https://dc.lft.to/lastmile_qr_scan", "ios": "https://dc.lft.to/lastmile_qr_scan"}, "fusion_lon": 0.0, "lat": 38.902149666666666, "bike_id": "252fabebbb4b094bfa79bc72d721a7a2", "type": "electric_scooter", "is_reserved": 0, "lon": -77.05128016666667}, {"fusion_lat": 0.0, "name": "2b1d918b27d27cd0293c6a292a431a51", "is_disabled": 0, "rental_uris": {"android": "https://dc.lft.to/lastmile_qr_scan", "ios": "https://dc.lft.to/lastmile_qr_scan"}, "fusion_lon": 0.0, "lat": 38.931095, "bike_id": "2b1d918b27d27cd0293c6a292a431a51", "type": "electric_scooter", "is_reserved": 0, "lon": -77.0213305}, {"fusion_lat": 0.0, "name": "891e50fdb29cb5b5ad752352fb8d5b03", "is_disabled": 0, "rental_uris": {"android": "https://dc.lft.to/lastmile_qr_scan", "ios": "https://dc.lft.to/lastmile_qr_scan"}, "fusion_lon": 0.0, "lat": 38.9056645, "bike_id": "891e50fdb29cb5b5ad752352fb8d5b03", "type": "electric_scooter", "is_reserved": 0, "lon": -77.02969933333334}, {"fusion_lat": 0.0, "name": "0800d90026a7b0bd3534c71043248d2b", "is_disabled": 0, "rental_uris": {"android": "https://dc.lft.to/lastmile_qr_scan", "ios": "https://dc.lft.to/lastmile_qr_scan"}, "fusion_lon": 0.0, "lat": 38.904644166666664, "bike_id": "0800d90026a7b0bd3534c71043248d2b", "type": "electric_scooter", "is_reserved": 0, "lon": -77.03350483333334}, {"fusion_lat": 0.0, "name": "1b68534436f7cdec2ae003579e2f5b75", "is_disabled": 0, "rental_uris": {"android": "https://dc.lft.to/lastmile_qr_scan", "ios": "https://dc.lft.to/lastmile_qr_scan"}, "fusion_lon": 0.0, "lat": 38.91362183333333, "bike_id": "1b68534436f7cdec2ae003579e2f5b75", "type": "electric_scooter", "is_reserved": 0, "lon": -77.04877033333334}, {"fusion_lat": 0.0, "name": "03cc560160df08d974e7d1fa3c972d0f", "is_disabled": 0, "rental_uris": {"android": "https://dc.lft.to/lastmile_qr_scan", "ios": "https://dc.lft.to/lastmile_qr_scan"}, "fusion_lon": 0.0, "lat": 38.91268916666667, "bike_id": "03cc560160df08d974e7d1fa3c972d0f", "type": "electric_scooter", "is_reserved": 0, "lon": -77.03385916666667}, {"fusion_lat": 0.0, "name": "0f991a46a6d4728f6b5d01fd3201bb7e", "is_disabled": 0, "rental_uris": {"android": "https://dc.lft.to/lastmile_qr_scan", "ios": "https://dc.lft.to/lastmile_qr_scan"}, "fusion_lon": 0.0, "lat": 38.91254416666666, "bike_id": "0f991a46a6d4728f6b5d01fd3201bb7e", "type": "electric_scooter", "is_reserved": 0, "lon": -77.04906}, {"fusion_lat": 0.0, "name": "f5bf34df31f491bdd485aa8a4ceba863", "is_disabled": 0, "rental_uris": {"android": "https://dc.lft.to/lastmile_qr_scan", "ios": "https://dc.lft.to/lastmile_qr_scan"}, "fusion_lon": 0.0, "lat": 38.8993575, "bike_id": "f5bf34df31f491bdd485aa8a4ceba863", "type": "electric_scooter", "is_reserved": 0, "lon": -77.04892}, {"fusion_lat": 0.0, "name": "bc27007de8315290e9bdf4de41ea9cb5", "is_disabled": 0, "rental_uris": {"android": "https://dc.lft.to/lastmile_qr_scan", "ios": "https://dc.lft.to/lastmile_qr_scan"}, "fusion_lon": 0.0, "lat": 38.9230645, "bike_id": "bc27007de8315290e9bdf4de41ea9cb5", "type": "electric_scooter", "is_reserved": 0, "lon": -77.04256116666667}, {"fusion_lat": 0.0, "name": "60a3717e2afebc37cbc5b320502d60a0", "is_disabled": 0, "rental_uris": {"android": "https://dc.lft.to/lastmile_qr_scan", "ios": "https://dc.lft.to/lastmile_qr_scan"}, "fusion_lon": 0.0, "lat": 38.900379, "bike_id": "60a3717e2afebc37cbc5b320502d60a0", "type": "electric_scooter", "is_reserved": 0, "lon": -76.98856283333333}, {"fusion_lat": 0.0, "name": "d1ca243e62bf535a6843a7f94f3f2637", "is_disabled": 0, "rental_uris": {"android": "https://dc.lft.to/lastmile_qr_scan", "ios": "https://dc.lft.to/lastmile_qr_scan"}, "fusion_lon": 0.0, "lat": 38.916756, "bike_id": "d1ca243e62bf535a6843a7f94f3f2637", "type": "electric_scooter", "is_reserved": 0, "lon": -77.02280533333334}, {"fusion_lat": 0.0, "name": "c27250cbc2f7f9bde8f96ffd82997716", "is_disabled": 0, "rental_uris": {"android": "https://dc.lft.to/lastmile_qr_scan", "ios": "https://dc.lft.to/lastmile_qr_scan"}, "fusion_lon": 0.0, "lat": 38.8763705, "bike_id": "c27250cbc2f7f9bde8f96ffd82997716", "type": "electric_scooter", "is_reserved": 0, "lon": -77.00769733333334}, {"fusion_lat": 0.0, "name": "c8d8900f9493db003a04862aba2f0fc2", "is_disabled": 0, "rental_uris": {"android": "https://dc.lft.to/lastmile_qr_scan", "ios": "https://dc.lft.to/lastmile_qr_scan"}, "fusion_lon": 0.0, "lat": 38.839305833333334, "bike_id": "c8d8900f9493db003a04862aba2f0fc2", "type": "electric_bike", "is_reserved": 0, "lon": -77.078956}, {"fusion_lat": 0.0, "name": "c00e4d3985f13d1d1dafd03400588f72", "is_disabled": 0, "rental_uris": {"android": "https://dc.lft.to/lastmile_qr_scan", "ios": "https://dc.lft.to/lastmile_qr_scan"}, "fusion_lon": 0.0, "lat": 38.978801833333335, "bike_id": "c00e4d3985f13d1d1dafd03400588f72", "type": "electric_bike", "is_reserved": 0, "lon": -77.060278}, {"fusion_lat": 0.0, "name": "6fb300cbe74750689cc3338e888a7987", "is_disabled": 0, "rental_uris": {"android": "https://dc.lft.to/lastmile_qr_scan", "ios": "https://dc.lft.to/lastmile_qr_scan"}, "fusion_lon": 0.0, "lat": 38.910628833333334, "bike_id": "6fb300cbe74750689cc3338e888a7987", "type": "electric_scooter", "is_reserved": 0, "lon": -77.03657266666667}, {"fusion_lat": 0.0, "name": "3f05c3851eeca980a76f07bf598b05c0", "is_disabled": 0, "rental_uris": {"android": "https://dc.lft.to/lastmile_qr_scan", "ios": "https://dc.lft.to/lastmile_qr_scan"}, "fusion_lon": 0.0, "lat": 38.901362166666665, "bike_id": "3f05c3851eeca980a76f07bf598b05c0", "type": "electric_scooter", "is_reserved": 0, "lon": -76.986366}, {"fusion_lat": 0.0, "name": "e16a8119ea837182ccff693dad42799a", "is_disabled": 0, "rental_uris": {"android": "https://dc.lft.to/lastmile_qr_scan", "ios": "https://dc.lft.to/lastmile_qr_scan"}, "fusion_lon": 0.0, "lat": 38.9274465, "bike_id": "e16a8119ea837182ccff693dad42799a", "type": "electric_scooter", "is_reserved": 0, "lon": -77.03637916666666}, {"fusion_lat": 0.0, "name": "5284811b72860732bb7c17bc411fdaed", "is_disabled": 0, "rental_uris": {"android": "https://dc.lft.to/lastmile_qr_scan", "ios": "https://dc.lft.to/lastmile_qr_scan"}, "fusion_lon": 0.0, "lat": 38.913912833333335, "bike_id": "5284811b72860732bb7c17bc411fdaed", "type": "electric_scooter", "is_reserved": 0, "lon": -77.0386395}, {"fusion_lat": 0.0, "name": "a35a5d184ff38e177cdc0e5504b35239", "is_disabled": 0, "rental_uris": {"android": "https://dc.lft.to/lastmile_qr_scan", "ios": "https://dc.lft.to/lastmile_qr_scan"}, "fusion_lon": 0.0, "lat": 38.95329183333333, "bike_id": "a35a5d184ff38e177cdc0e5504b35239", "type": "electric_bike", "is_reserved": 0, "lon": -76.982507}, {"fusion_lat": 0.0, "name": "666c31602b1a921160bb7b9fb89c05c9", "is_disabled": 0, "rental_uris": {"android": "https://dc.lft.to/lastmile_qr_scan", "ios": "https://dc.lft.to/lastmile_qr_scan"}, "fusion_lon": 0.0, "lat": 38.874563, "bike_id": "666c31602b1a921160bb7b9fb89c05c9", "type": "electric_scooter", "is_reserved": 0, "lon": -77.00018733333333}, {"fusion_lat": 0.0, "name": "1d5954fbf45e543f7b043252a5ec6e0c", "is_disabled": 0, "rental_uris": {"android": "https://dc.lft.to/lastmile_qr_scan", "ios": "https://dc.lft.to/lastmile_qr_scan"}, "fusion_lon": 0.0, "lat": 38.92616783333333, "bike_id": "1d5954fbf45e543f7b043252a5ec6e0c", "type": "electric_scooter", "is_reserved": 0, "lon": -77.04325083333333}, {"fusion_lat": 0.0, "name": "1f2001bcf315ce3eb6f52f3687c4637e", "is_disabled": 0, "rental_uris": {"android": "https://dc.lft.to/lastmile_qr_scan", "ios": "https://dc.lft.to/lastmile_qr_scan"}, "fusion_lon": 0.0, "lat": 38.895135833333335, "bike_id": "1f2001bcf315ce3eb6f52f3687c4637e", "type": "electric_scooter", "is_reserved": 0, "lon": -76.99950333333334}, {"fusion_lat": 0.0, "name": "c1a9b9d9c60da126e90b288235ee042a", "is_disabled": 0, "rental_uris": {"android": "https://dc.lft.to/lastmile_qr_scan", "ios": "https://dc.lft.to/lastmile_qr_scan"}, "fusion_lon": 0.0, "lat": 38.94201, "bike_id": "c1a9b9d9c60da126e90b288235ee042a", "type": "electric_scooter", "is_reserved": 0, "lon": -77.02587416666667}, {"fusion_lat": 0.0, "name": "79748c8255ac6e36a21fcc4a9e709bfb", "is_disabled": 0, "rental_uris": {"android": "https://dc.lft.to/lastmile_qr_scan", "ios": "https://dc.lft.to/lastmile_qr_scan"}, "fusion_lon": 0.0, "lat": 38.9008865, "bike_id": "79748c8255ac6e36a21fcc4a9e709bfb", "type": "electric_scooter", "is_reserved": 0, "lon": -76.98329183333334}, {"fusion_lat": 0.0, "name": "fc7d74ffebe83bb0cd4190b64a7d83c4", "is_disabled": 0, "rental_uris": {"android": "https://dc.lft.to/lastmile_qr_scan", "ios": "https://dc.lft.to/lastmile_qr_scan"}, "fusion_lon": 0.0, "lat": 38.92894283333333, "bike_id": "fc7d74ffebe83bb0cd4190b64a7d83c4", "type": "electric_bike", "is_reserved": 0, "lon": -77.23179483333334}, {"fusion_lat": 0.0, "name": "34be2ab4a16e25a4117449a52fe9fec7", "is_disabled": 0, "rental_uris": {"android": "https://dc.lft.to/lastmile_qr_scan", "ios": "https://dc.lft.to/lastmile_qr_scan"}, "fusion_lon": 0.0, "lat": 38.910366833333335, "bike_id": "34be2ab4a16e25a4117449a52fe9fec7", "type": "electric_scooter", "is_reserved": 0, "lon": -77.00825816666666}, {"fusion_lat": 0.0, "name": "f655ddf0ddeeff2abd604cbebcb7b74a", "is_disabled": 0, "rental_uris": {"android": "https://dc.lft.to/lastmile_qr_scan", "ios": "https://dc.lft.to/lastmile_qr_scan"}, "fusion_lon": 0.0, "lat": 38.95270716666667, "bike_id": "f655ddf0ddeeff2abd604cbebcb7b74a", "type": "electric_scooter", "is_reserved": 0, "lon": -77.06869366666666}, {"fusion_lat": 0.0, "name": "f4130a313a22077d0f47ac805de0f96b", "is_disabled": 0, "rental_uris": {"android": "https://dc.lft.to/lastmile_qr_scan", "ios": "https://dc.lft.to/lastmile_qr_scan"}, "fusion_lon": 0.0, "lat": 38.925370666666666, "bike_id": "f4130a313a22077d0f47ac805de0f96b", "type": "electric_scooter", "is_reserved": 0, "lon": -77.03827466666667}, {"fusion_lat": 0.0, "name": "f4a1487ae2b02b78331bb8f00a5c2e30", "is_disabled": 0, "rental_uris": {"android": "https://dc.lft.to/lastmile_qr_scan", "ios": "https://dc.lft.to/lastmile_qr_scan"}, "fusion_lon": 0.0, "lat": 38.8987425, "bike_id": "f4a1487ae2b02b78331bb8f00a5c2e30", "type": "electric_scooter", "is_reserved": 0, "lon": -77.01495183333333}, {"fusion_lat": 0.0, "name": "0568fa09ce9f3eeb852a9880ce927eda", "is_disabled": 0, "rental_uris": {"android": "https://dc.lft.to/lastmile_qr_scan", "ios": "https://dc.lft.to/lastmile_qr_scan"}, "fusion_lon": 0.0, "lat": 38.938794666666666, "bike_id": "0568fa09ce9f3eeb852a9880ce927eda", "type": "electric_scooter", "is_reserved": 0, "lon": -77.02467233333333}, {"fusion_lat": 0.0, "name": "88cf42f5c73ef71f9cc0a731c4670126", "is_disabled": 0, "rental_uris": {"android": "https://dc.lft.to/lastmile_qr_scan", "ios": "https://dc.lft.to/lastmile_qr_scan"}, "fusion_lon": 0.0, "lat": 38.897998333333334, "bike_id": "88cf42f5c73ef71f9cc0a731c4670126", "type": "electric_scooter", "is_reserved": 0, "lon": -77.01179816666667}, {"fusion_lat": 0.0, "name": "b82d8070fd899b6f47e91fe7f7ffbdef", "is_disabled": 0, "rental_uris": {"android": "https://dc.lft.to/lastmile_qr_scan", "ios": "https://dc.lft.to/lastmile_qr_scan"}, "fusion_lon": 0.0, "lat": 38.899973333333335, "bike_id": "b82d8070fd899b6f47e91fe7f7ffbdef", "type": "electric_scooter", "is_reserved": 0, "lon": -77.05502066666666}, {"fusion_lat": 0.0, "name": "9887b903541c98f11cde9c8cf3a608c0", "is_disabled": 0, "rental_uris": {"android": "https://dc.lft.to/lastmile_qr_scan", "ios": "https://dc.lft.to/lastmile_qr_scan"}, "fusion_lon": 0.0, "lat": 38.914795, "bike_id": "9887b903541c98f11cde9c8cf3a608c0", "type": "electric_scooter", "is_reserved": 0, "lon": -77.04278616666667}, {"fusion_lat": 0.0, "name": "efed89cab51e44d182178ff2267e142c", "is_disabled": 0, "rental_uris": {"android": "https://dc.lft.to/lastmile_qr_scan", "ios": "https://dc.lft.to/lastmile_qr_scan"}, "fusion_lon": 0.0, "lat": 39.036084, "bike_id": "efed89cab51e44d182178ff2267e142c", "type": "electric_bike", "is_reserved": 0, "lon": -77.05541366666667}, {"fusion_lat": 0.0, "name": "11a8bd89fb6c13d1d8defda0e10b0771", "is_disabled": 0, "rental_uris": {"android": "https://dc.lft.to/lastmile_qr_scan", "ios": "https://dc.lft.to/lastmile_qr_scan"}, "fusion_lon": 0.0, "lat": 38.910429666666666, "bike_id": "11a8bd89fb6c13d1d8defda0e10b0771", "type": "electric_scooter", "is_reserved": 0, "lon": -77.03831616666666}, {"fusion_lat": 0.0, "name": "37510d93068cdcda4fcfd381f12fcda7", "is_disabled": 0, "rental_uris": {"android": "https://dc.lft.to/lastmile_qr_scan", "ios": "https://dc.lft.to/lastmile_qr_scan"}, "fusion_lon": 0.0, "lat": 38.923687666666666, "bike_id": "37510d93068cdcda4fcfd381f12fcda7", "type": "electric_scooter", "is_reserved": 0, "lon": -77.04319466666666}, {"fusion_lat": 0.0, "name": "54c4a52b1388cc7cbbba560afb2ce727", "is_disabled": 0, "rental_uris": {"android": "https://dc.lft.to/lastmile_qr_scan", "ios": "https://dc.lft.to/lastmile_qr_scan"}, "fusion_lon": 0.0, "lat": 38.9103685, "bike_id": "54c4a52b1388cc7cbbba560afb2ce727", "type": "electric_scooter", "is_reserved": 0, "lon": -77.03342966666666}, {"fusion_lat": 0.0, "name": "c71b41eeb4e0c349b26c66c7ed74aced", "is_disabled": 0, "rental_uris": {"android": "https://dc.lft.to/lastmile_qr_scan", "ios": "https://dc.lft.to/lastmile_qr_scan"}, "fusion_lon": 0.0, "lat": 38.926429166666665, "bike_id": "c71b41eeb4e0c349b26c66c7ed74aced", "type": "electric_scooter", "is_reserved": 0, "lon": -77.0385075}, {"fusion_lat": 0.0, "name": "7694c0b0f44c2e01ede40c48d0e813bd", "is_disabled": 0, "rental_uris": {"android": "https://dc.lft.to/lastmile_qr_scan", "ios": "https://dc.lft.to/lastmile_qr_scan"}, "fusion_lon": 0.0, "lat": 38.891934666666664, "bike_id": "7694c0b0f44c2e01ede40c48d0e813bd", "type": "electric_scooter", "is_reserved": 0, "lon": -77.02227516666666}, {"fusion_lat": 0.0, "name": "d6a38594c457883a322c56fb74e556a8", "is_disabled": 0, "rental_uris": {"android": "https://dc.lft.to/lastmile_qr_scan", "ios": "https://dc.lft.to/lastmile_qr_scan"}, "fusion_lon": 0.0, "lat": 38.91675733333334, "bike_id": "d6a38594c457883a322c56fb74e556a8", "type": "electric_scooter", "is_reserved": 0, "lon": -77.02280633333334}, {"fusion_lat": 0.0, "name": "58e3cdfa0abe99610a54354060c2aef4", "is_disabled": 0, "rental_uris": {"android": "https://dc.lft.to/lastmile_qr_scan", "ios": "https://dc.lft.to/lastmile_qr_scan"}, "fusion_lon": 0.0, "lat": 38.9163845, "bike_id": "58e3cdfa0abe99610a54354060c2aef4", "type": "electric_scooter", "is_reserved": 0, "lon": -77.04797866666667}, {"fusion_lat": 0.0, "name": "f68e6a1fa513f3525b3d0202e153395a", "is_disabled": 0, "rental_uris": {"android": "https://dc.lft.to/lastmile_qr_scan", "ios": "https://dc.lft.to/lastmile_qr_scan"}, "fusion_lon": 0.0, "lat": 38.93845533333333, "bike_id": "f68e6a1fa513f3525b3d0202e153395a", "type": "electric_scooter", "is_reserved": 0, "lon": -77.062451}, {"fusion_lat": 0.0, "name": "4f6d7eed1ae9c15cf8d404b92c1dd56c", "is_disabled": 0, "rental_uris": {"android": "https://dc.lft.to/lastmile_qr_scan", "ios": "https://dc.lft.to/lastmile_qr_scan"}, "fusion_lon": 0.0, "lat": 38.92986466666667, "bike_id": "4f6d7eed1ae9c15cf8d404b92c1dd56c", "type": "electric_scooter", "is_reserved": 0, "lon": -77.0322865}, {"fusion_lat": 0.0, "name": "c806b4c5f736c8bce2b35840c054c8cb", "is_disabled": 0, "rental_uris": {"android": "https://dc.lft.to/lastmile_qr_scan", "ios": "https://dc.lft.to/lastmile_qr_scan"}, "fusion_lon": 0.0, "lat": 38.890320333333335, "bike_id": "c806b4c5f736c8bce2b35840c054c8cb", "type": "electric_bike", "is_reserved": 0, "lon": -77.086461}, {"fusion_lat": 0.0, "name": "57825adadfd8d610a97a727e414af9e6", "is_disabled": 0, "rental_uris": {"android": "https://dc.lft.to/lastmile_qr_scan", "ios": "https://dc.lft.to/lastmile_qr_scan"}, "fusion_lon": 0.0, "lat": 38.915987666666666, "bike_id": "57825adadfd8d610a97a727e414af9e6", "type": "electric_scooter", "is_reserved": 0, "lon": -77.04904733333333}, {"fusion_lat": 0.0, "name": "a6b5f377705f0721c18d8853f9026ca8", "is_disabled": 0, "rental_uris": {"android": "https://dc.lft.to/lastmile_qr_scan", "ios": "https://dc.lft.to/lastmile_qr_scan"}, "fusion_lon": 0.0, "lat": 38.902133, "bike_id": "a6b5f377705f0721c18d8853f9026ca8", "type": "electric_scooter", "is_reserved": 0, "lon": -77.02385633333333}, {"fusion_lat": 0.0, "name": "af340306eca78f6e7c27877834905d93", "is_disabled": 0, "rental_uris": {"android": "https://dc.lft.to/lastmile_qr_scan", "ios": "https://dc.lft.to/lastmile_qr_scan"}, "fusion_lon": 0.0, "lat": 38.9073035, "bike_id": "af340306eca78f6e7c27877834905d93", "type": "electric_scooter", "is_reserved": 0, "lon": -77.02980966666667}, {"fusion_lat": 0.0, "name": "940f2477e4f495bec852d30c68bec0b2", "is_disabled": 0, "rental_uris": {"android": "https://dc.lft.to/lastmile_qr_scan", "ios": "https://dc.lft.to/lastmile_qr_scan"}, "fusion_lon": 0.0, "lat": 38.920037666666666, "bike_id": "940f2477e4f495bec852d30c68bec0b2", "type": "electric_scooter", "is_reserved": 0, "lon": -77.07120633333334}, {"fusion_lat": 0.0, "name": "b6204e7baa3a2355f4d6b9bb8e5073d7", "is_disabled": 0, "rental_uris": {"android": "https://dc.lft.to/lastmile_qr_scan", "ios": "https://dc.lft.to/lastmile_qr_scan"}, "fusion_lon": 0.0, "lat": 38.926170666666664, "bike_id": "b6204e7baa3a2355f4d6b9bb8e5073d7", "type": "electric_scooter", "is_reserved": 0, "lon": -77.04325283333333}, {"fusion_lat": 0.0, "name": "53ba074c8ef56b4838ac79d9331f7783", "is_disabled": 0, "rental_uris": {"android": "https://dc.lft.to/lastmile_qr_scan", "ios": "https://dc.lft.to/lastmile_qr_scan"}, "fusion_lon": 0.0, "lat": 38.931177, "bike_id": "53ba074c8ef56b4838ac79d9331f7783", "type": "electric_scooter", "is_reserved": 0, "lon": -77.0209765}, {"fusion_lat": 0.0, "name": "d7b909d515292730c14855900936217e", "is_disabled": 0, "rental_uris": {"android": "https://dc.lft.to/lastmile_qr_scan", "ios": "https://dc.lft.to/lastmile_qr_scan"}, "fusion_lon": 0.0, "lat": 38.966676666666665, "bike_id": "d7b909d515292730c14855900936217e", "type": "electric_bike", "is_reserved": 0, "lon": -76.97446166666667}, {"fusion_lat": 0.0, "name": "d4e0df324ee2940a8bd530a24529ae92", "is_disabled": 0, "rental_uris": {"android": "https://dc.lft.to/lastmile_qr_scan", "ios": "https://dc.lft.to/lastmile_qr_scan"}, "fusion_lon": 0.0, "lat": 38.900274, "bike_id": "d4e0df324ee2940a8bd530a24529ae92", "type": "electric_scooter", "is_reserved": 0, "lon": -77.000284}, {"fusion_lat": 0.0, "name": "25db6637878cbf9d43ef183c956acb68", "is_disabled": 0, "rental_uris": {"android": "https://dc.lft.to/lastmile_qr_scan", "ios": "https://dc.lft.to/lastmile_qr_scan"}, "fusion_lon": 0.0, "lat": 38.840832166666665, "bike_id": "25db6637878cbf9d43ef183c956acb68", "type": "electric_bike", "is_reserved": 0, "lon": -76.970295}, {"fusion_lat": 0.0, "name": "9207c53ed631a5b28015eef43c259c21", "is_disabled": 0, "rental_uris": {"android": "https://dc.lft.to/lastmile_qr_scan", "ios": "https://dc.lft.to/lastmile_qr_scan"}, "fusion_lon": 0.0, "lat": 38.92081316666667, "bike_id": "9207c53ed631a5b28015eef43c259c21", "type": "electric_scooter", "is_reserved": 0, "lon": -77.0240315}, {"fusion_lat": 0.0, "name": "b245fe2a29f9a13df075b04172cbfb6a", "is_disabled": 0, "rental_uris": {"android": "https://dc.lft.to/lastmile_qr_scan", "ios": "https://dc.lft.to/lastmile_qr_scan"}, "fusion_lon": 0.0, "lat": 38.949132, "bike_id": "b245fe2a29f9a13df075b04172cbfb6a", "type": "electric_bike", "is_reserved": 0, "lon": -77.03811966666666}, {"fusion_lat": 0.0, "name": "5d22944b958248739e07e8551af12b0c", "is_disabled": 0, "rental_uris": {"android": "https://dc.lft.to/lastmile_qr_scan", "ios": "https://dc.lft.to/lastmile_qr_scan"}, "fusion_lon": 0.0, "lat": 38.906505333333335, "bike_id": "5d22944b958248739e07e8551af12b0c", "type": "electric_scooter", "is_reserved": 0, "lon": -77.04290433333334}, {"fusion_lat": 0.0, "name": "2ea6085ccae32dd1ef0059ab58814bc0", "is_disabled": 0, "rental_uris": {"android": "https://dc.lft.to/lastmile_qr_scan", "ios": "https://dc.lft.to/lastmile_qr_scan"}, "fusion_lon": 0.0, "lat": 38.89870033333333, "bike_id": "2ea6085ccae32dd1ef0059ab58814bc0", "type": "electric_scooter", "is_reserved": 0, "lon": -76.94626316666667}, {"fusion_lat": 0.0, "name": "07e4414788de8f0d1e86b300ed5df245", "is_disabled": 0, "rental_uris": {"android": "https://dc.lft.to/lastmile_qr_scan", "ios": "https://dc.lft.to/lastmile_qr_scan"}, "fusion_lon": 0.0, "lat": 38.91651133333333, "bike_id": "07e4414788de8f0d1e86b300ed5df245", "type": "electric_scooter", "is_reserved": 0, "lon": -77.02802133333333}, {"fusion_lat": 0.0, "name": "320833a26b97c6eb58def6d46875a3f9", "is_disabled": 0, "rental_uris": {"android": "https://dc.lft.to/lastmile_qr_scan", "ios": "https://dc.lft.to/lastmile_qr_scan"}, "fusion_lon": 0.0, "lat": 38.892383, "bike_id": "320833a26b97c6eb58def6d46875a3f9", "type": "electric_scooter", "is_reserved": 0, "lon": -77.0465195}, {"fusion_lat": 0.0, "name": "d3ff52453bb3398f37d973cb8742c957", "is_disabled": 0, "rental_uris": {"android": "https://dc.lft.to/lastmile_qr_scan", "ios": "https://dc.lft.to/lastmile_qr_scan"}, "fusion_lon": 0.0, "lat": 38.913240333333334, "bike_id": "d3ff52453bb3398f37d973cb8742c957", "type": "electric_scooter", "is_reserved": 0, "lon": -77.04525366666667}, {"fusion_lat": 0.0, "name": "76447cee3eb82e48f841515d07f234c8", "is_disabled": 0, "rental_uris": {"android": "https://dc.lft.to/lastmile_qr_scan", "ios": "https://dc.lft.to/lastmile_qr_scan"}, "fusion_lon": 0.0, "lat": 38.913555, "bike_id": "76447cee3eb82e48f841515d07f234c8", "type": "electric_scooter", "is_reserved": 0, "lon": -77.02220916666667}, {"fusion_lat": 0.0, "name": "67468525f7598c3f4691b2f458f3994f", "is_disabled": 0, "rental_uris": {"android": "https://dc.lft.to/lastmile_qr_scan", "ios": "https://dc.lft.to/lastmile_qr_scan"}, "fusion_lon": 0.0, "lat": 38.902345833333335, "bike_id": "67468525f7598c3f4691b2f458f3994f", "type": "electric_scooter", "is_reserved": 0, "lon": -77.05331116666666}, {"fusion_lat": 0.0, "name": "5df3559710b4d972833996ea1cdef077", "is_disabled": 0, "rental_uris": {"android": "https://dc.lft.to/lastmile_qr_scan", "ios": "https://dc.lft.to/lastmile_qr_scan"}, "fusion_lon": 0.0, "lat": 38.92877033333333, "bike_id": "5df3559710b4d972833996ea1cdef077", "type": "electric_scooter", "is_reserved": 0, "lon": -77.013637}, {"fusion_lat": 0.0, "name": "0714f489b16ddf29a8b7857cbb9afe9c", "is_disabled": 0, "rental_uris": {"android": "https://dc.lft.to/lastmile_qr_scan", "ios": "https://dc.lft.to/lastmile_qr_scan"}, "fusion_lon": 0.0, "lat": 38.905133166666666, "bike_id": "0714f489b16ddf29a8b7857cbb9afe9c", "type": "electric_scooter", "is_reserved": 0, "lon": -77.05146583333334}, {"fusion_lat": 0.0, "name": "08f93f9341c69692811f95f48a34aaf8", "is_disabled": 0, "rental_uris": {"android": "https://dc.lft.to/lastmile_qr_scan", "ios": "https://dc.lft.to/lastmile_qr_scan"}, "fusion_lon": 0.0, "lat": 38.91630833333333, "bike_id": "08f93f9341c69692811f95f48a34aaf8", "type": "electric_scooter", "is_reserved": 0, "lon": -77.03134666666666}, {"fusion_lat": 0.0, "name": "bf99a174bd7102a2ba2a2beac58bdf86", "is_disabled": 0, "rental_uris": {"android": "https://dc.lft.to/lastmile_qr_scan", "ios": "https://dc.lft.to/lastmile_qr_scan"}, "fusion_lon": 0.0, "lat": 38.901930166666666, "bike_id": "bf99a174bd7102a2ba2a2beac58bdf86", "type": "electric_scooter", "is_reserved": 0, "lon": -76.97856133333333}, {"fusion_lat": 0.0, "name": "39b258a622e3681d4d1a6a542e2c8c1f", "is_disabled": 0, "rental_uris": {"android": "https://dc.lft.to/lastmile_qr_scan", "ios": "https://dc.lft.to/lastmile_qr_scan"}, "fusion_lon": 0.0, "lat": 38.933174, "bike_id": "39b258a622e3681d4d1a6a542e2c8c1f", "type": "electric_scooter", "is_reserved": 0, "lon": -77.02749166666666}, {"fusion_lat": 0.0, "name": "bcdfc798525502b77cb1f56ef4b67930", "is_disabled": 0, "rental_uris": {"android": "https://dc.lft.to/lastmile_qr_scan", "ios": "https://dc.lft.to/lastmile_qr_scan"}, "fusion_lon": 0.0, "lat": 38.89603866666667, "bike_id": "bcdfc798525502b77cb1f56ef4b67930", "type": "electric_scooter", "is_reserved": 0, "lon": -77.00928616666667}, {"fusion_lat": 0.0, "name": "d83db6bc917a8898dc210a247e31fff9", "is_disabled": 0, "rental_uris": {"android": "https://dc.lft.to/lastmile_qr_scan", "ios": "https://dc.lft.to/lastmile_qr_scan"}, "fusion_lon": 0.0, "lat": 38.8863685, "bike_id": "d83db6bc917a8898dc210a247e31fff9", "type": "electric_scooter", "is_reserved": 0, "lon": -77.019506}, {"fusion_lat": 0.0, "name": "bc4860794542e8f2febcd81d85a17b44", "is_disabled": 0, "rental_uris": {"android": "https://dc.lft.to/lastmile_qr_scan", "ios": "https://dc.lft.to/lastmile_qr_scan"}, "fusion_lon": 0.0, "lat": 38.886073, "bike_id": "bc4860794542e8f2febcd81d85a17b44", "type": "electric_scooter", "is_reserved": 0, "lon": -77.01247316666667}, {"fusion_lat": 0.0, "name": "64dba37064d0e1bcb9b9e784e149f662", "is_disabled": 0, "rental_uris": {"android": "https://dc.lft.to/lastmile_qr_scan", "ios": "https://dc.lft.to/lastmile_qr_scan"}, "fusion_lon": 0.0, "lat": 38.93498666666667, "bike_id": "64dba37064d0e1bcb9b9e784e149f662", "type": "electric_scooter", "is_reserved": 0, "lon": -77.03609166666666}, {"fusion_lat": 0.0, "name": "8bd3f5bfb511628df08255067caf344b", "is_disabled": 0, "rental_uris": {"android": "https://dc.lft.to/lastmile_qr_scan", "ios": "https://dc.lft.to/lastmile_qr_scan"}, "fusion_lon": 0.0, "lat": 38.9369685, "bike_id": "8bd3f5bfb511628df08255067caf344b", "type": "electric_scooter", "is_reserved": 0, "lon": -77.0560065}, {"fusion_lat": 0.0, "name": "6e32938a51c51230973416f076367b4b", "is_disabled": 0, "rental_uris": {"android": "https://dc.lft.to/lastmile_qr_scan", "ios": "https://dc.lft.to/lastmile_qr_scan"}, "fusion_lon": 0.0, "lat": 38.926284833333334, "bike_id": "6e32938a51c51230973416f076367b4b", "type": "electric_scooter", "is_reserved": 0, "lon": -77.05478466666666}, {"fusion_lat": 0.0, "name": "70bda8de86ff13397cf1874d4b4b9989", "is_disabled": 0, "rental_uris": {"android": "https://dc.lft.to/lastmile_qr_scan", "ios": "https://dc.lft.to/lastmile_qr_scan"}, "fusion_lon": 0.0, "lat": 38.904504, "bike_id": "70bda8de86ff13397cf1874d4b4b9989", "type": "electric_scooter", "is_reserved": 0, "lon": -77.00164033333333}, {"fusion_lat": 0.0, "name": "ae8abd0b2083734adb9a4538fcade5bf", "is_disabled": 0, "rental_uris": {"android": "https://dc.lft.to/lastmile_qr_scan", "ios": "https://dc.lft.to/lastmile_qr_scan"}, "fusion_lon": 0.0, "lat": 38.9115865, "bike_id": "ae8abd0b2083734adb9a4538fcade5bf", "type": "electric_scooter", "is_reserved": 0, "lon": -77.02000183333334}, {"fusion_lat": 0.0, "name": "efe048662f9e17360891cdb57127cfcc", "is_disabled": 0, "rental_uris": {"android": "https://dc.lft.to/lastmile_qr_scan", "ios": "https://dc.lft.to/lastmile_qr_scan"}, "fusion_lon": 0.0, "lat": 38.89595, "bike_id": "efe048662f9e17360891cdb57127cfcc", "type": "electric_scooter", "is_reserved": 0, "lon": -77.025285}, {"fusion_lat": 0.0, "name": "228533d70b40916c18430c0f22f6de17", "is_disabled": 0, "rental_uris": {"android": "https://dc.lft.to/lastmile_qr_scan", "ios": "https://dc.lft.to/lastmile_qr_scan"}, "fusion_lon": 0.0, "lat": 38.885269666666666, "bike_id": "228533d70b40916c18430c0f22f6de17", "type": "electric_scooter", "is_reserved": 0, "lon": -77.01515983333333}, {"fusion_lat": 0.0, "name": "455f0d17b0b4d04c8a4696a40e3a017a", "is_disabled": 0, "rental_uris": {"android": "https://dc.lft.to/lastmile_qr_scan", "ios": "https://dc.lft.to/lastmile_qr_scan"}, "fusion_lon": 0.0, "lat": 38.89999916666667, "bike_id": "455f0d17b0b4d04c8a4696a40e3a017a", "type": "electric_scooter", "is_reserved": 0, "lon": -77.006614}, {"fusion_lat": 0.0, "name": "3311c771cbadbec072856634ca02bb27", "is_disabled": 0, "rental_uris": {"android": "https://dc.lft.to/lastmile_qr_scan", "ios": "https://dc.lft.to/lastmile_qr_scan"}, "fusion_lon": 0.0, "lat": 38.9324855, "bike_id": "3311c771cbadbec072856634ca02bb27", "type": "electric_scooter", "is_reserved": 0, "lon": -77.04004416666666}, {"fusion_lat": 0.0, "name": "3822879e775b1db5dafe997fc65ba4fa", "is_disabled": 0, "rental_uris": {"android": "https://dc.lft.to/lastmile_qr_scan", "ios": "https://dc.lft.to/lastmile_qr_scan"}, "fusion_lon": 0.0, "lat": 38.896756833333335, "bike_id": "3822879e775b1db5dafe997fc65ba4fa", "type": "electric_scooter", "is_reserved": 0, "lon": -77.00789316666666}, {"fusion_lat": 0.0, "name": "dd779904cc03961b09e6c7c776d2184d", "is_disabled": 0, "rental_uris": {"android": "https://dc.lft.to/lastmile_qr_scan", "ios": "https://dc.lft.to/lastmile_qr_scan"}, "fusion_lon": 0.0, "lat": 38.9042695, "bike_id": "dd779904cc03961b09e6c7c776d2184d", "type": "electric_scooter", "is_reserved": 0, "lon": -76.94974366666666}, {"fusion_lat": 0.0, "name": "14f5469a2c1474551b5f717db9145ccc", "is_disabled": 0, "rental_uris": {"android": "https://dc.lft.to/lastmile_qr_scan", "ios": "https://dc.lft.to/lastmile_qr_scan"}, "fusion_lon": 0.0, "lat": 38.92490683333333, "bike_id": "14f5469a2c1474551b5f717db9145ccc", "type": "electric_scooter", "is_reserved": 0, "lon": -77.0574505}, {"fusion_lat": 0.0, "name": "e14cfa1b52cef2cc566c26716b687968", "is_disabled": 0, "rental_uris": {"android": "https://dc.lft.to/lastmile_qr_scan", "ios": "https://dc.lft.to/lastmile_qr_scan"}, "fusion_lon": 0.0, "lat": 38.9407425, "bike_id": "e14cfa1b52cef2cc566c26716b687968", "type": "electric_scooter", "is_reserved": 0, "lon": -77.02383433333334}, {"fusion_lat": 0.0, "name": "90c96c8018e21c4290333a5035b506e2", "is_disabled": 0, "rental_uris": {"android": "https://dc.lft.to/lastmile_qr_scan", "ios": "https://dc.lft.to/lastmile_qr_scan"}, "fusion_lon": 0.0, "lat": 38.909579666666666, "bike_id": "90c96c8018e21c4290333a5035b506e2", "type": "electric_scooter", "is_reserved": 0, "lon": -77.0103915}, {"fusion_lat": 0.0, "name": "7ce552dbd2fb9a1196b286987a2173f0", "is_disabled": 0, "rental_uris": {"android": "https://dc.lft.to/lastmile_qr_scan", "ios": "https://dc.lft.to/lastmile_qr_scan"}, "fusion_lon": 0.0, "lat": 38.92821166666667, "bike_id": "7ce552dbd2fb9a1196b286987a2173f0", "type": "electric_scooter", "is_reserved": 0, "lon": -77.02253916666666}, {"fusion_lat": 0.0, "name": "796a94fb1ed4177d085af690a224170a", "is_disabled": 0, "rental_uris": {"android": "https://dc.lft.to/lastmile_qr_scan", "ios": "https://dc.lft.to/lastmile_qr_scan"}, "fusion_lon": 0.0, "lat": 38.916964, "bike_id": "796a94fb1ed4177d085af690a224170a", "type": "electric_scooter", "is_reserved": 0, "lon": -77.03188183333333}, {"fusion_lat": 0.0, "name": "d8699122bd122326b65f271bcd03fead", "is_disabled": 0, "rental_uris": {"android": "https://dc.lft.to/lastmile_qr_scan", "ios": "https://dc.lft.to/lastmile_qr_scan"}, "fusion_lon": 0.0, "lat": 38.933552, "bike_id": "d8699122bd122326b65f271bcd03fead", "type": "electric_scooter", "is_reserved": 0, "lon": -77.03882233333333}, {"fusion_lat": 0.0, "name": "c7d8ce1416442dd01566f366e3ad4687", "is_disabled": 0, "rental_uris": {"android": "https://dc.lft.to/lastmile_qr_scan", "ios": "https://dc.lft.to/lastmile_qr_scan"}, "fusion_lon": 0.0, "lat": 38.8973435, "bike_id": "c7d8ce1416442dd01566f366e3ad4687", "type": "electric_scooter", "is_reserved": 0, "lon": -77.03235766666667}, {"fusion_lat": 0.0, "name": "caf39505f908defad89a350825e7cbfe", "is_disabled": 0, "rental_uris": {"android": "https://dc.lft.to/lastmile_qr_scan", "ios": "https://dc.lft.to/lastmile_qr_scan"}, "fusion_lon": 0.0, "lat": 38.926875833333334, "bike_id": "caf39505f908defad89a350825e7cbfe", "type": "electric_scooter", "is_reserved": 0, "lon": -77.02790583333334}, {"fusion_lat": 0.0, "name": "fd7b511b69c4ac4e2703e8baab625aa5", "is_disabled": 0, "rental_uris": {"android": "https://dc.lft.to/lastmile_qr_scan", "ios": "https://dc.lft.to/lastmile_qr_scan"}, "fusion_lon": 0.0, "lat": 38.903531, "bike_id": "fd7b511b69c4ac4e2703e8baab625aa5", "type": "electric_scooter", "is_reserved": 0, "lon": -76.97235566666667}, {"fusion_lat": 0.0, "name": "ecbea04afa5b1a40f9b8c6ab7e6bae23", "is_disabled": 0, "rental_uris": {"android": "https://dc.lft.to/lastmile_qr_scan", "ios": "https://dc.lft.to/lastmile_qr_scan"}, "fusion_lon": 0.0, "lat": 38.9011035, "bike_id": "ecbea04afa5b1a40f9b8c6ab7e6bae23", "type": "electric_scooter", "is_reserved": 0, "lon": -77.05163466666667}, {"fusion_lat": 0.0, "name": "a3b911f2ee896f4c1ee28b72fa16df24", "is_disabled": 0, "rental_uris": {"android": "https://dc.lft.to/lastmile_qr_scan", "ios": "https://dc.lft.to/lastmile_qr_scan"}, "fusion_lon": 0.0, "lat": 38.9098115, "bike_id": "a3b911f2ee896f4c1ee28b72fa16df24", "type": "electric_scooter", "is_reserved": 0, "lon": -77.0089495}, {"fusion_lat": 0.0, "name": "e7bbdc7cf58d3094dd7183e8a14ff82c", "is_disabled": 0, "rental_uris": {"android": "https://dc.lft.to/lastmile_qr_scan", "ios": "https://dc.lft.to/lastmile_qr_scan"}, "fusion_lon": 0.0, "lat": 38.8393675, "bike_id": "e7bbdc7cf58d3094dd7183e8a14ff82c", "type": "electric_bike", "is_reserved": 0, "lon": -77.07896333333333}, {"fusion_lat": 0.0, "name": "6935662a0c015d38183e87c1befb5524", "is_disabled": 0, "rental_uris": {"android": "https://dc.lft.to/lastmile_qr_scan", "ios": "https://dc.lft.to/lastmile_qr_scan"}, "fusion_lon": 0.0, "lat": 38.939611666666664, "bike_id": "6935662a0c015d38183e87c1befb5524", "type": "electric_bike", "is_reserved": 0, "lon": -76.99377783333334}, {"fusion_lat": 0.0, "name": "3ba7fb3ee006ae1c61be75833a8db13f", "is_disabled": 0, "rental_uris": {"android": "https://dc.lft.to/lastmile_qr_scan", "ios": "https://dc.lft.to/lastmile_qr_scan"}, "fusion_lon": 0.0, "lat": 38.90580416666667, "bike_id": "3ba7fb3ee006ae1c61be75833a8db13f", "type": "electric_scooter", "is_reserved": 0, "lon": -77.00884916666666}, {"fusion_lat": 0.0, "name": "f621815004e7e988fced1646c04fe92f", "is_disabled": 0, "rental_uris": {"android": "https://dc.lft.to/lastmile_qr_scan", "ios": "https://dc.lft.to/lastmile_qr_scan"}, "fusion_lon": 0.0, "lat": 38.94132666666667, "bike_id": "f621815004e7e988fced1646c04fe92f", "type": "electric_scooter", "is_reserved": 0, "lon": -77.006115}, {"fusion_lat": 0.0, "name": "068f09c5301e68092faa449936c051a8", "is_disabled": 0, "rental_uris": {"android": "https://dc.lft.to/lastmile_qr_scan", "ios": "https://dc.lft.to/lastmile_qr_scan"}, "fusion_lon": 0.0, "lat": 38.92576666666667, "bike_id": "068f09c5301e68092faa449936c051a8", "type": "electric_scooter", "is_reserved": 0, "lon": -76.9949555}, {"fusion_lat": 0.0, "name": "d694e8558a6520847f46ab50e0514dd7", "is_disabled": 0, "rental_uris": {"android": "https://dc.lft.to/lastmile_qr_scan", "ios": "https://dc.lft.to/lastmile_qr_scan"}, "fusion_lon": 0.0, "lat": 38.875766, "bike_id": "d694e8558a6520847f46ab50e0514dd7", "type": "electric_bike", "is_reserved": 0, "lon": -77.23408283333333}, {"fusion_lat": 0.0, "name": "bba0de954e92fec1bece92d7403ebc66", "is_disabled": 0, "rental_uris": {"android": "https://dc.lft.to/lastmile_qr_scan", "ios": "https://dc.lft.to/lastmile_qr_scan"}, "fusion_lon": 0.0, "lat": 38.88733033333333, "bike_id": "bba0de954e92fec1bece92d7403ebc66", "type": "electric_scooter", "is_reserved": 0, "lon": -76.99489316666667}, {"fusion_lat": 0.0, "name": "7ec9d4c280fa3cd55a3a441318f780ae", "is_disabled": 0, "rental_uris": {"android": "https://dc.lft.to/lastmile_qr_scan", "ios": "https://dc.lft.to/lastmile_qr_scan"}, "fusion_lon": 0.0, "lat": 38.899078, "bike_id": "7ec9d4c280fa3cd55a3a441318f780ae", "type": "electric_scooter", "is_reserved": 0, "lon": -76.9335165}, {"fusion_lat": 0.0, "name": "6f19b82fd145594280b06ca42fc4cacf", "is_disabled": 0, "rental_uris": {"android": "https://dc.lft.to/lastmile_qr_scan", "ios": "https://dc.lft.to/lastmile_qr_scan"}, "fusion_lon": 0.0, "lat": 38.88529916666667, "bike_id": "6f19b82fd145594280b06ca42fc4cacf", "type": "electric_scooter", "is_reserved": 0, "lon": -76.9291455}, {"fusion_lat": 0.0, "name": "c886cc26c30f86486ab9d025215d8061", "is_disabled": 0, "rental_uris": {"android": "https://dc.lft.to/lastmile_qr_scan", "ios": "https://dc.lft.to/lastmile_qr_scan"}, "fusion_lon": 0.0, "lat": 38.893271, "bike_id": "c886cc26c30f86486ab9d025215d8061", "type": "electric_scooter", "is_reserved": 0, "lon": -77.03954016666667}, {"fusion_lat": 0.0, "name": "d582489b45255c8ab5b9949b4a493f5a", "is_disabled": 0, "rental_uris": {"android": "https://dc.lft.to/lastmile_qr_scan", "ios": "https://dc.lft.to/lastmile_qr_scan"}, "fusion_lon": 0.0, "lat": 38.919045833333335, "bike_id": "d582489b45255c8ab5b9949b4a493f5a", "type": "electric_scooter", "is_reserved": 0, "lon": -77.00131}, {"fusion_lat": 0.0, "name": "ccbd36649aebcc59ceecc6c9653fdc2a", "is_disabled": 0, "rental_uris": {"android": "https://dc.lft.to/lastmile_qr_scan", "ios": "https://dc.lft.to/lastmile_qr_scan"}, "fusion_lon": 0.0, "lat": 38.899928, "bike_id": "ccbd36649aebcc59ceecc6c9653fdc2a", "type": "electric_scooter", "is_reserved": 0, "lon": -77.01627033333334}, {"fusion_lat": 0.0, "name": "fd28b69da64efa3722df9215d3abea58", "is_disabled": 0, "rental_uris": {"android": "https://dc.lft.to/lastmile_qr_scan", "ios": "https://dc.lft.to/lastmile_qr_scan"}, "fusion_lon": 0.0, "lat": 38.930957666666664, "bike_id": "fd28b69da64efa3722df9215d3abea58", "type": "electric_scooter", "is_reserved": 0, "lon": -77.02546833333334}, {"fusion_lat": 0.0, "name": "01e6767bfe6840db02b841c19e686d84", "is_disabled": 0, "rental_uris": {"android": "https://dc.lft.to/lastmile_qr_scan", "ios": "https://dc.lft.to/lastmile_qr_scan"}, "fusion_lon": 0.0, "lat": 38.963147166666666, "bike_id": "01e6767bfe6840db02b841c19e686d84", "type": "electric_scooter", "is_reserved": 0, "lon": -77.07488283333333}, {"fusion_lat": 0.0, "name": "3f3e32dee061b34b4a4af1b6c9ba42d7", "is_disabled": 0, "rental_uris": {"android": "https://dc.lft.to/lastmile_qr_scan", "ios": "https://dc.lft.to/lastmile_qr_scan"}, "fusion_lon": 0.0, "lat": 38.93531083333333, "bike_id": "3f3e32dee061b34b4a4af1b6c9ba42d7", "type": "electric_scooter", "is_reserved": 0, "lon": -77.02352133333333}, {"fusion_lat": 0.0, "name": "fe74af9f2ba8ae731ac4a748c5fee903", "is_disabled": 0, "rental_uris": {"android": "https://dc.lft.to/lastmile_qr_scan", "ios": "https://dc.lft.to/lastmile_qr_scan"}, "fusion_lon": 0.0, "lat": 38.899130666666665, "bike_id": "fe74af9f2ba8ae731ac4a748c5fee903", "type": "electric_scooter", "is_reserved": 0, "lon": -76.9458645}, {"fusion_lat": 0.0, "name": "a903ebbfab9e994dd0b944daaa018c5d", "is_disabled": 0, "rental_uris": {"android": "https://dc.lft.to/lastmile_qr_scan", "ios": "https://dc.lft.to/lastmile_qr_scan"}, "fusion_lon": 0.0, "lat": 38.90258216666667, "bike_id": "a903ebbfab9e994dd0b944daaa018c5d", "type": "electric_scooter", "is_reserved": 0, "lon": -77.04379466666667}, {"fusion_lat": 0.0, "name": "19d32c7fb901107b727550e260f61fba", "is_disabled": 0, "rental_uris": {"android": "https://dc.lft.to/lastmile_qr_scan", "ios": "https://dc.lft.to/lastmile_qr_scan"}, "fusion_lon": 0.0, "lat": 38.883176166666665, "bike_id": "19d32c7fb901107b727550e260f61fba", "type": "electric_scooter", "is_reserved": 0, "lon": -77.01386733333334}, {"fusion_lat": 0.0, "name": "404db57bea6c278a50d65c77755c5ac8", "is_disabled": 0, "rental_uris": {"android": "https://dc.lft.to/lastmile_qr_scan", "ios": "https://dc.lft.to/lastmile_qr_scan"}, "fusion_lon": 0.0, "lat": 38.89645566666667, "bike_id": "404db57bea6c278a50d65c77755c5ac8", "type": "electric_scooter", "is_reserved": 0, "lon": -77.0509615}, {"fusion_lat": 0.0, "name": "023115c8aba4f95a6852565f3515a032", "is_disabled": 0, "rental_uris": {"android": "https://dc.lft.to/lastmile_qr_scan", "ios": "https://dc.lft.to/lastmile_qr_scan"}, "fusion_lon": 0.0, "lat": 38.92097483333333, "bike_id": "023115c8aba4f95a6852565f3515a032", "type": "electric_scooter", "is_reserved": 0, "lon": -77.02497833333334}, {"fusion_lat": 0.0, "name": "466284849b6ac82fd010087c608799c1", "is_disabled": 0, "rental_uris": {"android": "https://dc.lft.to/lastmile_qr_scan", "ios": "https://dc.lft.to/lastmile_qr_scan"}, "fusion_lon": 0.0, "lat": 38.924480833333334, "bike_id": "466284849b6ac82fd010087c608799c1", "type": "electric_scooter", "is_reserved": 0, "lon": -77.008738}, {"fusion_lat": 0.0, "name": "f11fbb349ff6815a03638abe0c4ad6cc", "is_disabled": 0, "rental_uris": {"android": "https://dc.lft.to/lastmile_qr_scan", "ios": "https://dc.lft.to/lastmile_qr_scan"}, "fusion_lon": 0.0, "lat": 38.899521666666665, "bike_id": "f11fbb349ff6815a03638abe0c4ad6cc", "type": "electric_scooter", "is_reserved": 0, "lon": -76.9972725}, {"fusion_lat": 0.0, "name": "80d378c56bb889c17c35e353d4349f22", "is_disabled": 0, "rental_uris": {"android": "https://dc.lft.to/lastmile_qr_scan", "ios": "https://dc.lft.to/lastmile_qr_scan"}, "fusion_lon": 0.0, "lat": 38.93587216666667, "bike_id": "80d378c56bb889c17c35e353d4349f22", "type": "electric_scooter", "is_reserved": 0, "lon": -77.03352616666666}, {"fusion_lat": 0.0, "name": "59705d0c03592e340f7454de89fe58d4", "is_disabled": 0, "rental_uris": {"android": "https://dc.lft.to/lastmile_qr_scan", "ios": "https://dc.lft.to/lastmile_qr_scan"}, "fusion_lon": 0.0, "lat": 38.9287685, "bike_id": "59705d0c03592e340f7454de89fe58d4", "type": "electric_scooter", "is_reserved": 0, "lon": -77.03358033333333}, {"fusion_lat": 0.0, "name": "eba95d787a5d934f9327995f44aeb33d", "is_disabled": 0, "rental_uris": {"android": "https://dc.lft.to/lastmile_qr_scan", "ios": "https://dc.lft.to/lastmile_qr_scan"}, "fusion_lon": 0.0, "lat": 38.99738333333333, "bike_id": "eba95d787a5d934f9327995f44aeb33d", "type": "electric_bike", "is_reserved": 0, "lon": -77.02684}, {"fusion_lat": 0.0, "name": "e373c82aa74887b1c5ebd054e61b30bd", "is_disabled": 0, "rental_uris": {"android": "https://dc.lft.to/lastmile_qr_scan", "ios": "https://dc.lft.to/lastmile_qr_scan"}, "fusion_lon": 0.0, "lat": 38.928421166666666, "bike_id": "e373c82aa74887b1c5ebd054e61b30bd", "type": "electric_scooter", "is_reserved": 0, "lon": -77.03289116666667}, {"fusion_lat": 0.0, "name": "d7fb6db3e1ff8b792d272cc23e839461", "is_disabled": 0, "rental_uris": {"android": "https://dc.lft.to/lastmile_qr_scan", "ios": "https://dc.lft.to/lastmile_qr_scan"}, "fusion_lon": 0.0, "lat": 38.922848, "bike_id": "d7fb6db3e1ff8b792d272cc23e839461", "type": "electric_scooter", "is_reserved": 0, "lon": -77.02340916666667}, {"fusion_lat": 0.0, "name": "65ba770ef47e77e940d374a4dd7fd32e", "is_disabled": 0, "rental_uris": {"android": "https://dc.lft.to/lastmile_qr_scan", "ios": "https://dc.lft.to/lastmile_qr_scan"}, "fusion_lon": 0.0, "lat": 38.81329983333333, "bike_id": "65ba770ef47e77e940d374a4dd7fd32e", "type": "electric_bike", "is_reserved": 0, "lon": -77.05083216666667}, {"fusion_lat": 0.0, "name": "c515306565874121955397cb5fb4706a", "is_disabled": 0, "rental_uris": {"android": "https://dc.lft.to/lastmile_qr_scan", "ios": "https://dc.lft.to/lastmile_qr_scan"}, "fusion_lon": 0.0, "lat": 38.90024716666667, "bike_id": "c515306565874121955397cb5fb4706a", "type": "electric_scooter", "is_reserved": 0, "lon": -77.01246833333333}, {"fusion_lat": 0.0, "name": "8732ca810aee5d8b1b126b393931b943", "is_disabled": 0, "rental_uris": {"android": "https://dc.lft.to/lastmile_qr_scan", "ios": "https://dc.lft.to/lastmile_qr_scan"}, "fusion_lon": 0.0, "lat": 38.88420133333333, "bike_id": "8732ca810aee5d8b1b126b393931b943", "type": "electric_scooter", "is_reserved": 0, "lon": -76.99214}, {"fusion_lat": 0.0, "name": "899aa337177fd0d4140951a889e3be2d", "is_disabled": 0, "rental_uris": {"android": "https://dc.lft.to/lastmile_qr_scan", "ios": "https://dc.lft.to/lastmile_qr_scan"}, "fusion_lon": 0.0, "lat": 38.91483, "bike_id": "899aa337177fd0d4140951a889e3be2d", "type": "electric_scooter", "is_reserved": 0, "lon": -77.0326305}, {"fusion_lat": 0.0, "name": "c65508363d14f67eb001bd94bba43384", "is_disabled": 0, "rental_uris": {"android": "https://dc.lft.to/lastmile_qr_scan", "ios": "https://dc.lft.to/lastmile_qr_scan"}, "fusion_lon": 0.0, "lat": 38.895145, "bike_id": "c65508363d14f67eb001bd94bba43384", "type": "electric_scooter", "is_reserved": 0, "lon": -77.01107766666667}, {"fusion_lat": 0.0, "name": "8f9d413dc51a0c077f674b19e4f6c709", "is_disabled": 0, "rental_uris": {"android": "https://dc.lft.to/lastmile_qr_scan", "ios": "https://dc.lft.to/lastmile_qr_scan"}, "fusion_lon": 0.0, "lat": 38.923722, "bike_id": "8f9d413dc51a0c077f674b19e4f6c709", "type": "electric_scooter", "is_reserved": 0, "lon": -77.03528616666667}, {"fusion_lat": 0.0, "name": "9096f9bcfc48dbacc46a02c10590ac45", "is_disabled": 0, "rental_uris": {"android": "https://dc.lft.to/lastmile_qr_scan", "ios": "https://dc.lft.to/lastmile_qr_scan"}, "fusion_lon": 0.0, "lat": 38.91040983333333, "bike_id": "9096f9bcfc48dbacc46a02c10590ac45", "type": "electric_scooter", "is_reserved": 0, "lon": -77.01282016666667}, {"fusion_lat": 0.0, "name": "d71af21ae0c41c343d784bb8ec5edd32", "is_disabled": 0, "rental_uris": {"android": "https://dc.lft.to/lastmile_qr_scan", "ios": "https://dc.lft.to/lastmile_qr_scan"}, "fusion_lon": 0.0, "lat": 38.94183566666667, "bike_id": "d71af21ae0c41c343d784bb8ec5edd32", "type": "electric_scooter", "is_reserved": 0, "lon": -77.02312816666667}, {"fusion_lat": 0.0, "name": "2732f5d9ac9e24bd16a5870482217ba1", "is_disabled": 0, "rental_uris": {"android": "https://dc.lft.to/lastmile_qr_scan", "ios": "https://dc.lft.to/lastmile_qr_scan"}, "fusion_lon": 0.0, "lat": 38.9191995, "bike_id": "2732f5d9ac9e24bd16a5870482217ba1", "type": "electric_scooter", "is_reserved": 0, "lon": -77.00980016666666}, {"fusion_lat": 0.0, "name": "add0ca174f1a6f741ada95aa6c3a7075", "is_disabled": 0, "rental_uris": {"android": "https://dc.lft.to/lastmile_qr_scan", "ios": "https://dc.lft.to/lastmile_qr_scan"}, "fusion_lon": 0.0, "lat": 38.91603166666667, "bike_id": "add0ca174f1a6f741ada95aa6c3a7075", "type": "electric_scooter", "is_reserved": 0, "lon": -77.04338933333334}, {"fusion_lat": 0.0, "name": "89fb61695a68620f57ebdebcec3038d2", "is_disabled": 0, "rental_uris": {"android": "https://dc.lft.to/lastmile_qr_scan", "ios": "https://dc.lft.to/lastmile_qr_scan"}, "fusion_lon": 0.0, "lat": 38.89952316666667, "bike_id": "89fb61695a68620f57ebdebcec3038d2", "type": "electric_scooter", "is_reserved": 0, "lon": -77.01482216666666}, {"fusion_lat": 0.0, "name": "95463bd9de17345d0ece0ef88177b846", "is_disabled": 0, "rental_uris": {"android": "https://dc.lft.to/lastmile_qr_scan", "ios": "https://dc.lft.to/lastmile_qr_scan"}, "fusion_lon": 0.0, "lat": 38.949200166666664, "bike_id": "95463bd9de17345d0ece0ef88177b846", "type": "electric_bike", "is_reserved": 0, "lon": -77.007949}, {"fusion_lat": 0.0, "name": "d616894f646b491804f490bb3a5f1618", "is_disabled": 0, "rental_uris": {"android": "https://dc.lft.to/lastmile_qr_scan", "ios": "https://dc.lft.to/lastmile_qr_scan"}, "fusion_lon": 0.0, "lat": 38.9587345, "bike_id": "d616894f646b491804f490bb3a5f1618", "type": "electric_bike", "is_reserved": 0, "lon": -76.97054266666666}, {"fusion_lat": 0.0, "name": "96ce2590e6b69ead650d31155edb3ab3", "is_disabled": 0, "rental_uris": {"android": "https://dc.lft.to/lastmile_qr_scan", "ios": "https://dc.lft.to/lastmile_qr_scan"}, "fusion_lon": 0.0, "lat": 38.91980566666667, "bike_id": "96ce2590e6b69ead650d31155edb3ab3", "type": "electric_scooter", "is_reserved": 0, "lon": -77.0332405}, {"fusion_lat": 0.0, "name": "2287860fbdc41664a75a4c929491aafb", "is_disabled": 0, "rental_uris": {"android": "https://dc.lft.to/lastmile_qr_scan", "ios": "https://dc.lft.to/lastmile_qr_scan"}, "fusion_lon": 0.0, "lat": 38.899714833333334, "bike_id": "2287860fbdc41664a75a4c929491aafb", "type": "electric_scooter", "is_reserved": 0, "lon": -77.033354}, {"fusion_lat": 0.0, "name": "8b6015037e56b58ef55a5969148a2e53", "is_disabled": 0, "rental_uris": {"android": "https://dc.lft.to/lastmile_qr_scan", "ios": "https://dc.lft.to/lastmile_qr_scan"}, "fusion_lon": 0.0, "lat": 38.923435833333336, "bike_id": "8b6015037e56b58ef55a5969148a2e53", "type": "electric_scooter", "is_reserved": 0, "lon": -77.03534283333333}, {"fusion_lat": 0.0, "name": "840b9d0081d0a3276b2abbbda48bb0ec", "is_disabled": 0, "rental_uris": {"android": "https://dc.lft.to/lastmile_qr_scan", "ios": "https://dc.lft.to/lastmile_qr_scan"}, "fusion_lon": 0.0, "lat": 38.9061885, "bike_id": "840b9d0081d0a3276b2abbbda48bb0ec", "type": "electric_scooter", "is_reserved": 0, "lon": -77.02953883333333}, {"fusion_lat": 0.0, "name": "611e8a5dc213b17b75f52135a7ccdcc6", "is_disabled": 0, "rental_uris": {"android": "https://dc.lft.to/lastmile_qr_scan", "ios": "https://dc.lft.to/lastmile_qr_scan"}, "fusion_lon": 0.0, "lat": 38.95633766666667, "bike_id": "611e8a5dc213b17b75f52135a7ccdcc6", "type": "electric_scooter", "is_reserved": 0, "lon": -77.03300916666667}, {"fusion_lat": 0.0, "name": "8be93d3255f172624266247026e19124", "is_disabled": 0, "rental_uris": {"android": "https://dc.lft.to/lastmile_qr_scan", "ios": "https://dc.lft.to/lastmile_qr_scan"}, "fusion_lon": 0.0, "lat": 38.93607933333333, "bike_id": "8be93d3255f172624266247026e19124", "type": "electric_scooter", "is_reserved": 0, "lon": -77.02294333333333}, {"fusion_lat": 0.0, "name": "edac811f659903429f1ad10c55a99835", "is_disabled": 0, "rental_uris": {"android": "https://dc.lft.to/lastmile_qr_scan", "ios": "https://dc.lft.to/lastmile_qr_scan"}, "fusion_lon": 0.0, "lat": 38.914877, "bike_id": "edac811f659903429f1ad10c55a99835", "type": "electric_bike", "is_reserved": 0, "lon": -77.01774016666667}, {"fusion_lat": 0.0, "name": "a207a66aaaec1224fd84c005dab99b66", "is_disabled": 0, "rental_uris": {"android": "https://dc.lft.to/lastmile_qr_scan", "ios": "https://dc.lft.to/lastmile_qr_scan"}, "fusion_lon": 0.0, "lat": 38.91618316666667, "bike_id": "a207a66aaaec1224fd84c005dab99b66", "type": "electric_scooter", "is_reserved": 0, "lon": -77.03842583333333}, {"fusion_lat": 0.0, "name": "3c31da778e6dce3cf5ed30f2b4f49037", "is_disabled": 0, "rental_uris": {"android": "https://dc.lft.to/lastmile_qr_scan", "ios": "https://dc.lft.to/lastmile_qr_scan"}, "fusion_lon": 0.0, "lat": 38.900346, "bike_id": "3c31da778e6dce3cf5ed30f2b4f49037", "type": "electric_scooter", "is_reserved": 0, "lon": -77.05824383333334}, {"fusion_lat": 0.0, "name": "7d8702a37c13f4556d648be3b547a5d2", "is_disabled": 0, "rental_uris": {"android": "https://dc.lft.to/lastmile_qr_scan", "ios": "https://dc.lft.to/lastmile_qr_scan"}, "fusion_lon": 0.0, "lat": 38.92569366666667, "bike_id": "7d8702a37c13f4556d648be3b547a5d2", "type": "electric_scooter", "is_reserved": 0, "lon": -77.03734}, {"fusion_lat": 0.0, "name": "f916caeddf589d5f8572a08637af16e6", "is_disabled": 0, "rental_uris": {"android": "https://dc.lft.to/lastmile_qr_scan", "ios": "https://dc.lft.to/lastmile_qr_scan"}, "fusion_lon": 0.0, "lat": 38.906761, "bike_id": "f916caeddf589d5f8572a08637af16e6", "type": "electric_scooter", "is_reserved": 0, "lon": -77.07008383333333}, {"fusion_lat": 0.0, "name": "934a852c9222386034c1c9c7a3877a0a", "is_disabled": 0, "rental_uris": {"android": "https://dc.lft.to/lastmile_qr_scan", "ios": "https://dc.lft.to/lastmile_qr_scan"}, "fusion_lon": 0.0, "lat": 38.897267666666664, "bike_id": "934a852c9222386034c1c9c7a3877a0a", "type": "electric_scooter", "is_reserved": 0, "lon": -77.02157733333334}, {"fusion_lat": 0.0, "name": "40b6d56c2fb233ab2e7937359b33cfd6", "is_disabled": 0, "rental_uris": {"android": "https://dc.lft.to/lastmile_qr_scan", "ios": "https://dc.lft.to/lastmile_qr_scan"}, "fusion_lon": 0.0, "lat": 38.89899116666667, "bike_id": "40b6d56c2fb233ab2e7937359b33cfd6", "type": "electric_scooter", "is_reserved": 0, "lon": -76.9334195}, {"fusion_lat": 0.0, "name": "5f2fc862aedc621be2c8f4300f24a56e", "is_disabled": 0, "rental_uris": {"android": "https://dc.lft.to/lastmile_qr_scan", "ios": "https://dc.lft.to/lastmile_qr_scan"}, "fusion_lon": 0.0, "lat": 38.9340555, "bike_id": "5f2fc862aedc621be2c8f4300f24a56e", "type": "electric_scooter", "is_reserved": 0, "lon": -77.04157483333333}, {"fusion_lat": 0.0, "name": "57ca44f989ccac9da30b212a103998cb", "is_disabled": 0, "rental_uris": {"android": "https://dc.lft.to/lastmile_qr_scan", "ios": "https://dc.lft.to/lastmile_qr_scan"}, "fusion_lon": 0.0, "lat": 38.93507266666667, "bike_id": "57ca44f989ccac9da30b212a103998cb", "type": "electric_scooter", "is_reserved": 0, "lon": -77.02410516666667}, {"fusion_lat": 0.0, "name": "aaffb8b0140f33467bb19207e7bbab0a", "is_disabled": 0, "rental_uris": {"android": "https://dc.lft.to/lastmile_qr_scan", "ios": "https://dc.lft.to/lastmile_qr_scan"}, "fusion_lon": 0.0, "lat": 38.90729116666667, "bike_id": "aaffb8b0140f33467bb19207e7bbab0a", "type": "electric_scooter", "is_reserved": 0, "lon": -77.00056216666667}, {"fusion_lat": 0.0, "name": "98502efdb82bd6eb9cde96d37e27f7ed", "is_disabled": 0, "rental_uris": {"android": "https://dc.lft.to/lastmile_qr_scan", "ios": "https://dc.lft.to/lastmile_qr_scan"}, "fusion_lon": 0.0, "lat": 38.909751, "bike_id": "98502efdb82bd6eb9cde96d37e27f7ed", "type": "electric_scooter", "is_reserved": 0, "lon": -77.00897966666666}, {"fusion_lat": 0.0, "name": "6d4c76ee2d8b0514f221e8ebcc5ca88d", "is_disabled": 0, "rental_uris": {"android": "https://dc.lft.to/lastmile_qr_scan", "ios": "https://dc.lft.to/lastmile_qr_scan"}, "fusion_lon": 0.0, "lat": 38.927460833333335, "bike_id": "6d4c76ee2d8b0514f221e8ebcc5ca88d", "type": "electric_scooter", "is_reserved": 0, "lon": -77.02535566666667}, {"fusion_lat": 0.0, "name": "ae958aefc8fb1216c38afe997f7010cb", "is_disabled": 0, "rental_uris": {"android": "https://dc.lft.to/lastmile_qr_scan", "ios": "https://dc.lft.to/lastmile_qr_scan"}, "fusion_lon": 0.0, "lat": 38.88768133333333, "bike_id": "ae958aefc8fb1216c38afe997f7010cb", "type": "electric_scooter", "is_reserved": 0, "lon": -76.97749666666667}, {"fusion_lat": 0.0, "name": "8902c6fcdabbef5cc882defbe26e405a", "is_disabled": 0, "rental_uris": {"android": "https://dc.lft.to/lastmile_qr_scan", "ios": "https://dc.lft.to/lastmile_qr_scan"}, "fusion_lon": 0.0, "lat": 38.8545915, "bike_id": "8902c6fcdabbef5cc882defbe26e405a", "type": "electric_scooter", "is_reserved": 0, "lon": -76.97226733333333}, {"fusion_lat": 0.0, "name": "fd8e22a24cd2e69120358b0a2c0b75de", "is_disabled": 0, "rental_uris": {"android": "https://dc.lft.to/lastmile_qr_scan", "ios": "https://dc.lft.to/lastmile_qr_scan"}, "fusion_lon": 0.0, "lat": 38.89242816666667, "bike_id": "fd8e22a24cd2e69120358b0a2c0b75de", "type": "electric_scooter", "is_reserved": 0, "lon": -77.03346016666667}, {"fusion_lat": 0.0, "name": "f71ade85ef4416670552840ea3d53802", "is_disabled": 0, "rental_uris": {"android": "https://dc.lft.to/lastmile_qr_scan", "ios": "https://dc.lft.to/lastmile_qr_scan"}, "fusion_lon": 0.0, "lat": 38.93628133333333, "bike_id": "f71ade85ef4416670552840ea3d53802", "type": "electric_scooter", "is_reserved": 0, "lon": -77.03655516666667}, {"fusion_lat": 0.0, "name": "222b9e68df67b2cc6120bc9c657fff86", "is_disabled": 0, "rental_uris": {"android": "https://dc.lft.to/lastmile_qr_scan", "ios": "https://dc.lft.to/lastmile_qr_scan"}, "fusion_lon": 0.0, "lat": 38.90053416666667, "bike_id": "222b9e68df67b2cc6120bc9c657fff86", "type": "electric_scooter", "is_reserved": 0, "lon": -77.0259735}, {"fusion_lat": 0.0, "name": "698e943bb653582a34cf2ab6320bc162", "is_disabled": 0, "rental_uris": {"android": "https://dc.lft.to/lastmile_qr_scan", "ios": "https://dc.lft.to/lastmile_qr_scan"}, "fusion_lon": 0.0, "lat": 38.927276666666664, "bike_id": "698e943bb653582a34cf2ab6320bc162", "type": "electric_scooter", "is_reserved": 0, "lon": -77.02300816666667}, {"fusion_lat": 0.0, "name": "41bd5282a94278e08db24c6d8f6b7dbb", "is_disabled": 0, "rental_uris": {"android": "https://dc.lft.to/lastmile_qr_scan", "ios": "https://dc.lft.to/lastmile_qr_scan"}, "fusion_lon": 0.0, "lat": 38.879285333333335, "bike_id": "41bd5282a94278e08db24c6d8f6b7dbb", "type": "electric_scooter", "is_reserved": 0, "lon": -77.008346}, {"fusion_lat": 0.0, "name": "6ffa7c48090b66f5cbb47443ccf82a34", "is_disabled": 0, "rental_uris": {"android": "https://dc.lft.to/lastmile_qr_scan", "ios": "https://dc.lft.to/lastmile_qr_scan"}, "fusion_lon": 0.0, "lat": 38.89229066666667, "bike_id": "6ffa7c48090b66f5cbb47443ccf82a34", "type": "electric_scooter", "is_reserved": 0, "lon": -77.017122}, {"fusion_lat": 0.0, "name": "5bc25123f76fecd614dc368f70b10bd9", "is_disabled": 0, "rental_uris": {"android": "https://dc.lft.to/lastmile_qr_scan", "ios": "https://dc.lft.to/lastmile_qr_scan"}, "fusion_lon": 0.0, "lat": 38.92158833333333, "bike_id": "5bc25123f76fecd614dc368f70b10bd9", "type": "electric_scooter", "is_reserved": 0, "lon": -77.03378733333334}, {"fusion_lat": 0.0, "name": "36a942a553d72afef7f03722090c5c60", "is_disabled": 0, "rental_uris": {"android": "https://dc.lft.to/lastmile_qr_scan", "ios": "https://dc.lft.to/lastmile_qr_scan"}, "fusion_lon": 0.0, "lat": 38.920702166666665, "bike_id": "36a942a553d72afef7f03722090c5c60", "type": "electric_scooter", "is_reserved": 0, "lon": -77.02391683333333}, {"fusion_lat": 0.0, "name": "224433a9b0d7a345135febd1dbda04b5", "is_disabled": 0, "rental_uris": {"android": "https://dc.lft.to/lastmile_qr_scan", "ios": "https://dc.lft.to/lastmile_qr_scan"}, "fusion_lon": 0.0, "lat": 38.928491666666666, "bike_id": "224433a9b0d7a345135febd1dbda04b5", "type": "electric_scooter", "is_reserved": 0, "lon": -77.0243785}, {"fusion_lat": 0.0, "name": "a1b545c2aaa3a315031f4087dde467d8", "is_disabled": 0, "rental_uris": {"android": "https://dc.lft.to/lastmile_qr_scan", "ios": "https://dc.lft.to/lastmile_qr_scan"}, "fusion_lon": 0.0, "lat": 38.934931666666664, "bike_id": "a1b545c2aaa3a315031f4087dde467d8", "type": "electric_scooter", "is_reserved": 0, "lon": -77.04531783333333}, {"fusion_lat": 0.0, "name": "d9b29019e28be13eeef2f0e7449dc3a0", "is_disabled": 0, "rental_uris": {"android": "https://dc.lft.to/lastmile_qr_scan", "ios": "https://dc.lft.to/lastmile_qr_scan"}, "fusion_lon": 0.0, "lat": 38.93652516666667, "bike_id": "d9b29019e28be13eeef2f0e7449dc3a0", "type": "electric_scooter", "is_reserved": 0, "lon": -77.03655583333334}, {"fusion_lat": 0.0, "name": "d63c514e3a738fcd11be5a1f3c305340", "is_disabled": 0, "rental_uris": {"android": "https://dc.lft.to/lastmile_qr_scan", "ios": "https://dc.lft.to/lastmile_qr_scan"}, "fusion_lon": 0.0, "lat": 38.8961075, "bike_id": "d63c514e3a738fcd11be5a1f3c305340", "type": "electric_scooter", "is_reserved": 0, "lon": -77.04970033333333}, {"fusion_lat": 0.0, "name": "e217fc9e54094372c7e7cde982915c47", "is_disabled": 0, "rental_uris": {"android": "https://dc.lft.to/lastmile_qr_scan", "ios": "https://dc.lft.to/lastmile_qr_scan"}, "fusion_lon": 0.0, "lat": 38.90755083333333, "bike_id": "e217fc9e54094372c7e7cde982915c47", "type": "electric_scooter", "is_reserved": 0, "lon": -77.00098833333334}, {"fusion_lat": 0.0, "name": "68c78598237b5a796f1e9dd43f43ab7c", "is_disabled": 0, "rental_uris": {"android": "https://dc.lft.to/lastmile_qr_scan", "ios": "https://dc.lft.to/lastmile_qr_scan"}, "fusion_lon": 0.0, "lat": 38.924854, "bike_id": "68c78598237b5a796f1e9dd43f43ab7c", "type": "electric_bike", "is_reserved": 0, "lon": -77.233442}, {"fusion_lat": 0.0, "name": "57958c898ec90ba29541ba3e1969c566", "is_disabled": 0, "rental_uris": {"android": "https://dc.lft.to/lastmile_qr_scan", "ios": "https://dc.lft.to/lastmile_qr_scan"}, "fusion_lon": 0.0, "lat": 38.90440066666667, "bike_id": "57958c898ec90ba29541ba3e1969c566", "type": "electric_scooter", "is_reserved": 0, "lon": -77.05041066666666}, {"fusion_lat": 0.0, "name": "a959b66a2b00de83a1ab9bd21d3cc632", "is_disabled": 0, "rental_uris": {"android": "https://dc.lft.to/lastmile_qr_scan", "ios": "https://dc.lft.to/lastmile_qr_scan"}, "fusion_lon": 0.0, "lat": 38.90305883333333, "bike_id": "a959b66a2b00de83a1ab9bd21d3cc632", "type": "electric_scooter", "is_reserved": 0, "lon": -76.97509366666667}, {"fusion_lat": 0.0, "name": "9a6945e90c9bee96eb9d24e83c99c204", "is_disabled": 0, "rental_uris": {"android": "https://dc.lft.to/lastmile_qr_scan", "ios": "https://dc.lft.to/lastmile_qr_scan"}, "fusion_lon": 0.0, "lat": 38.91524016666666, "bike_id": "9a6945e90c9bee96eb9d24e83c99c204", "type": "electric_scooter", "is_reserved": 0, "lon": -77.07276066666667}, {"fusion_lat": 0.0, "name": "bc239c8ddcf89caeba71a3f86442ebef", "is_disabled": 0, "rental_uris": {"android": "https://dc.lft.to/lastmile_qr_scan", "ios": "https://dc.lft.to/lastmile_qr_scan"}, "fusion_lon": 0.0, "lat": 38.905122666666664, "bike_id": "bc239c8ddcf89caeba71a3f86442ebef", "type": "electric_scooter", "is_reserved": 0, "lon": -77.064335}, {"fusion_lat": 0.0, "name": "c449da5a55328571de30a7160778d911", "is_disabled": 0, "rental_uris": {"android": "https://dc.lft.to/lastmile_qr_scan", "ios": "https://dc.lft.to/lastmile_qr_scan"}, "fusion_lon": 0.0, "lat": 38.93258816666667, "bike_id": "c449da5a55328571de30a7160778d911", "type": "electric_scooter", "is_reserved": 0, "lon": -77.01914133333334}, {"fusion_lat": 0.0, "name": "f55c4684815971d73068e93a390aadf5", "is_disabled": 0, "rental_uris": {"android": "https://dc.lft.to/lastmile_qr_scan", "ios": "https://dc.lft.to/lastmile_qr_scan"}, "fusion_lon": 0.0, "lat": 38.9210795, "bike_id": "f55c4684815971d73068e93a390aadf5", "type": "electric_scooter", "is_reserved": 0, "lon": -77.0179465}, {"fusion_lat": 0.0, "name": "33bf5168b36ab2593d21be8d8c3a4881", "is_disabled": 0, "rental_uris": {"android": "https://dc.lft.to/lastmile_qr_scan", "ios": "https://dc.lft.to/lastmile_qr_scan"}, "fusion_lon": 0.0, "lat": 38.89665566666667, "bike_id": "33bf5168b36ab2593d21be8d8c3a4881", "type": "electric_scooter", "is_reserved": 0, "lon": -76.93202716666667}, {"fusion_lat": 0.0, "name": "fca6fa708a0f9eefa2c2ec56a3196ef4", "is_disabled": 0, "rental_uris": {"android": "https://dc.lft.to/lastmile_qr_scan", "ios": "https://dc.lft.to/lastmile_qr_scan"}, "fusion_lon": 0.0, "lat": 38.93963516666667, "bike_id": "fca6fa708a0f9eefa2c2ec56a3196ef4", "type": "electric_scooter", "is_reserved": 0, "lon": -77.03275783333333}, {"fusion_lat": 0.0, "name": "9c4fb9bd6ecf2f127bfcb11d85f9fead", "is_disabled": 0, "rental_uris": {"android": "https://dc.lft.to/lastmile_qr_scan", "ios": "https://dc.lft.to/lastmile_qr_scan"}, "fusion_lon": 0.0, "lat": 38.909316833333335, "bike_id": "9c4fb9bd6ecf2f127bfcb11d85f9fead", "type": "electric_scooter", "is_reserved": 0, "lon": -77.06263366666667}, {"fusion_lat": 0.0, "name": "5758e2f81549b4d30bd13fd638c9c338", "is_disabled": 0, "rental_uris": {"android": "https://dc.lft.to/lastmile_qr_scan", "ios": "https://dc.lft.to/lastmile_qr_scan"}, "fusion_lon": 0.0, "lat": 38.93557633333333, "bike_id": "5758e2f81549b4d30bd13fd638c9c338", "type": "electric_scooter", "is_reserved": 0, "lon": -77.03459866666667}, {"fusion_lat": 0.0, "name": "9dd25a4c410a3630485f6c326c5c2ffd", "is_disabled": 0, "rental_uris": {"android": "https://dc.lft.to/lastmile_qr_scan", "ios": "https://dc.lft.to/lastmile_qr_scan"}, "fusion_lon": 0.0, "lat": 38.92569616666667, "bike_id": "9dd25a4c410a3630485f6c326c5c2ffd", "type": "electric_scooter", "is_reserved": 0, "lon": -77.0225665},