{"data": {"bikes": [{"fusion_lon": 0.0, "bike_id": "7cb6cba7774e11110bca364f881b0f32", "name": "7cb6cba7774e11110bca364f881b0f32", "type": "electric_scooter", "lon": -77.02076383333333, "rental_uris": {"android": "https://dc.lft.to/lastmile_qr_scan", "ios": "https://dc.lft.to/lastmile_qr_scan"}, "lat": 38.9490465, "is_reserved": 0, "is_disabled": 0, "fusion_lat": 0.0}, {"fusion_lon": 0.0, "bike_id": "ca87237c34bc50d9c005b6cbffa4f87b", "name": "ca87237c34bc50d9c005b6cbffa4f87b", "type": "electric_scooter", "lon": -76.99697766666667, "rental_uris": {"android": "https://dc.lft.to/lastmile_qr_scan", "ios": "https://dc.lft.to/lastmile_qr_scan"}, "lat": 38.83874383333333, "is_reserved": 0, "is_disabled": 0, "fusion_lat": 0.0}, {"fusion_lon": 0.0, "bike_id": "ba62b1836cd160361c03273cf49aa4cd", "name": "ba62b1836cd160361c03273cf49aa4cd", "type": "electric_scooter", "lon": -77.04387266666667, "rental_uris": {"android": "https://dc.lft.to/lastmile_qr_scan", "ios": "https://dc.lft.to/lastmile_qr_scan"}, "lat": 38.87437083333333, "is_reserved": 0, "is_disabled": 0, "fusion_lat": 0.0}, {"fusion_lon": 0.0, "bike_id": "ae5957ca40b569e3e62a25ddf020521d", "name": "ae5957ca40b569e3e62a25ddf020521d", "type": "electric_scooter", "lon": -76.97236566666666, "rental_uris": {"android": "https://dc.lft.to/lastmile_qr_scan", "ios": "https://dc.lft.to/lastmile_qr_scan"}, "lat": 38.854626, "is_reserved": 0, "is_disabled": 0, "fusion_lat": 0.0}, {"fusion_lon": 0.0, "bike_id": "fc36302119f26052e90937378367506b", "name": "fc36302119f26052e90937378367506b", "type": "electric_scooter", "lon": -77.04652166666666, "rental_uris": {"android": "https://dc.lft.to/lastmile_qr_scan", "ios": "https://dc.lft.to/lastmile_qr_scan"}, "lat": 38.9148325, "is_reserved": 0, "is_disabled": 0, "fusion_lat": 0.0}, {"fusion_lon": 0.0, "bike_id": "3eb3217bbf5d3aa27ea5f5db2ad6765a", "name": "3eb3217bbf5d3aa27ea5f5db2ad6765a", "type": "electric_scooter", "lon": -77.04657466666667, "rental_uris": {"android": "https://dc.lft.to/lastmile_qr_scan", "ios": "https://dc.lft.to/lastmile_qr_scan"}, "lat": 38.8930365, "is_reserved": 0, "is_disabled": 0, "fusion_lat": 0.0}, {"fusion_lon": 0.0, "bike_id": "a3ae608130e36a70f3020794f2434582", "name": "a3ae608130e36a70f3020794f2434582", "type": "electric_bike", "lon": -77.09160933333334, "rental_uris": {"android": "https://dc.lft.to/lastmile_qr_scan", "ios": "https://dc.lft.to/lastmile_qr_scan"}, "lat": 38.96760166666667, "is_reserved": 0, "is_disabled": 0, "fusion_lat": 0.0}, {"fusion_lon": 0.0, "bike_id": "6ae83af3282aa7066f18a9954022f804", "name": "6ae83af3282aa7066f18a9954022f804", "type": "electric_scooter", "lon": -77.00515466666667, "rental_uris": {"android": "https://dc.lft.to/lastmile_qr_scan", "ios": "https://dc.lft.to/lastmile_qr_scan"}, "lat": 38.874731833333335, "is_reserved": 0, "is_disabled": 0, "fusion_lat": 0.0}, {"fusion_lon": 0.0, "bike_id": "db2daf438e8221c9272b665f12838875", "name": "db2daf438e8221c9272b665f12838875", "type": "electric_scooter", "lon": -77.0238875, "rental_uris": {"android": "https://dc.lft.to/lastmile_qr_scan", "ios": "https://dc.lft.to/lastmile_qr_scan"}, "lat": 38.919602166666664, "is_reserved": 0, "is_disabled": 0, "fusion_lat": 0.0}, {"fusion_lon": 0.0, "bike_id": "e62212ba7cc3eb1f410d4bfbbf5bc8a3", "name": "e62212ba7cc3eb1f410d4bfbbf5bc8a3", "type": "electric_scooter", "lon": -77.03726533333334, "rental_uris": {"android": "https://dc.lft.to/lastmile_qr_scan", "ios": "https://dc.lft.to/lastmile_qr_scan"}, "lat": 38.918189166666664, "is_reserved": 0, "is_disabled": 0, "fusion_lat": 0.0}, {"fusion_lon": 0.0, "bike_id": "3b2e7ae62c30bc08c02a5b965d363687", "name": "3b2e7ae62c30bc08c02a5b965d363687", "type": "electric_scooter", "lon": -77.03654833333333, "rental_uris": {"android": "https://dc.lft.to/lastmile_qr_scan", "ios": "https://dc.lft.to/lastmile_qr_scan"}, "lat": 38.94180883333333, "is_reserved": 0, "is_disabled": 0, "fusion_lat": 0.0}, {"fusion_lon": 0.0, "bike_id": "48dd327208a1dc4a732340eb3c7c5a7b", "name": "48dd327208a1dc4a732340eb3c7c5a7b", "type": "electric_scooter", "lon": -77.04877616666667, "rental_uris": {"android": "https://dc.lft.to/lastmile_qr_scan", "ios": "https://dc.lft.to/lastmile_qr_scan"}, "lat": 38.905853666666665, "is_reserved": 0, "is_disabled": 0, "fusion_lat": 0.0}, {"fusion_lon": 0.0, "bike_id": "e36f95886aa111762aa6a38c3248b5fa", "name": "e36f95886aa111762aa6a38c3248b5fa", "type": "electric_scooter", "lon": -77.026008, "rental_uris": {"android": "https://dc.lft.to/lastmile_qr_scan", "ios": "https://dc.lft.to/lastmile_qr_scan"}, "lat": 38.91427733333333, "is_reserved": 0, "is_disabled": 0, "fusion_lat": 0.0}, {"fusion_lon": 0.0, "bike_id": "9ad987af4f329d21e0875cc707b7c3bf", "name": "9ad987af4f329d21e0875cc707b7c3bf", "type": "electric_scooter", "lon": -77.0414275, "rental_uris": {"android": "https://dc.lft.to/lastmile_qr_scan", "ios": "https://dc.lft.to/lastmile_qr_scan"}, "lat": 38.91683416666667, "is_reserved": 0, "is_disabled": 0, "fusion_lat": 0.0}, {"fusion_lon": 0.0, "bike_id": "f96155bdccb28c546047e37f53e81c17", "name": "f96155bdccb28c546047e37f53e81c17", "type": "electric_scooter", "lon": -77.024888, "rental_uris": {"android": "https://dc.lft.to/lastmile_qr_scan", "ios": "https://dc.lft.to/lastmile_qr_scan"}, "lat": 38.91753933333333, "is_reserved": 0, "is_disabled": 0, "fusion_lat": 0.0}, {"fusion_lon": 0.0, "bike_id": "fa44acc2e63469b1508620b70a340310", "name": "fa44acc2e63469b1508620b70a340310", "type": "electric_scooter", "lon": -77.05082766666666, "rental_uris": {"android": "https://dc.lft.to/lastmile_qr_scan", "ios": "https://dc.lft.to/lastmile_qr_scan"}, "lat": 38.90091133333333, "is_reserved": 0, "is_disabled": 0, "fusion_lat": 0.0}, {"fusion_lon": 0.0, "bike_id": "b44c18b93b79b4559db7716ca53ba684", "name": "b44c18b93b79b4559db7716ca53ba684", "type": "electric_scooter", "lon": -77.03184716666667, "rental_uris": {"android": "https://dc.lft.to/lastmile_qr_scan", "ios": "https://dc.lft.to/lastmile_qr_scan"}, "lat": 38.921073, "is_reserved": 0, "is_disabled": 0, "fusion_lat": 0.0}, {"fusion_lon": 0.0, "bike_id": "189315a618bd773fe74309a3b6026737", "name": "189315a618bd773fe74309a3b6026737", "type": "electric_scooter", "lon": -77.03441933333333, "rental_uris": {"android": "https://dc.lft.to/lastmile_qr_scan", "ios": "https://dc.lft.to/lastmile_qr_scan"}, "lat": 38.91039383333333, "is_reserved": 0, "is_disabled": 0, "fusion_lat": 0.0}, {"fusion_lon": 0.0, "bike_id": "e9ccd86e3c35273f2d4ec98e2dd0f577", "name": "e9ccd86e3c35273f2d4ec98e2dd0f577", "type": "electric_scooter", "lon": -77.04310883333333, "rental_uris": {"android": "https://dc.lft.to/lastmile_qr_scan", "ios": "https://dc.lft.to/lastmile_qr_scan"}, "lat": 38.918851333333336, "is_reserved": 0, "is_disabled": 0, "fusion_lat": 0.0}, {"fusion_lon": 0.0, "bike_id": "9368f5af19f8b2d2eff238c27b34dbcc", "name": "9368f5af19f8b2d2eff238c27b34dbcc", "type": "electric_scooter", "lon": -77.02493283333334, "rental_uris": {"android": "https://dc.lft.to/lastmile_qr_scan", "ios": "https://dc.lft.to/lastmile_qr_scan"}, "lat": 38.94186916666666, "is_reserved": 0, "is_disabled": 0, "fusion_lat": 0.0}, {"fusion_lon": 0.0, "bike_id": "25453d5187252e6fabf1aa0f758491f9", "name": "25453d5187252e6fabf1aa0f758491f9", "type": "electric_scooter", "lon": -76.9981055, "rental_uris": {"android": "https://dc.lft.to/lastmile_qr_scan", "ios": "https://dc.lft.to/lastmile_qr_scan"}, "lat": 38.87667233333333, "is_reserved": 0, "is_disabled": 0, "fusion_lat": 0.0}, {"fusion_lon": 0.0, "bike_id": "92785e8492b53f437c473386de2994ea", "name": "92785e8492b53f437c473386de2994ea", "type": "electric_scooter", "lon": -77.05794016666667, "rental_uris": {"android": "https://dc.lft.to/lastmile_qr_scan", "ios": "https://dc.lft.to/lastmile_qr_scan"}, "lat": 38.934839, "is_reserved": 0, "is_disabled": 0, "fusion_lat": 0.0}, {"fusion_lon": 0.0, "bike_id": "b2ebca9c7e2ffb7f5ba6508a58a365e8", "name": "b2ebca9c7e2ffb7f5ba6508a58a365e8", "type": "electric_scooter", "lon": -76.94638466666666, "rental_uris": {"android": "https://dc.lft.to/lastmile_qr_scan", "ios": "https://dc.lft.to/lastmile_qr_scan"}, "lat": 38.898465, "is_reserved": 0, "is_disabled": 0, "fusion_lat": 0.0}, {"fusion_lon": 0.0, "bike_id": "8bbdcfb5f2e6025db847b984fd11bcdc", "name": "8bbdcfb5f2e6025db847b984fd11bcdc", "type": "electric_bike", "lon": -76.9291995, "rental_uris": {"android": "https://dc.lft.to/lastmile_qr_scan", "ios": "https://dc.lft.to/lastmile_qr_scan"}, "lat": 38.98025716666667, "is_reserved": 0, "is_disabled": 0, "fusion_lat": 0.0}, {"fusion_lon": 0.0, "bike_id": "09a8655bda6c3f50cc20febf63e7ff66", "name": "09a8655bda6c3f50cc20febf63e7ff66", "type": "electric_scooter", "lon": -77.00288916666666, "rental_uris": {"android": "https://dc.lft.to/lastmile_qr_scan", "ios": "https://dc.lft.to/lastmile_qr_scan"}, "lat": 38.90894733333333, "is_reserved": 0, "is_disabled": 0, "fusion_lat": 0.0}, {"fusion_lon": 0.0, "bike_id": "bbdc45486e3a3e9ba7432c734ec2f935", "name": "bbdc45486e3a3e9ba7432c734ec2f935", "type": "electric_scooter", "lon": -76.994149, "rental_uris": {"android": "https://dc.lft.to/lastmile_qr_scan", "ios": "https://dc.lft.to/lastmile_qr_scan"}, "lat": 38.93307266666667, "is_reserved": 0, "is_disabled": 0, "fusion_lat": 0.0}, {"fusion_lon": 0.0, "bike_id": "8187d59714b2c55823abbe2ef69924ad", "name": "8187d59714b2c55823abbe2ef69924ad", "type": "electric_scooter", "lon": -76.99443666666667, "rental_uris": {"android": "https://dc.lft.to/lastmile_qr_scan", "ios": "https://dc.lft.to/lastmile_qr_scan"}, "lat": 38.90506933333333, "is_reserved": 0, "is_disabled": 0, "fusion_lat": 0.0}, {"fusion_lon": 0.0, "bike_id": "a40a8a2f7f5e79d634a30b88f70bbcb9", "name": "a40a8a2f7f5e79d634a30b88f70bbcb9", "type": "electric_scooter", "lon": -77.04490916666667, "rental_uris": {"android": "https://dc.lft.to/lastmile_qr_scan", "ios": "https://dc.lft.to/lastmile_qr_scan"}, "lat": 38.906762, "is_reserved": 0, "is_disabled": 0, "fusion_lat": 0.0}, {"fusion_lon": 0.0, "bike_id": "5fd10dc19309e76aaec02b7f3140a759", "name": "5fd10dc19309e76aaec02b7f3140a759", "type": "electric_scooter", "lon": -77.04163766666667, "rental_uris": {"android": "https://dc.lft.to/lastmile_qr_scan", "ios": "https://dc.lft.to/lastmile_qr_scan"}, "lat": 38.91344733333333, "is_reserved": 0, "is_disabled": 0, "fusion_lat": 0.0}, {"fusion_lon": 0.0, "bike_id": "ae2af6174371a971d162696a0dcaffdf", "name": "ae2af6174371a971d162696a0dcaffdf", "type": "electric_scooter", "lon": -76.95518116666666, "rental_uris": {"android": "https://dc.lft.to/lastmile_qr_scan", "ios": "https://dc.lft.to/lastmile_qr_scan"}, "lat": 38.89055583333333, "is_reserved": 0, "is_disabled": 0, "fusion_lat": 0.0}, {"fusion_lon": 0.0, "bike_id": "b80f3a3522c2e33a8a2a596b30739cd0", "name": "b80f3a3522c2e33a8a2a596b30739cd0", "type": "electric_scooter", "lon": -76.94472566666667, "rental_uris": {"android": "https://dc.lft.to/lastmile_qr_scan", "ios": "https://dc.lft.to/lastmile_qr_scan"}, "lat": 38.90282916666666, "is_reserved": 0, "is_disabled": 0, "fusion_lat": 0.0}, {"fusion_lon": 0.0, "bike_id": "c711451442760771d0a6d03545576a75", "name": "c711451442760771d0a6d03545576a75", "type": "electric_scooter", "lon": -77.03394733333333, "rental_uris": {"android": "https://dc.lft.to/lastmile_qr_scan", "ios": "https://dc.lft.to/lastmile_qr_scan"}, "lat": 38.91966133333333, "is_reserved": 0, "is_disabled": 0, "fusion_lat": 0.0}, {"fusion_lon": 0.0, "bike_id": "7b3d0e3ace80a3211c477fed0c55c75f", "name": "7b3d0e3ace80a3211c477fed0c55c75f", "type": "electric_scooter", "lon": -77.02293816666666, "rental_uris": {"android": "https://dc.lft.to/lastmile_qr_scan", "ios": "https://dc.lft.to/lastmile_qr_scan"}, "lat": 38.917561166666665, "is_reserved": 0, "is_disabled": 0, "fusion_lat": 0.0}, {"fusion_lon": 0.0, "bike_id": "549ef598486771b5fb7c505b7b5ff9e5", "name": "549ef598486771b5fb7c505b7b5ff9e5", "type": "electric_bike", "lon": -77.11415066666666, "rental_uris": {"android": "https://dc.lft.to/lastmile_qr_scan", "ios": "https://dc.lft.to/lastmile_qr_scan"}, "lat": 38.84294583333333, "is_reserved": 0, "is_disabled": 0, "fusion_lat": 0.0}, {"fusion_lon": 0.0, "bike_id": "8897b3f5019c59169ba9ef350814dade", "name": "8897b3f5019c59169ba9ef350814dade", "type": "electric_scooter", "lon": -77.02537266666667, "rental_uris": {"android": "https://dc.lft.to/lastmile_qr_scan", "ios": "https://dc.lft.to/lastmile_qr_scan"}, "lat": 38.907367666666666, "is_reserved": 0, "is_disabled": 0, "fusion_lat": 0.0}, {"fusion_lon": 0.0, "bike_id": "c81614dd239c6ad8df1b72e2456bbbcc", "name": "c81614dd239c6ad8df1b72e2456bbbcc", "type": "electric_bike", "lon": -77.0616845, "rental_uris": {"android": "https://dc.lft.to/lastmile_qr_scan", "ios": "https://dc.lft.to/lastmile_qr_scan"}, "lat": 38.8127435, "is_reserved": 0, "is_disabled": 0, "fusion_lat": 0.0}, {"fusion_lon": 0.0, "bike_id": "f33dc06f6d4da0edc166f529c45ca36a", "name": "f33dc06f6d4da0edc166f529c45ca36a", "type": "electric_scooter", "lon": -77.03299166666666, "rental_uris": {"android": "https://dc.lft.to/lastmile_qr_scan", "ios": "https://dc.lft.to/lastmile_qr_scan"}, "lat": 38.922666666666665, "is_reserved": 0, "is_disabled": 0, "fusion_lat": 0.0}, {"fusion_lon": 0.0, "bike_id": "c2a99fd152f1b202c940fc073899bffe", "name": "c2a99fd152f1b202c940fc073899bffe", "type": "electric_bike", "lon": -76.9447085, "rental_uris": {"android": "https://dc.lft.to/lastmile_qr_scan", "ios": "https://dc.lft.to/lastmile_qr_scan"}, "lat": 38.9455865, "is_reserved": 0, "is_disabled": 0, "fusion_lat": 0.0}, {"fusion_lon": 0.0, "bike_id": "1b10ec26ce42648d844fbf1a02b88657", "name": "1b10ec26ce42648d844fbf1a02b88657", "type": "electric_scooter", "lon": -77.041951, "rental_uris": {"android": "https://dc.lft.to/lastmile_qr_scan", "ios": "https://dc.lft.to/lastmile_qr_scan"}, "lat": 38.918778333333336, "is_reserved": 0, "is_disabled": 0, "fusion_lat": 0.0}, {"fusion_lon": 0.0, "bike_id": "8431d9e860581e12a04090d9f2a6159a", "name": "8431d9e860581e12a04090d9f2a6159a", "type": "electric_bike", "lon": -77.079006, "rental_uris": {"android": "https://dc.lft.to/lastmile_qr_scan", "ios": "https://dc.lft.to/lastmile_qr_scan"}, "lat": 38.839394666666664, "is_reserved": 0, "is_disabled": 0, "fusion_lat": 0.0}, {"fusion_lon": 0.0, "bike_id": "2620352561843a52dc822225f6b80dfa", "name": "2620352561843a52dc822225f6b80dfa", "type": "electric_scooter", "lon": -77.010121, "rental_uris": {"android": "https://dc.lft.to/lastmile_qr_scan", "ios": "https://dc.lft.to/lastmile_qr_scan"}, "lat": 38.879708666666666, "is_reserved": 0, "is_disabled": 0, "fusion_lat": 0.0}, {"fusion_lon": 0.0, "bike_id": "fe6fdfbd834f27fe6fe0f80b5edbf256", "name": "fe6fdfbd834f27fe6fe0f80b5edbf256", "type": "electric_scooter", "lon": -77.00876583333333, "rental_uris": {"android": "https://dc.lft.to/lastmile_qr_scan", "ios": "https://dc.lft.to/lastmile_qr_scan"}, "lat": 38.905692333333334, "is_reserved": 0, "is_disabled": 0, "fusion_lat": 0.0}, {"fusion_lon": 0.0, "bike_id": "704d152a16e40e7672735cb4f376afd6", "name": "704d152a16e40e7672735cb4f376afd6", "type": "electric_scooter", "lon": -77.02222416666666, "rental_uris": {"android": "https://dc.lft.to/lastmile_qr_scan", "ios": "https://dc.lft.to/lastmile_qr_scan"}, "lat": 38.9127115, "is_reserved": 0, "is_disabled": 0, "fusion_lat": 0.0}, {"fusion_lon": 0.0, "bike_id": "b951cdc7e1ca92425c1cd803afc5f59b", "name": "b951cdc7e1ca92425c1cd803afc5f59b", "type": "electric_scooter", "lon": -77.01774116666667, "rental_uris": {"android": "https://dc.lft.to/lastmile_qr_scan", "ios": "https://dc.lft.to/lastmile_qr_scan"}, "lat": 38.902563, "is_reserved": 0, "is_disabled": 0, "fusion_lat": 0.0}, {"fusion_lon": 0.0, "bike_id": "23ae05fa9d807cc9c633f3cde296ad96", "name": "23ae05fa9d807cc9c633f3cde296ad96", "type": "electric_scooter", "lon": -77.00299483333333, "rental_uris": {"android": "https://dc.lft.to/lastmile_qr_scan", "ios": "https://dc.lft.to/lastmile_qr_scan"}, "lat": 38.90126083333333, "is_reserved": 0, "is_disabled": 0, "fusion_lat": 0.0}, {"fusion_lon": 0.0, "bike_id": "01c77818715fa7834685766f8e828306", "name": "01c77818715fa7834685766f8e828306", "type": "electric_scooter", "lon": -77.04830083333333, "rental_uris": {"android": "https://dc.lft.to/lastmile_qr_scan", "ios": "https://dc.lft.to/lastmile_qr_scan"}, "lat": 38.9104195, "is_reserved": 0, "is_disabled": 0, "fusion_lat": 0.0}, {"fusion_lon": 0.0, "bike_id": "01be2288bd18c9de89877912e197607e", "name": "01be2288bd18c9de89877912e197607e", "type": "electric_scooter", "lon": -76.975535, "rental_uris": {"android": "https://dc.lft.to/lastmile_qr_scan", "ios": "https://dc.lft.to/lastmile_qr_scan"}, "lat": 38.90262833333333, "is_reserved": 0, "is_disabled": 0, "fusion_lat": 0.0}, {"fusion_lon": 0.0, "bike_id": "67cf7491d44782527573101401551ed6", "name": "67cf7491d44782527573101401551ed6", "type": "electric_scooter", "lon": -76.98331916666666, "rental_uris": {"android": "https://dc.lft.to/lastmile_qr_scan", "ios": "https://dc.lft.to/lastmile_qr_scan"}, "lat": 38.88987783333334, "is_reserved": 0, "is_disabled": 0, "fusion_lat": 0.0}, {"fusion_lon": 0.0, "bike_id": "92326f26e3ff31fa13ea3d542b2d180e", "name": "92326f26e3ff31fa13ea3d542b2d180e", "type": "electric_bike", "lon": -77.0067055, "rental_uris": {"android": "https://dc.lft.to/lastmile_qr_scan", "ios": "https://dc.lft.to/lastmile_qr_scan"}, "lat": 38.945174333333334, "is_reserved": 0, "is_disabled": 0, "fusion_lat": 0.0}, {"fusion_lon": 0.0, "bike_id": "ca24596440ceb461d098bc123948f795", "name": "ca24596440ceb461d098bc123948f795", "type": "electric_scooter", "lon": -77.02758183333333, "rental_uris": {"android": "https://dc.lft.to/lastmile_qr_scan", "ios": "https://dc.lft.to/lastmile_qr_scan"}, "lat": 38.9258415, "is_reserved": 0, "is_disabled": 0, "fusion_lat": 0.0}, {"fusion_lon": 0.0, "bike_id": "111c901d5ffdadc3953ce190c240d735", "name": "111c901d5ffdadc3953ce190c240d735", "type": "electric_scooter", "lon": -77.01955916666667, "rental_uris": {"android": "https://dc.lft.to/lastmile_qr_scan", "ios": "https://dc.lft.to/lastmile_qr_scan"}, "lat": 38.90564, "is_reserved": 0, "is_disabled": 0, "fusion_lat": 0.0}, {"fusion_lon": 0.0, "bike_id": "cc965e46625ce25c1af9fae8f85d1dba", "name": "cc965e46625ce25c1af9fae8f85d1dba", "type": "electric_scooter", "lon": -77.00153816666666, "rental_uris": {"android": "https://dc.lft.to/lastmile_qr_scan", "ios": "https://dc.lft.to/lastmile_qr_scan"}, "lat": 38.8739125, "is_reserved": 0, "is_disabled": 0, "fusion_lat": 0.0}, {"fusion_lon": 0.0, "bike_id": "73959da6476990cd6139bbf454be3171", "name": "73959da6476990cd6139bbf454be3171", "type": "electric_scooter", "lon": -77.07260383333333, "rental_uris": {"android": "https://dc.lft.to/lastmile_qr_scan", "ios": "https://dc.lft.to/lastmile_qr_scan"}, "lat": 38.90785416666667, "is_reserved": 0, "is_disabled": 0, "fusion_lat": 0.0}, {"fusion_lon": 0.0, "bike_id": "b55bb25777463570040115351edec818", "name": "b55bb25777463570040115351edec818", "type": "electric_scooter", "lon": -77.03836116666666, "rental_uris": {"android": "https://dc.lft.to/lastmile_qr_scan", "ios": "https://dc.lft.to/lastmile_qr_scan"}, "lat": 38.915709666666665, "is_reserved": 0, "is_disabled": 0, "fusion_lat": 0.0}, {"fusion_lon": 0.0, "bike_id": "5ccf4b27075496613c5cba47a62eb39e", "name": "5ccf4b27075496613c5cba47a62eb39e", "type": "electric_scooter", "lon": -77.02715533333334, "rental_uris": {"android": "https://dc.lft.to/lastmile_qr_scan", "ios": "https://dc.lft.to/lastmile_qr_scan"}, "lat": 38.909858, "is_reserved": 0, "is_disabled": 0, "fusion_lat": 0.0}, {"fusion_lon": 0.0, "bike_id": "5f7c049a81b5446c69c6caf4cd0e15c3", "name": "5f7c049a81b5446c69c6caf4cd0e15c3", "type": "electric_scooter", "lon": -77.02006583333333, "rental_uris": {"android": "https://dc.lft.to/lastmile_qr_scan", "ios": "https://dc.lft.to/lastmile_qr_scan"}, "lat": 38.915678, "is_reserved": 0, "is_disabled": 0, "fusion_lat": 0.0}, {"fusion_lon": 0.0, "bike_id": "0e5d2be481afeaf1f7e09313bb385692", "name": "0e5d2be481afeaf1f7e09313bb385692", "type": "electric_scooter", "lon": -77.0466265, "rental_uris": {"android": "https://dc.lft.to/lastmile_qr_scan", "ios": "https://dc.lft.to/lastmile_qr_scan"}, "lat": 38.9074215, "is_reserved": 0, "is_disabled": 0, "fusion_lat": 0.0}, {"fusion_lon": 0.0, "bike_id": "66774d6235ca69a28e1022549b4eddc0", "name": "66774d6235ca69a28e1022549b4eddc0", "type": "electric_scooter", "lon": -76.99791266666666, "rental_uris": {"android": "https://dc.lft.to/lastmile_qr_scan", "ios": "https://dc.lft.to/lastmile_qr_scan"}, "lat": 38.948298, "is_reserved": 0, "is_disabled": 0, "fusion_lat": 0.0}, {"fusion_lon": 0.0, "bike_id": "474d1b59e035e1160695d3a69a205091", "name": "474d1b59e035e1160695d3a69a205091", "type": "electric_scooter", "lon": -77.00480583333334, "rental_uris": {"android": "https://dc.lft.to/lastmile_qr_scan", "ios": "https://dc.lft.to/lastmile_qr_scan"}, "lat": 38.8805115, "is_reserved": 0, "is_disabled": 0, "fusion_lat": 0.0}, {"fusion_lon": 0.0, "bike_id": "864e30d7d5168d3ea6741d1beaa983e9", "name": "864e30d7d5168d3ea6741d1beaa983e9", "type": "electric_scooter", "lon": -77.06093433333334, "rental_uris": {"android": "https://dc.lft.to/lastmile_qr_scan", "ios": "https://dc.lft.to/lastmile_qr_scan"}, "lat": 38.943776, "is_reserved": 0, "is_disabled": 0, "fusion_lat": 0.0}, {"fusion_lon": 0.0, "bike_id": "72f04403b525adba7436450be3d4a387", "name": "72f04403b525adba7436450be3d4a387", "type": "electric_scooter", "lon": -77.01800783333333, "rental_uris": {"android": "https://dc.lft.to/lastmile_qr_scan", "ios": "https://dc.lft.to/lastmile_qr_scan"}, "lat": 38.902695, "is_reserved": 0, "is_disabled": 0, "fusion_lat": 0.0}, {"fusion_lon": 0.0, "bike_id": "4b5aa243a770aef6fee680910411d43b", "name": "4b5aa243a770aef6fee680910411d43b", "type": "electric_scooter", "lon": -77.03481566666666, "rental_uris": {"android": "https://dc.lft.to/lastmile_qr_scan", "ios": "https://dc.lft.to/lastmile_qr_scan"}, "lat": 38.921561, "is_reserved": 0, "is_disabled": 0, "fusion_lat": 0.0}, {"fusion_lon": 0.0, "bike_id": "70c5258f8ee31a90e1a0bcc2fb4fa584", "name": "70c5258f8ee31a90e1a0bcc2fb4fa584", "type": "electric_scooter", "lon": -77.04171633333333, "rental_uris": {"android": "https://dc.lft.to/lastmile_qr_scan", "ios": "https://dc.lft.to/lastmile_qr_scan"}, "lat": 38.913559666666664, "is_reserved": 0, "is_disabled": 0, "fusion_lat": 0.0}, {"fusion_lon": 0.0, "bike_id": "e19dd4a11249b31f30a0dcae471ca899", "name": "e19dd4a11249b31f30a0dcae471ca899", "type": "electric_scooter", "lon": -77.0057915, "rental_uris": {"android": "https://dc.lft.to/lastmile_qr_scan", "ios": "https://dc.lft.to/lastmile_qr_scan"}, "lat": 38.905604, "is_reserved": 0, "is_disabled": 0, "fusion_lat": 0.0}, {"fusion_lon": 0.0, "bike_id": "350062627d2b7bdb17cb3275fd61b3f3", "name": "350062627d2b7bdb17cb3275fd61b3f3", "type": "electric_scooter", "lon": -77.0325285, "rental_uris": {"android": "https://dc.lft.to/lastmile_qr_scan", "ios": "https://dc.lft.to/lastmile_qr_scan"}, "lat": 38.91822416666667, "is_reserved": 0, "is_disabled": 0, "fusion_lat": 0.0}, {"fusion_lon": 0.0, "bike_id": "ca035b18247fc42dc9d9dcdaae7ba10f", "name": "ca035b18247fc42dc9d9dcdaae7ba10f", "type": "electric_scooter", "lon": -77.0304995, "rental_uris": {"android": "https://dc.lft.to/lastmile_qr_scan", "ios": "https://dc.lft.to/lastmile_qr_scan"}, "lat": 38.884029, "is_reserved": 0, "is_disabled": 0, "fusion_lat": 0.0}, {"fusion_lon": 0.0, "bike_id": "a7d24e3840b31a49f10e917fc9399640", "name": "a7d24e3840b31a49f10e917fc9399640", "type": "electric_scooter", "lon": -77.020257, "rental_uris": {"android": "https://dc.lft.to/lastmile_qr_scan", "ios": "https://dc.lft.to/lastmile_qr_scan"}, "lat": 38.92449633333333, "is_reserved": 0, "is_disabled": 0, "fusion_lat": 0.0}, {"fusion_lon": 0.0, "bike_id": "4407859595e2fe0804f9b7f4f08a2e7b", "name": "4407859595e2fe0804f9b7f4f08a2e7b", "type": "electric_scooter", "lon": -77.00817116666667, "rental_uris": {"android": "https://dc.lft.to/lastmile_qr_scan", "ios": "https://dc.lft.to/lastmile_qr_scan"}, "lat": 38.915663, "is_reserved": 0, "is_disabled": 0, "fusion_lat": 0.0}, {"fusion_lon": 0.0, "bike_id": "095a0fb4efa6e397e88a5669c08be5be", "name": "095a0fb4efa6e397e88a5669c08be5be", "type": "electric_scooter", "lon": -76.94285133333334, "rental_uris": {"android": "https://dc.lft.to/lastmile_qr_scan", "ios": "https://dc.lft.to/lastmile_qr_scan"}, "lat": 38.88304883333333, "is_reserved": 0, "is_disabled": 0, "fusion_lat": 0.0}, {"fusion_lon": 0.0, "bike_id": "65e7b0708ab50949038c18b5df881afd", "name": "65e7b0708ab50949038c18b5df881afd", "type": "electric_bike", "lon": -77.08945066666666, "rental_uris": {"android": "https://dc.lft.to/lastmile_qr_scan", "ios": "https://dc.lft.to/lastmile_qr_scan"}, "lat": 38.84112666666667, "is_reserved": 0, "is_disabled": 0, "fusion_lat": 0.0}, {"fusion_lon": 0.0, "bike_id": "20e5425c358ab230718fdb306a655479", "name": "20e5425c358ab230718fdb306a655479", "type": "electric_scooter", "lon": -76.98341933333333, "rental_uris": {"android": "https://dc.lft.to/lastmile_qr_scan", "ios": "https://dc.lft.to/lastmile_qr_scan"}, "lat": 38.86254383333333, "is_reserved": 0, "is_disabled": 0, "fusion_lat": 0.0}, {"fusion_lon": 0.0, "bike_id": "bb2404b2c5b6e749fc62bbbd4753c8f9", "name": "bb2404b2c5b6e749fc62bbbd4753c8f9", "type": "electric_scooter", "lon": -77.03833133333333, "rental_uris": {"android": "https://dc.lft.to/lastmile_qr_scan", "ios": "https://dc.lft.to/lastmile_qr_scan"}, "lat": 38.915667666666664, "is_reserved": 0, "is_disabled": 0, "fusion_lat": 0.0}, {"fusion_lon": 0.0, "bike_id": "7e0ad686f58edca3970ec69e4007fd99", "name": "7e0ad686f58edca3970ec69e4007fd99", "type": "electric_scooter", "lon": -77.03467483333333, "rental_uris": {"android": "https://dc.lft.to/lastmile_qr_scan", "ios": "https://dc.lft.to/lastmile_qr_scan"}, "lat": 38.91724633333333, "is_reserved": 0, "is_disabled": 0, "fusion_lat": 0.0}, {"fusion_lon": 0.0, "bike_id": "8ce2f59b32565b01fb46cbd0dd64cab9", "name": "8ce2f59b32565b01fb46cbd0dd64cab9", "type": "electric_scooter", "lon": -77.02100833333333, "rental_uris": {"android": "https://dc.lft.to/lastmile_qr_scan", "ios": "https://dc.lft.to/lastmile_qr_scan"}, "lat": 38.94735033333333, "is_reserved": 0, "is_disabled": 0, "fusion_lat": 0.0}, {"fusion_lon": 0.0, "bike_id": "edb1f7c38a49993e1ea471c8ad20238c", "name": "edb1f7c38a49993e1ea471c8ad20238c", "type": "electric_scooter", "lon": -77.021773, "rental_uris": {"android": "https://dc.lft.to/lastmile_qr_scan", "ios": "https://dc.lft.to/lastmile_qr_scan"}, "lat": 38.943122333333335, "is_reserved": 0, "is_disabled": 0, "fusion_lat": 0.0}, {"fusion_lon": 0.0, "bike_id": "8d9f0edc3e5bc2fb65c9fe8cebcf4e74", "name": "8d9f0edc3e5bc2fb65c9fe8cebcf4e74", "type": "electric_scooter", "lon": -77.00064183333333, "rental_uris": {"android": "https://dc.lft.to/lastmile_qr_scan", "ios": "https://dc.lft.to/lastmile_qr_scan"}, "lat": 38.892977333333334, "is_reserved": 0, "is_disabled": 0, "fusion_lat": 0.0}, {"fusion_lon": 0.0, "bike_id": "6654af045f258a617aedb5adf1347a8b", "name": "6654af045f258a617aedb5adf1347a8b", "type": "electric_scooter", "lon": -77.038444, "rental_uris": {"android": "https://dc.lft.to/lastmile_qr_scan", "ios": "https://dc.lft.to/lastmile_qr_scan"}, "lat": 38.914488, "is_reserved": 0, "is_disabled": 0, "fusion_lat": 0.0}, {"fusion_lon": 0.0, "bike_id": "9bca8a02a44b3f827981430b3addf6cc", "name": "9bca8a02a44b3f827981430b3addf6cc", "type": "electric_scooter", "lon": -77.05812583333334, "rental_uris": {"android": "https://dc.lft.to/lastmile_qr_scan", "ios": "https://dc.lft.to/lastmile_qr_scan"}, "lat": 38.90298266666667, "is_reserved": 0, "is_disabled": 0, "fusion_lat": 0.0}, {"fusion_lon": 0.0, "bike_id": "1b0e41c53ba800639876cfb61295e3dc", "name": "1b0e41c53ba800639876cfb61295e3dc", "type": "electric_scooter", "lon": -77.04093166666667, "rental_uris": {"android": "https://dc.lft.to/lastmile_qr_scan", "ios": "https://dc.lft.to/lastmile_qr_scan"}, "lat": 38.90508766666667, "is_reserved": 0, "is_disabled": 0, "fusion_lat": 0.0}, {"fusion_lon": 0.0, "bike_id": "4b027b1ebdbbcace549a4de8c2e9abb8", "name": "4b027b1ebdbbcace549a4de8c2e9abb8", "type": "electric_scooter", "lon": -77.07289133333333, "rental_uris": {"android": "https://dc.lft.to/lastmile_qr_scan", "ios": "https://dc.lft.to/lastmile_qr_scan"}, "lat": 38.93186983333333, "is_reserved": 0, "is_disabled": 0, "fusion_lat": 0.0}, {"fusion_lon": 0.0, "bike_id": "97e8299674ad36bca7e5c5b6f035878b", "name": "97e8299674ad36bca7e5c5b6f035878b", "type": "electric_scooter", "lon": -77.04485966666667, "rental_uris": {"android": "https://dc.lft.to/lastmile_qr_scan", "ios": "https://dc.lft.to/lastmile_qr_scan"}, "lat": 38.897498, "is_reserved": 0, "is_disabled": 0, "fusion_lat": 0.0}, {"fusion_lon": 0.0, "bike_id": "edcae4f5b15004cc15b9a5c06fba7d0b", "name": "edcae4f5b15004cc15b9a5c06fba7d0b", "type": "electric_bike", "lon": -77.07797116666667, "rental_uris": {"android": "https://dc.lft.to/lastmile_qr_scan", "ios": "https://dc.lft.to/lastmile_qr_scan"}, "lat": 38.84519216666666, "is_reserved": 0, "is_disabled": 0, "fusion_lat": 0.0}, {"fusion_lon": 0.0, "bike_id": "ed06e4ce00f9f8931e808c03fd0f9391", "name": "ed06e4ce00f9f8931e808c03fd0f9391", "type": "electric_scooter", "lon": -77.02957066666667, "rental_uris": {"android": "https://dc.lft.to/lastmile_qr_scan", "ios": "https://dc.lft.to/lastmile_qr_scan"}, "lat": 38.921465833333336, "is_reserved": 0, "is_disabled": 0, "fusion_lat": 0.0}, {"fusion_lon": 0.0, "bike_id": "1efc9209fc8ee7a4a5c68013f106fb34", "name": "1efc9209fc8ee7a4a5c68013f106fb34", "type": "electric_scooter", "lon": -77.02493333333334, "rental_uris": {"android": "https://dc.lft.to/lastmile_qr_scan", "ios": "https://dc.lft.to/lastmile_qr_scan"}, "lat": 38.941859, "is_reserved": 0, "is_disabled": 0, "fusion_lat": 0.0}, {"fusion_lon": 0.0, "bike_id": "d6b5d0246f5c5e55f2da17eb04dd9ee6", "name": "d6b5d0246f5c5e55f2da17eb04dd9ee6", "type": "electric_scooter", "lon": -77.0483635, "rental_uris": {"android": "https://dc.lft.to/lastmile_qr_scan", "ios": "https://dc.lft.to/lastmile_qr_scan"}, "lat": 38.91624516666667, "is_reserved": 0, "is_disabled": 0, "fusion_lat": 0.0}, {"fusion_lon": 0.0, "bike_id": "5a37b22b196d93c3c22321077affe4a4", "name": "5a37b22b196d93c3c22321077affe4a4", "type": "electric_scooter", "lon": -76.980143, "rental_uris": {"android": "https://dc.lft.to/lastmile_qr_scan", "ios": "https://dc.lft.to/lastmile_qr_scan"}, "lat": 38.86401716666667, "is_reserved": 0, "is_disabled": 0, "fusion_lat": 0.0}, {"fusion_lon": 0.0, "bike_id": "6d843b368a3d7296d527e17a015e4688", "name": "6d843b368a3d7296d527e17a015e4688", "type": "electric_scooter", "lon": -77.05856816666666, "rental_uris": {"android": "https://dc.lft.to/lastmile_qr_scan", "ios": "https://dc.lft.to/lastmile_qr_scan"}, "lat": 38.936971, "is_reserved": 0, "is_disabled": 0, "fusion_lat": 0.0}, {"fusion_lon": 0.0, "bike_id": "45c97ebe0ef5185da10addbcb99df6d8", "name": "45c97ebe0ef5185da10addbcb99df6d8", "type": "electric_scooter", "lon": -76.9949545, "rental_uris": {"android": "https://dc.lft.to/lastmile_qr_scan", "ios": "https://dc.lft.to/lastmile_qr_scan"}, "lat": 38.925794, "is_reserved": 0, "is_disabled": 0, "fusion_lat": 0.0}, {"fusion_lon": 0.0, "bike_id": "2ac5907516351be8cfe36e3e4c335428", "name": "2ac5907516351be8cfe36e3e4c335428", "type": "electric_scooter", "lon": -77.04173466666667, "rental_uris": {"android": "https://dc.lft.to/lastmile_qr_scan", "ios": "https://dc.lft.to/lastmile_qr_scan"}, "lat": 38.91985583333334, "is_reserved": 0, "is_disabled": 0, "fusion_lat": 0.0}, {"fusion_lon": 0.0, "bike_id": "49f6e7029529b999f3d513dd44e43887", "name": "49f6e7029529b999f3d513dd44e43887", "type": "electric_scooter", "lon": -77.0339425, "rental_uris": {"android": "https://dc.lft.to/lastmile_qr_scan", "ios": "https://dc.lft.to/lastmile_qr_scan"}, "lat": 38.920388, "is_reserved": 0, "is_disabled": 0, "fusion_lat": 0.0}, {"fusion_lon": 0.0, "bike_id": "b07934b9c5f20fa3049ca9f49cef181e", "name": "b07934b9c5f20fa3049ca9f49cef181e", "type": "electric_scooter", "lon": -77.02752866666667, "rental_uris": {"android": "https://dc.lft.to/lastmile_qr_scan", "ios": "https://dc.lft.to/lastmile_qr_scan"}, "lat": 38.9541845, "is_reserved": 0, "is_disabled": 0, "fusion_lat": 0.0}, {"fusion_lon": 0.0, "bike_id": "b23ff2958e3266455856f7d273d0aa24", "name": "b23ff2958e3266455856f7d273d0aa24", "type": "electric_scooter", "lon": -77.04507133333334, "rental_uris": {"android": "https://dc.lft.to/lastmile_qr_scan", "ios": "https://dc.lft.to/lastmile_qr_scan"}, "lat": 38.91281, "is_reserved": 0, "is_disabled": 0, "fusion_lat": 0.0}, {"fusion_lon": 0.0, "bike_id": "8eedb5652828cb683b0cd8b119362ad2", "name": "8eedb5652828cb683b0cd8b119362ad2", "type": "electric_scooter", "lon": -77.023126, "rental_uris": {"android": "https://dc.lft.to/lastmile_qr_scan", "ios": "https://dc.lft.to/lastmile_qr_scan"}, "lat": 38.916182166666665, "is_reserved": 0, "is_disabled": 0, "fusion_lat": 0.0}, {"fusion_lon": 0.0, "bike_id": "ee1ab553d2771331795d4c236c2e87d0", "name": "ee1ab553d2771331795d4c236c2e87d0", "type": "electric_scooter", "lon": -77.06045233333333, "rental_uris": {"android": "https://dc.lft.to/lastmile_qr_scan", "ios": "https://dc.lft.to/lastmile_qr_scan"}, "lat": 38.939160333333334, "is_reserved": 0, "is_disabled": 0, "fusion_lat": 0.0}, {"fusion_lon": 0.0, "bike_id": "a138b6cde36142b0b635f60794f2be53", "name": "a138b6cde36142b0b635f60794f2be53", "type": "electric_scooter", "lon": -77.0271075, "rental_uris": {"android": "https://dc.lft.to/lastmile_qr_scan", "ios": "https://dc.lft.to/lastmile_qr_scan"}, "lat": 38.918018833333335, "is_reserved": 0, "is_disabled": 0, "fusion_lat": 0.0}, {"fusion_lon": 0.0, "bike_id": "55bd8f363a39d9549ac9cf73b20d1eb7", "name": "55bd8f363a39d9549ac9cf73b20d1eb7", "type": "electric_scooter", "lon": -77.0325965, "rental_uris": {"android": "https://dc.lft.to/lastmile_qr_scan", "ios": "https://dc.lft.to/lastmile_qr_scan"}, "lat": 38.937536333333334, "is_reserved": 0, "is_disabled": 0, "fusion_lat": 0.0}, {"fusion_lon": 0.0, "bike_id": "15d03eb6d5f1fc625c2288eea235eae6", "name": "15d03eb6d5f1fc625c2288eea235eae6", "type": "electric_scooter", "lon": -77.0424565, "rental_uris": {"android": "https://dc.lft.to/lastmile_qr_scan", "ios": "https://dc.lft.to/lastmile_qr_scan"}, "lat": 38.945525833333335, "is_reserved": 0, "is_disabled": 0, "fusion_lat": 0.0}, {"fusion_lon": 0.0, "bike_id": "c56ba3edb2bdcbb33b516d1d43d3c670", "name": "c56ba3edb2bdcbb33b516d1d43d3c670", "type": "electric_scooter", "lon": -76.9463225, "rental_uris": {"android": "https://dc.lft.to/lastmile_qr_scan", "ios": "https://dc.lft.to/lastmile_qr_scan"}, "lat": 38.89835816666667, "is_reserved": 0, "is_disabled": 0, "fusion_lat": 0.0}, {"fusion_lon": 0.0, "bike_id": "f3b807f49f0ae096cde4885e4daae17e", "name": "f3b807f49f0ae096cde4885e4daae17e", "type": "electric_scooter", "lon": -76.99836216666667, "rental_uris": {"android": "https://dc.lft.to/lastmile_qr_scan", "ios": "https://dc.lft.to/lastmile_qr_scan"}, "lat": 38.908833, "is_reserved": 0, "is_disabled": 0, "fusion_lat": 0.0}, {"fusion_lon": 0.0, "bike_id": "b4284df1bab16ba44e305ff910069a98", "name": "b4284df1bab16ba44e305ff910069a98", "type": "electric_scooter", "lon": -77.024345, "rental_uris": {"android": "https://dc.lft.to/lastmile_qr_scan", "ios": "https://dc.lft.to/lastmile_qr_scan"}, "lat": 38.9265995, "is_reserved": 0, "is_disabled": 0, "fusion_lat": 0.0}, {"fusion_lon": 0.0, "bike_id": "39b1d2a88bf64d1cb02304c99120a701", "name": "39b1d2a88bf64d1cb02304c99120a701", "type": "electric_scooter", "lon": -77.0347725, "rental_uris": {"android": "https://dc.lft.to/lastmile_qr_scan", "ios": "https://dc.lft.to/lastmile_qr_scan"}, "lat": 38.928748666666664, "is_reserved": 0, "is_disabled": 0, "fusion_lat": 0.0}, {"fusion_lon": 0.0, "bike_id": "52be5dff8f367571187f4d611115dbd7", "name": "52be5dff8f367571187f4d611115dbd7", "type": "electric_scooter", "lon": -77.0638885, "rental_uris": {"android": "https://dc.lft.to/lastmile_qr_scan", "ios": "https://dc.lft.to/lastmile_qr_scan"}, "lat": 38.92908033333333, "is_reserved": 0, "is_disabled": 0, "fusion_lat": 0.0}, {"fusion_lon": 0.0, "bike_id": "b71ea5f46112d6d25891c4d09984bcb8", "name": "b71ea5f46112d6d25891c4d09984bcb8", "type": "electric_scooter", "lon": -77.007199, "rental_uris": {"android": "https://dc.lft.to/lastmile_qr_scan", "ios": "https://dc.lft.to/lastmile_qr_scan"}, "lat": 38.896648166666665, "is_reserved": 0, "is_disabled": 0, "fusion_lat": 0.0}, {"fusion_lon": 0.0, "bike_id": "dbcca0d735953588605349921aca8565", "name": "dbcca0d735953588605349921aca8565", "type": "electric_scooter", "lon": -77.04666133333333, "rental_uris": {"android": "https://dc.lft.to/lastmile_qr_scan", "ios": "https://dc.lft.to/lastmile_qr_scan"}, "lat": 38.920662, "is_reserved": 0, "is_disabled": 0, "fusion_lat": 0.0}, {"fusion_lon": 0.0, "bike_id": "03ef7bb3a9ea906d739b5b2f6916bfbd", "name": "03ef7bb3a9ea906d739b5b2f6916bfbd", "type": "electric_scooter", "lon": -77.03456533333333, "rental_uris": {"android": "https://dc.lft.to/lastmile_qr_scan", "ios": "https://dc.lft.to/lastmile_qr_scan"}, "lat": 38.96434416666666, "is_reserved": 0, "is_disabled": 0, "fusion_lat": 0.0}, {"fusion_lon": 0.0, "bike_id": "13f0587fbfa174f614dda9e00739f827", "name": "13f0587fbfa174f614dda9e00739f827", "type": "electric_scooter", "lon": -77.01965283333334, "rental_uris": {"android": "https://dc.lft.to/lastmile_qr_scan", "ios": "https://dc.lft.to/lastmile_qr_scan"}, "lat": 38.87848866666667, "is_reserved": 0, "is_disabled": 0, "fusion_lat": 0.0}, {"fusion_lon": 0.0, "bike_id": "72a9ecd6a36a3268bd035547716b9095", "name": "72a9ecd6a36a3268bd035547716b9095", "type": "electric_bike", "lon": -77.15266466666667, "rental_uris": {"android": "https://dc.lft.to/lastmile_qr_scan", "ios": "https://dc.lft.to/lastmile_qr_scan"}, "lat": 39.105679333333335, "is_reserved": 0, "is_disabled": 0, "fusion_lat": 0.0}, {"fusion_lon": 0.0, "bike_id": "07c1aae851e1d3990c27aa171c8496c9", "name": "07c1aae851e1d3990c27aa171c8496c9", "type": "electric_scooter", "lon": -77.041778, "rental_uris": {"android": "https://dc.lft.to/lastmile_qr_scan", "ios": "https://dc.lft.to/lastmile_qr_scan"}, "lat": 38.91266366666667, "is_reserved": 0, "is_disabled": 0, "fusion_lat": 0.0}, {"fusion_lon": 0.0, "bike_id": "4a1468c6144514f63ba71b4e4fb104a7", "name": "4a1468c6144514f63ba71b4e4fb104a7", "type": "electric_scooter", "lon": -77.00702666666666, "rental_uris": {"android": "https://dc.lft.to/lastmile_qr_scan", "ios": "https://dc.lft.to/lastmile_qr_scan"}, "lat": 38.87594833333333, "is_reserved": 0, "is_disabled": 0, "fusion_lat": 0.0}, {"fusion_lon": 0.0, "bike_id": "6280e545318285679cc2158425f90106", "name": "6280e545318285679cc2158425f90106", "type": "electric_scooter", "lon": -76.96484416666667, "rental_uris": {"android": "https://dc.lft.to/lastmile_qr_scan", "ios": "https://dc.lft.to/lastmile_qr_scan"}, "lat": 38.875521, "is_reserved": 0, "is_disabled": 0, "fusion_lat": 0.0}, {"fusion_lon": 0.0, "bike_id": "fa51bba453232b70bdcfb5131e2cf286", "name": "fa51bba453232b70bdcfb5131e2cf286", "type": "electric_bike", "lon": -76.91604116666667, "rental_uris": {"android": "https://dc.lft.to/lastmile_qr_scan", "ios": "https://dc.lft.to/lastmile_qr_scan"}, "lat": 38.879738833333334, "is_reserved": 0, "is_disabled": 0, "fusion_lat": 0.0}, {"fusion_lon": 0.0, "bike_id": "21893e61c008e4fe29bfd83666ea63b0", "name": "21893e61c008e4fe29bfd83666ea63b0", "type": "electric_scooter", "lon": -76.9832885, "rental_uris": {"android": "https://dc.lft.to/lastmile_qr_scan", "ios": "https://dc.lft.to/lastmile_qr_scan"}, "lat": 38.861746333333336, "is_reserved": 0, "is_disabled": 0, "fusion_lat": 0.0}, {"fusion_lon": 0.0, "bike_id": "b12ead6fbac8fc0b459ffc4c9024ce62", "name": "b12ead6fbac8fc0b459ffc4c9024ce62", "type": "electric_bike", "lon": -76.96837233333333, "rental_uris": {"android": "https://dc.lft.to/lastmile_qr_scan", "ios": "https://dc.lft.to/lastmile_qr_scan"}, "lat": 38.9244795, "is_reserved": 0, "is_disabled": 0, "fusion_lat": 0.0}, {"fusion_lon": 0.0, "bike_id": "c310239d81d2c3bc92143b9ad8848bdb", "name": "c310239d81d2c3bc92143b9ad8848bdb", "type": "electric_scooter", "lon": -76.96503433333334, "rental_uris": {"android": "https://dc.lft.to/lastmile_qr_scan", "ios": "https://dc.lft.to/lastmile_qr_scan"}, "lat": 38.876501166666664, "is_reserved": 0, "is_disabled": 0, "fusion_lat": 0.0}, {"fusion_lon": 0.0, "bike_id": "2408a1139cabf5bde0a3b488c184ade8", "name": "2408a1139cabf5bde0a3b488c184ade8", "type": "electric_scooter", "lon": -77.04717333333333, "rental_uris": {"android": "https://dc.lft.to/lastmile_qr_scan", "ios": "https://dc.lft.to/lastmile_qr_scan"}, "lat": 38.899663, "is_reserved": 0, "is_disabled": 0, "fusion_lat": 0.0}, {"fusion_lon": 0.0, "bike_id": "74502484b9571abf4ce988f9d9bd40af", "name": "74502484b9571abf4ce988f9d9bd40af", "type": "electric_bike", "lon": -76.9784415, "rental_uris": {"android": "https://dc.lft.to/lastmile_qr_scan", "ios": "https://dc.lft.to/lastmile_qr_scan"}, "lat": 38.88875783333334, "is_reserved": 0, "is_disabled": 0, "fusion_lat": 0.0}, {"fusion_lon": 0.0, "bike_id": "4406fb779b2f94bdd4c604da464f9292", "name": "4406fb779b2f94bdd4c604da464f9292", "type": "electric_scooter", "lon": -77.02308133333334, "rental_uris": {"android": "https://dc.lft.to/lastmile_qr_scan", "ios": "https://dc.lft.to/lastmile_qr_scan"}, "lat": 38.9207375, "is_reserved": 0, "is_disabled": 0, "fusion_lat": 0.0}, {"fusion_lon": 0.0, "bike_id": "4a55f811b1c0b7402ca3a19082506e51", "name": "4a55f811b1c0b7402ca3a19082506e51", "type": "electric_scooter", "lon": -77.02488783333334, "rental_uris": {"android": "https://dc.lft.to/lastmile_qr_scan", "ios": "https://dc.lft.to/lastmile_qr_scan"}, "lat": 38.927481666666665, "is_reserved": 0, "is_disabled": 0, "fusion_lat": 0.0}, {"fusion_lon": 0.0, "bike_id": "d50481910fb470577cec64fb56b417e0", "name": "d50481910fb470577cec64fb56b417e0", "type": "electric_scooter", "lon": -77.04170783333333, "rental_uris": {"android": "https://dc.lft.to/lastmile_qr_scan", "ios": "https://dc.lft.to/lastmile_qr_scan"}, "lat": 38.9162945, "is_reserved": 0, "is_disabled": 0, "fusion_lat": 0.0}, {"fusion_lon": 0.0, "bike_id": "bc803c93085eaaf5a6a3e97b84ef8f4c", "name": "bc803c93085eaaf5a6a3e97b84ef8f4c", "type": "electric_scooter", "lon": -77.00215316666667, "rental_uris": {"android": "https://dc.lft.to/lastmile_qr_scan", "ios": "https://dc.lft.to/lastmile_qr_scan"}, "lat": 38.911087333333334, "is_reserved": 0, "is_disabled": 0, "fusion_lat": 0.0}, {"fusion_lon": 0.0, "bike_id": "1987cb97918d5af4ee9ec8c97814defe", "name": "1987cb97918d5af4ee9ec8c97814defe", "type": "electric_scooter", "lon": -77.04658766666667, "rental_uris": {"android": "https://dc.lft.to/lastmile_qr_scan", "ios": "https://dc.lft.to/lastmile_qr_scan"}, "lat": 38.89235033333333, "is_reserved": 0, "is_disabled": 0, "fusion_lat": 0.0}, {"fusion_lon": 0.0, "bike_id": "249138ea776b4dc00ceff8bdcbd0db05", "name": "249138ea776b4dc00ceff8bdcbd0db05", "type": "electric_scooter", "lon": -77.03350533333334, "rental_uris": {"android": "https://dc.lft.to/lastmile_qr_scan", "ios": "https://dc.lft.to/lastmile_qr_scan"}, "lat": 38.924535, "is_reserved": 0, "is_disabled": 0, "fusion_lat": 0.0}, {"fusion_lon": 0.0, "bike_id": "66258035ad84c71712be5640015fbff9", "name": "66258035ad84c71712be5640015fbff9", "type": "electric_scooter", "lon": -77.00110883333333, "rental_uris": {"android": "https://dc.lft.to/lastmile_qr_scan", "ios": "https://dc.lft.to/lastmile_qr_scan"}, "lat": 38.897415333333335, "is_reserved": 0, "is_disabled": 0, "fusion_lat": 0.0}, {"fusion_lon": 0.0, "bike_id": "9d6440731e853d2a67e4734e6cb2d56a", "name": "9d6440731e853d2a67e4734e6cb2d56a", "type": "electric_scooter", "lon": -77.0251345, "rental_uris": {"android": "https://dc.lft.to/lastmile_qr_scan", "ios": "https://dc.lft.to/lastmile_qr_scan"}, "lat": 38.920907666666665, "is_reserved": 0, "is_disabled": 0, "fusion_lat": 0.0}, {"fusion_lon": 0.0, "bike_id": "4b8f6efc268204897b094657e2d514f4", "name": "4b8f6efc268204897b094657e2d514f4", "type": "electric_scooter", "lon": -77.0389055, "rental_uris": {"android": "https://dc.lft.to/lastmile_qr_scan", "ios": "https://dc.lft.to/lastmile_qr_scan"}, "lat": 38.9223605, "is_reserved": 0, "is_disabled": 0, "fusion_lat": 0.0}, {"fusion_lon": 0.0, "bike_id": "5ec838667b609db0a9299cff16a27005", "name": "5ec838667b609db0a9299cff16a27005", "type": "electric_scooter", "lon": -76.93382866666667, "rental_uris": {"android": "https://dc.lft.to/lastmile_qr_scan", "ios": "https://dc.lft.to/lastmile_qr_scan"}, "lat": 38.899122166666665, "is_reserved": 0, "is_disabled": 0, "fusion_lat": 0.0}, {"fusion_lon": 0.0, "bike_id": "8a09bbe9d15480c532a91852c2e4d84a", "name": "8a09bbe9d15480c532a91852c2e4d84a", "type": "electric_scooter", "lon": -77.015855, "rental_uris": {"android": "https://dc.lft.to/lastmile_qr_scan", "ios": "https://dc.lft.to/lastmile_qr_scan"}, "lat": 38.876470166666664, "is_reserved": 0, "is_disabled": 0, "fusion_lat": 0.0}, {"fusion_lon": 0.0, "bike_id": "3fe3d90554df934a040c6f1ce248cff3", "name": "3fe3d90554df934a040c6f1ce248cff3", "type": "electric_scooter", "lon": -77.03198783333333, "rental_uris": {"android": "https://dc.lft.to/lastmile_qr_scan", "ios": "https://dc.lft.to/lastmile_qr_scan"}, "lat": 38.916914166666665, "is_reserved": 0, "is_disabled": 0, "fusion_lat": 0.0}, {"fusion_lon": 0.0, "bike_id": "23309bc2fefb8f8a9cfdca4f11f3c049", "name": "23309bc2fefb8f8a9cfdca4f11f3c049", "type": "electric_scooter", "lon": -77.02597383333334, "rental_uris": {"android": "https://dc.lft.to/lastmile_qr_scan", "ios": "https://dc.lft.to/lastmile_qr_scan"}, "lat": 38.97589383333333, "is_reserved": 0, "is_disabled": 0, "fusion_lat": 0.0}, {"fusion_lon": 0.0, "bike_id": "1bc989d0b321b0dd575115c5117b24c3", "name": "1bc989d0b321b0dd575115c5117b24c3", "type": "electric_scooter", "lon": -76.98077983333333, "rental_uris": {"android": "https://dc.lft.to/lastmile_qr_scan", "ios": "https://dc.lft.to/lastmile_qr_scan"}, "lat": 38.901611833333334, "is_reserved": 0, "is_disabled": 0, "fusion_lat": 0.0}, {"fusion_lon": 0.0, "bike_id": "8e53bec41b403b01bdd899d50caf7006", "name": "8e53bec41b403b01bdd899d50caf7006", "type": "electric_scooter", "lon": -77.013081, "rental_uris": {"android": "https://dc.lft.to/lastmile_qr_scan", "ios": "https://dc.lft.to/lastmile_qr_scan"}, "lat": 38.900683666666666, "is_reserved": 0, "is_disabled": 0, "fusion_lat": 0.0}, {"fusion_lon": 0.0, "bike_id": "7ec1996ab76a6d095f300d0e5721ab37", "name": "7ec1996ab76a6d095f300d0e5721ab37", "type": "electric_scooter", "lon": -77.03210516666667, "rental_uris": {"android": "https://dc.lft.to/lastmile_qr_scan", "ios": "https://dc.lft.to/lastmile_qr_scan"}, "lat": 38.913835, "is_reserved": 0, "is_disabled": 0, "fusion_lat": 0.0}, {"fusion_lon": 0.0, "bike_id": "e574cf64cdd7918ebe63790dbc4d20a4", "name": "e574cf64cdd7918ebe63790dbc4d20a4", "type": "electric_bike", "lon": -76.929289, "rental_uris": {"android": "https://dc.lft.to/lastmile_qr_scan", "ios": "https://dc.lft.to/lastmile_qr_scan"}, "lat": 38.9029585, "is_reserved": 0, "is_disabled": 0, "fusion_lat": 0.0}, {"fusion_lon": 0.0, "bike_id": "c4987bf893fc5f91211a83bb4128e659", "name": "c4987bf893fc5f91211a83bb4128e659", "type": "electric_scooter", "lon": -77.03164533333333, "rental_uris": {"android": "https://dc.lft.to/lastmile_qr_scan", "ios": "https://dc.lft.to/lastmile_qr_scan"}, "lat": 38.90132066666666, "is_reserved": 0, "is_disabled": 0, "fusion_lat": 0.0}, {"fusion_lon": 0.0, "bike_id": "7a7ed6f5e63e8c0443ad9f0e956d1710", "name": "7a7ed6f5e63e8c0443ad9f0e956d1710", "type": "electric_scooter", "lon": -77.04133266666666, "rental_uris": {"android": "https://dc.lft.to/lastmile_qr_scan", "ios": "https://dc.lft.to/lastmile_qr_scan"}, "lat": 38.9061685, "is_reserved": 0, "is_disabled": 0, "fusion_lat": 0.0}, {"fusion_lon": 0.0, "bike_id": "433a6c23c4d6ad07fd5067456693b8dd", "name": "433a6c23c4d6ad07fd5067456693b8dd", "type": "electric_scooter", "lon": -77.01744566666666, "rental_uris": {"android": "https://dc.lft.to/lastmile_qr_scan", "ios": "https://dc.lft.to/lastmile_qr_scan"}, "lat": 38.87282066666667, "is_reserved": 0, "is_disabled": 0, "fusion_lat": 0.0}, {"fusion_lon": 0.0, "bike_id": "1e81d5e3bd9d7b5726c7a7d5fc3c8a2d", "name": "1e81d5e3bd9d7b5726c7a7d5fc3c8a2d", "type": "electric_bike", "lon": -76.96176883333334, "rental_uris": {"android": "https://dc.lft.to/lastmile_qr_scan", "ios": "https://dc.lft.to/lastmile_qr_scan"}, "lat": 38.91867533333333, "is_reserved": 0, "is_disabled": 0, "fusion_lat": 0.0}, {"fusion_lon": 0.0, "bike_id": "ed051d778dc5dff53fe27d3a9880f832", "name": "ed051d778dc5dff53fe27d3a9880f832", "type": "electric_scooter", "lon": -76.95758333333333, "rental_uris": {"android": "https://dc.lft.to/lastmile_qr_scan", "ios": "https://dc.lft.to/lastmile_qr_scan"}, "lat": 38.88434633333333, "is_reserved": 0, "is_disabled": 0, "fusion_lat": 0.0}, {"fusion_lon": 0.0, "bike_id": "38a28177ba13cad85aef67e1af8343c9", "name": "38a28177ba13cad85aef67e1af8343c9", "type": "electric_scooter", "lon": -77.011628, "rental_uris": {"android": "https://dc.lft.to/lastmile_qr_scan", "ios": "https://dc.lft.to/lastmile_qr_scan"}, "lat": 38.87202166666667, "is_reserved": 0, "is_disabled": 0, "fusion_lat": 0.0}, {"fusion_lon": 0.0, "bike_id": "156db3aef4a89ce3e84e7eee79c4c39d", "name": "156db3aef4a89ce3e84e7eee79c4c39d", "type": "electric_scooter", "lon": -77.0451325, "rental_uris": {"android": "https://dc.lft.to/lastmile_qr_scan", "ios": "https://dc.lft.to/lastmile_qr_scan"}, "lat": 38.91837533333333, "is_reserved": 0, "is_disabled": 0, "fusion_lat": 0.0}, {"fusion_lon": 0.0, "bike_id": "bdd41f4ad109c432f77d8727ca6435ab", "name": "bdd41f4ad109c432f77d8727ca6435ab", "type": "electric_scooter", "lon": -76.98705066666666, "rental_uris": {"android": "https://dc.lft.to/lastmile_qr_scan", "ios": "https://dc.lft.to/lastmile_qr_scan"}, "lat": 38.901316666666666, "is_reserved": 0, "is_disabled": 0, "fusion_lat": 0.0}, {"fusion_lon": 0.0, "bike_id": "a6ba2968f58dd6fb7cf250afaa35866b", "name": "a6ba2968f58dd6fb7cf250afaa35866b", "type": "electric_scooter", "lon": -77.02042766666666, "rental_uris": {"android": "https://dc.lft.to/lastmile_qr_scan", "ios": "https://dc.lft.to/lastmile_qr_scan"}, "lat": 38.91114533333333, "is_reserved": 0, "is_disabled": 0, "fusion_lat": 0.0}, {"fusion_lon": 0.0, "bike_id": "708096887102e5d6ec414ae8468ccfdc", "name": "708096887102e5d6ec414ae8468ccfdc", "type": "electric_scooter", "lon": -77.04669416666667, "rental_uris": {"android": "https://dc.lft.to/lastmile_qr_scan", "ios": "https://dc.lft.to/lastmile_qr_scan"}, "lat": 38.90635483333333, "is_reserved": 0, "is_disabled": 0, "fusion_lat": 0.0}, {"fusion_lon": 0.0, "bike_id": "43a0963fbaf34a5c068b1f8db03081c8", "name": "43a0963fbaf34a5c068b1f8db03081c8", "type": "electric_bike", "lon": -76.96683016666667, "rental_uris": {"android": "https://dc.lft.to/lastmile_qr_scan", "ios": "https://dc.lft.to/lastmile_qr_scan"}, "lat": 38.95894633333333, "is_reserved": 0, "is_disabled": 0, "fusion_lat": 0.0}, {"fusion_lon": 0.0, "bike_id": "6b61976e0f75c9d11a741abe02ff99d8", "name": "6b61976e0f75c9d11a741abe02ff99d8", "type": "electric_scooter", "lon": -77.0364095, "rental_uris": {"android": "https://dc.lft.to/lastmile_qr_scan", "ios": "https://dc.lft.to/lastmile_qr_scan"}, "lat": 38.924161, "is_reserved": 0, "is_disabled": 0, "fusion_lat": 0.0}, {"fusion_lon": 0.0, "bike_id": "b6f2eb6bafd0e4af5999eac95cd58cbf", "name": "b6f2eb6bafd0e4af5999eac95cd58cbf", "type": "electric_scooter", "lon": -77.051966, "rental_uris": {"android": "https://dc.lft.to/lastmile_qr_scan", "ios": "https://dc.lft.to/lastmile_qr_scan"}, "lat": 38.9255525, "is_reserved": 0, "is_disabled": 0, "fusion_lat": 0.0}, {"fusion_lon": 0.0, "bike_id": "5b65084852deca52b346b8860c4b7333", "name": "5b65084852deca52b346b8860c4b7333", "type": "electric_scooter", "lon": -76.99818383333333, "rental_uris": {"android": "https://dc.lft.to/lastmile_qr_scan", "ios": "https://dc.lft.to/lastmile_qr_scan"}, "lat": 38.84436066666667, "is_reserved": 0, "is_disabled": 0, "fusion_lat": 0.0}, {"fusion_lon": 0.0, "bike_id": "2fd1c8b2cb936e1c5049bd368fd41978", "name": "2fd1c8b2cb936e1c5049bd368fd41978", "type": "electric_scooter", "lon": -77.0230855, "rental_uris": {"android": "https://dc.lft.to/lastmile_qr_scan", "ios": "https://dc.lft.to/lastmile_qr_scan"}, "lat": 38.92688, "is_reserved": 0, "is_disabled": 0, "fusion_lat": 0.0}, {"fusion_lon": 0.0, "bike_id": "d96fc12851053935a0eede8ec9dd2688", "name": "d96fc12851053935a0eede8ec9dd2688", "type": "electric_bike", "lon": -77.08046816666666, "rental_uris": {"android": "https://dc.lft.to/lastmile_qr_scan", "ios": "https://dc.lft.to/lastmile_qr_scan"}, "lat": 38.848469, "is_reserved": 0, "is_disabled": 0, "fusion_lat": 0.0}, {"fusion_lon": 0.0, "bike_id": "41a48e37b556ce6ffa52492f8b7b2d86", "name": "41a48e37b556ce6ffa52492f8b7b2d86", "type": "electric_scooter", "lon": -77.0366205, "rental_uris": {"android": "https://dc.lft.to/lastmile_qr_scan", "ios": "https://dc.lft.to/lastmile_qr_scan"}, "lat": 38.922882333333334, "is_reserved": 0, "is_disabled": 0, "fusion_lat": 0.0}, {"fusion_lon": 0.0, "bike_id": "96c186c7d6587e249410cfdb1c9d4fef", "name": "96c186c7d6587e249410cfdb1c9d4fef", "type": "electric_bike", "lon": -76.98091533333333, "rental_uris": {"android": "https://dc.lft.to/lastmile_qr_scan", "ios": "https://dc.lft.to/lastmile_qr_scan"}, "lat": 38.95351683333333, "is_reserved": 0, "is_disabled": 0, "fusion_lat": 0.0}, {"fusion_lon": 0.0, "bike_id": "bee5f539b028ddcb8956c51fe91d20ad", "name": "bee5f539b028ddcb8956c51fe91d20ad", "type": "electric_scooter", "lon": -76.98883166666667, "rental_uris": {"android": "https://dc.lft.to/lastmile_qr_scan", "ios": "https://dc.lft.to/lastmile_qr_scan"}, "lat": 38.90635416666667, "is_reserved": 0, "is_disabled": 0, "fusion_lat": 0.0}, {"fusion_lon": 0.0, "bike_id": "1ae4474e1b682ccc99d31553f40a4d8c", "name": "1ae4474e1b682ccc99d31553f40a4d8c", "type": "electric_scooter", "lon": -77.04669683333333, "rental_uris": {"android": "https://dc.lft.to/lastmile_qr_scan", "ios": "https://dc.lft.to/lastmile_qr_scan"}, "lat": 38.913222, "is_reserved": 0, "is_disabled": 0, "fusion_lat": 0.0}, {"fusion_lon": 0.0, "bike_id": "378a506989ff20fb2dd444007ee1abbe", "name": "378a506989ff20fb2dd444007ee1abbe", "type": "electric_scooter", "lon": -77.0465875, "rental_uris": {"android": "https://dc.lft.to/lastmile_qr_scan", "ios": "https://dc.lft.to/lastmile_qr_scan"}, "lat": 38.893404, "is_reserved": 0, "is_disabled": 0, "fusion_lat": 0.0}, {"fusion_lon": 0.0, "bike_id": "a225ad874512dbf910a95d9b583304a9", "name": "a225ad874512dbf910a95d9b583304a9", "type": "electric_scooter", "lon": -77.01211, "rental_uris": {"android": "https://dc.lft.to/lastmile_qr_scan", "ios": "https://dc.lft.to/lastmile_qr_scan"}, "lat": 38.919783833333334, "is_reserved": 0, "is_disabled": 0, "fusion_lat": 0.0}, {"fusion_lon": 0.0, "bike_id": "2d1fbe23d2568bc713ff4c6b64b04228", "name": "2d1fbe23d2568bc713ff4c6b64b04228", "type": "electric_scooter", "lon": -77.043708, "rental_uris": {"android": "https://dc.lft.to/lastmile_qr_scan", "ios": "https://dc.lft.to/lastmile_qr_scan"}, "lat": 38.92573383333333, "is_reserved": 0, "is_disabled": 0, "fusion_lat": 0.0}, {"fusion_lon": 0.0, "bike_id": "6ddeed8bb003ce6915c3128c618e2d13", "name": "6ddeed8bb003ce6915c3128c618e2d13", "type": "electric_bike", "lon": -77.01208133333333, "rental_uris": {"android": "https://dc.lft.to/lastmile_qr_scan", "ios": "https://dc.lft.to/lastmile_qr_scan"}, "lat": 38.87096433333333, "is_reserved": 0, "is_disabled": 0, "fusion_lat": 0.0}, {"fusion_lon": 0.0, "bike_id": "12872d24e1f91e99ed5463e5fddd83a4", "name": "12872d24e1f91e99ed5463e5fddd83a4", "type": "electric_bike", "lon": -77.00325233333334, "rental_uris": {"android": "https://dc.lft.to/lastmile_qr_scan", "ios": "https://dc.lft.to/lastmile_qr_scan"}, "lat": 38.91983333333334, "is_reserved": 0, "is_disabled": 0, "fusion_lat": 0.0}, {"fusion_lon": 0.0, "bike_id": "43ca79a7438d7eeba19635aa1bd8773e", "name": "43ca79a7438d7eeba19635aa1bd8773e", "type": "electric_scooter", "lon": -77.00376783333333, "rental_uris": {"android": "https://dc.lft.to/lastmile_qr_scan", "ios": "https://dc.lft.to/lastmile_qr_scan"}, "lat": 38.906059666666664, "is_reserved": 0, "is_disabled": 0, "fusion_lat": 0.0}, {"fusion_lon": 0.0, "bike_id": "25746fa8d1de826f1d5e203cc6d73b54", "name": "25746fa8d1de826f1d5e203cc6d73b54", "type": "electric_scooter", "lon": -77.02997083333334, "rental_uris": {"android": "https://dc.lft.to/lastmile_qr_scan", "ios": "https://dc.lft.to/lastmile_qr_scan"}, "lat": 38.928574833333336, "is_reserved": 0, "is_disabled": 0, "fusion_lat": 0.0}, {"fusion_lon": 0.0, "bike_id": "9c37a23d5fa657addbbf48126dcf09ad", "name": "9c37a23d5fa657addbbf48126dcf09ad", "type": "electric_bike", "lon": -76.92343683333333, "rental_uris": {"android": "https://dc.lft.to/lastmile_qr_scan", "ios": "https://dc.lft.to/lastmile_qr_scan"}, "lat": 38.8879815, "is_reserved": 0, "is_disabled": 0, "fusion_lat": 0.0}, {"fusion_lon": 0.0, "bike_id": "beb1e73f6c560da13e8f96a64e7341b5", "name": "beb1e73f6c560da13e8f96a64e7341b5", "type": "electric_scooter", "lon": -77.000448, "rental_uris": {"android": "https://dc.lft.to/lastmile_qr_scan", "ios": "https://dc.lft.to/lastmile_qr_scan"}, "lat": 38.87536883333333, "is_reserved": 0, "is_disabled": 0, "fusion_lat": 0.0}, {"fusion_lon": 0.0, "bike_id": "9a828ff0ac992c36eb61d877acab46d8", "name": "9a828ff0ac992c36eb61d877acab46d8", "type": "electric_scooter", "lon": -77.03072733333333, "rental_uris": {"android": "https://dc.lft.to/lastmile_qr_scan", "ios": "https://dc.lft.to/lastmile_qr_scan"}, "lat": 38.92386066666667, "is_reserved": 0, "is_disabled": 0, "fusion_lat": 0.0}, {"fusion_lon": 0.0, "bike_id": "08e181f6d0587dcae01971c7ada9aed4", "name": "08e181f6d0587dcae01971c7ada9aed4", "type": "electric_scooter", "lon": -77.00933, "rental_uris": {"android": "https://dc.lft.to/lastmile_qr_scan", "ios": "https://dc.lft.to/lastmile_qr_scan"}, "lat": 38.876832, "is_reserved": 0, "is_disabled": 0, "fusion_lat": 0.0}, {"fusion_lon": 0.0, "bike_id": "771396a61a3c228178a6992eb0cb12ec", "name": "771396a61a3c228178a6992eb0cb12ec", "type": "electric_scooter", "lon": -77.03265733333333, "rental_uris": {"android": "https://dc.lft.to/lastmile_qr_scan", "ios": "https://dc.lft.to/lastmile_qr_scan"}, "lat": 38.935264, "is_reserved": 0, "is_disabled": 0, "fusion_lat": 0.0}, {"fusion_lon": 0.0, "bike_id": "fe1647947f53b15f657592532e88da32", "name": "fe1647947f53b15f657592532e88da32", "type": "electric_scooter", "lon": -77.0324475, "rental_uris": {"android": "https://dc.lft.to/lastmile_qr_scan", "ios": "https://dc.lft.to/lastmile_qr_scan"}, "lat": 38.91331066666667, "is_reserved": 0, "is_disabled": 0, "fusion_lat": 0.0}, {"fusion_lon": 0.0, "bike_id": "e42e0287b6119a9491b3d621bd5e2749", "name": "e42e0287b6119a9491b3d621bd5e2749", "type": "electric_bike", "lon": -76.97621916666667, "rental_uris": {"android": "https://dc.lft.to/lastmile_qr_scan", "ios": "https://dc.lft.to/lastmile_qr_scan"}, "lat": 38.892928166666664, "is_reserved": 0, "is_disabled": 0, "fusion_lat": 0.0}, {"fusion_lon": 0.0, "bike_id": "9dcb8e087846365dea3337f927e86dbd", "name": "9dcb8e087846365dea3337f927e86dbd", "type": "electric_scooter", "lon": -77.04676883333333, "rental_uris": {"android": "https://dc.lft.to/lastmile_qr_scan", "ios": "https://dc.lft.to/lastmile_qr_scan"}, "lat": 38.90367583333333, "is_reserved": 0, "is_disabled": 0, "fusion_lat": 0.0}, {"fusion_lon": 0.0, "bike_id": "4eac992da91aa4a8a4d1c87799467687", "name": "4eac992da91aa4a8a4d1c87799467687", "type": "electric_scooter", "lon": -77.00865916666666, "rental_uris": {"android": "https://dc.lft.to/lastmile_qr_scan", "ios": "https://dc.lft.to/lastmile_qr_scan"}, "lat": 38.90643816666667, "is_reserved": 0, "is_disabled": 0, "fusion_lat": 0.0}, {"fusion_lon": 0.0, "bike_id": "84f5806db87b8590d53892c719267ed5", "name": "84f5806db87b8590d53892c719267ed5", "type": "electric_scooter", "lon": -76.99478516666667, "rental_uris": {"android": "https://dc.lft.to/lastmile_qr_scan", "ios": "https://dc.lft.to/lastmile_qr_scan"}, "lat": 38.862190166666664, "is_reserved": 0, "is_disabled": 0, "fusion_lat": 0.0}, {"fusion_lon": 0.0, "bike_id": "beaa95382383d684e3f3c74067c974f3", "name": "beaa95382383d684e3f3c74067c974f3", "type": "electric_bike", "lon": -76.97329666666667, "rental_uris": {"android": "https://dc.lft.to/lastmile_qr_scan", "ios": "https://dc.lft.to/lastmile_qr_scan"}, "lat": 38.8506995, "is_reserved": 0, "is_disabled": 0, "fusion_lat": 0.0}, {"fusion_lon": 0.0, "bike_id": "81cc3298946f93e30afba0e8f4d01ca0", "name": "81cc3298946f93e30afba0e8f4d01ca0", "type": "electric_scooter", "lon": -77.02443833333334, "rental_uris": {"android": "https://dc.lft.to/lastmile_qr_scan", "ios": "https://dc.lft.to/lastmile_qr_scan"}, "lat": 38.92376566666667, "is_reserved": 0, "is_disabled": 0, "fusion_lat": 0.0}, {"fusion_lon": 0.0, "bike_id": "13192d5e41928085b6c8c4adc496b4d4", "name": "13192d5e41928085b6c8c4adc496b4d4", "type": "electric_bike", "lon": -77.012987, "rental_uris": {"android": "https://dc.lft.to/lastmile_qr_scan", "ios": "https://dc.lft.to/lastmile_qr_scan"}, "lat": 38.88143216666667, "is_reserved": 0, "is_disabled": 0, "fusion_lat": 0.0}, {"fusion_lon": 0.0, "bike_id": "b667ee9571b35df6af16d655e247503e", "name": "b667ee9571b35df6af16d655e247503e", "type": "electric_scooter", "lon": -77.02485866666666, "rental_uris": {"android": "https://dc.lft.to/lastmile_qr_scan", "ios": "https://dc.lft.to/lastmile_qr_scan"}, "lat": 38.916210666666665, "is_reserved": 0, "is_disabled": 0, "fusion_lat": 0.0}, {"fusion_lon": 0.0, "bike_id": "433ad1719a27ad5d90b8cf85f43423b5", "name": "433ad1719a27ad5d90b8cf85f43423b5", "type": "electric_scooter", "lon": -77.079963, "rental_uris": {"android": "https://dc.lft.to/lastmile_qr_scan", "ios": "https://dc.lft.to/lastmile_qr_scan"}, "lat": 38.92372016666667, "is_reserved": 0, "is_disabled": 0, "fusion_lat": 0.0}, {"fusion_lon": 0.0, "bike_id": "7b852fd8d8a75f7f621b3bcb6180c7b5", "name": "7b852fd8d8a75f7f621b3bcb6180c7b5", "type": "electric_scooter", "lon": -77.05096733333333, "rental_uris": {"android": "https://dc.lft.to/lastmile_qr_scan", "ios": "https://dc.lft.to/lastmile_qr_scan"}, "lat": 38.923428333333334, "is_reserved": 0, "is_disabled": 0, "fusion_lat": 0.0}, {"fusion_lon": 0.0, "bike_id": "ccdbc2a60f06cd4f3df0692aafeb7e17", "name": "ccdbc2a60f06cd4f3df0692aafeb7e17", "type": "electric_scooter", "lon": -77.00194533333334, "rental_uris": {"android": "https://dc.lft.to/lastmile_qr_scan", "ios": "https://dc.lft.to/lastmile_qr_scan"}, "lat": 38.90232366666667, "is_reserved": 0, "is_disabled": 0, "fusion_lat": 0.0}, {"fusion_lon": 0.0, "bike_id": "246ab83ed0954a0e1fae80036e105fc4", "name": "246ab83ed0954a0e1fae80036e105fc4", "type": "electric_scooter", "lon": -77.03838266666666, "rental_uris": {"android": "https://dc.lft.to/lastmile_qr_scan", "ios": "https://dc.lft.to/lastmile_qr_scan"}, "lat": 38.91010833333333, "is_reserved": 0, "is_disabled": 0, "fusion_lat": 0.0}, {"fusion_lon": 0.0, "bike_id": "5a0d4e74e1d9fbb3f9987f63e6ecda48", "name": "5a0d4e74e1d9fbb3f9987f63e6ecda48", "type": "electric_scooter", "lon": -77.0401825, "rental_uris": {"android": "https://dc.lft.to/lastmile_qr_scan", "ios": "https://dc.lft.to/lastmile_qr_scan"}, "lat": 38.92206683333333, "is_reserved": 0, "is_disabled": 0, "fusion_lat": 0.0}, {"fusion_lon": 0.0, "bike_id": "d0564988882dc6770fc82161a8939760", "name": "d0564988882dc6770fc82161a8939760", "type": "electric_scooter", "lon": -77.02626, "rental_uris": {"android": "https://dc.lft.to/lastmile_qr_scan", "ios": "https://dc.lft.to/lastmile_qr_scan"}, "lat": 38.93277166666667, "is_reserved": 0, "is_disabled": 0, "fusion_lat": 0.0}, {"fusion_lon": 0.0, "bike_id": "ed95ca3b3cdc909af2597fcea3a011d5", "name": "ed95ca3b3cdc909af2597fcea3a011d5", "type": "electric_bike", "lon": -77.17850166666666, "rental_uris": {"android": "https://dc.lft.to/lastmile_qr_scan", "ios": "https://dc.lft.to/lastmile_qr_scan"}, "lat": 39.08901766666666, "is_reserved": 0, "is_disabled": 0, "fusion_lat": 0.0}, {"fusion_lon": 0.0, "bike_id": "b1953bb53f87a31ba07e9603585896e0", "name": "b1953bb53f87a31ba07e9603585896e0", "type": "electric_scooter", "lon": -76.98665683333333, "rental_uris": {"android": "https://dc.lft.to/lastmile_qr_scan", "ios": "https://dc.lft.to/lastmile_qr_scan"}, "lat": 38.901385166666664, "is_reserved": 0, "is_disabled": 0, "fusion_lat": 0.0}, {"fusion_lon": 0.0, "bike_id": "f711b9d004165df757456ea7d475f888", "name": "f711b9d004165df757456ea7d475f888", "type": "electric_scooter", "lon": -77.042105, "rental_uris": {"android": "https://dc.lft.to/lastmile_qr_scan", "ios": "https://dc.lft.to/lastmile_qr_scan"}, "lat": 38.917042, "is_reserved": 0, "is_disabled": 0, "fusion_lat": 0.0}, {"fusion_lon": 0.0, "bike_id": "47ad79b86c5100edf220c1c06afd69dc", "name": "47ad79b86c5100edf220c1c06afd69dc", "type": "electric_scooter", "lon": -76.93184666666667, "rental_uris": {"android": "https://dc.lft.to/lastmile_qr_scan", "ios": "https://dc.lft.to/lastmile_qr_scan"}, "lat": 38.898782833333335, "is_reserved": 0, "is_disabled": 0, "fusion_lat": 0.0}, {"fusion_lon": 0.0, "bike_id": "947f0b417a390a6cea7af28af4496b8a", "name": "947f0b417a390a6cea7af28af4496b8a", "type": "electric_scooter", "lon": -77.07304166666667, "rental_uris": {"android": "https://dc.lft.to/lastmile_qr_scan", "ios": "https://dc.lft.to/lastmile_qr_scan"}, "lat": 38.92161083333333, "is_reserved": 0, "is_disabled": 0, "fusion_lat": 0.0}, {"fusion_lon": 0.0, "bike_id": "e054b6726868fb705b4ab5eea577ec01", "name": "e054b6726868fb705b4ab5eea577ec01", "type": "electric_scooter", "lon": -77.01817, "rental_uris": {"android": "https://dc.lft.to/lastmile_qr_scan", "ios": "https://dc.lft.to/lastmile_qr_scan"}, "lat": 38.9220755, "is_reserved": 0, "is_disabled": 0, "fusion_lat": 0.0}, {"fusion_lon": 0.0, "bike_id": "8a1185a9099cd7e3f625a40b998531ae", "name": "8a1185a9099cd7e3f625a40b998531ae", "type": "electric_bike", "lon": -77.0430635, "rental_uris": {"android": "https://dc.lft.to/lastmile_qr_scan", "ios": "https://dc.lft.to/lastmile_qr_scan"}, "lat": 39.054506333333336, "is_reserved": 0, "is_disabled": 0, "fusion_lat": 0.0}, {"fusion_lon": 0.0, "bike_id": "44b41bdda8e926f92a9e624e314eb387", "name": "44b41bdda8e926f92a9e624e314eb387", "type": "electric_scooter", "lon": -76.9985965, "rental_uris": {"android": "https://dc.lft.to/lastmile_qr_scan", "ios": "https://dc.lft.to/lastmile_qr_scan"}, "lat": 38.908979, "is_reserved": 0, "is_disabled": 0, "fusion_lat": 0.0}, {"fusion_lon": 0.0, "bike_id": "f649dac1a81f13090a69dd1beb863e2c", "name": "f649dac1a81f13090a69dd1beb863e2c", "type": "electric_scooter", "lon": -77.01203216666667, "rental_uris": {"android": "https://dc.lft.to/lastmile_qr_scan", "ios": "https://dc.lft.to/lastmile_qr_scan"}, "lat": 38.893319166666664, "is_reserved": 0, "is_disabled": 0, "fusion_lat": 0.0}, {"fusion_lon": 0.0, "bike_id": "2ede5224b8a3560568d7f4541d294f06", "name": "2ede5224b8a3560568d7f4541d294f06", "type": "electric_scooter", "lon": -77.03640883333334, "rental_uris": {"android": "https://dc.lft.to/lastmile_qr_scan", "ios": "https://dc.lft.to/lastmile_qr_scan"}, "lat": 38.915945666666666, "is_reserved": 0, "is_disabled": 0, "fusion_lat": 0.0}, {"fusion_lon": 0.0, "bike_id": "b14847a62668ac34a51c2a7628d5dfe2", "name": "b14847a62668ac34a51c2a7628d5dfe2", "type": "electric_scooter", "lon": -77.0118385, "rental_uris": {"android": "https://dc.lft.to/lastmile_qr_scan", "ios": "https://dc.lft.to/lastmile_qr_scan"}, "lat": 38.906533833333334, "is_reserved": 0, "is_disabled": 0, "fusion_lat": 0.0}, {"fusion_lon": 0.0, "bike_id": "ec37811ef2148fc788898a42317f16ab", "name": "ec37811ef2148fc788898a42317f16ab", "type": "electric_bike", "lon": -76.98172333333333, "rental_uris": {"android": "https://dc.lft.to/lastmile_qr_scan", "ios": "https://dc.lft.to/lastmile_qr_scan"}, "lat": 38.95962816666667, "is_reserved": 0, "is_disabled": 0, "fusion_lat": 0.0}, {"fusion_lon": 0.0, "bike_id": "c21103aa308786427769fd3783c9870d", "name": "c21103aa308786427769fd3783c9870d", "type": "electric_scooter", "lon": -77.018887, "rental_uris": {"android": "https://dc.lft.to/lastmile_qr_scan", "ios": "https://dc.lft.to/lastmile_qr_scan"}, "lat": 38.94931483333333, "is_reserved": 0, "is_disabled": 0, "fusion_lat": 0.0}, {"fusion_lon": 0.0, "bike_id": "771e3f8ca02d61600341290ea33a59f2", "name": "771e3f8ca02d61600341290ea33a59f2", "type": "electric_scooter", "lon": -76.9334685, "rental_uris": {"android": "https://dc.lft.to/lastmile_qr_scan", "ios": "https://dc.lft.to/lastmile_qr_scan"}, "lat": 38.89909266666667, "is_reserved": 0, "is_disabled": 0, "fusion_lat": 0.0}, {"fusion_lon": 0.0, "bike_id": "59c440bf2bf2a6fc89c315f3c1c9e395", "name": "59c440bf2bf2a6fc89c315f3c1c9e395", "type": "electric_scooter", "lon": -77.00207083333333, "rental_uris": {"android": "https://dc.lft.to/lastmile_qr_scan", "ios": "https://dc.lft.to/lastmile_qr_scan"}, "lat": 38.90028933333333, "is_reserved": 0, "is_disabled": 0, "fusion_lat": 0.0}, {"fusion_lon": 0.0, "bike_id": "f190cbb5f2d778ce5fb4fd89a9e66d7a", "name": "f190cbb5f2d778ce5fb4fd89a9e66d7a", "type": "electric_scooter", "lon": -76.98449283333333, "rental_uris": {"android": "https://dc.lft.to/lastmile_qr_scan", "ios": "https://dc.lft.to/lastmile_qr_scan"}, "lat": 38.88020233333334, "is_reserved": 0, "is_disabled": 0, "fusion_lat": 0.0}, {"fusion_lon": 0.0, "bike_id": "d55394611c242ba261c40b170844adc8", "name": "d55394611c242ba261c40b170844adc8", "type": "electric_scooter", "lon": -77.03536383333334, "rental_uris": {"android": "https://dc.lft.to/lastmile_qr_scan", "ios": "https://dc.lft.to/lastmile_qr_scan"}, "lat": 38.9360695, "is_reserved": 0, "is_disabled": 0, "fusion_lat": 0.0}, {"fusion_lon": 0.0, "bike_id": "84660ac76e92fa99598f2a4cbc40d76d", "name": "84660ac76e92fa99598f2a4cbc40d76d", "type": "electric_scooter", "lon": -77.041667, "rental_uris": {"android": "https://dc.lft.to/lastmile_qr_scan", "ios": "https://dc.lft.to/lastmile_qr_scan"}, "lat": 38.91099616666666, "is_reserved": 0, "is_disabled": 0, "fusion_lat": 0.0}, {"fusion_lon": 0.0, "bike_id": "94ba36b5e596eda029820fd73ee9d8e9", "name": "94ba36b5e596eda029820fd73ee9d8e9", "type": "electric_scooter", "lon": -77.04156233333333, "rental_uris": {"android": "https://dc.lft.to/lastmile_qr_scan", "ios": "https://dc.lft.to/lastmile_qr_scan"}, "lat": 38.91607616666667, "is_reserved": 0, "is_disabled": 0, "fusion_lat": 0.0}, {"fusion_lon": 0.0, "bike_id": "8ce8134345577ce0f3e349e7f178876f", "name": "8ce8134345577ce0f3e349e7f178876f", "type": "electric_scooter", "lon": -76.96571933333334, "rental_uris": {"android": "https://dc.lft.to/lastmile_qr_scan", "ios": "https://dc.lft.to/lastmile_qr_scan"}, "lat": 38.87139633333334, "is_reserved": 0, "is_disabled": 0, "fusion_lat": 0.0}, {"fusion_lon": 0.0, "bike_id": "03cc18bc019fc5f4d518ddcf9cbff445", "name": "03cc18bc019fc5f4d518ddcf9cbff445", "type": "electric_scooter", "lon": -77.01157866666667, "rental_uris": {"android": "https://dc.lft.to/lastmile_qr_scan", "ios": "https://dc.lft.to/lastmile_qr_scan"}, "lat": 38.895998166666665, "is_reserved": 0, "is_disabled": 0, "fusion_lat": 0.0}, {"fusion_lon": 0.0, "bike_id": "199d3d2a4a8f153a17b9a4769a7a78fd", "name": "199d3d2a4a8f153a17b9a4769a7a78fd", "type": "electric_scooter", "lon": -76.99633766666666, "rental_uris": {"android": "https://dc.lft.to/lastmile_qr_scan", "ios": "https://dc.lft.to/lastmile_qr_scan"}, "lat": 38.8462195, "is_reserved": 0, "is_disabled": 0, "fusion_lat": 0.0}, {"fusion_lon": 0.0, "bike_id": "5ed483050374b6bf56d3351c64069f83", "name": "5ed483050374b6bf56d3351c64069f83", "type": "electric_scooter", "lon": -77.0239915, "rental_uris": {"android": "https://dc.lft.to/lastmile_qr_scan", "ios": "https://dc.lft.to/lastmile_qr_scan"}, "lat": 38.91965783333333, "is_reserved": 0, "is_disabled": 0, "fusion_lat": 0.0}, {"fusion_lon": 0.0, "bike_id": "5216cecd4236d99593dbc210ab1e1a04", "name": "5216cecd4236d99593dbc210ab1e1a04", "type": "electric_scooter", "lon": -76.95752683333333, "rental_uris": {"android": "https://dc.lft.to/lastmile_qr_scan", "ios": "https://dc.lft.to/lastmile_qr_scan"}, "lat": 38.884441, "is_reserved": 0, "is_disabled": 0, "fusion_lat": 0.0}, {"fusion_lon": 0.0, "bike_id": "abe1a7fb3d1336072b56fd9a19b6df58", "name": "abe1a7fb3d1336072b56fd9a19b6df58", "type": "electric_scooter", "lon": -77.0422775, "rental_uris": {"android": "https://dc.lft.to/lastmile_qr_scan", "ios": "https://dc.lft.to/lastmile_qr_scan"}, "lat": 38.9207045, "is_reserved": 0, "is_disabled": 0, "fusion_lat": 0.0}, {"fusion_lon": 0.0, "bike_id": "4e88a407bf579ff7d9747b67ed12d299", "name": "4e88a407bf579ff7d9747b67ed12d299", "type": "electric_bike", "lon": -77.02490716666667, "rental_uris": {"android": "https://dc.lft.to/lastmile_qr_scan", "ios": "https://dc.lft.to/lastmile_qr_scan"}, "lat": 38.9737065, "is_reserved": 0, "is_disabled": 0, "fusion_lat": 0.0}, {"fusion_lon": 0.0, "bike_id": "e6d636bca445ddcf7dc980211edf8586", "name": "e6d636bca445ddcf7dc980211edf8586", "type": "electric_scooter", "lon": -77.0249055, "rental_uris": {"android": "https://dc.lft.to/lastmile_qr_scan", "ios": "https://dc.lft.to/lastmile_qr_scan"}, "lat": 38.941888666666664, "is_reserved": 0, "is_disabled": 0, "fusion_lat": 0.0}, {"fusion_lon": 0.0, "bike_id": "cb9786786d8d53532a3660da9f74f4d8", "name": "cb9786786d8d53532a3660da9f74f4d8", "type": "electric_scooter", "lon": -76.990145, "rental_uris": {"android": "https://dc.lft.to/lastmile_qr_scan", "ios": "https://dc.lft.to/lastmile_qr_scan"}, "lat": 38.861083666666666, "is_reserved": 0, "is_disabled": 0, "fusion_lat": 0.0}, {"fusion_lon": 0.0, "bike_id": "66b228f88b312bc75c51a582222647d9", "name": "66b228f88b312bc75c51a582222647d9", "type": "electric_scooter", "lon": -77.04515016666667, "rental_uris": {"android": "https://dc.lft.to/lastmile_qr_scan", "ios": "https://dc.lft.to/lastmile_qr_scan"}, "lat": 38.90782383333333, "is_reserved": 0, "is_disabled": 0, "fusion_lat": 0.0}, {"fusion_lon": 0.0, "bike_id": "9ddf3da3e57c290f61b7021107e60939", "name": "9ddf3da3e57c290f61b7021107e60939", "type": "electric_scooter", "lon": -76.99391483333333, "rental_uris": {"android": "https://dc.lft.to/lastmile_qr_scan", "ios": "https://dc.lft.to/lastmile_qr_scan"}, "lat": 38.884534333333335, "is_reserved": 0, "is_disabled": 0, "fusion_lat": 0.0}, {"fusion_lon": 0.0, "bike_id": "cdeb2e56ad61e46598058675e7582b70", "name": "cdeb2e56ad61e46598058675e7582b70", "type": "electric_scooter", "lon": -77.071127, "rental_uris": {"android": "https://dc.lft.to/lastmile_qr_scan", "ios": "https://dc.lft.to/lastmile_qr_scan"}, "lat": 38.91982933333333, "is_reserved": 0, "is_disabled": 0, "fusion_lat": 0.0}, {"fusion_lon": 0.0, "bike_id": "ec8886aa4638b30d1a85d47102660d73", "name": "ec8886aa4638b30d1a85d47102660d73", "type": "electric_scooter", "lon": -77.03853616666666, "rental_uris": {"android": "https://dc.lft.to/lastmile_qr_scan", "ios": "https://dc.lft.to/lastmile_qr_scan"}, "lat": 38.92164733333333, "is_reserved": 0, "is_disabled": 0, "fusion_lat": 0.0}, {"fusion_lon": 0.0, "bike_id": "77f8c8df614655d8c1e30a7537585a40", "name": "77f8c8df614655d8c1e30a7537585a40", "type": "electric_scooter", "lon": -77.01299416666667, "rental_uris": {"android": "https://dc.lft.to/lastmile_qr_scan", "ios": "https://dc.lft.to/lastmile_qr_scan"}, "lat": 38.9005845, "is_reserved": 0, "is_disabled": 0, "fusion_lat": 0.0}, {"fusion_lon": 0.0, "bike_id": "bc8f6479549835487199616674202cbe", "name": "bc8f6479549835487199616674202cbe", "type": "electric_scooter", "lon": -77.03944183333333, "rental_uris": {"android": "https://dc.lft.to/lastmile_qr_scan", "ios": "https://dc.lft.to/lastmile_qr_scan"}, "lat": 38.91819266666667, "is_reserved": 0, "is_disabled": 0, "fusion_lat": 0.0}, {"fusion_lon": 0.0, "bike_id": "15726a9055634e62f138fc15b6f141e9", "name": "15726a9055634e62f138fc15b6f141e9", "type": "electric_scooter", "lon": -77.0232615, "rental_uris": {"android": "https://dc.lft.to/lastmile_qr_scan", "ios": "https://dc.lft.to/lastmile_qr_scan"}, "lat": 38.90731483333333, "is_reserved": 0, "is_disabled": 0, "fusion_lat": 0.0}, {"fusion_lon": 0.0, "bike_id": "bc32bbdd9c2b9cde9a7dfce2de45afa7", "name": "bc32bbdd9c2b9cde9a7dfce2de45afa7", "type": "electric_scooter", "lon": -76.982481, "rental_uris": {"android": "https://dc.lft.to/lastmile_qr_scan", "ios": "https://dc.lft.to/lastmile_qr_scan"}, "lat": 38.90193033333333, "is_reserved": 0, "is_disabled": 0, "fusion_lat": 0.0}, {"fusion_lon": 0.0, "bike_id": "7bdeb7e9ce4ec8de9b09bf80b2514c16", "name": "7bdeb7e9ce4ec8de9b09bf80b2514c16", "type": "electric_scooter", "lon": -77.05994383333334, "rental_uris": {"android": "https://dc.lft.to/lastmile_qr_scan", "ios": "https://dc.lft.to/lastmile_qr_scan"}, "lat": 38.911921, "is_reserved": 0, "is_disabled": 0, "fusion_lat": 0.0}, {"fusion_lon": 0.0, "bike_id": "100044205258f654f01331f9922ce203", "name": "100044205258f654f01331f9922ce203", "type": "electric_scooter", "lon": -77.03398516666667, "rental_uris": {"android": "https://dc.lft.to/lastmile_qr_scan", "ios": "https://dc.lft.to/lastmile_qr_scan"}, "lat": 38.921583, "is_reserved": 0, "is_disabled": 0, "fusion_lat": 0.0}, {"fusion_lon": 0.0, "bike_id": "cdb35067569edd7cfa1625a3496bbd3b", "name": "cdb35067569edd7cfa1625a3496bbd3b", "type": "electric_scooter", "lon": -77.0774755, "rental_uris": {"android": "https://dc.lft.to/lastmile_qr_scan", "ios": "https://dc.lft.to/lastmile_qr_scan"}, "lat": 38.94373933333333, "is_reserved": 0, "is_disabled": 0, "fusion_lat": 0.0}, {"fusion_lon": 0.0, "bike_id": "2a61e7778cf7687b02a8d923b679e482", "name": "2a61e7778cf7687b02a8d923b679e482", "type": "electric_scooter", "lon": -76.99625266666666, "rental_uris": {"android": "https://dc.lft.to/lastmile_qr_scan", "ios": "https://dc.lft.to/lastmile_qr_scan"}, "lat": 38.885025666666664, "is_reserved": 0, "is_disabled": 0, "fusion_lat": 0.0}, {"fusion_lon": 0.0, "bike_id": "89c59230a63ea3ea482d58adfe89a7d6", "name": "89c59230a63ea3ea482d58adfe89a7d6", "type": "electric_scooter", "lon": -77.01999666666667, "rental_uris": {"android": "https://dc.lft.to/lastmile_qr_scan", "ios": "https://dc.lft.to/lastmile_qr_scan"}, "lat": 38.8789445, "is_reserved": 0, "is_disabled": 0, "fusion_lat": 0.0}, {"fusion_lon": 0.0, "bike_id": "35ca6eb9198465d6c4efee30e691b47e", "name": "35ca6eb9198465d6c4efee30e691b47e", "type": "electric_scooter", "lon": -76.99825716666666, "rental_uris": {"android": "https://dc.lft.to/lastmile_qr_scan", "ios": "https://dc.lft.to/lastmile_qr_scan"}, "lat": 38.90881983333333, "is_reserved": 0, "is_disabled": 0, "fusion_lat": 0.0}, {"fusion_lon": 0.0, "bike_id": "72b26ab7fcf347ef8d8b838d58ecd4f2", "name": "72b26ab7fcf347ef8d8b838d58ecd4f2", "type": "electric_scooter", "lon": -77.03200066666666, "rental_uris": {"android": "https://dc.lft.to/lastmile_qr_scan", "ios": "https://dc.lft.to/lastmile_qr_scan"}, "lat": 38.91921816666667, "is_reserved": 0, "is_disabled": 0, "fusion_lat": 0.0}, {"fusion_lon": 0.0, "bike_id": "29a99ec2acba2baef4d1a044647691fa", "name": "29a99ec2acba2baef4d1a044647691fa", "type": "electric_scooter", "lon": -77.0722535, "rental_uris": {"android": "https://dc.lft.to/lastmile_qr_scan", "ios": "https://dc.lft.to/lastmile_qr_scan"}, "lat": 38.934595333333334, "is_reserved": 0, "is_disabled": 0, "fusion_lat": 0.0}, {"fusion_lon": 0.0, "bike_id": "bb7532a296526f9c056891df53c83bc3", "name": "bb7532a296526f9c056891df53c83bc3", "type": "electric_scooter", "lon": -77.04172683333333, "rental_uris": {"android": "https://dc.lft.to/lastmile_qr_scan", "ios": "https://dc.lft.to/lastmile_qr_scan"}, "lat": 38.91654483333333, "is_reserved": 0, "is_disabled": 0, "fusion_lat": 0.0}, {"fusion_lon": 0.0, "bike_id": "791eab54d6dba3edb328b96a10f1f69b", "name": "791eab54d6dba3edb328b96a10f1f69b", "type": "electric_bike", "lon": -76.9302505, "rental_uris": {"android": "https://dc.lft.to/lastmile_qr_scan", "ios": "https://dc.lft.to/lastmile_qr_scan"}, "lat": 38.966490666666665, "is_reserved": 0, "is_disabled": 0, "fusion_lat": 0.0}, {"fusion_lon": 0.0, "bike_id": "d63f88de612e0a6777978c137a9d933f", "name": "d63f88de612e0a6777978c137a9d933f", "type": "electric_scooter", "lon": -77.03859433333334, "rental_uris": {"android": "https://dc.lft.to/lastmile_qr_scan", "ios": "https://dc.lft.to/lastmile_qr_scan"}, "lat": 38.90788333333333, "is_reserved": 0, "is_disabled": 0, "fusion_lat": 0.0}, {"fusion_lon": 0.0, "bike_id": "4924caff51a50bc89475b95a290314d5", "name": "4924caff51a50bc89475b95a290314d5", "type": "electric_scooter", "lon": -77.0488635, "rental_uris": {"android": "https://dc.lft.to/lastmile_qr_scan", "ios": "https://dc.lft.to/lastmile_qr_scan"}, "lat": 38.89812966666667, "is_reserved": 0, "is_disabled": 0, "fusion_lat": 0.0}, {"fusion_lon": 0.0, "bike_id": "033e18c1ad897530c63b634e9684d804", "name": "033e18c1ad897530c63b634e9684d804", "type": "electric_scooter", "lon": -76.918771, "rental_uris": {"android": "https://dc.lft.to/lastmile_qr_scan", "ios": "https://dc.lft.to/lastmile_qr_scan"}, "lat": 38.890806, "is_reserved": 0, "is_disabled": 0, "fusion_lat": 0.0}, {"fusion_lon": 0.0, "bike_id": "c3bf469ff49235cd13dd7b745da2fd6b", "name": "c3bf469ff49235cd13dd7b745da2fd6b", "type": "electric_bike", "lon": -77.01795566666667, "rental_uris": {"android": "https://dc.lft.to/lastmile_qr_scan", "ios": "https://dc.lft.to/lastmile_qr_scan"}, "lat": 38.989924, "is_reserved": 0, "is_disabled": 0, "fusion_lat": 0.0}, {"fusion_lon": 0.0, "bike_id": "4d8230c2d01f25e850a63b7b64a043f4", "name": "4d8230c2d01f25e850a63b7b64a043f4", "type": "electric_scooter", "lon": -77.03267766666667, "rental_uris": {"android": "https://dc.lft.to/lastmile_qr_scan", "ios": "https://dc.lft.to/lastmile_qr_scan"}, "lat": 38.919298, "is_reserved": 0, "is_disabled": 0, "fusion_lat": 0.0}, {"fusion_lon": 0.0, "bike_id": "a9c87c048dbff5d0ad21e110aa314273", "name": "a9c87c048dbff5d0ad21e110aa314273", "type": "electric_scooter", "lon": -77.004485, "rental_uris": {"android": "https://dc.lft.to/lastmile_qr_scan", "ios": "https://dc.lft.to/lastmile_qr_scan"}, "lat": 38.911946666666665, "is_reserved": 0, "is_disabled": 0, "fusion_lat": 0.0}, {"fusion_lon": 0.0, "bike_id": "9af2868752ad89cacf72a2a67ee7fee0", "name": "9af2868752ad89cacf72a2a67ee7fee0", "type": "electric_scooter", "lon": -76.99847666666666, "rental_uris": {"android": "https://dc.lft.to/lastmile_qr_scan", "ios": "https://dc.lft.to/lastmile_qr_scan"}, "lat": 38.90037683333333, "is_reserved": 0, "is_disabled": 0, "fusion_lat": 0.0}, {"fusion_lon": 0.0, "bike_id": "0ff657f4ac31c14d9aef29c7b6826d7f", "name": "0ff657f4ac31c14d9aef29c7b6826d7f", "type": "electric_scooter", "lon": -77.04060533333333, "rental_uris": {"android": "https://dc.lft.to/lastmile_qr_scan", "ios": "https://dc.lft.to/lastmile_qr_scan"}, "lat": 38.901417, "is_reserved": 0, "is_disabled": 0, "fusion_lat": 0.0}, {"fusion_lon": 0.0, "bike_id": "0b2db2eb144d9afdcf3447e328fbf9ff", "name": "0b2db2eb144d9afdcf3447e328fbf9ff", "type": "electric_scooter", "lon": -77.04155483333334, "rental_uris": {"android": "https://dc.lft.to/lastmile_qr_scan", "ios": "https://dc.lft.to/lastmile_qr_scan"}, "lat": 38.916039833333336, "is_reserved": 0, "is_disabled": 0, "fusion_lat": 0.0}, {"fusion_lon": 0.0, "bike_id": "e87c6f7253ea8e577c48234c5ae016bc", "name": "e87c6f7253ea8e577c48234c5ae016bc", "type": "electric_scooter", "lon": -77.03884833333333, "rental_uris": {"android": "https://dc.lft.to/lastmile_qr_scan", "ios": "https://dc.lft.to/lastmile_qr_scan"}, "lat": 38.93433683333333, "is_reserved": 0, "is_disabled": 0, "fusion_lat": 0.0}, {"fusion_lon": 0.0, "bike_id": "861858fb5fb488caadda4f24b04e3ac3", "name": "861858fb5fb488caadda4f24b04e3ac3", "type": "electric_scooter", "lon": -76.98921666666666, "rental_uris": {"android": "https://dc.lft.to/lastmile_qr_scan", "ios": "https://dc.lft.to/lastmile_qr_scan"}, "lat": 38.88209033333333, "is_reserved": 0, "is_disabled": 0, "fusion_lat": 0.0}, {"fusion_lon": 0.0, "bike_id": "1869a1b981ae78aeb82e3e48fbb41ad3", "name": "1869a1b981ae78aeb82e3e48fbb41ad3", "type": "electric_bike", "lon": -77.05104266666666, "rental_uris": {"android": "https://dc.lft.to/lastmile_qr_scan", "ios": "https://dc.lft.to/lastmile_qr_scan"}, "lat": 38.94561816666667, "is_reserved": 0, "is_disabled": 0, "fusion_lat": 0.0}, {"fusion_lon": 0.0, "bike_id": "6f53d918df966e31a969cd2a948a368c", "name": "6f53d918df966e31a969cd2a948a368c", "type": "electric_bike", "lon": -77.0000835, "rental_uris": {"android": "https://dc.lft.to/lastmile_qr_scan", "ios": "https://dc.lft.to/lastmile_qr_scan"}, "lat": 38.9239995, "is_reserved": 0, "is_disabled": 0, "fusion_lat": 0.0}, {"fusion_lon": 0.0, "bike_id": "3dad914392eb535956dd67e09d63ac83", "name": "3dad914392eb535956dd67e09d63ac83", "type": "electric_bike", "lon": -77.05417433333334, "rental_uris": {"android": "https://dc.lft.to/lastmile_qr_scan", "ios": "https://dc.lft.to/lastmile_qr_scan"}, "lat": 38.84885233333333, "is_reserved": 0, "is_disabled": 0, "fusion_lat": 0.0}, {"fusion_lon": 0.0, "bike_id": "38c2beb967d3604d46dac2951ecc0aab", "name": "38c2beb967d3604d46dac2951ecc0aab", "type": "electric_scooter", "lon": -77.03931383333334, "rental_uris": {"android": "https://dc.lft.to/lastmile_qr_scan", "ios": "https://dc.lft.to/lastmile_qr_scan"}, "lat": 38.924951, "is_reserved": 0, "is_disabled": 0, "fusion_lat": 0.0}, {"fusion_lon": 0.0, "bike_id": "58302454395745e20274a0bdbb60e2d7", "name": "58302454395745e20274a0bdbb60e2d7", "type": "electric_bike", "lon": -77.1072085, "rental_uris": {"android": "https://dc.lft.to/lastmile_qr_scan", "ios": "https://dc.lft.to/lastmile_qr_scan"}, "lat": 38.85547283333333, "is_reserved": 0, "is_disabled": 0, "fusion_lat": 0.0}, {"fusion_lon": 0.0, "bike_id": "dd5cc7db5d8e56516fa2100a43ce6dd3", "name": "dd5cc7db5d8e56516fa2100a43ce6dd3", "type": "electric_scooter", "lon": -77.06362733333333, "rental_uris": {"android": "https://dc.lft.to/lastmile_qr_scan", "ios": "https://dc.lft.to/lastmile_qr_scan"}, "lat": 38.94416016666667, "is_reserved": 0, "is_disabled": 0, "fusion_lat": 0.0}, {"fusion_lon": 0.0, "bike_id": "946ef4c9bd7fe1ae6a87c69c16deedd5", "name": "946ef4c9bd7fe1ae6a87c69c16deedd5", "type": "electric_scooter", "lon": -77.03213366666667, "rental_uris": {"android": "https://dc.lft.to/lastmile_qr_scan", "ios": "https://dc.lft.to/lastmile_qr_scan"}, "lat": 38.91264066666667, "is_reserved": 0, "is_disabled": 0, "fusion_lat": 0.0}, {"fusion_lon": 0.0, "bike_id": "e5d99ad7a9430b61176e5e27258b45d9", "name": "e5d99ad7a9430b61176e5e27258b45d9", "type": "electric_scooter", "lon": -77.0445385, "rental_uris": {"android": "https://dc.lft.to/lastmile_qr_scan", "ios": "https://dc.lft.to/lastmile_qr_scan"}, "lat": 38.909900666666665, "is_reserved": 0, "is_disabled": 0, "fusion_lat": 0.0}, {"fusion_lon": 0.0, "bike_id": "1cfb6d073b6fad2a678f0a957f725544", "name": "1cfb6d073b6fad2a678f0a957f725544", "type": "electric_scooter", "lon": -77.02775116666666, "rental_uris": {"android": "https://dc.lft.to/lastmile_qr_scan", "ios": "https://dc.lft.to/lastmile_qr_scan"}, "lat": 38.89220783333333, "is_reserved": 0, "is_disabled": 0, "fusion_lat": 0.0}, {"fusion_lon": 0.0, "bike_id": "6b8fc23d077271c39874cfc30fedc863", "name": "6b8fc23d077271c39874cfc30fedc863", "type": "electric_scooter", "lon": -77.04147216666667, "rental_uris": {"android": "https://dc.lft.to/lastmile_qr_scan", "ios": "https://dc.lft.to/lastmile_qr_scan"}, "lat": 38.91567666666667, "is_reserved": 0, "is_disabled": 0, "fusion_lat": 0.0}, {"fusion_lon": 0.0, "bike_id": "749a71083f7af98f9f92eba5eda778ee", "name": "749a71083f7af98f9f92eba5eda778ee", "type": "electric_scooter", "lon": -76.964352, "rental_uris": {"android": "https://dc.lft.to/lastmile_qr_scan", "ios": "https://dc.lft.to/lastmile_qr_scan"}, "lat": 38.934666666666665, "is_reserved": 0, "is_disabled": 0, "fusion_lat": 0.0}, {"fusion_lon": 0.0, "bike_id": "79707e0d9c1353ee76d5b71c027b0753", "name": "79707e0d9c1353ee76d5b71c027b0753", "type": "electric_scooter", "lon": -77.0321635, "rental_uris": {"android": "https://dc.lft.to/lastmile_qr_scan", "ios": "https://dc.lft.to/lastmile_qr_scan"}, "lat": 38.887417666666664, "is_reserved": 0, "is_disabled": 0, "fusion_lat": 0.0}, {"fusion_lon": 0.0, "bike_id": "7c80ef6bf4382901a73a6dd2db022930", "name": "7c80ef6bf4382901a73a6dd2db022930", "type": "electric_scooter", "lon": -76.93660766666666, "rental_uris": {"android": "https://dc.lft.to/lastmile_qr_scan", "ios": "https://dc.lft.to/lastmile_qr_scan"}, "lat": 38.88961783333333, "is_reserved": 0, "is_disabled": 0, "fusion_lat": 0.0}, {"fusion_lon": 0.0, "bike_id": "e643b254403c80beb3043e006d4d4c07", "name": "e643b254403c80beb3043e006d4d4c07", "type": "electric_scooter", "lon": -77.03057783333334, "rental_uris": {"android": "https://dc.lft.to/lastmile_qr_scan", "ios": "https://dc.lft.to/lastmile_qr_scan"}, "lat": 38.90126333333333, "is_reserved": 0, "is_disabled": 0, "fusion_lat": 0.0}, {"fusion_lon": 0.0, "bike_id": "fd4778f1b0d59079dcd212866d72437d", "name": "fd4778f1b0d59079dcd212866d72437d", "type": "electric_scooter", "lon": -77.00956683333334, "rental_uris": {"android": "https://dc.lft.to/lastmile_qr_scan", "ios": "https://dc.lft.to/lastmile_qr_scan"}, "lat": 38.876642333333336, "is_reserved": 0, "is_disabled": 0, "fusion_lat": 0.0}, {"fusion_lon": 0.0, "bike_id": "8747d2818c71ef597f545c419fce4ee7", "name": "8747d2818c71ef597f545c419fce4ee7", "type": "electric_scooter", "lon": -77.01406783333333, "rental_uris": {"android": "https://dc.lft.to/lastmile_qr_scan", "ios": "https://dc.lft.to/lastmile_qr_scan"}, "lat": 38.928823666666666, "is_reserved": 0, "is_disabled": 0, "fusion_lat": 0.0}, {"fusion_lon": 0.0, "bike_id": "7b2d77c301f427c716ed7b63e3570238", "name": "7b2d77c301f427c716ed7b63e3570238", "type": "electric_scooter", "lon": -77.03774466666667, "rental_uris": {"android": "https://dc.lft.to/lastmile_qr_scan", "ios": "https://dc.lft.to/lastmile_qr_scan"}, "lat": 38.936087, "is_reserved": 0, "is_disabled": 0, "fusion_lat": 0.0}, {"fusion_lon": 0.0, "bike_id": "60422d3b407d1f1bb74959fe9291b41f", "name": "60422d3b407d1f1bb74959fe9291b41f", "type": "electric_scooter", "lon": -77.051401, "rental_uris": {"android": "https://dc.lft.to/lastmile_qr_scan", "ios": "https://dc.lft.to/lastmile_qr_scan"}, "lat": 38.907195, "is_reserved": 0, "is_disabled": 0, "fusion_lat": 0.0}, {"fusion_lon": 0.0, "bike_id": "fba7d907281656ae17efef849704d604", "name": "fba7d907281656ae17efef849704d604", "type": "electric_scooter", "lon": -77.00339183333334, "rental_uris": {"android": "https://dc.lft.to/lastmile_qr_scan", "ios": "https://dc.lft.to/lastmile_qr_scan"}, "lat": 38.922706, "is_reserved": 0, "is_disabled": 0, "fusion_lat": 0.0}, {"fusion_lon": 0.0, "bike_id": "158290934426fff6986ad6d557155341", "name": "158290934426fff6986ad6d557155341", "type": "electric_scooter", "lon": -77.0258375, "rental_uris": {"android": "https://dc.lft.to/lastmile_qr_scan", "ios": "https://dc.lft.to/lastmile_qr_scan"}, "lat": 38.92797133333333, "is_reserved": 0, "is_disabled": 0, "fusion_lat": 0.0}, {"fusion_lon": 0.0, "bike_id": "9eb136e8746c005197d863a846d49c52", "name": "9eb136e8746c005197d863a846d49c52", "type": "electric_scooter", "lon": -76.94245966666666, "rental_uris": {"android": "https://dc.lft.to/lastmile_qr_scan", "ios": "https://dc.lft.to/lastmile_qr_scan"}, "lat": 38.88999183333333, "is_reserved": 0, "is_disabled": 0, "fusion_lat": 0.0}, {"fusion_lon": 0.0, "bike_id": "7bd8901231cbd884af2336b63446ff58", "name": "7bd8901231cbd884af2336b63446ff58", "type": "electric_scooter", "lon": -77.0366555, "rental_uris": {"android": "https://dc.lft.to/lastmile_qr_scan", "ios": "https://dc.lft.to/lastmile_qr_scan"}, "lat": 38.936296, "is_reserved": 0, "is_disabled": 0, "fusion_lat": 0.0}, {"fusion_lon": 0.0, "bike_id": "e19b8677bf3775bcb218261cd2052f8f", "name": "e19b8677bf3775bcb218261cd2052f8f", "type": "electric_scooter", "lon": -77.06264666666667, "rental_uris": {"android": "https://dc.lft.to/lastmile_qr_scan", "ios": "https://dc.lft.to/lastmile_qr_scan"}, "lat": 38.905241333333336, "is_reserved": 0, "is_disabled": 0, "fusion_lat": 0.0}, {"fusion_lon": 0.0, "bike_id": "681e21e23c284a7ec6bf63ac2a63cf83", "name": "681e21e23c284a7ec6bf63ac2a63cf83", "type": "electric_bike", "lon": -76.90967716666667, "rental_uris": {"android": "https://dc.lft.to/lastmile_qr_scan", "ios": "https://dc.lft.to/lastmile_qr_scan"}, "lat": 38.8542385, "is_reserved": 0, "is_disabled": 0, "fusion_lat": 0.0}, {"fusion_lon": 0.0, "bike_id": "656aa22eec8182ffdb25634ab77a48a2", "name": "656aa22eec8182ffdb25634ab77a48a2", "type": "electric_scooter", "lon": -77.00742733333334, "rental_uris": {"android": "https://dc.lft.to/lastmile_qr_scan", "ios": "https://dc.lft.to/lastmile_qr_scan"}, "lat": 38.903564, "is_reserved": 0, "is_disabled": 0, "fusion_lat": 0.0}, {"fusion_lon": 0.0, "bike_id": "bb13f7d0bba3667bec5e126f3777d5c0", "name": "bb13f7d0bba3667bec5e126f3777d5c0", "type": "electric_scooter", "lon": -77.06105366666667, "rental_uris": {"android": "https://dc.lft.to/lastmile_qr_scan", "ios": "https://dc.lft.to/lastmile_qr_scan"}, "lat": 38.94373816666667, "is_reserved": 0, "is_disabled": 0, "fusion_lat": 0.0}, {"fusion_lon": 0.0, "bike_id": "b506ae2443db0e85168711b24f59593e", "name": "b506ae2443db0e85168711b24f59593e", "type": "electric_scooter", "lon": -77.04165983333333, "rental_uris": {"android": "https://dc.lft.to/lastmile_qr_scan", "ios": "https://dc.lft.to/lastmile_qr_scan"}, "lat": 38.913466166666666, "is_reserved": 0, "is_disabled": 0, "fusion_lat": 0.0}, {"fusion_lon": 0.0, "bike_id": "61b5216295fac8ddb36a0b5f91c31292", "name": "61b5216295fac8ddb36a0b5f91c31292", "type": "electric_scooter", "lon": -77.0385165, "rental_uris": {"android": "https://dc.lft.to/lastmile_qr_scan", "ios": "https://dc.lft.to/lastmile_qr_scan"}, "lat": 38.91296083333334, "is_reserved": 0, "is_disabled": 0, "fusion_lat": 0.0}, {"fusion_lon": 0.0, "bike_id": "f8945f6bb30ccf55f0d3c6d586e6dfe8", "name": "f8945f6bb30ccf55f0d3c6d586e6dfe8", "type": "electric_scooter", "lon": -77.02776983333334, "rental_uris": {"android": "https://dc.lft.to/lastmile_qr_scan", "ios": "https://dc.lft.to/lastmile_qr_scan"}, "lat": 38.89219716666667, "is_reserved": 0, "is_disabled": 0, "fusion_lat": 0.0}, {"fusion_lon": 0.0, "bike_id": "e0f835b871e30da78545908fb70ca91f", "name": "e0f835b871e30da78545908fb70ca91f", "type": "electric_scooter", "lon": -77.04341366666667, "rental_uris": {"android": "https://dc.lft.to/lastmile_qr_scan", "ios": "https://dc.lft.to/lastmile_qr_scan"}, "lat": 38.92206766666666, "is_reserved": 0, "is_disabled": 0, "fusion_lat": 0.0}, {"fusion_lon": 0.0, "bike_id": "ceb34f9d3ab4e3112e276e821263f747", "name": "ceb34f9d3ab4e3112e276e821263f747", "type": "electric_scooter", "lon": -77.02010066666666, "rental_uris": {"android": "https://dc.lft.to/lastmile_qr_scan", "ios": "https://dc.lft.to/lastmile_qr_scan"}, "lat": 38.92418133333334, "is_reserved": 0, "is_disabled": 0, "fusion_lat": 0.0}, {"fusion_lon": 0.0, "bike_id": "566084df6e44dc2a02c798e21d6ecdb2", "name": "566084df6e44dc2a02c798e21d6ecdb2", "type": "electric_scooter", "lon": -76.98105333333334, "rental_uris": {"android": "https://dc.lft.to/lastmile_qr_scan", "ios": "https://dc.lft.to/lastmile_qr_scan"}, "lat": 38.90579866666667, "is_reserved": 0, "is_disabled": 0, "fusion_lat": 0.0}, {"fusion_lon": 0.0, "bike_id": "45a700d5aaa7a605611cf3f3ce437860", "name": "45a700d5aaa7a605611cf3f3ce437860", "type": "electric_scooter", "lon": -77.00337466666667, "rental_uris": {"android": "https://dc.lft.to/lastmile_qr_scan", "ios": "https://dc.lft.to/lastmile_qr_scan"}, "lat": 38.874983, "is_reserved": 0, "is_disabled": 0, "fusion_lat": 0.0}, {"fusion_lon": 0.0, "bike_id": "ba361ce4eb2a7a1d7a05dcb1d038774b", "name": "ba361ce4eb2a7a1d7a05dcb1d038774b", "type": "electric_scooter", "lon": -77.003437, "rental_uris": {"android": "https://dc.lft.to/lastmile_qr_scan", "ios": "https://dc.lft.to/lastmile_qr_scan"}, "lat": 38.913466, "is_reserved": 0, "is_disabled": 0, "fusion_lat": 0.0}, {"fusion_lon": 0.0, "bike_id": "2b50ee9c23c403a9afb444bf3bb7b1df", "name": "2b50ee9c23c403a9afb444bf3bb7b1df", "type": "electric_scooter", "lon": -77.03200816666667, "rental_uris": {"android": "https://dc.lft.to/lastmile_qr_scan", "ios": "https://dc.lft.to/lastmile_qr_scan"}, "lat": 38.917989166666665, "is_reserved": 0, "is_disabled": 0, "fusion_lat": 0.0}, {"fusion_lon": 0.0, "bike_id": "ae4e5b17af8ae8e9690e9615aa3e118b", "name": "ae4e5b17af8ae8e9690e9615aa3e118b", "type": "electric_scooter", "lon": -77.07695616666666, "rental_uris": {"android": "https://dc.lft.to/lastmile_qr_scan", "ios": "https://dc.lft.to/lastmile_qr_scan"}, "lat": 38.92176, "is_reserved": 0, "is_disabled": 0, "fusion_lat": 0.0}, {"fusion_lon": 0.0, "bike_id": "e5849f8e4b01636df8c3d12dd8f36dad", "name": "e5849f8e4b01636df8c3d12dd8f36dad", "type": "electric_scooter", "lon": -77.03458416666666, "rental_uris": {"android": "https://dc.lft.to/lastmile_qr_scan", "ios": "https://dc.lft.to/lastmile_qr_scan"}, "lat": 38.918074, "is_reserved": 0, "is_disabled": 0, "fusion_lat": 0.0}, {"fusion_lon": 0.0, "bike_id": "02d753d1e6f7b5896398240eac31db23", "name": "02d753d1e6f7b5896398240eac31db23", "type": "electric_scooter", "lon": -77.04164766666666, "rental_uris": {"android": "https://dc.lft.to/lastmile_qr_scan", "ios": "https://dc.lft.to/lastmile_qr_scan"}, "lat": 38.9145015, "is_reserved": 0, "is_disabled": 0, "fusion_lat": 0.0}, {"fusion_lon": 0.0, "bike_id": "aaf1e3453daaba7b19f388422751929b", "name": "aaf1e3453daaba7b19f388422751929b", "type": "electric_scooter", "lon": -77.008775, "rental_uris": {"android": "https://dc.lft.to/lastmile_qr_scan", "ios": "https://dc.lft.to/lastmile_qr_scan"}, "lat": 38.873313333333336, "is_reserved": 0, "is_disabled": 0, "fusion_lat": 0.0}, {"fusion_lon": 0.0, "bike_id": "cca1a16bd45c3f45a8c0ff9238650521", "name": "cca1a16bd45c3f45a8c0ff9238650521", "type": "electric_scooter", "lon": -77.0169715, "rental_uris": {"android": "https://dc.lft.to/lastmile_qr_scan", "ios": "https://dc.lft.to/lastmile_qr_scan"}, "lat": 38.905125, "is_reserved": 0, "is_disabled": 0, "fusion_lat": 0.0}, {"fusion_lon": 0.0, "bike_id": "1fe2aba64c76f37db84c3ecf5fed3b25", "name": "1fe2aba64c76f37db84c3ecf5fed3b25", "type": "electric_scooter", "lon": -76.98812833333334, "rental_uris": {"android": "https://dc.lft.to/lastmile_qr_scan", "ios": "https://dc.lft.to/lastmile_qr_scan"}, "lat": 38.88712616666667, "is_reserved": 0, "is_disabled": 0, "fusion_lat": 0.0}, {"fusion_lon": 0.0, "bike_id": "83e306dd93b074042c5e86f77b162b4e", "name": "83e306dd93b074042c5e86f77b162b4e", "type": "electric_scooter", "lon": -76.987137, "rental_uris": {"android": "https://dc.lft.to/lastmile_qr_scan", "ios": "https://dc.lft.to/lastmile_qr_scan"}, "lat": 38.8670125, "is_reserved": 0, "is_disabled": 0, "fusion_lat": 0.0}, {"fusion_lon": 0.0, "bike_id": "f3d163c29220fcc0bf6a8f4e17f9eb57", "name": "f3d163c29220fcc0bf6a8f4e17f9eb57", "type": "electric_bike", "lon": -77.12500466666667, "rental_uris": {"android": "https://dc.lft.to/lastmile_qr_scan", "ios": "https://dc.lft.to/lastmile_qr_scan"}, "lat": 39.024251666666665, "is_reserved": 0, "is_disabled": 0, "fusion_lat": 0.0}, {"fusion_lon": 0.0, "bike_id": "cc4ffe04cd334f6c15b213618f26b949", "name": "cc4ffe04cd334f6c15b213618f26b949", "type": "electric_scooter", "lon": -77.0476915, "rental_uris": {"android": "https://dc.lft.to/lastmile_qr_scan", "ios": "https://dc.lft.to/lastmile_qr_scan"}, "lat": 38.90853233333333, "is_reserved": 0, "is_disabled": 0, "fusion_lat": 0.0}, {"fusion_lon": 0.0, "bike_id": "1d566919f464f680d6b8a2dcded958f5", "name": "1d566919f464f680d6b8a2dcded958f5", "type": "electric_scooter", "lon": -77.02665983333333, "rental_uris": {"android": "https://dc.lft.to/lastmile_qr_scan", "ios": "https://dc.lft.to/lastmile_qr_scan"}, "lat": 38.89625233333334, "is_reserved": 0, "is_disabled": 0, "fusion_lat": 0.0},