{"data": {"bikes": [{"is_reserved": 0, "type": "electric_scooter", "bike_id": "9a83ffd32f924a9ce452391dcfb0f1b5", "lat": 38.90523966666667, "lon": -77.0679, "rental_uris": {"android": "https://dc.lft.to/lastmile_qr_scan", "ios": "https://dc.lft.to/lastmile_qr_scan"}, "is_disabled": 0, "fusion_lat": 0.0, "name": "9a83ffd32f924a9ce452391dcfb0f1b5", "fusion_lon": 0.0}, {"is_reserved": 0, "type": "electric_scooter", "bike_id": "77c12487517192dfb5ff4d7539ed515f", "lat": 38.92502483333333, "lon": -77.02145983333334, "rental_uris": {"android": "https://dc.lft.to/lastmile_qr_scan", "ios": "https://dc.lft.to/lastmile_qr_scan"}, "is_disabled": 0, "fusion_lat": 0.0, "name": "77c12487517192dfb5ff4d7539ed515f", "fusion_lon": 0.0}, {"is_reserved": 0, "type": "electric_scooter", "bike_id": "393fdaa158f7fb86470aa59601e5abc5", "lat": 38.843255, "lon": -76.99736983333334, "rental_uris": {"android": "https://dc.lft.to/lastmile_qr_scan", "ios": "https://dc.lft.to/lastmile_qr_scan"}, "is_disabled": 0, "fusion_lat": 0.0, "name": "393fdaa158f7fb86470aa59601e5abc5", "fusion_lon": 0.0}, {"is_reserved": 0, "type": "electric_scooter", "bike_id": "0be4e037689dd7687c11c209fe92dc8c", "lat": 38.925425, "lon": -77.033764, "rental_uris": {"android": "https://dc.lft.to/lastmile_qr_scan", "ios": "https://dc.lft.to/lastmile_qr_scan"}, "is_disabled": 0, "fusion_lat": 0.0, "name": "0be4e037689dd7687c11c209fe92dc8c", "fusion_lon": 0.0}, {"is_reserved": 0, "type": "electric_scooter", "bike_id": "8b5044de017bd5099985406bae9bdecf", "lat": 38.91923633333333, "lon": -77.03434383333334, "rental_uris": {"android": "https://dc.lft.to/lastmile_qr_scan", "ios": "https://dc.lft.to/lastmile_qr_scan"}, "is_disabled": 0, "fusion_lat": 0.0, "name": "8b5044de017bd5099985406bae9bdecf", "fusion_lon": 0.0}, {"is_reserved": 0, "type": "electric_scooter", "bike_id": "faa6f8bba989338161c6c331204ec1cd", "lat": 38.93664583333333, "lon": -77.03662, "rental_uris": {"android": "https://dc.lft.to/lastmile_qr_scan", "ios": "https://dc.lft.to/lastmile_qr_scan"}, "is_disabled": 0, "fusion_lat": 0.0, "name": "faa6f8bba989338161c6c331204ec1cd", "fusion_lon": 0.0}, {"is_reserved": 0, "type": "electric_scooter", "bike_id": "0375760fe280a1da77323b724b4ecda7", "lat": 38.927555166666664, "lon": -77.02780183333333, "rental_uris": {"android": "https://dc.lft.to/lastmile_qr_scan", "ios": "https://dc.lft.to/lastmile_qr_scan"}, "is_disabled": 0, "fusion_lat": 0.0, "name": "0375760fe280a1da77323b724b4ecda7", "fusion_lon": 0.0}, {"is_reserved": 0, "type": "electric_scooter", "bike_id": "d4251adc8e88c140c94bd2cf25fd075d", "lat": 38.928351166666666, "lon": -77.00606116666667, "rental_uris": {"android": "https://dc.lft.to/lastmile_qr_scan", "ios": "https://dc.lft.to/lastmile_qr_scan"}, "is_disabled": 0, "fusion_lat": 0.0, "name": "d4251adc8e88c140c94bd2cf25fd075d", "fusion_lon": 0.0}, {"is_reserved": 0, "type": "electric_scooter", "bike_id": "6fb4080ac268bcfb7bfa516d9511af36", "lat": 38.9737265, "lon": -77.01818216666666, "rental_uris": {"android": "https://dc.lft.to/lastmile_qr_scan", "ios": "https://dc.lft.to/lastmile_qr_scan"}, "is_disabled": 0, "fusion_lat": 0.0, "name": "6fb4080ac268bcfb7bfa516d9511af36", "fusion_lon": 0.0}, {"is_reserved": 0, "type": "electric_scooter", "bike_id": "f26a46a0ed613641999ed8786d93e38a", "lat": 38.87682616666667, "lon": -76.99631616666667, "rental_uris": {"android": "https://dc.lft.to/lastmile_qr_scan", "ios": "https://dc.lft.to/lastmile_qr_scan"}, "is_disabled": 0, "fusion_lat": 0.0, "name": "f26a46a0ed613641999ed8786d93e38a", "fusion_lon": 0.0}, {"is_reserved": 0, "type": "electric_scooter", "bike_id": "a2996d799c43d8e95e2c7e54fe893ad7", "lat": 38.92104233333333, "lon": -77.04693333333333, "rental_uris": {"android": "https://dc.lft.to/lastmile_qr_scan", "ios": "https://dc.lft.to/lastmile_qr_scan"}, "is_disabled": 0, "fusion_lat": 0.0, "name": "a2996d799c43d8e95e2c7e54fe893ad7", "fusion_lon": 0.0}, {"is_reserved": 0, "type": "electric_scooter", "bike_id": "ff4adde2fbf622edd678d789221ef6bc", "lat": 38.9051125, "lon": -77.06843066666667, "rental_uris": {"android": "https://dc.lft.to/lastmile_qr_scan", "ios": "https://dc.lft.to/lastmile_qr_scan"}, "is_disabled": 0, "fusion_lat": 0.0, "name": "ff4adde2fbf622edd678d789221ef6bc", "fusion_lon": 0.0}, {"is_reserved": 0, "type": "electric_scooter", "bike_id": "b9ed4fe24a2ccf21ecf1571e9cbda0d9", "lat": 38.90159283333333, "lon": -77.03213833333334, "rental_uris": {"android": "https://dc.lft.to/lastmile_qr_scan", "ios": "https://dc.lft.to/lastmile_qr_scan"}, "is_disabled": 0, "fusion_lat": 0.0, "name": "b9ed4fe24a2ccf21ecf1571e9cbda0d9", "fusion_lon": 0.0}, {"is_reserved": 0, "type": "electric_scooter", "bike_id": "849ff774cb5a770a72b369f51b97a63c", "lat": 38.933921, "lon": -77.02383516666667, "rental_uris": {"android": "https://dc.lft.to/lastmile_qr_scan", "ios": "https://dc.lft.to/lastmile_qr_scan"}, "is_disabled": 0, "fusion_lat": 0.0, "name": "849ff774cb5a770a72b369f51b97a63c", "fusion_lon": 0.0}, {"is_reserved": 0, "type": "electric_scooter", "bike_id": "393385e2e582fdb082c7265b8709959b", "lat": 38.90695216666667, "lon": -77.034558, "rental_uris": {"android": "https://dc.lft.to/lastmile_qr_scan", "ios": "https://dc.lft.to/lastmile_qr_scan"}, "is_disabled": 0, "fusion_lat": 0.0, "name": "393385e2e582fdb082c7265b8709959b", "fusion_lon": 0.0}, {"is_reserved": 0, "type": "electric_scooter", "bike_id": "e089add2f7e86a98f03b3f2f1eb04797", "lat": 38.9054665, "lon": -77.056991, "rental_uris": {"android": "https://dc.lft.to/lastmile_qr_scan", "ios": "https://dc.lft.to/lastmile_qr_scan"}, "is_disabled": 0, "fusion_lat": 0.0, "name": "e089add2f7e86a98f03b3f2f1eb04797", "fusion_lon": 0.0}, {"is_reserved": 0, "type": "electric_bike", "bike_id": "d85ed294d94606fa16548e16ec7799f0", "lat": 38.83934383333333, "lon": -77.07906016666666, "rental_uris": {"android": "https://dc.lft.to/lastmile_qr_scan", "ios": "https://dc.lft.to/lastmile_qr_scan"}, "is_disabled": 0, "fusion_lat": 0.0, "name": "d85ed294d94606fa16548e16ec7799f0", "fusion_lon": 0.0}, {"is_reserved": 0, "type": "electric_scooter", "bike_id": "fa020a2601df74da31c1a1d5dbe82f6d", "lat": 38.8987845, "lon": -77.03971033333333, "rental_uris": {"android": "https://dc.lft.to/lastmile_qr_scan", "ios": "https://dc.lft.to/lastmile_qr_scan"}, "is_disabled": 0, "fusion_lat": 0.0, "name": "fa020a2601df74da31c1a1d5dbe82f6d", "fusion_lon": 0.0}, {"is_reserved": 0, "type": "electric_scooter", "bike_id": "24ca26caff91be1b65dc135fc8524b68", "lat": 38.919379666666664, "lon": -77.03639533333333, "rental_uris": {"android": "https://dc.lft.to/lastmile_qr_scan", "ios": "https://dc.lft.to/lastmile_qr_scan"}, "is_disabled": 0, "fusion_lat": 0.0, "name": "24ca26caff91be1b65dc135fc8524b68", "fusion_lon": 0.0}, {"is_reserved": 0, "type": "electric_scooter", "bike_id": "9f4a86602051f5a58ec389504bbb056e", "lat": 38.924774166666666, "lon": -77.0319065, "rental_uris": {"android": "https://dc.lft.to/lastmile_qr_scan", "ios": "https://dc.lft.to/lastmile_qr_scan"}, "is_disabled": 0, "fusion_lat": 0.0, "name": "9f4a86602051f5a58ec389504bbb056e", "fusion_lon": 0.0}, {"is_reserved": 0, "type": "electric_scooter", "bike_id": "b569dc90b80d8574284ff63d9c02b408", "lat": 38.89999683333333, "lon": -77.030648, "rental_uris": {"android": "https://dc.lft.to/lastmile_qr_scan", "ios": "https://dc.lft.to/lastmile_qr_scan"}, "is_disabled": 0, "fusion_lat": 0.0, "name": "b569dc90b80d8574284ff63d9c02b408", "fusion_lon": 0.0}, {"is_reserved": 0, "type": "electric_scooter", "bike_id": "a7816a4da2d461629760ea70647aaab6", "lat": 38.91350683333334, "lon": -77.04353916666666, "rental_uris": {"android": "https://dc.lft.to/lastmile_qr_scan", "ios": "https://dc.lft.to/lastmile_qr_scan"}, "is_disabled": 0, "fusion_lat": 0.0, "name": "a7816a4da2d461629760ea70647aaab6", "fusion_lon": 0.0}, {"is_reserved": 0, "type": "electric_scooter", "bike_id": "6fbd0277cc152cf4336700be0d2c5bea", "lat": 38.89394266666667, "lon": -77.02257666666667, "rental_uris": {"android": "https://dc.lft.to/lastmile_qr_scan", "ios": "https://dc.lft.to/lastmile_qr_scan"}, "is_disabled": 0, "fusion_lat": 0.0, "name": "6fbd0277cc152cf4336700be0d2c5bea", "fusion_lon": 0.0}, {"is_reserved": 0, "type": "electric_scooter", "bike_id": "d4738872b68abc3fdf60fc396852846c", "lat": 38.89980333333333, "lon": -77.02284933333334, "rental_uris": {"android": "https://dc.lft.to/lastmile_qr_scan", "ios": "https://dc.lft.to/lastmile_qr_scan"}, "is_disabled": 0, "fusion_lat": 0.0, "name": "d4738872b68abc3fdf60fc396852846c", "fusion_lon": 0.0}, {"is_reserved": 0, "type": "electric_scooter", "bike_id": "e7a50872c7f199a872b0499ab3ffc341", "lat": 38.9162265, "lon": -77.0076525, "rental_uris": {"android": "https://dc.lft.to/lastmile_qr_scan", "ios": "https://dc.lft.to/lastmile_qr_scan"}, "is_disabled": 0, "fusion_lat": 0.0, "name": "e7a50872c7f199a872b0499ab3ffc341", "fusion_lon": 0.0}, {"is_reserved": 0, "type": "electric_scooter", "bike_id": "38a1fd3db768e06456b5a23164dfa597", "lat": 38.9258065, "lon": -77.02945433333333, "rental_uris": {"android": "https://dc.lft.to/lastmile_qr_scan", "ios": "https://dc.lft.to/lastmile_qr_scan"}, "is_disabled": 0, "fusion_lat": 0.0, "name": "38a1fd3db768e06456b5a23164dfa597", "fusion_lon": 0.0}, {"is_reserved": 0, "type": "electric_scooter", "bike_id": "f06c3cb13ffc7a1f5657ead59470f426", "lat": 38.885335166666664, "lon": -77.02216066666666, "rental_uris": {"android": "https://dc.lft.to/lastmile_qr_scan", "ios": "https://dc.lft.to/lastmile_qr_scan"}, "is_disabled": 0, "fusion_lat": 0.0, "name": "f06c3cb13ffc7a1f5657ead59470f426", "fusion_lon": 0.0}, {"is_reserved": 0, "type": "electric_scooter", "bike_id": "75d0e7253dc3e1ba59d4a43a774f867d", "lat": 38.92134133333333, "lon": -77.03200366666667, "rental_uris": {"android": "https://dc.lft.to/lastmile_qr_scan", "ios": "https://dc.lft.to/lastmile_qr_scan"}, "is_disabled": 0, "fusion_lat": 0.0, "name": "75d0e7253dc3e1ba59d4a43a774f867d", "fusion_lon": 0.0}, {"is_reserved": 0, "type": "electric_scooter", "bike_id": "4e51ee00e63b11f0f195fd8f9b410c89", "lat": 38.916038666666665, "lon": -77.0201445, "rental_uris": {"android": "https://dc.lft.to/lastmile_qr_scan", "ios": "https://dc.lft.to/lastmile_qr_scan"}, "is_disabled": 0, "fusion_lat": 0.0, "name": "4e51ee00e63b11f0f195fd8f9b410c89", "fusion_lon": 0.0}, {"is_reserved": 0, "type": "electric_scooter", "bike_id": "9307247f5d8a78af5747e613815b8e4d", "lat": 38.8948785, "lon": -77.04985433333333, "rental_uris": {"android": "https://dc.lft.to/lastmile_qr_scan", "ios": "https://dc.lft.to/lastmile_qr_scan"}, "is_disabled": 0, "fusion_lat": 0.0, "name": "9307247f5d8a78af5747e613815b8e4d", "fusion_lon": 0.0}, {"is_reserved": 0, "type": "electric_scooter", "bike_id": "b7e88c2c61bda401f0f1d324a96cde37", "lat": 38.912585, "lon": -77.037209, "rental_uris": {"android": "https://dc.lft.to/lastmile_qr_scan", "ios": "https://dc.lft.to/lastmile_qr_scan"}, "is_disabled": 0, "fusion_lat": 0.0, "name": "b7e88c2c61bda401f0f1d324a96cde37", "fusion_lon": 0.0}, {"is_reserved": 0, "type": "electric_scooter", "bike_id": "df957c0aa73160005c2c167b93afd094", "lat": 38.91995283333333, "lon": -77.02546383333333, "rental_uris": {"android": "https://dc.lft.to/lastmile_qr_scan", "ios": "https://dc.lft.to/lastmile_qr_scan"}, "is_disabled": 0, "fusion_lat": 0.0, "name": "df957c0aa73160005c2c167b93afd094", "fusion_lon": 0.0}, {"is_reserved": 0, "type": "electric_scooter", "bike_id": "fcaa2240b457703627948704cbf52faa", "lat": 38.898901333333335, "lon": -76.99361416666666, "rental_uris": {"android": "https://dc.lft.to/lastmile_qr_scan", "ios": "https://dc.lft.to/lastmile_qr_scan"}, "is_disabled": 0, "fusion_lat": 0.0, "name": "fcaa2240b457703627948704cbf52faa", "fusion_lon": 0.0}, {"is_reserved": 0, "type": "electric_scooter", "bike_id": "041e9bfdf90bc9054b8f74b1d704c179", "lat": 38.88383483333333, "lon": -77.029889, "rental_uris": {"android": "https://dc.lft.to/lastmile_qr_scan", "ios": "https://dc.lft.to/lastmile_qr_scan"}, "is_disabled": 0, "fusion_lat": 0.0, "name": "041e9bfdf90bc9054b8f74b1d704c179", "fusion_lon": 0.0}, {"is_reserved": 0, "type": "electric_scooter", "bike_id": "889048eb5954fafc8ab8a80a7cf92cef", "lat": 38.933967, "lon": -77.02844266666666, "rental_uris": {"android": "https://dc.lft.to/lastmile_qr_scan", "ios": "https://dc.lft.to/lastmile_qr_scan"}, "is_disabled": 0, "fusion_lat": 0.0, "name": "889048eb5954fafc8ab8a80a7cf92cef", "fusion_lon": 0.0}, {"is_reserved": 0, "type": "electric_scooter", "bike_id": "eee58be46c875f2548d2061825bc1278", "lat": 38.8923745, "lon": -77.04486633333333, "rental_uris": {"android": "https://dc.lft.to/lastmile_qr_scan", "ios": "https://dc.lft.to/lastmile_qr_scan"}, "is_disabled": 0, "fusion_lat": 0.0, "name": "eee58be46c875f2548d2061825bc1278", "fusion_lon": 0.0}, {"is_reserved": 0, "type": "electric_scooter", "bike_id": "6bf3afedf3e65933793de2aae379c6fc", "lat": 38.902214, "lon": -77.02823116666667, "rental_uris": {"android": "https://dc.lft.to/lastmile_qr_scan", "ios": "https://dc.lft.to/lastmile_qr_scan"}, "is_disabled": 0, "fusion_lat": 0.0, "name": "6bf3afedf3e65933793de2aae379c6fc", "fusion_lon": 0.0}, {"is_reserved": 0, "type": "electric_bike", "bike_id": "79c571617d0ad34824d73d9ca0992da1", "lat": 38.945127666666664, "lon": -77.00671683333333, "rental_uris": {"android": "https://dc.lft.to/lastmile_qr_scan", "ios": "https://dc.lft.to/lastmile_qr_scan"}, "is_disabled": 0, "fusion_lat": 0.0, "name": "79c571617d0ad34824d73d9ca0992da1", "fusion_lon": 0.0}, {"is_reserved": 0, "type": "electric_scooter", "bike_id": "7384f18e88685134a318bbfbca66e6a5", "lat": 38.92061566666667, "lon": -77.0232045, "rental_uris": {"android": "https://dc.lft.to/lastmile_qr_scan", "ios": "https://dc.lft.to/lastmile_qr_scan"}, "is_disabled": 0, "fusion_lat": 0.0, "name": "7384f18e88685134a318bbfbca66e6a5", "fusion_lon": 0.0}, {"is_reserved": 0, "type": "electric_scooter", "bike_id": "73905a818fac4f0885acca09fb9a5e95", "lat": 38.9285795, "lon": -77.032834, "rental_uris": {"android": "https://dc.lft.to/lastmile_qr_scan", "ios": "https://dc.lft.to/lastmile_qr_scan"}, "is_disabled": 0, "fusion_lat": 0.0, "name": "73905a818fac4f0885acca09fb9a5e95", "fusion_lon": 0.0}, {"is_reserved": 0, "type": "electric_bike", "bike_id": "332e3137d63f1f0973ced88aee10b6af", "lat": 38.8773385, "lon": -77.11852483333334, "rental_uris": {"android": "https://dc.lft.to/lastmile_qr_scan", "ios": "https://dc.lft.to/lastmile_qr_scan"}, "is_disabled": 0, "fusion_lat": 0.0, "name": "332e3137d63f1f0973ced88aee10b6af", "fusion_lon": 0.0}, {"is_reserved": 0, "type": "electric_scooter", "bike_id": "96a04ab31afbc98ddc66db539d642fbe", "lat": 38.9337165, "lon": -77.03470233333333, "rental_uris": {"android": "https://dc.lft.to/lastmile_qr_scan", "ios": "https://dc.lft.to/lastmile_qr_scan"}, "is_disabled": 0, "fusion_lat": 0.0, "name": "96a04ab31afbc98ddc66db539d642fbe", "fusion_lon": 0.0}, {"is_reserved": 0, "type": "electric_scooter", "bike_id": "2105a4248849b5be0231dab88b40d058", "lat": 38.917710666666665, "lon": -77.02313433333333, "rental_uris": {"android": "https://dc.lft.to/lastmile_qr_scan", "ios": "https://dc.lft.to/lastmile_qr_scan"}, "is_disabled": 0, "fusion_lat": 0.0, "name": "2105a4248849b5be0231dab88b40d058", "fusion_lon": 0.0}, {"is_reserved": 0, "type": "electric_scooter", "bike_id": "0daf9f9b0c6f541eaa57d0fb85cac041", "lat": 38.919615, "lon": -77.04360633333333, "rental_uris": {"android": "https://dc.lft.to/lastmile_qr_scan", "ios": "https://dc.lft.to/lastmile_qr_scan"}, "is_disabled": 0, "fusion_lat": 0.0, "name": "0daf9f9b0c6f541eaa57d0fb85cac041", "fusion_lon": 0.0}, {"is_reserved": 0, "type": "electric_scooter", "bike_id": "df91cdebf7dc4bb3c12f9b2884659d83", "lat": 38.867162666666665, "lon": -76.98077416666666, "rental_uris": {"android": "https://dc.lft.to/lastmile_qr_scan", "ios": "https://dc.lft.to/lastmile_qr_scan"}, "is_disabled": 0, "fusion_lat": 0.0, "name": "df91cdebf7dc4bb3c12f9b2884659d83", "fusion_lon": 0.0}, {"is_reserved": 0, "type": "electric_scooter", "bike_id": "4311f70014220e1410a34eaa99a1b979", "lat": 38.911095, "lon": -77.0208075, "rental_uris": {"android": "https://dc.lft.to/lastmile_qr_scan", "ios": "https://dc.lft.to/lastmile_qr_scan"}, "is_disabled": 0, "fusion_lat": 0.0, "name": "4311f70014220e1410a34eaa99a1b979", "fusion_lon": 0.0}, {"is_reserved": 0, "type": "electric_scooter", "bike_id": "a5ba8dc5b6e1c26990759d17e5818d71", "lat": 38.892274, "lon": -77.03184983333334, "rental_uris": {"android": "https://dc.lft.to/lastmile_qr_scan", "ios": "https://dc.lft.to/lastmile_qr_scan"}, "is_disabled": 0, "fusion_lat": 0.0, "name": "a5ba8dc5b6e1c26990759d17e5818d71", "fusion_lon": 0.0}, {"is_reserved": 0, "type": "electric_scooter", "bike_id": "225803f3acdddeb1ff47777296381b4e", "lat": 38.919427666666664, "lon": -77.01879733333334, "rental_uris": {"android": "https://dc.lft.to/lastmile_qr_scan", "ios": "https://dc.lft.to/lastmile_qr_scan"}, "is_disabled": 0, "fusion_lat": 0.0, "name": "225803f3acdddeb1ff47777296381b4e", "fusion_lon": 0.0}, {"is_reserved": 0, "type": "electric_scooter", "bike_id": "01f6122e246fb1670819e171855afb98", "lat": 38.908596833333334, "lon": -77.0037025, "rental_uris": {"android": "https://dc.lft.to/lastmile_qr_scan", "ios": "https://dc.lft.to/lastmile_qr_scan"}, "is_disabled": 0, "fusion_lat": 0.0, "name": "01f6122e246fb1670819e171855afb98", "fusion_lon": 0.0}, {"is_reserved": 0, "type": "electric_scooter", "bike_id": "566c2760a576de0f48ac9b6ef0d1b27b", "lat": 38.90975566666667, "lon": -77.02409983333334, "rental_uris": {"android": "https://dc.lft.to/lastmile_qr_scan", "ios": "https://dc.lft.to/lastmile_qr_scan"}, "is_disabled": 0, "fusion_lat": 0.0, "name": "566c2760a576de0f48ac9b6ef0d1b27b", "fusion_lon": 0.0}, {"is_reserved": 0, "type": "electric_scooter", "bike_id": "ad9cd1bf747b0f06d9d747bfbc60a5f8", "lat": 38.86597233333333, "lon": -76.97461566666666, "rental_uris": {"android": "https://dc.lft.to/lastmile_qr_scan", "ios": "https://dc.lft.to/lastmile_qr_scan"}, "is_disabled": 0, "fusion_lat": 0.0, "name": "ad9cd1bf747b0f06d9d747bfbc60a5f8", "fusion_lon": 0.0}, {"is_reserved": 0, "type": "electric_scooter", "bike_id": "b4cb359b3704ea2f3247731ae4a42046", "lat": 38.90583933333333, "lon": -77.030714, "rental_uris": {"android": "https://dc.lft.to/lastmile_qr_scan", "ios": "https://dc.lft.to/lastmile_qr_scan"}, "is_disabled": 0, "fusion_lat": 0.0, "name": "b4cb359b3704ea2f3247731ae4a42046", "fusion_lon": 0.0}, {"is_reserved": 0, "type": "electric_scooter", "bike_id": "d804efbd166b6fc9a35183ed9ed41994", "lat": 38.88771, "lon": -76.98319483333333, "rental_uris": {"android": "https://dc.lft.to/lastmile_qr_scan", "ios": "https://dc.lft.to/lastmile_qr_scan"}, "is_disabled": 0, "fusion_lat": 0.0, "name": "d804efbd166b6fc9a35183ed9ed41994", "fusion_lon": 0.0}, {"is_reserved": 0, "type": "electric_scooter", "bike_id": "92859d80596821bb60c5e7c3eaa870ca", "lat": 38.915679, "lon": -77.0229485, "rental_uris": {"android": "https://dc.lft.to/lastmile_qr_scan", "ios": "https://dc.lft.to/lastmile_qr_scan"}, "is_disabled": 0, "fusion_lat": 0.0, "name": "92859d80596821bb60c5e7c3eaa870ca", "fusion_lon": 0.0}, {"is_reserved": 0, "type": "electric_bike", "bike_id": "2556e6539c786e8bd3ad972bbdd99e55", "lat": 38.895914, "lon": -76.906928, "rental_uris": {"android": "https://dc.lft.to/lastmile_qr_scan", "ios": "https://dc.lft.to/lastmile_qr_scan"}, "is_disabled": 0, "fusion_lat": 0.0, "name": "2556e6539c786e8bd3ad972bbdd99e55", "fusion_lon": 0.0}, {"is_reserved": 0, "type": "electric_scooter", "bike_id": "b9b9a1f10d1da67a48e7f5935ac8fb3e", "lat": 38.89757766666666, "lon": -77.02696283333333, "rental_uris": {"android": "https://dc.lft.to/lastmile_qr_scan", "ios": "https://dc.lft.to/lastmile_qr_scan"}, "is_disabled": 0, "fusion_lat": 0.0, "name": "b9b9a1f10d1da67a48e7f5935ac8fb3e", "fusion_lon": 0.0}, {"is_reserved": 0, "type": "electric_scooter", "bike_id": "987c12f30f421da59c487fcf772d78f8", "lat": 38.88762583333333, "lon": -76.98326583333333, "rental_uris": {"android": "https://dc.lft.to/lastmile_qr_scan", "ios": "https://dc.lft.to/lastmile_qr_scan"}, "is_disabled": 0, "fusion_lat": 0.0, "name": "987c12f30f421da59c487fcf772d78f8", "fusion_lon": 0.0}, {"is_reserved": 0, "type": "electric_bike", "bike_id": "6fa0eb839cf26ae5cb9436bbe714574c", "lat": 38.9564385, "lon": -77.03295633333333, "rental_uris": {"android": "https://dc.lft.to/lastmile_qr_scan", "ios": "https://dc.lft.to/lastmile_qr_scan"}, "is_disabled": 0, "fusion_lat": 0.0, "name": "6fa0eb839cf26ae5cb9436bbe714574c", "fusion_lon": 0.0}, {"is_reserved": 0, "type": "electric_scooter", "bike_id": "ed3f91236f31dc451afbd4882f23d276", "lat": 38.89810083333333, "lon": -76.99689316666667, "rental_uris": {"android": "https://dc.lft.to/lastmile_qr_scan", "ios": "https://dc.lft.to/lastmile_qr_scan"}, "is_disabled": 0, "fusion_lat": 0.0, "name": "ed3f91236f31dc451afbd4882f23d276", "fusion_lon": 0.0}, {"is_reserved": 0, "type": "electric_scooter", "bike_id": "20a28d069c02f81a44f567a66863e008", "lat": 38.926854666666664, "lon": -76.99770566666666, "rental_uris": {"android": "https://dc.lft.to/lastmile_qr_scan", "ios": "https://dc.lft.to/lastmile_qr_scan"}, "is_disabled": 0, "fusion_lat": 0.0, "name": "20a28d069c02f81a44f567a66863e008", "fusion_lon": 0.0}, {"is_reserved": 0, "type": "electric_scooter", "bike_id": "acb3aeb152aa1d6ee20f3e9efdfaac9c", "lat": 38.9057815, "lon": -77.00613933333334, "rental_uris": {"android": "https://dc.lft.to/lastmile_qr_scan", "ios": "https://dc.lft.to/lastmile_qr_scan"}, "is_disabled": 0, "fusion_lat": 0.0, "name": "acb3aeb152aa1d6ee20f3e9efdfaac9c", "fusion_lon": 0.0}, {"is_reserved": 0, "type": "electric_scooter", "bike_id": "dca61a556b0f92f671a03d6b7bb0d071", "lat": 38.904266666666665, "lon": -77.03116, "rental_uris": {"android": "https://dc.lft.to/lastmile_qr_scan", "ios": "https://dc.lft.to/lastmile_qr_scan"}, "is_disabled": 0, "fusion_lat": 0.0, "name": "dca61a556b0f92f671a03d6b7bb0d071", "fusion_lon": 0.0}, {"is_reserved": 0, "type": "electric_scooter", "bike_id": "8cdce833f197716811da39e52af079ea", "lat": 38.899880333333336, "lon": -77.02289716666667, "rental_uris": {"android": "https://dc.lft.to/lastmile_qr_scan", "ios": "https://dc.lft.to/lastmile_qr_scan"}, "is_disabled": 0, "fusion_lat": 0.0, "name": "8cdce833f197716811da39e52af079ea", "fusion_lon": 0.0}, {"is_reserved": 0, "type": "electric_scooter", "bike_id": "9e55901207b88ecea844884e38908a29", "lat": 38.92037033333333, "lon": -77.0122085, "rental_uris": {"android": "https://dc.lft.to/lastmile_qr_scan", "ios": "https://dc.lft.to/lastmile_qr_scan"}, "is_disabled": 0, "fusion_lat": 0.0, "name": "9e55901207b88ecea844884e38908a29", "fusion_lon": 0.0}, {"is_reserved": 0, "type": "electric_bike", "bike_id": "0c3c6ed03848216c80be2fee6342a090", "lat": 39.084898833333334, "lon": -76.9506465, "rental_uris": {"android": "https://dc.lft.to/lastmile_qr_scan", "ios": "https://dc.lft.to/lastmile_qr_scan"}, "is_disabled": 0, "fusion_lat": 0.0, "name": "0c3c6ed03848216c80be2fee6342a090", "fusion_lon": 0.0}, {"is_reserved": 0, "type": "electric_scooter", "bike_id": "c389dff87537dfe23ceb96589952d042", "lat": 38.9443335, "lon": -76.979667, "rental_uris": {"android": "https://dc.lft.to/lastmile_qr_scan", "ios": "https://dc.lft.to/lastmile_qr_scan"}, "is_disabled": 0, "fusion_lat": 0.0, "name": "c389dff87537dfe23ceb96589952d042", "fusion_lon": 0.0}, {"is_reserved": 0, "type": "electric_scooter", "bike_id": "3b37bf79a89cd2cd89ac39aa7aa3bd83", "lat": 38.923855833333334, "lon": -77.04117183333334, "rental_uris": {"android": "https://dc.lft.to/lastmile_qr_scan", "ios": "https://dc.lft.to/lastmile_qr_scan"}, "is_disabled": 0, "fusion_lat": 0.0, "name": "3b37bf79a89cd2cd89ac39aa7aa3bd83", "fusion_lon": 0.0}, {"is_reserved": 0, "type": "electric_scooter", "bike_id": "ed9e35d112ace03e4970fc61f6e100bc", "lat": 38.92584633333333, "lon": -77.0260045, "rental_uris": {"android": "https://dc.lft.to/lastmile_qr_scan", "ios": "https://dc.lft.to/lastmile_qr_scan"}, "is_disabled": 0, "fusion_lat": 0.0, "name": "ed9e35d112ace03e4970fc61f6e100bc", "fusion_lon": 0.0}, {"is_reserved": 0, "type": "electric_scooter", "bike_id": "bd517f1104d9a8a32122e7286b923555", "lat": 38.926241, "lon": -77.04329383333334, "rental_uris": {"android": "https://dc.lft.to/lastmile_qr_scan", "ios": "https://dc.lft.to/lastmile_qr_scan"}, "is_disabled": 0, "fusion_lat": 0.0, "name": "bd517f1104d9a8a32122e7286b923555", "fusion_lon": 0.0}, {"is_reserved": 0, "type": "electric_scooter", "bike_id": "7070528a7f7baadce8af3d35daa0d7c5", "lat": 38.9158035, "lon": -77.0123325, "rental_uris": {"android": "https://dc.lft.to/lastmile_qr_scan", "ios": "https://dc.lft.to/lastmile_qr_scan"}, "is_disabled": 0, "fusion_lat": 0.0, "name": "7070528a7f7baadce8af3d35daa0d7c5", "fusion_lon": 0.0}, {"is_reserved": 0, "type": "electric_scooter", "bike_id": "63d2af38ab8869ae865ff4fde2c203a1", "lat": 38.911047, "lon": -77.03834116666667, "rental_uris": {"android": "https://dc.lft.to/lastmile_qr_scan", "ios": "https://dc.lft.to/lastmile_qr_scan"}, "is_disabled": 0, "fusion_lat": 0.0, "name": "63d2af38ab8869ae865ff4fde2c203a1", "fusion_lon": 0.0}, {"is_reserved": 0, "type": "electric_scooter", "bike_id": "499415eeb5c01c83130bb772db0f6b67", "lat": 38.90030633333333, "lon": -77.01187816666666, "rental_uris": {"android": "https://dc.lft.to/lastmile_qr_scan", "ios": "https://dc.lft.to/lastmile_qr_scan"}, "is_disabled": 0, "fusion_lat": 0.0, "name": "499415eeb5c01c83130bb772db0f6b67", "fusion_lon": 0.0}, {"is_reserved": 0, "type": "electric_scooter", "bike_id": "1a7498cb88212f3b7b9a4181e304afee", "lat": 38.882028166666665, "lon": -77.00605366666667, "rental_uris": {"android": "https://dc.lft.to/lastmile_qr_scan", "ios": "https://dc.lft.to/lastmile_qr_scan"}, "is_disabled": 0, "fusion_lat": 0.0, "name": "1a7498cb88212f3b7b9a4181e304afee", "fusion_lon": 0.0}, {"is_reserved": 0, "type": "electric_scooter", "bike_id": "e9bc13f99f81b317a3dc19f73df54754", "lat": 38.92289666666667, "lon": -77.03199683333334, "rental_uris": {"android": "https://dc.lft.to/lastmile_qr_scan", "ios": "https://dc.lft.to/lastmile_qr_scan"}, "is_disabled": 0, "fusion_lat": 0.0, "name": "e9bc13f99f81b317a3dc19f73df54754", "fusion_lon": 0.0}, {"is_reserved": 0, "type": "electric_scooter", "bike_id": "6b681808966bd303e51a330a514cbed1", "lat": 38.921095666666666, "lon": -77.0393695, "rental_uris": {"android": "https://dc.lft.to/lastmile_qr_scan", "ios": "https://dc.lft.to/lastmile_qr_scan"}, "is_disabled": 0, "fusion_lat": 0.0, "name": "6b681808966bd303e51a330a514cbed1", "fusion_lon": 0.0}, {"is_reserved": 0, "type": "electric_scooter", "bike_id": "789ebcd555f420003e630cb5d6653798", "lat": 38.8964685, "lon": -77.0330825, "rental_uris": {"android": "https://dc.lft.to/lastmile_qr_scan", "ios": "https://dc.lft.to/lastmile_qr_scan"}, "is_disabled": 0, "fusion_lat": 0.0, "name": "789ebcd555f420003e630cb5d6653798", "fusion_lon": 0.0}, {"is_reserved": 0, "type": "electric_scooter", "bike_id": "920cf61270487a3d97db3381e4545b1f", "lat": 38.959567666666665, "lon": -77.07270733333333, "rental_uris": {"android": "https://dc.lft.to/lastmile_qr_scan", "ios": "https://dc.lft.to/lastmile_qr_scan"}, "is_disabled": 0, "fusion_lat": 0.0, "name": "920cf61270487a3d97db3381e4545b1f", "fusion_lon": 0.0}, {"is_reserved": 0, "type": "electric_scooter", "bike_id": "0e52a968bb9c61bb837d9fd6f6d22971", "lat": 38.889247833333336, "lon": -76.99383033333334, "rental_uris": {"android": "https://dc.lft.to/lastmile_qr_scan", "ios": "https://dc.lft.to/lastmile_qr_scan"}, "is_disabled": 0, "fusion_lat": 0.0, "name": "0e52a968bb9c61bb837d9fd6f6d22971", "fusion_lon": 0.0}, {"is_reserved": 0, "type": "electric_bike", "bike_id": "5af9fa6d98a8a9a27486647de1bcad86", "lat": 38.9395785, "lon": -77.0275355, "rental_uris": {"android": "https://dc.lft.to/lastmile_qr_scan", "ios": "https://dc.lft.to/lastmile_qr_scan"}, "is_disabled": 0, "fusion_lat": 0.0, "name": "5af9fa6d98a8a9a27486647de1bcad86", "fusion_lon": 0.0}, {"is_reserved": 0, "type": "electric_scooter", "bike_id": "b4c9930a6a97b5386fc7cd4187499151", "lat": 38.9140675, "lon": -77.02753516666667, "rental_uris": {"android": "https://dc.lft.to/lastmile_qr_scan", "ios": "https://dc.lft.to/lastmile_qr_scan"}, "is_disabled": 0, "fusion_lat": 0.0, "name": "b4c9930a6a97b5386fc7cd4187499151", "fusion_lon": 0.0}, {"is_reserved": 0, "type": "electric_scooter", "bike_id": "0c4218ca1dbb562a09667d4d759775d1", "lat": 38.895353, "lon": -77.011443, "rental_uris": {"android": "https://dc.lft.to/lastmile_qr_scan", "ios": "https://dc.lft.to/lastmile_qr_scan"}, "is_disabled": 0, "fusion_lat": 0.0, "name": "0c4218ca1dbb562a09667d4d759775d1", "fusion_lon": 0.0}, {"is_reserved": 0, "type": "electric_scooter", "bike_id": "9e0057734fa8b2bb839e431ecddab368", "lat": 38.884099666666664, "lon": -77.02559216666667, "rental_uris": {"android": "https://dc.lft.to/lastmile_qr_scan", "ios": "https://dc.lft.to/lastmile_qr_scan"}, "is_disabled": 0, "fusion_lat": 0.0, "name": "9e0057734fa8b2bb839e431ecddab368", "fusion_lon": 0.0}, {"is_reserved": 0, "type": "electric_scooter", "bike_id": "dde6e09a2c6fa9234b328b6cc77f2e7e", "lat": 38.89222433333333, "lon": -77.0242535, "rental_uris": {"android": "https://dc.lft.to/lastmile_qr_scan", "ios": "https://dc.lft.to/lastmile_qr_scan"}, "is_disabled": 0, "fusion_lat": 0.0, "name": "dde6e09a2c6fa9234b328b6cc77f2e7e", "fusion_lon": 0.0}, {"is_reserved": 0, "type": "electric_scooter", "bike_id": "6bc051742b4016ddcc603d80240016ef", "lat": 38.89826816666667, "lon": -77.04832666666667, "rental_uris": {"android": "https://dc.lft.to/lastmile_qr_scan", "ios": "https://dc.lft.to/lastmile_qr_scan"}, "is_disabled": 0, "fusion_lat": 0.0, "name": "6bc051742b4016ddcc603d80240016ef", "fusion_lon": 0.0}, {"is_reserved": 0, "type": "electric_scooter", "bike_id": "8a1efd82359fd4d282d9c32e21b29855", "lat": 38.930358166666664, "lon": -77.08320633333334, "rental_uris": {"android": "https://dc.lft.to/lastmile_qr_scan", "ios": "https://dc.lft.to/lastmile_qr_scan"}, "is_disabled": 0, "fusion_lat": 0.0, "name": "8a1efd82359fd4d282d9c32e21b29855", "fusion_lon": 0.0}, {"is_reserved": 0, "type": "electric_scooter", "bike_id": "f3a284b53d78245b3810dd7a6357cd0a", "lat": 38.90611716666667, "lon": -77.03301833333333, "rental_uris": {"android": "https://dc.lft.to/lastmile_qr_scan", "ios": "https://dc.lft.to/lastmile_qr_scan"}, "is_disabled": 0, "fusion_lat": 0.0, "name": "f3a284b53d78245b3810dd7a6357cd0a", "fusion_lon": 0.0}, {"is_reserved": 0, "type": "electric_scooter", "bike_id": "ceda0d24d0fcd08358d6c2db1191a429", "lat": 38.92382416666667, "lon": -77.02744216666666, "rental_uris": {"android": "https://dc.lft.to/lastmile_qr_scan", "ios": "https://dc.lft.to/lastmile_qr_scan"}, "is_disabled": 0, "fusion_lat": 0.0, "name": "ceda0d24d0fcd08358d6c2db1191a429", "fusion_lon": 0.0}, {"is_reserved": 0, "type": "electric_scooter", "bike_id": "34a664408acc0309d3a44edb7820d32f", "lat": 38.91819916666667, "lon": -77.04183683333333, "rental_uris": {"android": "https://dc.lft.to/lastmile_qr_scan", "ios": "https://dc.lft.to/lastmile_qr_scan"}, "is_disabled": 0, "fusion_lat": 0.0, "name": "34a664408acc0309d3a44edb7820d32f", "fusion_lon": 0.0}, {"is_reserved": 0, "type": "electric_scooter", "bike_id": "517d52e17a406006111387e23e1a3749", "lat": 38.933428666666664, "lon": -77.04137233333333, "rental_uris": {"android": "https://dc.lft.to/lastmile_qr_scan", "ios": "https://dc.lft.to/lastmile_qr_scan"}, "is_disabled": 0, "fusion_lat": 0.0, "name": "517d52e17a406006111387e23e1a3749", "fusion_lon": 0.0}, {"is_reserved": 0, "type": "electric_scooter", "bike_id": "037f04ceebe2e04c95a708b105239956", "lat": 38.910452166666666, "lon": -77.01516466666666, "rental_uris": {"android": "https://dc.lft.to/lastmile_qr_scan", "ios": "https://dc.lft.to/lastmile_qr_scan"}, "is_disabled": 0, "fusion_lat": 0.0, "name": "037f04ceebe2e04c95a708b105239956", "fusion_lon": 0.0}, {"is_reserved": 0, "type": "electric_bike", "bike_id": "c91d7a130e30c867e026fa3a157d0524", "lat": 38.951505166666664, "lon": -76.93331566666667, "rental_uris": {"android": "https://dc.lft.to/lastmile_qr_scan", "ios": "https://dc.lft.to/lastmile_qr_scan"}, "is_disabled": 0, "fusion_lat": 0.0, "name": "c91d7a130e30c867e026fa3a157d0524", "fusion_lon": 0.0}, {"is_reserved": 0, "type": "electric_scooter", "bike_id": "87a4dbd20c9b54b8c46f7b724bc1846a", "lat": 38.926081333333336, "lon": -77.05710216666667, "rental_uris": {"android": "https://dc.lft.to/lastmile_qr_scan", "ios": "https://dc.lft.to/lastmile_qr_scan"}, "is_disabled": 0, "fusion_lat": 0.0, "name": "87a4dbd20c9b54b8c46f7b724bc1846a", "fusion_lon": 0.0}, {"is_reserved": 0, "type": "electric_scooter", "bike_id": "98314622adf046165126fb359a5b1a8e", "lat": 38.94975916666667, "lon": -77.02441416666667, "rental_uris": {"android": "https://dc.lft.to/lastmile_qr_scan", "ios": "https://dc.lft.to/lastmile_qr_scan"}, "is_disabled": 0, "fusion_lat": 0.0, "name": "98314622adf046165126fb359a5b1a8e", "fusion_lon": 0.0}, {"is_reserved": 0, "type": "electric_bike", "bike_id": "f74adc1ba066b21799b453a3491ad6f4", "lat": 38.80256466666667, "lon": -77.1217455, "rental_uris": {"android": "https://dc.lft.to/lastmile_qr_scan", "ios": "https://dc.lft.to/lastmile_qr_scan"}, "is_disabled": 0, "fusion_lat": 0.0, "name": "f74adc1ba066b21799b453a3491ad6f4", "fusion_lon": 0.0}, {"is_reserved": 0, "type": "electric_scooter", "bike_id": "a0a16d787d93cca1bb708627184df7ba", "lat": 38.906871833333334, "lon": -77.06262233333334, "rental_uris": {"android": "https://dc.lft.to/lastmile_qr_scan", "ios": "https://dc.lft.to/lastmile_qr_scan"}, "is_disabled": 0, "fusion_lat": 0.0, "name": "a0a16d787d93cca1bb708627184df7ba", "fusion_lon": 0.0}, {"is_reserved": 0, "type": "electric_scooter", "bike_id": "ba53a88794fd87780bd16746206fd8b1", "lat": 38.9172705, "lon": -77.02388633333334, "rental_uris": {"android": "https://dc.lft.to/lastmile_qr_scan", "ios": "https://dc.lft.to/lastmile_qr_scan"}, "is_disabled": 0, "fusion_lat": 0.0, "name": "ba53a88794fd87780bd16746206fd8b1", "fusion_lon": 0.0}, {"is_reserved": 0, "type": "electric_scooter", "bike_id": "7f0213176dda7cd2e3e93d95bf3b855c", "lat": 38.924795333333336, "lon": -77.03183733333333, "rental_uris": {"android": "https://dc.lft.to/lastmile_qr_scan", "ios": "https://dc.lft.to/lastmile_qr_scan"}, "is_disabled": 0, "fusion_lat": 0.0, "name": "7f0213176dda7cd2e3e93d95bf3b855c", "fusion_lon": 0.0}, {"is_reserved": 0, "type": "electric_scooter", "bike_id": "97b84b11416aca92efdcfacdc8da3be6", "lat": 38.90520133333333, "lon": -77.03187766666667, "rental_uris": {"android": "https://dc.lft.to/lastmile_qr_scan", "ios": "https://dc.lft.to/lastmile_qr_scan"}, "is_disabled": 0, "fusion_lat": 0.0, "name": "97b84b11416aca92efdcfacdc8da3be6", "fusion_lon": 0.0}, {"is_reserved": 0, "type": "electric_scooter", "bike_id": "0cc0c3ba3f8c353c0b0a0217e92f4de8", "lat": 38.88365316666667, "lon": -76.99514983333333, "rental_uris": {"android": "https://dc.lft.to/lastmile_qr_scan", "ios": "https://dc.lft.to/lastmile_qr_scan"}, "is_disabled": 0, "fusion_lat": 0.0, "name": "0cc0c3ba3f8c353c0b0a0217e92f4de8", "fusion_lon": 0.0}, {"is_reserved": 0, "type": "electric_scooter", "bike_id": "33cf68752a8f307b584615265fe702ee", "lat": 38.919063666666666, "lon": -77.01347283333334, "rental_uris": {"android": "https://dc.lft.to/lastmile_qr_scan", "ios": "https://dc.lft.to/lastmile_qr_scan"}, "is_disabled": 0, "fusion_lat": 0.0, "name": "33cf68752a8f307b584615265fe702ee", "fusion_lon": 0.0}, {"is_reserved": 0, "type": "electric_scooter", "bike_id": "021cb2a55ee8f18e0c61997afe1ade04", "lat": 38.879191666666664, "lon": -77.00241916666667, "rental_uris": {"android": "https://dc.lft.to/lastmile_qr_scan", "ios": "https://dc.lft.to/lastmile_qr_scan"}, "is_disabled": 0, "fusion_lat": 0.0, "name": "021cb2a55ee8f18e0c61997afe1ade04", "fusion_lon": 0.0}, {"is_reserved": 0, "type": "electric_scooter", "bike_id": "b2b79557d6f6ffecaefb5fc15ae372f9", "lat": 38.876664166666664, "lon": -77.00736216666667, "rental_uris": {"android": "https://dc.lft.to/lastmile_qr_scan", "ios": "https://dc.lft.to/lastmile_qr_scan"}, "is_disabled": 0, "fusion_lat": 0.0, "name": "b2b79557d6f6ffecaefb5fc15ae372f9", "fusion_lon": 0.0}, {"is_reserved": 0, "type": "electric_bike", "bike_id": "6f95404190e32492cf6201a4599c4c01", "lat": 38.95956066666667, "lon": -76.98170183333333, "rental_uris": {"android": "https://dc.lft.to/lastmile_qr_scan", "ios": "https://dc.lft.to/lastmile_qr_scan"}, "is_disabled": 0, "fusion_lat": 0.0, "name": "6f95404190e32492cf6201a4599c4c01", "fusion_lon": 0.0}, {"is_reserved": 0, "type": "electric_scooter", "bike_id": "4a803369049ac9f72d0df6786ff0f03e", "lat": 38.9057125, "lon": -77.0307245, "rental_uris": {"android": "https://dc.lft.to/lastmile_qr_scan", "ios": "https://dc.lft.to/lastmile_qr_scan"}, "is_disabled": 0, "fusion_lat": 0.0, "name": "4a803369049ac9f72d0df6786ff0f03e", "fusion_lon": 0.0}, {"is_reserved": 0, "type": "electric_bike", "bike_id": "2b6fe431b83255da8ed083595dc0b55d", "lat": 39.038172333333335, "lon": -77.04263516666667, "rental_uris": {"android": "https://dc.lft.to/lastmile_qr_scan", "ios": "https://dc.lft.to/lastmile_qr_scan"}, "is_disabled": 0, "fusion_lat": 0.0, "name": "2b6fe431b83255da8ed083595dc0b55d", "fusion_lon": 0.0}, {"is_reserved": 0, "type": "electric_scooter", "bike_id": "778d9b827d8a692fbfddbc16fc9396a7", "lat": 38.90715766666667, "lon": -77.00753983333334, "rental_uris": {"android": "https://dc.lft.to/lastmile_qr_scan", "ios": "https://dc.lft.to/lastmile_qr_scan"}, "is_disabled": 0, "fusion_lat": 0.0, "name": "778d9b827d8a692fbfddbc16fc9396a7", "fusion_lon": 0.0}, {"is_reserved": 0, "type": "electric_scooter", "bike_id": "4179339414778592c20dafcd2c6ccd31", "lat": 38.897351, "lon": -77.025108, "rental_uris": {"android": "https://dc.lft.to/lastmile_qr_scan", "ios": "https://dc.lft.to/lastmile_qr_scan"}, "is_disabled": 0, "fusion_lat": 0.0, "name": "4179339414778592c20dafcd2c6ccd31", "fusion_lon": 0.0}, {"is_reserved": 0, "type": "electric_scooter", "bike_id": "b9d8114b7abd5c24e172172d56a71604", "lat": 38.92997966666667, "lon": -77.03802733333333, "rental_uris": {"android": "https://dc.lft.to/lastmile_qr_scan", "ios": "https://dc.lft.to/lastmile_qr_scan"}, "is_disabled": 0, "fusion_lat": 0.0, "name": "b9d8114b7abd5c24e172172d56a71604", "fusion_lon": 0.0}, {"is_reserved": 0, "type": "electric_bike", "bike_id": "9fa35b69cf1a7733bec1680365ead36c", "lat": 38.95751033333333, "lon": -76.980244, "rental_uris": {"android": "https://dc.lft.to/lastmile_qr_scan", "ios": "https://dc.lft.to/lastmile_qr_scan"}, "is_disabled": 0, "fusion_lat": 0.0, "name": "9fa35b69cf1a7733bec1680365ead36c", "fusion_lon": 0.0}, {"is_reserved": 0, "type": "electric_scooter", "bike_id": "42ade4c3a428f75bf2f7a5398b557245", "lat": 38.9352875, "lon": -77.03652166666667, "rental_uris": {"android": "https://dc.lft.to/lastmile_qr_scan", "ios": "https://dc.lft.to/lastmile_qr_scan"}, "is_disabled": 0, "fusion_lat": 0.0, "name": "42ade4c3a428f75bf2f7a5398b557245", "fusion_lon": 0.0}, {"is_reserved": 0, "type": "electric_scooter", "bike_id": "5218e39f1f961afe3af017552d14d123", "lat": 38.9232765, "lon": -77.053949, "rental_uris": {"android": "https://dc.lft.to/lastmile_qr_scan", "ios": "https://dc.lft.to/lastmile_qr_scan"}, "is_disabled": 0, "fusion_lat": 0.0, "name": "5218e39f1f961afe3af017552d14d123", "fusion_lon": 0.0}, {"is_reserved": 0, "type": "electric_scooter", "bike_id": "9658325bd9881374d1a651c059535dc5", "lat": 38.901815166666665, "lon": -77.02490083333333, "rental_uris": {"android": "https://dc.lft.to/lastmile_qr_scan", "ios": "https://dc.lft.to/lastmile_qr_scan"}, "is_disabled": 0, "fusion_lat": 0.0, "name": "9658325bd9881374d1a651c059535dc5", "fusion_lon": 0.0}, {"is_reserved": 0, "type": "electric_scooter", "bike_id": "d124637f43d903b07e046b7eb2565ea8", "lat": 38.918167, "lon": -77.04548383333334, "rental_uris": {"android": "https://dc.lft.to/lastmile_qr_scan", "ios": "https://dc.lft.to/lastmile_qr_scan"}, "is_disabled": 0, "fusion_lat": 0.0, "name": "d124637f43d903b07e046b7eb2565ea8", "fusion_lon": 0.0}, {"is_reserved": 0, "type": "electric_scooter", "bike_id": "b47d7fc405842ed5348deda522225b0a", "lat": 38.905418, "lon": -77.04720983333333, "rental_uris": {"android": "https://dc.lft.to/lastmile_qr_scan", "ios": "https://dc.lft.to/lastmile_qr_scan"}, "is_disabled": 0, "fusion_lat": 0.0, "name": "b47d7fc405842ed5348deda522225b0a", "fusion_lon": 0.0}, {"is_reserved": 0, "type": "electric_scooter", "bike_id": "1eee4cda199571d330a0685e527b55a0", "lat": 38.9003325, "lon": -77.002268, "rental_uris": {"android": "https://dc.lft.to/lastmile_qr_scan", "ios": "https://dc.lft.to/lastmile_qr_scan"}, "is_disabled": 0, "fusion_lat": 0.0, "name": "1eee4cda199571d330a0685e527b55a0", "fusion_lon": 0.0}, {"is_reserved": 0, "type": "electric_scooter", "bike_id": "276e19be655e2076239ff3b38f3390c0", "lat": 38.918238333333335, "lon": -77.03171266666666, "rental_uris": {"android": "https://dc.lft.to/lastmile_qr_scan", "ios": "https://dc.lft.to/lastmile_qr_scan"}, "is_disabled": 0, "fusion_lat": 0.0, "name": "276e19be655e2076239ff3b38f3390c0", "fusion_lon": 0.0}, {"is_reserved": 0, "type": "electric_scooter", "bike_id": "b3f64133cb9694f78c49e2441c4dda03", "lat": 38.922953666666665, "lon": -77.05417716666666, "rental_uris": {"android": "https://dc.lft.to/lastmile_qr_scan", "ios": "https://dc.lft.to/lastmile_qr_scan"}, "is_disabled": 0, "fusion_lat": 0.0, "name": "b3f64133cb9694f78c49e2441c4dda03", "fusion_lon": 0.0}, {"is_reserved": 0, "type": "electric_scooter", "bike_id": "d2bff1edb8fa0c5e035daf6f3a810c77", "lat": 38.899113666666665, "lon": -77.02722833333333, "rental_uris": {"android": "https://dc.lft.to/lastmile_qr_scan", "ios": "https://dc.lft.to/lastmile_qr_scan"}, "is_disabled": 0, "fusion_lat": 0.0, "name": "d2bff1edb8fa0c5e035daf6f3a810c77", "fusion_lon": 0.0}, {"is_reserved": 0, "type": "electric_scooter", "bike_id": "5e065009c8de83b002303f16e50d6f7a", "lat": 38.921125333333336, "lon": -77.03181233333333, "rental_uris": {"android": "https://dc.lft.to/lastmile_qr_scan", "ios": "https://dc.lft.to/lastmile_qr_scan"}, "is_disabled": 0, "fusion_lat": 0.0, "name": "5e065009c8de83b002303f16e50d6f7a", "fusion_lon": 0.0}, {"is_reserved": 0, "type": "electric_scooter", "bike_id": "ee90420b8e673c475d15b7c7f6261686", "lat": 38.92020483333334, "lon": -77.01060683333333, "rental_uris": {"android": "https://dc.lft.to/lastmile_qr_scan", "ios": "https://dc.lft.to/lastmile_qr_scan"}, "is_disabled": 0, "fusion_lat": 0.0, "name": "ee90420b8e673c475d15b7c7f6261686", "fusion_lon": 0.0}, {"is_reserved": 0, "type": "electric_scooter", "bike_id": "0e102fa6e26c232ab57f70c6202c38e8", "lat": 38.8922495, "lon": -77.04637833333334, "rental_uris": {"android": "https://dc.lft.to/lastmile_qr_scan", "ios": "https://dc.lft.to/lastmile_qr_scan"}, "is_disabled": 0, "fusion_lat": 0.0, "name": "0e102fa6e26c232ab57f70c6202c38e8", "fusion_lon": 0.0}, {"is_reserved": 0, "type": "electric_scooter", "bike_id": "2ad6377b5dc25bfc5002b7eeb935c053", "lat": 38.93875666666667, "lon": -77.03017633333333, "rental_uris": {"android": "https://dc.lft.to/lastmile_qr_scan", "ios": "https://dc.lft.to/lastmile_qr_scan"}, "is_disabled": 0, "fusion_lat": 0.0, "name": "2ad6377b5dc25bfc5002b7eeb935c053", "fusion_lon": 0.0}, {"is_reserved": 0, "type": "electric_scooter", "bike_id": "7537952bd275c31524486488cbf4af2d", "lat": 38.9254895, "lon": -77.032699, "rental_uris": {"android": "https://dc.lft.to/lastmile_qr_scan", "ios": "https://dc.lft.to/lastmile_qr_scan"}, "is_disabled": 0, "fusion_lat": 0.0, "name": "7537952bd275c31524486488cbf4af2d", "fusion_lon": 0.0}, {"is_reserved": 0, "type": "electric_scooter", "bike_id": "c9374693f5859051a61da9f12fd9b008", "lat": 38.90539733333333, "lon": -77.00715366666667, "rental_uris": {"android": "https://dc.lft.to/lastmile_qr_scan", "ios": "https://dc.lft.to/lastmile_qr_scan"}, "is_disabled": 0, "fusion_lat": 0.0, "name": "c9374693f5859051a61da9f12fd9b008", "fusion_lon": 0.0}, {"is_reserved": 0, "type": "electric_scooter", "bike_id": "b83a3fbf34055e57a0cfb69559b39436", "lat": 38.90860716666667, "lon": -77.04657716666667, "rental_uris": {"android": "https://dc.lft.to/lastmile_qr_scan", "ios": "https://dc.lft.to/lastmile_qr_scan"}, "is_disabled": 0, "fusion_lat": 0.0, "name": "b83a3fbf34055e57a0cfb69559b39436", "fusion_lon": 0.0}, {"is_reserved": 0, "type": "electric_scooter", "bike_id": "4dff67350888061a0c2647c873b21e04", "lat": 38.94006866666667, "lon": -77.01906983333333, "rental_uris": {"android": "https://dc.lft.to/lastmile_qr_scan", "ios": "https://dc.lft.to/lastmile_qr_scan"}, "is_disabled": 0, "fusion_lat": 0.0, "name": "4dff67350888061a0c2647c873b21e04", "fusion_lon": 0.0}, {"is_reserved": 0, "type": "electric_scooter", "bike_id": "f5e24c731cacc5ef6451e50858bbaef6", "lat": 38.91778083333333, "lon": -77.02314866666667, "rental_uris": {"android": "https://dc.lft.to/lastmile_qr_scan", "ios": "https://dc.lft.to/lastmile_qr_scan"}, "is_disabled": 0, "fusion_lat": 0.0, "name": "f5e24c731cacc5ef6451e50858bbaef6", "fusion_lon": 0.0}, {"is_reserved": 0, "type": "electric_scooter", "bike_id": "506540fe36b31c6f9981ee0b486c6976", "lat": 38.92155483333333, "lon": -77.03368133333333, "rental_uris": {"android": "https://dc.lft.to/lastmile_qr_scan", "ios": "https://dc.lft.to/lastmile_qr_scan"}, "is_disabled": 0, "fusion_lat": 0.0, "name": "506540fe36b31c6f9981ee0b486c6976", "fusion_lon": 0.0}, {"is_reserved": 0, "type": "electric_scooter", "bike_id": "7d23d5162a3b1cea9ffa7cb609917f37", "lat": 38.92238416666667, "lon": -77.03521116666667, "rental_uris": {"android": "https://dc.lft.to/lastmile_qr_scan", "ios": "https://dc.lft.to/lastmile_qr_scan"}, "is_disabled": 0, "fusion_lat": 0.0, "name": "7d23d5162a3b1cea9ffa7cb609917f37", "fusion_lon": 0.0}, {"is_reserved": 0, "type": "electric_scooter", "bike_id": "83541e6c2f295fcbb27cf5abd42b9208", "lat": 38.915703, "lon": -77.03663433333334, "rental_uris": {"android": "https://dc.lft.to/lastmile_qr_scan", "ios": "https://dc.lft.to/lastmile_qr_scan"}, "is_disabled": 0, "fusion_lat": 0.0, "name": "83541e6c2f295fcbb27cf5abd42b9208", "fusion_lon": 0.0}, {"is_reserved": 0, "type": "electric_scooter", "bike_id": "a4295dcc0bc571c4425b32694f46cd8d", "lat": 38.92314833333333, "lon": -77.03722233333333, "rental_uris": {"android": "https://dc.lft.to/lastmile_qr_scan", "ios": "https://dc.lft.to/lastmile_qr_scan"}, "is_disabled": 0, "fusion_lat": 0.0, "name": "a4295dcc0bc571c4425b32694f46cd8d", "fusion_lon": 0.0}, {"is_reserved": 0, "type": "electric_scooter", "bike_id": "aff953264a1aed2ca73468b245b13e9a", "lat": 38.9267545, "lon": -77.00734716666666, "rental_uris": {"android": "https://dc.lft.to/lastmile_qr_scan", "ios": "https://dc.lft.to/lastmile_qr_scan"}, "is_disabled": 0, "fusion_lat": 0.0, "name": "aff953264a1aed2ca73468b245b13e9a", "fusion_lon": 0.0}, {"is_reserved": 0, "type": "electric_scooter", "bike_id": "ddae9ff70a25510df968d586e07fa2d7", "lat": 38.89546933333333, "lon": -76.983399, "rental_uris": {"android": "https://dc.lft.to/lastmile_qr_scan", "ios": "https://dc.lft.to/lastmile_qr_scan"}, "is_disabled": 0, "fusion_lat": 0.0, "name": "ddae9ff70a25510df968d586e07fa2d7", "fusion_lon": 0.0}, {"is_reserved": 0, "type": "electric_scooter", "bike_id": "d3b6da4923381f734aa6d29ebf3a43a3", "lat": 38.9269945, "lon": -77.02072733333334, "rental_uris": {"android": "https://dc.lft.to/lastmile_qr_scan", "ios": "https://dc.lft.to/lastmile_qr_scan"}, "is_disabled": 0, "fusion_lat": 0.0, "name": "d3b6da4923381f734aa6d29ebf3a43a3", "fusion_lon": 0.0}, {"is_reserved": 0, "type": "electric_scooter", "bike_id": "14aa902eed3036065a0c79dbb80e6a6c", "lat": 38.92449833333333, "lon": -77.02035733333334, "rental_uris": {"android": "https://dc.lft.to/lastmile_qr_scan", "ios": "https://dc.lft.to/lastmile_qr_scan"}, "is_disabled": 0, "fusion_lat": 0.0, "name": "14aa902eed3036065a0c79dbb80e6a6c", "fusion_lon": 0.0}, {"is_reserved": 0, "type": "electric_scooter", "bike_id": "06b413bd8094a03e422ab3b1ff07d143", "lat": 38.941798, "lon": -77.025651, "rental_uris": {"android": "https://dc.lft.to/lastmile_qr_scan", "ios": "https://dc.lft.to/lastmile_qr_scan"}, "is_disabled": 0, "fusion_lat": 0.0, "name": "06b413bd8094a03e422ab3b1ff07d143", "fusion_lon": 0.0}, {"is_reserved": 0, "type": "electric_bike", "bike_id": "e0eec1ed48ca3d7a29b263da8579e3c1", "lat": 38.921127166666665, "lon": -76.9888275, "rental_uris": {"android": "https://dc.lft.to/lastmile_qr_scan", "ios": "https://dc.lft.to/lastmile_qr_scan"}, "is_disabled": 0, "fusion_lat": 0.0, "name": "e0eec1ed48ca3d7a29b263da8579e3c1", "fusion_lon": 0.0}, {"is_reserved": 0, "type": "electric_scooter", "bike_id": "6e2f0b739cf7e3c7902a080b1ed65338", "lat": 38.918195, "lon": -77.04514116666667, "rental_uris": {"android": "https://dc.lft.to/lastmile_qr_scan", "ios": "https://dc.lft.to/lastmile_qr_scan"}, "is_disabled": 0, "fusion_lat": 0.0, "name": "6e2f0b739cf7e3c7902a080b1ed65338", "fusion_lon": 0.0}, {"is_reserved": 0, "type": "electric_scooter", "bike_id": "d17aa2783c0406c8cd954beccd079467", "lat": 38.920282666666665, "lon": -77.01855766666667, "rental_uris": {"android": "https://dc.lft.to/lastmile_qr_scan", "ios": "https://dc.lft.to/lastmile_qr_scan"}, "is_disabled": 0, "fusion_lat": 0.0, "name": "d17aa2783c0406c8cd954beccd079467", "fusion_lon": 0.0}, {"is_reserved": 0, "type": "electric_scooter", "bike_id": "8ab569d9fe2812bdd815814c30946d14", "lat": 38.898019166666664, "lon": -76.99503733333333, "rental_uris": {"android": "https://dc.lft.to/lastmile_qr_scan", "ios": "https://dc.lft.to/lastmile_qr_scan"}, "is_disabled": 0, "fusion_lat": 0.0, "name": "8ab569d9fe2812bdd815814c30946d14", "fusion_lon": 0.0}, {"is_reserved": 0, "type": "electric_bike", "bike_id": "815f1df83e2ccaadaa91cd554eb2b39a", "lat": 38.95846433333333, "lon": -76.9859015, "rental_uris": {"android": "https://dc.lft.to/lastmile_qr_scan", "ios": "https://dc.lft.to/lastmile_qr_scan"}, "is_disabled": 0, "fusion_lat": 0.0, "name": "815f1df83e2ccaadaa91cd554eb2b39a", "fusion_lon": 0.0}, {"is_reserved": 0, "type": "electric_scooter", "bike_id": "48afe05696fa78d46036609cee1d044d", "lat": 38.907224, "lon": -77.0074935, "rental_uris": {"android": "https://dc.lft.to/lastmile_qr_scan", "ios": "https://dc.lft.to/lastmile_qr_scan"}, "is_disabled": 0, "fusion_lat": 0.0, "name": "48afe05696fa78d46036609cee1d044d", "fusion_lon": 0.0}, {"is_reserved": 0, "type": "electric_scooter", "bike_id": "6407a1bed6a6a3a7d5d22503db45b9ca", "lat": 38.907245, "lon": -77.03204633333333, "rental_uris": {"android": "https://dc.lft.to/lastmile_qr_scan", "ios": "https://dc.lft.to/lastmile_qr_scan"}, "is_disabled": 0, "fusion_lat": 0.0, "name": "6407a1bed6a6a3a7d5d22503db45b9ca", "fusion_lon": 0.0}, {"is_reserved": 0, "type": "electric_scooter", "bike_id": "01c2ab63d06be41c215d18b386480d5d", "lat": 38.907174499999996, "lon": -77.00751733333334, "rental_uris": {"android": "https://dc.lft.to/lastmile_qr_scan", "ios": "https://dc.lft.to/lastmile_qr_scan"}, "is_disabled": 0, "fusion_lat": 0.0, "name": "01c2ab63d06be41c215d18b386480d5d", "fusion_lon": 0.0}, {"is_reserved": 0, "type": "electric_scooter", "bike_id": "d40e9b46527e60ad3919f488af921dab", "lat": 38.8991925, "lon": -77.033844, "rental_uris": {"android": "https://dc.lft.to/lastmile_qr_scan", "ios": "https://dc.lft.to/lastmile_qr_scan"}, "is_disabled": 0, "fusion_lat": 0.0, "name": "d40e9b46527e60ad3919f488af921dab", "fusion_lon": 0.0}, {"is_reserved": 0, "type": "electric_scooter", "bike_id": "11dfa1d1b836488ed8b0d2cb9e3eb6f1", "lat": 38.935319, "lon": -77.0285025, "rental_uris": {"android": "https://dc.lft.to/lastmile_qr_scan", "ios": "https://dc.lft.to/lastmile_qr_scan"}, "is_disabled": 0, "fusion_lat": 0.0, "name": "11dfa1d1b836488ed8b0d2cb9e3eb6f1", "fusion_lon": 0.0}, {"is_reserved": 0, "type": "electric_scooter", "bike_id": "d40eae155bc28418b4de1eceebbde4ce", "lat": 38.923161, "lon": -77.04513366666667, "rental_uris": {"android": "https://dc.lft.to/lastmile_qr_scan", "ios": "https://dc.lft.to/lastmile_qr_scan"}, "is_disabled": 0, "fusion_lat": 0.0, "name": "d40eae155bc28418b4de1eceebbde4ce", "fusion_lon": 0.0}, {"is_reserved": 0, "type": "electric_scooter", "bike_id": "ff35e55b256a2fbc942e52b9eb92f6f9", "lat": 38.92149383333334, "lon": -77.03871666666667, "rental_uris": {"android": "https://dc.lft.to/lastmile_qr_scan", "ios": "https://dc.lft.to/lastmile_qr_scan"}, "is_disabled": 0, "fusion_lat": 0.0, "name": "ff35e55b256a2fbc942e52b9eb92f6f9", "fusion_lon": 0.0}, {"is_reserved": 0, "type": "electric_scooter", "bike_id": "8177e0026712b292bb0d58df3bdfb6d3", "lat": 38.905525, "lon": -77.00587966666667, "rental_uris": {"android": "https://dc.lft.to/lastmile_qr_scan", "ios": "https://dc.lft.to/lastmile_qr_scan"}, "is_disabled": 0, "fusion_lat": 0.0, "name": "8177e0026712b292bb0d58df3bdfb6d3", "fusion_lon": 0.0}, {"is_reserved": 0, "type": "electric_scooter", "bike_id": "5ada43227108796d51b0e492c7b97ca9", "lat": 38.89470766666667, "lon": -76.99565116666666, "rental_uris": {"android": "https://dc.lft.to/lastmile_qr_scan", "ios": "https://dc.lft.to/lastmile_qr_scan"}, "is_disabled": 0, "fusion_lat": 0.0, "name": "5ada43227108796d51b0e492c7b97ca9", "fusion_lon": 0.0}, {"is_reserved": 0, "type": "electric_bike", "bike_id": "84bab8668c48cfb3d0b905c9eeedbe76", "lat": 38.937581333333334, "lon": -77.03637183333333, "rental_uris": {"android": "https://dc.lft.to/lastmile_qr_scan", "ios": "https://dc.lft.to/lastmile_qr_scan"}, "is_disabled": 0, "fusion_lat": 0.0, "name": "84bab8668c48cfb3d0b905c9eeedbe76", "fusion_lon": 0.0}, {"is_reserved": 0, "type": "electric_scooter", "bike_id": "56c28d2b1de7f6d55bff25bb60681159", "lat": 38.904191, "lon": -77.02664066666667, "rental_uris": {"android": "https://dc.lft.to/lastmile_qr_scan", "ios": "https://dc.lft.to/lastmile_qr_scan"}, "is_disabled": 0, "fusion_lat": 0.0, "name": "56c28d2b1de7f6d55bff25bb60681159", "fusion_lon": 0.0}, {"is_reserved": 0, "type": "electric_scooter", "bike_id": "3cb608bd4f2c0192f7d93fa9599e8add", "lat": 38.9058215, "lon": -77.07280566666667, "rental_uris": {"android": "https://dc.lft.to/lastmile_qr_scan", "ios": "https://dc.lft.to/lastmile_qr_scan"}, "is_disabled": 0, "fusion_lat": 0.0, "name": "3cb608bd4f2c0192f7d93fa9599e8add", "fusion_lon": 0.0}, {"is_reserved": 0, "type": "electric_scooter", "bike_id": "0f6290f8ad61e90431b73abe8390d7cd", "lat": 38.898353666666665, "lon": -77.02834483333334, "rental_uris": {"android": "https://dc.lft.to/lastmile_qr_scan", "ios": "https://dc.lft.to/lastmile_qr_scan"}, "is_disabled": 0, "fusion_lat": 0.0, "name": "0f6290f8ad61e90431b73abe8390d7cd", "fusion_lon": 0.0}, {"is_reserved": 0, "type": "electric_scooter", "bike_id": "68c673fdacfaded04874496a42d425ac", "lat": 38.910065, "lon": -77.04014183333334, "rental_uris": {"android": "https://dc.lft.to/lastmile_qr_scan", "ios": "https://dc.lft.to/lastmile_qr_scan"}, "is_disabled": 0, "fusion_lat": 0.0, "name": "68c673fdacfaded04874496a42d425ac", "fusion_lon": 0.0}, {"is_reserved": 0, "type": "electric_scooter", "bike_id": "df1eff3ca6f9c93f38876985a530eb64", "lat": 38.90434, "lon": -77.027164, "rental_uris": {"android": "https://dc.lft.to/lastmile_qr_scan", "ios": "https://dc.lft.to/lastmile_qr_scan"}, "is_disabled": 0, "fusion_lat": 0.0, "name": "df1eff3ca6f9c93f38876985a530eb64", "fusion_lon": 0.0}, {"is_reserved": 0, "type": "electric_scooter", "bike_id": "769b8edf3c2c5fb4269d860be582d400", "lat": 38.8784145, "lon": -77.01966133333333, "rental_uris": {"android": "https://dc.lft.to/lastmile_qr_scan", "ios": "https://dc.lft.to/lastmile_qr_scan"}, "is_disabled": 0, "fusion_lat": 0.0, "name": "769b8edf3c2c5fb4269d860be582d400", "fusion_lon": 0.0}, {"is_reserved": 0, "type": "electric_scooter", "bike_id": "3dc7a33716e1e970b6c28af8149147a2", "lat": 38.897538833333336, "lon": -77.00201066666666, "rental_uris": {"android": "https://dc.lft.to/lastmile_qr_scan", "ios": "https://dc.lft.to/lastmile_qr_scan"}, "is_disabled": 0, "fusion_lat": 0.0, "name": "3dc7a33716e1e970b6c28af8149147a2", "fusion_lon": 0.0}, {"is_reserved": 0, "type": "electric_bike", "bike_id": "a0003d9ebf0fde134a8e4bde9c311863", "lat": 38.89913416666667, "lon": -76.93353183333333, "rental_uris": {"android": "https://dc.lft.to/lastmile_qr_scan", "ios": "https://dc.lft.to/lastmile_qr_scan"}, "is_disabled": 0, "fusion_lat": 0.0, "name": "a0003d9ebf0fde134a8e4bde9c311863", "fusion_lon": 0.0}, {"is_reserved": 0, "type": "electric_bike", "bike_id": "1560b48a1dfe2a4826a2c297f620e1b0", "lat": 38.807320833333335, "lon": -76.992566, "rental_uris": {"android": "https://dc.lft.to/lastmile_qr_scan", "ios": "https://dc.lft.to/lastmile_qr_scan"}, "is_disabled": 0, "fusion_lat": 0.0, "name": "1560b48a1dfe2a4826a2c297f620e1b0", "fusion_lon": 0.0}, {"is_reserved": 0, "type": "electric_scooter", "bike_id": "6e116328ef9f88ed675b8202820b3bfa", "lat": 38.899028, "lon": -77.0036135, "rental_uris": {"android": "https://dc.lft.to/lastmile_qr_scan", "ios": "https://dc.lft.to/lastmile_qr_scan"}, "is_disabled": 0, "fusion_lat": 0.0, "name": "6e116328ef9f88ed675b8202820b3bfa", "fusion_lon": 0.0}, {"is_reserved": 0, "type": "electric_scooter", "bike_id": "145f192f563afbf5299731c9ec3e1ae4", "lat": 38.92247883333334, "lon": -77.028827, "rental_uris": {"android": "https://dc.lft.to/lastmile_qr_scan", "ios": "https://dc.lft.to/lastmile_qr_scan"}, "is_disabled": 0, "fusion_lat": 0.0, "name": "145f192f563afbf5299731c9ec3e1ae4", "fusion_lon": 0.0}, {"is_reserved": 0, "type": "electric_scooter", "bike_id": "3f8dfb4dd596ff328f8c4f737026eabb", "lat": 38.921089, "lon": -77.02196616666667, "rental_uris": {"android": "https://dc.lft.to/lastmile_qr_scan", "ios": "https://dc.lft.to/lastmile_qr_scan"}, "is_disabled": 0, "fusion_lat": 0.0, "name": "3f8dfb4dd596ff328f8c4f737026eabb", "fusion_lon": 0.0}, {"is_reserved": 0, "type": "electric_scooter", "bike_id": "627c0c1006333b837bf23b1490d7248b", "lat": 38.901556666666664, "lon": -77.02830083333333, "rental_uris": {"android": "https://dc.lft.to/lastmile_qr_scan", "ios": "https://dc.lft.to/lastmile_qr_scan"}, "is_disabled": 0, "fusion_lat": 0.0, "name": "627c0c1006333b837bf23b1490d7248b", "fusion_lon": 0.0}, {"is_reserved": 0, "type": "electric_scooter", "bike_id": "dd780f50666ed679884909df71eae6f1", "lat": 38.90544583333333, "lon": -77.05702483333333, "rental_uris": {"android": "https://dc.lft.to/lastmile_qr_scan", "ios": "https://dc.lft.to/lastmile_qr_scan"}, "is_disabled": 0, "fusion_lat": 0.0, "name": "dd780f50666ed679884909df71eae6f1", "fusion_lon": 0.0}, {"is_reserved": 0, "type": "electric_scooter", "bike_id": "dfdaf13fb2b383f792a63a33881ccde6", "lat": 38.872142333333336, "lon": -77.01550216666666, "rental_uris": {"android": "https://dc.lft.to/lastmile_qr_scan", "ios": "https://dc.lft.to/lastmile_qr_scan"}, "is_disabled": 0, "fusion_lat": 0.0, "name": "dfdaf13fb2b383f792a63a33881ccde6", "fusion_lon": 0.0}, {"is_reserved": 0, "type": "electric_scooter", "bike_id": "008eae9595c17c4ce7dc9b4a801f81a4", "lat": 38.897143, "lon": -77.053598, "rental_uris": {"android": "https://dc.lft.to/lastmile_qr_scan", "ios": "https://dc.lft.to/lastmile_qr_scan"}, "is_disabled": 0, "fusion_lat": 0.0, "name": "008eae9595c17c4ce7dc9b4a801f81a4", "fusion_lon": 0.0}, {"is_reserved": 0, "type": "electric_scooter", "bike_id": "2ef354a62850d4f1394e09ad9dd15ff8", "lat": 38.91638233333333, "lon": -77.04817566666667, "rental_uris": {"android": "https://dc.lft.to/lastmile_qr_scan", "ios": "https://dc.lft.to/lastmile_qr_scan"}, "is_disabled": 0, "fusion_lat": 0.0, "name": "2ef354a62850d4f1394e09ad9dd15ff8", "fusion_lon": 0.0}, {"is_reserved": 0, "type": "electric_scooter", "bike_id": "fe7962c98652a8e09d856ffaee917f50", "lat": 38.9017925, "lon": -76.92898716666667, "rental_uris": {"android": "https://dc.lft.to/lastmile_qr_scan", "ios": "https://dc.lft.to/lastmile_qr_scan"}, "is_disabled": 0, "fusion_lat": 0.0, "name": "fe7962c98652a8e09d856ffaee917f50", "fusion_lon": 0.0}, {"is_reserved": 0, "type": "electric_scooter", "bike_id": "d655dbd083c2502589649e55da31d296", "lat": 38.8922005, "lon": -77.02219116666667, "rental_uris": {"android": "https://dc.lft.to/lastmile_qr_scan", "ios": "https://dc.lft.to/lastmile_qr_scan"}, "is_disabled": 0, "fusion_lat": 0.0, "name": "d655dbd083c2502589649e55da31d296", "fusion_lon": 0.0}, {"is_reserved": 0, "type": "electric_scooter", "bike_id": "8668ab14f6c08c52b8cc24531c29dc28", "lat": 38.911223166666666, "lon": -77.04504166666666, "rental_uris": {"android": "https://dc.lft.to/lastmile_qr_scan", "ios": "https://dc.lft.to/lastmile_qr_scan"}, "is_disabled": 0, "fusion_lat": 0.0, "name": "8668ab14f6c08c52b8cc24531c29dc28", "fusion_lon": 0.0}, {"is_reserved": 0, "type": "electric_scooter", "bike_id": "821bf35d75d7fabe8b3829f0ef9a590a", "lat": 38.89603983333333, "lon": -77.04687433333334, "rental_uris": {"android": "https://dc.lft.to/lastmile_qr_scan", "ios": "https://dc.lft.to/lastmile_qr_scan"}, "is_disabled": 0, "fusion_lat": 0.0, "name": "821bf35d75d7fabe8b3829f0ef9a590a", "fusion_lon": 0.0}, {"is_reserved": 0, "type": "electric_scooter", "bike_id": "036c2575301b416463058159d98ffbf3", "lat": 38.92576316666667, "lon": -76.99496116666667, "rental_uris": {"android": "https://dc.lft.to/lastmile_qr_scan", "ios": "https://dc.lft.to/lastmile_qr_scan"}, "is_disabled": 0, "fusion_lat": 0.0, "name": "036c2575301b416463058159d98ffbf3", "fusion_lon": 0.0}, {"is_reserved": 0, "type": "electric_scooter", "bike_id": "697265ee98401964e2511c8378fbae07", "lat": 38.89752166666667, "lon": -77.00196966666667, "rental_uris": {"android": "https://dc.lft.to/lastmile_qr_scan", "ios": "https://dc.lft.to/lastmile_qr_scan"}, "is_disabled": 0, "fusion_lat": 0.0, "name": "697265ee98401964e2511c8378fbae07", "fusion_lon": 0.0}, {"is_reserved": 0, "type": "electric_scooter", "bike_id": "75e496d2d6bd27eb64f5c5727a5d2c87", "lat": 38.9244945, "lon": -77.04033566666666, "rental_uris": {"android": "https://dc.lft.to/lastmile_qr_scan", "ios": "https://dc.lft.to/lastmile_qr_scan"}, "is_disabled": 0, "fusion_lat": 0.0, "name": "75e496d2d6bd27eb64f5c5727a5d2c87", "fusion_lon": 0.0}, {"is_reserved": 0, "type": "electric_scooter", "bike_id": "de6f6127c5695c758fff9d469aba1e79", "lat": 38.899236333333334, "lon": -76.97837566666666, "rental_uris": {"android": "https://dc.lft.to/lastmile_qr_scan", "ios": "https://dc.lft.to/lastmile_qr_scan"}, "is_disabled": 0, "fusion_lat": 0.0, "name": "de6f6127c5695c758fff9d469aba1e79", "fusion_lon": 0.0}, {"is_reserved": 0, "type": "electric_scooter", "bike_id": "22e88eb4848ae60e8fff013465e5fa26", "lat": 38.897343666666664, "lon": -77.04420233333333, "rental_uris": {"android": "https://dc.lft.to/lastmile_qr_scan", "ios": "https://dc.lft.to/lastmile_qr_scan"}, "is_disabled": 0, "fusion_lat": 0.0, "name": "22e88eb4848ae60e8fff013465e5fa26", "fusion_lon": 0.0}, {"is_reserved": 0, "type": "electric_scooter", "bike_id": "2c403012861bb7f33cfe17bd31557f71", "lat": 38.915802666666664, "lon": -77.01235366666667, "rental_uris": {"android": "https://dc.lft.to/lastmile_qr_scan", "ios": "https://dc.lft.to/lastmile_qr_scan"}, "is_disabled": 0, "fusion_lat": 0.0, "name": "2c403012861bb7f33cfe17bd31557f71", "fusion_lon": 0.0}, {"is_reserved": 0, "type": "electric_scooter", "bike_id": "854c2173c720d9abc22f008b8198ee3f", "lat": 38.90540433333334, "lon": -77.05700066666667, "rental_uris": {"android": "https://dc.lft.to/lastmile_qr_scan", "ios": "https://dc.lft.to/lastmile_qr_scan"}, "is_disabled": 0, "fusion_lat": 0.0, "name": "854c2173c720d9abc22f008b8198ee3f", "fusion_lon": 0.0}, {"is_reserved": 0, "type": "electric_scooter", "bike_id": "9d68a2ec0cd54150fe9a61fb964899b8", "lat": 38.9073995, "lon": -77.03476216666667, "rental_uris": {"android": "https://dc.lft.to/lastmile_qr_scan", "ios": "https://dc.lft.to/lastmile_qr_scan"}, "is_disabled": 0, "fusion_lat": 0.0, "name": "9d68a2ec0cd54150fe9a61fb964899b8", "fusion_lon": 0.0}, {"is_reserved": 0, "type": "electric_scooter", "bike_id": "c9dfa36094b9834f9f2b5f3a22560135", "lat": 38.90035866666667, "lon": -76.99159483333334, "rental_uris": {"android": "https://dc.lft.to/lastmile_qr_scan", "ios": "https://dc.lft.to/lastmile_qr_scan"}, "is_disabled": 0, "fusion_lat": 0.0, "name": "c9dfa36094b9834f9f2b5f3a22560135", "fusion_lon": 0.0}, {"is_reserved": 0, "type": "electric_bike", "bike_id": "45b7a4fa1c820fcc8891deed24202338", "lat": 38.99933766666667, "lon": -77.05134083333333, "rental_uris": {"android": "https://dc.lft.to/lastmile_qr_scan", "ios": "https://dc.lft.to/lastmile_qr_scan"}, "is_disabled": 0, "fusion_lat": 0.0, "name": "45b7a4fa1c820fcc8891deed24202338", "fusion_lon": 0.0}, {"is_reserved": 0, "type": "electric_scooter", "bike_id": "3880a1cbeb00639496293b396dad7ffa", "lat": 38.923454166666666, "lon": -77.01904516666667, "rental_uris": {"android": "https://dc.lft.to/lastmile_qr_scan", "ios": "https://dc.lft.to/lastmile_qr_scan"}, "is_disabled": 0, "fusion_lat": 0.0, "name": "3880a1cbeb00639496293b396dad7ffa", "fusion_lon": 0.0}, {"is_reserved": 0, "type": "electric_scooter", "bike_id": "e8e890b98bf70b10668ef30d57a77e97", "lat": 38.89838916666667, "lon": -77.01297216666667, "rental_uris": {"android": "https://dc.lft.to/lastmile_qr_scan", "ios": "https://dc.lft.to/lastmile_qr_scan"}, "is_disabled": 0, "fusion_lat": 0.0, "name": "e8e890b98bf70b10668ef30d57a77e97", "fusion_lon": 0.0}, {"is_reserved": 0, "type": "electric_scooter", "bike_id": "9e7674396b896776c142ee46f3db83dc", "lat": 38.906259166666665, "lon": -77.0314745, "rental_uris": {"android": "https://dc.lft.to/lastmile_qr_scan", "ios": "https://dc.lft.to/lastmile_qr_scan"}, "is_disabled": 0, "fusion_lat": 0.0, "name": "9e7674396b896776c142ee46f3db83dc", "fusion_lon": 0.0}, {"is_reserved": 0, "type": "electric_scooter", "bike_id": "b7a6d4633f71566e645b46fe0e79c1df", "lat": 38.9189335, "lon": -77.03454066666667, "rental_uris": {"android": "https://dc.lft.to/lastmile_qr_scan", "ios": "https://dc.lft.to/lastmile_qr_scan"}, "is_disabled": 0, "fusion_lat": 0.0, "name": "b7a6d4633f71566e645b46fe0e79c1df", "fusion_lon": 0.0}, {"is_reserved": 0, "type": "electric_scooter", "bike_id": "94e8b2e8f897aa9f609658f0f5a31e22", "lat": 38.87473133333334, "lon": -77.003452, "rental_uris": {"android": "https://dc.lft.to/lastmile_qr_scan", "ios": "https://dc.lft.to/lastmile_qr_scan"}, "is_disabled": 0, "fusion_lat": 0.0, "name": "94e8b2e8f897aa9f609658f0f5a31e22", "fusion_lon": 0.0}, {"is_reserved": 0, "type": "electric_scooter", "bike_id": "737f073ace5516bb5a7f74131e2ac9a4", "lat": 38.911089833333335, "lon": -77.04976633333334, "rental_uris": {"android": "https://dc.lft.to/lastmile_qr_scan", "ios": "https://dc.lft.to/lastmile_qr_scan"}, "is_disabled": 0, "fusion_lat": 0.0, "name": "737f073ace5516bb5a7f74131e2ac9a4", "fusion_lon": 0.0}, {"is_reserved": 0, "type": "electric_scooter", "bike_id": "19dc910e8a4cf01e05ec8ac3639975e3", "lat": 38.892228833333334, "lon": -77.04367916666666, "rental_uris": {"android": "https://dc.lft.to/lastmile_qr_scan", "ios": "https://dc.lft.to/lastmile_qr_scan"}, "is_disabled": 0, "fusion_lat": 0.0, "name": "19dc910e8a4cf01e05ec8ac3639975e3", "fusion_lon": 0.0}, {"is_reserved": 0, "type": "electric_bike", "bike_id": "ccfe77647cbd82e1735ffaa957971c13", "lat": 38.97263483333333, "lon": -77.14973716666667, "rental_uris": {"android": "https://dc.lft.to/lastmile_qr_scan", "ios": "https://dc.lft.to/lastmile_qr_scan"}, "is_disabled": 0, "fusion_lat": 0.0, "name": "ccfe77647cbd82e1735ffaa957971c13", "fusion_lon": 0.0}, {"is_reserved": 0, "type": "electric_scooter", "bike_id": "92c859e32122ac2fe905b9316e74de4e", "lat": 38.8989095, "lon": -77.01618116666667, "rental_uris": {"android": "https://dc.lft.to/lastmile_qr_scan", "ios": "https://dc.lft.to/lastmile_qr_scan"}, "is_disabled": 0, "fusion_lat": 0.0, "name": "92c859e32122ac2fe905b9316e74de4e", "fusion_lon": 0.0}, {"is_reserved": 0, "type": "electric_scooter", "bike_id": "46908c74925573388b40f0ee3672f515", "lat": 38.9258745, "lon": -77.04106933333334, "rental_uris": {"android": "https://dc.lft.to/lastmile_qr_scan", "ios": "https://dc.lft.to/lastmile_qr_scan"}, "is_disabled": 0, "fusion_lat": 0.0, "name": "46908c74925573388b40f0ee3672f515", "fusion_lon": 0.0}, {"is_reserved": 0, "type": "electric_scooter", "bike_id": "4138640092aca1b65d6cab5521f0103a", "lat": 38.918881666666664, "lon": -77.034908, "rental_uris": {"android": "https://dc.lft.to/lastmile_qr_scan", "ios": "https://dc.lft.to/lastmile_qr_scan"}, "is_disabled": 0, "fusion_lat": 0.0, "name": "4138640092aca1b65d6cab5521f0103a", "fusion_lon": 0.0}, {"is_reserved": 0, "type": "electric_scooter", "bike_id": "b1175608c32bc0518d076b95c533582a", "lat": 38.911230333333336, "lon": -77.02095383333334, "rental_uris": {"android": "https://dc.lft.to/lastmile_qr_scan", "ios": "https://dc.lft.to/lastmile_qr_scan"}, "is_disabled": 0, "fusion_lat": 0.0, "name": "b1175608c32bc0518d076b95c533582a", "fusion_lon": 0.0}, {"is_reserved": 0, "type": "electric_scooter", "bike_id": "44e685faeaa65c575f87c95091058a20", "lat": 38.93478483333333, "lon": -77.05656316666666, "rental_uris": {"android": "https://dc.lft.to/lastmile_qr_scan", "ios": "https://dc.lft.to/lastmile_qr_scan"}, "is_disabled": 0, "fusion_lat": 0.0, "name": "44e685faeaa65c575f87c95091058a20", "fusion_lon": 0.0}, {"is_reserved": 0, "type": "electric_scooter", "bike_id": "80742db4991bb212562b8a7725705b24", "lat": 38.899035833333336, "lon": -77.00356383333333, "rental_uris": {"android": "https://dc.lft.to/lastmile_qr_scan", "ios": "https://dc.lft.to/lastmile_qr_scan"}, "is_disabled": 0, "fusion_lat": 0.0, "name": "80742db4991bb212562b8a7725705b24", "fusion_lon": 0.0}, {"is_reserved": 0, "type": "electric_scooter", "bike_id": "212b71dbf1c2f1c64a7344c309186304", "lat": 38.92639116666667, "lon": -77.05318366666667, "rental_uris": {"android": "https://dc.lft.to/lastmile_qr_scan", "ios": "https://dc.lft.to/lastmile_qr_scan"}, "is_disabled": 0, "fusion_lat": 0.0, "name": "212b71dbf1c2f1c64a7344c309186304", "fusion_lon": 0.0}, {"is_reserved": 0, "type": "electric_scooter", "bike_id": "1f6eab29990a1e07c9d97936e5795455", "lat": 38.934065, "lon": -77.0203765, "rental_uris": {"android": "https://dc.lft.to/lastmile_qr_scan", "ios": "https://dc.lft.to/lastmile_qr_scan"}, "is_disabled": 0, "fusion_lat": 0.0, "name": "1f6eab29990a1e07c9d97936e5795455", "fusion_lon": 0.0}, {"is_reserved": 0, "type": "electric_scooter", "bike_id": "d075874d8af999ca362181fa59720f72", "lat": 38.92565333333334, "lon": -76.9700805, "rental_uris": {"android": "https://dc.lft.to/lastmile_qr_scan", "ios": "https://dc.lft.to/lastmile_qr_scan"}, "is_disabled": 0, "fusion_lat": 0.0, "name": "d075874d8af999ca362181fa59720f72", "fusion_lon": 0.0}, {"is_reserved": 0, "type": "electric_scooter", "bike_id": "20f1d14000b96c7f47530fcf91c46c52", "lat": 38.9003745, "lon": -76.99163083333333, "rental_uris": {"android": "https://dc.lft.to/lastmile_qr_scan", "ios": "https://dc.lft.to/lastmile_qr_scan"}, "is_disabled": 0, "fusion_lat": 0.0, "name": "20f1d14000b96c7f47530fcf91c46c52", "fusion_lon": 0.0}, {"is_reserved": 0, "type": "electric_scooter", "bike_id": "3187437b920e0875c9451bea6e28fa67", "lat": 38.89221916666666, "lon": -77.02315133333333, "rental_uris": {"android": "https://dc.lft.to/lastmile_qr_scan", "ios": "https://dc.lft.to/lastmile_qr_scan"}, "is_disabled": 0, "fusion_lat": 0.0, "name": "3187437b920e0875c9451bea6e28fa67", "fusion_lon": 0.0}, {"is_reserved": 0, "type": "electric_scooter", "bike_id": "fe7744c943da2b1fc21922340dd839ad", "lat": 38.93092266666667, "lon": -77.03443266666666, "rental_uris": {"android": "https://dc.lft.to/lastmile_qr_scan", "ios": "https://dc.lft.to/lastmile_qr_scan"}, "is_disabled": 0, "fusion_lat": 0.0, "name": "fe7744c943da2b1fc21922340dd839ad", "fusion_lon": 0.0}, {"is_reserved": 0, "type": "electric_bike", "bike_id": "30a00ad16841fec93d4b3dbb50ed1c47", "lat": 38.951349666666665, "lon": -76.96599116666667, "rental_uris": {"android": "https://dc.lft.to/lastmile_qr_scan", "ios": "https://dc.lft.to/lastmile_qr_scan"}, "is_disabled": 0, "fusion_lat": 0.0, "name": "30a00ad16841fec93d4b3dbb50ed1c47", "fusion_lon": 0.0}, {"is_reserved": 0, "type": "electric_scooter", "bike_id": "02f4a584278550f6646a44ea2f25c69d", "lat": 38.899154833333334, "lon": -77.0321395, "rental_uris": {"android": "https://dc.lft.to/lastmile_qr_scan", "ios": "https://dc.lft.to/lastmile_qr_scan"}, "is_disabled": 0, "fusion_lat": 0.0, "name": "02f4a584278550f6646a44ea2f25c69d", "fusion_lon": 0.0}, {"is_reserved": 0, "type": "electric_scooter", "bike_id": "a1a00be45f995b33c8c8ea909a9cc4e2", "lat": 38.893625, "lon": -76.94109116666667, "rental_uris": {"android": "https://dc.lft.to/lastmile_qr_scan", "ios": "https://dc.lft.to/lastmile_qr_scan"}, "is_disabled": 0, "fusion_lat": 0.0, "name": "a1a00be45f995b33c8c8ea909a9cc4e2", "fusion_lon": 0.0}, {"is_reserved": 0, "type": "electric_scooter", "bike_id": "435de740a992f1b37eb0b6e79974caf4", "lat": 38.922476, "lon": -76.997491, "rental_uris": {"android": "https://dc.lft.to/lastmile_qr_scan", "ios": "https://dc.lft.to/lastmile_qr_scan"}, "is_disabled": 0, "fusion_lat": 0.0, "name": "435de740a992f1b37eb0b6e79974caf4", "fusion_lon": 0.0}, {"is_reserved": 0, "type": "electric_scooter", "bike_id": "6ff7eccab52907efa90c2f9e0df92a2b", "lat": 38.92969433333333, "lon": -77.02346283333334, "rental_uris": {"android": "https://dc.lft.to/lastmile_qr_scan", "ios": "https://dc.lft.to/lastmile_qr_scan"}, "is_disabled": 0, "fusion_lat": 0.0, "name": "6ff7eccab52907efa90c2f9e0df92a2b", "fusion_lon": 0.0}, {"is_reserved": 0, "type": "electric_scooter", "bike_id": "a1796097ded41341c2b0e8b462ab1db5", "lat": 38.94728, "lon": -77.024641, "rental_uris": {"android": "https://dc.lft.to/lastmile_qr_scan", "ios": "https://dc.lft.to/lastmile_qr_scan"}, "is_disabled": 0, "fusion_lat": 0.0, "name": "a1796097ded41341c2b0e8b462ab1db5", "fusion_lon": 0.0}, {"is_reserved": 0, "type": "electric_scooter", "bike_id": "b6459d601aadc3bb7f360163f6461840", "lat": 38.933749166666665, "lon": -77.05732666666667, "rental_uris": {"android": "https://dc.lft.to/lastmile_qr_scan", "ios": "https://dc.lft.to/lastmile_qr_scan"}, "is_disabled": 0, "fusion_lat": 0.0, "name": "b6459d601aadc3bb7f360163f6461840", "fusion_lon": 0.0}, {"is_reserved": 0, "type": "electric_scooter", "bike_id": "45b94d4fb87e905c5603b416232f5c16", "lat": 38.92240283333334, "lon": -77.0212545, "rental_uris": {"android": "https://dc.lft.to/lastmile_qr_scan", "ios": "https://dc.lft.to/lastmile_qr_scan"}, "is_disabled": 0, "fusion_lat": 0.0, "name": "45b94d4fb87e905c5603b416232f5c16", "fusion_lon": 0.0}, {"is_reserved": 0, "type": "electric_scooter", "bike_id": "d017aff8dedc195f1de65671089cbb5c", "lat": 38.91176933333333, "lon": -77.00496366666667, "rental_uris": {"android": "https://dc.lft.to/lastmile_qr_scan", "ios": "https://dc.lft.to/lastmile_qr_scan"}, "is_disabled": 0, "fusion_lat": 0.0, "name": "d017aff8dedc195f1de65671089cbb5c", "fusion_lon": 0.0}, {"is_reserved": 0, "type": "electric_scooter", "bike_id": "3a9df3816ebb5853253979dae185569c", "lat": 38.923333, "lon": -77.03620416666666, "rental_uris": {"android": "https://dc.lft.to/lastmile_qr_scan", "ios": "https://dc.lft.to/lastmile_qr_scan"}, "is_disabled": 0, "fusion_lat": 0.0, "name": "3a9df3816ebb5853253979dae185569c", "fusion_lon": 0.0}, {"is_reserved": 0, "type": "electric_scooter", "bike_id": "4b40473e525a45f1129d383494f09ba5", "lat": 38.89981133333333, "lon": -77.02282183333334, "rental_uris": {"android": "https://dc.lft.to/lastmile_qr_scan", "ios": "https://dc.lft.to/lastmile_qr_scan"}, "is_disabled": 0, "fusion_lat": 0.0, "name": "4b40473e525a45f1129d383494f09ba5", "fusion_lon": 0.0}, {"is_reserved": 0, "type": "electric_scooter", "bike_id": "1de448d5fd42d2bfd4f9cd8df261bb17", "lat": 38.923554333333335, "lon": -76.9909175, "rental_uris": {"android": "https://dc.lft.to/lastmile_qr_scan", "ios": "https://dc.lft.to/lastmile_qr_scan"}, "is_disabled": 0, "fusion_lat": 0.0, "name": "1de448d5fd42d2bfd4f9cd8df261bb17", "fusion_lon": 0.0}, {"is_reserved": 0, "type": "electric_scooter", "bike_id": "306df492f01d670d0844e65efea7d319", "lat": 38.91331783333333, "lon": -77.048074, "rental_uris": {"android": "https://dc.lft.to/lastmile_qr_scan", "ios": "https://dc.lft.to/lastmile_qr_scan"}, "is_disabled": 0, "fusion_lat": 0.0, "name": "306df492f01d670d0844e65efea7d319", "fusion_lon": 0.0}, {"is_reserved": 0, "type": "electric_scooter", "bike_id": "b8b44082cd95b6aa9c827c29c47d32ce", "lat": 38.9023085, "lon": -77.05335366666667, "rental_uris": {"android": "https://dc.lft.to/lastmile_qr_scan", "ios": "https://dc.lft.to/lastmile_qr_scan"}, "is_disabled": 0, "fusion_lat": 0.0, "name": "b8b44082cd95b6aa9c827c29c47d32ce", "fusion_lon": 0.0}, {"is_reserved": 0, "type": "electric_bike", "bike_id": "f3a91022fb46b6bc88f0ae50a33eccea", "lat": 38.887867, "lon": -76.9234515, "rental_uris": {"android": "https://dc.lft.to/lastmile_qr_scan", "ios": "https://dc.lft.to/lastmile_qr_scan"}, "is_disabled": 0, "fusion_lat": 0.0, "name": "f3a91022fb46b6bc88f0ae50a33eccea", "fusion_lon": 0.0}, {"is_reserved": 0, "type": "electric_scooter", "bike_id": "c2fbdb322276cfcf543c5a0e1519fa33", "lat": 38.918068166666664, "lon": -77.04030433333334, "rental_uris": {"android": "https://dc.lft.to/lastmile_qr_scan", "ios": "https://dc.lft.to/lastmile_qr_scan"}, "is_disabled": 0, "fusion_lat": 0.0, "name": "c2fbdb322276cfcf543c5a0e1519fa33", "fusion_lon": 0.0}, {"is_reserved": 0, "type": "electric_scooter", "bike_id": "f8c01dcdfe237bc1180790943331e51f", "lat": 38.8924685, "lon": -77.03957166666666, "rental_uris": {"android": "https://dc.lft.to/lastmile_qr_scan", "ios": "https://dc.lft.to/lastmile_qr_scan"}, "is_disabled": 0, "fusion_lat": 0.0, "name": "f8c01dcdfe237bc1180790943331e51f", "fusion_lon": 0.0}, {"is_reserved": 0, "type": "electric_scooter", "bike_id": "3c978d4d0a1e87cff25f3c7a9fd91e0b", "lat": 38.91623516666667, "lon": -77.00202116666667, "rental_uris": {"android": "https://dc.lft.to/lastmile_qr_scan", "ios": "https://dc.lft.to/lastmile_qr_scan"}, "is_disabled": 0, "fusion_lat": 0.0, "name": "3c978d4d0a1e87cff25f3c7a9fd91e0b", "fusion_lon": 0.0}, {"is_reserved": 0, "type": "electric_scooter", "bike_id": "6bb206423e22892e78feb4b105fe9da1", "lat": 38.898755333333334, "lon": -77.039758, "rental_uris": {"android": "https://dc.lft.to/lastmile_qr_scan", "ios": "https://dc.lft.to/lastmile_qr_scan"}, "is_disabled": 0, "fusion_lat": 0.0, "name": "6bb206423e22892e78feb4b105fe9da1", "fusion_lon": 0.0}, {"is_reserved": 0, "type": "electric_scooter", "bike_id": "720f5f085e396472ae845adbddebaea0", "lat": 38.920708833333336, "lon": -77.02508233333333, "rental_uris": {"android": "https://dc.lft.to/lastmile_qr_scan", "ios": "https://dc.lft.to/lastmile_qr_scan"}, "is_disabled": 0, "fusion_lat": 0.0, "name": "720f5f085e396472ae845adbddebaea0", "fusion_lon": 0.0}, {"is_reserved": 0, "type": "electric_scooter", "bike_id": "2c351420c6a658cab553b8e4fccdd29b", "lat": 38.8991085, "lon": -77.00354133333333, "rental_uris": {"android": "https://dc.lft.to/lastmile_qr_scan", "ios": "https://dc.lft.to/lastmile_qr_scan"}, "is_disabled": 0, "fusion_lat": 0.0, "name": "2c351420c6a658cab553b8e4fccdd29b", "fusion_lon": 0.0}, {"is_reserved": 0, "type": "electric_scooter", "bike_id": "c03fd6f9c8e3f82706fa3a8a53bf5e98", "lat": 38.914925833333335, "lon": -77.01227816666666, "rental_uris": {"android": "https://dc.lft.to/lastmile_qr_scan", "ios": "https://dc.lft.to/lastmile_qr_scan"}, "is_disabled": 0, "fusion_lat": 0.0, "name": "c03fd6f9c8e3f82706fa3a8a53bf5e98", "fusion_lon": 0.0}, {"is_reserved": 0, "type": "electric_scooter", "bike_id": "cf0db583be276a1214014f682dbfa126", "lat": 38.920367, "lon": -77.04182666666667, "rental_uris": {"android": "https://dc.lft.to/lastmile_qr_scan", "ios": "https://dc.lft.to/lastmile_qr_scan"}, "is_disabled": 0, "fusion_lat": 0.0, "name": "cf0db583be276a1214014f682dbfa126", "fusion_lon": 0.0}, {"is_reserved": 0, "type": "electric_scooter", "bike_id": "ad0b1e4637fbd567fafcfb9bce57ac99", "lat": 38.92627483333333, "lon": -77.07714083333333, "rental_uris": {"android": "https://dc.lft.to/lastmile_qr_scan", "ios": "https://dc.lft.to/lastmile_qr_scan"}, "is_disabled": 0, "fusion_lat": 0.0, "name": "ad0b1e4637fbd567fafcfb9bce57ac99", "fusion_lon": 0.0}, {"is_reserved": 0, "type": "electric_scooter", "bike_id": "079b3edb67478f89e347d7c9f4517684", "lat": 38.926368833333335, "lon": -77.042517, "rental_uris": {"android": "https://dc.lft.to/lastmile_qr_scan", "ios": "https://dc.lft.to/lastmile_qr_scan"}, "is_disabled": 0, "fusion_lat": 0.0, "name": "079b3edb67478f89e347d7c9f4517684", "fusion_lon": 0.0}, {"is_reserved": 0, "type": "electric_scooter", "bike_id": "c9d2eaabe21c72268ef5c6decb7dcb3d", "lat": 38.9118745, "lon": -77.03761966666667, "rental_uris": {"android": "https://dc.lft.to/lastmile_qr_scan", "ios": "https://dc.lft.to/lastmile_qr_scan"}, "is_disabled": 0, "fusion_lat": 0.0, "name": "c9d2eaabe21c72268ef5c6decb7dcb3d", "fusion_lon": 0.0}, {"is_reserved": 0, "type": "electric_scooter", "bike_id": "44847954d0bf19150018b990928743f7", "lat": 38.930452, "lon": -77.05539733333333, "rental_uris": {"android": "https://dc.lft.to/lastmile_qr_scan", "ios": "https://dc.lft.to/lastmile_qr_scan"}, "is_disabled": 0, "fusion_lat": 0.0, "name": "44847954d0bf19150018b990928743f7", "fusion_lon": 0.0}, {"is_reserved": 0, "type": "electric_scooter", "bike_id": "c61fe9e124510e48af45ed4b5537b6e9", "lat": 38.902404, "lon": -77.03480316666666, "rental_uris": {"android": "https://dc.lft.to/lastmile_qr_scan", "ios": "https://dc.lft.to/lastmile_qr_scan"}, "is_disabled": 0, "fusion_lat": 0.0, "name": "c61fe9e124510e48af45ed4b5537b6e9", "fusion_lon": 0.0}, {"is_reserved": 0, "type": "electric_scooter", "bike_id": "1ba616b0b43812e63a390a1c01da8f95", "lat": 38.921064666666666, "lon": -77.0469965, "rental_uris": {"android": "https://dc.lft.to/lastmile_qr_scan", "ios": "https://dc.lft.to/lastmile_qr_scan"}, "is_disabled": 0, "fusion_lat": 0.0, "name": "1ba616b0b43812e63a390a1c01da8f95", "fusion_lon": 0.0}, {"is_reserved": 0, "type": "electric_scooter", "bike_id": "26af26efc57214e91f7378d85bff80b0", "lat": 38.943297666666666, "lon": -77.012622, "rental_uris": {"android": "https://dc.lft.to/lastmile_qr_scan", "ios": "https://dc.lft.to/lastmile_qr_scan"}, "is_disabled": 0, "fusion_lat": 0.0, "name": "26af26efc57214e91f7378d85bff80b0", "fusion_lon": 0.0}, {"is_reserved": 0, "type": "electric_scooter", "bike_id": "802b2b82e1e8fcd0598e5f2e74433ffd", "lat": 38.9090645, "lon": -76.9961875, "rental_uris": {"android": "https://dc.lft.to/lastmile_qr_scan", "ios": "https://dc.lft.to/lastmile_qr_scan"}, "is_disabled": 0, "fusion_lat": 0.0, "name": "802b2b82e1e8fcd0598e5f2e74433ffd", "fusion_lon": 0.0}, {"is_reserved": 0, "type": "electric_scooter", "bike_id": "dbe654082ddedd212ab00259c9c42a6a", "lat": 38.8953445, "lon": -76.97899083333333, "rental_uris": {"android": "https://dc.lft.to/lastmile_qr_scan", "ios": "https://dc.lft.to/lastmile_qr_scan"}, "is_disabled": 0, "fusion_lat": 0.0, "name": "dbe654082ddedd212ab00259c9c42a6a", "fusion_lon": 0.0}, {"is_reserved": 0, "type": "electric_scooter", "bike_id": "f1a0e3a563d854df12eb4927db5be273", "lat": 38.8837545, "lon": -77.0194035, "rental_uris": {"android": "https://dc.lft.to/lastmile_qr_scan", "ios": "https://dc.lft.to/lastmile_qr_scan"}, "is_disabled": 0, "fusion_lat": 0.0, "name": "f1a0e3a563d854df12eb4927db5be273", "fusion_lon": 0.0}, {"is_reserved": 0, "type": "electric_scooter", "bike_id": "9adc6badbe6baa948225aad205c92ec1", "lat": 38.92425016666667, "lon": -77.03428183333334, "rental_uris": {"android": "https://dc.lft.to/lastmile_qr_scan", "ios": "https://dc.lft.to/lastmile_qr_scan"}, "is_disabled": 0, "fusion_lat": 0.0, "name": "9adc6badbe6baa948225aad205c92ec1", "fusion_lon": 0.0}, {"is_reserved": 0, "type": "electric_scooter", "bike_id": "9966a4974801e1c4ad537a571ef81cfd", "lat": 38.92920783333334, "lon": -77.02009533333333, "rental_uris": {"android": "https://dc.lft.to/lastmile_qr_scan", "ios": "https://dc.lft.to/lastmile_qr_scan"}, "is_disabled": 0, "fusion_lat": 0.0, "name": "9966a4974801e1c4ad537a571ef81cfd", "fusion_lon": 0.0}, {"is_reserved": 0, "type": "electric_scooter", "bike_id": "fc7143960e55eeef541eb246ce56c667", "lat": 38.91411033333333, "lon": -77.01882133333334, "rental_uris": {"android": "https://dc.lft.to/lastmile_qr_scan", "ios": "https://dc.lft.to/lastmile_qr_scan"}, "is_disabled": 0, "fusion_lat": 0.0, "name": "fc7143960e55eeef541eb246ce56c667", "fusion_lon": 0.0}, {"is_reserved": 0, "type": "electric_bike", "bike_id": "0a3ac168c2eb08d431e459c61d86cb53", "lat": 38.98178266666667, "lon": -76.9821075, "rental_uris": {"android": "https://dc.lft.to/lastmile_qr_scan", "ios": "https://dc.lft.to/lastmile_qr_scan"}, "is_disabled": 0, "fusion_lat": 0.0, "name": "0a3ac168c2eb08d431e459c61d86cb53", "fusion_lon": 0.0}, {"is_reserved": 0, "type": "electric_scooter", "bike_id": "c8b0944054b3b8ba483c63db77d30bf7", "lat": 38.93107283333333, "lon": -77.03021583333333, "rental_uris": {"android": "https://dc.lft.to/lastmile_qr_scan", "ios": "https://dc.lft.to/lastmile_qr_scan"}, "is_disabled": 0, "fusion_lat": 0.0, "name": "c8b0944054b3b8ba483c63db77d30bf7", "fusion_lon": 0.0}, {"is_reserved": 0, "type": "electric_scooter", "bike_id": "33715175795c5fa2db0ac975343fd34c", "lat": 38.91794933333333, "lon": -77.02710766666667, "rental_uris": {"android": "https://dc.lft.to/lastmile_qr_scan", "ios": "https://dc.lft.to/lastmile_qr_scan"}, "is_disabled": 0, "fusion_lat": 0.0, "name": "33715175795c5fa2db0ac975343fd34c", "fusion_lon": 0.0}, {"is_reserved": 0, "type": "electric_scooter", "bike_id": "ccb4f57a848b1c07fcb740a664906197", "lat": 38.901238, "lon": -77.03370116666666, "rental_uris": {"android": "https://dc.lft.to/lastmile_qr_scan", "ios": "https://dc.lft.to/lastmile_qr_scan"}, "is_disabled": 0, "fusion_lat": 0.0, "name": "ccb4f57a848b1c07fcb740a664906197", "fusion_lon": 0.0}, {"is_reserved": 0, "type": "electric_scooter", "bike_id": "1e8aacb77a917715a18d893ad021f910", "lat": 38.90594566666667, "lon": -77.03445933333333, "rental_uris": {"android": "https://dc.lft.to/lastmile_qr_scan", "ios": "https://dc.lft.to/lastmile_qr_scan"}, "is_disabled": 0, "fusion_lat": 0.0, "name": "1e8aacb77a917715a18d893ad021f910", "fusion_lon": 0.0}, {"is_reserved": 0, "type": "electric_scooter", "bike_id": "7483717b66cd94c1c52826768463b010", "lat": 38.903751166666666, "lon": -77.03187716666666, "rental_uris": {"android": "https://dc.lft.to/lastmile_qr_scan", "ios": "https://dc.lft.to/lastmile_qr_scan"}, "is_disabled": 0, "fusion_lat": 0.0, "name": "7483717b66cd94c1c52826768463b010", "fusion_lon": 0.0}, {"is_reserved": 0, "type": "electric_scooter", "bike_id": "4d273ea6a70e5bf8ab94cd93cbfd9435", "lat": 38.87157783333333, "lon": -77.01354216666667, "rental_uris": {"android": "https://dc.lft.to/lastmile_qr_scan", "ios": "https://dc.lft.to/lastmile_qr_scan"}, "is_disabled": 0, "fusion_lat": 0.0, "name": "4d273ea6a70e5bf8ab94cd93cbfd9435", "fusion_lon": 0.0}, {"is_reserved": 0, "type": "electric_scooter", "bike_id": "e7bb52e3f3dfc7768d16d831bf39d4ed", "lat": 38.92561366666666, "lon": -76.97004283333334, "rental_uris": {"android": "https://dc.lft.to/lastmile_qr_scan", "ios": "https://dc.lft.to/lastmile_qr_scan"}, "is_disabled": 0, "fusion_lat": 0.0, "name": "e7bb52e3f3dfc7768d16d831bf39d4ed", "fusion_lon": 0.0}, {"is_reserved": 0, "type": "electric_scooter", "bike_id": "27680b3f84b71c4046de94d909a883b4", "lat": 38.936351333333334, "lon": -77.03664016666667, "rental_uris": {"android": "https://dc.lft.to/lastmile_qr_scan", "ios": "https://dc.lft.to/lastmile_qr_scan"}, "is_disabled": 0, "fusion_lat": 0.0, "name": "27680b3f84b71c4046de94d909a883b4", "fusion_lon": 0.0}, {"is_reserved": 0, "type": "electric_scooter", "bike_id": "56e119c67761bc9e7d1395397f23af0a", "lat": 38.89249316666667, "lon": -77.03348383333334, "rental_uris": {"android": "https://dc.lft.to/lastmile_qr_scan", "ios": "https://dc.lft.to/lastmile_qr_scan"}, "is_disabled": 0, "fusion_lat": 0.0, "name": "56e119c67761bc9e7d1395397f23af0a", "fusion_lon": 0.0}, {"is_reserved": 0, "type": "electric_scooter", "bike_id": "33f0cbcda4c410bf250bb09294e64ed2", "lat": 38.900899, "lon": -76.98337433333333, "rental_uris": {"android": "https://dc.lft.to/lastmile_qr_scan", "ios": "https://dc.lft.to/lastmile_qr_scan"}, "is_disabled": 0, "fusion_lat": 0.0, "name": "33f0cbcda4c410bf250bb09294e64ed2", "fusion_lon": 0.0}, {"is_reserved": 0, "type": "electric_scooter", "bike_id": "e9c0c31630ec31506341626d3aa2860c", "lat": 38.92453283333333, "lon": -77.02038333333333, "rental_uris": {"android": "https://dc.lft.to/lastmile_qr_scan", "ios": "https://dc.lft.to/lastmile_qr_scan"}, "is_disabled": 0, "fusion_lat": 0.0, "name": "e9c0c31630ec31506341626d3aa2860c", "fusion_lon": 0.0}, {"is_reserved": 0, "type": "electric_scooter", "bike_id": "6815711b6fc4de2cb7510bd679bb43bf", "lat": 38.933301, "lon": -77.02920716666667, "rental_uris": {"android": "https://dc.lft.to/lastmile_qr_scan", "ios": "https://dc.lft.to/lastmile_qr_scan"}, "is_disabled": 0, "fusion_lat": 0.0, "name": "6815711b6fc4de2cb7510bd679bb43bf", "fusion_lon": 0.0}, {"is_reserved": 0, "type": "electric_scooter", "bike_id": "d93f13ec03b44dda1f9ea17e09681d16", "lat": 38.91921033333333, "lon": -77.04811383333333, "rental_uris": {"android": "https://dc.lft.to/lastmile_qr_scan", "ios": "https://dc.lft.to/lastmile_qr_scan"}, "is_disabled": 0, "fusion_lat": 0.0, "name": "d93f13ec03b44dda1f9ea17e09681d16", "fusion_lon": 0.0}, {"is_reserved": 0, "type": "electric_scooter", "bike_id": "4bcc088381d8312d0214bc3e42537dba", "lat": 38.89845566666666, "lon": -77.02219016666666, "rental_uris": {"android": "https://dc.lft.to/lastmile_qr_scan", "ios": "https://dc.lft.to/lastmile_qr_scan"}, "is_disabled": 0, "fusion_lat": 0.0, "name": "4bcc088381d8312d0214bc3e42537dba", "fusion_lon": 0.0}, {"is_reserved": 0, "type": "electric_scooter", "bike_id": "c45d32678be1c7c36b1cd5a668250680", "lat": 38.91107383333333, "lon": -77.03831266666667, "rental_uris": {"android": "https://dc.lft.to/lastmile_qr_scan", "ios": "https://dc.lft.to/lastmile_qr_scan"}, "is_disabled": 0, "fusion_lat": 0.0, "name": "c45d32678be1c7c36b1cd5a668250680", "fusion_lon": 0.0}, {"is_reserved": 0, "type": "electric_scooter", "bike_id": "591d84dd95f7707cda29b23fa60afb85", "lat": 38.911816, "lon": -77.02306933333334, "rental_uris": {"android": "https://dc.lft.to/lastmile_qr_scan", "ios": "https://dc.lft.to/lastmile_qr_scan"}, "is_disabled": 0, "fusion_lat": 0.0, "name": "591d84dd95f7707cda29b23fa60afb85", "fusion_lon": 0.0}, {"is_reserved": 0, "type": "electric_scooter", "bike_id": "2f4423c063eda832638a68fe1ca8ab52", "lat": 38.90622883333333, "lon": -77.06515683333333, "rental_uris": {"android": "https://dc.lft.to/lastmile_qr_scan", "ios": "https://dc.lft.to/lastmile_qr_scan"}, "is_disabled": 0, "fusion_lat": 0.0, "name": "2f4423c063eda832638a68fe1ca8ab52", "fusion_lon": 0.0}, {"is_reserved": 0, "type": "electric_scooter", "bike_id": "522517434401b5d1d2eec853987db89d", "lat": 38.9086895, "lon": -77.04588916666667, "rental_uris": {"android": "https://dc.lft.to/lastmile_qr_scan", "ios": "https://dc.lft.to/lastmile_qr_scan"}, "is_disabled": 0, "fusion_lat": 0.0, "name": "522517434401b5d1d2eec853987db89d", "fusion_lon": 0.0}, {"is_reserved": 0, "type": "electric_scooter", "bike_id": "4ab9c39a37dff9d2d2f055822745aa56", "lat": 38.941642, "lon": -77.01821366666667, "rental_uris": {"android": "https://dc.lft.to/lastmile_qr_scan", "ios": "https://dc.lft.to/lastmile_qr_scan"}, "is_disabled": 0, "fusion_lat": 0.0, "name": "4ab9c39a37dff9d2d2f055822745aa56", "fusion_lon": 0.0}, {"is_reserved": 0, "type": "electric_scooter", "bike_id": "ed572b9cd995997826b23cd24f7bdccf", "lat": 38.921956333333334, "lon": -77.03904166666666, "rental_uris": {"android": "https://dc.lft.to/lastmile_qr_scan", "ios": "https://dc.lft.to/lastmile_qr_scan"}, "is_disabled": 0, "fusion_lat": 0.0, "name": "ed572b9cd995997826b23cd24f7bdccf", "fusion_lon": 0.0}, {"is_reserved": 0, "type": "electric_scooter", "bike_id": "aef95c290cd0061ef9ca0cfb4c880179", "lat": 38.91310083333333, "lon": -77.03643566666666, "rental_uris": {"android": "https://dc.lft.to/lastmile_qr_scan", "ios": "https://dc.lft.to/lastmile_qr_scan"}, "is_disabled": 0, "fusion_lat": 0.0, "name": "aef95c290cd0061ef9ca0cfb4c880179", "fusion_lon": 0.0}, {"is_reserved": 0, "type": "electric_scooter", "bike_id": "41edfbe7f310f547e395d5f02958222f", "lat": 38.9072285, "lon": -77.0479115, "rental_uris": {"android": "https://dc.lft.to/lastmile_qr_scan", "ios": "https://dc.lft.to/lastmile_qr_scan"}, "is_disabled": 0, "fusion_lat": 0.0, "name": "41edfbe7f310f547e395d5f02958222f", "fusion_lon": 0.0}, {"is_reserved": 0, "type": "electric_scooter", "bike_id": "14de929b91686f7b564cb14bbc0e28a8", "lat": 38.900568166666666, "lon": -76.98564183333333, "rental_uris": {"android": "https://dc.lft.to/lastmile_qr_scan", "ios": "https://dc.lft.to/lastmile_qr_scan"}, "is_disabled": 0, "fusion_lat": 0.0, "name": "14de929b91686f7b564cb14bbc0e28a8", "fusion_lon": 0.0}, {"is_reserved": 0, "type": "electric_scooter", "bike_id": "394262d1627776c34fe0cd82d023949b", "lat": 38.917853666666666, "lon": -77.02174766666667, "rental_uris": {"android": "https://dc.lft.to/lastmile_qr_scan", "ios": "https://dc.lft.to/lastmile_qr_scan"}, "is_disabled": 0, "fusion_lat": 0.0, "name": "394262d1627776c34fe0cd82d023949b", "fusion_lon": 0.0}, {"is_reserved": 0, "type": "electric_scooter", "bike_id": "a6dda1861eb80f6f018f63ba9c58bf93", "lat": 38.89219716666667, "lon": -77.02425016666666, "rental_uris": {"android": "https://dc.lft.to/lastmile_qr_scan", "ios": "https://dc.lft.to/lastmile_qr_scan"}, "is_disabled": 0, "fusion_lat": 0.0, "name": "a6dda1861eb80f6f018f63ba9c58bf93", "fusion_lon": 0.0}, {"is_reserved": 0, "type": "electric_scooter", "bike_id": "d9dc5f8709e0cacb1577a536fb9e4bb7", "lat": 38.881228166666666, "lon": -77.01975083333333, "rental_uris": {"android": "https://dc.lft.to/lastmile_qr_scan", "ios": "https://dc.lft.to/lastmile_qr_scan"}, "is_disabled": 0, "fusion_lat": 0.0, "name": "d9dc5f8709e0cacb1577a536fb9e4bb7", "fusion_lon": 0.0}, {"is_reserved": 0, "type": "electric_scooter", "bike_id": "9d6fdab9017b96927e287ca366991936", "lat": 38.887715166666666, "lon": -76.93262916666667, "rental_uris": {"android": "https://dc.lft.to/lastmile_qr_scan", "ios": "https://dc.lft.to/lastmile_qr_scan"}, "is_disabled": 0, "fusion_lat": 0.0, "name": "9d6fdab9017b96927e287ca366991936", "fusion_lon": 0.0}, {"is_reserved": 0, "type": "electric_bike", "bike_id": "251071060e5a3fb16e507a6e37827f25", "lat": 38.86755216666667, "lon": -76.9453495, "rental_uris": {"android": "https://dc.lft.to/lastmile_qr_scan", "ios": "https://dc.lft.to/lastmile_qr_scan"}, "is_disabled": 0, "fusion_lat": 0.0, "name": "251071060e5a3fb16e507a6e37827f25", "fusion_lon": 0.0}, {"is_reserved": 0, "type": "electric_scooter", "bike_id": "2964065d32a439b04e44b947cb5cd397", "lat": 38.91917183333333, "lon": -77.009922, "rental_uris": {"android": "https://dc.lft.to/lastmile_qr_scan", "ios": "https://dc.lft.to/lastmile_qr_scan"}, "is_disabled": 0, "fusion_lat": 0.0, "name": "2964065d32a439b04e44b947cb5cd397", "fusion_lon": 0.0}, {"is_reserved": 0, "type": "electric_scooter", "bike_id": "c7ab4aaa6b2a378647c842da18bd710e", "lat": 38.905717833333334, "lon": -77.01849916666667, "rental_uris": {"android": "https://dc.lft.to/lastmile_qr_scan", "ios": "https://dc.lft.to/lastmile_qr_scan"}, "is_disabled": 0, "fusion_lat": 0.0, "name": "c7ab4aaa6b2a378647c842da18bd710e", "fusion_lon": 0.0}, {"is_reserved": 0, "type": "electric_scooter", "bike_id": "e34836ec5c0359938e479daef69cbd8a", "lat": 38.912708, "lon": -77.01840116666666, "rental_uris": {"android": "https://dc.lft.to/lastmile_qr_scan", "ios": "https://dc.lft.to/lastmile_qr_scan"}, "is_disabled": 0, "fusion_lat": 0.0, "name": "e34836ec5c0359938e479daef69cbd8a", "fusion_lon": 0.0}, {"is_reserved": 0, "type": "electric_bike", "bike_id": "3578538cf555e997b59dd20d0f991b4c", "lat": 38.891905, "lon": -77.06990866666666, "rental_uris": {"android": "https://dc.lft.to/lastmile_qr_scan", "ios": "https://dc.lft.to/lastmile_qr_scan"}, "is_disabled": 0, "fusion_lat": 0.0, "name": "3578538cf555e997b59dd20d0f991b4c", "fusion_lon": 0.0}, {"is_reserved": 0, "type": "electric_scooter", "bike_id": "4e5a4a816655ac0b1fe507ad9c7d3e39", "lat": 38.92750866666667, "lon": -77.02451333333333, "rental_uris": {"android": "https://dc.lft.to/lastmile_qr_scan", "ios": "https://dc.lft.to/lastmile_qr_scan"}, "is_disabled": 0, "fusion_lat": 0.0, "name": "4e5a4a816655ac0b1fe507ad9c7d3e39", "fusion_lon": 0.0}, {"is_reserved": 0, "type": "electric_scooter", "bike_id": "87920bb7532feb77669941d9913b76eb", "lat": 38.917679, "lon": -77.02320783333333, "rental_uris": {"android": "https://dc.lft.to/lastmile_qr_scan", "ios": "https://dc.lft.to/lastmile_qr_scan"}, "is_disabled": 0, "fusion_lat": 0.0, "name": "87920bb7532feb77669941d9913b76eb", "fusion_lon": 0.0}, {"is_reserved": 0, "type": "electric_scooter", "bike_id": "7cd5106a73c29b759c7b0f3ea607d795", "lat": 38.940815666666666, "lon": -77.055002, "rental_uris": {"android": "https://dc.lft.to/lastmile_qr_scan", "ios": "https://dc.lft.to/lastmile_qr_scan"}, "is_disabled": 0, "fusion_lat": 0.0, "name": "7cd5106a73c29b759c7b0f3ea607d795", "fusion_lon": 0.0}, {"is_reserved": 0, "type": "electric_scooter", "bike_id": "94e189c0ccfb7842525b9ce737c92484", "lat": 38.92626583333333, "lon": -77.036294, "rental_uris": {"android": "https://dc.lft.to/lastmile_qr_scan", "ios": "https://dc.lft.to/lastmile_qr_scan"}, "is_disabled": 0, "fusion_lat": 0.0, "name": "94e189c0ccfb7842525b9ce737c92484", "fusion_lon": 0.0}, {"is_reserved": 0, "type": "electric_scooter", "bike_id": "0f6792510fbf608e247d3f47265392ed", "lat": 38.916004666666666, "lon": -77.04642483333333, "rental_uris": {"android": "https://dc.lft.to/lastmile_qr_scan", "ios": "https://dc.lft.to/lastmile_qr_scan"}, "is_disabled": 0, "fusion_lat": 0.0, "name": "0f6792510fbf608e247d3f47265392ed", "fusion_lon": 0.0}, {"is_reserved": 0, "type": "electric_scooter", "bike_id": "e060c45cf37bdc5715c1d5042c6b9aa8", "lat": 38.892307833333334, "lon": -77.03184433333334, "rental_uris": {"android": "https://dc.lft.to/lastmile_qr_scan", "ios": "https://dc.lft.to/lastmile_qr_scan"}, "is_disabled": 0, "fusion_lat": 0.0, "name": "e060c45cf37bdc5715c1d5042c6b9aa8", "fusion_lon": 0.0}, {"is_reserved": 0, "type": "electric_scooter", "bike_id": "566123cd21127ab8179c4817f7edbbb2", "lat": 38.88520783333333, "lon": -76.996261, "rental_uris": {"android": "https://dc.lft.to/lastmile_qr_scan", "ios": "https://dc.lft.to/lastmile_qr_scan"}, "is_disabled": 0, "fusion_lat": 0.0, "name": "566123cd21127ab8179c4817f7edbbb2", "fusion_lon": 0.0}, {"is_reserved": 0, "type": "electric_scooter", "bike_id": "498dc44b45382c590bdec5ab55f2c513", "lat": 38.921998333333335, "lon": -77.04702883333333, "rental_uris": {"android": "https://dc.lft.to/lastmile_qr_scan", "ios": "https://dc.lft.to/lastmile_qr_scan"}, "is_disabled": 0, "fusion_lat": 0.0, "name": "498dc44b45382c590bdec5ab55f2c513", "fusion_lon": 0.0}, {"is_reserved": 0, "type": "electric_scooter", "bike_id": "e3103bdcfb1ccaf42e4a4a3ea372ce88", "lat": 38.942277, "lon": -77.071538, "rental_uris": {"android": "https://dc.lft.to/lastmile_qr_scan", "ios": "https://dc.lft.to/lastmile_qr_scan"}, "is_disabled": 0, "fusion_lat": 0.0, "name": "e3103bdcfb1ccaf42e4a4a3ea372ce88", "fusion_lon": 0.0}, {"is_reserved": 0, "type": "electric_scooter", "bike_id": "9d53ff6d2ebfb65741677e15097eb1d1", "lat": 38.919443333333334, "lon": -77.01365483333333, "rental_uris": {"android": "https://dc.lft.to/lastmile_qr_scan", "ios": "https://dc.lft.to/lastmile_qr_scan"}, "is_disabled": 0, "fusion_lat": 0.0, "name": "9d53ff6d2ebfb65741677e15097eb1d1", "fusion_lon": 0.0}, {"is_reserved": 0, "type": "electric_scooter", "bike_id": "ac65947cbce9d4650f0564718f8f795d", "lat": 38.90095, "lon": -77.048782, "rental_uris": {"android": "https://dc.lft.to/lastmile_qr_scan", "ios": "https://dc.lft.to/lastmile_qr_scan"}, "is_disabled": 0, "fusion_lat": 0.0, "name": "ac65947cbce9d4650f0564718f8f795d", "fusion_lon": 0.0},