{"data": {"bikes": [{"fusion_lat": 0.0, "is_reserved": 0, "is_disabled": 0, "rental_uris": {"android": "https://dc.lft.to/lastmile_qr_scan", "ios": "https://dc.lft.to/lastmile_qr_scan"}, "fusion_lon": 0.0, "lat": 38.9432015, "lon": -77.05928983333334, "type": "electric_scooter", "bike_id": "37afd1677b123d5bd03551c01a0c4155", "name": "37afd1677b123d5bd03551c01a0c4155"}, {"fusion_lat": 0.0, "is_reserved": 0, "is_disabled": 0, "rental_uris": {"android": "https://dc.lft.to/lastmile_qr_scan", "ios": "https://dc.lft.to/lastmile_qr_scan"}, "fusion_lon": 0.0, "lat": 38.889987833333336, "lon": -76.94703733333333, "type": "electric_scooter", "bike_id": "b29e9a5b2618df422ff5df053d139f65", "name": "b29e9a5b2618df422ff5df053d139f65"}, {"fusion_lat": 0.0, "is_reserved": 0, "is_disabled": 0, "rental_uris": {"android": "https://dc.lft.to/lastmile_qr_scan", "ios": "https://dc.lft.to/lastmile_qr_scan"}, "fusion_lon": 0.0, "lat": 38.89173683333333, "lon": -77.01550483333334, "type": "electric_scooter", "bike_id": "e828f190a69f763ebb1a3eb1c060d679", "name": "e828f190a69f763ebb1a3eb1c060d679"}, {"fusion_lat": 0.0, "is_reserved": 0, "is_disabled": 0, "rental_uris": {"android": "https://dc.lft.to/lastmile_qr_scan", "ios": "https://dc.lft.to/lastmile_qr_scan"}, "fusion_lon": 0.0, "lat": 38.929276333333334, "lon": -77.03251016666667, "type": "electric_scooter", "bike_id": "01150a8e43157d47a40f5783640921d3", "name": "01150a8e43157d47a40f5783640921d3"}, {"fusion_lat": 0.0, "is_reserved": 0, "is_disabled": 0, "rental_uris": {"android": "https://dc.lft.to/lastmile_qr_scan", "ios": "https://dc.lft.to/lastmile_qr_scan"}, "fusion_lon": 0.0, "lat": 38.924490666666664, "lon": -77.020331, "type": "electric_scooter", "bike_id": "985ec1f235982e8281b55e4b17d1d5d0", "name": "985ec1f235982e8281b55e4b17d1d5d0"}, {"fusion_lat": 0.0, "is_reserved": 0, "is_disabled": 0, "rental_uris": {"android": "https://dc.lft.to/lastmile_qr_scan", "ios": "https://dc.lft.to/lastmile_qr_scan"}, "fusion_lon": 0.0, "lat": 38.832444, "lon": -76.94627416666667, "type": "electric_bike", "bike_id": "a47726e783977a25cc0edaf820071388", "name": "a47726e783977a25cc0edaf820071388"}, {"fusion_lat": 0.0, "is_reserved": 0, "is_disabled": 0, "rental_uris": {"android": "https://dc.lft.to/lastmile_qr_scan", "ios": "https://dc.lft.to/lastmile_qr_scan"}, "fusion_lon": 0.0, "lat": 38.915703, "lon": -77.02173883333333, "type": "electric_scooter", "bike_id": "387876b747f644690e4cb654f46b869d", "name": "387876b747f644690e4cb654f46b869d"}, {"fusion_lat": 0.0, "is_reserved": 0, "is_disabled": 0, "rental_uris": {"android": "https://dc.lft.to/lastmile_qr_scan", "ios": "https://dc.lft.to/lastmile_qr_scan"}, "fusion_lon": 0.0, "lat": 38.927387333333336, "lon": -77.035584, "type": "electric_scooter", "bike_id": "c9f3d1e9d1569bef6b52d442adf8c597", "name": "c9f3d1e9d1569bef6b52d442adf8c597"}, {"fusion_lat": 0.0, "is_reserved": 0, "is_disabled": 0, "rental_uris": {"android": "https://dc.lft.to/lastmile_qr_scan", "ios": "https://dc.lft.to/lastmile_qr_scan"}, "fusion_lon": 0.0, "lat": 38.91279516666667, "lon": -77.045068, "type": "electric_scooter", "bike_id": "9ba820162a40c14a72828fc045611b08", "name": "9ba820162a40c14a72828fc045611b08"}, {"fusion_lat": 0.0, "is_reserved": 0, "is_disabled": 0, "rental_uris": {"android": "https://dc.lft.to/lastmile_qr_scan", "ios": "https://dc.lft.to/lastmile_qr_scan"}, "fusion_lon": 0.0, "lat": 38.86388083333333, "lon": -76.99246716666667, "type": "electric_scooter", "bike_id": "c64462df07b2fa67ed1a1e6beb8894f5", "name": "c64462df07b2fa67ed1a1e6beb8894f5"}, {"fusion_lat": 0.0, "is_reserved": 0, "is_disabled": 0, "rental_uris": {"android": "https://dc.lft.to/lastmile_qr_scan", "ios": "https://dc.lft.to/lastmile_qr_scan"}, "fusion_lon": 0.0, "lat": 38.91108216666667, "lon": -77.04500266666666, "type": "electric_scooter", "bike_id": "a7645c58cde946a39e76520d3ac12aa9", "name": "a7645c58cde946a39e76520d3ac12aa9"}, {"fusion_lat": 0.0, "is_reserved": 0, "is_disabled": 0, "rental_uris": {"android": "https://dc.lft.to/lastmile_qr_scan", "ios": "https://dc.lft.to/lastmile_qr_scan"}, "fusion_lon": 0.0, "lat": 38.915705833333334, "lon": -77.0469995, "type": "electric_scooter", "bike_id": "6c51c890b45fb73a04de2c2f5a33ee55", "name": "6c51c890b45fb73a04de2c2f5a33ee55"}, {"fusion_lat": 0.0, "is_reserved": 0, "is_disabled": 0, "rental_uris": {"android": "https://dc.lft.to/lastmile_qr_scan", "ios": "https://dc.lft.to/lastmile_qr_scan"}, "fusion_lon": 0.0, "lat": 38.978813333333335, "lon": -77.02549183333333, "type": "electric_scooter", "bike_id": "4696836bfbfa0ac60deb9690580c25a3", "name": "4696836bfbfa0ac60deb9690580c25a3"}, {"fusion_lat": 0.0, "is_reserved": 0, "is_disabled": 0, "rental_uris": {"android": "https://dc.lft.to/lastmile_qr_scan", "ios": "https://dc.lft.to/lastmile_qr_scan"}, "fusion_lon": 0.0, "lat": 38.922373666666665, "lon": -77.02241016666666, "type": "electric_bike", "bike_id": "17f55db6f05e6ccb33b0fd35a36dfebd", "name": "17f55db6f05e6ccb33b0fd35a36dfebd"}, {"fusion_lat": 0.0, "is_reserved": 0, "is_disabled": 0, "rental_uris": {"android": "https://dc.lft.to/lastmile_qr_scan", "ios": "https://dc.lft.to/lastmile_qr_scan"}, "fusion_lon": 0.0, "lat": 38.90258866666667, "lon": -77.03857983333333, "type": "electric_scooter", "bike_id": "d0ae2ed9bfb776393f80f3d52f2d5d2e", "name": "d0ae2ed9bfb776393f80f3d52f2d5d2e"}, {"fusion_lat": 0.0, "is_reserved": 0, "is_disabled": 0, "rental_uris": {"android": "https://dc.lft.to/lastmile_qr_scan", "ios": "https://dc.lft.to/lastmile_qr_scan"}, "fusion_lon": 0.0, "lat": 38.899682, "lon": -77.05175033333333, "type": "electric_scooter", "bike_id": "792472e7a94a414363440edbf7488138", "name": "792472e7a94a414363440edbf7488138"}, {"fusion_lat": 0.0, "is_reserved": 0, "is_disabled": 0, "rental_uris": {"android": "https://dc.lft.to/lastmile_qr_scan", "ios": "https://dc.lft.to/lastmile_qr_scan"}, "fusion_lon": 0.0, "lat": 38.8961865, "lon": -77.02210716666667, "type": "electric_bike", "bike_id": "406dc8e9e92e6fb7a8ef07ed47a30c3c", "name": "406dc8e9e92e6fb7a8ef07ed47a30c3c"}, {"fusion_lat": 0.0, "is_reserved": 0, "is_disabled": 0, "rental_uris": {"android": "https://dc.lft.to/lastmile_qr_scan", "ios": "https://dc.lft.to/lastmile_qr_scan"}, "fusion_lon": 0.0, "lat": 38.922623333333334, "lon": -77.0340425, "type": "electric_scooter", "bike_id": "66b01ccc087056ff8a162fcbab4a722f", "name": "66b01ccc087056ff8a162fcbab4a722f"}, {"fusion_lat": 0.0, "is_reserved": 0, "is_disabled": 0, "rental_uris": {"android": "https://dc.lft.to/lastmile_qr_scan", "ios": "https://dc.lft.to/lastmile_qr_scan"}, "fusion_lon": 0.0, "lat": 38.908681, "lon": -77.04339516666667, "type": "electric_scooter", "bike_id": "7686b9cd2226c6f09c63039227eb8c3e", "name": "7686b9cd2226c6f09c63039227eb8c3e"}, {"fusion_lat": 0.0, "is_reserved": 0, "is_disabled": 0, "rental_uris": {"android": "https://dc.lft.to/lastmile_qr_scan", "ios": "https://dc.lft.to/lastmile_qr_scan"}, "fusion_lon": 0.0, "lat": 38.89743583333333, "lon": -77.04685783333333, "type": "electric_scooter", "bike_id": "19690aae431050058905fc2266026cd5", "name": "19690aae431050058905fc2266026cd5"}, {"fusion_lat": 0.0, "is_reserved": 0, "is_disabled": 0, "rental_uris": {"android": "https://dc.lft.to/lastmile_qr_scan", "ios": "https://dc.lft.to/lastmile_qr_scan"}, "fusion_lon": 0.0, "lat": 38.926285666666665, "lon": -77.03785016666667, "type": "electric_scooter", "bike_id": "eb00076eb4ef1496725dfabc0e626168", "name": "eb00076eb4ef1496725dfabc0e626168"}, {"fusion_lat": 0.0, "is_reserved": 0, "is_disabled": 0, "rental_uris": {"android": "https://dc.lft.to/lastmile_qr_scan", "ios": "https://dc.lft.to/lastmile_qr_scan"}, "fusion_lon": 0.0, "lat": 38.916313833333334, "lon": -77.03952716666667, "type": "electric_scooter", "bike_id": "3ef007bc6e0563a718df90a22db0e4e6", "name": "3ef007bc6e0563a718df90a22db0e4e6"}, {"fusion_lat": 0.0, "is_reserved": 0, "is_disabled": 0, "rental_uris": {"android": "https://dc.lft.to/lastmile_qr_scan", "ios": "https://dc.lft.to/lastmile_qr_scan"}, "fusion_lon": 0.0, "lat": 38.922574, "lon": -77.0412915, "type": "electric_scooter", "bike_id": "a76a217f371d3d7bcd12ba1171e02525", "name": "a76a217f371d3d7bcd12ba1171e02525"}, {"fusion_lat": 0.0, "is_reserved": 0, "is_disabled": 0, "rental_uris": {"android": "https://dc.lft.to/lastmile_qr_scan", "ios": "https://dc.lft.to/lastmile_qr_scan"}, "fusion_lon": 0.0, "lat": 38.896205, "lon": -77.04497783333333, "type": "electric_scooter", "bike_id": "2745ba4e9b0c3d159a001bc5005059e3", "name": "2745ba4e9b0c3d159a001bc5005059e3"}, {"fusion_lat": 0.0, "is_reserved": 0, "is_disabled": 0, "rental_uris": {"android": "https://dc.lft.to/lastmile_qr_scan", "ios": "https://dc.lft.to/lastmile_qr_scan"}, "fusion_lon": 0.0, "lat": 38.902958, "lon": -77.05336616666666, "type": "electric_scooter", "bike_id": "60c47283791142e52feb8c81823aa2bc", "name": "60c47283791142e52feb8c81823aa2bc"}, {"fusion_lat": 0.0, "is_reserved": 0, "is_disabled": 0, "rental_uris": {"android": "https://dc.lft.to/lastmile_qr_scan", "ios": "https://dc.lft.to/lastmile_qr_scan"}, "fusion_lon": 0.0, "lat": 38.874787, "lon": -77.01070533333333, "type": "electric_scooter", "bike_id": "d0a418da97becb66ea49762a015055ca", "name": "d0a418da97becb66ea49762a015055ca"}, {"fusion_lat": 0.0, "is_reserved": 0, "is_disabled": 0, "rental_uris": {"android": "https://dc.lft.to/lastmile_qr_scan", "ios": "https://dc.lft.to/lastmile_qr_scan"}, "fusion_lon": 0.0, "lat": 38.92030066666667, "lon": -77.01808666666666, "type": "electric_scooter", "bike_id": "0fa7d064c8a05ababb2236358d1a8b43", "name": "0fa7d064c8a05ababb2236358d1a8b43"}, {"fusion_lat": 0.0, "is_reserved": 0, "is_disabled": 0, "rental_uris": {"android": "https://dc.lft.to/lastmile_qr_scan", "ios": "https://dc.lft.to/lastmile_qr_scan"}, "fusion_lon": 0.0, "lat": 38.8764925, "lon": -77.00421416666667, "type": "electric_scooter", "bike_id": "762fc1b24231c74368b74a11b22a862a", "name": "762fc1b24231c74368b74a11b22a862a"}, {"fusion_lat": 0.0, "is_reserved": 0, "is_disabled": 0, "rental_uris": {"android": "https://dc.lft.to/lastmile_qr_scan", "ios": "https://dc.lft.to/lastmile_qr_scan"}, "fusion_lon": 0.0, "lat": 38.892225833333335, "lon": -77.026508, "type": "electric_scooter", "bike_id": "71de7899a619f4f30339da3bd8ad6923", "name": "71de7899a619f4f30339da3bd8ad6923"}, {"fusion_lat": 0.0, "is_reserved": 0, "is_disabled": 0, "rental_uris": {"android": "https://dc.lft.to/lastmile_qr_scan", "ios": "https://dc.lft.to/lastmile_qr_scan"}, "fusion_lon": 0.0, "lat": 38.86437683333333, "lon": -76.973839, "type": "electric_scooter", "bike_id": "2dd740cdc150bc19c60d75b86c466806", "name": "2dd740cdc150bc19c60d75b86c466806"}, {"fusion_lat": 0.0, "is_reserved": 0, "is_disabled": 0, "rental_uris": {"android": "https://dc.lft.to/lastmile_qr_scan", "ios": "https://dc.lft.to/lastmile_qr_scan"}, "fusion_lon": 0.0, "lat": 38.903571, "lon": -77.00739583333333, "type": "electric_scooter", "bike_id": "1f0d869b99c562a36be19639667ad5d9", "name": "1f0d869b99c562a36be19639667ad5d9"}, {"fusion_lat": 0.0, "is_reserved": 0, "is_disabled": 0, "rental_uris": {"android": "https://dc.lft.to/lastmile_qr_scan", "ios": "https://dc.lft.to/lastmile_qr_scan"}, "fusion_lon": 0.0, "lat": 38.92047983333333, "lon": -77.02426133333333, "type": "electric_scooter", "bike_id": "e248f5c71f7efa3a2c60b8497a346f3d", "name": "e248f5c71f7efa3a2c60b8497a346f3d"}, {"fusion_lat": 0.0, "is_reserved": 0, "is_disabled": 0, "rental_uris": {"android": "https://dc.lft.to/lastmile_qr_scan", "ios": "https://dc.lft.to/lastmile_qr_scan"}, "fusion_lon": 0.0, "lat": 38.903636666666664, "lon": -77.03838583333334, "type": "electric_scooter", "bike_id": "b792030e7a76b6d26e739203cbc77fe7", "name": "b792030e7a76b6d26e739203cbc77fe7"}, {"fusion_lat": 0.0, "is_reserved": 0, "is_disabled": 0, "rental_uris": {"android": "https://dc.lft.to/lastmile_qr_scan", "ios": "https://dc.lft.to/lastmile_qr_scan"}, "fusion_lon": 0.0, "lat": 38.903212833333335, "lon": -77.0348875, "type": "electric_scooter", "bike_id": "4ec454b68c58c7de24ba9911d5b18603", "name": "4ec454b68c58c7de24ba9911d5b18603"}, {"fusion_lat": 0.0, "is_reserved": 0, "is_disabled": 0, "rental_uris": {"android": "https://dc.lft.to/lastmile_qr_scan", "ios": "https://dc.lft.to/lastmile_qr_scan"}, "fusion_lon": 0.0, "lat": 38.91340833333334, "lon": -77.00220183333333, "type": "electric_scooter", "bike_id": "b9641de8dc64b680c1d5dfc26f654c8b", "name": "b9641de8dc64b680c1d5dfc26f654c8b"}, {"fusion_lat": 0.0, "is_reserved": 0, "is_disabled": 0, "rental_uris": {"android": "https://dc.lft.to/lastmile_qr_scan", "ios": "https://dc.lft.to/lastmile_qr_scan"}, "fusion_lon": 0.0, "lat": 39.0581665, "lon": -77.1262615, "type": "electric_bike", "bike_id": "a64eb8737a1d13dd5d7a08dc83ab7505", "name": "a64eb8737a1d13dd5d7a08dc83ab7505"}, {"fusion_lat": 0.0, "is_reserved": 0, "is_disabled": 0, "rental_uris": {"android": "https://dc.lft.to/lastmile_qr_scan", "ios": "https://dc.lft.to/lastmile_qr_scan"}, "fusion_lon": 0.0, "lat": 38.90382266666667, "lon": -77.03317283333334, "type": "electric_scooter", "bike_id": "a8669066a182f15c10d44770b3887058", "name": "a8669066a182f15c10d44770b3887058"}, {"fusion_lat": 0.0, "is_reserved": 0, "is_disabled": 0, "rental_uris": {"android": "https://dc.lft.to/lastmile_qr_scan", "ios": "https://dc.lft.to/lastmile_qr_scan"}, "fusion_lon": 0.0, "lat": 38.896138666666666, "lon": -77.04046033333333, "type": "electric_scooter", "bike_id": "22667016becd3b8a37aa2ac5eee040d5", "name": "22667016becd3b8a37aa2ac5eee040d5"}, {"fusion_lat": 0.0, "is_reserved": 0, "is_disabled": 0, "rental_uris": {"android": "https://dc.lft.to/lastmile_qr_scan", "ios": "https://dc.lft.to/lastmile_qr_scan"}, "fusion_lon": 0.0, "lat": 38.9013325, "lon": -76.99660166666666, "type": "electric_scooter", "bike_id": "625eb39dfa3401ca6f7b31c734ec5bbe", "name": "625eb39dfa3401ca6f7b31c734ec5bbe"}, {"fusion_lat": 0.0, "is_reserved": 0, "is_disabled": 0, "rental_uris": {"android": "https://dc.lft.to/lastmile_qr_scan", "ios": "https://dc.lft.to/lastmile_qr_scan"}, "fusion_lon": 0.0, "lat": 38.846214333333336, "lon": -76.978201, "type": "electric_bike", "bike_id": "0a363d114af37d5a50f9dea53f0cbf9f", "name": "0a363d114af37d5a50f9dea53f0cbf9f"}, {"fusion_lat": 0.0, "is_reserved": 0, "is_disabled": 0, "rental_uris": {"android": "https://dc.lft.to/lastmile_qr_scan", "ios": "https://dc.lft.to/lastmile_qr_scan"}, "fusion_lon": 0.0, "lat": 38.916168666666664, "lon": -77.036411, "type": "electric_scooter", "bike_id": "176b04e3b219c4bc6851df9b2d9aa5d6", "name": "176b04e3b219c4bc6851df9b2d9aa5d6"}, {"fusion_lat": 0.0, "is_reserved": 0, "is_disabled": 0, "rental_uris": {"android": "https://dc.lft.to/lastmile_qr_scan", "ios": "https://dc.lft.to/lastmile_qr_scan"}, "fusion_lon": 0.0, "lat": 38.90957866666667, "lon": -77.03210416666667, "type": "electric_scooter", "bike_id": "0b8955627dbd60b1f9a9610b650e0e1c", "name": "0b8955627dbd60b1f9a9610b650e0e1c"}, {"fusion_lat": 0.0, "is_reserved": 0, "is_disabled": 0, "rental_uris": {"android": "https://dc.lft.to/lastmile_qr_scan", "ios": "https://dc.lft.to/lastmile_qr_scan"}, "fusion_lon": 0.0, "lat": 38.846098833333336, "lon": -76.96904166666667, "type": "electric_bike", "bike_id": "9de53d86a3d7a6b016a7b647753c1588", "name": "9de53d86a3d7a6b016a7b647753c1588"}, {"fusion_lat": 0.0, "is_reserved": 0, "is_disabled": 0, "rental_uris": {"android": "https://dc.lft.to/lastmile_qr_scan", "ios": "https://dc.lft.to/lastmile_qr_scan"}, "fusion_lon": 0.0, "lat": 38.92510216666667, "lon": -77.04088583333333, "type": "electric_scooter", "bike_id": "7c5e950719994e166853f499783fccd1", "name": "7c5e950719994e166853f499783fccd1"}, {"fusion_lat": 0.0, "is_reserved": 0, "is_disabled": 0, "rental_uris": {"android": "https://dc.lft.to/lastmile_qr_scan", "ios": "https://dc.lft.to/lastmile_qr_scan"}, "fusion_lon": 0.0, "lat": 38.927882333333336, "lon": -77.03691183333333, "type": "electric_scooter", "bike_id": "e8b5c1be59503a0ef0ca2c1c5cfabb87", "name": "e8b5c1be59503a0ef0ca2c1c5cfabb87"}, {"fusion_lat": 0.0, "is_reserved": 0, "is_disabled": 0, "rental_uris": {"android": "https://dc.lft.to/lastmile_qr_scan", "ios": "https://dc.lft.to/lastmile_qr_scan"}, "fusion_lon": 0.0, "lat": 38.9236565, "lon": -77.05129766666667, "type": "electric_scooter", "bike_id": "f9449cc694e989c88ec9d04a4a670740", "name": "f9449cc694e989c88ec9d04a4a670740"}, {"fusion_lat": 0.0, "is_reserved": 0, "is_disabled": 0, "rental_uris": {"android": "https://dc.lft.to/lastmile_qr_scan", "ios": "https://dc.lft.to/lastmile_qr_scan"}, "fusion_lon": 0.0, "lat": 38.8955675, "lon": -76.9304125, "type": "electric_scooter", "bike_id": "5bb20d7df08024b4d4937b498bcf36be", "name": "5bb20d7df08024b4d4937b498bcf36be"}, {"fusion_lat": 0.0, "is_reserved": 0, "is_disabled": 0, "rental_uris": {"android": "https://dc.lft.to/lastmile_qr_scan", "ios": "https://dc.lft.to/lastmile_qr_scan"}, "fusion_lon": 0.0, "lat": 38.913618166666666, "lon": -77.039738, "type": "electric_scooter", "bike_id": "f6355e59398faa357461922f61d80edd", "name": "f6355e59398faa357461922f61d80edd"}, {"fusion_lat": 0.0, "is_reserved": 0, "is_disabled": 0, "rental_uris": {"android": "https://dc.lft.to/lastmile_qr_scan", "ios": "https://dc.lft.to/lastmile_qr_scan"}, "fusion_lon": 0.0, "lat": 38.90095983333333, "lon": -77.047584, "type": "electric_scooter", "bike_id": "bbf85b989f6a33f32284eeb236df3e21", "name": "bbf85b989f6a33f32284eeb236df3e21"}, {"fusion_lat": 0.0, "is_reserved": 0, "is_disabled": 0, "rental_uris": {"android": "https://dc.lft.to/lastmile_qr_scan", "ios": "https://dc.lft.to/lastmile_qr_scan"}, "fusion_lon": 0.0, "lat": 38.91761283333334, "lon": -77.03195266666667, "type": "electric_scooter", "bike_id": "b19bfd5773f9e443a38553de2c129486", "name": "b19bfd5773f9e443a38553de2c129486"}, {"fusion_lat": 0.0, "is_reserved": 0, "is_disabled": 0, "rental_uris": {"android": "https://dc.lft.to/lastmile_qr_scan", "ios": "https://dc.lft.to/lastmile_qr_scan"}, "fusion_lon": 0.0, "lat": 38.9349895, "lon": -77.05803466666667, "type": "electric_scooter", "bike_id": "b0f034c319f69194b68f36b65199875f", "name": "b0f034c319f69194b68f36b65199875f"}, {"fusion_lat": 0.0, "is_reserved": 0, "is_disabled": 0, "rental_uris": {"android": "https://dc.lft.to/lastmile_qr_scan", "ios": "https://dc.lft.to/lastmile_qr_scan"}, "fusion_lon": 0.0, "lat": 38.912803, "lon": -77.0450965, "type": "electric_scooter", "bike_id": "3c6573978e35bbbf962306992c9f9d38", "name": "3c6573978e35bbbf962306992c9f9d38"}, {"fusion_lat": 0.0, "is_reserved": 0, "is_disabled": 0, "rental_uris": {"android": "https://dc.lft.to/lastmile_qr_scan", "ios": "https://dc.lft.to/lastmile_qr_scan"}, "fusion_lon": 0.0, "lat": 38.870208, "lon": -76.96023233333334, "type": "electric_bike", "bike_id": "26f811793c7ecb6cddc74b4f32462b10", "name": "26f811793c7ecb6cddc74b4f32462b10"}, {"fusion_lat": 0.0, "is_reserved": 0, "is_disabled": 0, "rental_uris": {"android": "https://dc.lft.to/lastmile_qr_scan", "ios": "https://dc.lft.to/lastmile_qr_scan"}, "fusion_lon": 0.0, "lat": 38.904978666666665, "lon": -76.9792235, "type": "electric_scooter", "bike_id": "4e7ac6bf9032d54621b31942e9a4ebb6", "name": "4e7ac6bf9032d54621b31942e9a4ebb6"}, {"fusion_lat": 0.0, "is_reserved": 0, "is_disabled": 0, "rental_uris": {"android": "https://dc.lft.to/lastmile_qr_scan", "ios": "https://dc.lft.to/lastmile_qr_scan"}, "fusion_lon": 0.0, "lat": 38.880351, "lon": -77.01927166666667, "type": "electric_scooter", "bike_id": "f9624b10a19a6929fa382a733acdf8c8", "name": "f9624b10a19a6929fa382a733acdf8c8"}, {"fusion_lat": 0.0, "is_reserved": 0, "is_disabled": 0, "rental_uris": {"android": "https://dc.lft.to/lastmile_qr_scan", "ios": "https://dc.lft.to/lastmile_qr_scan"}, "fusion_lon": 0.0, "lat": 38.8368675, "lon": -77.00590766666667, "type": "electric_scooter", "bike_id": "d6c83575d3c89c9cec7056e5aae70a98", "name": "d6c83575d3c89c9cec7056e5aae70a98"}, {"fusion_lat": 0.0, "is_reserved": 0, "is_disabled": 0, "rental_uris": {"android": "https://dc.lft.to/lastmile_qr_scan", "ios": "https://dc.lft.to/lastmile_qr_scan"}, "fusion_lon": 0.0, "lat": 38.8966865, "lon": -77.02718433333334, "type": "electric_scooter", "bike_id": "a6ed6117a099616ec5f487a90ce436fb", "name": "a6ed6117a099616ec5f487a90ce436fb"}, {"fusion_lat": 0.0, "is_reserved": 0, "is_disabled": 0, "rental_uris": {"android": "https://dc.lft.to/lastmile_qr_scan", "ios": "https://dc.lft.to/lastmile_qr_scan"}, "fusion_lon": 0.0, "lat": 38.9362215, "lon": -77.081873, "type": "electric_scooter", "bike_id": "cac933566ec4521555d0830e947a53ef", "name": "cac933566ec4521555d0830e947a53ef"}, {"fusion_lat": 0.0, "is_reserved": 0, "is_disabled": 0, "rental_uris": {"android": "https://dc.lft.to/lastmile_qr_scan", "ios": "https://dc.lft.to/lastmile_qr_scan"}, "fusion_lon": 0.0, "lat": 38.917159166666664, "lon": -77.03334366666667, "type": "electric_scooter", "bike_id": "23dd66ea9f214c945e3c3fc37444e8c8", "name": "23dd66ea9f214c945e3c3fc37444e8c8"}, {"fusion_lat": 0.0, "is_reserved": 0, "is_disabled": 0, "rental_uris": {"android": "https://dc.lft.to/lastmile_qr_scan", "ios": "https://dc.lft.to/lastmile_qr_scan"}, "fusion_lon": 0.0, "lat": 38.92459383333333, "lon": -77.0575935, "type": "electric_scooter", "bike_id": "d6a369bcab2c78e3806c3e3f8b71501d", "name": "d6a369bcab2c78e3806c3e3f8b71501d"}, {"fusion_lat": 0.0, "is_reserved": 0, "is_disabled": 0, "rental_uris": {"android": "https://dc.lft.to/lastmile_qr_scan", "ios": "https://dc.lft.to/lastmile_qr_scan"}, "fusion_lon": 0.0, "lat": 38.893829833333335, "lon": -77.04782533333334, "type": "electric_scooter", "bike_id": "2115fe2353407adb6ef4e2e961e7253c", "name": "2115fe2353407adb6ef4e2e961e7253c"}, {"fusion_lat": 0.0, "is_reserved": 0, "is_disabled": 0, "rental_uris": {"android": "https://dc.lft.to/lastmile_qr_scan", "ios": "https://dc.lft.to/lastmile_qr_scan"}, "fusion_lon": 0.0, "lat": 38.942394666666665, "lon": -77.07227883333333, "type": "electric_scooter", "bike_id": "0861bd6050b5a8905480d3f9bf156175", "name": "0861bd6050b5a8905480d3f9bf156175"}, {"fusion_lat": 0.0, "is_reserved": 0, "is_disabled": 0, "rental_uris": {"android": "https://dc.lft.to/lastmile_qr_scan", "ios": "https://dc.lft.to/lastmile_qr_scan"}, "fusion_lon": 0.0, "lat": 38.8984575, "lon": -77.03329033333333, "type": "electric_scooter", "bike_id": "6e3178ea531c128cfe8155a25d8fa1b6", "name": "6e3178ea531c128cfe8155a25d8fa1b6"}, {"fusion_lat": 0.0, "is_reserved": 0, "is_disabled": 0, "rental_uris": {"android": "https://dc.lft.to/lastmile_qr_scan", "ios": "https://dc.lft.to/lastmile_qr_scan"}, "fusion_lon": 0.0, "lat": 38.90278083333333, "lon": -77.04624233333334, "type": "electric_scooter", "bike_id": "4e211fff409b8d2d1bbb31229b5660c8", "name": "4e211fff409b8d2d1bbb31229b5660c8"}, {"fusion_lat": 0.0, "is_reserved": 0, "is_disabled": 0, "rental_uris": {"android": "https://dc.lft.to/lastmile_qr_scan", "ios": "https://dc.lft.to/lastmile_qr_scan"}, "fusion_lon": 0.0, "lat": 38.9181875, "lon": -77.04180433333333, "type": "electric_scooter", "bike_id": "ec33ee72ede5b9b072819c0099876697", "name": "ec33ee72ede5b9b072819c0099876697"}, {"fusion_lat": 0.0, "is_reserved": 0, "is_disabled": 0, "rental_uris": {"android": "https://dc.lft.to/lastmile_qr_scan", "ios": "https://dc.lft.to/lastmile_qr_scan"}, "fusion_lon": 0.0, "lat": 38.94905816666667, "lon": -76.97236416666667, "type": "electric_bike", "bike_id": "d7e4224928d7c28d38cde2911513b788", "name": "d7e4224928d7c28d38cde2911513b788"}, {"fusion_lat": 0.0, "is_reserved": 0, "is_disabled": 0, "rental_uris": {"android": "https://dc.lft.to/lastmile_qr_scan", "ios": "https://dc.lft.to/lastmile_qr_scan"}, "fusion_lon": 0.0, "lat": 38.930650666666665, "lon": -77.03116933333334, "type": "electric_scooter", "bike_id": "0feeaa7e0f02fc032862c1c7253eddb4", "name": "0feeaa7e0f02fc032862c1c7253eddb4"}, {"fusion_lat": 0.0, "is_reserved": 0, "is_disabled": 0, "rental_uris": {"android": "https://dc.lft.to/lastmile_qr_scan", "ios": "https://dc.lft.to/lastmile_qr_scan"}, "fusion_lon": 0.0, "lat": 38.88698733333333, "lon": -77.16245583333334, "type": "electric_bike", "bike_id": "ab82b87adce80d563dad615f86687746", "name": "ab82b87adce80d563dad615f86687746"}, {"fusion_lat": 0.0, "is_reserved": 0, "is_disabled": 0, "rental_uris": {"android": "https://dc.lft.to/lastmile_qr_scan", "ios": "https://dc.lft.to/lastmile_qr_scan"}, "fusion_lon": 0.0, "lat": 38.92317583333333, "lon": -77.0395065, "type": "electric_scooter", "bike_id": "6e131d4d978910b18f33a0cc0108f509", "name": "6e131d4d978910b18f33a0cc0108f509"}, {"fusion_lat": 0.0, "is_reserved": 0, "is_disabled": 0, "rental_uris": {"android": "https://dc.lft.to/lastmile_qr_scan", "ios": "https://dc.lft.to/lastmile_qr_scan"}, "fusion_lon": 0.0, "lat": 38.915778333333336, "lon": -77.03176666666667, "type": "electric_scooter", "bike_id": "dfd678cddf913200c2833a623f99880b", "name": "dfd678cddf913200c2833a623f99880b"}, {"fusion_lat": 0.0, "is_reserved": 0, "is_disabled": 0, "rental_uris": {"android": "https://dc.lft.to/lastmile_qr_scan", "ios": "https://dc.lft.to/lastmile_qr_scan"}, "fusion_lon": 0.0, "lat": 38.921524833333336, "lon": -77.04216433333333, "type": "electric_scooter", "bike_id": "caff105dd37bbeb2a9eb07eced65e77c", "name": "caff105dd37bbeb2a9eb07eced65e77c"}, {"fusion_lat": 0.0, "is_reserved": 0, "is_disabled": 0, "rental_uris": {"android": "https://dc.lft.to/lastmile_qr_scan", "ios": "https://dc.lft.to/lastmile_qr_scan"}, "fusion_lon": 0.0, "lat": 38.918909166666666, "lon": -77.03905733333333, "type": "electric_scooter", "bike_id": "e181a9180f6c88f3d7a64f6bd27f02ef", "name": "e181a9180f6c88f3d7a64f6bd27f02ef"}, {"fusion_lat": 0.0, "is_reserved": 0, "is_disabled": 0, "rental_uris": {"android": "https://dc.lft.to/lastmile_qr_scan", "ios": "https://dc.lft.to/lastmile_qr_scan"}, "fusion_lon": 0.0, "lat": 38.90173683333333, "lon": -77.01937516666666, "type": "electric_scooter", "bike_id": "828481a4c53b5aa1bec5284fce42a88d", "name": "828481a4c53b5aa1bec5284fce42a88d"}, {"fusion_lat": 0.0, "is_reserved": 0, "is_disabled": 0, "rental_uris": {"android": "https://dc.lft.to/lastmile_qr_scan", "ios": "https://dc.lft.to/lastmile_qr_scan"}, "fusion_lon": 0.0, "lat": 38.92137483333333, "lon": -77.04342666666666, "type": "electric_scooter", "bike_id": "4634c11cc8a6cd0791e329d992c5ad60", "name": "4634c11cc8a6cd0791e329d992c5ad60"}, {"fusion_lat": 0.0, "is_reserved": 0, "is_disabled": 0, "rental_uris": {"android": "https://dc.lft.to/lastmile_qr_scan", "ios": "https://dc.lft.to/lastmile_qr_scan"}, "fusion_lon": 0.0, "lat": 38.89973783333333, "lon": -77.02483966666667, "type": "electric_scooter", "bike_id": "e878560786fc2fa02b63194d29a535fa", "name": "e878560786fc2fa02b63194d29a535fa"}, {"fusion_lat": 0.0, "is_reserved": 0, "is_disabled": 0, "rental_uris": {"android": "https://dc.lft.to/lastmile_qr_scan", "ios": "https://dc.lft.to/lastmile_qr_scan"}, "fusion_lon": 0.0, "lat": 38.887466333333336, "lon": -77.02174833333333, "type": "electric_scooter", "bike_id": "ddf1f7635d89977945b431c2c4d1fd42", "name": "ddf1f7635d89977945b431c2c4d1fd42"}, {"fusion_lat": 0.0, "is_reserved": 0, "is_disabled": 0, "rental_uris": {"android": "https://dc.lft.to/lastmile_qr_scan", "ios": "https://dc.lft.to/lastmile_qr_scan"}, "fusion_lon": 0.0, "lat": 38.896251, "lon": -76.95587316666666, "type": "electric_scooter", "bike_id": "c548a62a6ce329669407c849f6e2fd9d", "name": "c548a62a6ce329669407c849f6e2fd9d"}, {"fusion_lat": 0.0, "is_reserved": 0, "is_disabled": 0, "rental_uris": {"android": "https://dc.lft.to/lastmile_qr_scan", "ios": "https://dc.lft.to/lastmile_qr_scan"}, "fusion_lon": 0.0, "lat": 38.937323, "lon": -77.03257133333334, "type": "electric_scooter", "bike_id": "cba163d27178529f5778e06e141af6f7", "name": "cba163d27178529f5778e06e141af6f7"}, {"fusion_lat": 0.0, "is_reserved": 0, "is_disabled": 0, "rental_uris": {"android": "https://dc.lft.to/lastmile_qr_scan", "ios": "https://dc.lft.to/lastmile_qr_scan"}, "fusion_lon": 0.0, "lat": 38.9022465, "lon": -77.04691066666666, "type": "electric_scooter", "bike_id": "b237f3edd32802110e633fed27b5c677", "name": "b237f3edd32802110e633fed27b5c677"}, {"fusion_lat": 0.0, "is_reserved": 0, "is_disabled": 0, "rental_uris": {"android": "https://dc.lft.to/lastmile_qr_scan", "ios": "https://dc.lft.to/lastmile_qr_scan"}, "fusion_lon": 0.0, "lat": 38.920131, "lon": -77.0476185, "type": "electric_scooter", "bike_id": "ff5226403d96f874629e714c810e9d10", "name": "ff5226403d96f874629e714c810e9d10"}, {"fusion_lat": 0.0, "is_reserved": 0, "is_disabled": 0, "rental_uris": {"android": "https://dc.lft.to/lastmile_qr_scan", "ios": "https://dc.lft.to/lastmile_qr_scan"}, "fusion_lon": 0.0, "lat": 38.90444183333334, "lon": -77.04163283333334, "type": "electric_scooter", "bike_id": "8f9334ae83174d7f1a86615387af2e40", "name": "8f9334ae83174d7f1a86615387af2e40"}, {"fusion_lat": 0.0, "is_reserved": 0, "is_disabled": 0, "rental_uris": {"android": "https://dc.lft.to/lastmile_qr_scan", "ios": "https://dc.lft.to/lastmile_qr_scan"}, "fusion_lon": 0.0, "lat": 38.917636333333334, "lon": -77.02383033333334, "type": "electric_scooter", "bike_id": "fe03f453913eb4dc6b446d2025f3e9ce", "name": "fe03f453913eb4dc6b446d2025f3e9ce"}, {"fusion_lat": 0.0, "is_reserved": 0, "is_disabled": 0, "rental_uris": {"android": "https://dc.lft.to/lastmile_qr_scan", "ios": "https://dc.lft.to/lastmile_qr_scan"}, "fusion_lon": 0.0, "lat": 38.9359865, "lon": -77.05877166666667, "type": "electric_scooter", "bike_id": "0c90677877be2e121df5dcbe97511c14", "name": "0c90677877be2e121df5dcbe97511c14"}, {"fusion_lat": 0.0, "is_reserved": 0, "is_disabled": 0, "rental_uris": {"android": "https://dc.lft.to/lastmile_qr_scan", "ios": "https://dc.lft.to/lastmile_qr_scan"}, "fusion_lon": 0.0, "lat": 38.914634166666666, "lon": -77.03189666666667, "type": "electric_scooter", "bike_id": "0ad7f480fc4658ac272923e6105d0046", "name": "0ad7f480fc4658ac272923e6105d0046"}, {"fusion_lat": 0.0, "is_reserved": 0, "is_disabled": 0, "rental_uris": {"android": "https://dc.lft.to/lastmile_qr_scan", "ios": "https://dc.lft.to/lastmile_qr_scan"}, "fusion_lon": 0.0, "lat": 38.91419533333333, "lon": -77.030662, "type": "electric_scooter", "bike_id": "be0e8a5e23466f577a9b16c3a50912b9", "name": "be0e8a5e23466f577a9b16c3a50912b9"}, {"fusion_lat": 0.0, "is_reserved": 0, "is_disabled": 0, "rental_uris": {"android": "https://dc.lft.to/lastmile_qr_scan", "ios": "https://dc.lft.to/lastmile_qr_scan"}, "fusion_lon": 0.0, "lat": 38.91820033333333, "lon": -77.00471883333333, "type": "electric_scooter", "bike_id": "e8a8ec31cf596d5a2ee1cc516bc83f1a", "name": "e8a8ec31cf596d5a2ee1cc516bc83f1a"}, {"fusion_lat": 0.0, "is_reserved": 0, "is_disabled": 0, "rental_uris": {"android": "https://dc.lft.to/lastmile_qr_scan", "ios": "https://dc.lft.to/lastmile_qr_scan"}, "fusion_lon": 0.0, "lat": 38.875345833333334, "lon": -77.00507333333333, "type": "electric_scooter", "bike_id": "837b4197d1ff62b2584d92c40573c3f2", "name": "837b4197d1ff62b2584d92c40573c3f2"}, {"fusion_lat": 0.0, "is_reserved": 0, "is_disabled": 0, "rental_uris": {"android": "https://dc.lft.to/lastmile_qr_scan", "ios": "https://dc.lft.to/lastmile_qr_scan"}, "fusion_lon": 0.0, "lat": 38.884952166666665, "lon": -77.005984, "type": "electric_bike", "bike_id": "8afe30f5388cdf6d0536b7b8705fafad", "name": "8afe30f5388cdf6d0536b7b8705fafad"}, {"fusion_lat": 0.0, "is_reserved": 0, "is_disabled": 0, "rental_uris": {"android": "https://dc.lft.to/lastmile_qr_scan", "ios": "https://dc.lft.to/lastmile_qr_scan"}, "fusion_lon": 0.0, "lat": 38.895007666666665, "lon": -77.002219, "type": "electric_scooter", "bike_id": "eddbf2422320cc5f64ddb24675afc828", "name": "eddbf2422320cc5f64ddb24675afc828"}, {"fusion_lat": 0.0, "is_reserved": 0, "is_disabled": 0, "rental_uris": {"android": "https://dc.lft.to/lastmile_qr_scan", "ios": "https://dc.lft.to/lastmile_qr_scan"}, "fusion_lon": 0.0, "lat": 38.924294833333335, "lon": -77.0520465, "type": "electric_scooter", "bike_id": "253c5d2ecaa18997882bd3fd61cc66b1", "name": "253c5d2ecaa18997882bd3fd61cc66b1"}, {"fusion_lat": 0.0, "is_reserved": 0, "is_disabled": 0, "rental_uris": {"android": "https://dc.lft.to/lastmile_qr_scan", "ios": "https://dc.lft.to/lastmile_qr_scan"}, "fusion_lon": 0.0, "lat": 38.9203405, "lon": -77.03145716666667, "type": "electric_scooter", "bike_id": "0914f51282102c98edd8260e8bcd4ea9", "name": "0914f51282102c98edd8260e8bcd4ea9"}, {"fusion_lat": 0.0, "is_reserved": 0, "is_disabled": 0, "rental_uris": {"android": "https://dc.lft.to/lastmile_qr_scan", "ios": "https://dc.lft.to/lastmile_qr_scan"}, "fusion_lon": 0.0, "lat": 38.898571, "lon": -77.02284433333334, "type": "electric_scooter", "bike_id": "5e0cb6bb9ec5e9b4b166405f0b3e02a6", "name": "5e0cb6bb9ec5e9b4b166405f0b3e02a6"}, {"fusion_lat": 0.0, "is_reserved": 0, "is_disabled": 0, "rental_uris": {"android": "https://dc.lft.to/lastmile_qr_scan", "ios": "https://dc.lft.to/lastmile_qr_scan"}, "fusion_lon": 0.0, "lat": 38.89804516666667, "lon": -77.03289833333334, "type": "electric_scooter", "bike_id": "b39ed3ebf271c9276932e12c12caa1d3", "name": "b39ed3ebf271c9276932e12c12caa1d3"}, {"fusion_lat": 0.0, "is_reserved": 0, "is_disabled": 0, "rental_uris": {"android": "https://dc.lft.to/lastmile_qr_scan", "ios": "https://dc.lft.to/lastmile_qr_scan"}, "fusion_lon": 0.0, "lat": 38.85792, "lon": -76.9874145, "type": "electric_bike", "bike_id": "6420ae8d26b618866ca219bbcfaf7571", "name": "6420ae8d26b618866ca219bbcfaf7571"}, {"fusion_lat": 0.0, "is_reserved": 0, "is_disabled": 0, "rental_uris": {"android": "https://dc.lft.to/lastmile_qr_scan", "ios": "https://dc.lft.to/lastmile_qr_scan"}, "fusion_lon": 0.0, "lat": 38.88742833333333, "lon": -77.02167683333333, "type": "electric_scooter", "bike_id": "10afb92b13f85e717038f58ae4b58c4d", "name": "10afb92b13f85e717038f58ae4b58c4d"}, {"fusion_lat": 0.0, "is_reserved": 0, "is_disabled": 0, "rental_uris": {"android": "https://dc.lft.to/lastmile_qr_scan", "ios": "https://dc.lft.to/lastmile_qr_scan"}, "fusion_lon": 0.0, "lat": 38.9192135, "lon": -77.03385083333333, "type": "electric_scooter", "bike_id": "0524bfc8f897839369686412127cb9b0", "name": "0524bfc8f897839369686412127cb9b0"}, {"fusion_lat": 0.0, "is_reserved": 0, "is_disabled": 0, "rental_uris": {"android": "https://dc.lft.to/lastmile_qr_scan", "ios": "https://dc.lft.to/lastmile_qr_scan"}, "fusion_lon": 0.0, "lat": 38.905218166666664, "lon": -77.00574016666667, "type": "electric_scooter", "bike_id": "31cb7907579b97210b3382374071711e", "name": "31cb7907579b97210b3382374071711e"}, {"fusion_lat": 0.0, "is_reserved": 0, "is_disabled": 0, "rental_uris": {"android": "https://dc.lft.to/lastmile_qr_scan", "ios": "https://dc.lft.to/lastmile_qr_scan"}, "fusion_lon": 0.0, "lat": 38.92657966666667, "lon": -77.03732116666667, "type": "electric_scooter", "bike_id": "0daefbf69ea0929be05f4b47693d8f70", "name": "0daefbf69ea0929be05f4b47693d8f70"}, {"fusion_lat": 0.0, "is_reserved": 0, "is_disabled": 0, "rental_uris": {"android": "https://dc.lft.to/lastmile_qr_scan", "ios": "https://dc.lft.to/lastmile_qr_scan"}, "fusion_lon": 0.0, "lat": 38.92172016666667, "lon": -77.03235533333333, "type": "electric_scooter", "bike_id": "1533bdcbe135f96d0c6e7c0b6431ed81", "name": "1533bdcbe135f96d0c6e7c0b6431ed81"}, {"fusion_lat": 0.0, "is_reserved": 0, "is_disabled": 0, "rental_uris": {"android": "https://dc.lft.to/lastmile_qr_scan", "ios": "https://dc.lft.to/lastmile_qr_scan"}, "fusion_lon": 0.0, "lat": 38.923769166666666, "lon": -77.019154, "type": "electric_scooter", "bike_id": "269d2291acc13d94b8de89db2d4ebac8", "name": "269d2291acc13d94b8de89db2d4ebac8"}, {"fusion_lat": 0.0, "is_reserved": 0, "is_disabled": 0, "rental_uris": {"android": "https://dc.lft.to/lastmile_qr_scan", "ios": "https://dc.lft.to/lastmile_qr_scan"}, "fusion_lon": 0.0, "lat": 38.85563416666667, "lon": -76.99490916666667, "type": "electric_scooter", "bike_id": "55519b791acba897ef1da0699ba7eb26", "name": "55519b791acba897ef1da0699ba7eb26"}, {"fusion_lat": 0.0, "is_reserved": 0, "is_disabled": 0, "rental_uris": {"android": "https://dc.lft.to/lastmile_qr_scan", "ios": "https://dc.lft.to/lastmile_qr_scan"}, "fusion_lon": 0.0, "lat": 38.902917333333335, "lon": -77.04019733333334, "type": "electric_scooter", "bike_id": "007dd993ff74268dfbbcbda6ce713c07", "name": "007dd993ff74268dfbbcbda6ce713c07"}, {"fusion_lat": 0.0, "is_reserved": 0, "is_disabled": 0, "rental_uris": {"android": "https://dc.lft.to/lastmile_qr_scan", "ios": "https://dc.lft.to/lastmile_qr_scan"}, "fusion_lon": 0.0, "lat": 38.94448916666666, "lon": -77.02337983333334, "type": "electric_scooter", "bike_id": "4445db6987ecf74b4272992fd04239ff", "name": "4445db6987ecf74b4272992fd04239ff"}, {"fusion_lat": 0.0, "is_reserved": 0, "is_disabled": 0, "rental_uris": {"android": "https://dc.lft.to/lastmile_qr_scan", "ios": "https://dc.lft.to/lastmile_qr_scan"}, "fusion_lon": 0.0, "lat": 38.90545683333333, "lon": -77.042283, "type": "electric_scooter", "bike_id": "7ebf75066767969624d1a8c4afcce083", "name": "7ebf75066767969624d1a8c4afcce083"}, {"fusion_lat": 0.0, "is_reserved": 0, "is_disabled": 0, "rental_uris": {"android": "https://dc.lft.to/lastmile_qr_scan", "ios": "https://dc.lft.to/lastmile_qr_scan"}, "fusion_lon": 0.0, "lat": 38.887453666666666, "lon": -77.02069266666666, "type": "electric_scooter", "bike_id": "70274d72cd512c54a60fb90c40faba41", "name": "70274d72cd512c54a60fb90c40faba41"}, {"fusion_lat": 0.0, "is_reserved": 0, "is_disabled": 0, "rental_uris": {"android": "https://dc.lft.to/lastmile_qr_scan", "ios": "https://dc.lft.to/lastmile_qr_scan"}, "fusion_lon": 0.0, "lat": 38.94762433333333, "lon": -77.065607, "type": "electric_scooter", "bike_id": "35b40428f19b341d783824c8b499e728", "name": "35b40428f19b341d783824c8b499e728"}, {"fusion_lat": 0.0, "is_reserved": 0, "is_disabled": 0, "rental_uris": {"android": "https://dc.lft.to/lastmile_qr_scan", "ios": "https://dc.lft.to/lastmile_qr_scan"}, "fusion_lon": 0.0, "lat": 38.9202965, "lon": -77.0407025, "type": "electric_scooter", "bike_id": "9516d893787a192b0ea127cddeb656f2", "name": "9516d893787a192b0ea127cddeb656f2"}, {"fusion_lat": 0.0, "is_reserved": 0, "is_disabled": 0, "rental_uris": {"android": "https://dc.lft.to/lastmile_qr_scan", "ios": "https://dc.lft.to/lastmile_qr_scan"}, "fusion_lon": 0.0, "lat": 38.92065516666667, "lon": -77.02193266666667, "type": "electric_scooter", "bike_id": "a9711676f0b1420febb6895044c5b934", "name": "a9711676f0b1420febb6895044c5b934"}, {"fusion_lat": 0.0, "is_reserved": 0, "is_disabled": 0, "rental_uris": {"android": "https://dc.lft.to/lastmile_qr_scan", "ios": "https://dc.lft.to/lastmile_qr_scan"}, "fusion_lon": 0.0, "lat": 38.90564783333333, "lon": -77.04575433333333, "type": "electric_scooter", "bike_id": "e206ff6db6f96aade9b8c71b5b54dc7d", "name": "e206ff6db6f96aade9b8c71b5b54dc7d"}, {"fusion_lat": 0.0, "is_reserved": 0, "is_disabled": 0, "rental_uris": {"android": "https://dc.lft.to/lastmile_qr_scan", "ios": "https://dc.lft.to/lastmile_qr_scan"}, "fusion_lon": 0.0, "lat": 38.917832833333335, "lon": -77.03571433333333, "type": "electric_scooter", "bike_id": "0b8acae45008f6e487675d0cf6a82c17", "name": "0b8acae45008f6e487675d0cf6a82c17"}, {"fusion_lat": 0.0, "is_reserved": 0, "is_disabled": 0, "rental_uris": {"android": "https://dc.lft.to/lastmile_qr_scan", "ios": "https://dc.lft.to/lastmile_qr_scan"}, "fusion_lon": 0.0, "lat": 38.917033333333336, "lon": -77.03111233333334, "type": "electric_scooter", "bike_id": "73e54ab992e95939e6b39435d919833f", "name": "73e54ab992e95939e6b39435d919833f"}, {"fusion_lat": 0.0, "is_reserved": 0, "is_disabled": 0, "rental_uris": {"android": "https://dc.lft.to/lastmile_qr_scan", "ios": "https://dc.lft.to/lastmile_qr_scan"}, "fusion_lon": 0.0, "lat": 38.917295, "lon": -77.0416415, "type": "electric_scooter", "bike_id": "2c830bc17c7709da2765c609f4ace8ee", "name": "2c830bc17c7709da2765c609f4ace8ee"}, {"fusion_lat": 0.0, "is_reserved": 0, "is_disabled": 0, "rental_uris": {"android": "https://dc.lft.to/lastmile_qr_scan", "ios": "https://dc.lft.to/lastmile_qr_scan"}, "fusion_lon": 0.0, "lat": 38.90702016666667, "lon": -77.03433, "type": "electric_scooter", "bike_id": "551d1897653519e57a8ace0ec4ce181a", "name": "551d1897653519e57a8ace0ec4ce181a"}, {"fusion_lat": 0.0, "is_reserved": 0, "is_disabled": 0, "rental_uris": {"android": "https://dc.lft.to/lastmile_qr_scan", "ios": "https://dc.lft.to/lastmile_qr_scan"}, "fusion_lon": 0.0, "lat": 38.9121875, "lon": -77.07589233333333, "type": "electric_scooter", "bike_id": "2cdffeea8d0eb30816758c6318ad4f9a", "name": "2cdffeea8d0eb30816758c6318ad4f9a"}, {"fusion_lat": 0.0, "is_reserved": 0, "is_disabled": 0, "rental_uris": {"android": "https://dc.lft.to/lastmile_qr_scan", "ios": "https://dc.lft.to/lastmile_qr_scan"}, "fusion_lon": 0.0, "lat": 38.91678, "lon": -77.02953133333334, "type": "electric_scooter", "bike_id": "1ed97b12fae847fd734b94d54ce1d1fa", "name": "1ed97b12fae847fd734b94d54ce1d1fa"}, {"fusion_lat": 0.0, "is_reserved": 0, "is_disabled": 0, "rental_uris": {"android": "https://dc.lft.to/lastmile_qr_scan", "ios": "https://dc.lft.to/lastmile_qr_scan"}, "fusion_lon": 0.0, "lat": 38.90519283333333, "lon": -77.06382983333333, "type": "electric_scooter", "bike_id": "3be9653ae2f3ed585dd0df85d40c269e", "name": "3be9653ae2f3ed585dd0df85d40c269e"}, {"fusion_lat": 0.0, "is_reserved": 0, "is_disabled": 0, "rental_uris": {"android": "https://dc.lft.to/lastmile_qr_scan", "ios": "https://dc.lft.to/lastmile_qr_scan"}, "fusion_lon": 0.0, "lat": 38.911427333333336, "lon": -77.01980166666667, "type": "electric_scooter", "bike_id": "f95ad26ae60de4324d9756ab73e55b1a", "name": "f95ad26ae60de4324d9756ab73e55b1a"}, {"fusion_lat": 0.0, "is_reserved": 0, "is_disabled": 0, "rental_uris": {"android": "https://dc.lft.to/lastmile_qr_scan", "ios": "https://dc.lft.to/lastmile_qr_scan"}, "fusion_lon": 0.0, "lat": 38.89632483333333, "lon": -77.0449075, "type": "electric_scooter", "bike_id": "881a610451b58aa371dea3641d62a5ac", "name": "881a610451b58aa371dea3641d62a5ac"}, {"fusion_lat": 0.0, "is_reserved": 0, "is_disabled": 0, "rental_uris": {"android": "https://dc.lft.to/lastmile_qr_scan", "ios": "https://dc.lft.to/lastmile_qr_scan"}, "fusion_lon": 0.0, "lat": 38.9170755, "lon": -77.026592, "type": "electric_scooter", "bike_id": "02a7a2ca0c3f24f27b55583aec55e01d", "name": "02a7a2ca0c3f24f27b55583aec55e01d"}, {"fusion_lat": 0.0, "is_reserved": 0, "is_disabled": 0, "rental_uris": {"android": "https://dc.lft.to/lastmile_qr_scan", "ios": "https://dc.lft.to/lastmile_qr_scan"}, "fusion_lon": 0.0, "lat": 39.052007833333334, "lon": -77.10916866666666, "type": "electric_bike", "bike_id": "43bb6886fe7112959c85715cc0093f4d", "name": "43bb6886fe7112959c85715cc0093f4d"}, {"fusion_lat": 0.0, "is_reserved": 0, "is_disabled": 0, "rental_uris": {"android": "https://dc.lft.to/lastmile_qr_scan", "ios": "https://dc.lft.to/lastmile_qr_scan"}, "fusion_lon": 0.0, "lat": 38.91564566666667, "lon": -77.00954816666666, "type": "electric_scooter", "bike_id": "fe9dedd6aa3128c8f82f1bdc1c9a9ae5", "name": "fe9dedd6aa3128c8f82f1bdc1c9a9ae5"}, {"fusion_lat": 0.0, "is_reserved": 0, "is_disabled": 0, "rental_uris": {"android": "https://dc.lft.to/lastmile_qr_scan", "ios": "https://dc.lft.to/lastmile_qr_scan"}, "fusion_lon": 0.0, "lat": 38.90786716666667, "lon": -77.03862366666667, "type": "electric_scooter", "bike_id": "6a2364be39b6e8b61e6742ed88b03f7a", "name": "6a2364be39b6e8b61e6742ed88b03f7a"}, {"fusion_lat": 0.0, "is_reserved": 0, "is_disabled": 0, "rental_uris": {"android": "https://dc.lft.to/lastmile_qr_scan", "ios": "https://dc.lft.to/lastmile_qr_scan"}, "fusion_lon": 0.0, "lat": 38.970932, "lon": -77.0696885, "type": "electric_bike", "bike_id": "446f02c103c2197335c3b34f4ead229b", "name": "446f02c103c2197335c3b34f4ead229b"}, {"fusion_lat": 0.0, "is_reserved": 0, "is_disabled": 0, "rental_uris": {"android": "https://dc.lft.to/lastmile_qr_scan", "ios": "https://dc.lft.to/lastmile_qr_scan"}, "fusion_lon": 0.0, "lat": 38.867059, "lon": -76.9895285, "type": "electric_bike", "bike_id": "f5b827a5a5b6b74561378929bf251931", "name": "f5b827a5a5b6b74561378929bf251931"}, {"fusion_lat": 0.0, "is_reserved": 0, "is_disabled": 0, "rental_uris": {"android": "https://dc.lft.to/lastmile_qr_scan", "ios": "https://dc.lft.to/lastmile_qr_scan"}, "fusion_lon": 0.0, "lat": 38.9156315, "lon": -77.0486675, "type": "electric_scooter", "bike_id": "30568d50b71d8bcdebe1c17aaeee6eda", "name": "30568d50b71d8bcdebe1c17aaeee6eda"}, {"fusion_lat": 0.0, "is_reserved": 0, "is_disabled": 0, "rental_uris": {"android": "https://dc.lft.to/lastmile_qr_scan", "ios": "https://dc.lft.to/lastmile_qr_scan"}, "fusion_lon": 0.0, "lat": 38.898793833333336, "lon": -76.9318895, "type": "electric_scooter", "bike_id": "4b47dcd86737c1a2bf333eb041e96a60", "name": "4b47dcd86737c1a2bf333eb041e96a60"}, {"fusion_lat": 0.0, "is_reserved": 0, "is_disabled": 0, "rental_uris": {"android": "https://dc.lft.to/lastmile_qr_scan", "ios": "https://dc.lft.to/lastmile_qr_scan"}, "fusion_lon": 0.0, "lat": 38.92242066666667, "lon": -77.0298395, "type": "electric_scooter", "bike_id": "ef06e5babcffd8a85e992437c03d7f4b", "name": "ef06e5babcffd8a85e992437c03d7f4b"}, {"fusion_lat": 0.0, "is_reserved": 0, "is_disabled": 0, "rental_uris": {"android": "https://dc.lft.to/lastmile_qr_scan", "ios": "https://dc.lft.to/lastmile_qr_scan"}, "fusion_lon": 0.0, "lat": 38.9258775, "lon": -77.00480566666667, "type": "electric_scooter", "bike_id": "3e45eddbfcbf9dd19dc6adb155d53b35", "name": "3e45eddbfcbf9dd19dc6adb155d53b35"}, {"fusion_lat": 0.0, "is_reserved": 0, "is_disabled": 0, "rental_uris": {"android": "https://dc.lft.to/lastmile_qr_scan", "ios": "https://dc.lft.to/lastmile_qr_scan"}, "fusion_lon": 0.0, "lat": 38.9031325, "lon": -76.9779845, "type": "electric_scooter", "bike_id": "172aa760577a328736c3adbfd915c72f", "name": "172aa760577a328736c3adbfd915c72f"}, {"fusion_lat": 0.0, "is_reserved": 0, "is_disabled": 0, "rental_uris": {"android": "https://dc.lft.to/lastmile_qr_scan", "ios": "https://dc.lft.to/lastmile_qr_scan"}, "fusion_lon": 0.0, "lat": 38.92196366666667, "lon": -77.04235183333333, "type": "electric_scooter", "bike_id": "5c0baad07c627b32f4dce18f47ce90ca", "name": "5c0baad07c627b32f4dce18f47ce90ca"}, {"fusion_lat": 0.0, "is_reserved": 0, "is_disabled": 0, "rental_uris": {"android": "https://dc.lft.to/lastmile_qr_scan", "ios": "https://dc.lft.to/lastmile_qr_scan"}, "fusion_lon": 0.0, "lat": 38.898922166666665, "lon": -77.03997416666667, "type": "electric_scooter", "bike_id": "729f9ce3760ca7a9982820d5650647b6", "name": "729f9ce3760ca7a9982820d5650647b6"}, {"fusion_lat": 0.0, "is_reserved": 0, "is_disabled": 0, "rental_uris": {"android": "https://dc.lft.to/lastmile_qr_scan", "ios": "https://dc.lft.to/lastmile_qr_scan"}, "fusion_lon": 0.0, "lat": 38.91933383333333, "lon": -77.02505283333333, "type": "electric_scooter", "bike_id": "781c2d5b3c3b46f81549945b2658f822", "name": "781c2d5b3c3b46f81549945b2658f822"}, {"fusion_lat": 0.0, "is_reserved": 0, "is_disabled": 0, "rental_uris": {"android": "https://dc.lft.to/lastmile_qr_scan", "ios": "https://dc.lft.to/lastmile_qr_scan"}, "fusion_lon": 0.0, "lat": 38.89450166666666, "lon": -77.01096966666667, "type": "electric_scooter", "bike_id": "5c8c8e623035dbe5961e9dcc7db5b2d2", "name": "5c8c8e623035dbe5961e9dcc7db5b2d2"}, {"fusion_lat": 0.0, "is_reserved": 0, "is_disabled": 0, "rental_uris": {"android": "https://dc.lft.to/lastmile_qr_scan", "ios": "https://dc.lft.to/lastmile_qr_scan"}, "fusion_lon": 0.0, "lat": 38.885073, "lon": -77.01558516666667, "type": "electric_scooter", "bike_id": "09f4b512041d586f93fdf6d2b9dca61f", "name": "09f4b512041d586f93fdf6d2b9dca61f"}, {"fusion_lat": 0.0, "is_reserved": 0, "is_disabled": 0, "rental_uris": {"android": "https://dc.lft.to/lastmile_qr_scan", "ios": "https://dc.lft.to/lastmile_qr_scan"}, "fusion_lon": 0.0, "lat": 38.917016833333335, "lon": -77.02378833333333, "type": "electric_scooter", "bike_id": "fe7936e31248d083a47d5202378865d9", "name": "fe7936e31248d083a47d5202378865d9"}, {"fusion_lat": 0.0, "is_reserved": 0, "is_disabled": 0, "rental_uris": {"android": "https://dc.lft.to/lastmile_qr_scan", "ios": "https://dc.lft.to/lastmile_qr_scan"}, "fusion_lon": 0.0, "lat": 38.90167683333333, "lon": -76.9807595, "type": "electric_scooter", "bike_id": "d50de8b587b4ce5a7cfc8615eec254b7", "name": "d50de8b587b4ce5a7cfc8615eec254b7"}, {"fusion_lat": 0.0, "is_reserved": 0, "is_disabled": 0, "rental_uris": {"android": "https://dc.lft.to/lastmile_qr_scan", "ios": "https://dc.lft.to/lastmile_qr_scan"}, "fusion_lon": 0.0, "lat": 38.89992083333333, "lon": -77.02674716666667, "type": "electric_scooter", "bike_id": "65fca579558ce9a9fbab2e6f95a4eaee", "name": "65fca579558ce9a9fbab2e6f95a4eaee"}, {"fusion_lat": 0.0, "is_reserved": 0, "is_disabled": 0, "rental_uris": {"android": "https://dc.lft.to/lastmile_qr_scan", "ios": "https://dc.lft.to/lastmile_qr_scan"}, "fusion_lon": 0.0, "lat": 38.92597933333333, "lon": -77.03223083333333, "type": "electric_scooter", "bike_id": "37ab88a28add9a877b7933b4fd974a1d", "name": "37ab88a28add9a877b7933b4fd974a1d"}, {"fusion_lat": 0.0, "is_reserved": 0, "is_disabled": 0, "rental_uris": {"android": "https://dc.lft.to/lastmile_qr_scan", "ios": "https://dc.lft.to/lastmile_qr_scan"}, "fusion_lon": 0.0, "lat": 38.905639666666666, "lon": -77.0048345, "type": "electric_scooter", "bike_id": "f89c4b877ad815f6c359a09a3f443500", "name": "f89c4b877ad815f6c359a09a3f443500"}, {"fusion_lat": 0.0, "is_reserved": 0, "is_disabled": 0, "rental_uris": {"android": "https://dc.lft.to/lastmile_qr_scan", "ios": "https://dc.lft.to/lastmile_qr_scan"}, "fusion_lon": 0.0, "lat": 38.88085733333333, "lon": -76.927297, "type": "electric_scooter", "bike_id": "0a0c51950d2256335ad51e0145858c2f", "name": "0a0c51950d2256335ad51e0145858c2f"}, {"fusion_lat": 0.0, "is_reserved": 0, "is_disabled": 0, "rental_uris": {"android": "https://dc.lft.to/lastmile_qr_scan", "ios": "https://dc.lft.to/lastmile_qr_scan"}, "fusion_lon": 0.0, "lat": 38.920118, "lon": -77.03223683333333, "type": "electric_scooter", "bike_id": "ce65cfd132b83418781862fe6692d31a", "name": "ce65cfd132b83418781862fe6692d31a"}, {"fusion_lat": 0.0, "is_reserved": 0, "is_disabled": 0, "rental_uris": {"android": "https://dc.lft.to/lastmile_qr_scan", "ios": "https://dc.lft.to/lastmile_qr_scan"}, "fusion_lon": 0.0, "lat": 38.8765035, "lon": -77.00045666666666, "type": "electric_scooter", "bike_id": "b8f0b8fc44b015aa5196eab746fbff85", "name": "b8f0b8fc44b015aa5196eab746fbff85"}, {"fusion_lat": 0.0, "is_reserved": 0, "is_disabled": 0, "rental_uris": {"android": "https://dc.lft.to/lastmile_qr_scan", "ios": "https://dc.lft.to/lastmile_qr_scan"}, "fusion_lon": 0.0, "lat": 38.839324833333336, "lon": -77.078948, "type": "electric_bike", "bike_id": "b372d6108c86cd953aa8626e8b8249c1", "name": "b372d6108c86cd953aa8626e8b8249c1"}, {"fusion_lat": 0.0, "is_reserved": 0, "is_disabled": 0, "rental_uris": {"android": "https://dc.lft.to/lastmile_qr_scan", "ios": "https://dc.lft.to/lastmile_qr_scan"}, "fusion_lon": 0.0, "lat": 38.917122666666664, "lon": -77.02498916666667, "type": "electric_scooter", "bike_id": "a438c5e06191b650f76a06300560af00", "name": "a438c5e06191b650f76a06300560af00"}, {"fusion_lat": 0.0, "is_reserved": 0, "is_disabled": 0, "rental_uris": {"android": "https://dc.lft.to/lastmile_qr_scan", "ios": "https://dc.lft.to/lastmile_qr_scan"}, "fusion_lon": 0.0, "lat": 38.89369716666667, "lon": -76.94987316666666, "type": "electric_scooter", "bike_id": "9d4d70f025abcff094b0f848b03bf0ca", "name": "9d4d70f025abcff094b0f848b03bf0ca"}, {"fusion_lat": 0.0, "is_reserved": 0, "is_disabled": 0, "rental_uris": {"android": "https://dc.lft.to/lastmile_qr_scan", "ios": "https://dc.lft.to/lastmile_qr_scan"}, "fusion_lon": 0.0, "lat": 38.88889283333334, "lon": -77.079449, "type": "electric_bike", "bike_id": "7935dda4cd5b14c36c6cea64f0229782", "name": "7935dda4cd5b14c36c6cea64f0229782"}, {"fusion_lat": 0.0, "is_reserved": 0, "is_disabled": 0, "rental_uris": {"android": "https://dc.lft.to/lastmile_qr_scan", "ios": "https://dc.lft.to/lastmile_qr_scan"}, "fusion_lon": 0.0, "lat": 38.92060716666667, "lon": -77.02364866666667, "type": "electric_scooter", "bike_id": "c158cf422b88e65cf15de1a73b2c7363", "name": "c158cf422b88e65cf15de1a73b2c7363"}, {"fusion_lat": 0.0, "is_reserved": 0, "is_disabled": 0, "rental_uris": {"android": "https://dc.lft.to/lastmile_qr_scan", "ios": "https://dc.lft.to/lastmile_qr_scan"}, "fusion_lon": 0.0, "lat": 38.9006885, "lon": -77.02808183333333, "type": "electric_scooter", "bike_id": "fdc5d35fca7ebe46e1c56fbc95dd172c", "name": "fdc5d35fca7ebe46e1c56fbc95dd172c"}, {"fusion_lat": 0.0, "is_reserved": 0, "is_disabled": 0, "rental_uris": {"android": "https://dc.lft.to/lastmile_qr_scan", "ios": "https://dc.lft.to/lastmile_qr_scan"}, "fusion_lon": 0.0, "lat": 38.925031833333335, "lon": -77.00889983333333, "type": "electric_scooter", "bike_id": "b6fb9df82c3ba9c22faa273bca049f03", "name": "b6fb9df82c3ba9c22faa273bca049f03"}, {"fusion_lat": 0.0, "is_reserved": 0, "is_disabled": 0, "rental_uris": {"android": "https://dc.lft.to/lastmile_qr_scan", "ios": "https://dc.lft.to/lastmile_qr_scan"}, "fusion_lon": 0.0, "lat": 38.90505433333333, "lon": -77.043278, "type": "electric_scooter", "bike_id": "a3b19bef345911e46a458d72ab017ec9", "name": "a3b19bef345911e46a458d72ab017ec9"}, {"fusion_lat": 0.0, "is_reserved": 0, "is_disabled": 0, "rental_uris": {"android": "https://dc.lft.to/lastmile_qr_scan", "ios": "https://dc.lft.to/lastmile_qr_scan"}, "fusion_lon": 0.0, "lat": 38.9155015, "lon": -77.038393, "type": "electric_scooter", "bike_id": "2386b4071b01f4f2ff1028e779faadb7", "name": "2386b4071b01f4f2ff1028e779faadb7"}, {"fusion_lat": 0.0, "is_reserved": 0, "is_disabled": 0, "rental_uris": {"android": "https://dc.lft.to/lastmile_qr_scan", "ios": "https://dc.lft.to/lastmile_qr_scan"}, "fusion_lon": 0.0, "lat": 38.92209166666667, "lon": -77.03290416666667, "type": "electric_scooter", "bike_id": "21d16ffd667e2a804d9f20005363bd74", "name": "21d16ffd667e2a804d9f20005363bd74"}, {"fusion_lat": 0.0, "is_reserved": 0, "is_disabled": 0, "rental_uris": {"android": "https://dc.lft.to/lastmile_qr_scan", "ios": "https://dc.lft.to/lastmile_qr_scan"}, "fusion_lon": 0.0, "lat": 38.9072855, "lon": -77.04004633333334, "type": "electric_scooter", "bike_id": "9c64e8f6235e1b260da1e6959537d204", "name": "9c64e8f6235e1b260da1e6959537d204"}, {"fusion_lat": 0.0, "is_reserved": 0, "is_disabled": 0, "rental_uris": {"android": "https://dc.lft.to/lastmile_qr_scan", "ios": "https://dc.lft.to/lastmile_qr_scan"}, "fusion_lon": 0.0, "lat": 38.915618, "lon": -77.03863966666667, "type": "electric_scooter", "bike_id": "1cf2d8806e936b63a1d40927167fe647", "name": "1cf2d8806e936b63a1d40927167fe647"}, {"fusion_lat": 0.0, "is_reserved": 0, "is_disabled": 0, "rental_uris": {"android": "https://dc.lft.to/lastmile_qr_scan", "ios": "https://dc.lft.to/lastmile_qr_scan"}, "fusion_lon": 0.0, "lat": 39.088568333333335, "lon": -77.17843933333333, "type": "electric_bike", "bike_id": "fe8692e4626e725bf3a138b56ca43545", "name": "fe8692e4626e725bf3a138b56ca43545"}, {"fusion_lat": 0.0, "is_reserved": 0, "is_disabled": 0, "rental_uris": {"android": "https://dc.lft.to/lastmile_qr_scan", "ios": "https://dc.lft.to/lastmile_qr_scan"}, "fusion_lon": 0.0, "lat": 38.92884166666666, "lon": -77.02714366666666, "type": "electric_scooter", "bike_id": "7b6a5ddf81154f3950ecf5f9fd20e1c9", "name": "7b6a5ddf81154f3950ecf5f9fd20e1c9"}, {"fusion_lat": 0.0, "is_reserved": 0, "is_disabled": 0, "rental_uris": {"android": "https://dc.lft.to/lastmile_qr_scan", "ios": "https://dc.lft.to/lastmile_qr_scan"}, "fusion_lon": 0.0, "lat": 38.98368683333333, "lon": -77.0264445, "type": "electric_scooter", "bike_id": "2ee302d215ea2a481816f67af94f5c2e", "name": "2ee302d215ea2a481816f67af94f5c2e"}, {"fusion_lat": 0.0, "is_reserved": 0, "is_disabled": 0, "rental_uris": {"android": "https://dc.lft.to/lastmile_qr_scan", "ios": "https://dc.lft.to/lastmile_qr_scan"}, "fusion_lon": 0.0, "lat": 38.928546, "lon": -77.22205016666666, "type": "electric_bike", "bike_id": "8fea89415f9127e479580d9611fc0ea9", "name": "8fea89415f9127e479580d9611fc0ea9"}, {"fusion_lat": 0.0, "is_reserved": 0, "is_disabled": 0, "rental_uris": {"android": "https://dc.lft.to/lastmile_qr_scan", "ios": "https://dc.lft.to/lastmile_qr_scan"}, "fusion_lon": 0.0, "lat": 38.887353833333336, "lon": -77.01393833333333, "type": "electric_scooter", "bike_id": "3d74ee87676342f1989cfa9f74c4b931", "name": "3d74ee87676342f1989cfa9f74c4b931"}, {"fusion_lat": 0.0, "is_reserved": 0, "is_disabled": 0, "rental_uris": {"android": "https://dc.lft.to/lastmile_qr_scan", "ios": "https://dc.lft.to/lastmile_qr_scan"}, "fusion_lon": 0.0, "lat": 38.898545166666665, "lon": -76.93187783333333, "type": "electric_bike", "bike_id": "fec69e4de13c6c57055f6a74f8d285c2", "name": "fec69e4de13c6c57055f6a74f8d285c2"}, {"fusion_lat": 0.0, "is_reserved": 0, "is_disabled": 0, "rental_uris": {"android": "https://dc.lft.to/lastmile_qr_scan", "ios": "https://dc.lft.to/lastmile_qr_scan"}, "fusion_lon": 0.0, "lat": 38.910303, "lon": -77.03441283333333, "type": "electric_scooter", "bike_id": "79b1a9408026ae522ff5a118b470eb6e", "name": "79b1a9408026ae522ff5a118b470eb6e"}, {"fusion_lat": 0.0, "is_reserved": 0, "is_disabled": 0, "rental_uris": {"android": "https://dc.lft.to/lastmile_qr_scan", "ios": "https://dc.lft.to/lastmile_qr_scan"}, "fusion_lon": 0.0, "lat": 38.901028833333335, "lon": -77.01364166666667, "type": "electric_scooter", "bike_id": "bcc83ccd38406ead9dcf412ceef0e276", "name": "bcc83ccd38406ead9dcf412ceef0e276"}, {"fusion_lat": 0.0, "is_reserved": 0, "is_disabled": 0, "rental_uris": {"android": "https://dc.lft.to/lastmile_qr_scan", "ios": "https://dc.lft.to/lastmile_qr_scan"}, "fusion_lon": 0.0, "lat": 38.87380816666666, "lon": -77.00088616666666, "type": "electric_scooter", "bike_id": "2351fad72c7f7201144bb9543a3c0e31", "name": "2351fad72c7f7201144bb9543a3c0e31"}, {"fusion_lat": 0.0, "is_reserved": 0, "is_disabled": 0, "rental_uris": {"android": "https://dc.lft.to/lastmile_qr_scan", "ios": "https://dc.lft.to/lastmile_qr_scan"}, "fusion_lon": 0.0, "lat": 39.03410866666667, "lon": -77.04214, "type": "electric_bike", "bike_id": "23cb02d85b86823a63365a5e7c860b1f", "name": "23cb02d85b86823a63365a5e7c860b1f"}, {"fusion_lat": 0.0, "is_reserved": 0, "is_disabled": 0, "rental_uris": {"android": "https://dc.lft.to/lastmile_qr_scan", "ios": "https://dc.lft.to/lastmile_qr_scan"}, "fusion_lon": 0.0, "lat": 38.89624583333333, "lon": -76.99851383333333, "type": "electric_scooter", "bike_id": "ffe4bd80ddbc772d4861db3e38d1bc0a", "name": "ffe4bd80ddbc772d4861db3e38d1bc0a"}, {"fusion_lat": 0.0, "is_reserved": 0, "is_disabled": 0, "rental_uris": {"android": "https://dc.lft.to/lastmile_qr_scan", "ios": "https://dc.lft.to/lastmile_qr_scan"}, "fusion_lon": 0.0, "lat": 38.87630733333334, "lon": -76.9652775, "type": "electric_scooter", "bike_id": "3f1c07cb0044ccd1258afcc4ade6b4be", "name": "3f1c07cb0044ccd1258afcc4ade6b4be"}, {"fusion_lat": 0.0, "is_reserved": 0, "is_disabled": 0, "rental_uris": {"android": "https://dc.lft.to/lastmile_qr_scan", "ios": "https://dc.lft.to/lastmile_qr_scan"}, "fusion_lon": 0.0, "lat": 38.903271, "lon": -77.02048266666667, "type": "electric_scooter", "bike_id": "3fb5f7f9a9d97e6591ac1318e08e92e8", "name": "3fb5f7f9a9d97e6591ac1318e08e92e8"}, {"fusion_lat": 0.0, "is_reserved": 0, "is_disabled": 0, "rental_uris": {"android": "https://dc.lft.to/lastmile_qr_scan", "ios": "https://dc.lft.to/lastmile_qr_scan"}, "fusion_lon": 0.0, "lat": 38.921874333333335, "lon": -77.03206033333333, "type": "electric_scooter", "bike_id": "d8637fb86dfd230a40857bd86664760c", "name": "d8637fb86dfd230a40857bd86664760c"}, {"fusion_lat": 0.0, "is_reserved": 0, "is_disabled": 0, "rental_uris": {"android": "https://dc.lft.to/lastmile_qr_scan", "ios": "https://dc.lft.to/lastmile_qr_scan"}, "fusion_lon": 0.0, "lat": 38.898892333333336, "lon": -77.03994016666667, "type": "electric_scooter", "bike_id": "a8ca7ece06e19961afb208b01f5367c9", "name": "a8ca7ece06e19961afb208b01f5367c9"}, {"fusion_lat": 0.0, "is_reserved": 0, "is_disabled": 0, "rental_uris": {"android": "https://dc.lft.to/lastmile_qr_scan", "ios": "https://dc.lft.to/lastmile_qr_scan"}, "fusion_lon": 0.0, "lat": 38.905162833333335, "lon": -77.04790733333333, "type": "electric_scooter", "bike_id": "25152d0cf54e2adf24699e5e778b973b", "name": "25152d0cf54e2adf24699e5e778b973b"}, {"fusion_lat": 0.0, "is_reserved": 0, "is_disabled": 0, "rental_uris": {"android": "https://dc.lft.to/lastmile_qr_scan", "ios": "https://dc.lft.to/lastmile_qr_scan"}, "fusion_lon": 0.0, "lat": 38.893255833333335, "lon": -76.929928, "type": "electric_scooter", "bike_id": "a11f9bd3edf69d1b70c9d834473ea3f0", "name": "a11f9bd3edf69d1b70c9d834473ea3f0"}, {"fusion_lat": 0.0, "is_reserved": 0, "is_disabled": 0, "rental_uris": {"android": "https://dc.lft.to/lastmile_qr_scan", "ios": "https://dc.lft.to/lastmile_qr_scan"}, "fusion_lon": 0.0, "lat": 38.917207166666664, "lon": -77.0290365, "type": "electric_scooter", "bike_id": "7fd607aeb2bfdf09c4a333c024ee45c7", "name": "7fd607aeb2bfdf09c4a333c024ee45c7"}, {"fusion_lat": 0.0, "is_reserved": 0, "is_disabled": 0, "rental_uris": {"android": "https://dc.lft.to/lastmile_qr_scan", "ios": "https://dc.lft.to/lastmile_qr_scan"}, "fusion_lon": 0.0, "lat": 38.8753875, "lon": -77.00191416666667, "type": "electric_scooter", "bike_id": "5c92d502b74e76997b09fbb8c37c1b4f", "name": "5c92d502b74e76997b09fbb8c37c1b4f"}, {"fusion_lat": 0.0, "is_reserved": 0, "is_disabled": 0, "rental_uris": {"android": "https://dc.lft.to/lastmile_qr_scan", "ios": "https://dc.lft.to/lastmile_qr_scan"}, "fusion_lon": 0.0, "lat": 38.9187585, "lon": -76.97136516666667, "type": "electric_scooter", "bike_id": "eb58e09049765ce099851e1fabf37097", "name": "eb58e09049765ce099851e1fabf37097"}, {"fusion_lat": 0.0, "is_reserved": 0, "is_disabled": 0, "rental_uris": {"android": "https://dc.lft.to/lastmile_qr_scan", "ios": "https://dc.lft.to/lastmile_qr_scan"}, "fusion_lon": 0.0, "lat": 38.8869955, "lon": -77.03186183333334, "type": "electric_scooter", "bike_id": "56a75bc5e3df479ff860c84ec261d1f5", "name": "56a75bc5e3df479ff860c84ec261d1f5"}, {"fusion_lat": 0.0, "is_reserved": 0, "is_disabled": 0, "rental_uris": {"android": "https://dc.lft.to/lastmile_qr_scan", "ios": "https://dc.lft.to/lastmile_qr_scan"}, "fusion_lon": 0.0, "lat": 38.91258633333333, "lon": -77.04465166666667, "type": "electric_scooter", "bike_id": "638431f7ecdbb1caaf035c12dd25dfad", "name": "638431f7ecdbb1caaf035c12dd25dfad"}, {"fusion_lat": 0.0, "is_reserved": 0, "is_disabled": 0, "rental_uris": {"android": "https://dc.lft.to/lastmile_qr_scan", "ios": "https://dc.lft.to/lastmile_qr_scan"}, "fusion_lon": 0.0, "lat": 38.908557, "lon": -77.02453633333333, "type": "electric_scooter", "bike_id": "662699674be530c3a81d7925fd71d092", "name": "662699674be530c3a81d7925fd71d092"}, {"fusion_lat": 0.0, "is_reserved": 0, "is_disabled": 0, "rental_uris": {"android": "https://dc.lft.to/lastmile_qr_scan", "ios": "https://dc.lft.to/lastmile_qr_scan"}, "fusion_lon": 0.0, "lat": 38.93358333333333, "lon": -76.9950825, "type": "electric_scooter", "bike_id": "2d53a38a473940377340e54474d7173c", "name": "2d53a38a473940377340e54474d7173c"}, {"fusion_lat": 0.0, "is_reserved": 0, "is_disabled": 0, "rental_uris": {"android": "https://dc.lft.to/lastmile_qr_scan", "ios": "https://dc.lft.to/lastmile_qr_scan"}, "fusion_lon": 0.0, "lat": 38.86364483333333, "lon": -76.99041683333333, "type": "electric_scooter", "bike_id": "6712183637ed3b9e8355156484f98faa", "name": "6712183637ed3b9e8355156484f98faa"}, {"fusion_lat": 0.0, "is_reserved": 0, "is_disabled": 0, "rental_uris": {"android": "https://dc.lft.to/lastmile_qr_scan", "ios": "https://dc.lft.to/lastmile_qr_scan"}, "fusion_lon": 0.0, "lat": 38.917655833333335, "lon": -77.0365385, "type": "electric_scooter", "bike_id": "db6d908737dac63fd80a47abedda6a08", "name": "db6d908737dac63fd80a47abedda6a08"}, {"fusion_lat": 0.0, "is_reserved": 0, "is_disabled": 0, "rental_uris": {"android": "https://dc.lft.to/lastmile_qr_scan", "ios": "https://dc.lft.to/lastmile_qr_scan"}, "fusion_lon": 0.0, "lat": 38.899456, "lon": -77.05381516666667, "type": "electric_scooter", "bike_id": "217f65473d5bef10b96ceccc5be3f874", "name": "217f65473d5bef10b96ceccc5be3f874"}, {"fusion_lat": 0.0, "is_reserved": 0, "is_disabled": 0, "rental_uris": {"android": "https://dc.lft.to/lastmile_qr_scan", "ios": "https://dc.lft.to/lastmile_qr_scan"}, "fusion_lon": 0.0, "lat": 38.9042555, "lon": -77.04486883333334, "type": "electric_scooter", "bike_id": "df26ef53ad7b4d889a77751b1517af0c", "name": "df26ef53ad7b4d889a77751b1517af0c"}, {"fusion_lat": 0.0, "is_reserved": 0, "is_disabled": 0, "rental_uris": {"android": "https://dc.lft.to/lastmile_qr_scan", "ios": "https://dc.lft.to/lastmile_qr_scan"}, "fusion_lon": 0.0, "lat": 38.941743833333334, "lon": -77.025381, "type": "electric_scooter", "bike_id": "b012d38969d0d7190b9bc5b4bed9f899", "name": "b012d38969d0d7190b9bc5b4bed9f899"}, {"fusion_lat": 0.0, "is_reserved": 0, "is_disabled": 0, "rental_uris": {"android": "https://dc.lft.to/lastmile_qr_scan", "ios": "https://dc.lft.to/lastmile_qr_scan"}, "fusion_lon": 0.0, "lat": 38.94170716666667, "lon": -77.023388, "type": "electric_scooter", "bike_id": "7f46b0e6d7662e38a827c9461d3ca4a9", "name": "7f46b0e6d7662e38a827c9461d3ca4a9"}, {"fusion_lat": 0.0, "is_reserved": 0, "is_disabled": 0, "rental_uris": {"android": "https://dc.lft.to/lastmile_qr_scan", "ios": "https://dc.lft.to/lastmile_qr_scan"}, "fusion_lon": 0.0, "lat": 38.919262, "lon": -77.03177766666667, "type": "electric_scooter", "bike_id": "a5f7340b29d2d2824ffe26b23abef54b", "name": "a5f7340b29d2d2824ffe26b23abef54b"}, {"fusion_lat": 0.0, "is_reserved": 0, "is_disabled": 0, "rental_uris": {"android": "https://dc.lft.to/lastmile_qr_scan", "ios": "https://dc.lft.to/lastmile_qr_scan"}, "fusion_lon": 0.0, "lat": 38.9310155, "lon": -76.9672445, "type": "electric_scooter", "bike_id": "68890a919df0ffb7c7df5c6f7412652e", "name": "68890a919df0ffb7c7df5c6f7412652e"}, {"fusion_lat": 0.0, "is_reserved": 0, "is_disabled": 0, "rental_uris": {"android": "https://dc.lft.to/lastmile_qr_scan", "ios": "https://dc.lft.to/lastmile_qr_scan"}, "fusion_lon": 0.0, "lat": 38.90051, "lon": -77.01376466666666, "type": "electric_scooter", "bike_id": "b7065dcaf0ab3b976302a997eb707ccd", "name": "b7065dcaf0ab3b976302a997eb707ccd"}, {"fusion_lat": 0.0, "is_reserved": 0, "is_disabled": 0, "rental_uris": {"android": "https://dc.lft.to/lastmile_qr_scan", "ios": "https://dc.lft.to/lastmile_qr_scan"}, "fusion_lon": 0.0, "lat": 38.90496666666667, "lon": -77.062704, "type": "electric_scooter", "bike_id": "04d614d51c2758510192795d4f176ec4", "name": "04d614d51c2758510192795d4f176ec4"}, {"fusion_lat": 0.0, "is_reserved": 0, "is_disabled": 0, "rental_uris": {"android": "https://dc.lft.to/lastmile_qr_scan", "ios": "https://dc.lft.to/lastmile_qr_scan"}, "fusion_lon": 0.0, "lat": 38.9189925, "lon": -77.041544, "type": "electric_scooter", "bike_id": "f022a8b576337941f2de7348e8ce8206", "name": "f022a8b576337941f2de7348e8ce8206"}, {"fusion_lat": 0.0, "is_reserved": 0, "is_disabled": 0, "rental_uris": {"android": "https://dc.lft.to/lastmile_qr_scan", "ios": "https://dc.lft.to/lastmile_qr_scan"}, "fusion_lon": 0.0, "lat": 38.9171515, "lon": -77.0326965, "type": "electric_scooter", "bike_id": "99740c0d0451c658970bf868b24386b0", "name": "99740c0d0451c658970bf868b24386b0"}, {"fusion_lat": 0.0, "is_reserved": 0, "is_disabled": 0, "rental_uris": {"android": "https://dc.lft.to/lastmile_qr_scan", "ios": "https://dc.lft.to/lastmile_qr_scan"}, "fusion_lon": 0.0, "lat": 38.862697833333335, "lon": -76.99222883333333, "type": "electric_scooter", "bike_id": "6bca21736b755f030f15d9ab3d310b2a", "name": "6bca21736b755f030f15d9ab3d310b2a"}, {"fusion_lat": 0.0, "is_reserved": 0, "is_disabled": 0, "rental_uris": {"android": "https://dc.lft.to/lastmile_qr_scan", "ios": "https://dc.lft.to/lastmile_qr_scan"}, "fusion_lon": 0.0, "lat": 38.8960215, "lon": -77.028036, "type": "electric_scooter", "bike_id": "7d7b7dc2ac34f3618b9d1a94f2682821", "name": "7d7b7dc2ac34f3618b9d1a94f2682821"}, {"fusion_lat": 0.0, "is_reserved": 0, "is_disabled": 0, "rental_uris": {"android": "https://dc.lft.to/lastmile_qr_scan", "ios": "https://dc.lft.to/lastmile_qr_scan"}, "fusion_lon": 0.0, "lat": 38.92290716666667, "lon": -77.03661816666667, "type": "electric_scooter", "bike_id": "48ddb4a2823bd74f4fd6f759b66c1a3b", "name": "48ddb4a2823bd74f4fd6f759b66c1a3b"}, {"fusion_lat": 0.0, "is_reserved": 0, "is_disabled": 0, "rental_uris": {"android": "https://dc.lft.to/lastmile_qr_scan", "ios": "https://dc.lft.to/lastmile_qr_scan"}, "fusion_lon": 0.0, "lat": 38.88733383333334, "lon": -77.01386766666667, "type": "electric_scooter", "bike_id": "08d9029936d021a3ea0716f503830513", "name": "08d9029936d021a3ea0716f503830513"}, {"fusion_lat": 0.0, "is_reserved": 0, "is_disabled": 0, "rental_uris": {"android": "https://dc.lft.to/lastmile_qr_scan", "ios": "https://dc.lft.to/lastmile_qr_scan"}, "fusion_lon": 0.0, "lat": 38.9229855, "lon": -77.022441, "type": "electric_scooter", "bike_id": "7cec66061c04c20a552f75e542af7364", "name": "7cec66061c04c20a552f75e542af7364"}, {"fusion_lat": 0.0, "is_reserved": 0, "is_disabled": 0, "rental_uris": {"android": "https://dc.lft.to/lastmile_qr_scan", "ios": "https://dc.lft.to/lastmile_qr_scan"}, "fusion_lon": 0.0, "lat": 38.9211835, "lon": -77.01807216666667, "type": "electric_scooter", "bike_id": "d99df7def2ba06b3dcfc9076abc6a10c", "name": "d99df7def2ba06b3dcfc9076abc6a10c"}, {"fusion_lat": 0.0, "is_reserved": 0, "is_disabled": 0, "rental_uris": {"android": "https://dc.lft.to/lastmile_qr_scan", "ios": "https://dc.lft.to/lastmile_qr_scan"}, "fusion_lon": 0.0, "lat": 38.87665783333333, "lon": -77.00408633333333, "type": "electric_scooter", "bike_id": "bb2d7f704078cb0bb139d5bf38c5ff19", "name": "bb2d7f704078cb0bb139d5bf38c5ff19"}, {"fusion_lat": 0.0, "is_reserved": 0, "is_disabled": 0, "rental_uris": {"android": "https://dc.lft.to/lastmile_qr_scan", "ios": "https://dc.lft.to/lastmile_qr_scan"}, "fusion_lon": 0.0, "lat": 38.91215783333333, "lon": -77.03840466666666, "type": "electric_scooter", "bike_id": "64c90bed28ed70865d170774e5338e1f", "name": "64c90bed28ed70865d170774e5338e1f"}, {"fusion_lat": 0.0, "is_reserved": 0, "is_disabled": 0, "rental_uris": {"android": "https://dc.lft.to/lastmile_qr_scan", "ios": "https://dc.lft.to/lastmile_qr_scan"}, "fusion_lon": 0.0, "lat": 38.939083, "lon": -77.06040316666666, "type": "electric_scooter", "bike_id": "ca0aea4a76b036cf7bb16cdd50abf18f", "name": "ca0aea4a76b036cf7bb16cdd50abf18f"}, {"fusion_lat": 0.0, "is_reserved": 0, "is_disabled": 0, "rental_uris": {"android": "https://dc.lft.to/lastmile_qr_scan", "ios": "https://dc.lft.to/lastmile_qr_scan"}, "fusion_lon": 0.0, "lat": 38.93253983333334, "lon": -77.02969783333333, "type": "electric_scooter", "bike_id": "1a0beca42a760a8f1177ccf0e2ad6bf3", "name": "1a0beca42a760a8f1177ccf0e2ad6bf3"}, {"fusion_lat": 0.0, "is_reserved": 0, "is_disabled": 0, "rental_uris": {"android": "https://dc.lft.to/lastmile_qr_scan", "ios": "https://dc.lft.to/lastmile_qr_scan"}, "fusion_lon": 0.0, "lat": 38.91031266666667, "lon": -77.00752133333333, "type": "electric_scooter", "bike_id": "b1eabc65df79fb32d3678fdd503a6cbd", "name": "b1eabc65df79fb32d3678fdd503a6cbd"}, {"fusion_lat": 0.0, "is_reserved": 0, "is_disabled": 0, "rental_uris": {"android": "https://dc.lft.to/lastmile_qr_scan", "ios": "https://dc.lft.to/lastmile_qr_scan"}, "fusion_lon": 0.0, "lat": 38.86372816666667, "lon": -76.99057933333333, "type": "electric_scooter", "bike_id": "ae070bb39397501b6e810df1dbfc0e61", "name": "ae070bb39397501b6e810df1dbfc0e61"}, {"fusion_lat": 0.0, "is_reserved": 0, "is_disabled": 0, "rental_uris": {"android": "https://dc.lft.to/lastmile_qr_scan", "ios": "https://dc.lft.to/lastmile_qr_scan"}, "fusion_lon": 0.0, "lat": 38.90279433333333, "lon": -77.0263915, "type": "electric_scooter", "bike_id": "001204603e89f04ea34249980eb21fca", "name": "001204603e89f04ea34249980eb21fca"}, {"fusion_lat": 0.0, "is_reserved": 0, "is_disabled": 0, "rental_uris": {"android": "https://dc.lft.to/lastmile_qr_scan", "ios": "https://dc.lft.to/lastmile_qr_scan"}, "fusion_lon": 0.0, "lat": 38.865329, "lon": -76.99028916666667, "type": "electric_scooter", "bike_id": "be823e737c82f0e144595ec14ba4302c", "name": "be823e737c82f0e144595ec14ba4302c"}, {"fusion_lat": 0.0, "is_reserved": 0, "is_disabled": 0, "rental_uris": {"android": "https://dc.lft.to/lastmile_qr_scan", "ios": "https://dc.lft.to/lastmile_qr_scan"}, "fusion_lon": 0.0, "lat": 38.905068, "lon": -77.05131666666666, "type": "electric_scooter", "bike_id": "75dc81b4f692423d2987201896d9133b", "name": "75dc81b4f692423d2987201896d9133b"}, {"fusion_lat": 0.0, "is_reserved": 0, "is_disabled": 0, "rental_uris": {"android": "https://dc.lft.to/lastmile_qr_scan", "ios": "https://dc.lft.to/lastmile_qr_scan"}, "fusion_lon": 0.0, "lat": 38.952865333333335, "lon": -77.06970866666667, "type": "electric_bike", "bike_id": "2bc90119335f1b9de45ebb8eb81b99ce", "name": "2bc90119335f1b9de45ebb8eb81b99ce"}, {"fusion_lat": 0.0, "is_reserved": 0, "is_disabled": 0, "rental_uris": {"android": "https://dc.lft.to/lastmile_qr_scan", "ios": "https://dc.lft.to/lastmile_qr_scan"}, "fusion_lon": 0.0, "lat": 38.919127333333336, "lon": -77.04628466666666, "type": "electric_scooter", "bike_id": "bdc49d8691392f32ef90531999c22c93", "name": "bdc49d8691392f32ef90531999c22c93"}, {"fusion_lat": 0.0, "is_reserved": 0, "is_disabled": 0, "rental_uris": {"android": "https://dc.lft.to/lastmile_qr_scan", "ios": "https://dc.lft.to/lastmile_qr_scan"}, "fusion_lon": 0.0, "lat": 38.8580355, "lon": -77.099645, "type": "electric_bike", "bike_id": "6b9dd822a06995666f4e019b9ca4110f", "name": "6b9dd822a06995666f4e019b9ca4110f"}, {"fusion_lat": 0.0, "is_reserved": 0, "is_disabled": 0, "rental_uris": {"android": "https://dc.lft.to/lastmile_qr_scan", "ios": "https://dc.lft.to/lastmile_qr_scan"}, "fusion_lon": 0.0, "lat": 38.905203666666665, "lon": -77.06375366666667, "type": "electric_scooter", "bike_id": "da20c5201711cb732f48fda7587bcb96", "name": "da20c5201711cb732f48fda7587bcb96"}, {"fusion_lat": 0.0, "is_reserved": 0, "is_disabled": 0, "rental_uris": {"android": "https://dc.lft.to/lastmile_qr_scan", "ios": "https://dc.lft.to/lastmile_qr_scan"}, "fusion_lon": 0.0, "lat": 38.875106833333334, "lon": -77.02585566666667, "type": "electric_bike", "bike_id": "0b4cc7ba3dc9ee21d63a07f506f6b375", "name": "0b4cc7ba3dc9ee21d63a07f506f6b375"}, {"fusion_lat": 0.0, "is_reserved": 0, "is_disabled": 0, "rental_uris": {"android": "https://dc.lft.to/lastmile_qr_scan", "ios": "https://dc.lft.to/lastmile_qr_scan"}, "fusion_lon": 0.0, "lat": 38.88426916666667, "lon": -77.03052666666666, "type": "electric_scooter", "bike_id": "a8f736c96a6661072d5c3e4781bce646", "name": "a8f736c96a6661072d5c3e4781bce646"}, {"fusion_lat": 0.0, "is_reserved": 0, "is_disabled": 0, "rental_uris": {"android": "https://dc.lft.to/lastmile_qr_scan", "ios": "https://dc.lft.to/lastmile_qr_scan"}, "fusion_lon": 0.0, "lat": 38.8912325, "lon": -76.94086633333333, "type": "electric_scooter", "bike_id": "fca8eed709c0a959e1ac97bf40fcdebc", "name": "fca8eed709c0a959e1ac97bf40fcdebc"}, {"fusion_lat": 0.0, "is_reserved": 0, "is_disabled": 0, "rental_uris": {"android": "https://dc.lft.to/lastmile_qr_scan", "ios": "https://dc.lft.to/lastmile_qr_scan"}, "fusion_lon": 0.0, "lat": 39.01594016666667, "lon": -77.044217, "type": "electric_bike", "bike_id": "53575423bcdd259cb3e224e7420b8c61", "name": "53575423bcdd259cb3e224e7420b8c61"}, {"fusion_lat": 0.0, "is_reserved": 0, "is_disabled": 0, "rental_uris": {"android": "https://dc.lft.to/lastmile_qr_scan", "ios": "https://dc.lft.to/lastmile_qr_scan"}, "fusion_lon": 0.0, "lat": 38.900049833333334, "lon": -76.99848166666666, "type": "electric_scooter", "bike_id": "d3c4428067394892aecf37594614e953", "name": "d3c4428067394892aecf37594614e953"}, {"fusion_lat": 0.0, "is_reserved": 0, "is_disabled": 0, "rental_uris": {"android": "https://dc.lft.to/lastmile_qr_scan", "ios": "https://dc.lft.to/lastmile_qr_scan"}, "fusion_lon": 0.0, "lat": 38.910823, "lon": -77.07640133333334, "type": "electric_scooter", "bike_id": "e6debcaab06c8109726b5d7e00fc1120", "name": "e6debcaab06c8109726b5d7e00fc1120"}, {"fusion_lat": 0.0, "is_reserved": 0, "is_disabled": 0, "rental_uris": {"android": "https://dc.lft.to/lastmile_qr_scan", "ios": "https://dc.lft.to/lastmile_qr_scan"}, "fusion_lon": 0.0, "lat": 38.903112666666665, "lon": -77.051885, "type": "electric_scooter", "bike_id": "fb7a5235616b3f220aef8c2de98cbbb3", "name": "fb7a5235616b3f220aef8c2de98cbbb3"}, {"fusion_lat": 0.0, "is_reserved": 0, "is_disabled": 0, "rental_uris": {"android": "https://dc.lft.to/lastmile_qr_scan", "ios": "https://dc.lft.to/lastmile_qr_scan"}, "fusion_lon": 0.0, "lat": 38.9260165, "lon": -77.056923, "type": "electric_scooter", "bike_id": "36879d177d50752cad6364ac4db4f4fa", "name": "36879d177d50752cad6364ac4db4f4fa"}, {"fusion_lat": 0.0, "is_reserved": 0, "is_disabled": 0, "rental_uris": {"android": "https://dc.lft.to/lastmile_qr_scan", "ios": "https://dc.lft.to/lastmile_qr_scan"}, "fusion_lon": 0.0, "lat": 38.923314500000004, "lon": -77.03890733333333, "type": "electric_scooter", "bike_id": "4dc642e59712340a5f0d23ae427088d8", "name": "4dc642e59712340a5f0d23ae427088d8"}, {"fusion_lat": 0.0, "is_reserved": 0, "is_disabled": 0, "rental_uris": {"android": "https://dc.lft.to/lastmile_qr_scan", "ios": "https://dc.lft.to/lastmile_qr_scan"}, "fusion_lon": 0.0, "lat": 38.923517333333336, "lon": -77.03218733333334, "type": "electric_scooter", "bike_id": "844d9b1389bebd6ad5e1082c78440773", "name": "844d9b1389bebd6ad5e1082c78440773"}, {"fusion_lat": 0.0, "is_reserved": 0, "is_disabled": 0, "rental_uris": {"android": "https://dc.lft.to/lastmile_qr_scan", "ios": "https://dc.lft.to/lastmile_qr_scan"}, "fusion_lon": 0.0, "lat": 38.9243735, "lon": -77.0298235, "type": "electric_scooter", "bike_id": "a781dcc0c05fab368e123b8b9ca4d7bc", "name": "a781dcc0c05fab368e123b8b9ca4d7bc"}, {"fusion_lat": 0.0, "is_reserved": 0, "is_disabled": 0, "rental_uris": {"android": "https://dc.lft.to/lastmile_qr_scan", "ios": "https://dc.lft.to/lastmile_qr_scan"}, "fusion_lon": 0.0, "lat": 38.8947525, "lon": -76.94840766666667, "type": "electric_bike", "bike_id": "93d515ba1dc776f440bd8199c7fc3e68", "name": "93d515ba1dc776f440bd8199c7fc3e68"}, {"fusion_lat": 0.0, "is_reserved": 0, "is_disabled": 0, "rental_uris": {"android": "https://dc.lft.to/lastmile_qr_scan", "ios": "https://dc.lft.to/lastmile_qr_scan"}, "fusion_lon": 0.0, "lat": 38.90983716666667, "lon": -77.03383266666667, "type": "electric_scooter", "bike_id": "7f192e26c9574cf12af84b1e80d64375", "name": "7f192e26c9574cf12af84b1e80d64375"}, {"fusion_lat": 0.0, "is_reserved": 0, "is_disabled": 0, "rental_uris": {"android": "https://dc.lft.to/lastmile_qr_scan", "ios": "https://dc.lft.to/lastmile_qr_scan"}, "fusion_lon": 0.0, "lat": 38.92589733333333, "lon": -77.03229933333333, "type": "electric_scooter", "bike_id": "afa773dd29114ad1dbd215966bde0ffd", "name": "afa773dd29114ad1dbd215966bde0ffd"}, {"fusion_lat": 0.0, "is_reserved": 0, "is_disabled": 0, "rental_uris": {"android": "https://dc.lft.to/lastmile_qr_scan", "ios": "https://dc.lft.to/lastmile_qr_scan"}, "fusion_lon": 0.0, "lat": 38.907142, "lon": -77.00362366666667, "type": "electric_scooter", "bike_id": "d2690cfb706f427884018090075759fb", "name": "d2690cfb706f427884018090075759fb"}, {"fusion_lat": 0.0, "is_reserved": 0, "is_disabled": 0, "rental_uris": {"android": "https://dc.lft.to/lastmile_qr_scan", "ios": "https://dc.lft.to/lastmile_qr_scan"}, "fusion_lon": 0.0, "lat": 38.90800316666667, "lon": -77.04494166666667, "type": "electric_scooter", "bike_id": "28c7fcaf185c589cac3fcabda48bfdf6", "name": "28c7fcaf185c589cac3fcabda48bfdf6"}, {"fusion_lat": 0.0, "is_reserved": 0, "is_disabled": 0, "rental_uris": {"android": "https://dc.lft.to/lastmile_qr_scan", "ios": "https://dc.lft.to/lastmile_qr_scan"}, "fusion_lon": 0.0, "lat": 38.917339, "lon": -77.04176716666667, "type": "electric_scooter", "bike_id": "73daf4113a1036561f0e744e1a23e6a0", "name": "73daf4113a1036561f0e744e1a23e6a0"}, {"fusion_lat": 0.0, "is_reserved": 0, "is_disabled": 0, "rental_uris": {"android": "https://dc.lft.to/lastmile_qr_scan", "ios": "https://dc.lft.to/lastmile_qr_scan"}, "fusion_lon": 0.0, "lat": 38.9141585, "lon": -77.031603, "type": "electric_scooter", "bike_id": "436b1a0dbcd9c8f5af1bc1ed2d6ad37f", "name": "436b1a0dbcd9c8f5af1bc1ed2d6ad37f"}, {"fusion_lat": 0.0, "is_reserved": 0, "is_disabled": 0, "rental_uris": {"android": "https://dc.lft.to/lastmile_qr_scan", "ios": "https://dc.lft.to/lastmile_qr_scan"}, "fusion_lon": 0.0, "lat": 38.9306675, "lon": -77.02265633333333, "type": "electric_scooter", "bike_id": "184b3f66e82c9a6fa6e6f3500af9b112", "name": "184b3f66e82c9a6fa6e6f3500af9b112"}, {"fusion_lat": 0.0, "is_reserved": 0, "is_disabled": 0, "rental_uris": {"android": "https://dc.lft.to/lastmile_qr_scan", "ios": "https://dc.lft.to/lastmile_qr_scan"}, "fusion_lon": 0.0, "lat": 38.919387, "lon": -77.08129616666666, "type": "electric_scooter", "bike_id": "812c5c0a7c2e0fbbf65dbbe20941d72c", "name": "812c5c0a7c2e0fbbf65dbbe20941d72c"}, {"fusion_lat": 0.0, "is_reserved": 0, "is_disabled": 0, "rental_uris": {"android": "https://dc.lft.to/lastmile_qr_scan", "ios": "https://dc.lft.to/lastmile_qr_scan"}, "fusion_lon": 0.0, "lat": 38.88443516666667, "lon": -76.95753966666666, "type": "electric_scooter", "bike_id": "c7d1007f3897c74b083bad565001d67f", "name": "c7d1007f3897c74b083bad565001d67f"}, {"fusion_lat": 0.0, "is_reserved": 0, "is_disabled": 0, "rental_uris": {"android": "https://dc.lft.to/lastmile_qr_scan", "ios": "https://dc.lft.to/lastmile_qr_scan"}, "fusion_lon": 0.0, "lat": 38.86102183333333, "lon": -76.9833625, "type": "electric_scooter", "bike_id": "6552da29cdfbade3339fcb2554ac47e6", "name": "6552da29cdfbade3339fcb2554ac47e6"}, {"fusion_lat": 0.0, "is_reserved": 0, "is_disabled": 0, "rental_uris": {"android": "https://dc.lft.to/lastmile_qr_scan", "ios": "https://dc.lft.to/lastmile_qr_scan"}, "fusion_lon": 0.0, "lat": 38.8922685, "lon": -77.02654966666667, "type": "electric_scooter", "bike_id": "06145eb03c9f3e9d6e24612d387d5961", "name": "06145eb03c9f3e9d6e24612d387d5961"}, {"fusion_lat": 0.0, "is_reserved": 0, "is_disabled": 0, "rental_uris": {"android": "https://dc.lft.to/lastmile_qr_scan", "ios": "https://dc.lft.to/lastmile_qr_scan"}, "fusion_lon": 0.0, "lat": 39.01054216666667, "lon": -76.91104033333333, "type": "electric_bike", "bike_id": "283d61c17ba872028006feeb6630f0e0", "name": "283d61c17ba872028006feeb6630f0e0"}, {"fusion_lat": 0.0, "is_reserved": 0, "is_disabled": 0, "rental_uris": {"android": "https://dc.lft.to/lastmile_qr_scan", "ios": "https://dc.lft.to/lastmile_qr_scan"}, "fusion_lon": 0.0, "lat": 38.900686666666665, "lon": -76.93385816666667, "type": "electric_scooter", "bike_id": "f54ba822c25d74380226062f35b52a04", "name": "f54ba822c25d74380226062f35b52a04"}, {"fusion_lat": 0.0, "is_reserved": 0, "is_disabled": 0, "rental_uris": {"android": "https://dc.lft.to/lastmile_qr_scan", "ios": "https://dc.lft.to/lastmile_qr_scan"}, "fusion_lon": 0.0, "lat": 38.9157235, "lon": -77.03071616666666, "type": "electric_scooter", "bike_id": "833d1462fffb30582a41c441c33eb1f9", "name": "833d1462fffb30582a41c441c33eb1f9"}, {"fusion_lat": 0.0, "is_reserved": 0, "is_disabled": 0, "rental_uris": {"android": "https://dc.lft.to/lastmile_qr_scan", "ios": "https://dc.lft.to/lastmile_qr_scan"}, "fusion_lon": 0.0, "lat": 38.892067, "lon": -77.03108866666666, "type": "electric_scooter", "bike_id": "4e630f8d859180c8a27815bff65d021f", "name": "4e630f8d859180c8a27815bff65d021f"}, {"fusion_lat": 0.0, "is_reserved": 0, "is_disabled": 0, "rental_uris": {"android": "https://dc.lft.to/lastmile_qr_scan", "ios": "https://dc.lft.to/lastmile_qr_scan"}, "fusion_lon": 0.0, "lat": 38.916782833333336, "lon": -77.0295885, "type": "electric_scooter", "bike_id": "e45c28d0720b3c6047bfb57085fc5364", "name": "e45c28d0720b3c6047bfb57085fc5364"}, {"fusion_lat": 0.0, "is_reserved": 0, "is_disabled": 0, "rental_uris": {"android": "https://dc.lft.to/lastmile_qr_scan", "ios": "https://dc.lft.to/lastmile_qr_scan"}, "fusion_lon": 0.0, "lat": 38.931912, "lon": -77.0283405, "type": "electric_scooter", "bike_id": "6432d76142907ff4dc536b08693ab7d8", "name": "6432d76142907ff4dc536b08693ab7d8"}, {"fusion_lat": 0.0, "is_reserved": 0, "is_disabled": 0, "rental_uris": {"android": "https://dc.lft.to/lastmile_qr_scan", "ios": "https://dc.lft.to/lastmile_qr_scan"}, "fusion_lon": 0.0, "lat": 38.9224505, "lon": -77.029834, "type": "electric_scooter", "bike_id": "75c29b0aaeed8820f951af2bcb63c1f2", "name": "75c29b0aaeed8820f951af2bcb63c1f2"}, {"fusion_lat": 0.0, "is_reserved": 0, "is_disabled": 0, "rental_uris": {"android": "https://dc.lft.to/lastmile_qr_scan", "ios": "https://dc.lft.to/lastmile_qr_scan"}, "fusion_lon": 0.0, "lat": 38.903747833333334, "lon": -77.04166283333333, "type": "electric_scooter", "bike_id": "62d6781bf3d5a0ef8acc2e9e94aeb73f", "name": "62d6781bf3d5a0ef8acc2e9e94aeb73f"}, {"fusion_lat": 0.0, "is_reserved": 0, "is_disabled": 0, "rental_uris": {"android": "https://dc.lft.to/lastmile_qr_scan", "ios": "https://dc.lft.to/lastmile_qr_scan"}, "fusion_lon": 0.0, "lat": 38.89837133333333, "lon": -76.9310135, "type": "electric_scooter", "bike_id": "a59f4f613aebaf1b711e150fd37ecfd1", "name": "a59f4f613aebaf1b711e150fd37ecfd1"}, {"fusion_lat": 0.0, "is_reserved": 0, "is_disabled": 0, "rental_uris": {"android": "https://dc.lft.to/lastmile_qr_scan", "ios": "https://dc.lft.to/lastmile_qr_scan"}, "fusion_lon": 0.0, "lat": 38.966101333333334, "lon": -76.98328366666667, "type": "electric_bike", "bike_id": "60839beefcb3b2b6b2f7e984f4e1eb16", "name": "60839beefcb3b2b6b2f7e984f4e1eb16"}, {"fusion_lat": 0.0, "is_reserved": 0, "is_disabled": 0, "rental_uris": {"android": "https://dc.lft.to/lastmile_qr_scan", "ios": "https://dc.lft.to/lastmile_qr_scan"}, "fusion_lon": 0.0, "lat": 38.93740566666666, "lon": -77.03259116666666, "type": "electric_scooter", "bike_id": "3a21b635cf3551df395fad373f162c16", "name": "3a21b635cf3551df395fad373f162c16"}, {"fusion_lat": 0.0, "is_reserved": 0, "is_disabled": 0, "rental_uris": {"android": "https://dc.lft.to/lastmile_qr_scan", "ios": "https://dc.lft.to/lastmile_qr_scan"}, "fusion_lon": 0.0, "lat": 38.89248883333333, "lon": -77.048835, "type": "electric_scooter", "bike_id": "1b3309fb9df12c67f515d3791ab22ef5", "name": "1b3309fb9df12c67f515d3791ab22ef5"}, {"fusion_lat": 0.0, "is_reserved": 0, "is_disabled": 0, "rental_uris": {"android": "https://dc.lft.to/lastmile_qr_scan", "ios": "https://dc.lft.to/lastmile_qr_scan"}, "fusion_lon": 0.0, "lat": 38.938318333333335, "lon": -77.061759, "type": "electric_scooter", "bike_id": "cbc9f510675627add0d6b745936df929", "name": "cbc9f510675627add0d6b745936df929"}, {"fusion_lat": 0.0, "is_reserved": 0, "is_disabled": 0, "rental_uris": {"android": "https://dc.lft.to/lastmile_qr_scan", "ios": "https://dc.lft.to/lastmile_qr_scan"}, "fusion_lon": 0.0, "lat": 38.900780833333336, "lon": -77.04589383333334, "type": "electric_scooter", "bike_id": "9a48ac52b22da76bc68ce15e40f8a1f3", "name": "9a48ac52b22da76bc68ce15e40f8a1f3"}, {"fusion_lat": 0.0, "is_reserved": 0, "is_disabled": 0, "rental_uris": {"android": "https://dc.lft.to/lastmile_qr_scan", "ios": "https://dc.lft.to/lastmile_qr_scan"}, "fusion_lon": 0.0, "lat": 38.92260383333333, "lon": -77.01948116666667, "type": "electric_scooter", "bike_id": "48a7639d356e41ab6c2d5f93bdc5376e", "name": "48a7639d356e41ab6c2d5f93bdc5376e"}, {"fusion_lat": 0.0, "is_reserved": 0, "is_disabled": 0, "rental_uris": {"android": "https://dc.lft.to/lastmile_qr_scan", "ios": "https://dc.lft.to/lastmile_qr_scan"}, "fusion_lon": 0.0, "lat": 38.906142, "lon": -77.0630175, "type": "electric_bike", "bike_id": "682e6d89dce7549ef0d04812598a4fb8", "name": "682e6d89dce7549ef0d04812598a4fb8"}, {"fusion_lat": 0.0, "is_reserved": 0, "is_disabled": 0, "rental_uris": {"android": "https://dc.lft.to/lastmile_qr_scan", "ios": "https://dc.lft.to/lastmile_qr_scan"}, "fusion_lon": 0.0, "lat": 38.93100466666667, "lon": -77.02517866666666, "type": "electric_scooter", "bike_id": "a8cce9fd50d9ad758b630a2ef8fcd50a", "name": "a8cce9fd50d9ad758b630a2ef8fcd50a"}, {"fusion_lat": 0.0, "is_reserved": 0, "is_disabled": 0, "rental_uris": {"android": "https://dc.lft.to/lastmile_qr_scan", "ios": "https://dc.lft.to/lastmile_qr_scan"}, "fusion_lon": 0.0, "lat": 38.914021166666664, "lon": -77.0389715, "type": "electric_scooter", "bike_id": "56c0d3371ddad6dc1ddf3af26741de46", "name": "56c0d3371ddad6dc1ddf3af26741de46"}, {"fusion_lat": 0.0, "is_reserved": 0, "is_disabled": 0, "rental_uris": {"android": "https://dc.lft.to/lastmile_qr_scan", "ios": "https://dc.lft.to/lastmile_qr_scan"}, "fusion_lon": 0.0, "lat": 38.956161333333334, "lon": -77.02759233333333, "type": "electric_scooter", "bike_id": "4a3f4c3de9cf0628f365663a09c3a6ae", "name": "4a3f4c3de9cf0628f365663a09c3a6ae"}, {"fusion_lat": 0.0, "is_reserved": 0, "is_disabled": 0, "rental_uris": {"android": "https://dc.lft.to/lastmile_qr_scan", "ios": "https://dc.lft.to/lastmile_qr_scan"}, "fusion_lon": 0.0, "lat": 38.929442333333334, "lon": -77.02318283333334, "type": "electric_scooter", "bike_id": "b3c380cd4541fa4d9d7d15b7bf03cea0", "name": "b3c380cd4541fa4d9d7d15b7bf03cea0"}, {"fusion_lat": 0.0, "is_reserved": 0, "is_disabled": 0, "rental_uris": {"android": "https://dc.lft.to/lastmile_qr_scan", "ios": "https://dc.lft.to/lastmile_qr_scan"}, "fusion_lon": 0.0, "lat": 38.90529033333333, "lon": -77.0613875, "type": "electric_scooter", "bike_id": "f6317580b096a4ec17e5d62e02d63fa0", "name": "f6317580b096a4ec17e5d62e02d63fa0"}, {"fusion_lat": 0.0, "is_reserved": 0, "is_disabled": 0, "rental_uris": {"android": "https://dc.lft.to/lastmile_qr_scan", "ios": "https://dc.lft.to/lastmile_qr_scan"}, "fusion_lon": 0.0, "lat": 38.907831, "lon": -77.03829, "type": "electric_scooter", "bike_id": "29c834b18f2742cbe03b50e792c99331", "name": "29c834b18f2742cbe03b50e792c99331"}, {"fusion_lat": 0.0, "is_reserved": 0, "is_disabled": 0, "rental_uris": {"android": "https://dc.lft.to/lastmile_qr_scan", "ios": "https://dc.lft.to/lastmile_qr_scan"}, "fusion_lon": 0.0, "lat": 38.930940166666666, "lon": -77.02546, "type": "electric_scooter", "bike_id": "bbbfdd143d22907ce6f1356f80dbd165", "name": "bbbfdd143d22907ce6f1356f80dbd165"}, {"fusion_lat": 0.0, "is_reserved": 0, "is_disabled": 0, "rental_uris": {"android": "https://dc.lft.to/lastmile_qr_scan", "ios": "https://dc.lft.to/lastmile_qr_scan"}, "fusion_lon": 0.0, "lat": 38.89823416666667, "lon": -76.99691683333333, "type": "electric_scooter", "bike_id": "4552a3ee61f4dfc788984170084061be", "name": "4552a3ee61f4dfc788984170084061be"}, {"fusion_lat": 0.0, "is_reserved": 0, "is_disabled": 0, "rental_uris": {"android": "https://dc.lft.to/lastmile_qr_scan", "ios": "https://dc.lft.to/lastmile_qr_scan"}, "fusion_lon": 0.0, "lat": 38.88638783333333, "lon": -76.9546995, "type": "electric_bike", "bike_id": "704d4d03a1c3702b77bc85b8a88fe2ac", "name": "704d4d03a1c3702b77bc85b8a88fe2ac"}, {"fusion_lat": 0.0, "is_reserved": 0, "is_disabled": 0, "rental_uris": {"android": "https://dc.lft.to/lastmile_qr_scan", "ios": "https://dc.lft.to/lastmile_qr_scan"}, "fusion_lon": 0.0, "lat": 38.91925333333333, "lon": -77.03182016666666, "type": "electric_scooter", "bike_id": "cd6d188547502d7d9834371f6c826fcd", "name": "cd6d188547502d7d9834371f6c826fcd"}, {"fusion_lat": 0.0, "is_reserved": 0, "is_disabled": 0, "rental_uris": {"android": "https://dc.lft.to/lastmile_qr_scan", "ios": "https://dc.lft.to/lastmile_qr_scan"}, "fusion_lon": 0.0, "lat": 38.93088866666667, "lon": -77.03731883333333, "type": "electric_scooter", "bike_id": "1f4979a31c2d5653420b13c4b1ce532e", "name": "1f4979a31c2d5653420b13c4b1ce532e"}, {"fusion_lat": 0.0, "is_reserved": 0, "is_disabled": 0, "rental_uris": {"android": "https://dc.lft.to/lastmile_qr_scan", "ios": "https://dc.lft.to/lastmile_qr_scan"}, "fusion_lon": 0.0, "lat": 38.90136566666666, "lon": -77.0289955, "type": "electric_scooter", "bike_id": "bf49c01c64bdb105e8cdce6bef8de429", "name": "bf49c01c64bdb105e8cdce6bef8de429"}, {"fusion_lat": 0.0, "is_reserved": 0, "is_disabled": 0, "rental_uris": {"android": "https://dc.lft.to/lastmile_qr_scan", "ios": "https://dc.lft.to/lastmile_qr_scan"}, "fusion_lon": 0.0, "lat": 38.92365016666667, "lon": -77.04120766666666, "type": "electric_scooter", "bike_id": "14ecb081bb684f9422ac8f4a2c87deb0", "name": "14ecb081bb684f9422ac8f4a2c87deb0"}, {"fusion_lat": 0.0, "is_reserved": 0, "is_disabled": 0, "rental_uris": {"android": "https://dc.lft.to/lastmile_qr_scan", "ios": "https://dc.lft.to/lastmile_qr_scan"}, "fusion_lon": 0.0, "lat": 38.88513783333333, "lon": -77.005704, "type": "electric_scooter", "bike_id": "6fbfd9b240627d95dc3a9c7b0518209f", "name": "6fbfd9b240627d95dc3a9c7b0518209f"}, {"fusion_lat": 0.0, "is_reserved": 0, "is_disabled": 0, "rental_uris": {"android": "https://dc.lft.to/lastmile_qr_scan", "ios": "https://dc.lft.to/lastmile_qr_scan"}, "fusion_lon": 0.0, "lat": 39.056392, "lon": -77.12524733333333, "type": "electric_bike", "bike_id": "848b025db65c4ae5dd18ec1bad253c5e", "name": "848b025db65c4ae5dd18ec1bad253c5e"}, {"fusion_lat": 0.0, "is_reserved": 0, "is_disabled": 0, "rental_uris": {"android": "https://dc.lft.to/lastmile_qr_scan", "ios": "https://dc.lft.to/lastmile_qr_scan"}, "fusion_lon": 0.0, "lat": 38.911463499999996, "lon": -77.04899616666667, "type": "electric_scooter", "bike_id": "0b5b599793b934d09ff08e6f4c3da117", "name": "0b5b599793b934d09ff08e6f4c3da117"}, {"fusion_lat": 0.0, "is_reserved": 0, "is_disabled": 0, "rental_uris": {"android": "https://dc.lft.to/lastmile_qr_scan", "ios": "https://dc.lft.to/lastmile_qr_scan"}, "fusion_lon": 0.0, "lat": 38.91868516666667, "lon": -77.02198416666667, "type": "electric_scooter", "bike_id": "c1576f5537fd2532a3fbc9f5a2d836aa", "name": "c1576f5537fd2532a3fbc9f5a2d836aa"}, {"fusion_lat": 0.0, "is_reserved": 0, "is_disabled": 0, "rental_uris": {"android": "https://dc.lft.to/lastmile_qr_scan", "ios": "https://dc.lft.to/lastmile_qr_scan"}, "fusion_lon": 0.0, "lat": 38.84293433333333, "lon": -76.9994715, "type": "electric_scooter", "bike_id": "c8b40efd80eed3886c18f2d24e691c60", "name": "c8b40efd80eed3886c18f2d24e691c60"}, {"fusion_lat": 0.0, "is_reserved": 0, "is_disabled": 0, "rental_uris": {"android": "https://dc.lft.to/lastmile_qr_scan", "ios": "https://dc.lft.to/lastmile_qr_scan"}, "fusion_lon": 0.0, "lat": 38.941764, "lon": -77.0250295, "type": "electric_scooter", "bike_id": "2e7a2e616f1006438a1a9e1a3cb8fa33", "name": "2e7a2e616f1006438a1a9e1a3cb8fa33"}, {"fusion_lat": 0.0, "is_reserved": 0, "is_disabled": 0, "rental_uris": {"android": "https://dc.lft.to/lastmile_qr_scan", "ios": "https://dc.lft.to/lastmile_qr_scan"}, "fusion_lon": 0.0, "lat": 38.895095166666664, "lon": -77.021718, "type": "electric_scooter", "bike_id": "a44cb6944b07e9378717b873f6a7b517", "name": "a44cb6944b07e9378717b873f6a7b517"}, {"fusion_lat": 0.0, "is_reserved": 0, "is_disabled": 0, "rental_uris": {"android": "https://dc.lft.to/lastmile_qr_scan", "ios": "https://dc.lft.to/lastmile_qr_scan"}, "fusion_lon": 0.0, "lat": 38.876314, "lon": -76.96523933333333, "type": "electric_scooter", "bike_id": "2382fc9ccbc05101a701001bc01b7232", "name": "2382fc9ccbc05101a701001bc01b7232"}, {"fusion_lat": 0.0, "is_reserved": 0, "is_disabled": 0, "rental_uris": {"android": "https://dc.lft.to/lastmile_qr_scan", "ios": "https://dc.lft.to/lastmile_qr_scan"}, "fusion_lon": 0.0, "lat": 38.899022333333335, "lon": -77.0406885, "type": "electric_scooter", "bike_id": "48f20f674e54fe71a04a3563a5623f81", "name": "48f20f674e54fe71a04a3563a5623f81"}, {"fusion_lat": 0.0, "is_reserved": 0, "is_disabled": 0, "rental_uris": {"android": "https://dc.lft.to/lastmile_qr_scan", "ios": "https://dc.lft.to/lastmile_qr_scan"}, "fusion_lon": 0.0, "lat": 38.916343166666664, "lon": -77.03990216666666, "type": "electric_scooter", "bike_id": "9d06d918d02fcea6ea35e97c74375113", "name": "9d06d918d02fcea6ea35e97c74375113"}, {"fusion_lat": 0.0, "is_reserved": 0, "is_disabled": 0, "rental_uris": {"android": "https://dc.lft.to/lastmile_qr_scan", "ios": "https://dc.lft.to/lastmile_qr_scan"}, "fusion_lon": 0.0, "lat": 38.91209766666667, "lon": -77.03638783333334, "type": "electric_scooter", "bike_id": "461bf5352609531afea6454dd8013138", "name": "461bf5352609531afea6454dd8013138"}, {"fusion_lat": 0.0, "is_reserved": 0, "is_disabled": 0, "rental_uris": {"android": "https://dc.lft.to/lastmile_qr_scan", "ios": "https://dc.lft.to/lastmile_qr_scan"}, "fusion_lon": 0.0, "lat": 38.940938833333334, "lon": -77.03279916666666, "type": "electric_scooter", "bike_id": "64402b3e954bdfd0dcfb3c1c056879be", "name": "64402b3e954bdfd0dcfb3c1c056879be"}, {"fusion_lat": 0.0, "is_reserved": 0, "is_disabled": 0, "rental_uris": {"android": "https://dc.lft.to/lastmile_qr_scan", "ios": "https://dc.lft.to/lastmile_qr_scan"}, "fusion_lon": 0.0, "lat": 38.90727566666666, "lon": -77.04777066666666, "type": "electric_scooter", "bike_id": "bfe29c6308fef190d4dfe5764f1ac46f", "name": "bfe29c6308fef190d4dfe5764f1ac46f"}, {"fusion_lat": 0.0, "is_reserved": 0, "is_disabled": 0, "rental_uris": {"android": "https://dc.lft.to/lastmile_qr_scan", "ios": "https://dc.lft.to/lastmile_qr_scan"}, "fusion_lon": 0.0, "lat": 38.862378166666666, "lon": -76.994809, "type": "electric_scooter", "bike_id": "730eeaba3d5b62fcbb1730b86258a1e3", "name": "730eeaba3d5b62fcbb1730b86258a1e3"}, {"fusion_lat": 0.0, "is_reserved": 0, "is_disabled": 0, "rental_uris": {"android": "https://dc.lft.to/lastmile_qr_scan", "ios": "https://dc.lft.to/lastmile_qr_scan"}, "fusion_lon": 0.0, "lat": 38.909776666666666, "lon": -77.02178866666667, "type": "electric_scooter", "bike_id": "331ec420a83e3b10c986a74ab7e83b31", "name": "331ec420a83e3b10c986a74ab7e83b31"}, {"fusion_lat": 0.0, "is_reserved": 0, "is_disabled": 0, "rental_uris": {"android": "https://dc.lft.to/lastmile_qr_scan", "ios": "https://dc.lft.to/lastmile_qr_scan"}, "fusion_lon": 0.0, "lat": 38.9112845, "lon": -77.0380635, "type": "electric_scooter", "bike_id": "de73a336e6552f340e9dc8d293bada52", "name": "de73a336e6552f340e9dc8d293bada52"}, {"fusion_lat": 0.0, "is_reserved": 0, "is_disabled": 0, "rental_uris": {"android": "https://dc.lft.to/lastmile_qr_scan", "ios": "https://dc.lft.to/lastmile_qr_scan"}, "fusion_lon": 0.0, "lat": 38.9055905, "lon": -77.0059165, "type": "electric_scooter", "bike_id": "ffecd6c3bf33b0c406f21a7ac4bf29f7", "name": "ffecd6c3bf33b0c406f21a7ac4bf29f7"}, {"fusion_lat": 0.0, "is_reserved": 0, "is_disabled": 0, "rental_uris": {"android": "https://dc.lft.to/lastmile_qr_scan", "ios": "https://dc.lft.to/lastmile_qr_scan"}, "fusion_lon": 0.0, "lat": 38.8621255, "lon": -76.99474783333334, "type": "electric_scooter", "bike_id": "c900633b8c37c32f9619bd5f038672fd", "name": "c900633b8c37c32f9619bd5f038672fd"}, {"fusion_lat": 0.0, "is_reserved": 0, "is_disabled": 0, "rental_uris": {"android": "https://dc.lft.to/lastmile_qr_scan", "ios": "https://dc.lft.to/lastmile_qr_scan"}, "fusion_lon": 0.0, "lat": 38.87476616666667, "lon": -77.00940916666667, "type": "electric_scooter", "bike_id": "9260bedbcbe404ed4e2d565830f4a857", "name": "9260bedbcbe404ed4e2d565830f4a857"}, {"fusion_lat": 0.0, "is_reserved": 0, "is_disabled": 0, "rental_uris": {"android": "https://dc.lft.to/lastmile_qr_scan", "ios": "https://dc.lft.to/lastmile_qr_scan"}, "fusion_lon": 0.0, "lat": 38.89815683333333, "lon": -77.00892233333333, "type": "electric_scooter", "bike_id": "7dce07bc838495c279116b5df2af1816", "name": "7dce07bc838495c279116b5df2af1816"}, {"fusion_lat": 0.0, "is_reserved": 0, "is_disabled": 0, "rental_uris": {"android": "https://dc.lft.to/lastmile_qr_scan", "ios": "https://dc.lft.to/lastmile_qr_scan"}, "fusion_lon": 0.0, "lat": 38.92880233333333, "lon": -77.0343675, "type": "electric_scooter", "bike_id": "a7245de31255da7b4486249e4d0f03a6", "name": "a7245de31255da7b4486249e4d0f03a6"},