{"data": {"bikes": [{"is_disabled": 0, "rental_uris": {"android": "https://dc.lft.to/lastmile_qr_scan", "ios": "https://dc.lft.to/lastmile_qr_scan"}, "is_reserved": 0, "name": "9668695719f143cc5925ddf3b46dc46b", "lon": -76.9411695, "type": "electric_scooter", "bike_id": "9668695719f143cc5925ddf3b46dc46b", "fusion_lon": 0.0, "lat": 38.88454333333333, "fusion_lat": 0.0}, {"is_disabled": 0, "rental_uris": {"android": "https://dc.lft.to/lastmile_qr_scan", "ios": "https://dc.lft.to/lastmile_qr_scan"}, "is_reserved": 0, "name": "3fc3082ce7862c13d83a1bef38f25a4c", "lon": -77.04698966666666, "type": "electric_scooter", "bike_id": "3fc3082ce7862c13d83a1bef38f25a4c", "fusion_lon": 0.0, "lat": 38.897416166666666, "fusion_lat": 0.0}, {"is_disabled": 0, "rental_uris": {"android": "https://dc.lft.to/lastmile_qr_scan", "ios": "https://dc.lft.to/lastmile_qr_scan"}, "is_reserved": 0, "name": "7d8e4a09dc12ae32426e48d36781d113", "lon": -77.027472, "type": "electric_scooter", "bike_id": "7d8e4a09dc12ae32426e48d36781d113", "fusion_lon": 0.0, "lat": 38.94313266666666, "fusion_lat": 0.0}, {"is_disabled": 0, "rental_uris": {"android": "https://dc.lft.to/lastmile_qr_scan", "ios": "https://dc.lft.to/lastmile_qr_scan"}, "is_reserved": 0, "name": "9ac30d3d79b702da97bed099a5ba55ea", "lon": -77.02854033333334, "type": "electric_scooter", "bike_id": "9ac30d3d79b702da97bed099a5ba55ea", "fusion_lon": 0.0, "lat": 38.933019333333334, "fusion_lat": 0.0}, {"is_disabled": 0, "rental_uris": {"android": "https://dc.lft.to/lastmile_qr_scan", "ios": "https://dc.lft.to/lastmile_qr_scan"}, "is_reserved": 0, "name": "20dad55ba50853a833268b3d7057bd21", "lon": -76.98779516666667, "type": "electric_scooter", "bike_id": "20dad55ba50853a833268b3d7057bd21", "fusion_lon": 0.0, "lat": 38.844744166666665, "fusion_lat": 0.0}, {"is_disabled": 0, "rental_uris": {"android": "https://dc.lft.to/lastmile_qr_scan", "ios": "https://dc.lft.to/lastmile_qr_scan"}, "is_reserved": 0, "name": "eb21de56cea0869aa39400bfde08e77f", "lon": -77.04014883333333, "type": "electric_scooter", "bike_id": "eb21de56cea0869aa39400bfde08e77f", "fusion_lon": 0.0, "lat": 38.91796766666667, "fusion_lat": 0.0}, {"is_disabled": 0, "rental_uris": {"android": "https://dc.lft.to/lastmile_qr_scan", "ios": "https://dc.lft.to/lastmile_qr_scan"}, "is_reserved": 0, "name": "85cea92802734cce7d7d0e0e27522cca", "lon": -77.1065525, "type": "electric_bike", "bike_id": "85cea92802734cce7d7d0e0e27522cca", "fusion_lon": 0.0, "lat": 39.03001166666667, "fusion_lat": 0.0}, {"is_disabled": 0, "rental_uris": {"android": "https://dc.lft.to/lastmile_qr_scan", "ios": "https://dc.lft.to/lastmile_qr_scan"}, "is_reserved": 0, "name": "138d88d702e6c70ebbb2f24ef6e98e9d", "lon": -77.040104, "type": "electric_scooter", "bike_id": "138d88d702e6c70ebbb2f24ef6e98e9d", "fusion_lon": 0.0, "lat": 38.902755666666664, "fusion_lat": 0.0}, {"is_disabled": 0, "rental_uris": {"android": "https://dc.lft.to/lastmile_qr_scan", "ios": "https://dc.lft.to/lastmile_qr_scan"}, "is_reserved": 0, "name": "50d1e918a9221f0ab602dba1654929fe", "lon": -77.04282583333334, "type": "electric_scooter", "bike_id": "50d1e918a9221f0ab602dba1654929fe", "fusion_lon": 0.0, "lat": 38.91061116666667, "fusion_lat": 0.0}, {"is_disabled": 0, "rental_uris": {"android": "https://dc.lft.to/lastmile_qr_scan", "ios": "https://dc.lft.to/lastmile_qr_scan"}, "is_reserved": 0, "name": "441a6bcac346aac645060e56c7b92d02", "lon": -77.04621483333334, "type": "electric_scooter", "bike_id": "441a6bcac346aac645060e56c7b92d02", "fusion_lon": 0.0, "lat": 38.923198, "fusion_lat": 0.0}, {"is_disabled": 0, "rental_uris": {"android": "https://dc.lft.to/lastmile_qr_scan", "ios": "https://dc.lft.to/lastmile_qr_scan"}, "is_reserved": 0, "name": "adb5b6cecaef8db3fa40e721b19e78d1", "lon": -76.98079116666666, "type": "electric_scooter", "bike_id": "adb5b6cecaef8db3fa40e721b19e78d1", "fusion_lon": 0.0, "lat": 38.916786333333334, "fusion_lat": 0.0}, {"is_disabled": 0, "rental_uris": {"android": "https://dc.lft.to/lastmile_qr_scan", "ios": "https://dc.lft.to/lastmile_qr_scan"}, "is_reserved": 0, "name": "07a87ee77e1d4e219a6fd14318fe92f9", "lon": -77.050797, "type": "electric_scooter", "bike_id": "07a87ee77e1d4e219a6fd14318fe92f9", "fusion_lon": 0.0, "lat": 38.905240666666664, "fusion_lat": 0.0}, {"is_disabled": 0, "rental_uris": {"android": "https://dc.lft.to/lastmile_qr_scan", "ios": "https://dc.lft.to/lastmile_qr_scan"}, "is_reserved": 0, "name": "d3d51b817f02a06054d388ce6a2d7b1b", "lon": -76.998625, "type": "electric_scooter", "bike_id": "d3d51b817f02a06054d388ce6a2d7b1b", "fusion_lon": 0.0, "lat": 38.90033183333333, "fusion_lat": 0.0}, {"is_disabled": 0, "rental_uris": {"android": "https://dc.lft.to/lastmile_qr_scan", "ios": "https://dc.lft.to/lastmile_qr_scan"}, "is_reserved": 0, "name": "9f211ff4c64ff01668bcb971af20b6c6", "lon": -77.03862033333333, "type": "electric_scooter", "bike_id": "9f211ff4c64ff01668bcb971af20b6c6", "fusion_lon": 0.0, "lat": 38.903835, "fusion_lat": 0.0}, {"is_disabled": 0, "rental_uris": {"android": "https://dc.lft.to/lastmile_qr_scan", "ios": "https://dc.lft.to/lastmile_qr_scan"}, "is_reserved": 0, "name": "43be17c301afff37b8aac35145df0aeb", "lon": -77.03896416666667, "type": "electric_scooter", "bike_id": "43be17c301afff37b8aac35145df0aeb", "fusion_lon": 0.0, "lat": 38.924947, "fusion_lat": 0.0}, {"is_disabled": 0, "rental_uris": {"android": "https://dc.lft.to/lastmile_qr_scan", "ios": "https://dc.lft.to/lastmile_qr_scan"}, "is_reserved": 0, "name": "fc34e7818fa06a0306914a924b4ecd26", "lon": -77.03441933333333, "type": "electric_scooter", "bike_id": "fc34e7818fa06a0306914a924b4ecd26", "fusion_lon": 0.0, "lat": 38.904007, "fusion_lat": 0.0}, {"is_disabled": 0, "rental_uris": {"android": "https://dc.lft.to/lastmile_qr_scan", "ios": "https://dc.lft.to/lastmile_qr_scan"}, "is_reserved": 0, "name": "b15cc661304168ab28c0cc9de7ef15ce", "lon": -77.0335805, "type": "electric_scooter", "bike_id": "b15cc661304168ab28c0cc9de7ef15ce", "fusion_lon": 0.0, "lat": 38.922379666666664, "fusion_lat": 0.0}, {"is_disabled": 0, "rental_uris": {"android": "https://dc.lft.to/lastmile_qr_scan", "ios": "https://dc.lft.to/lastmile_qr_scan"}, "is_reserved": 0, "name": "a27584a88744ea09626e5bec5cc20389", "lon": -76.98831283333334, "type": "electric_bike", "bike_id": "a27584a88744ea09626e5bec5cc20389", "fusion_lon": 0.0, "lat": 38.985680333333335, "fusion_lat": 0.0}, {"is_disabled": 0, "rental_uris": {"android": "https://dc.lft.to/lastmile_qr_scan", "ios": "https://dc.lft.to/lastmile_qr_scan"}, "is_reserved": 0, "name": "071e6eb395f7124af9cbcba2f66a1ed2", "lon": -77.030324, "type": "electric_scooter", "bike_id": "071e6eb395f7124af9cbcba2f66a1ed2", "fusion_lon": 0.0, "lat": 38.9312335, "fusion_lat": 0.0}, {"is_disabled": 0, "rental_uris": {"android": "https://dc.lft.to/lastmile_qr_scan", "ios": "https://dc.lft.to/lastmile_qr_scan"}, "is_reserved": 0, "name": "582269504d65f0ec11dfb900f79249af", "lon": -77.01694066666667, "type": "electric_scooter", "bike_id": "582269504d65f0ec11dfb900f79249af", "fusion_lon": 0.0, "lat": 38.974936, "fusion_lat": 0.0}, {"is_disabled": 0, "rental_uris": {"android": "https://dc.lft.to/lastmile_qr_scan", "ios": "https://dc.lft.to/lastmile_qr_scan"}, "is_reserved": 0, "name": "e2f899296c6dc5a2313d2fd868a66faa", "lon": -77.04715016666667, "type": "electric_scooter", "bike_id": "e2f899296c6dc5a2313d2fd868a66faa", "fusion_lon": 0.0, "lat": 38.899587833333335, "fusion_lat": 0.0}, {"is_disabled": 0, "rental_uris": {"android": "https://dc.lft.to/lastmile_qr_scan", "ios": "https://dc.lft.to/lastmile_qr_scan"}, "is_reserved": 0, "name": "aa5b57c8961667e1eb77425734f7465f", "lon": -77.031516, "type": "electric_scooter", "bike_id": "aa5b57c8961667e1eb77425734f7465f", "fusion_lon": 0.0, "lat": 38.90357, "fusion_lat": 0.0}, {"is_disabled": 0, "rental_uris": {"android": "https://dc.lft.to/lastmile_qr_scan", "ios": "https://dc.lft.to/lastmile_qr_scan"}, "is_reserved": 0, "name": "b908af9d2c1a1398520cf994a2ed92ea", "lon": -77.04501366666666, "type": "electric_scooter", "bike_id": "b908af9d2c1a1398520cf994a2ed92ea", "fusion_lon": 0.0, "lat": 38.89617966666667, "fusion_lat": 0.0}, {"is_disabled": 0, "rental_uris": {"android": "https://dc.lft.to/lastmile_qr_scan", "ios": "https://dc.lft.to/lastmile_qr_scan"}, "is_reserved": 0, "name": "8892deef20d7896fe42d4e57a21e7baf", "lon": -77.05724616666667, "type": "electric_scooter", "bike_id": "8892deef20d7896fe42d4e57a21e7baf", "fusion_lon": 0.0, "lat": 38.93370266666667, "fusion_lat": 0.0}, {"is_disabled": 0, "rental_uris": {"android": "https://dc.lft.to/lastmile_qr_scan", "ios": "https://dc.lft.to/lastmile_qr_scan"}, "is_reserved": 0, "name": "12e70c2c204deee8ef0d0a7ab4523955", "lon": -76.9684305, "type": "electric_bike", "bike_id": "12e70c2c204deee8ef0d0a7ab4523955", "fusion_lon": 0.0, "lat": 38.924469, "fusion_lat": 0.0}, {"is_disabled": 0, "rental_uris": {"android": "https://dc.lft.to/lastmile_qr_scan", "ios": "https://dc.lft.to/lastmile_qr_scan"}, "is_reserved": 0, "name": "4a95349a240305bc190f2625ee068d0f", "lon": -77.03216016666667, "type": "electric_scooter", "bike_id": "4a95349a240305bc190f2625ee068d0f", "fusion_lon": 0.0, "lat": 38.918339, "fusion_lat": 0.0}, {"is_disabled": 0, "rental_uris": {"android": "https://dc.lft.to/lastmile_qr_scan", "ios": "https://dc.lft.to/lastmile_qr_scan"}, "is_reserved": 0, "name": "ffef713a1fa1b062bcfbaffb78c8bac0", "lon": -76.98329916666667, "type": "electric_scooter", "bike_id": "ffef713a1fa1b062bcfbaffb78c8bac0", "fusion_lon": 0.0, "lat": 38.861732833333335, "fusion_lat": 0.0}, {"is_disabled": 0, "rental_uris": {"android": "https://dc.lft.to/lastmile_qr_scan", "ios": "https://dc.lft.to/lastmile_qr_scan"}, "is_reserved": 0, "name": "d575dc32c1905b72b9ddd4a371e45247", "lon": -77.15267433333334, "type": "electric_bike", "bike_id": "d575dc32c1905b72b9ddd4a371e45247", "fusion_lon": 0.0, "lat": 39.105672, "fusion_lat": 0.0}, {"is_disabled": 0, "rental_uris": {"android": "https://dc.lft.to/lastmile_qr_scan", "ios": "https://dc.lft.to/lastmile_qr_scan"}, "is_reserved": 0, "name": "cd55b53e4e0c44d0193de0b8965e58dc", "lon": -77.03456916666667, "type": "electric_scooter", "bike_id": "cd55b53e4e0c44d0193de0b8965e58dc", "fusion_lon": 0.0, "lat": 38.964340166666666, "fusion_lat": 0.0}, {"is_disabled": 0, "rental_uris": {"android": "https://dc.lft.to/lastmile_qr_scan", "ios": "https://dc.lft.to/lastmile_qr_scan"}, "is_reserved": 0, "name": "fa710b00ae16cfb4ed980012ca1e8d4b", "lon": -77.0297245, "type": "electric_scooter", "bike_id": "fa710b00ae16cfb4ed980012ca1e8d4b", "fusion_lon": 0.0, "lat": 38.897829, "fusion_lat": 0.0}, {"is_disabled": 0, "rental_uris": {"android": "https://dc.lft.to/lastmile_qr_scan", "ios": "https://dc.lft.to/lastmile_qr_scan"}, "is_reserved": 0, "name": "128fc67ec33a6cdf1450c6e3fff30684", "lon": -77.01625816666666, "type": "electric_scooter", "bike_id": "128fc67ec33a6cdf1450c6e3fff30684", "fusion_lon": 0.0, "lat": 38.89866933333333, "fusion_lat": 0.0}, {"is_disabled": 0, "rental_uris": {"android": "https://dc.lft.to/lastmile_qr_scan", "ios": "https://dc.lft.to/lastmile_qr_scan"}, "is_reserved": 0, "name": "384c4670c3b7631ccb86bdd8ac828177", "lon": -76.93755466666667, "type": "electric_scooter", "bike_id": "384c4670c3b7631ccb86bdd8ac828177", "fusion_lon": 0.0, "lat": 38.890395166666664, "fusion_lat": 0.0}, {"is_disabled": 0, "rental_uris": {"android": "https://dc.lft.to/lastmile_qr_scan", "ios": "https://dc.lft.to/lastmile_qr_scan"}, "is_reserved": 0, "name": "5ffdf236eab8586308188e27a759ebd7", "lon": -77.0246715, "type": "electric_scooter", "bike_id": "5ffdf236eab8586308188e27a759ebd7", "fusion_lon": 0.0, "lat": 38.93916316666667, "fusion_lat": 0.0}, {"is_disabled": 0, "rental_uris": {"android": "https://dc.lft.to/lastmile_qr_scan", "ios": "https://dc.lft.to/lastmile_qr_scan"}, "is_reserved": 0, "name": "33a74cced25b3d109f8550bdb40ee8ac", "lon": -77.04492883333333, "type": "electric_scooter", "bike_id": "33a74cced25b3d109f8550bdb40ee8ac", "fusion_lon": 0.0, "lat": 38.90662666666667, "fusion_lat": 0.0}, {"is_disabled": 0, "rental_uris": {"android": "https://dc.lft.to/lastmile_qr_scan", "ios": "https://dc.lft.to/lastmile_qr_scan"}, "is_reserved": 0, "name": "9dd57d1e526994055d836bf94e79b273", "lon": -77.35313, "type": "electric_bike", "bike_id": "9dd57d1e526994055d836bf94e79b273", "fusion_lon": 0.0, "lat": 38.950060666666666, "fusion_lat": 0.0}, {"is_disabled": 0, "rental_uris": {"android": "https://dc.lft.to/lastmile_qr_scan", "ios": "https://dc.lft.to/lastmile_qr_scan"}, "is_reserved": 0, "name": "e99f02f0ba0865e4f9f0950c55bf7666", "lon": -77.04336533333333, "type": "electric_scooter", "bike_id": "e99f02f0ba0865e4f9f0950c55bf7666", "fusion_lon": 0.0, "lat": 38.911167166666665, "fusion_lat": 0.0}, {"is_disabled": 0, "rental_uris": {"android": "https://dc.lft.to/lastmile_qr_scan", "ios": "https://dc.lft.to/lastmile_qr_scan"}, "is_reserved": 0, "name": "1db6407a3661ffd429c0d8d0d75ba5f4", "lon": -77.046801, "type": "electric_scooter", "bike_id": "1db6407a3661ffd429c0d8d0d75ba5f4", "fusion_lon": 0.0, "lat": 38.90273633333334, "fusion_lat": 0.0}, {"is_disabled": 0, "rental_uris": {"android": "https://dc.lft.to/lastmile_qr_scan", "ios": "https://dc.lft.to/lastmile_qr_scan"}, "is_reserved": 0, "name": "914352b6ce7862dfce4bdb045543524c", "lon": -77.02670516666667, "type": "electric_bike", "bike_id": "914352b6ce7862dfce4bdb045543524c", "fusion_lon": 0.0, "lat": 38.9549, "fusion_lat": 0.0}, {"is_disabled": 0, "rental_uris": {"android": "https://dc.lft.to/lastmile_qr_scan", "ios": "https://dc.lft.to/lastmile_qr_scan"}, "is_reserved": 0, "name": "cc189d0b1c1cbe9279d9b1279207c1f9", "lon": -77.0326375, "type": "electric_scooter", "bike_id": "cc189d0b1c1cbe9279d9b1279207c1f9", "fusion_lon": 0.0, "lat": 38.9352325, "fusion_lat": 0.0}, {"is_disabled": 0, "rental_uris": {"android": "https://dc.lft.to/lastmile_qr_scan", "ios": "https://dc.lft.to/lastmile_qr_scan"}, "is_reserved": 0, "name": "643d2ef9a7cdb2d455925b8d614622bb", "lon": -77.02375116666667, "type": "electric_scooter", "bike_id": "643d2ef9a7cdb2d455925b8d614622bb", "fusion_lon": 0.0, "lat": 38.902001166666665, "fusion_lat": 0.0}, {"is_disabled": 0, "rental_uris": {"android": "https://dc.lft.to/lastmile_qr_scan", "ios": "https://dc.lft.to/lastmile_qr_scan"}, "is_reserved": 0, "name": "04187aa94718b97898a019b7406a1d1e", "lon": -76.98950533333333, "type": "electric_scooter", "bike_id": "04187aa94718b97898a019b7406a1d1e", "fusion_lon": 0.0, "lat": 38.844058, "fusion_lat": 0.0}, {"is_disabled": 0, "rental_uris": {"android": "https://dc.lft.to/lastmile_qr_scan", "ios": "https://dc.lft.to/lastmile_qr_scan"}, "is_reserved": 0, "name": "0d726c45ab927663cdfe9c84223313a2", "lon": -77.01663433333333, "type": "electric_scooter", "bike_id": "0d726c45ab927663cdfe9c84223313a2", "fusion_lon": 0.0, "lat": 38.88125566666667, "fusion_lat": 0.0}, {"is_disabled": 0, "rental_uris": {"android": "https://dc.lft.to/lastmile_qr_scan", "ios": "https://dc.lft.to/lastmile_qr_scan"}, "is_reserved": 0, "name": "bcecb96fec9ff95bc2ada63f8064beda", "lon": -77.032111, "type": "electric_scooter", "bike_id": "bcecb96fec9ff95bc2ada63f8064beda", "fusion_lon": 0.0, "lat": 38.925843666666665, "fusion_lat": 0.0}, {"is_disabled": 0, "rental_uris": {"android": "https://dc.lft.to/lastmile_qr_scan", "ios": "https://dc.lft.to/lastmile_qr_scan"}, "is_reserved": 0, "name": "84328590fab515af5028be85d6cfd1a1", "lon": -77.0403065, "type": "electric_scooter", "bike_id": "84328590fab515af5028be85d6cfd1a1", "fusion_lon": 0.0, "lat": 38.907285333333334, "fusion_lat": 0.0}, {"is_disabled": 0, "rental_uris": {"android": "https://dc.lft.to/lastmile_qr_scan", "ios": "https://dc.lft.to/lastmile_qr_scan"}, "is_reserved": 0, "name": "080bfac5cfade5763683235f28dff723", "lon": -77.041752, "type": "electric_scooter", "bike_id": "080bfac5cfade5763683235f28dff723", "fusion_lon": 0.0, "lat": 38.91558083333334, "fusion_lat": 0.0}, {"is_disabled": 0, "rental_uris": {"android": "https://dc.lft.to/lastmile_qr_scan", "ios": "https://dc.lft.to/lastmile_qr_scan"}, "is_reserved": 0, "name": "2ad0f07631d1700b3a6c718aab6d6fa7", "lon": -77.09100683333334, "type": "electric_scooter", "bike_id": "2ad0f07631d1700b3a6c718aab6d6fa7", "fusion_lon": 0.0, "lat": 38.95638016666667, "fusion_lat": 0.0}, {"is_disabled": 0, "rental_uris": {"android": "https://dc.lft.to/lastmile_qr_scan", "ios": "https://dc.lft.to/lastmile_qr_scan"}, "is_reserved": 0, "name": "0a3980e8d7718839dc184f3fb98c5f35", "lon": -76.99463883333334, "type": "electric_scooter", "bike_id": "0a3980e8d7718839dc184f3fb98c5f35", "fusion_lon": 0.0, "lat": 38.861989, "fusion_lat": 0.0}, {"is_disabled": 0, "rental_uris": {"android": "https://dc.lft.to/lastmile_qr_scan", "ios": "https://dc.lft.to/lastmile_qr_scan"}, "is_reserved": 0, "name": "20d3cdeac994ea15ece4fc8f1e92d730", "lon": -77.04370466666667, "type": "electric_scooter", "bike_id": "20d3cdeac994ea15ece4fc8f1e92d730", "fusion_lon": 0.0, "lat": 38.925711, "fusion_lat": 0.0}, {"is_disabled": 0, "rental_uris": {"android": "https://dc.lft.to/lastmile_qr_scan", "ios": "https://dc.lft.to/lastmile_qr_scan"}, "is_reserved": 0, "name": "4cfbb590145733f8fc4b6897581df199", "lon": -77.00931266666667, "type": "electric_scooter", "bike_id": "4cfbb590145733f8fc4b6897581df199", "fusion_lon": 0.0, "lat": 38.8983515, "fusion_lat": 0.0}, {"is_disabled": 0, "rental_uris": {"android": "https://dc.lft.to/lastmile_qr_scan", "ios": "https://dc.lft.to/lastmile_qr_scan"}, "is_reserved": 0, "name": "c62936f9e3553df637e0a886018fcae6", "lon": -77.03855983333334, "type": "electric_scooter", "bike_id": "c62936f9e3553df637e0a886018fcae6", "fusion_lon": 0.0, "lat": 38.918397, "fusion_lat": 0.0}, {"is_disabled": 0, "rental_uris": {"android": "https://dc.lft.to/lastmile_qr_scan", "ios": "https://dc.lft.to/lastmile_qr_scan"}, "is_reserved": 0, "name": "92c0b590fb836564141977827d092f32", "lon": -77.1143, "type": "electric_bike", "bike_id": "92c0b590fb836564141977827d092f32", "fusion_lon": 0.0, "lat": 38.85247716666667, "fusion_lat": 0.0}, {"is_disabled": 0, "rental_uris": {"android": "https://dc.lft.to/lastmile_qr_scan", "ios": "https://dc.lft.to/lastmile_qr_scan"}, "is_reserved": 0, "name": "185746db02924f6a355f5a98cd82c972", "lon": -77.00329466666666, "type": "electric_scooter", "bike_id": "185746db02924f6a355f5a98cd82c972", "fusion_lon": 0.0, "lat": 38.89220533333334, "fusion_lat": 0.0}, {"is_disabled": 0, "rental_uris": {"android": "https://dc.lft.to/lastmile_qr_scan", "ios": "https://dc.lft.to/lastmile_qr_scan"}, "is_reserved": 0, "name": "d14bf0161142ea27bb8283e83e367203", "lon": -77.022231, "type": "electric_scooter", "bike_id": "d14bf0161142ea27bb8283e83e367203", "fusion_lon": 0.0, "lat": 38.921028666666665, "fusion_lat": 0.0}, {"is_disabled": 0, "rental_uris": {"android": "https://dc.lft.to/lastmile_qr_scan", "ios": "https://dc.lft.to/lastmile_qr_scan"}, "is_reserved": 0, "name": "9794a4fe728d7d1ffb65d78ff5cabf00", "lon": -77.005714, "type": "electric_scooter", "bike_id": "9794a4fe728d7d1ffb65d78ff5cabf00", "fusion_lon": 0.0, "lat": 38.88506266666667, "fusion_lat": 0.0}, {"is_disabled": 0, "rental_uris": {"android": "https://dc.lft.to/lastmile_qr_scan", "ios": "https://dc.lft.to/lastmile_qr_scan"}, "is_reserved": 0, "name": "e4c35f0356cd1c7f03bfcf9262b3cf91", "lon": -77.0114305, "type": "electric_scooter", "bike_id": "e4c35f0356cd1c7f03bfcf9262b3cf91", "fusion_lon": 0.0, "lat": 38.90963683333333, "fusion_lat": 0.0}, {"is_disabled": 0, "rental_uris": {"android": "https://dc.lft.to/lastmile_qr_scan", "ios": "https://dc.lft.to/lastmile_qr_scan"}, "is_reserved": 0, "name": "d29c15cd6d69b67320488bafa4c49244", "lon": -77.04146166666666, "type": "electric_scooter", "bike_id": "d29c15cd6d69b67320488bafa4c49244", "fusion_lon": 0.0, "lat": 38.92262683333333, "fusion_lat": 0.0}, {"is_disabled": 0, "rental_uris": {"android": "https://dc.lft.to/lastmile_qr_scan", "ios": "https://dc.lft.to/lastmile_qr_scan"}, "is_reserved": 0, "name": "520216834978fd1c01c77d201ae8d788", "lon": -77.0326855, "type": "electric_scooter", "bike_id": "520216834978fd1c01c77d201ae8d788", "fusion_lon": 0.0, "lat": 38.91339816666667, "fusion_lat": 0.0}, {"is_disabled": 0, "rental_uris": {"android": "https://dc.lft.to/lastmile_qr_scan", "ios": "https://dc.lft.to/lastmile_qr_scan"}, "is_reserved": 0, "name": "9eff70e9def1dc63d088ede061ea4500", "lon": -77.02519933333333, "type": "electric_scooter", "bike_id": "9eff70e9def1dc63d088ede061ea4500", "fusion_lon": 0.0, "lat": 38.9207195, "fusion_lat": 0.0}, {"is_disabled": 0, "rental_uris": {"android": "https://dc.lft.to/lastmile_qr_scan", "ios": "https://dc.lft.to/lastmile_qr_scan"}, "is_reserved": 0, "name": "a0e8bde498d5fdadd02078e501993bdc", "lon": -77.05726866666667, "type": "electric_scooter", "bike_id": "a0e8bde498d5fdadd02078e501993bdc", "fusion_lon": 0.0, "lat": 38.93371366666667, "fusion_lat": 0.0}, {"is_disabled": 0, "rental_uris": {"android": "https://dc.lft.to/lastmile_qr_scan", "ios": "https://dc.lft.to/lastmile_qr_scan"}, "is_reserved": 0, "name": "740d2b8d00d3653a614f70e3d75ef171", "lon": -77.01023883333333, "type": "electric_scooter", "bike_id": "740d2b8d00d3653a614f70e3d75ef171", "fusion_lon": 0.0, "lat": 38.91120883333333, "fusion_lat": 0.0}, {"is_disabled": 0, "rental_uris": {"android": "https://dc.lft.to/lastmile_qr_scan", "ios": "https://dc.lft.to/lastmile_qr_scan"}, "is_reserved": 0, "name": "723063f6da5b81224ae9e3e1ae04785e", "lon": -77.015159, "type": "electric_scooter", "bike_id": "723063f6da5b81224ae9e3e1ae04785e", "fusion_lon": 0.0, "lat": 38.90063633333333, "fusion_lat": 0.0}, {"is_disabled": 0, "rental_uris": {"android": "https://dc.lft.to/lastmile_qr_scan", "ios": "https://dc.lft.to/lastmile_qr_scan"}, "is_reserved": 0, "name": "60813a83e725ec48909571e22ac97377", "lon": -77.06357816666667, "type": "electric_bike", "bike_id": "60813a83e725ec48909571e22ac97377", "fusion_lon": 0.0, "lat": 38.862764, "fusion_lat": 0.0}, {"is_disabled": 0, "rental_uris": {"android": "https://dc.lft.to/lastmile_qr_scan", "ios": "https://dc.lft.to/lastmile_qr_scan"}, "is_reserved": 0, "name": "8c1ac2e9e71158b7d9f90daea1124de0", "lon": -77.04265133333334, "type": "electric_scooter", "bike_id": "8c1ac2e9e71158b7d9f90daea1124de0", "fusion_lon": 0.0, "lat": 38.908371, "fusion_lat": 0.0}, {"is_disabled": 0, "rental_uris": {"android": "https://dc.lft.to/lastmile_qr_scan", "ios": "https://dc.lft.to/lastmile_qr_scan"}, "is_reserved": 0, "name": "ea853c5c3cd086cea40846e15a07b400", "lon": -77.03184583333334, "type": "electric_scooter", "bike_id": "ea853c5c3cd086cea40846e15a07b400", "fusion_lon": 0.0, "lat": 38.90840733333334, "fusion_lat": 0.0}, {"is_disabled": 0, "rental_uris": {"android": "https://dc.lft.to/lastmile_qr_scan", "ios": "https://dc.lft.to/lastmile_qr_scan"}, "is_reserved": 0, "name": "32b4cc775dcaff5adf565be86f7bccdd", "lon": -77.03782866666667, "type": "electric_scooter", "bike_id": "32b4cc775dcaff5adf565be86f7bccdd", "fusion_lon": 0.0, "lat": 38.92622716666666, "fusion_lat": 0.0}, {"is_disabled": 0, "rental_uris": {"android": "https://dc.lft.to/lastmile_qr_scan", "ios": "https://dc.lft.to/lastmile_qr_scan"}, "is_reserved": 0, "name": "12cedae6082593a0fac1bc0e0c87988d", "lon": -77.06038183333334, "type": "electric_scooter", "bike_id": "12cedae6082593a0fac1bc0e0c87988d", "fusion_lon": 0.0, "lat": 38.93879833333333, "fusion_lat": 0.0}, {"is_disabled": 0, "rental_uris": {"android": "https://dc.lft.to/lastmile_qr_scan", "ios": "https://dc.lft.to/lastmile_qr_scan"}, "is_reserved": 0, "name": "33e7261215afbdb89a6868567d328cf0", "lon": -77.03185116666667, "type": "electric_scooter", "bike_id": "33e7261215afbdb89a6868567d328cf0", "fusion_lon": 0.0, "lat": 38.91916483333333, "fusion_lat": 0.0}, {"is_disabled": 0, "rental_uris": {"android": "https://dc.lft.to/lastmile_qr_scan", "ios": "https://dc.lft.to/lastmile_qr_scan"}, "is_reserved": 0, "name": "6259f96da129d494fe294c8bb2728762", "lon": -77.01116783333333, "type": "electric_scooter", "bike_id": "6259f96da129d494fe294c8bb2728762", "fusion_lon": 0.0, "lat": 38.903568666666665, "fusion_lat": 0.0}, {"is_disabled": 0, "rental_uris": {"android": "https://dc.lft.to/lastmile_qr_scan", "ios": "https://dc.lft.to/lastmile_qr_scan"}, "is_reserved": 0, "name": "16b7f8e3ecf895d9fde5922b4f3afa6f", "lon": -76.99963016666666, "type": "electric_scooter", "bike_id": "16b7f8e3ecf895d9fde5922b4f3afa6f", "fusion_lon": 0.0, "lat": 38.84288633333333, "fusion_lat": 0.0}, {"is_disabled": 0, "rental_uris": {"android": "https://dc.lft.to/lastmile_qr_scan", "ios": "https://dc.lft.to/lastmile_qr_scan"}, "is_reserved": 0, "name": "b297ae11a3a8705e0b1ae8e8ccf6aa6d", "lon": -77.05004666666666, "type": "electric_scooter", "bike_id": "b297ae11a3a8705e0b1ae8e8ccf6aa6d", "fusion_lon": 0.0, "lat": 38.892305666666665, "fusion_lat": 0.0}, {"is_disabled": 0, "rental_uris": {"android": "https://dc.lft.to/lastmile_qr_scan", "ios": "https://dc.lft.to/lastmile_qr_scan"}, "is_reserved": 0, "name": "82287ba7e3ff95daed419281127ce077", "lon": -77.01617183333333, "type": "electric_scooter", "bike_id": "82287ba7e3ff95daed419281127ce077", "fusion_lon": 0.0, "lat": 38.87237066666667, "fusion_lat": 0.0}, {"is_disabled": 0, "rental_uris": {"android": "https://dc.lft.to/lastmile_qr_scan", "ios": "https://dc.lft.to/lastmile_qr_scan"}, "is_reserved": 0, "name": "d1bb2100077332bcee67318b295ea03f", "lon": -77.03149616666667, "type": "electric_scooter", "bike_id": "d1bb2100077332bcee67318b295ea03f", "fusion_lon": 0.0, "lat": 38.9162645, "fusion_lat": 0.0}, {"is_disabled": 0, "rental_uris": {"android": "https://dc.lft.to/lastmile_qr_scan", "ios": "https://dc.lft.to/lastmile_qr_scan"}, "is_reserved": 0, "name": "d68e4276da72ae8c6ef1a19ed22deec4", "lon": -76.989675, "type": "electric_scooter", "bike_id": "d68e4276da72ae8c6ef1a19ed22deec4", "fusion_lon": 0.0, "lat": 38.90246883333333, "fusion_lat": 0.0}, {"is_disabled": 0, "rental_uris": {"android": "https://dc.lft.to/lastmile_qr_scan", "ios": "https://dc.lft.to/lastmile_qr_scan"}, "is_reserved": 0, "name": "6fd67747010f38d00edbd6d25d937ea3", "lon": -77.03651233333333, "type": "electric_scooter", "bike_id": "6fd67747010f38d00edbd6d25d937ea3", "fusion_lon": 0.0, "lat": 38.90292, "fusion_lat": 0.0}, {"is_disabled": 0, "rental_uris": {"android": "https://dc.lft.to/lastmile_qr_scan", "ios": "https://dc.lft.to/lastmile_qr_scan"}, "is_reserved": 0, "name": "95513d203d0f6553e238662ffd9473c8", "lon": -76.94950433333334, "type": "electric_bike", "bike_id": "95513d203d0f6553e238662ffd9473c8", "fusion_lon": 0.0, "lat": 38.93509983333333, "fusion_lat": 0.0}, {"is_disabled": 0, "rental_uris": {"android": "https://dc.lft.to/lastmile_qr_scan", "ios": "https://dc.lft.to/lastmile_qr_scan"}, "is_reserved": 0, "name": "4f056b0fc1bf122e0f96f504822f1ab1", "lon": -77.02417183333333, "type": "electric_scooter", "bike_id": "4f056b0fc1bf122e0f96f504822f1ab1", "fusion_lon": 0.0, "lat": 38.909664, "fusion_lat": 0.0}, {"is_disabled": 0, "rental_uris": {"android": "https://dc.lft.to/lastmile_qr_scan", "ios": "https://dc.lft.to/lastmile_qr_scan"}, "is_reserved": 0, "name": "bf06778c39e9ee3acf839819b45bc55a", "lon": -77.0468875, "type": "electric_scooter", "bike_id": "bf06778c39e9ee3acf839819b45bc55a", "fusion_lon": 0.0, "lat": 38.895148166666665, "fusion_lat": 0.0}, {"is_disabled": 0, "rental_uris": {"android": "https://dc.lft.to/lastmile_qr_scan", "ios": "https://dc.lft.to/lastmile_qr_scan"}, "is_reserved": 0, "name": "23ad5b461173fe687abce621fd5fe7d5", "lon": -77.04100516666666, "type": "electric_scooter", "bike_id": "23ad5b461173fe687abce621fd5fe7d5", "fusion_lon": 0.0, "lat": 38.907971333333336, "fusion_lat": 0.0}, {"is_disabled": 0, "rental_uris": {"android": "https://dc.lft.to/lastmile_qr_scan", "ios": "https://dc.lft.to/lastmile_qr_scan"}, "is_reserved": 0, "name": "4e9cdbf807c0ff5afc65b5212d038d50", "lon": -76.96530533333333, "type": "electric_scooter", "bike_id": "4e9cdbf807c0ff5afc65b5212d038d50", "fusion_lon": 0.0, "lat": 38.87636366666667, "fusion_lat": 0.0}, {"is_disabled": 0, "rental_uris": {"android": "https://dc.lft.to/lastmile_qr_scan", "ios": "https://dc.lft.to/lastmile_qr_scan"}, "is_reserved": 0, "name": "1d65eb8b50df7e3b0355687701e5ff1e", "lon": -77.01894, "type": "electric_scooter", "bike_id": "1d65eb8b50df7e3b0355687701e5ff1e", "fusion_lon": 0.0, "lat": 38.90648366666667, "fusion_lat": 0.0}, {"is_disabled": 0, "rental_uris": {"android": "https://dc.lft.to/lastmile_qr_scan", "ios": "https://dc.lft.to/lastmile_qr_scan"}, "is_reserved": 0, "name": "620123920ec71338bf57876de4e8164a", "lon": -77.03233683333333, "type": "electric_scooter", "bike_id": "620123920ec71338bf57876de4e8164a", "fusion_lon": 0.0, "lat": 38.931431833333335, "fusion_lat": 0.0}, {"is_disabled": 0, "rental_uris": {"android": "https://dc.lft.to/lastmile_qr_scan", "ios": "https://dc.lft.to/lastmile_qr_scan"}, "is_reserved": 0, "name": "56401715672366c5452c3142c604b941", "lon": -77.03789816666666, "type": "electric_scooter", "bike_id": "56401715672366c5452c3142c604b941", "fusion_lon": 0.0, "lat": 38.9096415, "fusion_lat": 0.0}, {"is_disabled": 0, "rental_uris": {"android": "https://dc.lft.to/lastmile_qr_scan", "ios": "https://dc.lft.to/lastmile_qr_scan"}, "is_reserved": 0, "name": "f2a0f39e08317b8cc42acaae04bdb15a", "lon": -77.01957116666667, "type": "electric_scooter", "bike_id": "f2a0f39e08317b8cc42acaae04bdb15a", "fusion_lon": 0.0, "lat": 38.928513833333334, "fusion_lat": 0.0}, {"is_disabled": 0, "rental_uris": {"android": "https://dc.lft.to/lastmile_qr_scan", "ios": "https://dc.lft.to/lastmile_qr_scan"}, "is_reserved": 0, "name": "ecfc6c71b774508e067275b1846cdd6a", "lon": -76.96561866666667, "type": "electric_bike", "bike_id": "ecfc6c71b774508e067275b1846cdd6a", "fusion_lon": 0.0, "lat": 38.950937, "fusion_lat": 0.0}, {"is_disabled": 0, "rental_uris": {"android": "https://dc.lft.to/lastmile_qr_scan", "ios": "https://dc.lft.to/lastmile_qr_scan"}, "is_reserved": 0, "name": "7c284cdbb12bd2f18289844b88dd55ce", "lon": -77.03847933333333, "type": "electric_scooter", "bike_id": "7c284cdbb12bd2f18289844b88dd55ce", "fusion_lon": 0.0, "lat": 38.90274616666667, "fusion_lat": 0.0}, {"is_disabled": 0, "rental_uris": {"android": "https://dc.lft.to/lastmile_qr_scan", "ios": "https://dc.lft.to/lastmile_qr_scan"}, "is_reserved": 0, "name": "69cb934356be99ffaf990eb717c57359", "lon": -77.01212716666667, "type": "electric_scooter", "bike_id": "69cb934356be99ffaf990eb717c57359", "fusion_lon": 0.0, "lat": 38.91822366666667, "fusion_lat": 0.0}, {"is_disabled": 0, "rental_uris": {"android": "https://dc.lft.to/lastmile_qr_scan", "ios": "https://dc.lft.to/lastmile_qr_scan"}, "is_reserved": 0, "name": "d41705e06bff2e1738a6879ef37547d7", "lon": -76.92231733333334, "type": "electric_scooter", "bike_id": "d41705e06bff2e1738a6879ef37547d7", "fusion_lon": 0.0, "lat": 38.900007, "fusion_lat": 0.0}, {"is_disabled": 0, "rental_uris": {"android": "https://dc.lft.to/lastmile_qr_scan", "ios": "https://dc.lft.to/lastmile_qr_scan"}, "is_reserved": 0, "name": "55dee4d0ca358a0b52471fe408da46d0", "lon": -77.021631, "type": "electric_scooter", "bike_id": "55dee4d0ca358a0b52471fe408da46d0", "fusion_lon": 0.0, "lat": 38.89932783333333, "fusion_lat": 0.0}, {"is_disabled": 0, "rental_uris": {"android": "https://dc.lft.to/lastmile_qr_scan", "ios": "https://dc.lft.to/lastmile_qr_scan"}, "is_reserved": 0, "name": "c0fd1f3871bfd1ff2e199d55969ab7ef", "lon": -77.04645433333333, "type": "electric_scooter", "bike_id": "c0fd1f3871bfd1ff2e199d55969ab7ef", "fusion_lon": 0.0, "lat": 38.89352516666667, "fusion_lat": 0.0}, {"is_disabled": 0, "rental_uris": {"android": "https://dc.lft.to/lastmile_qr_scan", "ios": "https://dc.lft.to/lastmile_qr_scan"}, "is_reserved": 0, "name": "c2eea9d6811841c1e7395c25de2ce5a7", "lon": -77.00389016666666, "type": "electric_scooter", "bike_id": "c2eea9d6811841c1e7395c25de2ce5a7", "fusion_lon": 0.0, "lat": 38.910651, "fusion_lat": 0.0}, {"is_disabled": 0, "rental_uris": {"android": "https://dc.lft.to/lastmile_qr_scan", "ios": "https://dc.lft.to/lastmile_qr_scan"}, "is_reserved": 0, "name": "f9f3b6d137f34d6e20152e24c1782596", "lon": -77.02210566666666, "type": "electric_scooter", "bike_id": "f9f3b6d137f34d6e20152e24c1782596", "fusion_lon": 0.0, "lat": 38.895194833333335, "fusion_lat": 0.0}, {"is_disabled": 0, "rental_uris": {"android": "https://dc.lft.to/lastmile_qr_scan", "ios": "https://dc.lft.to/lastmile_qr_scan"}, "is_reserved": 0, "name": "48dbb25951ca45223a9a42659a35a7fd", "lon": -76.94285633333334, "type": "electric_scooter", "bike_id": "48dbb25951ca45223a9a42659a35a7fd", "fusion_lon": 0.0, "lat": 38.883066666666664, "fusion_lat": 0.0}, {"is_disabled": 0, "rental_uris": {"android": "https://dc.lft.to/lastmile_qr_scan", "ios": "https://dc.lft.to/lastmile_qr_scan"}, "is_reserved": 0, "name": "36816dfa93c58e0ae76f8b598ebf17f0", "lon": -77.073929, "type": "electric_bike", "bike_id": "36816dfa93c58e0ae76f8b598ebf17f0", "fusion_lon": 0.0, "lat": 38.96176366666667, "fusion_lat": 0.0}, {"is_disabled": 0, "rental_uris": {"android": "https://dc.lft.to/lastmile_qr_scan", "ios": "https://dc.lft.to/lastmile_qr_scan"}, "is_reserved": 0, "name": "40a3fa22486dd4036307174ce54b9ac8", "lon": -77.02409116666666, "type": "electric_scooter", "bike_id": "40a3fa22486dd4036307174ce54b9ac8", "fusion_lon": 0.0, "lat": 38.896346333333334, "fusion_lat": 0.0}, {"is_disabled": 0, "rental_uris": {"android": "https://dc.lft.to/lastmile_qr_scan", "ios": "https://dc.lft.to/lastmile_qr_scan"}, "is_reserved": 0, "name": "acc71b8b8aa035050f0915094bdfd79c", "lon": -77.017611, "type": "electric_scooter", "bike_id": "acc71b8b8aa035050f0915094bdfd79c", "fusion_lon": 0.0, "lat": 38.87689683333333, "fusion_lat": 0.0}, {"is_disabled": 0, "rental_uris": {"android": "https://dc.lft.to/lastmile_qr_scan", "ios": "https://dc.lft.to/lastmile_qr_scan"}, "is_reserved": 0, "name": "819d8a5945a7f427b3408c6c0018d8fd", "lon": -77.01011833333334, "type": "electric_scooter", "bike_id": "819d8a5945a7f427b3408c6c0018d8fd", "fusion_lon": 0.0, "lat": 38.879687833333335, "fusion_lat": 0.0}, {"is_disabled": 0, "rental_uris": {"android": "https://dc.lft.to/lastmile_qr_scan", "ios": "https://dc.lft.to/lastmile_qr_scan"}, "is_reserved": 0, "name": "18e3967b3f632186a24045005f17c48b", "lon": -77.00572916666667, "type": "electric_scooter", "bike_id": "18e3967b3f632186a24045005f17c48b", "fusion_lon": 0.0, "lat": 38.928181333333335, "fusion_lat": 0.0}, {"is_disabled": 0, "rental_uris": {"android": "https://dc.lft.to/lastmile_qr_scan", "ios": "https://dc.lft.to/lastmile_qr_scan"}, "is_reserved": 0, "name": "fd0d51a8ecda00fc33c9fdb5b154bd40", "lon": -77.02946583333333, "type": "electric_scooter", "bike_id": "fd0d51a8ecda00fc33c9fdb5b154bd40", "fusion_lon": 0.0, "lat": 38.90167433333333, "fusion_lat": 0.0}, {"is_disabled": 0, "rental_uris": {"android": "https://dc.lft.to/lastmile_qr_scan", "ios": "https://dc.lft.to/lastmile_qr_scan"}, "is_reserved": 0, "name": "a97f109b64fe01fbde6482965b7beef3", "lon": -77.02226783333333, "type": "electric_scooter", "bike_id": "a97f109b64fe01fbde6482965b7beef3", "fusion_lon": 0.0, "lat": 38.89221083333333, "fusion_lat": 0.0}, {"is_disabled": 0, "rental_uris": {"android": "https://dc.lft.to/lastmile_qr_scan", "ios": "https://dc.lft.to/lastmile_qr_scan"}, "is_reserved": 0, "name": "2b9875951bed5a1cd842c01658e8dd43", "lon": -76.9951665, "type": "electric_scooter", "bike_id": "2b9875951bed5a1cd842c01658e8dd43", "fusion_lon": 0.0, "lat": 38.89486616666667, "fusion_lat": 0.0}, {"is_disabled": 0, "rental_uris": {"android": "https://dc.lft.to/lastmile_qr_scan", "ios": "https://dc.lft.to/lastmile_qr_scan"}, "is_reserved": 0, "name": "4c7bada286e61301d8aa78e6f2bca78a", "lon": -76.993963, "type": "electric_scooter", "bike_id": "4c7bada286e61301d8aa78e6f2bca78a", "fusion_lon": 0.0, "lat": 38.9102035, "fusion_lat": 0.0}, {"is_disabled": 0, "rental_uris": {"android": "https://dc.lft.to/lastmile_qr_scan", "ios": "https://dc.lft.to/lastmile_qr_scan"}, "is_reserved": 0, "name": "431acc80415a7264c4c0d509ffebb3c2", "lon": -77.05022316666667, "type": "electric_scooter", "bike_id": "431acc80415a7264c4c0d509ffebb3c2", "fusion_lon": 0.0, "lat": 38.905349666666666, "fusion_lat": 0.0}, {"is_disabled": 0, "rental_uris": {"android": "https://dc.lft.to/lastmile_qr_scan", "ios": "https://dc.lft.to/lastmile_qr_scan"}, "is_reserved": 0, "name": "cd39955bd9e03cd17690cdc759b435dd", "lon": -77.03202716666667, "type": "electric_scooter", "bike_id": "cd39955bd9e03cd17690cdc759b435dd", "fusion_lon": 0.0, "lat": 38.900347833333335, "fusion_lat": 0.0}, {"is_disabled": 0, "rental_uris": {"android": "https://dc.lft.to/lastmile_qr_scan", "ios": "https://dc.lft.to/lastmile_qr_scan"}, "is_reserved": 0, "name": "92c1104bcf34c8dda61984dcad5d5197", "lon": -77.0241835, "type": "electric_scooter", "bike_id": "92c1104bcf34c8dda61984dcad5d5197", "fusion_lon": 0.0, "lat": 38.91173583333333, "fusion_lat": 0.0}, {"is_disabled": 0, "rental_uris": {"android": "https://dc.lft.to/lastmile_qr_scan", "ios": "https://dc.lft.to/lastmile_qr_scan"}, "is_reserved": 0, "name": "28b6d1987689cce702dff1324aa36088", "lon": -77.05519566666666, "type": "electric_scooter", "bike_id": "28b6d1987689cce702dff1324aa36088", "fusion_lon": 0.0, "lat": 38.944232666666664, "fusion_lat": 0.0}, {"is_disabled": 0, "rental_uris": {"android": "https://dc.lft.to/lastmile_qr_scan", "ios": "https://dc.lft.to/lastmile_qr_scan"}, "is_reserved": 0, "name": "367ca40dd5bfb0b97d1e5327c6d9a156", "lon": -77.0440625, "type": "electric_scooter", "bike_id": "367ca40dd5bfb0b97d1e5327c6d9a156", "fusion_lon": 0.0, "lat": 38.9006755, "fusion_lat": 0.0}, {"is_disabled": 0, "rental_uris": {"android": "https://dc.lft.to/lastmile_qr_scan", "ios": "https://dc.lft.to/lastmile_qr_scan"}, "is_reserved": 0, "name": "a6490f5c0bb1973d3e2bed1cc35dd420", "lon": -77.03701516666666, "type": "electric_scooter", "bike_id": "a6490f5c0bb1973d3e2bed1cc35dd420", "fusion_lon": 0.0, "lat": 38.926462666666666, "fusion_lat": 0.0}, {"is_disabled": 0, "rental_uris": {"android": "https://dc.lft.to/lastmile_qr_scan", "ios": "https://dc.lft.to/lastmile_qr_scan"}, "is_reserved": 0, "name": "4a9c6836a70238cb9a2e7a8a04463cfe", "lon": -77.03624916666666, "type": "electric_scooter", "bike_id": "4a9c6836a70238cb9a2e7a8a04463cfe", "fusion_lon": 0.0, "lat": 38.93690466666666, "fusion_lat": 0.0}, {"is_disabled": 0, "rental_uris": {"android": "https://dc.lft.to/lastmile_qr_scan", "ios": "https://dc.lft.to/lastmile_qr_scan"}, "is_reserved": 0, "name": "2ffdd69edf8155bf64cb0db606d6ae37", "lon": -77.04175083333334, "type": "electric_scooter", "bike_id": "2ffdd69edf8155bf64cb0db606d6ae37", "fusion_lon": 0.0, "lat": 38.90861916666667, "fusion_lat": 0.0}, {"is_disabled": 0, "rental_uris": {"android": "https://dc.lft.to/lastmile_qr_scan", "ios": "https://dc.lft.to/lastmile_qr_scan"}, "is_reserved": 0, "name": "27c8cc6b22a65c92229f85e785685beb", "lon": -77.0315115, "type": "electric_scooter", "bike_id": "27c8cc6b22a65c92229f85e785685beb", "fusion_lon": 0.0, "lat": 38.88753283333333, "fusion_lat": 0.0}, {"is_disabled": 0, "rental_uris": {"android": "https://dc.lft.to/lastmile_qr_scan", "ios": "https://dc.lft.to/lastmile_qr_scan"}, "is_reserved": 0, "name": "882f40fbff4c174c31c71cc1cdd49acf", "lon": -77.0383305, "type": "electric_scooter", "bike_id": "882f40fbff4c174c31c71cc1cdd49acf", "fusion_lon": 0.0, "lat": 38.911211, "fusion_lat": 0.0}, {"is_disabled": 0, "rental_uris": {"android": "https://dc.lft.to/lastmile_qr_scan", "ios": "https://dc.lft.to/lastmile_qr_scan"}, "is_reserved": 0, "name": "b0817693ccdbf718396d5e46dba4633c", "lon": -77.02396266666666, "type": "electric_scooter", "bike_id": "b0817693ccdbf718396d5e46dba4633c", "fusion_lon": 0.0, "lat": 38.90827566666667, "fusion_lat": 0.0}, {"is_disabled": 0, "rental_uris": {"android": "https://dc.lft.to/lastmile_qr_scan", "ios": "https://dc.lft.to/lastmile_qr_scan"}, "is_reserved": 0, "name": "0f23081364d18f5e178528f6c3e4add0", "lon": -77.04176283333334, "type": "electric_scooter", "bike_id": "0f23081364d18f5e178528f6c3e4add0", "fusion_lon": 0.0, "lat": 38.90517783333333, "fusion_lat": 0.0}, {"is_disabled": 0, "rental_uris": {"android": "https://dc.lft.to/lastmile_qr_scan", "ios": "https://dc.lft.to/lastmile_qr_scan"}, "is_reserved": 0, "name": "33cd3e6a154fd2de6ad605bad6073b48", "lon": -76.93189583333333, "type": "electric_scooter", "bike_id": "33cd3e6a154fd2de6ad605bad6073b48", "fusion_lon": 0.0, "lat": 38.898830833333335, "fusion_lat": 0.0}, {"is_disabled": 0, "rental_uris": {"android": "https://dc.lft.to/lastmile_qr_scan", "ios": "https://dc.lft.to/lastmile_qr_scan"}, "is_reserved": 0, "name": "e548464184390c27b7aff17b2339fea3", "lon": -77.03651366666666, "type": "electric_bike", "bike_id": "e548464184390c27b7aff17b2339fea3", "fusion_lon": 0.0, "lat": 38.90810166666667, "fusion_lat": 0.0}, {"is_disabled": 0, "rental_uris": {"android": "https://dc.lft.to/lastmile_qr_scan", "ios": "https://dc.lft.to/lastmile_qr_scan"}, "is_reserved": 0, "name": "49c211da716042d9f50a70246b2a51eb", "lon": -77.04452266666667, "type": "electric_scooter", "bike_id": "49c211da716042d9f50a70246b2a51eb", "fusion_lon": 0.0, "lat": 38.902797666666665, "fusion_lat": 0.0}, {"is_disabled": 0, "rental_uris": {"android": "https://dc.lft.to/lastmile_qr_scan", "ios": "https://dc.lft.to/lastmile_qr_scan"}, "is_reserved": 0, "name": "ebd1da0da9f41f3954ee06301a09032c", "lon": -77.0572695, "type": "electric_scooter", "bike_id": "ebd1da0da9f41f3954ee06301a09032c", "fusion_lon": 0.0, "lat": 38.933741833333336, "fusion_lat": 0.0}, {"is_disabled": 0, "rental_uris": {"android": "https://dc.lft.to/lastmile_qr_scan", "ios": "https://dc.lft.to/lastmile_qr_scan"}, "is_reserved": 0, "name": "e449701314a1f871062df375b536f328", "lon": -77.0438505, "type": "electric_scooter", "bike_id": "e449701314a1f871062df375b536f328", "fusion_lon": 0.0, "lat": 38.9105475, "fusion_lat": 0.0}, {"is_disabled": 0, "rental_uris": {"android": "https://dc.lft.to/lastmile_qr_scan", "ios": "https://dc.lft.to/lastmile_qr_scan"}, "is_reserved": 0, "name": "01b965bae1ff4a5c15d33c5b64dbea6d", "lon": -77.04617566666667, "type": "electric_scooter", "bike_id": "01b965bae1ff4a5c15d33c5b64dbea6d", "fusion_lon": 0.0, "lat": 38.899806, "fusion_lat": 0.0}, {"is_disabled": 0, "rental_uris": {"android": "https://dc.lft.to/lastmile_qr_scan", "ios": "https://dc.lft.to/lastmile_qr_scan"}, "is_reserved": 0, "name": "13f5c0b6b8f35824d50dbfe81d3f983f", "lon": -77.02582583333333, "type": "electric_scooter", "bike_id": "13f5c0b6b8f35824d50dbfe81d3f983f", "fusion_lon": 0.0, "lat": 38.9034195, "fusion_lat": 0.0}, {"is_disabled": 0, "rental_uris": {"android": "https://dc.lft.to/lastmile_qr_scan", "ios": "https://dc.lft.to/lastmile_qr_scan"}, "is_reserved": 0, "name": "17efc9ce73fb03cc0a42b3bc5af7c56c", "lon": -77.0610005, "type": "electric_scooter", "bike_id": "17efc9ce73fb03cc0a42b3bc5af7c56c", "fusion_lon": 0.0, "lat": 38.93709966666667, "fusion_lat": 0.0}, {"is_disabled": 0, "rental_uris": {"android": "https://dc.lft.to/lastmile_qr_scan", "ios": "https://dc.lft.to/lastmile_qr_scan"}, "is_reserved": 0, "name": "37c89a69ac9b3b7f6cd0e8788b114742", "lon": -77.03229883333333, "type": "electric_scooter", "bike_id": "37c89a69ac9b3b7f6cd0e8788b114742", "fusion_lon": 0.0, "lat": 38.90870616666667, "fusion_lat": 0.0}, {"is_disabled": 0, "rental_uris": {"android": "https://dc.lft.to/lastmile_qr_scan", "ios": "https://dc.lft.to/lastmile_qr_scan"}, "is_reserved": 0, "name": "a280530793945d4d28d4170568407394", "lon": -77.019794, "type": "electric_scooter", "bike_id": "a280530793945d4d28d4170568407394", "fusion_lon": 0.0, "lat": 38.9594945, "fusion_lat": 0.0}, {"is_disabled": 0, "rental_uris": {"android": "https://dc.lft.to/lastmile_qr_scan", "ios": "https://dc.lft.to/lastmile_qr_scan"}, "is_reserved": 0, "name": "d9bcf185e5c7de045f5440a98afa2890", "lon": -76.9123965, "type": "electric_scooter", "bike_id": "d9bcf185e5c7de045f5440a98afa2890", "fusion_lon": 0.0, "lat": 38.893982666666666, "fusion_lat": 0.0}, {"is_disabled": 0, "rental_uris": {"android": "https://dc.lft.to/lastmile_qr_scan", "ios": "https://dc.lft.to/lastmile_qr_scan"}, "is_reserved": 0, "name": "658590713a4ae8e4c3c061927b3af985", "lon": -77.01812666666666, "type": "electric_scooter", "bike_id": "658590713a4ae8e4c3c061927b3af985", "fusion_lon": 0.0, "lat": 38.9210845, "fusion_lat": 0.0}, {"is_disabled": 0, "rental_uris": {"android": "https://dc.lft.to/lastmile_qr_scan", "ios": "https://dc.lft.to/lastmile_qr_scan"}, "is_reserved": 0, "name": "db6143c4e2001488e65db65c079aae5c", "lon": -76.9880805, "type": "electric_scooter", "bike_id": "db6143c4e2001488e65db65c079aae5c", "fusion_lon": 0.0, "lat": 38.908326833333334, "fusion_lat": 0.0}, {"is_disabled": 0, "rental_uris": {"android": "https://dc.lft.to/lastmile_qr_scan", "ios": "https://dc.lft.to/lastmile_qr_scan"}, "is_reserved": 0, "name": "e6b3d84c431e65834c823e4c194d58f2", "lon": -76.97183866666667, "type": "electric_scooter", "bike_id": "e6b3d84c431e65834c823e4c194d58f2", "fusion_lon": 0.0, "lat": 38.912641, "fusion_lat": 0.0}, {"is_disabled": 0, "rental_uris": {"android": "https://dc.lft.to/lastmile_qr_scan", "ios": "https://dc.lft.to/lastmile_qr_scan"}, "is_reserved": 0, "name": "196b3ffc10b4138f1d6522a2ec8870a6", "lon": -77.037935, "type": "electric_scooter", "bike_id": "196b3ffc10b4138f1d6522a2ec8870a6", "fusion_lon": 0.0, "lat": 38.936068666666664, "fusion_lat": 0.0}, {"is_disabled": 0, "rental_uris": {"android": "https://dc.lft.to/lastmile_qr_scan", "ios": "https://dc.lft.to/lastmile_qr_scan"}, "is_reserved": 0, "name": "9fad7c7633e37108777417705dfeb821", "lon": -77.03989216666666, "type": "electric_bike", "bike_id": "9fad7c7633e37108777417705dfeb821", "fusion_lon": 0.0, "lat": 38.802998333333335, "fusion_lat": 0.0}, {"is_disabled": 0, "rental_uris": {"android": "https://dc.lft.to/lastmile_qr_scan", "ios": "https://dc.lft.to/lastmile_qr_scan"}, "is_reserved": 0, "name": "1d269279c5dfdf3e06a066967cc0f6eb", "lon": -77.07619816666667, "type": "electric_scooter", "bike_id": "1d269279c5dfdf3e06a066967cc0f6eb", "fusion_lon": 0.0, "lat": 38.91272566666667, "fusion_lat": 0.0}, {"is_disabled": 0, "rental_uris": {"android": "https://dc.lft.to/lastmile_qr_scan", "ios": "https://dc.lft.to/lastmile_qr_scan"}, "is_reserved": 0, "name": "dd8b5692b031f72fad43314f20721a74", "lon": -77.0332395, "type": "electric_scooter", "bike_id": "dd8b5692b031f72fad43314f20721a74", "fusion_lon": 0.0, "lat": 38.928797333333335, "fusion_lat": 0.0}, {"is_disabled": 0, "rental_uris": {"android": "https://dc.lft.to/lastmile_qr_scan", "ios": "https://dc.lft.to/lastmile_qr_scan"}, "is_reserved": 0, "name": "8cab1347a1c4cc2b8f3de01146481c3a", "lon": -77.01748783333333, "type": "electric_scooter", "bike_id": "8cab1347a1c4cc2b8f3de01146481c3a", "fusion_lon": 0.0, "lat": 38.883212, "fusion_lat": 0.0}, {"is_disabled": 0, "rental_uris": {"android": "https://dc.lft.to/lastmile_qr_scan", "ios": "https://dc.lft.to/lastmile_qr_scan"}, "is_reserved": 0, "name": "1cce67451578e8fefd2d4d3a67b6fe6a", "lon": -77.05930733333334, "type": "electric_bike", "bike_id": "1cce67451578e8fefd2d4d3a67b6fe6a", "fusion_lon": 0.0, "lat": 38.905269, "fusion_lat": 0.0}, {"is_disabled": 0, "rental_uris": {"android": "https://dc.lft.to/lastmile_qr_scan", "ios": "https://dc.lft.to/lastmile_qr_scan"}, "is_reserved": 0, "name": "c2e589dbdf752f10adc14f1fb6eb539c", "lon": -77.0314485, "type": "electric_scooter", "bike_id": "c2e589dbdf752f10adc14f1fb6eb539c", "fusion_lon": 0.0, "lat": 38.92484916666667, "fusion_lat": 0.0}, {"is_disabled": 0, "rental_uris": {"android": "https://dc.lft.to/lastmile_qr_scan", "ios": "https://dc.lft.to/lastmile_qr_scan"}, "is_reserved": 0, "name": "1fc99f38e333b0d409b41141a036a95b", "lon": -77.04367616666667, "type": "electric_scooter", "bike_id": "1fc99f38e333b0d409b41141a036a95b", "fusion_lon": 0.0, "lat": 38.9026925, "fusion_lat": 0.0}, {"is_disabled": 0, "rental_uris": {"android": "https://dc.lft.to/lastmile_qr_scan", "ios": "https://dc.lft.to/lastmile_qr_scan"}, "is_reserved": 0, "name": "7c8e41b0e3cb6be4e3ae61443a1f76a5", "lon": -77.04075966666667, "type": "electric_scooter", "bike_id": "7c8e41b0e3cb6be4e3ae61443a1f76a5", "fusion_lon": 0.0, "lat": 38.9003105, "fusion_lat": 0.0}, {"is_disabled": 0, "rental_uris": {"android": "https://dc.lft.to/lastmile_qr_scan", "ios": "https://dc.lft.to/lastmile_qr_scan"}, "is_reserved": 0, "name": "05aaac08bcd48ea372a4e9de5aba5f0e", "lon": -77.011064, "type": "electric_scooter", "bike_id": "05aaac08bcd48ea372a4e9de5aba5f0e", "fusion_lon": 0.0, "lat": 38.90970033333333, "fusion_lat": 0.0}, {"is_disabled": 0, "rental_uris": {"android": "https://dc.lft.to/lastmile_qr_scan", "ios": "https://dc.lft.to/lastmile_qr_scan"}, "is_reserved": 0, "name": "bb71142ad4d01d86a5110ff852605583", "lon": -77.00715083333333, "type": "electric_scooter", "bike_id": "bb71142ad4d01d86a5110ff852605583", "fusion_lon": 0.0, "lat": 38.8849145, "fusion_lat": 0.0}, {"is_disabled": 0, "rental_uris": {"android": "https://dc.lft.to/lastmile_qr_scan", "ios": "https://dc.lft.to/lastmile_qr_scan"}, "is_reserved": 0, "name": "1c39efb656111c703a301f93243baa94", "lon": -77.01569083333334, "type": "electric_scooter", "bike_id": "1c39efb656111c703a301f93243baa94", "fusion_lon": 0.0, "lat": 38.872684166666666, "fusion_lat": 0.0}, {"is_disabled": 0, "rental_uris": {"android": "https://dc.lft.to/lastmile_qr_scan", "ios": "https://dc.lft.to/lastmile_qr_scan"}, "is_reserved": 0, "name": "5a644952e6d704d1609650e1fb555414", "lon": -77.0957675, "type": "electric_bike", "bike_id": "5a644952e6d704d1609650e1fb555414", "fusion_lon": 0.0, "lat": 38.916775666666666, "fusion_lat": 0.0}, {"is_disabled": 0, "rental_uris": {"android": "https://dc.lft.to/lastmile_qr_scan", "ios": "https://dc.lft.to/lastmile_qr_scan"}, "is_reserved": 0, "name": "e7eee503688b0793e3628f9f81812de9", "lon": -77.02415183333333, "type": "electric_scooter", "bike_id": "e7eee503688b0793e3628f9f81812de9", "fusion_lon": 0.0, "lat": 38.926561666666665, "fusion_lat": 0.0}, {"is_disabled": 0, "rental_uris": {"android": "https://dc.lft.to/lastmile_qr_scan", "ios": "https://dc.lft.to/lastmile_qr_scan"}, "is_reserved": 0, "name": "42d6539c444bff4994673ca69044d752", "lon": -76.99724166666667, "type": "electric_scooter", "bike_id": "42d6539c444bff4994673ca69044d752", "fusion_lon": 0.0, "lat": 38.91026216666667, "fusion_lat": 0.0}, {"is_disabled": 0, "rental_uris": {"android": "https://dc.lft.to/lastmile_qr_scan", "ios": "https://dc.lft.to/lastmile_qr_scan"}, "is_reserved": 0, "name": "c263f99bbb25bd820f45439d59900332", "lon": -76.99538316666667, "type": "electric_scooter", "bike_id": "c263f99bbb25bd820f45439d59900332", "fusion_lon": 0.0, "lat": 38.862558, "fusion_lat": 0.0}, {"is_disabled": 0, "rental_uris": {"android": "https://dc.lft.to/lastmile_qr_scan", "ios": "https://dc.lft.to/lastmile_qr_scan"}, "is_reserved": 0, "name": "a040e3b87247669e6db69fc80a47e17a", "lon": -77.01471133333334, "type": "electric_scooter", "bike_id": "a040e3b87247669e6db69fc80a47e17a", "fusion_lon": 0.0, "lat": 38.9177375, "fusion_lat": 0.0}, {"is_disabled": 0, "rental_uris": {"android": "https://dc.lft.to/lastmile_qr_scan", "ios": "https://dc.lft.to/lastmile_qr_scan"}, "is_reserved": 0, "name": "0f006e747499899968721fbcba6dbf85", "lon": -77.02348333333333, "type": "electric_scooter", "bike_id": "0f006e747499899968721fbcba6dbf85", "fusion_lon": 0.0, "lat": 38.943009833333335, "fusion_lat": 0.0}, {"is_disabled": 0, "rental_uris": {"android": "https://dc.lft.to/lastmile_qr_scan", "ios": "https://dc.lft.to/lastmile_qr_scan"}, "is_reserved": 0, "name": "b08feb0d9938dec298a1a517196616b1", "lon": -77.0467885, "type": "electric_scooter", "bike_id": "b08feb0d9938dec298a1a517196616b1", "fusion_lon": 0.0, "lat": 38.915708333333335, "fusion_lat": 0.0}, {"is_disabled": 0, "rental_uris": {"android": "https://dc.lft.to/lastmile_qr_scan", "ios": "https://dc.lft.to/lastmile_qr_scan"}, "is_reserved": 0, "name": "1fd971f1f36d044d4f776800cad2e961", "lon": -77.05915033333333, "type": "electric_scooter", "bike_id": "1fd971f1f36d044d4f776800cad2e961", "fusion_lon": 0.0, "lat": 38.905413833333334, "fusion_lat": 0.0}, {"is_disabled": 0, "rental_uris": {"android": "https://dc.lft.to/lastmile_qr_scan", "ios": "https://dc.lft.to/lastmile_qr_scan"}, "is_reserved": 0, "name": "553fd9a2a4f6a36479714437ea077aad", "lon": -76.98100033333333, "type": "electric_bike", "bike_id": "553fd9a2a4f6a36479714437ea077aad", "fusion_lon": 0.0, "lat": 38.857226, "fusion_lat": 0.0}, {"is_disabled": 0, "rental_uris": {"android": "https://dc.lft.to/lastmile_qr_scan", "ios": "https://dc.lft.to/lastmile_qr_scan"}, "is_reserved": 0, "name": "489ac57534522291342206bb5e7ad40d", "lon": -77.1954805, "type": "electric_bike", "bike_id": "489ac57534522291342206bb5e7ad40d", "fusion_lon": 0.0, "lat": 39.115139166666665, "fusion_lat": 0.0}, {"is_disabled": 0, "rental_uris": {"android": "https://dc.lft.to/lastmile_qr_scan", "ios": "https://dc.lft.to/lastmile_qr_scan"}, "is_reserved": 0, "name": "a70473eba7c3d16bfc298e50a77b1b2f", "lon": -77.01770666666667, "type": "electric_scooter", "bike_id": "a70473eba7c3d16bfc298e50a77b1b2f", "fusion_lon": 0.0, "lat": 38.88592233333333, "fusion_lat": 0.0}, {"is_disabled": 0, "rental_uris": {"android": "https://dc.lft.to/lastmile_qr_scan", "ios": "https://dc.lft.to/lastmile_qr_scan"}, "is_reserved": 0, "name": "d97207e0f45046448a5b9220a8fb3e48", "lon": -77.04980066666667, "type": "electric_bike", "bike_id": "d97207e0f45046448a5b9220a8fb3e48", "fusion_lon": 0.0, "lat": 38.99246933333333, "fusion_lat": 0.0}, {"is_disabled": 0, "rental_uris": {"android": "https://dc.lft.to/lastmile_qr_scan", "ios": "https://dc.lft.to/lastmile_qr_scan"}, "is_reserved": 0, "name": "bbbc71c98340c284aa157d42a10c21aa", "lon": -77.025447, "type": "electric_scooter", "bike_id": "bbbc71c98340c284aa157d42a10c21aa", "fusion_lon": 0.0, "lat": 38.91629016666667, "fusion_lat": 0.0}, {"is_disabled": 0, "rental_uris": {"android": "https://dc.lft.to/lastmile_qr_scan", "ios": "https://dc.lft.to/lastmile_qr_scan"}, "is_reserved": 0, "name": "ae0f748ad10fda23d0c6a26dc8cb48c3", "lon": -77.0434615, "type": "electric_scooter", "bike_id": "ae0f748ad10fda23d0c6a26dc8cb48c3", "fusion_lon": 0.0, "lat": 38.90342033333334, "fusion_lat": 0.0}, {"is_disabled": 0, "rental_uris": {"android": "https://dc.lft.to/lastmile_qr_scan", "ios": "https://dc.lft.to/lastmile_qr_scan"}, "is_reserved": 0, "name": "104d6f01a90870d1d155a55a7e3308fa", "lon": -77.03453916666666, "type": "electric_scooter", "bike_id": "104d6f01a90870d1d155a55a7e3308fa", "fusion_lon": 0.0, "lat": 38.90439333333333, "fusion_lat": 0.0}, {"is_disabled": 0, "rental_uris": {"android": "https://dc.lft.to/lastmile_qr_scan", "ios": "https://dc.lft.to/lastmile_qr_scan"}, "is_reserved": 0, "name": "5118a86ef180ef9d6d6b0ffa9a7d2246", "lon": -77.043053, "type": "electric_scooter", "bike_id": "5118a86ef180ef9d6d6b0ffa9a7d2246", "fusion_lon": 0.0, "lat": 38.9111075, "fusion_lat": 0.0}, {"is_disabled": 0, "rental_uris": {"android": "https://dc.lft.to/lastmile_qr_scan", "ios": "https://dc.lft.to/lastmile_qr_scan"}, "is_reserved": 0, "name": "48fa4ef7d02a076ee9c16f59c8a842fc", "lon": -77.02574583333333, "type": "electric_scooter", "bike_id": "48fa4ef7d02a076ee9c16f59c8a842fc", "fusion_lon": 0.0, "lat": 38.93090466666666, "fusion_lat": 0.0}, {"is_disabled": 0, "rental_uris": {"android": "https://dc.lft.to/lastmile_qr_scan", "ios": "https://dc.lft.to/lastmile_qr_scan"}, "is_reserved": 0, "name": "a7776611c2d7eb133d57855ebc9ae012", "lon": -77.034236, "type": "electric_scooter", "bike_id": "a7776611c2d7eb133d57855ebc9ae012", "fusion_lon": 0.0, "lat": 38.90241283333334, "fusion_lat": 0.0}, {"is_disabled": 0, "rental_uris": {"android": "https://dc.lft.to/lastmile_qr_scan", "ios": "https://dc.lft.to/lastmile_qr_scan"}, "is_reserved": 0, "name": "c2e2a463105f4e530eda30f0cfbdbffc", "lon": -77.04011816666667, "type": "electric_scooter", "bike_id": "c2e2a463105f4e530eda30f0cfbdbffc", "fusion_lon": 0.0, "lat": 38.9104485, "fusion_lat": 0.0}, {"is_disabled": 0, "rental_uris": {"android": "https://dc.lft.to/lastmile_qr_scan", "ios": "https://dc.lft.to/lastmile_qr_scan"}, "is_reserved": 0, "name": "657eea8599c69fa086b8e566b983c808", "lon": -77.00581616666666, "type": "electric_scooter", "bike_id": "657eea8599c69fa086b8e566b983c808", "fusion_lon": 0.0, "lat": 38.875483833333334, "fusion_lat": 0.0}, {"is_disabled": 0, "rental_uris": {"android": "https://dc.lft.to/lastmile_qr_scan", "ios": "https://dc.lft.to/lastmile_qr_scan"}, "is_reserved": 0, "name": "4d2376673a1d6501ecf48433074e9754", "lon": -77.03239933333333, "type": "electric_scooter", "bike_id": "4d2376673a1d6501ecf48433074e9754", "fusion_lon": 0.0, "lat": 38.91259866666667, "fusion_lat": 0.0}, {"is_disabled": 0, "rental_uris": {"android": "https://dc.lft.to/lastmile_qr_scan", "ios": "https://dc.lft.to/lastmile_qr_scan"}, "is_reserved": 0, "name": "aa53843ac8e48c069ea9598914bf2da1", "lon": -77.06856083333334, "type": "electric_scooter", "bike_id": "aa53843ac8e48c069ea9598914bf2da1", "fusion_lon": 0.0, "lat": 38.95280616666667, "fusion_lat": 0.0}, {"is_disabled": 0, "rental_uris": {"android": "https://dc.lft.to/lastmile_qr_scan", "ios": "https://dc.lft.to/lastmile_qr_scan"}, "is_reserved": 0, "name": "73df97155efb25912c21e6a5c4cff3e6", "lon": -76.99903616666667, "type": "electric_scooter", "bike_id": "73df97155efb25912c21e6a5c4cff3e6", "fusion_lon": 0.0, "lat": 38.956571, "fusion_lat": 0.0}, {"is_disabled": 0, "rental_uris": {"android": "https://dc.lft.to/lastmile_qr_scan", "ios": "https://dc.lft.to/lastmile_qr_scan"}, "is_reserved": 0, "name": "0fa9716c2ca22ba61bea2b9abf57a297", "lon": -77.02393183333334, "type": "electric_scooter", "bike_id": "0fa9716c2ca22ba61bea2b9abf57a297", "fusion_lon": 0.0, "lat": 38.907127333333335, "fusion_lat": 0.0}, {"is_disabled": 0, "rental_uris": {"android": "https://dc.lft.to/lastmile_qr_scan", "ios": "https://dc.lft.to/lastmile_qr_scan"}, "is_reserved": 0, "name": "703f3b4c8fa41eaef57b4260db2b2895", "lon": -77.03862783333334, "type": "electric_scooter", "bike_id": "703f3b4c8fa41eaef57b4260db2b2895", "fusion_lon": 0.0, "lat": 38.91561866666667, "fusion_lat": 0.0}, {"is_disabled": 0, "rental_uris": {"android": "https://dc.lft.to/lastmile_qr_scan", "ios": "https://dc.lft.to/lastmile_qr_scan"}, "is_reserved": 0, "name": "2de878735352eecd78fb384b9ee37133", "lon": -77.02353816666667, "type": "electric_scooter", "bike_id": "2de878735352eecd78fb384b9ee37133", "fusion_lon": 0.0, "lat": 38.92271483333333, "fusion_lat": 0.0}, {"is_disabled": 0, "rental_uris": {"android": "https://dc.lft.to/lastmile_qr_scan", "ios": "https://dc.lft.to/lastmile_qr_scan"}, "is_reserved": 0, "name": "50d45abd40e83495ad27c20fed972570", "lon": -76.94893816666666, "type": "electric_scooter", "bike_id": "50d45abd40e83495ad27c20fed972570", "fusion_lon": 0.0, "lat": 38.8953845, "fusion_lat": 0.0}, {"is_disabled": 0, "rental_uris": {"android": "https://dc.lft.to/lastmile_qr_scan", "ios": "https://dc.lft.to/lastmile_qr_scan"}, "is_reserved": 0, "name": "3b8a1c783f32360a1901e52398f5e7b2", "lon": -77.00917, "type": "electric_scooter", "bike_id": "3b8a1c783f32360a1901e52398f5e7b2", "fusion_lon": 0.0, "lat": 38.89553183333334, "fusion_lat": 0.0}, {"is_disabled": 0, "rental_uris": {"android": "https://dc.lft.to/lastmile_qr_scan", "ios": "https://dc.lft.to/lastmile_qr_scan"}, "is_reserved": 0, "name": "360e72ee6693f27144ed4217dec145fd", "lon": -77.03390966666667, "type": "electric_scooter", "bike_id": "360e72ee6693f27144ed4217dec145fd", "fusion_lon": 0.0, "lat": 38.93233716666667, "fusion_lat": 0.0}, {"is_disabled": 0, "rental_uris": {"android": "https://dc.lft.to/lastmile_qr_scan", "ios": "https://dc.lft.to/lastmile_qr_scan"}, "is_reserved": 0, "name": "1adbe0b2e4a048e8907cbf3bb9e0f838", "lon": -76.98657766666666, "type": "electric_scooter", "bike_id": "1adbe0b2e4a048e8907cbf3bb9e0f838", "fusion_lon": 0.0, "lat": 38.91314, "fusion_lat": 0.0}, {"is_disabled": 0, "rental_uris": {"android": "https://dc.lft.to/lastmile_qr_scan", "ios": "https://dc.lft.to/lastmile_qr_scan"}, "is_reserved": 0, "name": "213315651ab3dd42d201ba41586e1edd", "lon": -77.031944, "type": "electric_scooter", "bike_id": "213315651ab3dd42d201ba41586e1edd", "fusion_lon": 0.0, "lat": 38.9212375, "fusion_lat": 0.0}, {"is_disabled": 0, "rental_uris": {"android": "https://dc.lft.to/lastmile_qr_scan", "ios": "https://dc.lft.to/lastmile_qr_scan"}, "is_reserved": 0, "name": "87e8ff8c8820bf175ebac485769eeddb", "lon": -76.98654483333334, "type": "electric_scooter", "bike_id": "87e8ff8c8820bf175ebac485769eeddb", "fusion_lon": 0.0, "lat": 38.858091, "fusion_lat": 0.0}, {"is_disabled": 0, "rental_uris": {"android": "https://dc.lft.to/lastmile_qr_scan", "ios": "https://dc.lft.to/lastmile_qr_scan"}, "is_reserved": 0, "name": "17a81d119ee1dca952ce7d9624058668", "lon": -76.9802675, "type": "electric_bike", "bike_id": "17a81d119ee1dca952ce7d9624058668", "fusion_lon": 0.0, "lat": 38.88758633333333, "fusion_lat": 0.0}, {"is_disabled": 0, "rental_uris": {"android": "https://dc.lft.to/lastmile_qr_scan", "ios": "https://dc.lft.to/lastmile_qr_scan"}, "is_reserved": 0, "name": "ebef01ed4d986c7a047df9569bccdde2", "lon": -77.030884, "type": "electric_scooter", "bike_id": "ebef01ed4d986c7a047df9569bccdde2", "fusion_lon": 0.0, "lat": 38.909704166666664, "fusion_lat": 0.0}, {"is_disabled": 0, "rental_uris": {"android": "https://dc.lft.to/lastmile_qr_scan", "ios": "https://dc.lft.to/lastmile_qr_scan"}, "is_reserved": 0, "name": "3afe939e7289b3ebf176d7c442c3a511", "lon": -77.04836516666667, "type": "electric_scooter", "bike_id": "3afe939e7289b3ebf176d7c442c3a511", "fusion_lon": 0.0, "lat": 38.900639, "fusion_lat": 0.0}, {"is_disabled": 0, "rental_uris": {"android": "https://dc.lft.to/lastmile_qr_scan", "ios": "https://dc.lft.to/lastmile_qr_scan"}, "is_reserved": 0, "name": "83ae6c8623bed69c34daaf774ca29b6a", "lon": -77.02595466666666, "type": "electric_scooter", "bike_id": "83ae6c8623bed69c34daaf774ca29b6a", "fusion_lon": 0.0, "lat": 38.94208183333333, "fusion_lat": 0.0}, {"is_disabled": 0, "rental_uris": {"android": "https://dc.lft.to/lastmile_qr_scan", "ios": "https://dc.lft.to/lastmile_qr_scan"}, "is_reserved": 0, "name": "67ce56e071141de5ef95d577448fa0f6", "lon": -77.03172133333334, "type": "electric_scooter", "bike_id": "67ce56e071141de5ef95d577448fa0f6", "fusion_lon": 0.0, "lat": 38.88343283333333, "fusion_lat": 0.0}, {"is_disabled": 0, "rental_uris": {"android": "https://dc.lft.to/lastmile_qr_scan", "ios": "https://dc.lft.to/lastmile_qr_scan"}, "is_reserved": 0, "name": "9ba4fa730ec55f18c5479786f218176d", "lon": -76.87496566666667, "type": "electric_bike", "bike_id": "9ba4fa730ec55f18c5479786f218176d", "fusion_lon": 0.0, "lat": 38.99093333333333, "fusion_lat": 0.0}, {"is_disabled": 0, "rental_uris": {"android": "https://dc.lft.to/lastmile_qr_scan", "ios": "https://dc.lft.to/lastmile_qr_scan"}, "is_reserved": 0, "name": "adff141ba24fabf8343fb3b539550cdb", "lon": -77.03185883333333, "type": "electric_scooter", "bike_id": "adff141ba24fabf8343fb3b539550cdb", "fusion_lon": 0.0, "lat": 38.892306833333336, "fusion_lat": 0.0}, {"is_disabled": 0, "rental_uris": {"android": "https://dc.lft.to/lastmile_qr_scan", "ios": "https://dc.lft.to/lastmile_qr_scan"}, "is_reserved": 0, "name": "9143016894b317446a861e7af3158c4d", "lon": -77.11217366666666, "type": "electric_bike", "bike_id": "9143016894b317446a861e7af3158c4d", "fusion_lon": 0.0, "lat": 38.82877766666667, "fusion_lat": 0.0}, {"is_disabled": 0, "rental_uris": {"android": "https://dc.lft.to/lastmile_qr_scan", "ios": "https://dc.lft.to/lastmile_qr_scan"}, "is_reserved": 0, "name": "129f0d5293503ee99f4ee1b5bcf6f1b3", "lon": -77.028468, "type": "electric_scooter", "bike_id": "129f0d5293503ee99f4ee1b5bcf6f1b3", "fusion_lon": 0.0, "lat": 38.901393666666664, "fusion_lat": 0.0}, {"is_disabled": 0, "rental_uris": {"android": "https://dc.lft.to/lastmile_qr_scan", "ios": "https://dc.lft.to/lastmile_qr_scan"}, "is_reserved": 0, "name": "146753a7c51e4d1b28d32adfe4db223c", "lon": -76.9375325, "type": "electric_scooter", "bike_id": "146753a7c51e4d1b28d32adfe4db223c", "fusion_lon": 0.0, "lat": 38.890339, "fusion_lat": 0.0}, {"is_disabled": 0, "rental_uris": {"android": "https://dc.lft.to/lastmile_qr_scan", "ios": "https://dc.lft.to/lastmile_qr_scan"}, "is_reserved": 0, "name": "4b5ba029a41307b6d7a831aebfe3e071", "lon": -77.03944066666666, "type": "electric_scooter", "bike_id": "4b5ba029a41307b6d7a831aebfe3e071", "fusion_lon": 0.0, "lat": 38.90068266666667, "fusion_lat": 0.0}, {"is_disabled": 0, "rental_uris": {"android": "https://dc.lft.to/lastmile_qr_scan", "ios": "https://dc.lft.to/lastmile_qr_scan"}, "is_reserved": 0, "name": "28d0cbb5d7d618d5a885ef5f270769f5", "lon": -77.07318883333333, "type": "electric_scooter", "bike_id": "28d0cbb5d7d618d5a885ef5f270769f5", "fusion_lon": 0.0, "lat": 38.922806666666666, "fusion_lat": 0.0}, {"is_disabled": 0, "rental_uris": {"android": "https://dc.lft.to/lastmile_qr_scan", "ios": "https://dc.lft.to/lastmile_qr_scan"}, "is_reserved": 0, "name": "94d6ecb578a8d9c0799946967f0fb18a", "lon": -77.01764466666667, "type": "electric_scooter", "bike_id": "94d6ecb578a8d9c0799946967f0fb18a", "fusion_lon": 0.0, "lat": 38.9211675, "fusion_lat": 0.0}, {"is_disabled": 0, "rental_uris": {"android": "https://dc.lft.to/lastmile_qr_scan", "ios": "https://dc.lft.to/lastmile_qr_scan"}, "is_reserved": 0, "name": "714d6810f139cd876c419dc7f39c5bd5", "lon": -77.04207683333334, "type": "electric_scooter", "bike_id": "714d6810f139cd876c419dc7f39c5bd5", "fusion_lon": 0.0, "lat": 38.909217, "fusion_lat": 0.0}, {"is_disabled": 0, "rental_uris": {"android": "https://dc.lft.to/lastmile_qr_scan", "ios": "https://dc.lft.to/lastmile_qr_scan"}, "is_reserved": 0, "name": "579d5331f6ec07284c5d47c9088098eb", "lon": -77.02809083333334, "type": "electric_scooter", "bike_id": "579d5331f6ec07284c5d47c9088098eb", "fusion_lon": 0.0, "lat": 38.89718083333333, "fusion_lat": 0.0}, {"is_disabled": 0, "rental_uris": {"android": "https://dc.lft.to/lastmile_qr_scan", "ios": "https://dc.lft.to/lastmile_qr_scan"}, "is_reserved": 0, "name": "bc2f591d385dec78644df73b46d66614", "lon": -77.04595083333334, "type": "electric_scooter", "bike_id": "bc2f591d385dec78644df73b46d66614", "fusion_lon": 0.0, "lat": 38.8961045, "fusion_lat": 0.0}, {"is_disabled": 0, "rental_uris": {"android": "https://dc.lft.to/lastmile_qr_scan", "ios": "https://dc.lft.to/lastmile_qr_scan"}, "is_reserved": 0, "name": "08e45c283ef504d72d064ccbd34d8559", "lon": -77.04344933333333, "type": "electric_scooter", "bike_id": "08e45c283ef504d72d064ccbd34d8559", "fusion_lon": 0.0, "lat": 38.903416666666665, "fusion_lat": 0.0}, {"is_disabled": 0, "rental_uris": {"android": "https://dc.lft.to/lastmile_qr_scan", "ios": "https://dc.lft.to/lastmile_qr_scan"}, "is_reserved": 0, "name": "dfbc0a89d97809fc8335ac747203b9ba", "lon": -77.02008616666667, "type": "electric_scooter", "bike_id": "dfbc0a89d97809fc8335ac747203b9ba", "fusion_lon": 0.0, "lat": 38.895719666666665, "fusion_lat": 0.0}, {"is_disabled": 0, "rental_uris": {"android": "https://dc.lft.to/lastmile_qr_scan", "ios": "https://dc.lft.to/lastmile_qr_scan"}, "is_reserved": 0, "name": "0c355fb507587b545d1be60620384cc0", "lon": -76.988907, "type": "electric_scooter", "bike_id": "0c355fb507587b545d1be60620384cc0", "fusion_lon": 0.0, "lat": 38.866764833333335, "fusion_lat": 0.0}, {"is_disabled": 0, "rental_uris": {"android": "https://dc.lft.to/lastmile_qr_scan", "ios": "https://dc.lft.to/lastmile_qr_scan"}, "is_reserved": 0, "name": "ceb4d757994244db3859d93cda35d751", "lon": -77.06702966666667, "type": "electric_scooter", "bike_id": "ceb4d757994244db3859d93cda35d751", "fusion_lon": 0.0, "lat": 38.95594066666666, "fusion_lat": 0.0}, {"is_disabled": 0, "rental_uris": {"android": "https://dc.lft.to/lastmile_qr_scan", "ios": "https://dc.lft.to/lastmile_qr_scan"}, "is_reserved": 0, "name": "415c85c6d1011fd55ba5b75a153e52c1", "lon": -77.02683916666666, "type": "electric_scooter", "bike_id": "415c85c6d1011fd55ba5b75a153e52c1", "fusion_lon": 0.0, "lat": 38.8952165, "fusion_lat": 0.0}, {"is_disabled": 0, "rental_uris": {"android": "https://dc.lft.to/lastmile_qr_scan", "ios": "https://dc.lft.to/lastmile_qr_scan"}, "is_reserved": 0, "name": "60d6c5cfdeb023f75e948d807bf19f15", "lon": -76.92767516666666, "type": "electric_bike", "bike_id": "60d6c5cfdeb023f75e948d807bf19f15", "fusion_lon": 0.0, "lat": 38.960390833333335, "fusion_lat": 0.0}, {"is_disabled": 0, "rental_uris": {"android": "https://dc.lft.to/lastmile_qr_scan", "ios": "https://dc.lft.to/lastmile_qr_scan"}, "is_reserved": 0, "name": "f3d654bef4316fc5377210c5460cbf50", "lon": -77.021166, "type": "electric_scooter", "bike_id": "f3d654bef4316fc5377210c5460cbf50", "fusion_lon": 0.0, "lat": 38.91740733333334, "fusion_lat": 0.0}, {"is_disabled": 0, "rental_uris": {"android": "https://dc.lft.to/lastmile_qr_scan", "ios": "https://dc.lft.to/lastmile_qr_scan"}, "is_reserved": 0, "name": "4f5c20e1aceb8716de0c277952eb8115", "lon": -77.00404466666667, "type": "electric_scooter", "bike_id": "4f5c20e1aceb8716de0c277952eb8115", "fusion_lon": 0.0, "lat": 38.879439, "fusion_lat": 0.0}, {"is_disabled": 0, "rental_uris": {"android": "https://dc.lft.to/lastmile_qr_scan", "ios": "https://dc.lft.to/lastmile_qr_scan"}, "is_reserved": 0, "name": "0b97df2a8dd60b83779dc6fdf6849915", "lon": -77.052207, "type": "electric_scooter", "bike_id": "0b97df2a8dd60b83779dc6fdf6849915", "fusion_lon": 0.0, "lat": 38.898189, "fusion_lat": 0.0}, {"is_disabled": 0, "rental_uris": {"android": "https://dc.lft.to/lastmile_qr_scan", "ios": "https://dc.lft.to/lastmile_qr_scan"}, "is_reserved": 0, "name": "5c2df0d676557efe4b77126b586e4738", "lon": -77.063861, "type": "electric_bike", "bike_id": "5c2df0d676557efe4b77126b586e4738", "fusion_lon": 0.0, "lat": 39.017380833333334, "fusion_lat": 0.0}, {"is_disabled": 0, "rental_uris": {"android": "https://dc.lft.to/lastmile_qr_scan", "ios": "https://dc.lft.to/lastmile_qr_scan"}, "is_reserved": 0, "name": "f3718be81cb52a42035d2db6f9e86825", "lon": -76.96086566666666, "type": "electric_bike", "bike_id": "f3718be81cb52a42035d2db6f9e86825", "fusion_lon": 0.0, "lat": 38.91860633333334, "fusion_lat": 0.0}, {"is_disabled": 0, "rental_uris": {"android": "https://dc.lft.to/lastmile_qr_scan", "ios": "https://dc.lft.to/lastmile_qr_scan"}, "is_reserved": 0, "name": "d90e6f1548803cb5643dd49dfd6dd7e7", "lon": -77.03320216666667, "type": "electric_scooter", "bike_id": "d90e6f1548803cb5643dd49dfd6dd7e7", "fusion_lon": 0.0, "lat": 38.898285333333334, "fusion_lat": 0.0}, {"is_disabled": 0, "rental_uris": {"android": "https://dc.lft.to/lastmile_qr_scan", "ios": "https://dc.lft.to/lastmile_qr_scan"}, "is_reserved": 0, "name": "001416b46132cac8ca3566ee7728ac1a", "lon": -77.02668683333333, "type": "electric_scooter", "bike_id": "001416b46132cac8ca3566ee7728ac1a", "fusion_lon": 0.0, "lat": 38.912701166666665, "fusion_lat": 0.0}, {"is_disabled": 0, "rental_uris": {"android": "https://dc.lft.to/lastmile_qr_scan", "ios": "https://dc.lft.to/lastmile_qr_scan"}, "is_reserved": 0, "name": "3077f19ee4ef3d642d16b4d02c420cbc", "lon": -77.0085125, "type": "electric_scooter", "bike_id": "3077f19ee4ef3d642d16b4d02c420cbc", "fusion_lon": 0.0, "lat": 38.88505283333333, "fusion_lat": 0.0}, {"is_disabled": 0, "rental_uris": {"android": "https://dc.lft.to/lastmile_qr_scan", "ios": "https://dc.lft.to/lastmile_qr_scan"}, "is_reserved": 0, "name": "d836bf9b86413c005a0cd939635dc54f", "lon": -77.0103585, "type": "electric_scooter", "bike_id": "d836bf9b86413c005a0cd939635dc54f", "fusion_lon": 0.0, "lat": 38.866644, "fusion_lat": 0.0}, {"is_disabled": 0, "rental_uris": {"android": "https://dc.lft.to/lastmile_qr_scan", "ios": "https://dc.lft.to/lastmile_qr_scan"}, "is_reserved": 0, "name": "17fabee3dc31ca56fa730d1cf74b3ddf", "lon": -77.00207066666667, "type": "electric_bike", "bike_id": "17fabee3dc31ca56fa730d1cf74b3ddf", "fusion_lon": 0.0, "lat": 38.819471166666666, "fusion_lat": 0.0}, {"is_disabled": 0, "rental_uris": {"android": "https://dc.lft.to/lastmile_qr_scan", "ios": "https://dc.lft.to/lastmile_qr_scan"}, "is_reserved": 0, "name": "0185f91f95b4066c22877c44ed61e580", "lon": -77.044147, "type": "electric_scooter", "bike_id": "0185f91f95b4066c22877c44ed61e580", "fusion_lon": 0.0, "lat": 38.911359833333336, "fusion_lat": 0.0}, {"is_disabled": 0, "rental_uris": {"android": "https://dc.lft.to/lastmile_qr_scan", "ios": "https://dc.lft.to/lastmile_qr_scan"}, "is_reserved": 0, "name": "89ea2ef6d52186e5b5eda078c409e98a", "lon": -77.0653185, "type": "electric_scooter", "bike_id": "89ea2ef6d52186e5b5eda078c409e98a", "fusion_lon": 0.0, "lat": 38.905209, "fusion_lat": 0.0}, {"is_disabled": 0, "rental_uris": {"android": "https://dc.lft.to/lastmile_qr_scan", "ios": "https://dc.lft.to/lastmile_qr_scan"}, "is_reserved": 0, "name": "642bf9cf15adb24f94dc9050d23aa5c2", "lon": -77.04159116666666, "type": "electric_scooter", "bike_id": "642bf9cf15adb24f94dc9050d23aa5c2", "fusion_lon": 0.0, "lat": 38.901301833333335, "fusion_lat": 0.0}, {"is_disabled": 0, "rental_uris": {"android": "https://dc.lft.to/lastmile_qr_scan", "ios": "https://dc.lft.to/lastmile_qr_scan"}, "is_reserved": 0, "name": "8d3a80297842d7efb04062f40b0d32aa", "lon": -77.02794916666667, "type": "electric_scooter", "bike_id": "8d3a80297842d7efb04062f40b0d32aa", "fusion_lon": 0.0, "lat": 38.884276666666665, "fusion_lat": 0.0}, {"is_disabled": 0, "rental_uris": {"android": "https://dc.lft.to/lastmile_qr_scan", "ios": "https://dc.lft.to/lastmile_qr_scan"}, "is_reserved": 0, "name": "057a9f5edc900c96b91882a066901c91", "lon": -77.03522316666667, "type": "electric_scooter", "bike_id": "057a9f5edc900c96b91882a066901c91", "fusion_lon": 0.0, "lat": 38.922464, "fusion_lat": 0.0}, {"is_disabled": 0, "rental_uris": {"android": "https://dc.lft.to/lastmile_qr_scan", "ios": "https://dc.lft.to/lastmile_qr_scan"}, "is_reserved": 0, "name": "e732bb6ed598315cb7d4e28e13963705", "lon": -77.04502816666667, "type": "electric_scooter", "bike_id": "e732bb6ed598315cb7d4e28e13963705", "fusion_lon": 0.0, "lat": 38.89618016666667, "fusion_lat": 0.0}, {"is_disabled": 0, "rental_uris": {"android": "https://dc.lft.to/lastmile_qr_scan", "ios": "https://dc.lft.to/lastmile_qr_scan"}, "is_reserved": 0, "name": "ab49b55dbce2ae1c13598b077fee9c93", "lon": -76.97722416666667, "type": "electric_scooter", "bike_id": "ab49b55dbce2ae1c13598b077fee9c93", "fusion_lon": 0.0, "lat": 38.88832433333334, "fusion_lat": 0.0}, {"is_disabled": 0, "rental_uris": {"android": "https://dc.lft.to/lastmile_qr_scan", "ios": "https://dc.lft.to/lastmile_qr_scan"}, "is_reserved": 0, "name": "f080da06a1cdfa4aaa38794ded4019b1", "lon": -77.0105005, "type": "electric_scooter", "bike_id": "f080da06a1cdfa4aaa38794ded4019b1", "fusion_lon": 0.0, "lat": 38.89899066666667, "fusion_lat": 0.0}, {"is_disabled": 0, "rental_uris": {"android": "https://dc.lft.to/lastmile_qr_scan", "ios": "https://dc.lft.to/lastmile_qr_scan"}, "is_reserved": 0, "name": "2ba622b2476e82c2c51df1f0c11a88a6", "lon": -77.00339066666666, "type": "electric_scooter", "bike_id": "2ba622b2476e82c2c51df1f0c11a88a6", "fusion_lon": 0.0, "lat": 38.893549666666665, "fusion_lat": 0.0}, {"is_disabled": 0, "rental_uris": {"android": "https://dc.lft.to/lastmile_qr_scan", "ios": "https://dc.lft.to/lastmile_qr_scan"}, "is_reserved": 0, "name": "e451be9bb6e3567b1e5af015993da036", "lon": -77.04512183333334, "type": "electric_scooter", "bike_id": "e451be9bb6e3567b1e5af015993da036", "fusion_lon": 0.0, "lat": 38.90383816666667, "fusion_lat": 0.0}, {"is_disabled": 0, "rental_uris": {"android": "https://dc.lft.to/lastmile_qr_scan", "ios": "https://dc.lft.to/lastmile_qr_scan"}, "is_reserved": 0, "name": "a881e768ae2b137e9835c08c454aedf3", "lon": -77.04352033333333, "type": "electric_scooter", "bike_id": "a881e768ae2b137e9835c08c454aedf3", "fusion_lon": 0.0, "lat": 38.91133266666667, "fusion_lat": 0.0}, {"is_disabled": 0, "rental_uris": {"android": "https://dc.lft.to/lastmile_qr_scan", "ios": "https://dc.lft.to/lastmile_qr_scan"}, "is_reserved": 0, "name": "bbc4ccd15b8054acf5b31cfe77669f5d", "lon": -77.03221316666666, "type": "electric_scooter", "bike_id": "bbc4ccd15b8054acf5b31cfe77669f5d", "fusion_lon": 0.0, "lat": 38.90953433333333, "fusion_lat": 0.0}, {"is_disabled": 0, "rental_uris": {"android": "https://dc.lft.to/lastmile_qr_scan", "ios": "https://dc.lft.to/lastmile_qr_scan"}, "is_reserved": 0, "name": "5b4d2ddd8a7fbd0d93300875aadb559e", "lon": -77.02299516666666, "type": "electric_scooter", "bike_id": "5b4d2ddd8a7fbd0d93300875aadb559e", "fusion_lon": 0.0, "lat": 38.91702466666667, "fusion_lat": 0.0}, {"is_disabled": 0, "rental_uris": {"android": "https://dc.lft.to/lastmile_qr_scan", "ios": "https://dc.lft.to/lastmile_qr_scan"}, "is_reserved": 0, "name": "595754771cde325105f0aa3952325415", "lon": -77.04419383333334, "type": "electric_scooter", "bike_id": "595754771cde325105f0aa3952325415", "fusion_lon": 0.0, "lat": 38.917765, "fusion_lat": 0.0}, {"is_disabled": 0, "rental_uris": {"android": "https://dc.lft.to/lastmile_qr_scan", "ios": "https://dc.lft.to/lastmile_qr_scan"}, "is_reserved": 0, "name": "20128fc807851c6cda21ff3d5996beda", "lon": -76.984736, "type": "electric_scooter", "bike_id": "20128fc807851c6cda21ff3d5996beda", "fusion_lon": 0.0, "lat": 38.89357733333333, "fusion_lat": 0.0}, {"is_disabled": 0, "rental_uris": {"android": "https://dc.lft.to/lastmile_qr_scan", "ios": "https://dc.lft.to/lastmile_qr_scan"}, "is_reserved": 0, "name": "c9a207f700f8a9782cd3285bbbc778c2", "lon": -77.0344915, "type": "electric_scooter", "bike_id": "c9a207f700f8a9782cd3285bbbc778c2", "fusion_lon": 0.0, "lat": 38.9158335, "fusion_lat": 0.0}, {"is_disabled": 0, "rental_uris": {"android": "https://dc.lft.to/lastmile_qr_scan", "ios": "https://dc.lft.to/lastmile_qr_scan"}, "is_reserved": 0, "name": "ba1ffde3f89f332715f626a71b50dfc4", "lon": -77.1152155, "type": "electric_bike", "bike_id": "ba1ffde3f89f332715f626a71b50dfc4", "fusion_lon": 0.0, "lat": 38.882265333333336, "fusion_lat": 0.0}, {"is_disabled": 0, "rental_uris": {"android": "https://dc.lft.to/lastmile_qr_scan", "ios": "https://dc.lft.to/lastmile_qr_scan"}, "is_reserved": 0, "name": "7fb2ac95efd8fdd2fda70fb76de3fc15", "lon": -77.03086316666666, "type": "electric_scooter", "bike_id": "7fb2ac95efd8fdd2fda70fb76de3fc15", "fusion_lon": 0.0, "lat": 38.9224355, "fusion_lat": 0.0}, {"is_disabled": 0, "rental_uris": {"android": "https://dc.lft.to/lastmile_qr_scan", "ios": "https://dc.lft.to/lastmile_qr_scan"}, "is_reserved": 0, "name": "b8e595d9ea10fc7d338db96c72b83ca7", "lon": -77.0279505, "type": "electric_scooter", "bike_id": "b8e595d9ea10fc7d338db96c72b83ca7", "fusion_lon": 0.0, "lat": 38.929739833333336, "fusion_lat": 0.0}, {"is_disabled": 0, "rental_uris": {"android": "https://dc.lft.to/lastmile_qr_scan", "ios": "https://dc.lft.to/lastmile_qr_scan"}, "is_reserved": 0, "name": "1d35315398ad33232037f9239009d9c6", "lon": -76.97997016666666, "type": "electric_scooter", "bike_id": "1d35315398ad33232037f9239009d9c6", "fusion_lon": 0.0, "lat": 38.888757166666664, "fusion_lat": 0.0}, {"is_disabled": 0, "rental_uris": {"android": "https://dc.lft.to/lastmile_qr_scan", "ios": "https://dc.lft.to/lastmile_qr_scan"}, "is_reserved": 0, "name": "475898d134a0626ebda859c2009cbd44", "lon": -76.94943633333334, "type": "electric_scooter", "bike_id": "475898d134a0626ebda859c2009cbd44", "fusion_lon": 0.0, "lat": 38.8832295, "fusion_lat": 0.0}, {"is_disabled": 0, "rental_uris": {"android": "https://dc.lft.to/lastmile_qr_scan", "ios": "https://dc.lft.to/lastmile_qr_scan"}, "is_reserved": 0, "name": "b25d37ea6ddf2158248d580de0e186d5", "lon": -76.98308533333334, "type": "electric_scooter", "bike_id": "b25d37ea6ddf2158248d580de0e186d5", "fusion_lon": 0.0, "lat": 38.903779, "fusion_lat": 0.0}, {"is_disabled": 0, "rental_uris": {"android": "https://dc.lft.to/lastmile_qr_scan", "ios": "https://dc.lft.to/lastmile_qr_scan"}, "is_reserved": 0, "name": "8756191b92c616696672faa6230c553b", "lon": -77.02835, "type": "electric_scooter", "bike_id": "8756191b92c616696672faa6230c553b", "fusion_lon": 0.0, "lat": 38.92977583333333, "fusion_lat": 0.0}, {"is_disabled": 0, "rental_uris": {"android": "https://dc.lft.to/lastmile_qr_scan", "ios": "https://dc.lft.to/lastmile_qr_scan"}, "is_reserved": 0, "name": "f59fcc7f741b3100c58ea5aea8ea518f", "lon": -77.04040466666666, "type": "electric_scooter", "bike_id": "f59fcc7f741b3100c58ea5aea8ea518f", "fusion_lon": 0.0, "lat": 38.9048335, "fusion_lat": 0.0}, {"is_disabled": 0, "rental_uris": {"android": "https://dc.lft.to/lastmile_qr_scan", "ios": "https://dc.lft.to/lastmile_qr_scan"}, "is_reserved": 0, "name": "aa78df46cb59cbd2778ae16528fbe754", "lon": -77.0028155, "type": "electric_bike", "bike_id": "aa78df46cb59cbd2778ae16528fbe754", "fusion_lon": 0.0, "lat": 38.91184366666667, "fusion_lat": 0.0}, {"is_disabled": 0, "rental_uris": {"android": "https://dc.lft.to/lastmile_qr_scan", "ios": "https://dc.lft.to/lastmile_qr_scan"}, "is_reserved": 0, "name": "5f3f84363643e10518b875babcb3778f", "lon": -77.02418266666666, "type": "electric_scooter", "bike_id": "5f3f84363643e10518b875babcb3778f", "fusion_lon": 0.0, "lat": 38.893646833333335, "fusion_lat": 0.0}, {"is_disabled": 0, "rental_uris": {"android": "https://dc.lft.to/lastmile_qr_scan", "ios": "https://dc.lft.to/lastmile_qr_scan"}, "is_reserved": 0, "name": "8324b4cf88cc35efe6695ec505571b2b", "lon": -77.03215583333333, "type": "electric_scooter", "bike_id": "8324b4cf88cc35efe6695ec505571b2b", "fusion_lon": 0.0, "lat": 38.90739516666667, "fusion_lat": 0.0}, {"is_disabled": 0, "rental_uris": {"android": "https://dc.lft.to/lastmile_qr_scan", "ios": "https://dc.lft.to/lastmile_qr_scan"}, "is_reserved": 0, "name": "d88b34eaac897434fb402b5b75d04a96", "lon": -77.094487, "type": "electric_scooter", "bike_id": "d88b34eaac897434fb402b5b75d04a96", "fusion_lon": 0.0, "lat": 38.9178935, "fusion_lat": 0.0}, {"is_disabled": 0, "rental_uris": {"android": "https://dc.lft.to/lastmile_qr_scan", "ios": "https://dc.lft.to/lastmile_qr_scan"}, "is_reserved": 0, "name": "6feb7ca86af35be3a677f8054c2994ab", "lon": -77.003053, "type": "electric_scooter", "bike_id": "6feb7ca86af35be3a677f8054c2994ab", "fusion_lon": 0.0, "lat": 38.89228216666667, "fusion_lat": 0.0}, {"is_disabled": 0, "rental_uris": {"android": "https://dc.lft.to/lastmile_qr_scan", "ios": "https://dc.lft.to/lastmile_qr_scan"}, "is_reserved": 0, "name": "8e8ee1f590ec6ecad10133e6dafc9434", "lon": -77.04160083333333, "type": "electric_scooter", "bike_id": "8e8ee1f590ec6ecad10133e6dafc9434", "fusion_lon": 0.0, "lat": 38.923344666666665, "fusion_lat": 0.0}, {"is_disabled": 0, "rental_uris": {"android": "https://dc.lft.to/lastmile_qr_scan", "ios": "https://dc.lft.to/lastmile_qr_scan"}, "is_reserved": 0, "name": "ae6251871ccebd2ef2684ce868ce707c", "lon": -77.00799533333333, "type": "electric_scooter", "bike_id": "ae6251871ccebd2ef2684ce868ce707c", "fusion_lon": 0.0, "lat": 38.89717816666667, "fusion_lat": 0.0}, {"is_disabled": 0, "rental_uris": {"android": "https://dc.lft.to/lastmile_qr_scan", "ios": "https://dc.lft.to/lastmile_qr_scan"}, "is_reserved": 0, "name": "0fa4f522a6f66b3f79adf8d645b96504", "lon": -77.03311316666667, "type": "electric_scooter", "bike_id": "0fa4f522a6f66b3f79adf8d645b96504", "fusion_lon": 0.0, "lat": 38.956183, "fusion_lat": 0.0}, {"is_disabled": 0, "rental_uris": {"android": "https://dc.lft.to/lastmile_qr_scan", "ios": "https://dc.lft.to/lastmile_qr_scan"}, "is_reserved": 0, "name": "1b681f0b584be6c3ccf4223095c643af", "lon": -77.098323, "type": "electric_bike", "bike_id": "1b681f0b584be6c3ccf4223095c643af", "fusion_lon": 0.0, "lat": 38.857892, "fusion_lat": 0.0}, {"is_disabled": 0, "rental_uris": {"android": "https://dc.lft.to/lastmile_qr_scan", "ios": "https://dc.lft.to/lastmile_qr_scan"}, "is_reserved": 0, "name": "d2be5b6be4b2cf5cc69291231946e9ae", "lon": -77.02227866666667, "type": "electric_scooter", "bike_id": "d2be5b6be4b2cf5cc69291231946e9ae", "fusion_lon": 0.0, "lat": 38.89221933333334, "fusion_lat": 0.0}, {"is_disabled": 0, "rental_uris": {"android": "https://dc.lft.to/lastmile_qr_scan", "ios": "https://dc.lft.to/lastmile_qr_scan"}, "is_reserved": 0, "name": "d8c6f4031a0720e20ff50b65197ad009", "lon": -77.00745683333334, "type": "electric_scooter", "bike_id": "d8c6f4031a0720e20ff50b65197ad009", "fusion_lon": 0.0, "lat": 38.898536166666666, "fusion_lat": 0.0}, {"is_disabled": 0, "rental_uris": {"android": "https://dc.lft.to/lastmile_qr_scan", "ios": "https://dc.lft.to/lastmile_qr_scan"}, "is_reserved": 0, "name": "5fb7a60af69bdec210b93553b537a0b0", "lon": -76.93185483333333, "type": "electric_scooter", "bike_id": "5fb7a60af69bdec210b93553b537a0b0", "fusion_lon": 0.0, "lat": 38.89882216666667, "fusion_lat": 0.0}, {"is_disabled": 0, "rental_uris": {"android": "https://dc.lft.to/lastmile_qr_scan", "ios": "https://dc.lft.to/lastmile_qr_scan"}, "is_reserved": 0, "name": "9df0b28655ea49ffe02180d22caf8c2a", "lon": -77.05482766666667, "type": "electric_scooter", "bike_id": "9df0b28655ea49ffe02180d22caf8c2a", "fusion_lon": 0.0, "lat": 38.90442216666667, "fusion_lat": 0.0}, {"is_disabled": 0, "rental_uris": {"android": "https://dc.lft.to/lastmile_qr_scan", "ios": "https://dc.lft.to/lastmile_qr_scan"}, "is_reserved": 0, "name": "96693b71428a12bc339ada927f864eda", "lon": -77.03181766666667, "type": "electric_scooter", "bike_id": "96693b71428a12bc339ada927f864eda", "fusion_lon": 0.0, "lat": 38.91919983333333, "fusion_lat": 0.0}, {"is_disabled": 0, "rental_uris": {"android": "https://dc.lft.to/lastmile_qr_scan", "ios": "https://dc.lft.to/lastmile_qr_scan"}, "is_reserved": 0, "name": "4ad53dda3f3086c80f7a415d9e9bb397", "lon": -77.04620783333333, "type": "electric_scooter", "bike_id": "4ad53dda3f3086c80f7a415d9e9bb397", "fusion_lon": 0.0, "lat": 38.90129433333333, "fusion_lat": 0.0}, {"is_disabled": 0, "rental_uris": {"android": "https://dc.lft.to/lastmile_qr_scan", "ios": "https://dc.lft.to/lastmile_qr_scan"}, "is_reserved": 0, "name": "f8d6aacdccc6019a5aad01fb5f2ad762", "lon": -77.02173333333333, "type": "electric_scooter", "bike_id": "f8d6aacdccc6019a5aad01fb5f2ad762", "fusion_lon": 0.0, "lat": 38.942974166666666, "fusion_lat": 0.0}, {"is_disabled": 0, "rental_uris": {"android": "https://dc.lft.to/lastmile_qr_scan", "ios": "https://dc.lft.to/lastmile_qr_scan"}, "is_reserved": 0, "name": "af8a84f098e5bc125bc376ee931921cd", "lon": -76.990775, "type": "electric_scooter", "bike_id": "af8a84f098e5bc125bc376ee931921cd", "fusion_lon": 0.0, "lat": 38.90424733333333, "fusion_lat": 0.0}, {"is_disabled": 0, "rental_uris": {"android": "https://dc.lft.to/lastmile_qr_scan", "ios": "https://dc.lft.to/lastmile_qr_scan"}, "is_reserved": 0, "name": "13d935f0b4316fab94371346f555caeb", "lon": -76.93526183333333, "type": "electric_scooter", "bike_id": "13d935f0b4316fab94371346f555caeb", "fusion_lon": 0.0, "lat": 38.8790065, "fusion_lat": 0.0}, {"is_disabled": 0, "rental_uris": {"android": "https://dc.lft.to/lastmile_qr_scan", "ios": "https://dc.lft.to/lastmile_qr_scan"}, "is_reserved": 0, "name": "c0b4d34aa6024011d381eff86d922b91", "lon": -76.93350816666667, "type": "electric_scooter", "bike_id": "c0b4d34aa6024011d381eff86d922b91", "fusion_lon": 0.0, "lat": 38.901963333333335, "fusion_lat": 0.0}, {"is_disabled": 0, "rental_uris": {"android": "https://dc.lft.to/lastmile_qr_scan", "ios": "https://dc.lft.to/lastmile_qr_scan"}, "is_reserved": 0, "name": "9a76cea8a22b23d561944a032a427836", "lon": -77.03974666666667, "type": "electric_scooter", "bike_id": "9a76cea8a22b23d561944a032a427836", "fusion_lon": 0.0, "lat": 38.90555333333333, "fusion_lat": 0.0}, {"is_disabled": 0, "rental_uris": {"android": "https://dc.lft.to/lastmile_qr_scan", "ios": "https://dc.lft.to/lastmile_qr_scan"}, "is_reserved": 0, "name": "71609b5bf9440159e7adeaa545073a67", "lon": -77.03359533333334, "type": "electric_scooter", "bike_id": "71609b5bf9440159e7adeaa545073a67", "fusion_lon": 0.0, "lat": 38.911951333333334, "fusion_lat": 0.0}, {"is_disabled": 0, "rental_uris": {"android": "https://dc.lft.to/lastmile_qr_scan", "ios": "https://dc.lft.to/lastmile_qr_scan"}, "is_reserved": 0, "name": "653b7f5d30f0b307169f26e228ee7cb3", "lon": -77.03818166666667, "type": "electric_bike", "bike_id": "653b7f5d30f0b307169f26e228ee7cb3", "fusion_lon": 0.0, "lat": 38.996739166666664, "fusion_lat": 0.0}, {"is_disabled": 0, "rental_uris": {"android": "https://dc.lft.to/lastmile_qr_scan", "ios": "https://dc.lft.to/lastmile_qr_scan"}, "is_reserved": 0, "name": "d22d04d651e58a7c825da3668770037e", "lon": -77.0249655, "type": "electric_bike", "bike_id": "d22d04d651e58a7c825da3668770037e", "fusion_lon": 0.0, "lat": 38.9741245, "fusion_lat": 0.0}, {"is_disabled": 0, "rental_uris": {"android": "https://dc.lft.to/lastmile_qr_scan", "ios": "https://dc.lft.to/lastmile_qr_scan"}, "is_reserved": 0, "name": "50dbe577ae78d18c06a5c21ee689e8b6", "lon": -77.03176066666667, "type": "electric_scooter", "bike_id": "50dbe577ae78d18c06a5c21ee689e8b6", "fusion_lon": 0.0, "lat": 38.91912683333334, "fusion_lat": 0.0}, {"is_disabled": 0, "rental_uris": {"android": "https://dc.lft.to/lastmile_qr_scan", "ios": "https://dc.lft.to/lastmile_qr_scan"}, "is_reserved": 0, "name": "54bee6f40c4d11044883f76979f5bd3e", "lon": -77.03161316666667, "type": "electric_scooter", "bike_id": "54bee6f40c4d11044883f76979f5bd3e", "fusion_lon": 0.0, "lat": 38.92724583333333, "fusion_lat": 0.0}, {"is_disabled": 0, "rental_uris": {"android": "https://dc.lft.to/lastmile_qr_scan", "ios": "https://dc.lft.to/lastmile_qr_scan"}, "is_reserved": 0, "name": "5b245c90418cb336cc5bbdaa254730df", "lon": -77.03762633333334, "type": "electric_scooter", "bike_id": "5b245c90418cb336cc5bbdaa254730df", "fusion_lon": 0.0, "lat": 38.929181666666665, "fusion_lat": 0.0}, {"is_disabled": 0, "rental_uris": {"android": "https://dc.lft.to/lastmile_qr_scan", "ios": "https://dc.lft.to/lastmile_qr_scan"}, "is_reserved": 0, "name": "c1ac6ceb208b9ed3581d52ff1d5e0d7d", "lon": -77.02001783333333, "type": "electric_scooter", "bike_id": "c1ac6ceb208b9ed3581d52ff1d5e0d7d", "fusion_lon": 0.0, "lat": 38.886019166666664, "fusion_lat": 0.0}, {"is_disabled": 0, "rental_uris": {"android": "https://dc.lft.to/lastmile_qr_scan", "ios": "https://dc.lft.to/lastmile_qr_scan"}, "is_reserved": 0, "name": "ff614142210273086d7c2e05575aae3f", "lon": -76.9820215, "type": "electric_bike", "bike_id": "ff614142210273086d7c2e05575aae3f", "fusion_lon": 0.0, "lat": 38.98508016666667, "fusion_lat": 0.0}, {"is_disabled": 0, "rental_uris": {"android": "https://dc.lft.to/lastmile_qr_scan", "ios": "https://dc.lft.to/lastmile_qr_scan"}, "is_reserved": 0, "name": "42e786ff7775ae6973a414e546abef5d", "lon": -77.0321945, "type": "electric_scooter", "bike_id": "42e786ff7775ae6973a414e546abef5d", "fusion_lon": 0.0, "lat": 38.892254, "fusion_lat": 0.0}, {"is_disabled": 0, "rental_uris": {"android": "https://dc.lft.to/lastmile_qr_scan", "ios": "https://dc.lft.to/lastmile_qr_scan"}, "is_reserved": 0, "name": "a07774c902590c2857e34c0bfab4db9e", "lon": -77.026934, "type": "electric_scooter", "bike_id": "a07774c902590c2857e34c0bfab4db9e", "fusion_lon": 0.0, "lat": 38.920730666666664, "fusion_lat": 0.0}, {"is_disabled": 0, "rental_uris": {"android": "https://dc.lft.to/lastmile_qr_scan", "ios": "https://dc.lft.to/lastmile_qr_scan"}, "is_reserved": 0, "name": "9a4fd13e1d539fa15f73d0c62d7b3e36", "lon": -77.04849166666666, "type": "electric_scooter", "bike_id": "9a4fd13e1d539fa15f73d0c62d7b3e36", "fusion_lon": 0.0, "lat": 38.888411833333336, "fusion_lat": 0.0}, {"is_disabled": 0, "rental_uris": {"android": "https://dc.lft.to/lastmile_qr_scan", "ios": "https://dc.lft.to/lastmile_qr_scan"}, "is_reserved": 0, "name": "169aa897c0c17855244632ac1cf36e2f", "lon": -77.0437335, "type": "electric_scooter", "bike_id": "169aa897c0c17855244632ac1cf36e2f", "fusion_lon": 0.0, "lat": 38.9025515, "fusion_lat": 0.0}, {"is_disabled": 0, "rental_uris": {"android": "https://dc.lft.to/lastmile_qr_scan", "ios": "https://dc.lft.to/lastmile_qr_scan"}, "is_reserved": 0, "name": "0aef22554e28c8ade7740450a0ef86ee", "lon": -77.028043, "type": "electric_scooter", "bike_id": "0aef22554e28c8ade7740450a0ef86ee", "fusion_lon": 0.0, "lat": 38.903955833333335, "fusion_lat": 0.0}, {"is_disabled": 0, "rental_uris": {"android": "https://dc.lft.to/lastmile_qr_scan", "ios": "https://dc.lft.to/lastmile_qr_scan"}, "is_reserved": 0, "name": "a445923fc1208a4c843d82f7b74c1a82", "lon": -77.0416215, "type": "electric_scooter", "bike_id": "a445923fc1208a4c843d82f7b74c1a82", "fusion_lon": 0.0, "lat": 38.915716333333336, "fusion_lat": 0.0}, {"is_disabled": 0, "rental_uris": {"android": "https://dc.lft.to/lastmile_qr_scan", "ios": "https://dc.lft.to/lastmile_qr_scan"}, "is_reserved": 0, "name": "92a472b17acf551446fc9290acf7f79a", "lon": -77.11303983333333, "type": "electric_bike", "bike_id": "92a472b17acf551446fc9290acf7f79a", "fusion_lon": 0.0, "lat": 38.88204283333334, "fusion_lat": 0.0}, {"is_disabled": 0, "rental_uris": {"android": "https://dc.lft.to/lastmile_qr_scan", "ios": "https://dc.lft.to/lastmile_qr_scan"}, "is_reserved": 0, "name": "71ab38ad688252dd56403ba166502ca6", "lon": -77.0444115, "type": "electric_scooter", "bike_id": "71ab38ad688252dd56403ba166502ca6", "fusion_lon": 0.0, "lat": 38.903870166666664, "fusion_lat": 0.0}, {"is_disabled": 0, "rental_uris": {"android": "https://dc.lft.to/lastmile_qr_scan", "ios": "https://dc.lft.to/lastmile_qr_scan"}, "is_reserved": 0, "name": "2bc9d1a89f2e0ce232be2c007907b12e", "lon": -77.031704, "type": "electric_scooter", "bike_id": "2bc9d1a89f2e0ce232be2c007907b12e", "fusion_lon": 0.0, "lat": 38.911118, "fusion_lat": 0.0}, {"is_disabled": 0, "rental_uris": {"android": "https://dc.lft.to/lastmile_qr_scan", "ios": "https://dc.lft.to/lastmile_qr_scan"}, "is_reserved": 0, "name": "e18ff2997c39a196f58fb2d1daaa76e4", "lon": -77.04343216666666, "type": "electric_scooter", "bike_id": "e18ff2997c39a196f58fb2d1daaa76e4", "fusion_lon": 0.0, "lat": 38.90318883333333, "fusion_lat": 0.0}, {"is_disabled": 0, "rental_uris": {"android": "https://dc.lft.to/lastmile_qr_scan", "ios": "https://dc.lft.to/lastmile_qr_scan"}, "is_reserved": 0, "name": "1cd77906d38a23e99a95a8f5abf7e158", "lon": -77.01626283333333, "type": "electric_scooter", "bike_id": "1cd77906d38a23e99a95a8f5abf7e158", "fusion_lon": 0.0, "lat": 38.895423666666666, "fusion_lat": 0.0}, {"is_disabled": 0, "rental_uris": {"android": "https://dc.lft.to/lastmile_qr_scan", "ios": "https://dc.lft.to/lastmile_qr_scan"}, "is_reserved": 0, "name": "5061fa182e3811e86978852abe36cd53", "lon": -77.03192683333333, "type": "electric_scooter", "bike_id": "5061fa182e3811e86978852abe36cd53", "fusion_lon": 0.0, "lat": 38.92121483333333, "fusion_lat": 0.0}, {"is_disabled": 0, "rental_uris": {"android": "https://dc.lft.to/lastmile_qr_scan", "ios": "https://dc.lft.to/lastmile_qr_scan"}, "is_reserved": 0, "name": "4fdc1a3ec4fee68916dbfad2adb294d2", "lon": -77.03055966666666, "type": "electric_scooter", "bike_id": "4fdc1a3ec4fee68916dbfad2adb294d2", "fusion_lon": 0.0, "lat": 38.899816333333334, "fusion_lat": 0.0}, {"is_disabled": 0, "rental_uris": {"android": "https://dc.lft.to/lastmile_qr_scan", "ios": "https://dc.lft.to/lastmile_qr_scan"}, "is_reserved": 0, "name": "3176e97e0b1bfcde5fa9e1a655589f17", "lon": -77.04261433333333, "type": "electric_scooter", "bike_id": "3176e97e0b1bfcde5fa9e1a655589f17", "fusion_lon": 0.0, "lat": 38.9098045, "fusion_lat": 0.0}, {"is_disabled": 0, "rental_uris": {"android": "https://dc.lft.to/lastmile_qr_scan", "ios": "https://dc.lft.to/lastmile_qr_scan"}, "is_reserved": 0, "name": "037a815828dc4e9cb9512b7eb6f63cfb", "lon": -77.0294285, "type": "electric_scooter", "bike_id": "037a815828dc4e9cb9512b7eb6f63cfb", "fusion_lon": 0.0, "lat": 38.895207666666664, "fusion_lat": 0.0}, {"is_disabled": 0, "rental_uris": {"android": "https://dc.lft.to/lastmile_qr_scan", "ios": "https://dc.lft.to/lastmile_qr_scan"}, "is_reserved": 0, "name": "219fa23f47f4cf0c56433e274d26a539", "lon": -76.94634483333333, "type": "electric_scooter", "bike_id": "219fa23f47f4cf0c56433e274d26a539", "fusion_lon": 0.0, "lat": 38.898402833333336, "fusion_lat": 0.0}, {"is_disabled": 0, "rental_uris": {"android": "https://dc.lft.to/lastmile_qr_scan", "ios": "https://dc.lft.to/lastmile_qr_scan"}, "is_reserved": 0, "name": "bfee70f15a42062f565428a38c8c47ee", "lon": -77.13182833333333, "type": "electric_bike", "bike_id": "bfee70f15a42062f565428a38c8c47ee", "fusion_lon": 0.0, "lat": 38.869130166666665, "fusion_lat": 0.0}, {"is_disabled": 0, "rental_uris": {"android": "https://dc.lft.to/lastmile_qr_scan", "ios": "https://dc.lft.to/lastmile_qr_scan"}, "is_reserved": 0, "name": "18deb9b04c12d552b17e8b8ef85498e5", "lon": -77.02345666666666, "type": "electric_bike", "bike_id": "18deb9b04c12d552b17e8b8ef85498e5", "fusion_lon": 0.0, "lat": 38.994075, "fusion_lat": 0.0}, {"is_disabled": 0, "rental_uris": {"android": "https://dc.lft.to/lastmile_qr_scan", "ios": "https://dc.lft.to/lastmile_qr_scan"}, "is_reserved": 0, "name": "f72ed519a8c5286d0311651a7e1a0fa0", "lon": -77.034157, "type": "electric_scooter", "bike_id": "f72ed519a8c5286d0311651a7e1a0fa0", "fusion_lon": 0.0, "lat": 38.929477166666665, "fusion_lat": 0.0}, {"is_disabled": 0, "rental_uris": {"android": "https://dc.lft.to/lastmile_qr_scan", "ios": "https://dc.lft.to/lastmile_qr_scan"}, "is_reserved": 0, "name": "305edd5d2ce638fc8f757784ffbbc1d2", "lon": -77.03640533333333, "type": "electric_scooter", "bike_id": "305edd5d2ce638fc8f757784ffbbc1d2", "fusion_lon": 0.0, "lat": 38.918176333333335, "fusion_lat": 0.0}, {"is_disabled": 0, "rental_uris": {"android": "https://dc.lft.to/lastmile_qr_scan", "ios": "https://dc.lft.to/lastmile_qr_scan"}, "is_reserved": 0, "name": "b716ac0612632fe58159c28d52b9c1cb", "lon": -77.02078516666667, "type": "electric_scooter", "bike_id": "b716ac0612632fe58159c28d52b9c1cb", "fusion_lon": 0.0, "lat": 38.88493733333333, "fusion_lat": 0.0}, {"is_disabled": 0, "rental_uris": {"android": "https://dc.lft.to/lastmile_qr_scan", "ios": "https://dc.lft.to/lastmile_qr_scan"}, "is_reserved": 0, "name": "0966e466dc05bb52e65461ed995099a3", "lon": -77.0298085, "type": "electric_scooter", "bike_id": "0966e466dc05bb52e65461ed995099a3", "fusion_lon": 0.0, "lat": 38.89747466666667, "fusion_lat": 0.0}, {"is_disabled": 0, "rental_uris": {"android": "https://dc.lft.to/lastmile_qr_scan", "ios": "https://dc.lft.to/lastmile_qr_scan"}, "is_reserved": 0, "name": "b7413dc0d9e4bb82ba2d198d6027bb8f", "lon": -77.00077533333334, "type": "electric_scooter", "bike_id": "b7413dc0d9e4bb82ba2d198d6027bb8f", "fusion_lon": 0.0, "lat": 38.87660983333333, "fusion_lat": 0.0}, {"is_disabled": 0, "rental_uris": {"android": "https://dc.lft.to/lastmile_qr_scan", "ios": "https://dc.lft.to/lastmile_qr_scan"}, "is_reserved": 0, "name": "54371842d692ff1807ae12d6ecf16623", "lon": -77.029951, "type": "electric_scooter", "bike_id": "54371842d692ff1807ae12d6ecf16623", "fusion_lon": 0.0, "lat": 38.9268525, "fusion_lat": 0.0}, {"is_disabled": 0, "rental_uris": {"android": "https://dc.lft.to/lastmile_qr_scan", "ios": "https://dc.lft.to/lastmile_qr_scan"}, "is_reserved": 0, "name": "17879dd9c9013ed524c20d2982a8803d", "lon": -77.03450033333333, "type": "electric_scooter", "bike_id": "17879dd9c9013ed524c20d2982a8803d", "fusion_lon": 0.0, "lat": 38.9343345, "fusion_lat": 0.0}, {"is_disabled": 0, "rental_uris": {"android": "https://dc.lft.to/lastmile_qr_scan", "ios": "https://dc.lft.to/lastmile_qr_scan"}, "is_reserved": 0, "name": "7e96bb8c6a75c96123ffd9b46884ee7f", "lon": -77.03354833333333, "type": "electric_scooter", "bike_id": "7e96bb8c6a75c96123ffd9b46884ee7f", "fusion_lon": 0.0, "lat": 38.93786816666667, "fusion_lat": 0.0}, {"is_disabled": 0, "rental_uris": {"android": "https://dc.lft.to/lastmile_qr_scan", "ios": "https://dc.lft.to/lastmile_qr_scan"}, "is_reserved": 0, "name": "b8000c2e7b0e26c74cfdfc1b56f19a16", "lon": -77.03877883333334, "type": "electric_scooter", "bike_id": "b8000c2e7b0e26c74cfdfc1b56f19a16", "fusion_lon": 0.0, "lat": 38.912692166666666, "fusion_lat": 0.0},