{"data": {"bikes": [{"rental_uris": {"android": "https://dc.lft.to/lastmile_qr_scan", "ios": "https://dc.lft.to/lastmile_qr_scan"}, "is_reserved": 0, "is_disabled": 0, "bike_id": "4de156b05e905d93093a459272813821", "lat": 38.953601166666665, "name": "4de156b05e905d93093a459272813821", "fusion_lon": 0.0, "fusion_lat": 0.0, "type": "electric_bike", "lon": -76.98096116666666}, {"rental_uris": {"android": "https://dc.lft.to/lastmile_qr_scan", "ios": "https://dc.lft.to/lastmile_qr_scan"}, "is_reserved": 0, "is_disabled": 0, "bike_id": "e3a733ec54d6cee416b5ff93d706592a", "lat": 38.8970805, "name": "e3a733ec54d6cee416b5ff93d706592a", "fusion_lon": 0.0, "fusion_lat": 0.0, "type": "electric_scooter", "lon": -77.02179733333334}, {"rental_uris": {"android": "https://dc.lft.to/lastmile_qr_scan", "ios": "https://dc.lft.to/lastmile_qr_scan"}, "is_reserved": 0, "is_disabled": 0, "bike_id": "0747c630e4d3880383cac39711ea6199", "lat": 38.93383683333333, "name": "0747c630e4d3880383cac39711ea6199", "fusion_lon": 0.0, "fusion_lat": 0.0, "type": "electric_scooter", "lon": -77.035531}, {"rental_uris": {"android": "https://dc.lft.to/lastmile_qr_scan", "ios": "https://dc.lft.to/lastmile_qr_scan"}, "is_reserved": 0, "is_disabled": 0, "bike_id": "c660e1e8c94f8fdef8a78d6199bad093", "lat": 38.907226, "name": "c660e1e8c94f8fdef8a78d6199bad093", "fusion_lon": 0.0, "fusion_lat": 0.0, "type": "electric_scooter", "lon": -76.97859783333334}, {"rental_uris": {"android": "https://dc.lft.to/lastmile_qr_scan", "ios": "https://dc.lft.to/lastmile_qr_scan"}, "is_reserved": 0, "is_disabled": 0, "bike_id": "dd4bd27e75010748950b0b6647f64afa", "lat": 38.92901783333333, "name": "dd4bd27e75010748950b0b6647f64afa", "fusion_lon": 0.0, "fusion_lat": 0.0, "type": "electric_scooter", "lon": -77.05457483333333}, {"rental_uris": {"android": "https://dc.lft.to/lastmile_qr_scan", "ios": "https://dc.lft.to/lastmile_qr_scan"}, "is_reserved": 0, "is_disabled": 0, "bike_id": "dafb34bd614e4f1197e16e1f0fb37215", "lat": 38.93256383333333, "name": "dafb34bd614e4f1197e16e1f0fb37215", "fusion_lon": 0.0, "fusion_lat": 0.0, "type": "electric_scooter", "lon": -77.032833}, {"rental_uris": {"android": "https://dc.lft.to/lastmile_qr_scan", "ios": "https://dc.lft.to/lastmile_qr_scan"}, "is_reserved": 0, "is_disabled": 0, "bike_id": "8fa835aefed4635fc0040f863ebc2c5f", "lat": 38.929144666666666, "name": "8fa835aefed4635fc0040f863ebc2c5f", "fusion_lon": 0.0, "fusion_lat": 0.0, "type": "electric_scooter", "lon": -77.02093516666666}, {"rental_uris": {"android": "https://dc.lft.to/lastmile_qr_scan", "ios": "https://dc.lft.to/lastmile_qr_scan"}, "is_reserved": 0, "is_disabled": 0, "bike_id": "ce70315b15b7c894f782a15765d8c5e4", "lat": 38.884348, "name": "ce70315b15b7c894f782a15765d8c5e4", "fusion_lon": 0.0, "fusion_lat": 0.0, "type": "electric_scooter", "lon": -76.9575935}, {"rental_uris": {"android": "https://dc.lft.to/lastmile_qr_scan", "ios": "https://dc.lft.to/lastmile_qr_scan"}, "is_reserved": 0, "is_disabled": 0, "bike_id": "215853eb0e6a690e78046da5fdee70fd", "lat": 38.905711, "name": "215853eb0e6a690e78046da5fdee70fd", "fusion_lon": 0.0, "fusion_lat": 0.0, "type": "electric_scooter", "lon": -77.03354066666667}, {"rental_uris": {"android": "https://dc.lft.to/lastmile_qr_scan", "ios": "https://dc.lft.to/lastmile_qr_scan"}, "is_reserved": 0, "is_disabled": 0, "bike_id": "41a9114fa412a6e76aa31b4cd8b776d3", "lat": 38.89563833333333, "name": "41a9114fa412a6e76aa31b4cd8b776d3", "fusion_lon": 0.0, "fusion_lat": 0.0, "type": "electric_scooter", "lon": -77.04680616666667}, {"rental_uris": {"android": "https://dc.lft.to/lastmile_qr_scan", "ios": "https://dc.lft.to/lastmile_qr_scan"}, "is_reserved": 0, "is_disabled": 0, "bike_id": "2fd99cc6c712e69d2800aab7195d7ed3", "lat": 38.8922915, "name": "2fd99cc6c712e69d2800aab7195d7ed3", "fusion_lon": 0.0, "fusion_lat": 0.0, "type": "electric_scooter", "lon": -77.05002416666666}, {"rental_uris": {"android": "https://dc.lft.to/lastmile_qr_scan", "ios": "https://dc.lft.to/lastmile_qr_scan"}, "is_reserved": 0, "is_disabled": 0, "bike_id": "c3a269f5bc9a54c5cd26e31a4d0d6c03", "lat": 38.90540216666667, "name": "c3a269f5bc9a54c5cd26e31a4d0d6c03", "fusion_lon": 0.0, "fusion_lat": 0.0, "type": "electric_scooter", "lon": -77.04480016666666}, {"rental_uris": {"android": "https://dc.lft.to/lastmile_qr_scan", "ios": "https://dc.lft.to/lastmile_qr_scan"}, "is_reserved": 0, "is_disabled": 0, "bike_id": "de28a8ec2466e3b28cebf7a87d3555f8", "lat": 38.91632766666667, "name": "de28a8ec2466e3b28cebf7a87d3555f8", "fusion_lon": 0.0, "fusion_lat": 0.0, "type": "electric_scooter", "lon": -77.03187316666667}, {"rental_uris": {"android": "https://dc.lft.to/lastmile_qr_scan", "ios": "https://dc.lft.to/lastmile_qr_scan"}, "is_reserved": 0, "is_disabled": 0, "bike_id": "1c6a7f7500542f7c37b76e03c60c1ce9", "lat": 38.9055005, "name": "1c6a7f7500542f7c37b76e03c60c1ce9", "fusion_lon": 0.0, "fusion_lat": 0.0, "type": "electric_scooter", "lon": -77.02812216666666}, {"rental_uris": {"android": "https://dc.lft.to/lastmile_qr_scan", "ios": "https://dc.lft.to/lastmile_qr_scan"}, "is_reserved": 0, "is_disabled": 0, "bike_id": "30fe67a7ea58414570a6b239fe161fd5", "lat": 38.90805133333333, "name": "30fe67a7ea58414570a6b239fe161fd5", "fusion_lon": 0.0, "fusion_lat": 0.0, "type": "electric_scooter", "lon": -77.0434345}, {"rental_uris": {"android": "https://dc.lft.to/lastmile_qr_scan", "ios": "https://dc.lft.to/lastmile_qr_scan"}, "is_reserved": 0, "is_disabled": 0, "bike_id": "931a7cbdc0474526e707d060da33b0d6", "lat": 38.92172516666667, "name": "931a7cbdc0474526e707d060da33b0d6", "fusion_lon": 0.0, "fusion_lat": 0.0, "type": "electric_scooter", "lon": -77.04355516666666}, {"rental_uris": {"android": "https://dc.lft.to/lastmile_qr_scan", "ios": "https://dc.lft.to/lastmile_qr_scan"}, "is_reserved": 0, "is_disabled": 0, "bike_id": "44945264313240595dc2e114860d167f", "lat": 38.8763175, "name": "44945264313240595dc2e114860d167f", "fusion_lon": 0.0, "fusion_lat": 0.0, "type": "electric_scooter", "lon": -77.00465283333334}, {"rental_uris": {"android": "https://dc.lft.to/lastmile_qr_scan", "ios": "https://dc.lft.to/lastmile_qr_scan"}, "is_reserved": 0, "is_disabled": 0, "bike_id": "b531be6f96fef311f80d3aca20bd7be6", "lat": 38.90267016666667, "name": "b531be6f96fef311f80d3aca20bd7be6", "fusion_lon": 0.0, "fusion_lat": 0.0, "type": "electric_scooter", "lon": -77.03336833333333}, {"rental_uris": {"android": "https://dc.lft.to/lastmile_qr_scan", "ios": "https://dc.lft.to/lastmile_qr_scan"}, "is_reserved": 0, "is_disabled": 0, "bike_id": "d57c8a3de601e2a94420905a93ad756e", "lat": 38.91551466666667, "name": "d57c8a3de601e2a94420905a93ad756e", "fusion_lon": 0.0, "fusion_lat": 0.0, "type": "electric_scooter", "lon": -77.04618116666667}, {"rental_uris": {"android": "https://dc.lft.to/lastmile_qr_scan", "ios": "https://dc.lft.to/lastmile_qr_scan"}, "is_reserved": 0, "is_disabled": 0, "bike_id": "9a473ee9eba60f97bbd8c2c1bbb6ad96", "lat": 38.86687166666667, "name": "9a473ee9eba60f97bbd8c2c1bbb6ad96", "fusion_lon": 0.0, "fusion_lat": 0.0, "type": "electric_scooter", "lon": -76.9852295}, {"rental_uris": {"android": "https://dc.lft.to/lastmile_qr_scan", "ios": "https://dc.lft.to/lastmile_qr_scan"}, "is_reserved": 0, "is_disabled": 0, "bike_id": "cf635cd2682a3f2f7d2bdb0efeb16f9a", "lat": 38.85515633333333, "name": "cf635cd2682a3f2f7d2bdb0efeb16f9a", "fusion_lon": 0.0, "fusion_lat": 0.0, "type": "electric_bike", "lon": -76.98439233333333}, {"rental_uris": {"android": "https://dc.lft.to/lastmile_qr_scan", "ios": "https://dc.lft.to/lastmile_qr_scan"}, "is_reserved": 0, "is_disabled": 0, "bike_id": "37d722c5e7635ed08fd625f91ff2d7ef", "lat": 38.917027166666664, "name": "37d722c5e7635ed08fd625f91ff2d7ef", "fusion_lon": 0.0, "fusion_lat": 0.0, "type": "electric_scooter", "lon": -77.02665533333334}, {"rental_uris": {"android": "https://dc.lft.to/lastmile_qr_scan", "ios": "https://dc.lft.to/lastmile_qr_scan"}, "is_reserved": 0, "is_disabled": 0, "bike_id": "e68a96cbfbd947479c74ff4eb984705b", "lat": 38.92216, "name": "e68a96cbfbd947479c74ff4eb984705b", "fusion_lon": 0.0, "fusion_lat": 0.0, "type": "electric_scooter", "lon": -77.04310833333334}, {"rental_uris": {"android": "https://dc.lft.to/lastmile_qr_scan", "ios": "https://dc.lft.to/lastmile_qr_scan"}, "is_reserved": 0, "is_disabled": 0, "bike_id": "0d8dc31afaf19424248a9362bf796b8b", "lat": 38.90916083333333, "name": "0d8dc31afaf19424248a9362bf796b8b", "fusion_lon": 0.0, "fusion_lat": 0.0, "type": "electric_scooter", "lon": -77.03199516666666}, {"rental_uris": {"android": "https://dc.lft.to/lastmile_qr_scan", "ios": "https://dc.lft.to/lastmile_qr_scan"}, "is_reserved": 0, "is_disabled": 0, "bike_id": "b7514ee4bf893c3b4058bd2952645553", "lat": 38.9111585, "name": "b7514ee4bf893c3b4058bd2952645553", "fusion_lon": 0.0, "fusion_lat": 0.0, "type": "electric_scooter", "lon": -77.04472266666667}, {"rental_uris": {"android": "https://dc.lft.to/lastmile_qr_scan", "ios": "https://dc.lft.to/lastmile_qr_scan"}, "is_reserved": 0, "is_disabled": 0, "bike_id": "e8d300e912cce405611ad037d5327d9d", "lat": 38.93767016666666, "name": "e8d300e912cce405611ad037d5327d9d", "fusion_lon": 0.0, "fusion_lat": 0.0, "type": "electric_scooter", "lon": -77.02269266666667}, {"rental_uris": {"android": "https://dc.lft.to/lastmile_qr_scan", "ios": "https://dc.lft.to/lastmile_qr_scan"}, "is_reserved": 0, "is_disabled": 0, "bike_id": "f82312f0eecae27e829e5cedd5002469", "lat": 38.8718525, "name": "f82312f0eecae27e829e5cedd5002469", "fusion_lon": 0.0, "fusion_lat": 0.0, "type": "electric_scooter", "lon": -77.00599783333334}, {"rental_uris": {"android": "https://dc.lft.to/lastmile_qr_scan", "ios": "https://dc.lft.to/lastmile_qr_scan"}, "is_reserved": 0, "is_disabled": 0, "bike_id": "03670654a6c2b73477ca55fe9c805b0c", "lat": 38.9218115, "name": "03670654a6c2b73477ca55fe9c805b0c", "fusion_lon": 0.0, "fusion_lat": 0.0, "type": "electric_scooter", "lon": -77.02677483333333}, {"rental_uris": {"android": "https://dc.lft.to/lastmile_qr_scan", "ios": "https://dc.lft.to/lastmile_qr_scan"}, "is_reserved": 0, "is_disabled": 0, "bike_id": "44af0fa5c4ade35950e883b7fc87744d", "lat": 38.89225783333333, "name": "44af0fa5c4ade35950e883b7fc87744d", "fusion_lon": 0.0, "fusion_lat": 0.0, "type": "electric_scooter", "lon": -77.04512133333333}, {"rental_uris": {"android": "https://dc.lft.to/lastmile_qr_scan", "ios": "https://dc.lft.to/lastmile_qr_scan"}, "is_reserved": 0, "is_disabled": 0, "bike_id": "b5df0ea90b9ac2778ba68bf6f4650413", "lat": 38.901174166666664, "name": "b5df0ea90b9ac2778ba68bf6f4650413", "fusion_lon": 0.0, "fusion_lat": 0.0, "type": "electric_scooter", "lon": -77.04177666666666}, {"rental_uris": {"android": "https://dc.lft.to/lastmile_qr_scan", "ios": "https://dc.lft.to/lastmile_qr_scan"}, "is_reserved": 0, "is_disabled": 0, "bike_id": "2aa99a5642c57059d34ccae721d286e6", "lat": 38.898255166666665, "name": "2aa99a5642c57059d34ccae721d286e6", "fusion_lon": 0.0, "fusion_lat": 0.0, "type": "electric_scooter", "lon": -77.03337333333333}, {"rental_uris": {"android": "https://dc.lft.to/lastmile_qr_scan", "ios": "https://dc.lft.to/lastmile_qr_scan"}, "is_reserved": 0, "is_disabled": 0, "bike_id": "e5a9868a6e4c907c20b20c8c9c825dfd", "lat": 38.90012216666667, "name": "e5a9868a6e4c907c20b20c8c9c825dfd", "fusion_lon": 0.0, "fusion_lat": 0.0, "type": "electric_scooter", "lon": -77.00685016666667}, {"rental_uris": {"android": "https://dc.lft.to/lastmile_qr_scan", "ios": "https://dc.lft.to/lastmile_qr_scan"}, "is_reserved": 0, "is_disabled": 0, "bike_id": "6459ff4dccfc9c0ce2d7f27701414eb3", "lat": 38.918383, "name": "6459ff4dccfc9c0ce2d7f27701414eb3", "fusion_lon": 0.0, "fusion_lat": 0.0, "type": "electric_scooter", "lon": -77.039228}, {"rental_uris": {"android": "https://dc.lft.to/lastmile_qr_scan", "ios": "https://dc.lft.to/lastmile_qr_scan"}, "is_reserved": 0, "is_disabled": 0, "bike_id": "afae23b03e18dcc20fa50eb98c73a2de", "lat": 38.9419775, "name": "afae23b03e18dcc20fa50eb98c73a2de", "fusion_lon": 0.0, "fusion_lat": 0.0, "type": "electric_scooter", "lon": -77.0246605}, {"rental_uris": {"android": "https://dc.lft.to/lastmile_qr_scan", "ios": "https://dc.lft.to/lastmile_qr_scan"}, "is_reserved": 0, "is_disabled": 0, "bike_id": "fde8bbc46647e769f4843db841c20890", "lat": 38.894760833333336, "name": "fde8bbc46647e769f4843db841c20890", "fusion_lon": 0.0, "fusion_lat": 0.0, "type": "electric_scooter", "lon": -77.00137133333334}, {"rental_uris": {"android": "https://dc.lft.to/lastmile_qr_scan", "ios": "https://dc.lft.to/lastmile_qr_scan"}, "is_reserved": 0, "is_disabled": 0, "bike_id": "59dd68757128451988f31741a72cebb2", "lat": 38.916085333333335, "name": "59dd68757128451988f31741a72cebb2", "fusion_lon": 0.0, "fusion_lat": 0.0, "type": "electric_scooter", "lon": -77.0173915}, {"rental_uris": {"android": "https://dc.lft.to/lastmile_qr_scan", "ios": "https://dc.lft.to/lastmile_qr_scan"}, "is_reserved": 0, "is_disabled": 0, "bike_id": "e3e5e52983527dc8e4e60a2e21406707", "lat": 38.8601475, "name": "e3e5e52983527dc8e4e60a2e21406707", "fusion_lon": 0.0, "fusion_lat": 0.0, "type": "electric_scooter", "lon": -76.9851565}, {"rental_uris": {"android": "https://dc.lft.to/lastmile_qr_scan", "ios": "https://dc.lft.to/lastmile_qr_scan"}, "is_reserved": 0, "is_disabled": 0, "bike_id": "b350c4604ac4ff514c90d0f8f3d4ae4e", "lat": 38.887158166666666, "name": "b350c4604ac4ff514c90d0f8f3d4ae4e", "fusion_lon": 0.0, "fusion_lat": 0.0, "type": "electric_scooter", "lon": -77.0319005}, {"rental_uris": {"android": "https://dc.lft.to/lastmile_qr_scan", "ios": "https://dc.lft.to/lastmile_qr_scan"}, "is_reserved": 0, "is_disabled": 0, "bike_id": "ecf67a279318aeaf02b9fefc447795b1", "lat": 38.904121333333336, "name": "ecf67a279318aeaf02b9fefc447795b1", "fusion_lon": 0.0, "fusion_lat": 0.0, "type": "electric_scooter", "lon": -76.9733355}, {"rental_uris": {"android": "https://dc.lft.to/lastmile_qr_scan", "ios": "https://dc.lft.to/lastmile_qr_scan"}, "is_reserved": 0, "is_disabled": 0, "bike_id": "60e747a111b803c5da3d2339bae46843", "lat": 38.896767833333335, "name": "60e747a111b803c5da3d2339bae46843", "fusion_lon": 0.0, "fusion_lat": 0.0, "type": "electric_scooter", "lon": -76.996521}, {"rental_uris": {"android": "https://dc.lft.to/lastmile_qr_scan", "ios": "https://dc.lft.to/lastmile_qr_scan"}, "is_reserved": 0, "is_disabled": 0, "bike_id": "8cff403a62c974d807f4d75c2e65c621", "lat": 38.93851883333333, "name": "8cff403a62c974d807f4d75c2e65c621", "fusion_lon": 0.0, "fusion_lat": 0.0, "type": "electric_bike", "lon": -76.97617533333333}, {"rental_uris": {"android": "https://dc.lft.to/lastmile_qr_scan", "ios": "https://dc.lft.to/lastmile_qr_scan"}, "is_reserved": 0, "is_disabled": 0, "bike_id": "81f32792b15209c90928f4fb61fe15c2", "lat": 38.943846666666666, "name": "81f32792b15209c90928f4fb61fe15c2", "fusion_lon": 0.0, "fusion_lat": 0.0, "type": "electric_scooter", "lon": -77.02735583333333}, {"rental_uris": {"android": "https://dc.lft.to/lastmile_qr_scan", "ios": "https://dc.lft.to/lastmile_qr_scan"}, "is_reserved": 0, "is_disabled": 0, "bike_id": "b37e7d59dd6cdee680d8f5a7bb757cfb", "lat": 38.88251416666667, "name": "b37e7d59dd6cdee680d8f5a7bb757cfb", "fusion_lon": 0.0, "fusion_lat": 0.0, "type": "electric_bike", "lon": -76.96261883333334}, {"rental_uris": {"android": "https://dc.lft.to/lastmile_qr_scan", "ios": "https://dc.lft.to/lastmile_qr_scan"}, "is_reserved": 0, "is_disabled": 0, "bike_id": "0364baacc8096d77d1b897b38334443a", "lat": 38.93880766666667, "name": "0364baacc8096d77d1b897b38334443a", "fusion_lon": 0.0, "fusion_lat": 0.0, "type": "electric_scooter", "lon": -77.02462033333333}, {"rental_uris": {"android": "https://dc.lft.to/lastmile_qr_scan", "ios": "https://dc.lft.to/lastmile_qr_scan"}, "is_reserved": 0, "is_disabled": 0, "bike_id": "a2a62ea7ea740c2dad050367ca2c4886", "lat": 38.9033435, "name": "a2a62ea7ea740c2dad050367ca2c4886", "fusion_lon": 0.0, "fusion_lat": 0.0, "type": "electric_bike", "lon": -76.97530466666667}, {"rental_uris": {"android": "https://dc.lft.to/lastmile_qr_scan", "ios": "https://dc.lft.to/lastmile_qr_scan"}, "is_reserved": 0, "is_disabled": 0, "bike_id": "edcc5fbe2200858be4d55fcc83a1d935", "lat": 38.901558666666666, "name": "edcc5fbe2200858be4d55fcc83a1d935", "fusion_lon": 0.0, "fusion_lat": 0.0, "type": "electric_scooter", "lon": -76.93062766666667}, {"rental_uris": {"android": "https://dc.lft.to/lastmile_qr_scan", "ios": "https://dc.lft.to/lastmile_qr_scan"}, "is_reserved": 0, "is_disabled": 0, "bike_id": "7a27b22b8f1230c87f7f07f9f48c647a", "lat": 38.9210755, "name": "7a27b22b8f1230c87f7f07f9f48c647a", "fusion_lon": 0.0, "fusion_lat": 0.0, "type": "electric_scooter", "lon": -77.04398016666667}, {"rental_uris": {"android": "https://dc.lft.to/lastmile_qr_scan", "ios": "https://dc.lft.to/lastmile_qr_scan"}, "is_reserved": 0, "is_disabled": 0, "bike_id": "a45c11821be1cdf1f56b87d364160056", "lat": 38.896442666666665, "name": "a45c11821be1cdf1f56b87d364160056", "fusion_lon": 0.0, "fusion_lat": 0.0, "type": "electric_scooter", "lon": -77.03218583333333}, {"rental_uris": {"android": "https://dc.lft.to/lastmile_qr_scan", "ios": "https://dc.lft.to/lastmile_qr_scan"}, "is_reserved": 0, "is_disabled": 0, "bike_id": "c986a10a203f66b605d94bd58ec6be3b", "lat": 38.923634666666665, "name": "c986a10a203f66b605d94bd58ec6be3b", "fusion_lon": 0.0, "fusion_lat": 0.0, "type": "electric_scooter", "lon": -77.0513085}, {"rental_uris": {"android": "https://dc.lft.to/lastmile_qr_scan", "ios": "https://dc.lft.to/lastmile_qr_scan"}, "is_reserved": 0, "is_disabled": 0, "bike_id": "d1833c59343def1b99de08e10fc08c0e", "lat": 38.914047, "name": "d1833c59343def1b99de08e10fc08c0e", "fusion_lon": 0.0, "fusion_lat": 0.0, "type": "electric_scooter", "lon": -77.032235}, {"rental_uris": {"android": "https://dc.lft.to/lastmile_qr_scan", "ios": "https://dc.lft.to/lastmile_qr_scan"}, "is_reserved": 0, "is_disabled": 0, "bike_id": "7c5310f6e9e85838f1c2bd1f78630305", "lat": 38.900547333333336, "name": "7c5310f6e9e85838f1c2bd1f78630305", "fusion_lon": 0.0, "fusion_lat": 0.0, "type": "electric_scooter", "lon": -76.93325833333333}, {"rental_uris": {"android": "https://dc.lft.to/lastmile_qr_scan", "ios": "https://dc.lft.to/lastmile_qr_scan"}, "is_reserved": 0, "is_disabled": 0, "bike_id": "73cb0eb385c15b99de855965f5a702dc", "lat": 38.8393665, "name": "73cb0eb385c15b99de855965f5a702dc", "fusion_lon": 0.0, "fusion_lat": 0.0, "type": "electric_bike", "lon": -77.079006}, {"rental_uris": {"android": "https://dc.lft.to/lastmile_qr_scan", "ios": "https://dc.lft.to/lastmile_qr_scan"}, "is_reserved": 0, "is_disabled": 0, "bike_id": "18e18d48925c44ce945900e2f988ca5b", "lat": 38.9050765, "name": "18e18d48925c44ce945900e2f988ca5b", "fusion_lon": 0.0, "fusion_lat": 0.0, "type": "electric_scooter", "lon": -77.05099566666667}, {"rental_uris": {"android": "https://dc.lft.to/lastmile_qr_scan", "ios": "https://dc.lft.to/lastmile_qr_scan"}, "is_reserved": 0, "is_disabled": 0, "bike_id": "413dcbde3f52f692b1935b9c52e1b759", "lat": 38.91412316666667, "name": "413dcbde3f52f692b1935b9c52e1b759", "fusion_lon": 0.0, "fusion_lat": 0.0, "type": "electric_scooter", "lon": -77.02461033333333}, {"rental_uris": {"android": "https://dc.lft.to/lastmile_qr_scan", "ios": "https://dc.lft.to/lastmile_qr_scan"}, "is_reserved": 0, "is_disabled": 0, "bike_id": "faaec4659770b2936dbc33bbda08d968", "lat": 38.88734633333333, "name": "faaec4659770b2936dbc33bbda08d968", "fusion_lon": 0.0, "fusion_lat": 0.0, "type": "electric_scooter", "lon": -77.02833966666667}, {"rental_uris": {"android": "https://dc.lft.to/lastmile_qr_scan", "ios": "https://dc.lft.to/lastmile_qr_scan"}, "is_reserved": 0, "is_disabled": 0, "bike_id": "f334c8f80563fe1e820d18d8291a0453", "lat": 38.90364816666667, "name": "f334c8f80563fe1e820d18d8291a0453", "fusion_lon": 0.0, "fusion_lat": 0.0, "type": "electric_scooter", "lon": -77.03306166666667}, {"rental_uris": {"android": "https://dc.lft.to/lastmile_qr_scan", "ios": "https://dc.lft.to/lastmile_qr_scan"}, "is_reserved": 0, "is_disabled": 0, "bike_id": "ec9cffec238f8ff1da213f4d6ba97de7", "lat": 38.8972425, "name": "ec9cffec238f8ff1da213f4d6ba97de7", "fusion_lon": 0.0, "fusion_lat": 0.0, "type": "electric_scooter", "lon": -77.02841366666667}, {"rental_uris": {"android": "https://dc.lft.to/lastmile_qr_scan", "ios": "https://dc.lft.to/lastmile_qr_scan"}, "is_reserved": 0, "is_disabled": 0, "bike_id": "9cfc16c0b67388d87020444c972653ec", "lat": 38.90547183333334, "name": "9cfc16c0b67388d87020444c972653ec", "fusion_lon": 0.0, "fusion_lat": 0.0, "type": "electric_scooter", "lon": -77.0438485}, {"rental_uris": {"android": "https://dc.lft.to/lastmile_qr_scan", "ios": "https://dc.lft.to/lastmile_qr_scan"}, "is_reserved": 0, "is_disabled": 0, "bike_id": "8629599465f86c1b45e5cd23649c459d", "lat": 38.96123716666666, "name": "8629599465f86c1b45e5cd23649c459d", "fusion_lon": 0.0, "fusion_lat": 0.0, "type": "electric_scooter", "lon": -77.008929}, {"rental_uris": {"android": "https://dc.lft.to/lastmile_qr_scan", "ios": "https://dc.lft.to/lastmile_qr_scan"}, "is_reserved": 0, "is_disabled": 0, "bike_id": "8ab6d00bb158ff59ecdfc856ec28f925", "lat": 38.871853, "name": "8ab6d00bb158ff59ecdfc856ec28f925", "fusion_lon": 0.0, "fusion_lat": 0.0, "type": "electric_scooter", "lon": -77.00605133333333}, {"rental_uris": {"android": "https://dc.lft.to/lastmile_qr_scan", "ios": "https://dc.lft.to/lastmile_qr_scan"}, "is_reserved": 0, "is_disabled": 0, "bike_id": "4d503e9d5f5a164a61eb81d71491062b", "lat": 38.90809983333333, "name": "4d503e9d5f5a164a61eb81d71491062b", "fusion_lon": 0.0, "fusion_lat": 0.0, "type": "electric_scooter", "lon": -77.04342066666666}, {"rental_uris": {"android": "https://dc.lft.to/lastmile_qr_scan", "ios": "https://dc.lft.to/lastmile_qr_scan"}, "is_reserved": 0, "is_disabled": 0, "bike_id": "3ae271a33a7724c487e7dc7d3ab28fd4", "lat": 38.87365783333333, "name": "3ae271a33a7724c487e7dc7d3ab28fd4", "fusion_lon": 0.0, "fusion_lat": 0.0, "type": "electric_scooter", "lon": -76.97018066666666}, {"rental_uris": {"android": "https://dc.lft.to/lastmile_qr_scan", "ios": "https://dc.lft.to/lastmile_qr_scan"}, "is_reserved": 0, "is_disabled": 0, "bike_id": "34a92da25ba75c94366758ec543c3a77", "lat": 38.894838, "name": "34a92da25ba75c94366758ec543c3a77", "fusion_lon": 0.0, "fusion_lat": 0.0, "type": "electric_scooter", "lon": -77.0219845}, {"rental_uris": {"android": "https://dc.lft.to/lastmile_qr_scan", "ios": "https://dc.lft.to/lastmile_qr_scan"}, "is_reserved": 0, "is_disabled": 0, "bike_id": "f51ed36cd4f2b1e28b51c314fec1b45c", "lat": 38.89831566666667, "name": "f51ed36cd4f2b1e28b51c314fec1b45c", "fusion_lon": 0.0, "fusion_lat": 0.0, "type": "electric_scooter", "lon": -77.03278016666667}, {"rental_uris": {"android": "https://dc.lft.to/lastmile_qr_scan", "ios": "https://dc.lft.to/lastmile_qr_scan"}, "is_reserved": 0, "is_disabled": 0, "bike_id": "401f9f63523c9e5cd1635c4efb01282f", "lat": 38.9332125, "name": "401f9f63523c9e5cd1635c4efb01282f", "fusion_lon": 0.0, "fusion_lat": 0.0, "type": "electric_scooter", "lon": -77.02930366666666}, {"rental_uris": {"android": "https://dc.lft.to/lastmile_qr_scan", "ios": "https://dc.lft.to/lastmile_qr_scan"}, "is_reserved": 0, "is_disabled": 0, "bike_id": "130f980d858a6540c706351f69483911", "lat": 38.942066833333335, "name": "130f980d858a6540c706351f69483911", "fusion_lon": 0.0, "fusion_lat": 0.0, "type": "electric_scooter", "lon": -77.02593616666667}, {"rental_uris": {"android": "https://dc.lft.to/lastmile_qr_scan", "ios": "https://dc.lft.to/lastmile_qr_scan"}, "is_reserved": 0, "is_disabled": 0, "bike_id": "6637d1fffbfb496e738eb45a8429715a", "lat": 38.92335216666667, "name": "6637d1fffbfb496e738eb45a8429715a", "fusion_lon": 0.0, "fusion_lat": 0.0, "type": "electric_scooter", "lon": -77.01896133333334}, {"rental_uris": {"android": "https://dc.lft.to/lastmile_qr_scan", "ios": "https://dc.lft.to/lastmile_qr_scan"}, "is_reserved": 0, "is_disabled": 0, "bike_id": "f2c2843de73f98bca47dc592a44e889c", "lat": 38.876916, "name": "f2c2843de73f98bca47dc592a44e889c", "fusion_lon": 0.0, "fusion_lat": 0.0, "type": "electric_scooter", "lon": -77.01616616666666}, {"rental_uris": {"android": "https://dc.lft.to/lastmile_qr_scan", "ios": "https://dc.lft.to/lastmile_qr_scan"}, "is_reserved": 0, "is_disabled": 0, "bike_id": "8c44c5d446687af5ce10d3054de06098", "lat": 38.91567366666666, "name": "8c44c5d446687af5ce10d3054de06098", "fusion_lon": 0.0, "fusion_lat": 0.0, "type": "electric_scooter", "lon": -77.04093833333333}, {"rental_uris": {"android": "https://dc.lft.to/lastmile_qr_scan", "ios": "https://dc.lft.to/lastmile_qr_scan"}, "is_reserved": 0, "is_disabled": 0, "bike_id": "7f4dfa0da1de7e314a485d0a747d29b8", "lat": 38.913470833333335, "name": "7f4dfa0da1de7e314a485d0a747d29b8", "fusion_lon": 0.0, "fusion_lat": 0.0, "type": "electric_scooter", "lon": -76.9889545}, {"rental_uris": {"android": "https://dc.lft.to/lastmile_qr_scan", "ios": "https://dc.lft.to/lastmile_qr_scan"}, "is_reserved": 0, "is_disabled": 0, "bike_id": "4aab4a364a2291f7087a2f77f8342dd4", "lat": 38.896583166666666, "name": "4aab4a364a2291f7087a2f77f8342dd4", "fusion_lon": 0.0, "fusion_lat": 0.0, "type": "electric_scooter", "lon": -77.03349216666666}, {"rental_uris": {"android": "https://dc.lft.to/lastmile_qr_scan", "ios": "https://dc.lft.to/lastmile_qr_scan"}, "is_reserved": 0, "is_disabled": 0, "bike_id": "d499696fa48948f7bf90fb2a6cdcb5ae", "lat": 38.9253145, "name": "d499696fa48948f7bf90fb2a6cdcb5ae", "fusion_lon": 0.0, "fusion_lat": 0.0, "type": "electric_scooter", "lon": -77.07716666666667}, {"rental_uris": {"android": "https://dc.lft.to/lastmile_qr_scan", "ios": "https://dc.lft.to/lastmile_qr_scan"}, "is_reserved": 0, "is_disabled": 0, "bike_id": "55ebc9aa2587210d39774455a75591ae", "lat": 38.911213833333335, "name": "55ebc9aa2587210d39774455a75591ae", "fusion_lon": 0.0, "fusion_lat": 0.0, "type": "electric_scooter", "lon": -77.03150716666667}, {"rental_uris": {"android": "https://dc.lft.to/lastmile_qr_scan", "ios": "https://dc.lft.to/lastmile_qr_scan"}, "is_reserved": 0, "is_disabled": 0, "bike_id": "e221acf501955caca062548c37f29787", "lat": 38.942999, "name": "e221acf501955caca062548c37f29787", "fusion_lon": 0.0, "fusion_lat": 0.0, "type": "electric_scooter", "lon": -77.021754}, {"rental_uris": {"android": "https://dc.lft.to/lastmile_qr_scan", "ios": "https://dc.lft.to/lastmile_qr_scan"}, "is_reserved": 0, "is_disabled": 0, "bike_id": "ae2b2634dce4bebf1084351cd3db77d8", "lat": 38.917705, "name": "ae2b2634dce4bebf1084351cd3db77d8", "fusion_lon": 0.0, "fusion_lat": 0.0, "type": "electric_scooter", "lon": -77.04187316666666}, {"rental_uris": {"android": "https://dc.lft.to/lastmile_qr_scan", "ios": "https://dc.lft.to/lastmile_qr_scan"}, "is_reserved": 0, "is_disabled": 0, "bike_id": "8249f7bb60937f21804a76e825ab71bc", "lat": 38.90712333333333, "name": "8249f7bb60937f21804a76e825ab71bc", "fusion_lon": 0.0, "fusion_lat": 0.0, "type": "electric_scooter", "lon": -77.0162005}, {"rental_uris": {"android": "https://dc.lft.to/lastmile_qr_scan", "ios": "https://dc.lft.to/lastmile_qr_scan"}, "is_reserved": 0, "is_disabled": 0, "bike_id": "233354fe0d9aaa93d4a4e192fba86c38", "lat": 38.90688033333333, "name": "233354fe0d9aaa93d4a4e192fba86c38", "fusion_lon": 0.0, "fusion_lat": 0.0, "type": "electric_scooter", "lon": -77.037797}, {"rental_uris": {"android": "https://dc.lft.to/lastmile_qr_scan", "ios": "https://dc.lft.to/lastmile_qr_scan"}, "is_reserved": 0, "is_disabled": 0, "bike_id": "c3537aa4a25ad44f23dfd728985ba84a", "lat": 38.885056, "name": "c3537aa4a25ad44f23dfd728985ba84a", "fusion_lon": 0.0, "fusion_lat": 0.0, "type": "electric_scooter", "lon": -77.0158645}, {"rental_uris": {"android": "https://dc.lft.to/lastmile_qr_scan", "ios": "https://dc.lft.to/lastmile_qr_scan"}, "is_reserved": 0, "is_disabled": 0, "bike_id": "8520a583c3ee03317d1c577910eab4ce", "lat": 38.97576183333334, "name": "8520a583c3ee03317d1c577910eab4ce", "fusion_lon": 0.0, "fusion_lat": 0.0, "type": "electric_scooter", "lon": -77.026122}, {"rental_uris": {"android": "https://dc.lft.to/lastmile_qr_scan", "ios": "https://dc.lft.to/lastmile_qr_scan"}, "is_reserved": 0, "is_disabled": 0, "bike_id": "b053b4b25953a7f629baf3ef32af6197", "lat": 38.89226266666667, "name": "b053b4b25953a7f629baf3ef32af6197", "fusion_lon": 0.0, "fusion_lat": 0.0, "type": "electric_scooter", "lon": -77.043125}, {"rental_uris": {"android": "https://dc.lft.to/lastmile_qr_scan", "ios": "https://dc.lft.to/lastmile_qr_scan"}, "is_reserved": 0, "is_disabled": 0, "bike_id": "cc723620fe7d1e230425948966862285", "lat": 38.910628333333335, "name": "cc723620fe7d1e230425948966862285", "fusion_lon": 0.0, "fusion_lat": 0.0, "type": "electric_scooter", "lon": -77.05473416666666}, {"rental_uris": {"android": "https://dc.lft.to/lastmile_qr_scan", "ios": "https://dc.lft.to/lastmile_qr_scan"}, "is_reserved": 0, "is_disabled": 0, "bike_id": "37084c712da166e9bdb0f19a2ceed288", "lat": 38.9012695, "name": "37084c712da166e9bdb0f19a2ceed288", "fusion_lon": 0.0, "fusion_lat": 0.0, "type": "electric_scooter", "lon": -77.03332633333333}, {"rental_uris": {"android": "https://dc.lft.to/lastmile_qr_scan", "ios": "https://dc.lft.to/lastmile_qr_scan"}, "is_reserved": 0, "is_disabled": 0, "bike_id": "3813a3ec58d690ebd4edf52d8fff53d6", "lat": 38.945127, "name": "3813a3ec58d690ebd4edf52d8fff53d6", "fusion_lon": 0.0, "fusion_lat": 0.0, "type": "electric_scooter", "lon": -77.03365266666667}, {"rental_uris": {"android": "https://dc.lft.to/lastmile_qr_scan", "ios": "https://dc.lft.to/lastmile_qr_scan"}, "is_reserved": 0, "is_disabled": 0, "bike_id": "773d246f926703c580de9216a91fb97a", "lat": 38.892293, "name": "773d246f926703c580de9216a91fb97a", "fusion_lon": 0.0, "fusion_lat": 0.0, "type": "electric_scooter", "lon": -77.03112083333333}, {"rental_uris": {"android": "https://dc.lft.to/lastmile_qr_scan", "ios": "https://dc.lft.to/lastmile_qr_scan"}, "is_reserved": 0, "is_disabled": 0, "bike_id": "674a0dda3faa26b14be8ea5408a7feec", "lat": 38.91569916666667, "name": "674a0dda3faa26b14be8ea5408a7feec", "fusion_lon": 0.0, "fusion_lat": 0.0, "type": "electric_scooter", "lon": -77.02385666666666}, {"rental_uris": {"android": "https://dc.lft.to/lastmile_qr_scan", "ios": "https://dc.lft.to/lastmile_qr_scan"}, "is_reserved": 0, "is_disabled": 0, "bike_id": "f9b2608eeda3a8b434d1dbe61a0515ca", "lat": 38.94101166666667, "name": "f9b2608eeda3a8b434d1dbe61a0515ca", "fusion_lon": 0.0, "fusion_lat": 0.0, "type": "electric_scooter", "lon": -77.02548983333334}, {"rental_uris": {"android": "https://dc.lft.to/lastmile_qr_scan", "ios": "https://dc.lft.to/lastmile_qr_scan"}, "is_reserved": 0, "is_disabled": 0, "bike_id": "7bd9a33a76bd06725964dbd3e80d591a", "lat": 38.89231566666667, "name": "7bd9a33a76bd06725964dbd3e80d591a", "fusion_lon": 0.0, "fusion_lat": 0.0, "type": "electric_scooter", "lon": -77.0318695}, {"rental_uris": {"android": "https://dc.lft.to/lastmile_qr_scan", "ios": "https://dc.lft.to/lastmile_qr_scan"}, "is_reserved": 0, "is_disabled": 0, "bike_id": "111f07403d79209b80b94ce650da0821", "lat": 38.917949, "name": "111f07403d79209b80b94ce650da0821", "fusion_lon": 0.0, "fusion_lat": 0.0, "type": "electric_scooter", "lon": -77.031948}, {"rental_uris": {"android": "https://dc.lft.to/lastmile_qr_scan", "ios": "https://dc.lft.to/lastmile_qr_scan"}, "is_reserved": 0, "is_disabled": 0, "bike_id": "8afdcfd8f96391939e0dd8a041392078", "lat": 38.92742916666667, "name": "8afdcfd8f96391939e0dd8a041392078", "fusion_lon": 0.0, "fusion_lat": 0.0, "type": "electric_scooter", "lon": -77.0328335}, {"rental_uris": {"android": "https://dc.lft.to/lastmile_qr_scan", "ios": "https://dc.lft.to/lastmile_qr_scan"}, "is_reserved": 0, "is_disabled": 0, "bike_id": "aa3b06217cfff66ee103423e036e3534", "lat": 38.915565666666666, "name": "aa3b06217cfff66ee103423e036e3534", "fusion_lon": 0.0, "fusion_lat": 0.0, "type": "electric_scooter", "lon": -77.0385835}, {"rental_uris": {"android": "https://dc.lft.to/lastmile_qr_scan", "ios": "https://dc.lft.to/lastmile_qr_scan"}, "is_reserved": 0, "is_disabled": 0, "bike_id": "448de5135e9d5864c21785ebddf92b05", "lat": 38.88497016666667, "name": "448de5135e9d5864c21785ebddf92b05", "fusion_lon": 0.0, "fusion_lat": 0.0, "type": "electric_scooter", "lon": -77.007297}, {"rental_uris": {"android": "https://dc.lft.to/lastmile_qr_scan", "ios": "https://dc.lft.to/lastmile_qr_scan"}, "is_reserved": 0, "is_disabled": 0, "bike_id": "7bd4ebf394732183cc0fb4b709d05b00", "lat": 38.8856665, "name": "7bd4ebf394732183cc0fb4b709d05b00", "fusion_lon": 0.0, "fusion_lat": 0.0, "type": "electric_bike", "lon": -77.16691616666667}, {"rental_uris": {"android": "https://dc.lft.to/lastmile_qr_scan", "ios": "https://dc.lft.to/lastmile_qr_scan"}, "is_reserved": 0, "is_disabled": 0, "bike_id": "ea2b2a897cb11ebf0228386a9d0e598b", "lat": 38.90552483333333, "name": "ea2b2a897cb11ebf0228386a9d0e598b", "fusion_lon": 0.0, "fusion_lat": 0.0, "type": "electric_scooter", "lon": -77.03394983333334}, {"rental_uris": {"android": "https://dc.lft.to/lastmile_qr_scan", "ios": "https://dc.lft.to/lastmile_qr_scan"}, "is_reserved": 0, "is_disabled": 0, "bike_id": "4452a069e22f1ee3be9b7596dab19f3b", "lat": 38.918975333333336, "name": "4452a069e22f1ee3be9b7596dab19f3b", "fusion_lon": 0.0, "fusion_lat": 0.0, "type": "electric_scooter", "lon": -77.0297445}, {"rental_uris": {"android": "https://dc.lft.to/lastmile_qr_scan", "ios": "https://dc.lft.to/lastmile_qr_scan"}, "is_reserved": 0, "is_disabled": 0, "bike_id": "18d4e9a9efcb6a5b8c4546be65b4fb39", "lat": 38.90578766666667, "name": "18d4e9a9efcb6a5b8c4546be65b4fb39", "fusion_lon": 0.0, "fusion_lat": 0.0, "type": "electric_scooter", "lon": -77.04012183333333}, {"rental_uris": {"android": "https://dc.lft.to/lastmile_qr_scan", "ios": "https://dc.lft.to/lastmile_qr_scan"}, "is_reserved": 0, "is_disabled": 0, "bike_id": "2e9015135e2bd21d310283c42df295ae", "lat": 38.892233166666664, "name": "2e9015135e2bd21d310283c42df295ae", "fusion_lon": 0.0, "fusion_lat": 0.0, "type": "electric_scooter", "lon": -77.03221566666667}, {"rental_uris": {"android": "https://dc.lft.to/lastmile_qr_scan", "ios": "https://dc.lft.to/lastmile_qr_scan"}, "is_reserved": 0, "is_disabled": 0, "bike_id": "887ad374e1a6ce257d982f75d80f7f59", "lat": 38.90422866666667, "name": "887ad374e1a6ce257d982f75d80f7f59", "fusion_lon": 0.0, "fusion_lat": 0.0, "type": "electric_scooter", "lon": -77.0426225}, {"rental_uris": {"android": "https://dc.lft.to/lastmile_qr_scan", "ios": "https://dc.lft.to/lastmile_qr_scan"}, "is_reserved": 0, "is_disabled": 0, "bike_id": "67acec867e16b2634525a22ea3a9e4ec", "lat": 38.898714, "name": "67acec867e16b2634525a22ea3a9e4ec", "fusion_lon": 0.0, "fusion_lat": 0.0, "type": "electric_scooter", "lon": -77.0294715}, {"rental_uris": {"android": "https://dc.lft.to/lastmile_qr_scan", "ios": "https://dc.lft.to/lastmile_qr_scan"}, "is_reserved": 0, "is_disabled": 0, "bike_id": "1b7d9b5ba01fad6b50692b142c46e0dc", "lat": 38.857585666666665, "name": "1b7d9b5ba01fad6b50692b142c46e0dc", "fusion_lon": 0.0, "fusion_lat": 0.0, "type": "electric_scooter", "lon": -76.99301216666667}, {"rental_uris": {"android": "https://dc.lft.to/lastmile_qr_scan", "ios": "https://dc.lft.to/lastmile_qr_scan"}, "is_reserved": 0, "is_disabled": 0, "bike_id": "69888338db89e9b25ef07644c58fa231", "lat": 38.909825, "name": "69888338db89e9b25ef07644c58fa231", "fusion_lon": 0.0, "fusion_lat": 0.0, "type": "electric_scooter", "lon": -77.03439566666667}, {"rental_uris": {"android": "https://dc.lft.to/lastmile_qr_scan", "ios": "https://dc.lft.to/lastmile_qr_scan"}, "is_reserved": 0, "is_disabled": 0, "bike_id": "96df90c82a07354aa19e3b409d16a07a", "lat": 38.905908, "name": "96df90c82a07354aa19e3b409d16a07a", "fusion_lon": 0.0, "fusion_lat": 0.0, "type": "electric_scooter", "lon": -77.04024283333334}, {"rental_uris": {"android": "https://dc.lft.to/lastmile_qr_scan", "ios": "https://dc.lft.to/lastmile_qr_scan"}, "is_reserved": 0, "is_disabled": 0, "bike_id": "9ba0d7357b7d17c66258abe2d2589f91", "lat": 38.892297, "name": "9ba0d7357b7d17c66258abe2d2589f91", "fusion_lon": 0.0, "fusion_lat": 0.0, "type": "electric_scooter", "lon": -77.02366266666667}, {"rental_uris": {"android": "https://dc.lft.to/lastmile_qr_scan", "ios": "https://dc.lft.to/lastmile_qr_scan"}, "is_reserved": 0, "is_disabled": 0, "bike_id": "3f15478b1e2b7022794f25d1f59fe7ad", "lat": 38.91181383333333, "name": "3f15478b1e2b7022794f25d1f59fe7ad", "fusion_lon": 0.0, "fusion_lat": 0.0, "type": "electric_scooter", "lon": -77.04172766666667}, {"rental_uris": {"android": "https://dc.lft.to/lastmile_qr_scan", "ios": "https://dc.lft.to/lastmile_qr_scan"}, "is_reserved": 0, "is_disabled": 0, "bike_id": "f02fb72aa3e2644885d948b52015e49c", "lat": 38.90255783333333, "name": "f02fb72aa3e2644885d948b52015e49c", "fusion_lon": 0.0, "fusion_lat": 0.0, "type": "electric_scooter", "lon": -77.03454583333334}, {"rental_uris": {"android": "https://dc.lft.to/lastmile_qr_scan", "ios": "https://dc.lft.to/lastmile_qr_scan"}, "is_reserved": 0, "is_disabled": 0, "bike_id": "836017159e3f248fd810f77445ccda25", "lat": 38.90559583333334, "name": "836017159e3f248fd810f77445ccda25", "fusion_lon": 0.0, "fusion_lat": 0.0, "type": "electric_scooter", "lon": -77.03396816666667}, {"rental_uris": {"android": "https://dc.lft.to/lastmile_qr_scan", "ios": "https://dc.lft.to/lastmile_qr_scan"}, "is_reserved": 0, "is_disabled": 0, "bike_id": "dbb43af02624ce6ce6aefa7df8427ae3", "lat": 38.901425833333334, "name": "dbb43af02624ce6ce6aefa7df8427ae3", "fusion_lon": 0.0, "fusion_lat": 0.0, "type": "electric_bike", "lon": -77.0416985}, {"rental_uris": {"android": "https://dc.lft.to/lastmile_qr_scan", "ios": "https://dc.lft.to/lastmile_qr_scan"}, "is_reserved": 0, "is_disabled": 0, "bike_id": "02c79dc7829da81d4b29cef3ed8f81e9", "lat": 38.813357833333335, "name": "02c79dc7829da81d4b29cef3ed8f81e9", "fusion_lon": 0.0, "fusion_lat": 0.0, "type": "electric_bike", "lon": -77.05095983333334}, {"rental_uris": {"android": "https://dc.lft.to/lastmile_qr_scan", "ios": "https://dc.lft.to/lastmile_qr_scan"}, "is_reserved": 0, "is_disabled": 0, "bike_id": "64aa13dfb31c49c7db9ae3a0535928c1", "lat": 38.96783383333333, "name": "64aa13dfb31c49c7db9ae3a0535928c1", "fusion_lon": 0.0, "fusion_lat": 0.0, "type": "electric_scooter", "lon": -77.01519166666667}, {"rental_uris": {"android": "https://dc.lft.to/lastmile_qr_scan", "ios": "https://dc.lft.to/lastmile_qr_scan"}, "is_reserved": 0, "is_disabled": 0, "bike_id": "03fc7bb9988823ce257488e863abffbd", "lat": 38.9219515, "name": "03fc7bb9988823ce257488e863abffbd", "fusion_lon": 0.0, "fusion_lat": 0.0, "type": "electric_scooter", "lon": -77.02417983333333}, {"rental_uris": {"android": "https://dc.lft.to/lastmile_qr_scan", "ios": "https://dc.lft.to/lastmile_qr_scan"}, "is_reserved": 0, "is_disabled": 0, "bike_id": "e874517ba19cf5bed66ee621ebb3f1cb", "lat": 38.895216166666664, "name": "e874517ba19cf5bed66ee621ebb3f1cb", "fusion_lon": 0.0, "fusion_lat": 0.0, "type": "electric_scooter", "lon": -77.02413133333333}, {"rental_uris": {"android": "https://dc.lft.to/lastmile_qr_scan", "ios": "https://dc.lft.to/lastmile_qr_scan"}, "is_reserved": 0, "is_disabled": 0, "bike_id": "b5377f89bd197f157d1be4b37483f066", "lat": 38.90639083333333, "name": "b5377f89bd197f157d1be4b37483f066", "fusion_lon": 0.0, "fusion_lat": 0.0, "type": "electric_scooter", "lon": -77.03450333333333}, {"rental_uris": {"android": "https://dc.lft.to/lastmile_qr_scan", "ios": "https://dc.lft.to/lastmile_qr_scan"}, "is_reserved": 0, "is_disabled": 0, "bike_id": "a698969ada261ddda3486a2bf3f338cb", "lat": 38.899795166666664, "name": "a698969ada261ddda3486a2bf3f338cb", "fusion_lon": 0.0, "fusion_lat": 0.0, "type": "electric_scooter", "lon": -77.026975}, {"rental_uris": {"android": "https://dc.lft.to/lastmile_qr_scan", "ios": "https://dc.lft.to/lastmile_qr_scan"}, "is_reserved": 0, "is_disabled": 0, "bike_id": "c08f297a0690d98160373af55808df79", "lat": 38.909593666666666, "name": "c08f297a0690d98160373af55808df79", "fusion_lon": 0.0, "fusion_lat": 0.0, "type": "electric_scooter", "lon": -77.03426283333333}, {"rental_uris": {"android": "https://dc.lft.to/lastmile_qr_scan", "ios": "https://dc.lft.to/lastmile_qr_scan"}, "is_reserved": 0, "is_disabled": 0, "bike_id": "73a4c7b5024754e91c54e7954c1cf4c0", "lat": 38.895287833333335, "name": "73a4c7b5024754e91c54e7954c1cf4c0", "fusion_lon": 0.0, "fusion_lat": 0.0, "type": "electric_scooter", "lon": -77.04340933333333}, {"rental_uris": {"android": "https://dc.lft.to/lastmile_qr_scan", "ios": "https://dc.lft.to/lastmile_qr_scan"}, "is_reserved": 0, "is_disabled": 0, "bike_id": "493a102a086e857ba42909d50b5d5588", "lat": 38.934772833333334, "name": "493a102a086e857ba42909d50b5d5588", "fusion_lon": 0.0, "fusion_lat": 0.0, "type": "electric_scooter", "lon": -77.07268183333333}, {"rental_uris": {"android": "https://dc.lft.to/lastmile_qr_scan", "ios": "https://dc.lft.to/lastmile_qr_scan"}, "is_reserved": 0, "is_disabled": 0, "bike_id": "520445187dcafb45926c1613ea766fe7", "lat": 38.880817, "name": "520445187dcafb45926c1613ea766fe7", "fusion_lon": 0.0, "fusion_lat": 0.0, "type": "electric_scooter", "lon": -76.98513183333333}, {"rental_uris": {"android": "https://dc.lft.to/lastmile_qr_scan", "ios": "https://dc.lft.to/lastmile_qr_scan"}, "is_reserved": 0, "is_disabled": 0, "bike_id": "015fc1f833fd30509877f4cbb97d654a", "lat": 38.908082, "name": "015fc1f833fd30509877f4cbb97d654a", "fusion_lon": 0.0, "fusion_lat": 0.0, "type": "electric_scooter", "lon": -77.043299}, {"rental_uris": {"android": "https://dc.lft.to/lastmile_qr_scan", "ios": "https://dc.lft.to/lastmile_qr_scan"}, "is_reserved": 0, "is_disabled": 0, "bike_id": "116bd97626cb9e31bad60c99defc8025", "lat": 38.9155865, "name": "116bd97626cb9e31bad60c99defc8025", "fusion_lon": 0.0, "fusion_lat": 0.0, "type": "electric_scooter", "lon": -77.03858466666667}, {"rental_uris": {"android": "https://dc.lft.to/lastmile_qr_scan", "ios": "https://dc.lft.to/lastmile_qr_scan"}, "is_reserved": 0, "is_disabled": 0, "bike_id": "091f6c6d0f01dca0ccb0b62775563061", "lat": 38.88415, "name": "091f6c6d0f01dca0ccb0b62775563061", "fusion_lon": 0.0, "fusion_lat": 0.0, "type": "electric_scooter", "lon": -77.02916933333333}, {"rental_uris": {"android": "https://dc.lft.to/lastmile_qr_scan", "ios": "https://dc.lft.to/lastmile_qr_scan"}, "is_reserved": 0, "is_disabled": 0, "bike_id": "40743f0873adb0ef854d6486a9c0f654", "lat": 38.9072995, "name": "40743f0873adb0ef854d6486a9c0f654", "fusion_lon": 0.0, "fusion_lat": 0.0, "type": "electric_scooter", "lon": -77.00623083333333}, {"rental_uris": {"android": "https://dc.lft.to/lastmile_qr_scan", "ios": "https://dc.lft.to/lastmile_qr_scan"}, "is_reserved": 0, "is_disabled": 0, "bike_id": "d7d60c93798a962e3f58ac33cfc01fb7", "lat": 38.89836283333333, "name": "d7d60c93798a962e3f58ac33cfc01fb7", "fusion_lon": 0.0, "fusion_lat": 0.0, "type": "electric_scooter", "lon": -76.94638366666666}, {"rental_uris": {"android": "https://dc.lft.to/lastmile_qr_scan", "ios": "https://dc.lft.to/lastmile_qr_scan"}, "is_reserved": 0, "is_disabled": 0, "bike_id": "f085c2382343a8004acb4069aa7ef161", "lat": 38.884929666666665, "name": "f085c2382343a8004acb4069aa7ef161", "fusion_lon": 0.0, "fusion_lat": 0.0, "type": "electric_scooter", "lon": -77.00727933333333}, {"rental_uris": {"android": "https://dc.lft.to/lastmile_qr_scan", "ios": "https://dc.lft.to/lastmile_qr_scan"}, "is_reserved": 0, "is_disabled": 0, "bike_id": "21fe960c8395446a4dca9769cc60a17b", "lat": 38.89627633333333, "name": "21fe960c8395446a4dca9769cc60a17b", "fusion_lon": 0.0, "fusion_lat": 0.0, "type": "electric_scooter", "lon": -76.99855666666667}, {"rental_uris": {"android": "https://dc.lft.to/lastmile_qr_scan", "ios": "https://dc.lft.to/lastmile_qr_scan"}, "is_reserved": 0, "is_disabled": 0, "bike_id": "ff5d7cdc9225a34700aa1ba54368a4e7", "lat": 38.912701, "name": "ff5d7cdc9225a34700aa1ba54368a4e7", "fusion_lon": 0.0, "fusion_lat": 0.0, "type": "electric_scooter", "lon": -77.0744555}, {"rental_uris": {"android": "https://dc.lft.to/lastmile_qr_scan", "ios": "https://dc.lft.to/lastmile_qr_scan"}, "is_reserved": 0, "is_disabled": 0, "bike_id": "ff5197cd019daade16f9c66d45d4368c", "lat": 38.91724383333333, "name": "ff5197cd019daade16f9c66d45d4368c", "fusion_lon": 0.0, "fusion_lat": 0.0, "type": "electric_scooter", "lon": -77.03299516666667}, {"rental_uris": {"android": "https://dc.lft.to/lastmile_qr_scan", "ios": "https://dc.lft.to/lastmile_qr_scan"}, "is_reserved": 0, "is_disabled": 0, "bike_id": "852dad6483995b1020da02ff5a1217a7", "lat": 38.89172333333333, "name": "852dad6483995b1020da02ff5a1217a7", "fusion_lon": 0.0, "fusion_lat": 0.0, "type": "electric_scooter", "lon": -77.0155225}, {"rental_uris": {"android": "https://dc.lft.to/lastmile_qr_scan", "ios": "https://dc.lft.to/lastmile_qr_scan"}, "is_reserved": 0, "is_disabled": 0, "bike_id": "5d0d1611d59c03b4465f7b413271b14c", "lat": 38.9283375, "name": "5d0d1611d59c03b4465f7b413271b14c", "fusion_lon": 0.0, "fusion_lat": 0.0, "type": "electric_scooter", "lon": -77.03701983333333}, {"rental_uris": {"android": "https://dc.lft.to/lastmile_qr_scan", "ios": "https://dc.lft.to/lastmile_qr_scan"}, "is_reserved": 0, "is_disabled": 0, "bike_id": "e548732061788c6091b5aa9336edccda", "lat": 38.93131783333333, "name": "e548732061788c6091b5aa9336edccda", "fusion_lon": 0.0, "fusion_lat": 0.0, "type": "electric_scooter", "lon": -77.03883316666666}, {"rental_uris": {"android": "https://dc.lft.to/lastmile_qr_scan", "ios": "https://dc.lft.to/lastmile_qr_scan"}, "is_reserved": 0, "is_disabled": 0, "bike_id": "2b89fa3a5362e1096485dd9a28e8f420", "lat": 38.925158333333336, "name": "2b89fa3a5362e1096485dd9a28e8f420", "fusion_lon": 0.0, "fusion_lat": 0.0, "type": "electric_bike", "lon": -77.03888633333334}, {"rental_uris": {"android": "https://dc.lft.to/lastmile_qr_scan", "ios": "https://dc.lft.to/lastmile_qr_scan"}, "is_reserved": 0, "is_disabled": 0, "bike_id": "6af8a88fd1cfad442072bc2f10a939b8", "lat": 38.89915, "name": "6af8a88fd1cfad442072bc2f10a939b8", "fusion_lon": 0.0, "fusion_lat": 0.0, "type": "electric_scooter", "lon": -76.93383266666666}, {"rental_uris": {"android": "https://dc.lft.to/lastmile_qr_scan", "ios": "https://dc.lft.to/lastmile_qr_scan"}, "is_reserved": 0, "is_disabled": 0, "bike_id": "6cc6ea88be528906cccb6b223757f634", "lat": 38.939822666666664, "name": "6cc6ea88be528906cccb6b223757f634", "fusion_lon": 0.0, "fusion_lat": 0.0, "type": "electric_scooter", "lon": -77.02980533333333}, {"rental_uris": {"android": "https://dc.lft.to/lastmile_qr_scan", "ios": "https://dc.lft.to/lastmile_qr_scan"}, "is_reserved": 0, "is_disabled": 0, "bike_id": "3552f08a3aa6a518ed6110ccf6b95f84", "lat": 38.92445216666667, "name": "3552f08a3aa6a518ed6110ccf6b95f84", "fusion_lon": 0.0, "fusion_lat": 0.0, "type": "electric_scooter", "lon": -77.04113966666667}, {"rental_uris": {"android": "https://dc.lft.to/lastmile_qr_scan", "ios": "https://dc.lft.to/lastmile_qr_scan"}, "is_reserved": 0, "is_disabled": 0, "bike_id": "04ebf8d43817056375d67f884e27dc43", "lat": 38.91361233333333, "name": "04ebf8d43817056375d67f884e27dc43", "fusion_lon": 0.0, "fusion_lat": 0.0, "type": "electric_scooter", "lon": -77.03158466666666}, {"rental_uris": {"android": "https://dc.lft.to/lastmile_qr_scan", "ios": "https://dc.lft.to/lastmile_qr_scan"}, "is_reserved": 0, "is_disabled": 0, "bike_id": "85a95128448bf1b3e0594ee03f7d6863", "lat": 38.89742116666667, "name": "85a95128448bf1b3e0594ee03f7d6863", "fusion_lon": 0.0, "fusion_lat": 0.0, "type": "electric_scooter", "lon": -77.01278166666667}, {"rental_uris": {"android": "https://dc.lft.to/lastmile_qr_scan", "ios": "https://dc.lft.to/lastmile_qr_scan"}, "is_reserved": 0, "is_disabled": 0, "bike_id": "663bf5b086150f6ca27728a378df3611", "lat": 39.062953666666665, "name": "663bf5b086150f6ca27728a378df3611", "fusion_lon": 0.0, "fusion_lat": 0.0, "type": "electric_bike", "lon": -77.04980083333334}, {"rental_uris": {"android": "https://dc.lft.to/lastmile_qr_scan", "ios": "https://dc.lft.to/lastmile_qr_scan"}, "is_reserved": 0, "is_disabled": 0, "bike_id": "752b393a1b8a43514a4228587045fc67", "lat": 38.924929166666665, "name": "752b393a1b8a43514a4228587045fc67", "fusion_lon": 0.0, "fusion_lat": 0.0, "type": "electric_scooter", "lon": -77.05218616666667}, {"rental_uris": {"android": "https://dc.lft.to/lastmile_qr_scan", "ios": "https://dc.lft.to/lastmile_qr_scan"}, "is_reserved": 0, "is_disabled": 0, "bike_id": "0032f18e2d289f9fb1031b7dda8fbff3", "lat": 38.900811833333336, "name": "0032f18e2d289f9fb1031b7dda8fbff3", "fusion_lon": 0.0, "fusion_lat": 0.0, "type": "electric_scooter", "lon": -77.04764083333333}, {"rental_uris": {"android": "https://dc.lft.to/lastmile_qr_scan", "ios": "https://dc.lft.to/lastmile_qr_scan"}, "is_reserved": 0, "is_disabled": 0, "bike_id": "ff32549dbf88e24b38bc2d5902e87f60", "lat": 38.88728583333334, "name": "ff32549dbf88e24b38bc2d5902e87f60", "fusion_lon": 0.0, "fusion_lat": 0.0, "type": "electric_scooter", "lon": -77.01768133333333}, {"rental_uris": {"android": "https://dc.lft.to/lastmile_qr_scan", "ios": "https://dc.lft.to/lastmile_qr_scan"}, "is_reserved": 0, "is_disabled": 0, "bike_id": "cce375ef4e096448b35df05eb866fc50", "lat": 38.88307116666667, "name": "cce375ef4e096448b35df05eb866fc50", "fusion_lon": 0.0, "fusion_lat": 0.0, "type": "electric_scooter", "lon": -76.97867233333334}, {"rental_uris": {"android": "https://dc.lft.to/lastmile_qr_scan", "ios": "https://dc.lft.to/lastmile_qr_scan"}, "is_reserved": 0, "is_disabled": 0, "bike_id": "9a0bd3d63603089ae777e5372be6a27c", "lat": 38.898206333333334, "name": "9a0bd3d63603089ae777e5372be6a27c", "fusion_lon": 0.0, "fusion_lat": 0.0, "type": "electric_scooter", "lon": -77.01360666666666}, {"rental_uris": {"android": "https://dc.lft.to/lastmile_qr_scan", "ios": "https://dc.lft.to/lastmile_qr_scan"}, "is_reserved": 0, "is_disabled": 0, "bike_id": "c9ec9deae7609429c3ce1dfefac210c5", "lat": 38.899175, "name": "c9ec9deae7609429c3ce1dfefac210c5", "fusion_lon": 0.0, "fusion_lat": 0.0, "type": "electric_scooter", "lon": -76.93381233333334}, {"rental_uris": {"android": "https://dc.lft.to/lastmile_qr_scan", "ios": "https://dc.lft.to/lastmile_qr_scan"}, "is_reserved": 0, "is_disabled": 0, "bike_id": "e78a1b5c9c49e2d4fc40b8b1729d670e", "lat": 38.903646333333334, "name": "e78a1b5c9c49e2d4fc40b8b1729d670e", "fusion_lon": 0.0, "fusion_lat": 0.0, "type": "electric_scooter", "lon": -77.06762066666667}, {"rental_uris": {"android": "https://dc.lft.to/lastmile_qr_scan", "ios": "https://dc.lft.to/lastmile_qr_scan"}, "is_reserved": 0, "is_disabled": 0, "bike_id": "ac16243af36ad57cc75b01fdab73212e", "lat": 38.90618, "name": "ac16243af36ad57cc75b01fdab73212e", "fusion_lon": 0.0, "fusion_lat": 0.0, "type": "electric_scooter", "lon": -77.02592416666667}, {"rental_uris": {"android": "https://dc.lft.to/lastmile_qr_scan", "ios": "https://dc.lft.to/lastmile_qr_scan"}, "is_reserved": 0, "is_disabled": 0, "bike_id": "22da09d8f4e0740cc20f1dd0f19f2990", "lat": 38.93170766666667, "name": "22da09d8f4e0740cc20f1dd0f19f2990", "fusion_lon": 0.0, "fusion_lat": 0.0, "type": "electric_scooter", "lon": -77.02853833333333}, {"rental_uris": {"android": "https://dc.lft.to/lastmile_qr_scan", "ios": "https://dc.lft.to/lastmile_qr_scan"}, "is_reserved": 0, "is_disabled": 0, "bike_id": "894a7e5cc4824cf54718245181f2a473", "lat": 38.927087666666665, "name": "894a7e5cc4824cf54718245181f2a473", "fusion_lon": 0.0, "fusion_lat": 0.0, "type": "electric_scooter", "lon": -77.02410633333334}, {"rental_uris": {"android": "https://dc.lft.to/lastmile_qr_scan", "ios": "https://dc.lft.to/lastmile_qr_scan"}, "is_reserved": 0, "is_disabled": 0, "bike_id": "f7a6f24648cc28657892f20f15e1bff2", "lat": 38.8922265, "name": "f7a6f24648cc28657892f20f15e1bff2", "fusion_lon": 0.0, "fusion_lat": 0.0, "type": "electric_scooter", "lon": -77.02360866666666}, {"rental_uris": {"android": "https://dc.lft.to/lastmile_qr_scan", "ios": "https://dc.lft.to/lastmile_qr_scan"}, "is_reserved": 0, "is_disabled": 0, "bike_id": "f566635d2c60e1d63192b9e17358db74", "lat": 38.91334833333333, "name": "f566635d2c60e1d63192b9e17358db74", "fusion_lon": 0.0, "fusion_lat": 0.0, "type": "electric_scooter", "lon": -77.03628666666667}, {"rental_uris": {"android": "https://dc.lft.to/lastmile_qr_scan", "ios": "https://dc.lft.to/lastmile_qr_scan"}, "is_reserved": 0, "is_disabled": 0, "bike_id": "fb8459f615d70e782b62d1adc5beced7", "lat": 38.8461515, "name": "fb8459f615d70e782b62d1adc5beced7", "fusion_lon": 0.0, "fusion_lat": 0.0, "type": "electric_bike", "lon": -76.96913216666667}, {"rental_uris": {"android": "https://dc.lft.to/lastmile_qr_scan", "ios": "https://dc.lft.to/lastmile_qr_scan"}, "is_reserved": 0, "is_disabled": 0, "bike_id": "3ce944bad1ae02b4520bc6ce5da691d8", "lat": 38.902205, "name": "3ce944bad1ae02b4520bc6ce5da691d8", "fusion_lon": 0.0, "fusion_lat": 0.0, "type": "electric_scooter", "lon": -77.05061666666667}, {"rental_uris": {"android": "https://dc.lft.to/lastmile_qr_scan", "ios": "https://dc.lft.to/lastmile_qr_scan"}, "is_reserved": 0, "is_disabled": 0, "bike_id": "a397d8b70053bc7159d000641300d27c", "lat": 38.8736645, "name": "a397d8b70053bc7159d000641300d27c", "fusion_lon": 0.0, "fusion_lat": 0.0, "type": "electric_scooter", "lon": -76.97017816666667}, {"rental_uris": {"android": "https://dc.lft.to/lastmile_qr_scan", "ios": "https://dc.lft.to/lastmile_qr_scan"}, "is_reserved": 0, "is_disabled": 0, "bike_id": "2bd6c27d8b8b1984023e71bafa8fb9c6", "lat": 38.89778033333333, "name": "2bd6c27d8b8b1984023e71bafa8fb9c6", "fusion_lon": 0.0, "fusion_lat": 0.0, "type": "electric_scooter", "lon": -77.05140233333333}, {"rental_uris": {"android": "https://dc.lft.to/lastmile_qr_scan", "ios": "https://dc.lft.to/lastmile_qr_scan"}, "is_reserved": 0, "is_disabled": 0, "bike_id": "c213cba2d3e8b639754fccf4f5b2afee", "lat": 38.956304833333334, "name": "c213cba2d3e8b639754fccf4f5b2afee", "fusion_lon": 0.0, "fusion_lat": 0.0, "type": "electric_scooter", "lon": -77.03292766666667}, {"rental_uris": {"android": "https://dc.lft.to/lastmile_qr_scan", "ios": "https://dc.lft.to/lastmile_qr_scan"}, "is_reserved": 0, "is_disabled": 0, "bike_id": "b962b28658335f9e5d9c277a9c93db45", "lat": 38.905956, "name": "b962b28658335f9e5d9c277a9c93db45", "fusion_lon": 0.0, "fusion_lat": 0.0, "type": "electric_scooter", "lon": -77.041713}, {"rental_uris": {"android": "https://dc.lft.to/lastmile_qr_scan", "ios": "https://dc.lft.to/lastmile_qr_scan"}, "is_reserved": 0, "is_disabled": 0, "bike_id": "db732aa66693e3011e0ed99771ae5891", "lat": 38.89284083333333, "name": "db732aa66693e3011e0ed99771ae5891", "fusion_lon": 0.0, "fusion_lat": 0.0, "type": "electric_scooter", "lon": -77.05041333333334}, {"rental_uris": {"android": "https://dc.lft.to/lastmile_qr_scan", "ios": "https://dc.lft.to/lastmile_qr_scan"}, "is_reserved": 0, "is_disabled": 0, "bike_id": "e71c50ba618dc9dfc3d6c5f447e4d1c6", "lat": 38.892219, "name": "e71c50ba618dc9dfc3d6c5f447e4d1c6", "fusion_lon": 0.0, "fusion_lat": 0.0, "type": "electric_scooter", "lon": -77.027693}, {"rental_uris": {"android": "https://dc.lft.to/lastmile_qr_scan", "ios": "https://dc.lft.to/lastmile_qr_scan"}, "is_reserved": 0, "is_disabled": 0, "bike_id": "bd8d5dd41ef121f715ca0c8723b82631", "lat": 38.9005475, "name": "bd8d5dd41ef121f715ca0c8723b82631", "fusion_lon": 0.0, "fusion_lat": 0.0, "type": "electric_scooter", "lon": -77.04334266666666}, {"rental_uris": {"android": "https://dc.lft.to/lastmile_qr_scan", "ios": "https://dc.lft.to/lastmile_qr_scan"}, "is_reserved": 0, "is_disabled": 0, "bike_id": "2c7800c9c735e8acf5aa81296a955fd1", "lat": 38.90386483333333, "name": "2c7800c9c735e8acf5aa81296a955fd1", "fusion_lon": 0.0, "fusion_lat": 0.0, "type": "electric_scooter", "lon": -77.04505216666666}, {"rental_uris": {"android": "https://dc.lft.to/lastmile_qr_scan", "ios": "https://dc.lft.to/lastmile_qr_scan"}, "is_reserved": 0, "is_disabled": 0, "bike_id": "c101ca38681ae55b975ed48ed2a545ee", "lat": 38.896425666666666, "name": "c101ca38681ae55b975ed48ed2a545ee", "fusion_lon": 0.0, "fusion_lat": 0.0, "type": "electric_scooter", "lon": -76.99952016666667}, {"rental_uris": {"android": "https://dc.lft.to/lastmile_qr_scan", "ios": "https://dc.lft.to/lastmile_qr_scan"}, "is_reserved": 0, "is_disabled": 0, "bike_id": "4bfaa355b5d295753d2bbf9bee2bf082", "lat": 38.936365, "name": "4bfaa355b5d295753d2bbf9bee2bf082", "fusion_lon": 0.0, "fusion_lat": 0.0, "type": "electric_scooter", "lon": -77.0326725}, {"rental_uris": {"android": "https://dc.lft.to/lastmile_qr_scan", "ios": "https://dc.lft.to/lastmile_qr_scan"}, "is_reserved": 0, "is_disabled": 0, "bike_id": "cf526c133498545afc61825afc4db943", "lat": 38.92621366666667, "name": "cf526c133498545afc61825afc4db943", "fusion_lon": 0.0, "fusion_lat": 0.0, "type": "electric_scooter", "lon": -77.04318466666666}, {"rental_uris": {"android": "https://dc.lft.to/lastmile_qr_scan", "ios": "https://dc.lft.to/lastmile_qr_scan"}, "is_reserved": 0, "is_disabled": 0, "bike_id": "2ad8ef4475b5fabe3dae4f8bae6673bd", "lat": 38.92843383333334, "name": "2ad8ef4475b5fabe3dae4f8bae6673bd", "fusion_lon": 0.0, "fusion_lat": 0.0, "type": "electric_scooter", "lon": -77.0326285}, {"rental_uris": {"android": "https://dc.lft.to/lastmile_qr_scan", "ios": "https://dc.lft.to/lastmile_qr_scan"}, "is_reserved": 0, "is_disabled": 0, "bike_id": "2270e577ea2ac1d390f183642e08d4de", "lat": 38.912661166666666, "name": "2270e577ea2ac1d390f183642e08d4de", "fusion_lon": 0.0, "fusion_lat": 0.0, "type": "electric_scooter", "lon": -77.03145766666667}, {"rental_uris": {"android": "https://dc.lft.to/lastmile_qr_scan", "ios": "https://dc.lft.to/lastmile_qr_scan"}, "is_reserved": 0, "is_disabled": 0, "bike_id": "82f17c776ce540ff036c72a2dd173dca", "lat": 38.91709783333334, "name": "82f17c776ce540ff036c72a2dd173dca", "fusion_lon": 0.0, "fusion_lat": 0.0, "type": "electric_scooter", "lon": -77.04592633333333}, {"rental_uris": {"android": "https://dc.lft.to/lastmile_qr_scan", "ios": "https://dc.lft.to/lastmile_qr_scan"}, "is_reserved": 0, "is_disabled": 0, "bike_id": "83c8d4a3e57b7411eae3633c47d30fa9", "lat": 38.90742566666667, "name": "83c8d4a3e57b7411eae3633c47d30fa9", "fusion_lon": 0.0, "fusion_lat": 0.0, "type": "electric_scooter", "lon": -77.0415605}, {"rental_uris": {"android": "https://dc.lft.to/lastmile_qr_scan", "ios": "https://dc.lft.to/lastmile_qr_scan"}, "is_reserved": 0, "is_disabled": 0, "bike_id": "34e91441808181b895989d29085eb8af", "lat": 38.90347083333333, "name": "34e91441808181b895989d29085eb8af", "fusion_lon": 0.0, "fusion_lat": 0.0, "type": "electric_scooter", "lon": -76.98275116666667}, {"rental_uris": {"android": "https://dc.lft.to/lastmile_qr_scan", "ios": "https://dc.lft.to/lastmile_qr_scan"}, "is_reserved": 0, "is_disabled": 0, "bike_id": "3d58ca0d1d8d7b14204f7051a8be7447", "lat": 38.90045166666667, "name": "3d58ca0d1d8d7b14204f7051a8be7447", "fusion_lon": 0.0, "fusion_lat": 0.0, "type": "electric_scooter", "lon": -76.98838566666667}, {"rental_uris": {"android": "https://dc.lft.to/lastmile_qr_scan", "ios": "https://dc.lft.to/lastmile_qr_scan"}, "is_reserved": 0, "is_disabled": 0, "bike_id": "8541ae38799627aa9a9d9b16df2c6359", "lat": 38.911292333333336, "name": "8541ae38799627aa9a9d9b16df2c6359", "fusion_lon": 0.0, "fusion_lat": 0.0, "type": "electric_scooter", "lon": -77.018857}, {"rental_uris": {"android": "https://dc.lft.to/lastmile_qr_scan", "ios": "https://dc.lft.to/lastmile_qr_scan"}, "is_reserved": 0, "is_disabled": 0, "bike_id": "4ee81c69ba5b62d49024ecc7a89bf797", "lat": 38.8922735, "name": "4ee81c69ba5b62d49024ecc7a89bf797", "fusion_lon": 0.0, "fusion_lat": 0.0, "type": "electric_scooter", "lon": -77.01979466666667}, {"rental_uris": {"android": "https://dc.lft.to/lastmile_qr_scan", "ios": "https://dc.lft.to/lastmile_qr_scan"}, "is_reserved": 0, "is_disabled": 0, "bike_id": "950a5932179b6af7bf02be1bbace0989", "lat": 38.92882133333333, "name": "950a5932179b6af7bf02be1bbace0989", "fusion_lon": 0.0, "fusion_lat": 0.0, "type": "electric_scooter", "lon": -77.037343}, {"rental_uris": {"android": "https://dc.lft.to/lastmile_qr_scan", "ios": "https://dc.lft.to/lastmile_qr_scan"}, "is_reserved": 0, "is_disabled": 0, "bike_id": "7afd824204e81031615bfe583ded91e4", "lat": 38.9163945, "name": "7afd824204e81031615bfe583ded91e4", "fusion_lon": 0.0, "fusion_lat": 0.0, "type": "electric_scooter", "lon": -77.02554433333333}, {"rental_uris": {"android": "https://dc.lft.to/lastmile_qr_scan", "ios": "https://dc.lft.to/lastmile_qr_scan"}, "is_reserved": 0, "is_disabled": 0, "bike_id": "b2d08956b9a2ef8c62df0f3ed5b215f8", "lat": 38.94267766666667, "name": "b2d08956b9a2ef8c62df0f3ed5b215f8", "fusion_lon": 0.0, "fusion_lat": 0.0, "type": "electric_bike", "lon": -77.0284615}, {"rental_uris": {"android": "https://dc.lft.to/lastmile_qr_scan", "ios": "https://dc.lft.to/lastmile_qr_scan"}, "is_reserved": 0, "is_disabled": 0, "bike_id": "22468c68910b4fc9e0262349c18a9757", "lat": 38.90144466666667, "name": "22468c68910b4fc9e0262349c18a9757", "fusion_lon": 0.0, "fusion_lat": 0.0, "type": "electric_scooter", "lon": -77.04403533333333}, {"rental_uris": {"android": "https://dc.lft.to/lastmile_qr_scan", "ios": "https://dc.lft.to/lastmile_qr_scan"}, "is_reserved": 0, "is_disabled": 0, "bike_id": "3e646a1654a727c26b92b6fa72e0716c", "lat": 38.9191325, "name": "3e646a1654a727c26b92b6fa72e0716c", "fusion_lon": 0.0, "fusion_lat": 0.0, "type": "electric_scooter", "lon": -77.031784}, {"rental_uris": {"android": "https://dc.lft.to/lastmile_qr_scan", "ios": "https://dc.lft.to/lastmile_qr_scan"}, "is_reserved": 0, "is_disabled": 0, "bike_id": "dace109e7b51241e7a1c0e2672e8b8ca", "lat": 38.921562333333334, "name": "dace109e7b51241e7a1c0e2672e8b8ca", "fusion_lon": 0.0, "fusion_lat": 0.0, "type": "electric_scooter", "lon": -77.03388616666666}, {"rental_uris": {"android": "https://dc.lft.to/lastmile_qr_scan", "ios": "https://dc.lft.to/lastmile_qr_scan"}, "is_reserved": 0, "is_disabled": 0, "bike_id": "3f5b1fe13ae4f867c2ff2853aad6fd04", "lat": 38.892271, "name": "3f5b1fe13ae4f867c2ff2853aad6fd04", "fusion_lon": 0.0, "fusion_lat": 0.0, "type": "electric_scooter", "lon": -77.04334566666667}, {"rental_uris": {"android": "https://dc.lft.to/lastmile_qr_scan", "ios": "https://dc.lft.to/lastmile_qr_scan"}, "is_reserved": 0, "is_disabled": 0, "bike_id": "b00150187e48aa0833ebfadbea48fb71", "lat": 38.923696666666665, "name": "b00150187e48aa0833ebfadbea48fb71", "fusion_lon": 0.0, "fusion_lat": 0.0, "type": "electric_scooter", "lon": -77.05032416666667}, {"rental_uris": {"android": "https://dc.lft.to/lastmile_qr_scan", "ios": "https://dc.lft.to/lastmile_qr_scan"}, "is_reserved": 0, "is_disabled": 0, "bike_id": "45040c6dd8b4366af7d78e722798b490", "lat": 38.86693183333333, "name": "45040c6dd8b4366af7d78e722798b490", "fusion_lon": 0.0, "fusion_lat": 0.0, "type": "electric_scooter", "lon": -76.98530866666667}, {"rental_uris": {"android": "https://dc.lft.to/lastmile_qr_scan", "ios": "https://dc.lft.to/lastmile_qr_scan"}, "is_reserved": 0, "is_disabled": 0, "bike_id": "c11a9c2b2cd9293a4ce14a56c9ad1250", "lat": 38.993499, "name": "c11a9c2b2cd9293a4ce14a56c9ad1250", "fusion_lon": 0.0, "fusion_lat": 0.0, "type": "electric_bike", "lon": -77.11576066666667}, {"rental_uris": {"android": "https://dc.lft.to/lastmile_qr_scan", "ios": "https://dc.lft.to/lastmile_qr_scan"}, "is_reserved": 0, "is_disabled": 0, "bike_id": "ca6bfd99c818353be3f5381015fcacdf", "lat": 38.89352216666666, "name": "ca6bfd99c818353be3f5381015fcacdf", "fusion_lon": 0.0, "fusion_lat": 0.0, "type": "electric_scooter", "lon": -77.0221685}, {"rental_uris": {"android": "https://dc.lft.to/lastmile_qr_scan", "ios": "https://dc.lft.to/lastmile_qr_scan"}, "is_reserved": 0, "is_disabled": 0, "bike_id": "415277b351ccdfeb8365896ccd3e0032", "lat": 38.90648783333334, "name": "415277b351ccdfeb8365896ccd3e0032", "fusion_lon": 0.0, "fusion_lat": 0.0, "type": "electric_scooter", "lon": -76.9837605}, {"rental_uris": {"android": "https://dc.lft.to/lastmile_qr_scan", "ios": "https://dc.lft.to/lastmile_qr_scan"}, "is_reserved": 0, "is_disabled": 0, "bike_id": "133a8bc0b92b09269bed00161f603890", "lat": 38.9056395, "name": "133a8bc0b92b09269bed00161f603890", "fusion_lon": 0.0, "fusion_lat": 0.0, "type": "electric_scooter", "lon": -77.0345845}, {"rental_uris": {"android": "https://dc.lft.to/lastmile_qr_scan", "ios": "https://dc.lft.to/lastmile_qr_scan"}, "is_reserved": 0, "is_disabled": 0, "bike_id": "ddc9261994a54db7e1bfe19aa254cd3c", "lat": 38.9148585, "name": "ddc9261994a54db7e1bfe19aa254cd3c", "fusion_lon": 0.0, "fusion_lat": 0.0, "type": "electric_scooter", "lon": -77.03725216666666}, {"rental_uris": {"android": "https://dc.lft.to/lastmile_qr_scan", "ios": "https://dc.lft.to/lastmile_qr_scan"}, "is_reserved": 0, "is_disabled": 0, "bike_id": "2e4bca08122af699a4a4c9d6454fd474", "lat": 38.91673483333334, "name": "2e4bca08122af699a4a4c9d6454fd474", "fusion_lon": 0.0, "fusion_lat": 0.0, "type": "electric_scooter", "lon": -77.02953416666666}, {"rental_uris": {"android": "https://dc.lft.to/lastmile_qr_scan", "ios": "https://dc.lft.to/lastmile_qr_scan"}, "is_reserved": 0, "is_disabled": 0, "bike_id": "e3bae49add475658ff91fb32c5babc2c", "lat": 38.89524216666667, "name": "e3bae49add475658ff91fb32c5babc2c", "fusion_lon": 0.0, "fusion_lat": 0.0, "type": "electric_scooter", "lon": -77.02209116666667}, {"rental_uris": {"android": "https://dc.lft.to/lastmile_qr_scan", "ios": "https://dc.lft.to/lastmile_qr_scan"}, "is_reserved": 0, "is_disabled": 0, "bike_id": "355046916aec00836a27ced3bbc6eb1b", "lat": 38.894053666666665, "name": "355046916aec00836a27ced3bbc6eb1b", "fusion_lon": 0.0, "fusion_lat": 0.0, "type": "electric_scooter", "lon": -77.04423316666667}, {"rental_uris": {"android": "https://dc.lft.to/lastmile_qr_scan", "ios": "https://dc.lft.to/lastmile_qr_scan"}, "is_reserved": 0, "is_disabled": 0, "bike_id": "4ae6a70889ca6140cb74c537b5f3dd5e", "lat": 38.894903, "name": "4ae6a70889ca6140cb74c537b5f3dd5e", "fusion_lon": 0.0, "fusion_lat": 0.0, "type": "electric_scooter", "lon": -77.02188433333333}, {"rental_uris": {"android": "https://dc.lft.to/lastmile_qr_scan", "ios": "https://dc.lft.to/lastmile_qr_scan"}, "is_reserved": 0, "is_disabled": 0, "bike_id": "0396e78f2b5312bf28ce7d623fc8f15c", "lat": 38.906951166666666, "name": "0396e78f2b5312bf28ce7d623fc8f15c", "fusion_lon": 0.0, "fusion_lat": 0.0, "type": "electric_scooter", "lon": -77.03593766666667}, {"rental_uris": {"android": "https://dc.lft.to/lastmile_qr_scan", "ios": "https://dc.lft.to/lastmile_qr_scan"}, "is_reserved": 0, "is_disabled": 0, "bike_id": "dbfd5c5903a7025982d295f069da064c", "lat": 38.897381833333334, "name": "dbfd5c5903a7025982d295f069da064c", "fusion_lon": 0.0, "fusion_lat": 0.0, "type": "electric_scooter", "lon": -77.02699633333333}, {"rental_uris": {"android": "https://dc.lft.to/lastmile_qr_scan", "ios": "https://dc.lft.to/lastmile_qr_scan"}, "is_reserved": 0, "is_disabled": 0, "bike_id": "2a6a134aa411c7cc52c6842faf6b2375", "lat": 38.945316166666665, "name": "2a6a134aa411c7cc52c6842faf6b2375", "fusion_lon": 0.0, "fusion_lat": 0.0, "type": "electric_scooter", "lon": -77.01506333333333}, {"rental_uris": {"android": "https://dc.lft.to/lastmile_qr_scan", "ios": "https://dc.lft.to/lastmile_qr_scan"}, "is_reserved": 0, "is_disabled": 0, "bike_id": "a22c569b0bf927e3656ac996228499d6", "lat": 38.905181, "name": "a22c569b0bf927e3656ac996228499d6", "fusion_lon": 0.0, "fusion_lat": 0.0, "type": "electric_scooter", "lon": -77.06380533333333}, {"rental_uris": {"android": "https://dc.lft.to/lastmile_qr_scan", "ios": "https://dc.lft.to/lastmile_qr_scan"}, "is_reserved": 0, "is_disabled": 0, "bike_id": "01d425022a441f6c92b49f4d81792b38", "lat": 38.90374, "name": "01d425022a441f6c92b49f4d81792b38", "fusion_lon": 0.0, "fusion_lat": 0.0, "type": "electric_scooter", "lon": -77.04148883333333}, {"rental_uris": {"android": "https://dc.lft.to/lastmile_qr_scan", "ios": "https://dc.lft.to/lastmile_qr_scan"}, "is_reserved": 0, "is_disabled": 0, "bike_id": "f5bd2a968d354bded8e126b9dfc66997", "lat": 38.898847, "name": "f5bd2a968d354bded8e126b9dfc66997", "fusion_lon": 0.0, "fusion_lat": 0.0, "type": "electric_scooter", "lon": -76.93178766666666}, {"rental_uris": {"android": "https://dc.lft.to/lastmile_qr_scan", "ios": "https://dc.lft.to/lastmile_qr_scan"}, "is_reserved": 0, "is_disabled": 0, "bike_id": "dbf3ae097167c3d23416a8ebc3281491", "lat": 38.92438633333333, "name": "dbf3ae097167c3d23416a8ebc3281491", "fusion_lon": 0.0, "fusion_lat": 0.0, "type": "electric_scooter", "lon": -77.052259}, {"rental_uris": {"android": "https://dc.lft.to/lastmile_qr_scan", "ios": "https://dc.lft.to/lastmile_qr_scan"}, "is_reserved": 0, "is_disabled": 0, "bike_id": "6dbbd427f5f3b4c8eff43bd3d726bb73", "lat": 38.90959133333333, "name": "6dbbd427f5f3b4c8eff43bd3d726bb73", "fusion_lon": 0.0, "fusion_lat": 0.0, "type": "electric_scooter", "lon": -77.03425983333334}, {"rental_uris": {"android": "https://dc.lft.to/lastmile_qr_scan", "ios": "https://dc.lft.to/lastmile_qr_scan"}, "is_reserved": 0, "is_disabled": 0, "bike_id": "77761f1a35868f8e55f4df543b6ef51e", "lat": 38.90992933333333, "name": "77761f1a35868f8e55f4df543b6ef51e", "fusion_lon": 0.0, "fusion_lat": 0.0, "type": "electric_scooter", "lon": -77.009157}, {"rental_uris": {"android": "https://dc.lft.to/lastmile_qr_scan", "ios": "https://dc.lft.to/lastmile_qr_scan"}, "is_reserved": 0, "is_disabled": 0, "bike_id": "8b96f7f73c578ddb604e52e29c8fb3ba", "lat": 38.92545916666667, "name": "8b96f7f73c578ddb604e52e29c8fb3ba", "fusion_lon": 0.0, "fusion_lat": 0.0, "type": "electric_scooter", "lon": -77.05239583333334}, {"rental_uris": {"android": "https://dc.lft.to/lastmile_qr_scan", "ios": "https://dc.lft.to/lastmile_qr_scan"}, "is_reserved": 0, "is_disabled": 0, "bike_id": "c8b27a00e596c6548fcbcb7bf68e5426", "lat": 38.934276, "name": "c8b27a00e596c6548fcbcb7bf68e5426", "fusion_lon": 0.0, "fusion_lat": 0.0, "type": "electric_scooter", "lon": -77.0400165}, {"rental_uris": {"android": "https://dc.lft.to/lastmile_qr_scan", "ios": "https://dc.lft.to/lastmile_qr_scan"}, "is_reserved": 0, "is_disabled": 0, "bike_id": "f1f979b9f5a63621bf13330a81ba14f8", "lat": 38.910384, "name": "f1f979b9f5a63621bf13330a81ba14f8", "fusion_lon": 0.0, "fusion_lat": 0.0, "type": "electric_scooter", "lon": -77.02694416666667}, {"rental_uris": {"android": "https://dc.lft.to/lastmile_qr_scan", "ios": "https://dc.lft.to/lastmile_qr_scan"}, "is_reserved": 0, "is_disabled": 0, "bike_id": "b90f3f64cbe02f02158977d819d786c4", "lat": 38.87232266666667, "name": "b90f3f64cbe02f02158977d819d786c4", "fusion_lon": 0.0, "fusion_lat": 0.0, "type": "electric_scooter", "lon": -77.0177185}, {"rental_uris": {"android": "https://dc.lft.to/lastmile_qr_scan", "ios": "https://dc.lft.to/lastmile_qr_scan"}, "is_reserved": 0, "is_disabled": 0, "bike_id": "38833e91c20a6195ff3a59c44d7c6ffc", "lat": 38.9031755, "name": "38833e91c20a6195ff3a59c44d7c6ffc", "fusion_lon": 0.0, "fusion_lat": 0.0, "type": "electric_scooter", "lon": -77.05037283333333}, {"rental_uris": {"android": "https://dc.lft.to/lastmile_qr_scan", "ios": "https://dc.lft.to/lastmile_qr_scan"}, "is_reserved": 0, "is_disabled": 0, "bike_id": "28af4e0cbaf989a212f0cf9a1ee1aebe", "lat": 38.87731633333333, "name": "28af4e0cbaf989a212f0cf9a1ee1aebe", "fusion_lon": 0.0, "fusion_lat": 0.0, "type": "electric_bike", "lon": -76.98108083333334}, {"rental_uris": {"android": "https://dc.lft.to/lastmile_qr_scan", "ios": "https://dc.lft.to/lastmile_qr_scan"}, "is_reserved": 0, "is_disabled": 0, "bike_id": "6d241ec47cd377141425645e5914995a", "lat": 38.88384216666667, "name": "6d241ec47cd377141425645e5914995a", "fusion_lon": 0.0, "fusion_lat": 0.0, "type": "electric_scooter", "lon": -77.0460945}, {"rental_uris": {"android": "https://dc.lft.to/lastmile_qr_scan", "ios": "https://dc.lft.to/lastmile_qr_scan"}, "is_reserved": 0, "is_disabled": 0, "bike_id": "e9d97142b31630e18897add4784de518", "lat": 38.89888666666667, "name": "e9d97142b31630e18897add4784de518", "fusion_lon": 0.0, "fusion_lat": 0.0, "type": "electric_scooter", "lon": -77.03281766666667}, {"rental_uris": {"android": "https://dc.lft.to/lastmile_qr_scan", "ios": "https://dc.lft.to/lastmile_qr_scan"}, "is_reserved": 0, "is_disabled": 0, "bike_id": "eba7e68adde2a9a61d22f6e138adc6d3", "lat": 38.873791, "name": "eba7e68adde2a9a61d22f6e138adc6d3", "fusion_lon": 0.0, "fusion_lat": 0.0, "type": "electric_scooter", "lon": -77.00113}, {"rental_uris": {"android": "https://dc.lft.to/lastmile_qr_scan", "ios": "https://dc.lft.to/lastmile_qr_scan"}, "is_reserved": 0, "is_disabled": 0, "bike_id": "90e4a6b7cc48858d66345a2d80d9f68b", "lat": 38.8718645, "name": "90e4a6b7cc48858d66345a2d80d9f68b", "fusion_lon": 0.0, "fusion_lat": 0.0, "type": "electric_scooter", "lon": -77.00598516666666}, {"rental_uris": {"android": "https://dc.lft.to/lastmile_qr_scan", "ios": "https://dc.lft.to/lastmile_qr_scan"}, "is_reserved": 0, "is_disabled": 0, "bike_id": "d28b645d14a9308ee1a6656fc1956a35", "lat": 38.906387333333335, "name": "d28b645d14a9308ee1a6656fc1956a35", "fusion_lon": 0.0, "fusion_lat": 0.0, "type": "electric_scooter", "lon": -77.03445616666667}, {"rental_uris": {"android": "https://dc.lft.to/lastmile_qr_scan", "ios": "https://dc.lft.to/lastmile_qr_scan"}, "is_reserved": 0, "is_disabled": 0, "bike_id": "f14551b8a6e82a26d4da04954781e17e", "lat": 38.907774833333335, "name": "f14551b8a6e82a26d4da04954781e17e", "fusion_lon": 0.0, "fusion_lat": 0.0, "type": "electric_scooter", "lon": -77.02962133333334}, {"rental_uris": {"android": "https://dc.lft.to/lastmile_qr_scan", "ios": "https://dc.lft.to/lastmile_qr_scan"}, "is_reserved": 0, "is_disabled": 0, "bike_id": "d5194b6be86e2d5e2c08404073c1a7b2", "lat": 38.875332, "name": "d5194b6be86e2d5e2c08404073c1a7b2", "fusion_lon": 0.0, "fusion_lat": 0.0, "type": "electric_scooter", "lon": -77.0050735}, {"rental_uris": {"android": "https://dc.lft.to/lastmile_qr_scan", "ios": "https://dc.lft.to/lastmile_qr_scan"}, "is_reserved": 0, "is_disabled": 0, "bike_id": "27aec35f4b168eae643109d050d91583", "lat": 38.9050945, "name": "27aec35f4b168eae643109d050d91583", "fusion_lon": 0.0, "fusion_lat": 0.0, "type": "electric_scooter", "lon": -77.06887883333333}, {"rental_uris": {"android": "https://dc.lft.to/lastmile_qr_scan", "ios": "https://dc.lft.to/lastmile_qr_scan"}, "is_reserved": 0, "is_disabled": 0, "bike_id": "a0babcb770c1b00c258b547fb31e8250", "lat": 38.89381616666667, "name": "a0babcb770c1b00c258b547fb31e8250", "fusion_lon": 0.0, "fusion_lat": 0.0, "type": "electric_scooter", "lon": -77.05023616666666}, {"rental_uris": {"android": "https://dc.lft.to/lastmile_qr_scan", "ios": "https://dc.lft.to/lastmile_qr_scan"}, "is_reserved": 0, "is_disabled": 0, "bike_id": "ff4b29c448e645f51890186893aa94ba", "lat": 38.956845, "name": "ff4b29c448e645f51890186893aa94ba", "fusion_lon": 0.0, "fusion_lat": 0.0, "type": "electric_scooter", "lon": -77.02399}, {"rental_uris": {"android": "https://dc.lft.to/lastmile_qr_scan", "ios": "https://dc.lft.to/lastmile_qr_scan"}, "is_reserved": 0, "is_disabled": 0, "bike_id": "2c01ad0283bc8bc5bc695615420646c4", "lat": 38.866612333333336, "name": "2c01ad0283bc8bc5bc695615420646c4", "fusion_lon": 0.0, "fusion_lat": 0.0, "type": "electric_scooter", "lon": -76.988797}, {"rental_uris": {"android": "https://dc.lft.to/lastmile_qr_scan", "ios": "https://dc.lft.to/lastmile_qr_scan"}, "is_reserved": 0, "is_disabled": 0, "bike_id": "4d15d91b77f66d9c1e3d97d119cfcd7b", "lat": 38.892239000000004, "name": "4d15d91b77f66d9c1e3d97d119cfcd7b", "fusion_lon": 0.0, "fusion_lat": 0.0, "type": "electric_scooter", "lon": -77.04689016666667}, {"rental_uris": {"android": "https://dc.lft.to/lastmile_qr_scan", "ios": "https://dc.lft.to/lastmile_qr_scan"}, "is_reserved": 0, "is_disabled": 0, "bike_id": "56e2f77b02ec467cc3ff793e2dde90ce", "lat": 38.91686033333333, "name": "56e2f77b02ec467cc3ff793e2dde90ce", "fusion_lon": 0.0, "fusion_lat": 0.0, "type": "electric_scooter", "lon": -77.02291466666667}, {"rental_uris": {"android": "https://dc.lft.to/lastmile_qr_scan", "ios": "https://dc.lft.to/lastmile_qr_scan"}, "is_reserved": 0, "is_disabled": 0, "bike_id": "3df575cf276ed6e0265b66b857943342", "lat": 38.89221216666667, "name": "3df575cf276ed6e0265b66b857943342", "fusion_lon": 0.0, "fusion_lat": 0.0, "type": "electric_scooter", "lon": -77.04471116666667}, {"rental_uris": {"android": "https://dc.lft.to/lastmile_qr_scan", "ios": "https://dc.lft.to/lastmile_qr_scan"}, "is_reserved": 0, "is_disabled": 0, "bike_id": "065b32023f09fc2a8b5258ec07a2a65e", "lat": 38.89967016666667, "name": "065b32023f09fc2a8b5258ec07a2a65e", "fusion_lon": 0.0, "fusion_lat": 0.0, "type": "electric_scooter", "lon": -77.04511666666667}, {"rental_uris": {"android": "https://dc.lft.to/lastmile_qr_scan", "ios": "https://dc.lft.to/lastmile_qr_scan"}, "is_reserved": 0, "is_disabled": 0, "bike_id": "384c3bfe3062f4b06e7fc26cab661e8c", "lat": 38.87276033333333, "name": "384c3bfe3062f4b06e7fc26cab661e8c", "fusion_lon": 0.0, "fusion_lat": 0.0, "type": "electric_bike", "lon": -77.233309}, {"rental_uris": {"android": "https://dc.lft.to/lastmile_qr_scan", "ios": "https://dc.lft.to/lastmile_qr_scan"}, "is_reserved": 0, "is_disabled": 0, "bike_id": "1d56d446428fcc970fca653928e4cf7e", "lat": 38.89228966666667, "name": "1d56d446428fcc970fca653928e4cf7e", "fusion_lon": 0.0, "fusion_lat": 0.0, "type": "electric_scooter", "lon": -77.05006033333333}, {"rental_uris": {"android": "https://dc.lft.to/lastmile_qr_scan", "ios": "https://dc.lft.to/lastmile_qr_scan"}, "is_reserved": 0, "is_disabled": 0, "bike_id": "2485ea1acb3af79c390355db51968c9b", "lat": 38.92897133333334, "name": "2485ea1acb3af79c390355db51968c9b", "fusion_lon": 0.0, "fusion_lat": 0.0, "type": "electric_scooter", "lon": -77.01650683333334}, {"rental_uris": {"android": "https://dc.lft.to/lastmile_qr_scan", "ios": "https://dc.lft.to/lastmile_qr_scan"}, "is_reserved": 0, "is_disabled": 0, "bike_id": "7f52a396612061d4a6991601e07d6e08", "lat": 38.8971945, "name": "7f52a396612061d4a6991601e07d6e08", "fusion_lon": 0.0, "fusion_lat": 0.0, "type": "electric_scooter", "lon": -77.02137233333333}, {"rental_uris": {"android": "https://dc.lft.to/lastmile_qr_scan", "ios": "https://dc.lft.to/lastmile_qr_scan"}, "is_reserved": 0, "is_disabled": 0, "bike_id": "defd2fd908aff159511c51862b88536a", "lat": 38.893639666666665, "name": "defd2fd908aff159511c51862b88536a", "fusion_lon": 0.0, "fusion_lat": 0.0, "type": "electric_scooter", "lon": -76.94817716666667}, {"rental_uris": {"android": "https://dc.lft.to/lastmile_qr_scan", "ios": "https://dc.lft.to/lastmile_qr_scan"}, "is_reserved": 0, "is_disabled": 0, "bike_id": "73653504d3254eea91151a1f732f394a", "lat": 38.8922605, "name": "73653504d3254eea91151a1f732f394a", "fusion_lon": 0.0, "fusion_lat": 0.0, "type": "electric_scooter", "lon": -77.04899316666666}, {"rental_uris": {"android": "https://dc.lft.to/lastmile_qr_scan", "ios": "https://dc.lft.to/lastmile_qr_scan"}, "is_reserved": 0, "is_disabled": 0, "bike_id": "c4360323d39166036aa24b442524bcc2", "lat": 38.867000166666664, "name": "c4360323d39166036aa24b442524bcc2", "fusion_lon": 0.0, "fusion_lat": 0.0, "type": "electric_bike", "lon": -76.9894445}, {"rental_uris": {"android": "https://dc.lft.to/lastmile_qr_scan", "ios": "https://dc.lft.to/lastmile_qr_scan"}, "is_reserved": 0, "is_disabled": 0, "bike_id": "95a726123ed55f47cd013d51be21bcc6", "lat": 38.90233166666667, "name": "95a726123ed55f47cd013d51be21bcc6", "fusion_lon": 0.0, "fusion_lat": 0.0, "type": "electric_scooter", "lon": -77.04518783333333}, {"rental_uris": {"android": "https://dc.lft.to/lastmile_qr_scan", "ios": "https://dc.lft.to/lastmile_qr_scan"}, "is_reserved": 0, "is_disabled": 0, "bike_id": "b238bcfdf1cdbad9741b3d9e9eac71b6", "lat": 38.8455025, "name": "b238bcfdf1cdbad9741b3d9e9eac71b6", "fusion_lon": 0.0, "fusion_lat": 0.0, "type": "electric_scooter", "lon": -76.99696683333333}, {"rental_uris": {"android": "https://dc.lft.to/lastmile_qr_scan", "ios": "https://dc.lft.to/lastmile_qr_scan"}, "is_reserved": 0, "is_disabled": 0, "bike_id": "461b4b84ee43d20d24f2a257bb5e6d72", "lat": 38.920488666666664, "name": "461b4b84ee43d20d24f2a257bb5e6d72", "fusion_lon": 0.0, "fusion_lat": 0.0, "type": "electric_scooter", "lon": -77.01667916666666}, {"rental_uris": {"android": "https://dc.lft.to/lastmile_qr_scan", "ios": "https://dc.lft.to/lastmile_qr_scan"}, "is_reserved": 0, "is_disabled": 0, "bike_id": "4d2f3e63feb6750011998112a1b3f60b", "lat": 38.917107333333334, "name": "4d2f3e63feb6750011998112a1b3f60b", "fusion_lon": 0.0, "fusion_lat": 0.0, "type": "electric_scooter", "lon": -77.02400816666666}, {"rental_uris": {"android": "https://dc.lft.to/lastmile_qr_scan", "ios": "https://dc.lft.to/lastmile_qr_scan"}, "is_reserved": 0, "is_disabled": 0, "bike_id": "7713f38580736088f81cbbfac455324e", "lat": 38.9086235, "name": "7713f38580736088f81cbbfac455324e", "fusion_lon": 0.0, "fusion_lat": 0.0, "type": "electric_scooter", "lon": -76.99837266666667}, {"rental_uris": {"android": "https://dc.lft.to/lastmile_qr_scan", "ios": "https://dc.lft.to/lastmile_qr_scan"}, "is_reserved": 0, "is_disabled": 0, "bike_id": "86c0337e2f19b594402d86613487c618", "lat": 38.897864166666665, "name": "86c0337e2f19b594402d86613487c618", "fusion_lon": 0.0, "fusion_lat": 0.0, "type": "electric_scooter", "lon": -77.05653083333333}, {"rental_uris": {"android": "https://dc.lft.to/lastmile_qr_scan", "ios": "https://dc.lft.to/lastmile_qr_scan"}, "is_reserved": 0, "is_disabled": 0, "bike_id": "a2ad44908420bd7b8e7dae3819ab167c", "lat": 38.9051245, "name": "a2ad44908420bd7b8e7dae3819ab167c", "fusion_lon": 0.0, "fusion_lat": 0.0, "type": "electric_scooter", "lon": -77.06892966666666}, {"rental_uris": {"android": "https://dc.lft.to/lastmile_qr_scan", "ios": "https://dc.lft.to/lastmile_qr_scan"}, "is_reserved": 0, "is_disabled": 0, "bike_id": "b40f4e829049c26fd2b6fbbab9b35e42", "lat": 38.91916883333333, "name": "b40f4e829049c26fd2b6fbbab9b35e42", "fusion_lon": 0.0, "fusion_lat": 0.0, "type": "electric_scooter", "lon": -77.03336916666666}, {"rental_uris": {"android": "https://dc.lft.to/lastmile_qr_scan", "ios": "https://dc.lft.to/lastmile_qr_scan"}, "is_reserved": 0, "is_disabled": 0, "bike_id": "5f3c1ae4d7c1e9ea9f2b5f8de49d0c4f", "lat": 38.910425833333335, "name": "5f3c1ae4d7c1e9ea9f2b5f8de49d0c4f", "fusion_lon": 0.0, "fusion_lat": 0.0, "type": "electric_scooter", "lon": -77.031824}, {"rental_uris": {"android": "https://dc.lft.to/lastmile_qr_scan", "ios": "https://dc.lft.to/lastmile_qr_scan"}, "is_reserved": 0, "is_disabled": 0, "bike_id": "9416875e1a0b43322d1c6685b87037ff", "lat": 38.890466333333336, "name": "9416875e1a0b43322d1c6685b87037ff", "fusion_lon": 0.0, "fusion_lat": 0.0, "type": "electric_scooter", "lon": -76.9375505}, {"rental_uris": {"android": "https://dc.lft.to/lastmile_qr_scan", "ios": "https://dc.lft.to/lastmile_qr_scan"}, "is_reserved": 0, "is_disabled": 0, "bike_id": "5fc711c2129d44c18e9b3f29c3dd55c3", "lat": 38.910574, "name": "5fc711c2129d44c18e9b3f29c3dd55c3", "fusion_lon": 0.0, "fusion_lat": 0.0, "type": "electric_scooter", "lon": -77.03858633333333}, {"rental_uris": {"android": "https://dc.lft.to/lastmile_qr_scan", "ios": "https://dc.lft.to/lastmile_qr_scan"}, "is_reserved": 0, "is_disabled": 0, "bike_id": "0111cd217d8e012201beceef5b2a465f", "lat": 38.880513, "name": "0111cd217d8e012201beceef5b2a465f", "fusion_lon": 0.0, "fusion_lat": 0.0, "type": "electric_scooter", "lon": -77.00521083333334}, {"rental_uris": {"android": "https://dc.lft.to/lastmile_qr_scan", "ios": "https://dc.lft.to/lastmile_qr_scan"}, "is_reserved": 0, "is_disabled": 0, "bike_id": "4d78b1ba652b24a223a832293008ea49", "lat": 38.87460733333333, "name": "4d78b1ba652b24a223a832293008ea49", "fusion_lon": 0.0, "fusion_lat": 0.0, "type": "electric_scooter", "lon": -77.0185685}, {"rental_uris": {"android": "https://dc.lft.to/lastmile_qr_scan", "ios": "https://dc.lft.to/lastmile_qr_scan"}, "is_reserved": 0, "is_disabled": 0, "bike_id": "3754d23d86e71ba8ced69cc0d07d903f", "lat": 38.952842833333335, "name": "3754d23d86e71ba8ced69cc0d07d903f", "fusion_lon": 0.0, "fusion_lat": 0.0, "type": "electric_scooter", "lon": -77.06983666666666}, {"rental_uris": {"android": "https://dc.lft.to/lastmile_qr_scan", "ios": "https://dc.lft.to/lastmile_qr_scan"}, "is_reserved": 0, "is_disabled": 0, "bike_id": "3c6ebc312aa4674abfaafe84dfb09d88", "lat": 38.91800033333333, "name": "3c6ebc312aa4674abfaafe84dfb09d88", "fusion_lon": 0.0, "fusion_lat": 0.0, "type": "electric_scooter", "lon": -77.0401995}, {"rental_uris": {"android": "https://dc.lft.to/lastmile_qr_scan", "ios": "https://dc.lft.to/lastmile_qr_scan"}, "is_reserved": 0, "is_disabled": 0, "bike_id": "87e1bfaa84d647d92b5f423f8e69158e", "lat": 38.9001015, "name": "87e1bfaa84d647d92b5f423f8e69158e", "fusion_lon": 0.0, "fusion_lat": 0.0, "type": "electric_scooter", "lon": -77.03238433333334}, {"rental_uris": {"android": "https://dc.lft.to/lastmile_qr_scan", "ios": "https://dc.lft.to/lastmile_qr_scan"}, "is_reserved": 0, "is_disabled": 0, "bike_id": "bd05b9800b4d6ae8e5c63451cc2d32ff", "lat": 38.903230666666666, "name": "bd05b9800b4d6ae8e5c63451cc2d32ff", "fusion_lon": 0.0, "fusion_lat": 0.0, "type": "electric_scooter", "lon": -76.99108216666667}, {"rental_uris": {"android": "https://dc.lft.to/lastmile_qr_scan", "ios": "https://dc.lft.to/lastmile_qr_scan"}, "is_reserved": 0, "is_disabled": 0, "bike_id": "0df02b0439edde10d2df673702d36fb8", "lat": 38.92391216666667, "name": "0df02b0439edde10d2df673702d36fb8", "fusion_lon": 0.0, "fusion_lat": 0.0, "type": "electric_scooter", "lon": -77.02744516666667}, {"rental_uris": {"android": "https://dc.lft.to/lastmile_qr_scan", "ios": "https://dc.lft.to/lastmile_qr_scan"}, "is_reserved": 0, "is_disabled": 0, "bike_id": "a7518805e7373c64b476fac1a67e41e4", "lat": 38.912708333333335, "name": "a7518805e7373c64b476fac1a67e41e4", "fusion_lon": 0.0, "fusion_lat": 0.0, "type": "electric_scooter", "lon": -77.02213016666667}, {"rental_uris": {"android": "https://dc.lft.to/lastmile_qr_scan", "ios": "https://dc.lft.to/lastmile_qr_scan"}, "is_reserved": 0, "is_disabled": 0, "bike_id": "1eeb85126550439d1f2509ccd3371f07", "lat": 38.943279833333335, "name": "1eeb85126550439d1f2509ccd3371f07", "fusion_lon": 0.0, "fusion_lat": 0.0, "type": "electric_scooter", "lon": -77.02682683333333}, {"rental_uris": {"android": "https://dc.lft.to/lastmile_qr_scan", "ios": "https://dc.lft.to/lastmile_qr_scan"}, "is_reserved": 0, "is_disabled": 0, "bike_id": "32fb0defacf5abcf75babce5c9f4a915", "lat": 38.860045, "name": "32fb0defacf5abcf75babce5c9f4a915", "fusion_lon": 0.0, "fusion_lat": 0.0, "type": "electric_scooter", "lon": -76.98519333333333}, {"rental_uris": {"android": "https://dc.lft.to/lastmile_qr_scan", "ios": "https://dc.lft.to/lastmile_qr_scan"}, "is_reserved": 0, "is_disabled": 0, "bike_id": "00996de805d0b824243cf1cc815c8421", "lat": 38.915703666666666, "name": "00996de805d0b824243cf1cc815c8421", "fusion_lon": 0.0, "fusion_lat": 0.0, "type": "electric_scooter", "lon": -77.03943183333334}, {"rental_uris": {"android": "https://dc.lft.to/lastmile_qr_scan", "ios": "https://dc.lft.to/lastmile_qr_scan"}, "is_reserved": 0, "is_disabled": 0, "bike_id": "d83d0fccc78ef9316772bb50ce784250", "lat": 38.877180333333335, "name": "d83d0fccc78ef9316772bb50ce784250", "fusion_lon": 0.0, "fusion_lat": 0.0, "type": "electric_scooter", "lon": -77.01857383333333}, {"rental_uris": {"android": "https://dc.lft.to/lastmile_qr_scan", "ios": "https://dc.lft.to/lastmile_qr_scan"}, "is_reserved": 0, "is_disabled": 0, "bike_id": "f3fb8c020b6b977cf635aaa439960d87", "lat": 38.895467833333335, "name": "f3fb8c020b6b977cf635aaa439960d87", "fusion_lon": 0.0, "fusion_lat": 0.0, "type": "electric_scooter", "lon": -77.0566175}, {"rental_uris": {"android": "https://dc.lft.to/lastmile_qr_scan", "ios": "https://dc.lft.to/lastmile_qr_scan"}, "is_reserved": 0, "is_disabled": 0, "bike_id": "0a06e0040c4994338c0122714f90e223", "lat": 38.930881666666664, "name": "0a06e0040c4994338c0122714f90e223", "fusion_lon": 0.0, "fusion_lat": 0.0, "type": "electric_scooter", "lon": -77.0246785}, {"rental_uris": {"android": "https://dc.lft.to/lastmile_qr_scan", "ios": "https://dc.lft.to/lastmile_qr_scan"}, "is_reserved": 0, "is_disabled": 0, "bike_id": "8570ba73de45a6e63057ef30668b0553", "lat": 38.89226433333333, "name": "8570ba73de45a6e63057ef30668b0553", "fusion_lon": 0.0, "fusion_lat": 0.0, "type": "electric_scooter", "lon": -77.04311166666666}, {"rental_uris": {"android": "https://dc.lft.to/lastmile_qr_scan", "ios": "https://dc.lft.to/lastmile_qr_scan"}, "is_reserved": 0, "is_disabled": 0, "bike_id": "279687ae2b8f1c653b6bee2fa86a4476", "lat": 38.8877225, "name": "279687ae2b8f1c653b6bee2fa86a4476", "fusion_lon": 0.0, "fusion_lat": 0.0, "type": "electric_scooter", "lon": -77.0284965}, {"rental_uris": {"android": "https://dc.lft.to/lastmile_qr_scan", "ios": "https://dc.lft.to/lastmile_qr_scan"}, "is_reserved": 0, "is_disabled": 0, "bike_id": "91a00a5c5ab517ff525b0826d675d81d", "lat": 38.92322983333333, "name": "91a00a5c5ab517ff525b0826d675d81d", "fusion_lon": 0.0, "fusion_lat": 0.0, "type": "electric_scooter", "lon": -77.03578233333333}, {"rental_uris": {"android": "https://dc.lft.to/lastmile_qr_scan", "ios": "https://dc.lft.to/lastmile_qr_scan"}, "is_reserved": 0, "is_disabled": 0, "bike_id": "574a5e4ae23d5380274e4f1cb6aa46f1", "lat": 38.886091666666665, "name": "574a5e4ae23d5380274e4f1cb6aa46f1", "fusion_lon": 0.0, "fusion_lat": 0.0, "type": "electric_scooter", "lon": -76.99484166666667}, {"rental_uris": {"android": "https://dc.lft.to/lastmile_qr_scan", "ios": "https://dc.lft.to/lastmile_qr_scan"}, "is_reserved": 0, "is_disabled": 0, "bike_id": "676913643ffb60e0feff63f46e35c9de", "lat": 38.99524183333333, "name": "676913643ffb60e0feff63f46e35c9de", "fusion_lon": 0.0, "fusion_lat": 0.0, "type": "electric_bike", "lon": -77.03119066666666}, {"rental_uris": {"android": "https://dc.lft.to/lastmile_qr_scan", "ios": "https://dc.lft.to/lastmile_qr_scan"}, "is_reserved": 0, "is_disabled": 0, "bike_id": "762206f739215c7e9f3e7ab8124aaed3", "lat": 38.89507583333334, "name": "762206f739215c7e9f3e7ab8124aaed3", "fusion_lon": 0.0, "fusion_lat": 0.0, "type": "electric_scooter", "lon": -76.94884833333333}, {"rental_uris": {"android": "https://dc.lft.to/lastmile_qr_scan", "ios": "https://dc.lft.to/lastmile_qr_scan"}, "is_reserved": 0, "is_disabled": 0, "bike_id": "8b8837d2cfb898f57dfdc0ad780f4c32", "lat": 38.904376666666664, "name": "8b8837d2cfb898f57dfdc0ad780f4c32", "fusion_lon": 0.0, "fusion_lat": 0.0, "type": "electric_scooter", "lon": -77.034347}, {"rental_uris": {"android": "https://dc.lft.to/lastmile_qr_scan", "ios": "https://dc.lft.to/lastmile_qr_scan"}, "is_reserved": 0, "is_disabled": 0, "bike_id": "83e6f7da6390480987c47f4361a88721", "lat": 38.9063115, "name": "83e6f7da6390480987c47f4361a88721", "fusion_lon": 0.0, "fusion_lat": 0.0, "type": "electric_scooter", "lon": -76.99862033333333}, {"rental_uris": {"android": "https://dc.lft.to/lastmile_qr_scan", "ios": "https://dc.lft.to/lastmile_qr_scan"}, "is_reserved": 0, "is_disabled": 0, "bike_id": "f9ae11388d9b18cef9fdde2de13e3385", "lat": 38.87785233333334, "name": "f9ae11388d9b18cef9fdde2de13e3385", "fusion_lon": 0.0, "fusion_lat": 0.0, "type": "electric_scooter", "lon": -76.99414033333333}, {"rental_uris": {"android": "https://dc.lft.to/lastmile_qr_scan", "ios": "https://dc.lft.to/lastmile_qr_scan"}, "is_reserved": 0, "is_disabled": 0, "bike_id": "189fd82e3c5084031dd041953fa37a4c", "lat": 38.928048, "name": "189fd82e3c5084031dd041953fa37a4c", "fusion_lon": 0.0, "fusion_lat": 0.0, "type": "electric_scooter", "lon": -77.03616816666667}, {"rental_uris": {"android": "https://dc.lft.to/lastmile_qr_scan", "ios": "https://dc.lft.to/lastmile_qr_scan"}, "is_reserved": 0, "is_disabled": 0, "bike_id": "4898fe6d6e1a17c38dbd32147471c740", "lat": 38.89887483333333, "name": "4898fe6d6e1a17c38dbd32147471c740", "fusion_lon": 0.0, "fusion_lat": 0.0, "type": "electric_scooter", "lon": -77.00891166666666}, {"rental_uris": {"android": "https://dc.lft.to/lastmile_qr_scan", "ios": "https://dc.lft.to/lastmile_qr_scan"}, "is_reserved": 0, "is_disabled": 0, "bike_id": "2c85c20e6a4153850b30bc7055ced01a", "lat": 38.89197733333334, "name": "2c85c20e6a4153850b30bc7055ced01a", "fusion_lon": 0.0, "fusion_lat": 0.0, "type": "electric_scooter", "lon": -76.9939095}, {"rental_uris": {"android": "https://dc.lft.to/lastmile_qr_scan", "ios": "https://dc.lft.to/lastmile_qr_scan"}, "is_reserved": 0, "is_disabled": 0, "bike_id": "566860ebec2058d7742d16dcb4a2260c", "lat": 38.906723666666664, "name": "566860ebec2058d7742d16dcb4a2260c", "fusion_lon": 0.0, "fusion_lat": 0.0, "type": "electric_scooter", "lon": -77.037572}, {"rental_uris": {"android": "https://dc.lft.to/lastmile_qr_scan", "ios": "https://dc.lft.to/lastmile_qr_scan"}, "is_reserved": 0, "is_disabled": 0, "bike_id": "ae3e593610807771d9462ea2fa36580b", "lat": 38.89221, "name": "ae3e593610807771d9462ea2fa36580b", "fusion_lon": 0.0, "fusion_lat": 0.0, "type": "electric_scooter", "lon": -77.02234266666666}, {"rental_uris": {"android": "https://dc.lft.to/lastmile_qr_scan", "ios": "https://dc.lft.to/lastmile_qr_scan"}, "is_reserved": 0, "is_disabled": 0, "bike_id": "4ca3d991fdb621c9f8352dffd52ecb6e", "lat": 38.88474633333333, "name": "4ca3d991fdb621c9f8352dffd52ecb6e", "fusion_lon": 0.0, "fusion_lat": 0.0, "type": "electric_scooter", "lon": -77.017651}, {"rental_uris": {"android": "https://dc.lft.to/lastmile_qr_scan", "ios": "https://dc.lft.to/lastmile_qr_scan"}, "is_reserved": 0, "is_disabled": 0, "bike_id": "ec6ad0f99ed988b8c314e4573644c679", "lat": 38.87300033333333, "name": "ec6ad0f99ed988b8c314e4573644c679", "fusion_lon": 0.0, "fusion_lat": 0.0, "type": "electric_bike", "lon": -77.13927133333334}, {"rental_uris": {"android": "https://dc.lft.to/lastmile_qr_scan", "ios": "https://dc.lft.to/lastmile_qr_scan"}, "is_reserved": 0, "is_disabled": 0, "bike_id": "1cb60c4a5cb1fba4ec929efafa56e66e", "lat": 38.89769233333333, "name": "1cb60c4a5cb1fba4ec929efafa56e66e", "fusion_lon": 0.0, "fusion_lat": 0.0, "type": "electric_scooter", "lon": -77.03205616666666}, {"rental_uris": {"android": "https://dc.lft.to/lastmile_qr_scan", "ios": "https://dc.lft.to/lastmile_qr_scan"}, "is_reserved": 0, "is_disabled": 0, "bike_id": "9d90c61905d5d32c3692660961ea5bcf", "lat": 38.921582666666666, "name": "9d90c61905d5d32c3692660961ea5bcf", "fusion_lon": 0.0, "fusion_lat": 0.0, "type": "electric_scooter", "lon": -77.042416}, {"rental_uris": {"android": "https://dc.lft.to/lastmile_qr_scan", "ios": "https://dc.lft.to/lastmile_qr_scan"}, "is_reserved": 0, "is_disabled": 0, "bike_id": "d9de2994c71f753ff50805e6e8c5565a", "lat": 38.9498875, "name": "d9de2994c71f753ff50805e6e8c5565a", "fusion_lon": 0.0, "fusion_lat": 0.0, "type": "electric_scooter", "lon": -77.02702766666667}, {"rental_uris": {"android": "https://dc.lft.to/lastmile_qr_scan", "ios": "https://dc.lft.to/lastmile_qr_scan"}, "is_reserved": 0, "is_disabled": 0, "bike_id": "890a003dacb76586d6a8086b2ab28b81", "lat": 38.88648166666667, "name": "890a003dacb76586d6a8086b2ab28b81", "fusion_lon": 0.0, "fusion_lat": 0.0, "type": "electric_scooter", "lon": -76.99874016666666}, {"rental_uris": {"android": "https://dc.lft.to/lastmile_qr_scan", "ios": "https://dc.lft.to/lastmile_qr_scan"}, "is_reserved": 0, "is_disabled": 0, "bike_id": "9577621fad6564969ed923d5a5977fbd", "lat": 38.9015995, "name": "9577621fad6564969ed923d5a5977fbd", "fusion_lon": 0.0, "fusion_lat": 0.0, "type": "electric_scooter", "lon": -77.0482065}, {"rental_uris": {"android": "https://dc.lft.to/lastmile_qr_scan", "ios": "https://dc.lft.to/lastmile_qr_scan"}, "is_reserved": 0, "is_disabled": 0, "bike_id": "cc78531e0a19b64829cf4061360ee670", "lat": 38.91007416666667, "name": "cc78531e0a19b64829cf4061360ee670", "fusion_lon": 0.0, "fusion_lat": 0.0, "type": "electric_scooter", "lon": -77.03461133333333}, {"rental_uris": {"android": "https://dc.lft.to/lastmile_qr_scan", "ios": "https://dc.lft.to/lastmile_qr_scan"}, "is_reserved": 0, "is_disabled": 0, "bike_id": "07279a9311f7ad00c687f955720d0321", "lat": 38.90867983333333, "name": "07279a9311f7ad00c687f955720d0321", "fusion_lon": 0.0, "fusion_lat": 0.0, "type": "electric_scooter", "lon": -77.0128475}, {"rental_uris": {"android": "https://dc.lft.to/lastmile_qr_scan", "ios": "https://dc.lft.to/lastmile_qr_scan"}, "is_reserved": 0, "is_disabled": 0, "bike_id": "de2469a97992c9053ecbb28c2c60fb03", "lat": 38.90079866666667, "name": "de2469a97992c9053ecbb28c2c60fb03", "fusion_lon": 0.0, "fusion_lat": 0.0, "type": "electric_scooter", "lon": -77.048762}, {"rental_uris": {"android": "https://dc.lft.to/lastmile_qr_scan", "ios": "https://dc.lft.to/lastmile_qr_scan"}, "is_reserved": 0, "is_disabled": 0, "bike_id": "3b589c81129510c9fd133a9a2d81e019", "lat": 38.8537535, "name": "3b589c81129510c9fd133a9a2d81e019", "fusion_lon": 0.0, "fusion_lat": 0.0, "type": "electric_bike", "lon": -77.12465733333333}, {"rental_uris": {"android": "https://dc.lft.to/lastmile_qr_scan", "ios": "https://dc.lft.to/lastmile_qr_scan"}, "is_reserved": 0, "is_disabled": 0, "bike_id": "e6b477bfbbed25b5a88255fc7b2c1390", "lat": 38.915754166666666, "name": "e6b477bfbbed25b5a88255fc7b2c1390", "fusion_lon": 0.0, "fusion_lat": 0.0, "type": "electric_scooter", "lon": -77.0364435}, {"rental_uris": {"android": "https://dc.lft.to/lastmile_qr_scan", "ios": "https://dc.lft.to/lastmile_qr_scan"}, "is_reserved": 0, "is_disabled": 0, "bike_id": "057aee3495fd52df25162cd35fff6312", "lat": 38.916063, "name": "057aee3495fd52df25162cd35fff6312", "fusion_lon": 0.0, "fusion_lat": 0.0, "type": "electric_scooter", "lon": -77.03185}, {"rental_uris": {"android": "https://dc.lft.to/lastmile_qr_scan", "ios": "https://dc.lft.to/lastmile_qr_scan"}, "is_reserved": 0, "is_disabled": 0, "bike_id": "eea62b565fa6bb848508de15b9204904", "lat": 38.9025615, "name": "eea62b565fa6bb848508de15b9204904", "fusion_lon": 0.0, "fusion_lat": 0.0, "type": "electric_scooter", "lon": -77.0035505}, {"rental_uris": {"android": "https://dc.lft.to/lastmile_qr_scan", "ios": "https://dc.lft.to/lastmile_qr_scan"}, "is_reserved": 0, "is_disabled": 0, "bike_id": "0367ebdc4f106908e3e9683f594f8331", "lat": 38.91580583333333, "name": "0367ebdc4f106908e3e9683f594f8331", "fusion_lon": 0.0, "fusion_lat": 0.0, "type": "electric_scooter", "lon": -77.04635966666666}, {"rental_uris": {"android": "https://dc.lft.to/lastmile_qr_scan", "ios": "https://dc.lft.to/lastmile_qr_scan"}, "is_reserved": 0, "is_disabled": 0, "bike_id": "7d0d246ecc3f2591dc7b3cfaee139e06", "lat": 38.89224383333333, "name": "7d0d246ecc3f2591dc7b3cfaee139e06", "fusion_lon": 0.0, "fusion_lat": 0.0, "type": "electric_scooter", "lon": -77.01489633333334}, {"rental_uris": {"android": "https://dc.lft.to/lastmile_qr_scan", "ios": "https://dc.lft.to/lastmile_qr_scan"}, "is_reserved": 0, "is_disabled": 0, "bike_id": "3d871638336534cbc022bf469d6b3ec7", "lat": 38.92364116666667, "name": "3d871638336534cbc022bf469d6b3ec7", "fusion_lon": 0.0, "fusion_lat": 0.0, "type": "electric_scooter", "lon": -77.0192275}, {"rental_uris": {"android": "https://dc.lft.to/lastmile_qr_scan", "ios": "https://dc.lft.to/lastmile_qr_scan"}, "is_reserved": 0, "is_disabled": 0, "bike_id": "2697234fad1baf340287c235e533ebb6", "lat": 38.9007135, "name": "2697234fad1baf340287c235e533ebb6", "fusion_lon": 0.0, "fusion_lat": 0.0, "type": "electric_scooter", "lon": -77.04769116666667}, {"rental_uris": {"android": "https://dc.lft.to/lastmile_qr_scan", "ios": "https://dc.lft.to/lastmile_qr_scan"}, "is_reserved": 0, "is_disabled": 0, "bike_id": "d23b444b8e53522ed08a6076c3883e30", "lat": 38.8919725, "name": "d23b444b8e53522ed08a6076c3883e30", "fusion_lon": 0.0, "fusion_lat": 0.0, "type": "electric_scooter", "lon": -76.93307866666666}, {"rental_uris": {"android": "https://dc.lft.to/lastmile_qr_scan", "ios": "https://dc.lft.to/lastmile_qr_scan"}, "is_reserved": 0, "is_disabled": 0, "bike_id": "3fa02ba3aa2dbabfe1be45a3e8840d14", "lat": 38.931142333333334, "name": "3fa02ba3aa2dbabfe1be45a3e8840d14", "fusion_lon": 0.0, "fusion_lat": 0.0, "type": "electric_scooter", "lon": -77.0379905},