{"data": {"bikes": [{"fusion_lon": 0.0, "bike_id": "f6297766a5edaeef1400dd48d0727601", "name": "f6297766a5edaeef1400dd48d0727601", "type": "electric_scooter", "lon": -77.0446975, "rental_uris": {"android": "https://dc.lft.to/lastmile_qr_scan", "ios": "https://dc.lft.to/lastmile_qr_scan"}, "lat": 38.910755333333334, "is_reserved": 0, "is_disabled": 0, "fusion_lat": 0.0}, {"fusion_lon": 0.0, "bike_id": "7882ab05ae9c2feea147c0617c751ed5", "name": "7882ab05ae9c2feea147c0617c751ed5", "type": "electric_bike", "lon": -76.97502166666666, "rental_uris": {"android": "https://dc.lft.to/lastmile_qr_scan", "ios": "https://dc.lft.to/lastmile_qr_scan"}, "lat": 38.91929583333334, "is_reserved": 0, "is_disabled": 0, "fusion_lat": 0.0}, {"fusion_lon": 0.0, "bike_id": "13bb87eaa6f75905dea2672e502bf025", "name": "13bb87eaa6f75905dea2672e502bf025", "type": "electric_scooter", "lon": -77.03196166666666, "rental_uris": {"android": "https://dc.lft.to/lastmile_qr_scan", "ios": "https://dc.lft.to/lastmile_qr_scan"}, "lat": 38.917879666666664, "is_reserved": 0, "is_disabled": 0, "fusion_lat": 0.0}, {"fusion_lon": 0.0, "bike_id": "8a7cbd5122346fdee3a384b000ef8f72", "name": "8a7cbd5122346fdee3a384b000ef8f72", "type": "electric_scooter", "lon": -77.026942, "rental_uris": {"android": "https://dc.lft.to/lastmile_qr_scan", "ios": "https://dc.lft.to/lastmile_qr_scan"}, "lat": 38.9083845, "is_reserved": 0, "is_disabled": 0, "fusion_lat": 0.0}, {"fusion_lon": 0.0, "bike_id": "6bdabf8dbff4ba3a878a8fac98a98ca5", "name": "6bdabf8dbff4ba3a878a8fac98a98ca5", "type": "electric_scooter", "lon": -76.97930666666667, "rental_uris": {"android": "https://dc.lft.to/lastmile_qr_scan", "ios": "https://dc.lft.to/lastmile_qr_scan"}, "lat": 38.90235083333334, "is_reserved": 0, "is_disabled": 0, "fusion_lat": 0.0}, {"fusion_lon": 0.0, "bike_id": "6d7aedfe96908912e1a7643dcb9b2bd0", "name": "6d7aedfe96908912e1a7643dcb9b2bd0", "type": "electric_scooter", "lon": -77.02336466666667, "rental_uris": {"android": "https://dc.lft.to/lastmile_qr_scan", "ios": "https://dc.lft.to/lastmile_qr_scan"}, "lat": 38.922321333333336, "is_reserved": 0, "is_disabled": 0, "fusion_lat": 0.0}, {"fusion_lon": 0.0, "bike_id": "f6944889a6075c893562aa44954791a5", "name": "f6944889a6075c893562aa44954791a5", "type": "electric_scooter", "lon": -76.98458383333333, "rental_uris": {"android": "https://dc.lft.to/lastmile_qr_scan", "ios": "https://dc.lft.to/lastmile_qr_scan"}, "lat": 38.88008633333333, "is_reserved": 0, "is_disabled": 0, "fusion_lat": 0.0}, {"fusion_lon": 0.0, "bike_id": "a3a017ce57a9e57822061a106f5d3353", "name": "a3a017ce57a9e57822061a106f5d3353", "type": "electric_bike", "lon": -77.08435966666667, "rental_uris": {"android": "https://dc.lft.to/lastmile_qr_scan", "ios": "https://dc.lft.to/lastmile_qr_scan"}, "lat": 38.8102985, "is_reserved": 0, "is_disabled": 0, "fusion_lat": 0.0}, {"fusion_lon": 0.0, "bike_id": "6aa1542b3001c186e5260541763f0937", "name": "6aa1542b3001c186e5260541763f0937", "type": "electric_scooter", "lon": -76.99142533333334, "rental_uris": {"android": "https://dc.lft.to/lastmile_qr_scan", "ios": "https://dc.lft.to/lastmile_qr_scan"}, "lat": 38.8868155, "is_reserved": 0, "is_disabled": 0, "fusion_lat": 0.0}, {"fusion_lon": 0.0, "bike_id": "28c84b3251ab04c7e4da19473c52b0a2", "name": "28c84b3251ab04c7e4da19473c52b0a2", "type": "electric_scooter", "lon": -77.008876, "rental_uris": {"android": "https://dc.lft.to/lastmile_qr_scan", "ios": "https://dc.lft.to/lastmile_qr_scan"}, "lat": 38.9057445, "is_reserved": 0, "is_disabled": 0, "fusion_lat": 0.0}, {"fusion_lon": 0.0, "bike_id": "69e6678ab9bf1a2b336f52bb877819d1", "name": "69e6678ab9bf1a2b336f52bb877819d1", "type": "electric_scooter", "lon": -77.0345145, "rental_uris": {"android": "https://dc.lft.to/lastmile_qr_scan", "ios": "https://dc.lft.to/lastmile_qr_scan"}, "lat": 38.90826583333333, "is_reserved": 0, "is_disabled": 0, "fusion_lat": 0.0}, {"fusion_lon": 0.0, "bike_id": "62e81866e2847b624d1987c841ede254", "name": "62e81866e2847b624d1987c841ede254", "type": "electric_scooter", "lon": -76.94939833333333, "rental_uris": {"android": "https://dc.lft.to/lastmile_qr_scan", "ios": "https://dc.lft.to/lastmile_qr_scan"}, "lat": 38.893633666666666, "is_reserved": 0, "is_disabled": 0, "fusion_lat": 0.0}, {"fusion_lon": 0.0, "bike_id": "c6e44c216ccf3ca3f293e26e7e5783f1", "name": "c6e44c216ccf3ca3f293e26e7e5783f1", "type": "electric_scooter", "lon": -77.02611983333334, "rental_uris": {"android": "https://dc.lft.to/lastmile_qr_scan", "ios": "https://dc.lft.to/lastmile_qr_scan"}, "lat": 38.91850766666667, "is_reserved": 0, "is_disabled": 0, "fusion_lat": 0.0}, {"fusion_lon": 0.0, "bike_id": "fb6211aa2718f00dd185bd1e892d04e4", "name": "fb6211aa2718f00dd185bd1e892d04e4", "type": "electric_scooter", "lon": -77.00957666666666, "rental_uris": {"android": "https://dc.lft.to/lastmile_qr_scan", "ios": "https://dc.lft.to/lastmile_qr_scan"}, "lat": 38.87663966666667, "is_reserved": 0, "is_disabled": 0, "fusion_lat": 0.0}, {"fusion_lon": 0.0, "bike_id": "5357aa20903f73eda55a183715d95c3f", "name": "5357aa20903f73eda55a183715d95c3f", "type": "electric_scooter", "lon": -77.023797, "rental_uris": {"android": "https://dc.lft.to/lastmile_qr_scan", "ios": "https://dc.lft.to/lastmile_qr_scan"}, "lat": 38.920663833333336, "is_reserved": 0, "is_disabled": 0, "fusion_lat": 0.0}, {"fusion_lon": 0.0, "bike_id": "560c2360165e5baec9ff3d22db631c45", "name": "560c2360165e5baec9ff3d22db631c45", "type": "electric_bike", "lon": -76.90967716666667, "rental_uris": {"android": "https://dc.lft.to/lastmile_qr_scan", "ios": "https://dc.lft.to/lastmile_qr_scan"}, "lat": 38.8541165, "is_reserved": 0, "is_disabled": 0, "fusion_lat": 0.0}, {"fusion_lon": 0.0, "bike_id": "d0ea1c357289959d151ba5fb9c9cce97", "name": "d0ea1c357289959d151ba5fb9c9cce97", "type": "electric_scooter", "lon": -76.94249666666667, "rental_uris": {"android": "https://dc.lft.to/lastmile_qr_scan", "ios": "https://dc.lft.to/lastmile_qr_scan"}, "lat": 38.889920333333336, "is_reserved": 0, "is_disabled": 0, "fusion_lat": 0.0}, {"fusion_lon": 0.0, "bike_id": "98d617dedcb337618676ab65dbdfbe35", "name": "98d617dedcb337618676ab65dbdfbe35", "type": "electric_scooter", "lon": -77.03770883333334, "rental_uris": {"android": "https://dc.lft.to/lastmile_qr_scan", "ios": "https://dc.lft.to/lastmile_qr_scan"}, "lat": 38.936020166666665, "is_reserved": 0, "is_disabled": 0, "fusion_lat": 0.0}, {"fusion_lon": 0.0, "bike_id": "3b5f1331b1f785258baad2c42a2f6522", "name": "3b5f1331b1f785258baad2c42a2f6522", "type": "electric_scooter", "lon": -77.0626925, "rental_uris": {"android": "https://dc.lft.to/lastmile_qr_scan", "ios": "https://dc.lft.to/lastmile_qr_scan"}, "lat": 38.9051725, "is_reserved": 0, "is_disabled": 0, "fusion_lat": 0.0}, {"fusion_lon": 0.0, "bike_id": "1eda4d0d3f02e772cbaecd86333ccee6", "name": "1eda4d0d3f02e772cbaecd86333ccee6", "type": "electric_scooter", "lon": -77.06098216666666, "rental_uris": {"android": "https://dc.lft.to/lastmile_qr_scan", "ios": "https://dc.lft.to/lastmile_qr_scan"}, "lat": 38.94370816666667, "is_reserved": 0, "is_disabled": 0, "fusion_lat": 0.0}, {"fusion_lon": 0.0, "bike_id": "3b190a0a20439c2691e3b64885f656d7", "name": "3b190a0a20439c2691e3b64885f656d7", "type": "electric_scooter", "lon": -77.04148183333334, "rental_uris": {"android": "https://dc.lft.to/lastmile_qr_scan", "ios": "https://dc.lft.to/lastmile_qr_scan"}, "lat": 38.92343533333333, "is_reserved": 0, "is_disabled": 0, "fusion_lat": 0.0}, {"fusion_lon": 0.0, "bike_id": "314913afbd7a7cd2fd3d2a208f0c122b", "name": "314913afbd7a7cd2fd3d2a208f0c122b", "type": "electric_scooter", "lon": -77.03057066666666, "rental_uris": {"android": "https://dc.lft.to/lastmile_qr_scan", "ios": "https://dc.lft.to/lastmile_qr_scan"}, "lat": 38.90119283333333, "is_reserved": 0, "is_disabled": 0, "fusion_lat": 0.0}, {"fusion_lon": 0.0, "bike_id": "3bf1f36de6b0040c3b2bb9788622fda0", "name": "3bf1f36de6b0040c3b2bb9788622fda0", "type": "electric_scooter", "lon": -76.93662216666667, "rental_uris": {"android": "https://dc.lft.to/lastmile_qr_scan", "ios": "https://dc.lft.to/lastmile_qr_scan"}, "lat": 38.88958916666667, "is_reserved": 0, "is_disabled": 0, "fusion_lat": 0.0}, {"fusion_lon": 0.0, "bike_id": "d2e3f857c077118d5c3140091e15d9e6", "name": "d2e3f857c077118d5c3140091e15d9e6", "type": "electric_scooter", "lon": -77.00837566666667, "rental_uris": {"android": "https://dc.lft.to/lastmile_qr_scan", "ios": "https://dc.lft.to/lastmile_qr_scan"}, "lat": 38.876382666666665, "is_reserved": 0, "is_disabled": 0, "fusion_lat": 0.0}, {"fusion_lon": 0.0, "bike_id": "597fd9b806ef68a977dd1851a5e4183e", "name": "597fd9b806ef68a977dd1851a5e4183e", "type": "electric_scooter", "lon": -77.01422466666666, "rental_uris": {"android": "https://dc.lft.to/lastmile_qr_scan", "ios": "https://dc.lft.to/lastmile_qr_scan"}, "lat": 38.9287185, "is_reserved": 0, "is_disabled": 0, "fusion_lat": 0.0}, {"fusion_lon": 0.0, "bike_id": "6cb4cd1c7f5450b2779980b5242b8eb8", "name": "6cb4cd1c7f5450b2779980b5242b8eb8", "type": "electric_scooter", "lon": -77.05134933333333, "rental_uris": {"android": "https://dc.lft.to/lastmile_qr_scan", "ios": "https://dc.lft.to/lastmile_qr_scan"}, "lat": 38.907098, "is_reserved": 0, "is_disabled": 0, "fusion_lat": 0.0}, {"fusion_lon": 0.0, "bike_id": "d66a182d41e614c3ce29b73ba2678472", "name": "d66a182d41e614c3ce29b73ba2678472", "type": "electric_scooter", "lon": -77.035513, "rental_uris": {"android": "https://dc.lft.to/lastmile_qr_scan", "ios": "https://dc.lft.to/lastmile_qr_scan"}, "lat": 38.923363333333334, "is_reserved": 0, "is_disabled": 0, "fusion_lat": 0.0}, {"fusion_lon": 0.0, "bike_id": "d17f76545367c3190ef0b8215d792503", "name": "d17f76545367c3190ef0b8215d792503", "type": "electric_scooter", "lon": -77.05596466666667, "rental_uris": {"android": "https://dc.lft.to/lastmile_qr_scan", "ios": "https://dc.lft.to/lastmile_qr_scan"}, "lat": 38.936957166666666, "is_reserved": 0, "is_disabled": 0, "fusion_lat": 0.0}, {"fusion_lon": 0.0, "bike_id": "4b93de551ff53d3504aae874cf47229d", "name": "4b93de551ff53d3504aae874cf47229d", "type": "electric_bike", "lon": -77.19551183333333, "rental_uris": {"android": "https://dc.lft.to/lastmile_qr_scan", "ios": "https://dc.lft.to/lastmile_qr_scan"}, "lat": 39.11506333333333, "is_reserved": 0, "is_disabled": 0, "fusion_lat": 0.0}, {"fusion_lon": 0.0, "bike_id": "5c4338473c9fbd43aa97863e92d89654", "name": "5c4338473c9fbd43aa97863e92d89654", "type": "electric_bike", "lon": -76.97824516666667, "rental_uris": {"android": "https://dc.lft.to/lastmile_qr_scan", "ios": "https://dc.lft.to/lastmile_qr_scan"}, "lat": 38.87193083333333, "is_reserved": 0, "is_disabled": 0, "fusion_lat": 0.0}, {"fusion_lon": 0.0, "bike_id": "eaeaa5a3f86846b971c0c234ea8f00b9", "name": "eaeaa5a3f86846b971c0c234ea8f00b9", "type": "electric_scooter", "lon": -77.01767683333334, "rental_uris": {"android": "https://dc.lft.to/lastmile_qr_scan", "ios": "https://dc.lft.to/lastmile_qr_scan"}, "lat": 38.88577083333333, "is_reserved": 0, "is_disabled": 0, "fusion_lat": 0.0}, {"fusion_lon": 0.0, "bike_id": "7c88e1ff08c2252c7286d40792ce8f89", "name": "7c88e1ff08c2252c7286d40792ce8f89", "type": "electric_scooter", "lon": -77.0019985, "rental_uris": {"android": "https://dc.lft.to/lastmile_qr_scan", "ios": "https://dc.lft.to/lastmile_qr_scan"}, "lat": 38.90031116666667, "is_reserved": 0, "is_disabled": 0, "fusion_lat": 0.0}, {"fusion_lon": 0.0, "bike_id": "cde909617c6ee979fdd7d4d5fb32cbb4", "name": "cde909617c6ee979fdd7d4d5fb32cbb4", "type": "electric_scooter", "lon": -77.02346416666667, "rental_uris": {"android": "https://dc.lft.to/lastmile_qr_scan", "ios": "https://dc.lft.to/lastmile_qr_scan"}, "lat": 38.9429415, "is_reserved": 0, "is_disabled": 0, "fusion_lat": 0.0}, {"fusion_lon": 0.0, "bike_id": "95d1ad1c8e7c14530f5678a13daa881b", "name": "95d1ad1c8e7c14530f5678a13daa881b", "type": "electric_bike", "lon": -77.04976916666666, "rental_uris": {"android": "https://dc.lft.to/lastmile_qr_scan", "ios": "https://dc.lft.to/lastmile_qr_scan"}, "lat": 38.99239083333333, "is_reserved": 0, "is_disabled": 0, "fusion_lat": 0.0}, {"fusion_lon": 0.0, "bike_id": "bb1a1ddeb0f2c51e24739af8b7ae6c3e", "name": "bb1a1ddeb0f2c51e24739af8b7ae6c3e", "type": "electric_scooter", "lon": -77.04684666666667, "rental_uris": {"android": "https://dc.lft.to/lastmile_qr_scan", "ios": "https://dc.lft.to/lastmile_qr_scan"}, "lat": 38.91572016666667, "is_reserved": 0, "is_disabled": 0, "fusion_lat": 0.0}, {"fusion_lon": 0.0, "bike_id": "d04012890db9511c2fe0de3fdc8870da", "name": "d04012890db9511c2fe0de3fdc8870da", "type": "electric_bike", "lon": -77.0033055, "rental_uris": {"android": "https://dc.lft.to/lastmile_qr_scan", "ios": "https://dc.lft.to/lastmile_qr_scan"}, "lat": 38.91166883333333, "is_reserved": 0, "is_disabled": 0, "fusion_lat": 0.0}, {"fusion_lon": 0.0, "bike_id": "4cc213effa6320da3c9bf57a5d293cdd", "name": "4cc213effa6320da3c9bf57a5d293cdd", "type": "electric_scooter", "lon": -77.04407083333334, "rental_uris": {"android": "https://dc.lft.to/lastmile_qr_scan", "ios": "https://dc.lft.to/lastmile_qr_scan"}, "lat": 38.929522166666665, "is_reserved": 0, "is_disabled": 0, "fusion_lat": 0.0}, {"fusion_lon": 0.0, "bike_id": "5fd5d46e0d7ec45f63f0e482000b06b9", "name": "5fd5d46e0d7ec45f63f0e482000b06b9", "type": "electric_scooter", "lon": -76.99055516666667, "rental_uris": {"android": "https://dc.lft.to/lastmile_qr_scan", "ios": "https://dc.lft.to/lastmile_qr_scan"}, "lat": 38.86362416666667, "is_reserved": 0, "is_disabled": 0, "fusion_lat": 0.0}, {"fusion_lon": 0.0, "bike_id": "bcdf94a7d288d2061cf216319088d0de", "name": "bcdf94a7d288d2061cf216319088d0de", "type": "electric_scooter", "lon": -77.03070083333333, "rental_uris": {"android": "https://dc.lft.to/lastmile_qr_scan", "ios": "https://dc.lft.to/lastmile_qr_scan"}, "lat": 38.907485333333334, "is_reserved": 0, "is_disabled": 0, "fusion_lat": 0.0}, {"fusion_lon": 0.0, "bike_id": "ce27a088bfaccbc35c5995ed0fbbabc3", "name": "ce27a088bfaccbc35c5995ed0fbbabc3", "type": "electric_scooter", "lon": -77.04114516666667, "rental_uris": {"android": "https://dc.lft.to/lastmile_qr_scan", "ios": "https://dc.lft.to/lastmile_qr_scan"}, "lat": 38.9237795, "is_reserved": 0, "is_disabled": 0, "fusion_lat": 0.0}, {"fusion_lon": 0.0, "bike_id": "5a8599b8ee2baed001d6a895d1152fba", "name": "5a8599b8ee2baed001d6a895d1152fba", "type": "electric_scooter", "lon": -77.03142566666666, "rental_uris": {"android": "https://dc.lft.to/lastmile_qr_scan", "ios": "https://dc.lft.to/lastmile_qr_scan"}, "lat": 38.920108, "is_reserved": 0, "is_disabled": 0, "fusion_lat": 0.0}, {"fusion_lon": 0.0, "bike_id": "f065a69b2b40f404f4e4db03b27ac3fd", "name": "f065a69b2b40f404f4e4db03b27ac3fd", "type": "electric_scooter", "lon": -77.02047166666667, "rental_uris": {"android": "https://dc.lft.to/lastmile_qr_scan", "ios": "https://dc.lft.to/lastmile_qr_scan"}, "lat": 38.94122333333333, "is_reserved": 0, "is_disabled": 0, "fusion_lat": 0.0}, {"fusion_lon": 0.0, "bike_id": "5fb59efa55527ab3c4ed38ebc76c4f1d", "name": "5fb59efa55527ab3c4ed38ebc76c4f1d", "type": "electric_bike", "lon": -77.106479, "rental_uris": {"android": "https://dc.lft.to/lastmile_qr_scan", "ios": "https://dc.lft.to/lastmile_qr_scan"}, "lat": 39.0299335, "is_reserved": 0, "is_disabled": 0, "fusion_lat": 0.0}, {"fusion_lon": 0.0, "bike_id": "b2f0e0578100ae43b33a2353de456664", "name": "b2f0e0578100ae43b33a2353de456664", "type": "electric_scooter", "lon": -77.03286116666666, "rental_uris": {"android": "https://dc.lft.to/lastmile_qr_scan", "ios": "https://dc.lft.to/lastmile_qr_scan"}, "lat": 38.92929383333333, "is_reserved": 0, "is_disabled": 0, "fusion_lat": 0.0}, {"fusion_lon": 0.0, "bike_id": "3a4fab10a3d20cd6f0c6dddf98aa51d0", "name": "3a4fab10a3d20cd6f0c6dddf98aa51d0", "type": "electric_scooter", "lon": -77.0124495, "rental_uris": {"android": "https://dc.lft.to/lastmile_qr_scan", "ios": "https://dc.lft.to/lastmile_qr_scan"}, "lat": 38.9310935, "is_reserved": 0, "is_disabled": 0, "fusion_lat": 0.0}, {"fusion_lon": 0.0, "bike_id": "35dd1aaca1798f8e960ba872f642b669", "name": "35dd1aaca1798f8e960ba872f642b669", "type": "electric_scooter", "lon": -77.02467, "rental_uris": {"android": "https://dc.lft.to/lastmile_qr_scan", "ios": "https://dc.lft.to/lastmile_qr_scan"}, "lat": 38.937573, "is_reserved": 0, "is_disabled": 0, "fusion_lat": 0.0}, {"fusion_lon": 0.0, "bike_id": "5b164b6486b73712ab7881ca4a762e4a", "name": "5b164b6486b73712ab7881ca4a762e4a", "type": "electric_bike", "lon": -77.02739016666666, "rental_uris": {"android": "https://dc.lft.to/lastmile_qr_scan", "ios": "https://dc.lft.to/lastmile_qr_scan"}, "lat": 38.920974, "is_reserved": 0, "is_disabled": 0, "fusion_lat": 0.0}, {"fusion_lon": 0.0, "bike_id": "8c6abc0cc3b0e74806130735a13fd12d", "name": "8c6abc0cc3b0e74806130735a13fd12d", "type": "electric_scooter", "lon": -77.02047766666666, "rental_uris": {"android": "https://dc.lft.to/lastmile_qr_scan", "ios": "https://dc.lft.to/lastmile_qr_scan"}, "lat": 38.958675, "is_reserved": 0, "is_disabled": 0, "fusion_lat": 0.0}, {"fusion_lon": 0.0, "bike_id": "7109d346ab3f73dbc1b31356fd888309", "name": "7109d346ab3f73dbc1b31356fd888309", "type": "electric_scooter", "lon": -77.03185366666666, "rental_uris": {"android": "https://dc.lft.to/lastmile_qr_scan", "ios": "https://dc.lft.to/lastmile_qr_scan"}, "lat": 38.908764, "is_reserved": 0, "is_disabled": 0, "fusion_lat": 0.0}, {"fusion_lon": 0.0, "bike_id": "9a6c19fe73850d98cd5b35d59f684c1e", "name": "9a6c19fe73850d98cd5b35d59f684c1e", "type": "electric_scooter", "lon": -77.01748833333333, "rental_uris": {"android": "https://dc.lft.to/lastmile_qr_scan", "ios": "https://dc.lft.to/lastmile_qr_scan"}, "lat": 38.901060333333334, "is_reserved": 0, "is_disabled": 0, "fusion_lat": 0.0}, {"fusion_lon": 0.0, "bike_id": "e7c2d9501a1bc0c7aa833083b00083f6", "name": "e7c2d9501a1bc0c7aa833083b00083f6", "type": "electric_bike", "lon": -76.98754433333333, "rental_uris": {"android": "https://dc.lft.to/lastmile_qr_scan", "ios": "https://dc.lft.to/lastmile_qr_scan"}, "lat": 38.988222, "is_reserved": 0, "is_disabled": 0, "fusion_lat": 0.0}, {"fusion_lon": 0.0, "bike_id": "23cff73eb16df3f721c5ad72a6444135", "name": "23cff73eb16df3f721c5ad72a6444135", "type": "electric_scooter", "lon": -77.0559725, "rental_uris": {"android": "https://dc.lft.to/lastmile_qr_scan", "ios": "https://dc.lft.to/lastmile_qr_scan"}, "lat": 38.9105245, "is_reserved": 0, "is_disabled": 0, "fusion_lat": 0.0}, {"fusion_lon": 0.0, "bike_id": "b8b9b8348dae5f1138c851866ebc8b84", "name": "b8b9b8348dae5f1138c851866ebc8b84", "type": "electric_scooter", "lon": -77.02188533333333, "rental_uris": {"android": "https://dc.lft.to/lastmile_qr_scan", "ios": "https://dc.lft.to/lastmile_qr_scan"}, "lat": 38.9100945, "is_reserved": 0, "is_disabled": 0, "fusion_lat": 0.0}, {"fusion_lon": 0.0, "bike_id": "b1b7a7d8fe68d7923531afb392c6c9c6", "name": "b1b7a7d8fe68d7923531afb392c6c9c6", "type": "electric_scooter", "lon": -77.0361995, "rental_uris": {"android": "https://dc.lft.to/lastmile_qr_scan", "ios": "https://dc.lft.to/lastmile_qr_scan"}, "lat": 38.93088, "is_reserved": 0, "is_disabled": 0, "fusion_lat": 0.0}, {"fusion_lon": 0.0, "bike_id": "9eb1e62e3f403721822f5f1acaeddf65", "name": "9eb1e62e3f403721822f5f1acaeddf65", "type": "electric_scooter", "lon": -77.0265055, "rental_uris": {"android": "https://dc.lft.to/lastmile_qr_scan", "ios": "https://dc.lft.to/lastmile_qr_scan"}, "lat": 38.892117, "is_reserved": 0, "is_disabled": 0, "fusion_lat": 0.0}, {"fusion_lon": 0.0, "bike_id": "4faad89ed212c52215c9e27a143ba98d", "name": "4faad89ed212c52215c9e27a143ba98d", "type": "electric_scooter", "lon": -77.03183016666667, "rental_uris": {"android": "https://dc.lft.to/lastmile_qr_scan", "ios": "https://dc.lft.to/lastmile_qr_scan"}, "lat": 38.9180085, "is_reserved": 0, "is_disabled": 0, "fusion_lat": 0.0}, {"fusion_lon": 0.0, "bike_id": "386179dfd42b18f949dd6bcdc34ee0fa", "name": "386179dfd42b18f949dd6bcdc34ee0fa", "type": "electric_scooter", "lon": -76.937586, "rental_uris": {"android": "https://dc.lft.to/lastmile_qr_scan", "ios": "https://dc.lft.to/lastmile_qr_scan"}, "lat": 38.890324, "is_reserved": 0, "is_disabled": 0, "fusion_lat": 0.0}, {"fusion_lon": 0.0, "bike_id": "d08faf1b3500cf170c73dc89401be930", "name": "d08faf1b3500cf170c73dc89401be930", "type": "electric_scooter", "lon": -77.01752233333333, "rental_uris": {"android": "https://dc.lft.to/lastmile_qr_scan", "ios": "https://dc.lft.to/lastmile_qr_scan"}, "lat": 38.876870333333336, "is_reserved": 0, "is_disabled": 0, "fusion_lat": 0.0}, {"fusion_lon": 0.0, "bike_id": "f9ad60d26fa0f6d3f0cad8c8c1a142bc", "name": "f9ad60d26fa0f6d3f0cad8c8c1a142bc", "type": "electric_scooter", "lon": -76.99957316666666, "rental_uris": {"android": "https://dc.lft.to/lastmile_qr_scan", "ios": "https://dc.lft.to/lastmile_qr_scan"}, "lat": 38.908655, "is_reserved": 0, "is_disabled": 0, "fusion_lat": 0.0}, {"fusion_lon": 0.0, "bike_id": "edb969ae6c3db429903be0ba08535e29", "name": "edb969ae6c3db429903be0ba08535e29", "type": "electric_scooter", "lon": -76.97797433333334, "rental_uris": {"android": "https://dc.lft.to/lastmile_qr_scan", "ios": "https://dc.lft.to/lastmile_qr_scan"}, "lat": 38.9031515, "is_reserved": 0, "is_disabled": 0, "fusion_lat": 0.0}, {"fusion_lon": 0.0, "bike_id": "cf95e68a8f0d1af48679393daab94f90", "name": "cf95e68a8f0d1af48679393daab94f90", "type": "electric_scooter", "lon": -76.99630466666666, "rental_uris": {"android": "https://dc.lft.to/lastmile_qr_scan", "ios": "https://dc.lft.to/lastmile_qr_scan"}, "lat": 38.84619, "is_reserved": 0, "is_disabled": 0, "fusion_lat": 0.0}, {"fusion_lon": 0.0, "bike_id": "48ffd338f729e3ec739ccc1c1e32a5e1", "name": "48ffd338f729e3ec739ccc1c1e32a5e1", "type": "electric_scooter", "lon": -77.0505585, "rental_uris": {"android": "https://dc.lft.to/lastmile_qr_scan", "ios": "https://dc.lft.to/lastmile_qr_scan"}, "lat": 38.9006345, "is_reserved": 0, "is_disabled": 0, "fusion_lat": 0.0}, {"fusion_lon": 0.0, "bike_id": "16f6ec898faec5ed708a9851d4c1c529", "name": "16f6ec898faec5ed708a9851d4c1c529", "type": "electric_scooter", "lon": -77.01768066666666, "rental_uris": {"android": "https://dc.lft.to/lastmile_qr_scan", "ios": "https://dc.lft.to/lastmile_qr_scan"}, "lat": 38.92106733333333, "is_reserved": 0, "is_disabled": 0, "fusion_lat": 0.0}, {"fusion_lon": 0.0, "bike_id": "8205a31e73a49e3dc2906a122876f88a", "name": "8205a31e73a49e3dc2906a122876f88a", "type": "electric_scooter", "lon": -77.01202716666667, "rental_uris": {"android": "https://dc.lft.to/lastmile_qr_scan", "ios": "https://dc.lft.to/lastmile_qr_scan"}, "lat": 38.895289166666664, "is_reserved": 0, "is_disabled": 0, "fusion_lat": 0.0}, {"fusion_lon": 0.0, "bike_id": "54c575980699b9ea55bd37e286cc7a8e", "name": "54c575980699b9ea55bd37e286cc7a8e", "type": "electric_scooter", "lon": -77.03150516666666, "rental_uris": {"android": "https://dc.lft.to/lastmile_qr_scan", "ios": "https://dc.lft.to/lastmile_qr_scan"}, "lat": 38.928068333333336, "is_reserved": 0, "is_disabled": 0, "fusion_lat": 0.0}, {"fusion_lon": 0.0, "bike_id": "2c9077d2f3ba7f6ac838e9762ac57d00", "name": "2c9077d2f3ba7f6ac838e9762ac57d00", "type": "electric_scooter", "lon": -77.00606566666667, "rental_uris": {"android": "https://dc.lft.to/lastmile_qr_scan", "ios": "https://dc.lft.to/lastmile_qr_scan"}, "lat": 38.874843166666665, "is_reserved": 0, "is_disabled": 0, "fusion_lat": 0.0}, {"fusion_lon": 0.0, "bike_id": "8d31b88a1ef0ff71752340430582eb1e", "name": "8d31b88a1ef0ff71752340430582eb1e", "type": "electric_scooter", "lon": -77.02412583333333, "rental_uris": {"android": "https://dc.lft.to/lastmile_qr_scan", "ios": "https://dc.lft.to/lastmile_qr_scan"}, "lat": 38.9574155, "is_reserved": 0, "is_disabled": 0, "fusion_lat": 0.0}, {"fusion_lon": 0.0, "bike_id": "7ae623252067f60b2ab5fd6caed05163", "name": "7ae623252067f60b2ab5fd6caed05163", "type": "electric_scooter", "lon": -77.03121783333333, "rental_uris": {"android": "https://dc.lft.to/lastmile_qr_scan", "ios": "https://dc.lft.to/lastmile_qr_scan"}, "lat": 38.92014866666667, "is_reserved": 0, "is_disabled": 0, "fusion_lat": 0.0}, {"fusion_lon": 0.0, "bike_id": "0dddbf3462360ce6dbf515c8a90d5d5d", "name": "0dddbf3462360ce6dbf515c8a90d5d5d", "type": "electric_scooter", "lon": -77.0307435, "rental_uris": {"android": "https://dc.lft.to/lastmile_qr_scan", "ios": "https://dc.lft.to/lastmile_qr_scan"}, "lat": 38.922519, "is_reserved": 0, "is_disabled": 0, "fusion_lat": 0.0}, {"fusion_lon": 0.0, "bike_id": "70db7d384cb94eb02b3b1f9398057f90", "name": "70db7d384cb94eb02b3b1f9398057f90", "type": "electric_scooter", "lon": -76.97276716666667, "rental_uris": {"android": "https://dc.lft.to/lastmile_qr_scan", "ios": "https://dc.lft.to/lastmile_qr_scan"}, "lat": 38.93085933333333, "is_reserved": 0, "is_disabled": 0, "fusion_lat": 0.0}, {"fusion_lon": 0.0, "bike_id": "f8ce4822338168be44fe15f6b20fe426", "name": "f8ce4822338168be44fe15f6b20fe426", "type": "electric_scooter", "lon": -76.94154716666667, "rental_uris": {"android": "https://dc.lft.to/lastmile_qr_scan", "ios": "https://dc.lft.to/lastmile_qr_scan"}, "lat": 38.88363533333333, "is_reserved": 0, "is_disabled": 0, "fusion_lat": 0.0}, {"fusion_lon": 0.0, "bike_id": "4bf29b706e45a0e278073b380fc215d5", "name": "4bf29b706e45a0e278073b380fc215d5", "type": "electric_scooter", "lon": -77.00113683333333, "rental_uris": {"android": "https://dc.lft.to/lastmile_qr_scan", "ios": "https://dc.lft.to/lastmile_qr_scan"}, "lat": 38.91709866666667, "is_reserved": 0, "is_disabled": 0, "fusion_lat": 0.0}, {"fusion_lon": 0.0, "bike_id": "2ee0aa027137d41b2ae83ea49a3ae615", "name": "2ee0aa027137d41b2ae83ea49a3ae615", "type": "electric_bike", "lon": -77.0007055, "rental_uris": {"android": "https://dc.lft.to/lastmile_qr_scan", "ios": "https://dc.lft.to/lastmile_qr_scan"}, "lat": 38.876092166666666, "is_reserved": 0, "is_disabled": 0, "fusion_lat": 0.0}, {"fusion_lon": 0.0, "bike_id": "4313334d75a148e086dbb8144c364d5f", "name": "4313334d75a148e086dbb8144c364d5f", "type": "electric_scooter", "lon": -77.03464316666667, "rental_uris": {"android": "https://dc.lft.to/lastmile_qr_scan", "ios": "https://dc.lft.to/lastmile_qr_scan"}, "lat": 38.914922833333335, "is_reserved": 0, "is_disabled": 0, "fusion_lat": 0.0}, {"fusion_lon": 0.0, "bike_id": "5e0198fb69d5154fecb4a4aa69af1b90", "name": "5e0198fb69d5154fecb4a4aa69af1b90", "type": "electric_scooter", "lon": -77.02481966666667, "rental_uris": {"android": "https://dc.lft.to/lastmile_qr_scan", "ios": "https://dc.lft.to/lastmile_qr_scan"}, "lat": 38.8800675, "is_reserved": 0, "is_disabled": 0, "fusion_lat": 0.0}, {"fusion_lon": 0.0, "bike_id": "b87c84c2511fa25fa9c11b520b8d8889", "name": "b87c84c2511fa25fa9c11b520b8d8889", "type": "electric_scooter", "lon": -76.99015316666667, "rental_uris": {"android": "https://dc.lft.to/lastmile_qr_scan", "ios": "https://dc.lft.to/lastmile_qr_scan"}, "lat": 38.900323, "is_reserved": 0, "is_disabled": 0, "fusion_lat": 0.0}, {"fusion_lon": 0.0, "bike_id": "ccffc722d9776a121ccae0fa6471ad2b", "name": "ccffc722d9776a121ccae0fa6471ad2b", "type": "electric_scooter", "lon": -77.05414283333333, "rental_uris": {"android": "https://dc.lft.to/lastmile_qr_scan", "ios": "https://dc.lft.to/lastmile_qr_scan"}, "lat": 38.928245, "is_reserved": 0, "is_disabled": 0, "fusion_lat": 0.0}, {"fusion_lon": 0.0, "bike_id": "ce3c3a03843f3887515ac9063c056a36", "name": "ce3c3a03843f3887515ac9063c056a36", "type": "electric_scooter", "lon": -77.029825, "rental_uris": {"android": "https://dc.lft.to/lastmile_qr_scan", "ios": "https://dc.lft.to/lastmile_qr_scan"}, "lat": 38.9071665, "is_reserved": 0, "is_disabled": 0, "fusion_lat": 0.0}, {"fusion_lon": 0.0, "bike_id": "5a57518314d557ca63fb221b41d65174", "name": "5a57518314d557ca63fb221b41d65174", "type": "electric_bike", "lon": -77.00609233333333, "rental_uris": {"android": "https://dc.lft.to/lastmile_qr_scan", "ios": "https://dc.lft.to/lastmile_qr_scan"}, "lat": 38.898058666666664, "is_reserved": 0, "is_disabled": 0, "fusion_lat": 0.0}, {"fusion_lon": 0.0, "bike_id": "c6d661c7d8e2c9885b3ee628263beee6", "name": "c6d661c7d8e2c9885b3ee628263beee6", "type": "electric_scooter", "lon": -77.04176466666667, "rental_uris": {"android": "https://dc.lft.to/lastmile_qr_scan", "ios": "https://dc.lft.to/lastmile_qr_scan"}, "lat": 38.89885133333333, "is_reserved": 0, "is_disabled": 0, "fusion_lat": 0.0}, {"fusion_lon": 0.0, "bike_id": "5c0265d58d45c7d581fe7fa6e7331d62", "name": "5c0265d58d45c7d581fe7fa6e7331d62", "type": "electric_scooter", "lon": -77.02208683333333, "rental_uris": {"android": "https://dc.lft.to/lastmile_qr_scan", "ios": "https://dc.lft.to/lastmile_qr_scan"}, "lat": 38.8991195, "is_reserved": 0, "is_disabled": 0, "fusion_lat": 0.0}, {"fusion_lon": 0.0, "bike_id": "7f5252fc13651568eabb37197aadfae7", "name": "7f5252fc13651568eabb37197aadfae7", "type": "electric_scooter", "lon": -77.00704416666666, "rental_uris": {"android": "https://dc.lft.to/lastmile_qr_scan", "ios": "https://dc.lft.to/lastmile_qr_scan"}, "lat": 38.876593666666665, "is_reserved": 0, "is_disabled": 0, "fusion_lat": 0.0}, {"fusion_lon": 0.0, "bike_id": "44ed4f186b5b8f81d65ab80e90a33943", "name": "44ed4f186b5b8f81d65ab80e90a33943", "type": "electric_scooter", "lon": -77.05277516666666, "rental_uris": {"android": "https://dc.lft.to/lastmile_qr_scan", "ios": "https://dc.lft.to/lastmile_qr_scan"}, "lat": 38.922561333333334, "is_reserved": 0, "is_disabled": 0, "fusion_lat": 0.0}, {"fusion_lon": 0.0, "bike_id": "84d96244e9d6fb301363e384356a9731", "name": "84d96244e9d6fb301363e384356a9731", "type": "electric_scooter", "lon": -77.02164383333333, "rental_uris": {"android": "https://dc.lft.to/lastmile_qr_scan", "ios": "https://dc.lft.to/lastmile_qr_scan"}, "lat": 38.898925166666665, "is_reserved": 0, "is_disabled": 0, "fusion_lat": 0.0}, {"fusion_lon": 0.0, "bike_id": "40e7733bc8caab528b5b953982a8affc", "name": "40e7733bc8caab528b5b953982a8affc", "type": "electric_scooter", "lon": -77.03641716666667, "rental_uris": {"android": "https://dc.lft.to/lastmile_qr_scan", "ios": "https://dc.lft.to/lastmile_qr_scan"}, "lat": 38.92412933333333, "is_reserved": 0, "is_disabled": 0, "fusion_lat": 0.0}, {"fusion_lon": 0.0, "bike_id": "fa7238acdfe5c4b9a85ba88e0e9bb771", "name": "fa7238acdfe5c4b9a85ba88e0e9bb771", "type": "electric_scooter", "lon": -76.98729933333334, "rental_uris": {"android": "https://dc.lft.to/lastmile_qr_scan", "ios": "https://dc.lft.to/lastmile_qr_scan"}, "lat": 38.8670475, "is_reserved": 0, "is_disabled": 0, "fusion_lat": 0.0}, {"fusion_lon": 0.0, "bike_id": "188dbec77aeaa09145feffc902754264", "name": "188dbec77aeaa09145feffc902754264", "type": "electric_scooter", "lon": -77.04767833333334, "rental_uris": {"android": "https://dc.lft.to/lastmile_qr_scan", "ios": "https://dc.lft.to/lastmile_qr_scan"}, "lat": 38.908473666666666, "is_reserved": 0, "is_disabled": 0, "fusion_lat": 0.0}, {"fusion_lon": 0.0, "bike_id": "b61d9d1cd25f06801c21365aeeefd604", "name": "b61d9d1cd25f06801c21365aeeefd604", "type": "electric_scooter", "lon": -77.02660716666666, "rental_uris": {"android": "https://dc.lft.to/lastmile_qr_scan", "ios": "https://dc.lft.to/lastmile_qr_scan"}, "lat": 38.89604166666667, "is_reserved": 0, "is_disabled": 0, "fusion_lat": 0.0}, {"fusion_lon": 0.0, "bike_id": "4b78816cf38df17110238a29eda9b39a", "name": "4b78816cf38df17110238a29eda9b39a", "type": "electric_scooter", "lon": -77.04666966666667, "rental_uris": {"android": "https://dc.lft.to/lastmile_qr_scan", "ios": "https://dc.lft.to/lastmile_qr_scan"}, "lat": 38.910228833333335, "is_reserved": 0, "is_disabled": 0, "fusion_lat": 0.0}, {"fusion_lon": 0.0, "bike_id": "4dbe8a0d028ec9f7f9e4c36d8066e31c", "name": "4dbe8a0d028ec9f7f9e4c36d8066e31c", "type": "electric_scooter", "lon": -77.021476, "rental_uris": {"android": "https://dc.lft.to/lastmile_qr_scan", "ios": "https://dc.lft.to/lastmile_qr_scan"}, "lat": 38.92601883333333, "is_reserved": 0, "is_disabled": 0, "fusion_lat": 0.0}, {"fusion_lon": 0.0, "bike_id": "ede64e2d79cdc371c66d6e60fb619c5d", "name": "ede64e2d79cdc371c66d6e60fb619c5d", "type": "electric_bike", "lon": -77.0956305, "rental_uris": {"android": "https://dc.lft.to/lastmile_qr_scan", "ios": "https://dc.lft.to/lastmile_qr_scan"}, "lat": 38.91702883333333, "is_reserved": 0, "is_disabled": 0, "fusion_lat": 0.0}, {"fusion_lon": 0.0, "bike_id": "68d82dee03b4cfecbfd2924ccc4376fe", "name": "68d82dee03b4cfecbfd2924ccc4376fe", "type": "electric_scooter", "lon": -77.0321, "rental_uris": {"android": "https://dc.lft.to/lastmile_qr_scan", "ios": "https://dc.lft.to/lastmile_qr_scan"}, "lat": 38.925801, "is_reserved": 0, "is_disabled": 0, "fusion_lat": 0.0}, {"fusion_lon": 0.0, "bike_id": "d8a5bfea94941c41bdd0e863ed556c0e", "name": "d8a5bfea94941c41bdd0e863ed556c0e", "type": "electric_scooter", "lon": -76.98210116666667, "rental_uris": {"android": "https://dc.lft.to/lastmile_qr_scan", "ios": "https://dc.lft.to/lastmile_qr_scan"}, "lat": 38.886439, "is_reserved": 0, "is_disabled": 0, "fusion_lat": 0.0}, {"fusion_lon": 0.0, "bike_id": "c2eb5740dbc44b8f206f309466071947", "name": "c2eb5740dbc44b8f206f309466071947", "type": "electric_scooter", "lon": -77.0062015, "rental_uris": {"android": "https://dc.lft.to/lastmile_qr_scan", "ios": "https://dc.lft.to/lastmile_qr_scan"}, "lat": 38.871917833333335, "is_reserved": 0, "is_disabled": 0, "fusion_lat": 0.0}, {"fusion_lon": 0.0, "bike_id": "2d9fefb3db1ae70e15ded3697849d053", "name": "2d9fefb3db1ae70e15ded3697849d053", "type": "electric_scooter", "lon": -77.03535133333334, "rental_uris": {"android": "https://dc.lft.to/lastmile_qr_scan", "ios": "https://dc.lft.to/lastmile_qr_scan"}, "lat": 38.92467766666667, "is_reserved": 0, "is_disabled": 0, "fusion_lat": 0.0}, {"fusion_lon": 0.0, "bike_id": "44f321d5bc8a9d2e3c0242030841ba5f", "name": "44f321d5bc8a9d2e3c0242030841ba5f", "type": "electric_bike", "lon": -77.12503766666667, "rental_uris": {"android": "https://dc.lft.to/lastmile_qr_scan", "ios": "https://dc.lft.to/lastmile_qr_scan"}, "lat": 39.02418866666667, "is_reserved": 0, "is_disabled": 0, "fusion_lat": 0.0}, {"fusion_lon": 0.0, "bike_id": "a2a4c89637aa2efad572db50f305f2a1", "name": "a2a4c89637aa2efad572db50f305f2a1", "type": "electric_scooter", "lon": -77.01684916666666, "rental_uris": {"android": "https://dc.lft.to/lastmile_qr_scan", "ios": "https://dc.lft.to/lastmile_qr_scan"}, "lat": 38.904987, "is_reserved": 0, "is_disabled": 0, "fusion_lat": 0.0}, {"fusion_lon": 0.0, "bike_id": "a6b5501d623e55fed10f07e3a6d34ef2", "name": "a6b5501d623e55fed10f07e3a6d34ef2", "type": "electric_bike", "lon": -76.99567183333333, "rental_uris": {"android": "https://dc.lft.to/lastmile_qr_scan", "ios": "https://dc.lft.to/lastmile_qr_scan"}, "lat": 39.007858, "is_reserved": 0, "is_disabled": 0, "fusion_lat": 0.0}, {"fusion_lon": 0.0, "bike_id": "8b549049c39fd92f35066076c5d2e758", "name": "8b549049c39fd92f35066076c5d2e758", "type": "electric_scooter", "lon": -76.98708116666667, "rental_uris": {"android": "https://dc.lft.to/lastmile_qr_scan", "ios": "https://dc.lft.to/lastmile_qr_scan"}, "lat": 38.86694166666667, "is_reserved": 0, "is_disabled": 0, "fusion_lat": 0.0}, {"fusion_lon": 0.0, "bike_id": "8d3eb14df0eaf85b42305354d381dbb8", "name": "8d3eb14df0eaf85b42305354d381dbb8", "type": "electric_scooter", "lon": -77.05520266666667, "rental_uris": {"android": "https://dc.lft.to/lastmile_qr_scan", "ios": "https://dc.lft.to/lastmile_qr_scan"}, "lat": 38.89724433333333, "is_reserved": 0, "is_disabled": 0, "fusion_lat": 0.0}, {"fusion_lon": 0.0, "bike_id": "bbd4b92df3d35295cb168fd7e91c1b16", "name": "bbd4b92df3d35295cb168fd7e91c1b16", "type": "electric_scooter", "lon": -77.031808, "rental_uris": {"android": "https://dc.lft.to/lastmile_qr_scan", "ios": "https://dc.lft.to/lastmile_qr_scan"}, "lat": 38.9075725, "is_reserved": 0, "is_disabled": 0, "fusion_lat": 0.0}, {"fusion_lon": 0.0, "bike_id": "e6e9f72d5ca4a528b3242d5c0a397b31", "name": "e6e9f72d5ca4a528b3242d5c0a397b31", "type": "electric_scooter", "lon": -77.02990066666666, "rental_uris": {"android": "https://dc.lft.to/lastmile_qr_scan", "ios": "https://dc.lft.to/lastmile_qr_scan"}, "lat": 38.898762166666664, "is_reserved": 0, "is_disabled": 0, "fusion_lat": 0.0}, {"fusion_lon": 0.0, "bike_id": "0b818d92404db11ca2e5be549534ee4e", "name": "0b818d92404db11ca2e5be549534ee4e", "type": "electric_scooter", "lon": -76.98565583333334, "rental_uris": {"android": "https://dc.lft.to/lastmile_qr_scan", "ios": "https://dc.lft.to/lastmile_qr_scan"}, "lat": 38.85585416666667, "is_reserved": 0, "is_disabled": 0, "fusion_lat": 0.0}, {"fusion_lon": 0.0, "bike_id": "80b89614491e67394130a5b86db951d4", "name": "80b89614491e67394130a5b86db951d4", "type": "electric_scooter", "lon": -77.025369, "rental_uris": {"android": "https://dc.lft.to/lastmile_qr_scan", "ios": "https://dc.lft.to/lastmile_qr_scan"}, "lat": 38.90088216666667, "is_reserved": 0, "is_disabled": 0, "fusion_lat": 0.0}, {"fusion_lon": 0.0, "bike_id": "c9fef64d2866658073f71a7f3e1deeb4", "name": "c9fef64d2866658073f71a7f3e1deeb4", "type": "electric_scooter", "lon": -77.02931516666666, "rental_uris": {"android": "https://dc.lft.to/lastmile_qr_scan", "ios": "https://dc.lft.to/lastmile_qr_scan"}, "lat": 38.88218583333333, "is_reserved": 0, "is_disabled": 0, "fusion_lat": 0.0}, {"fusion_lon": 0.0, "bike_id": "b9c2b88d546a40a6f20e309d013e4d3d", "name": "b9c2b88d546a40a6f20e309d013e4d3d", "type": "electric_scooter", "lon": -77.00745933333333, "rental_uris": {"android": "https://dc.lft.to/lastmile_qr_scan", "ios": "https://dc.lft.to/lastmile_qr_scan"}, "lat": 38.911845166666666, "is_reserved": 0, "is_disabled": 0, "fusion_lat": 0.0}, {"fusion_lon": 0.0, "bike_id": "4e49c2a8896c7b8d5f7ba7f3d3e1f6a6", "name": "4e49c2a8896c7b8d5f7ba7f3d3e1f6a6", "type": "electric_scooter", "lon": -77.038524, "rental_uris": {"android": "https://dc.lft.to/lastmile_qr_scan", "ios": "https://dc.lft.to/lastmile_qr_scan"}, "lat": 38.9118045, "is_reserved": 0, "is_disabled": 0, "fusion_lat": 0.0}, {"fusion_lon": 0.0, "bike_id": "9ba75a986c529028c743e41cec6bb471", "name": "9ba75a986c529028c743e41cec6bb471", "type": "electric_scooter", "lon": -76.98458483333333, "rental_uris": {"android": "https://dc.lft.to/lastmile_qr_scan", "ios": "https://dc.lft.to/lastmile_qr_scan"}, "lat": 38.8801525, "is_reserved": 0, "is_disabled": 0, "fusion_lat": 0.0}, {"fusion_lon": 0.0, "bike_id": "efb9af7e3c0ad4e29941b5fadd397cac", "name": "efb9af7e3c0ad4e29941b5fadd397cac", "type": "electric_scooter", "lon": -77.05405466666667, "rental_uris": {"android": "https://dc.lft.to/lastmile_qr_scan", "ios": "https://dc.lft.to/lastmile_qr_scan"}, "lat": 38.86900633333333, "is_reserved": 0, "is_disabled": 0, "fusion_lat": 0.0}, {"fusion_lon": 0.0, "bike_id": "c287f8511f2c7b7a6c235f201d1fea42", "name": "c287f8511f2c7b7a6c235f201d1fea42", "type": "electric_scooter", "lon": -77.02580416666666, "rental_uris": {"android": "https://dc.lft.to/lastmile_qr_scan", "ios": "https://dc.lft.to/lastmile_qr_scan"}, "lat": 38.884815333333336, "is_reserved": 0, "is_disabled": 0, "fusion_lat": 0.0}, {"fusion_lon": 0.0, "bike_id": "dc1466af9fe6a8eb97be13096312dc08", "name": "dc1466af9fe6a8eb97be13096312dc08", "type": "electric_scooter", "lon": -77.0053585, "rental_uris": {"android": "https://dc.lft.to/lastmile_qr_scan", "ios": "https://dc.lft.to/lastmile_qr_scan"}, "lat": 38.8765785, "is_reserved": 0, "is_disabled": 0, "fusion_lat": 0.0}, {"fusion_lon": 0.0, "bike_id": "ce0e3c2819857c5fccdb39b1b8f6c47f", "name": "ce0e3c2819857c5fccdb39b1b8f6c47f", "type": "electric_scooter", "lon": -77.02491516666667, "rental_uris": {"android": "https://dc.lft.to/lastmile_qr_scan", "ios": "https://dc.lft.to/lastmile_qr_scan"}, "lat": 38.918061333333334, "is_reserved": 0, "is_disabled": 0, "fusion_lat": 0.0}, {"fusion_lon": 0.0, "bike_id": "c017716ddae123e3e7d3b5c50b24ee27", "name": "c017716ddae123e3e7d3b5c50b24ee27", "type": "electric_bike", "lon": -77.00862816666667, "rental_uris": {"android": "https://dc.lft.to/lastmile_qr_scan", "ios": "https://dc.lft.to/lastmile_qr_scan"}, "lat": 38.827266, "is_reserved": 0, "is_disabled": 0, "fusion_lat": 0.0}, {"fusion_lon": 0.0, "bike_id": "d38952df61425a7e5e723508b19adc60", "name": "d38952df61425a7e5e723508b19adc60", "type": "electric_scooter", "lon": -77.00932533333334, "rental_uris": {"android": "https://dc.lft.to/lastmile_qr_scan", "ios": "https://dc.lft.to/lastmile_qr_scan"}, "lat": 38.871974, "is_reserved": 0, "is_disabled": 0, "fusion_lat": 0.0}, {"fusion_lon": 0.0, "bike_id": "7362b20276e839ad1849e372b8f61d01", "name": "7362b20276e839ad1849e372b8f61d01", "type": "electric_scooter", "lon": -77.05327183333333, "rental_uris": {"android": "https://dc.lft.to/lastmile_qr_scan", "ios": "https://dc.lft.to/lastmile_qr_scan"}, "lat": 38.923123833333335, "is_reserved": 0, "is_disabled": 0, "fusion_lat": 0.0}, {"fusion_lon": 0.0, "bike_id": "e36ea6d83751633ab8760989c8aac294", "name": "e36ea6d83751633ab8760989c8aac294", "type": "electric_scooter", "lon": -77.04170133333334, "rental_uris": {"android": "https://dc.lft.to/lastmile_qr_scan", "ios": "https://dc.lft.to/lastmile_qr_scan"}, "lat": 38.916120666666664, "is_reserved": 0, "is_disabled": 0, "fusion_lat": 0.0}, {"fusion_lon": 0.0, "bike_id": "8e8962ef5980afb3129e97ba415e0f9e", "name": "8e8962ef5980afb3129e97ba415e0f9e", "type": "electric_scooter", "lon": -76.993665, "rental_uris": {"android": "https://dc.lft.to/lastmile_qr_scan", "ios": "https://dc.lft.to/lastmile_qr_scan"}, "lat": 38.923964, "is_reserved": 0, "is_disabled": 0, "fusion_lat": 0.0}, {"fusion_lon": 0.0, "bike_id": "0e4584dafc79d8968456a429a002cda7", "name": "0e4584dafc79d8968456a429a002cda7", "type": "electric_scooter", "lon": -77.04022716666667, "rental_uris": {"android": "https://dc.lft.to/lastmile_qr_scan", "ios": "https://dc.lft.to/lastmile_qr_scan"}, "lat": 38.918327833333336, "is_reserved": 0, "is_disabled": 0, "fusion_lat": 0.0}, {"fusion_lon": 0.0, "bike_id": "660e901fcfbd0144c6aaa9c3c59e11ff", "name": "660e901fcfbd0144c6aaa9c3c59e11ff", "type": "electric_scooter", "lon": -77.03790883333333, "rental_uris": {"android": "https://dc.lft.to/lastmile_qr_scan", "ios": "https://dc.lft.to/lastmile_qr_scan"}, "lat": 38.933254166666664, "is_reserved": 0, "is_disabled": 0, "fusion_lat": 0.0}, {"fusion_lon": 0.0, "bike_id": "90d3e98d960baf87fb6167557de6136a", "name": "90d3e98d960baf87fb6167557de6136a", "type": "electric_scooter", "lon": -76.99029033333333, "rental_uris": {"android": "https://dc.lft.to/lastmile_qr_scan", "ios": "https://dc.lft.to/lastmile_qr_scan"}, "lat": 38.928651, "is_reserved": 0, "is_disabled": 0, "fusion_lat": 0.0}, {"fusion_lon": 0.0, "bike_id": "c58a0913222f4d3ac6c2faf1c16c1ab3", "name": "c58a0913222f4d3ac6c2faf1c16c1ab3", "type": "electric_scooter", "lon": -77.00384033333333, "rental_uris": {"android": "https://dc.lft.to/lastmile_qr_scan", "ios": "https://dc.lft.to/lastmile_qr_scan"}, "lat": 38.87662233333333, "is_reserved": 0, "is_disabled": 0, "fusion_lat": 0.0}, {"fusion_lon": 0.0, "bike_id": "4f31a28d25f0318d8ca9e2deef75dda9", "name": "4f31a28d25f0318d8ca9e2deef75dda9", "type": "electric_scooter", "lon": -77.0710035, "rental_uris": {"android": "https://dc.lft.to/lastmile_qr_scan", "ios": "https://dc.lft.to/lastmile_qr_scan"}, "lat": 38.919728, "is_reserved": 0, "is_disabled": 0, "fusion_lat": 0.0}, {"fusion_lon": 0.0, "bike_id": "58a7de1dc448e217ae2a4fc9298ec2fb", "name": "58a7de1dc448e217ae2a4fc9298ec2fb", "type": "electric_scooter", "lon": -77.03210783333333, "rental_uris": {"android": "https://dc.lft.to/lastmile_qr_scan", "ios": "https://dc.lft.to/lastmile_qr_scan"}, "lat": 38.93610966666667, "is_reserved": 0, "is_disabled": 0, "fusion_lat": 0.0}, {"fusion_lon": 0.0, "bike_id": "64d1c8087df21d2c3b6b399ce66405d3", "name": "64d1c8087df21d2c3b6b399ce66405d3", "type": "electric_scooter", "lon": -77.02169766666667, "rental_uris": {"android": "https://dc.lft.to/lastmile_qr_scan", "ios": "https://dc.lft.to/lastmile_qr_scan"}, "lat": 38.89482183333333, "is_reserved": 0, "is_disabled": 0, "fusion_lat": 0.0}, {"fusion_lon": 0.0, "bike_id": "6bc3990b96ccb3769661ab845b563342", "name": "6bc3990b96ccb3769661ab845b563342", "type": "electric_scooter", "lon": -77.04677366666667, "rental_uris": {"android": "https://dc.lft.to/lastmile_qr_scan", "ios": "https://dc.lft.to/lastmile_qr_scan"}, "lat": 38.9072175, "is_reserved": 0, "is_disabled": 0, "fusion_lat": 0.0}, {"fusion_lon": 0.0, "bike_id": "5770ffe2fae376d884a01a2b4d53c26b", "name": "5770ffe2fae376d884a01a2b4d53c26b", "type": "electric_bike", "lon": -76.94620533333334, "rental_uris": {"android": "https://dc.lft.to/lastmile_qr_scan", "ios": "https://dc.lft.to/lastmile_qr_scan"}, "lat": 38.8323095, "is_reserved": 0, "is_disabled": 0, "fusion_lat": 0.0}, {"fusion_lon": 0.0, "bike_id": "aef02ef75e6aa1eb3efc132e093467e2", "name": "aef02ef75e6aa1eb3efc132e093467e2", "type": "electric_scooter", "lon": -76.99167333333334, "rental_uris": {"android": "https://dc.lft.to/lastmile_qr_scan", "ios": "https://dc.lft.to/lastmile_qr_scan"}, "lat": 38.897726666666664, "is_reserved": 0, "is_disabled": 0, "fusion_lat": 0.0}, {"fusion_lon": 0.0, "bike_id": "fac3e81ea445bc2114227036ac93a2dc", "name": "fac3e81ea445bc2114227036ac93a2dc", "type": "electric_scooter", "lon": -77.02376866666667, "rental_uris": {"android": "https://dc.lft.to/lastmile_qr_scan", "ios": "https://dc.lft.to/lastmile_qr_scan"}, "lat": 38.902019833333334, "is_reserved": 0, "is_disabled": 0, "fusion_lat": 0.0}, {"fusion_lon": 0.0, "bike_id": "bc78d7fe6b23c0e6db36cfa2d9cf3a5d", "name": "bc78d7fe6b23c0e6db36cfa2d9cf3a5d", "type": "electric_scooter", "lon": -76.99083983333334, "rental_uris": {"android": "https://dc.lft.to/lastmile_qr_scan", "ios": "https://dc.lft.to/lastmile_qr_scan"}, "lat": 38.862357833333334, "is_reserved": 0, "is_disabled": 0, "fusion_lat": 0.0}, {"fusion_lon": 0.0, "bike_id": "c425ac4f1b4bd758deafdce8648f25a7", "name": "c425ac4f1b4bd758deafdce8648f25a7", "type": "electric_scooter", "lon": -77.02812416666667, "rental_uris": {"android": "https://dc.lft.to/lastmile_qr_scan", "ios": "https://dc.lft.to/lastmile_qr_scan"}, "lat": 38.91417466666667, "is_reserved": 0, "is_disabled": 0, "fusion_lat": 0.0}, {"fusion_lon": 0.0, "bike_id": "1d8db92829ea19b326a9774311f3fb1c", "name": "1d8db92829ea19b326a9774311f3fb1c", "type": "electric_scooter", "lon": -77.02487816666667, "rental_uris": {"android": "https://dc.lft.to/lastmile_qr_scan", "ios": "https://dc.lft.to/lastmile_qr_scan"}, "lat": 38.932840666666664, "is_reserved": 0, "is_disabled": 0, "fusion_lat": 0.0}, {"fusion_lon": 0.0, "bike_id": "2b71f7b9b1853ce0fe496d0e342eb320", "name": "2b71f7b9b1853ce0fe496d0e342eb320", "type": "electric_scooter", "lon": -76.94959033333333, "rental_uris": {"android": "https://dc.lft.to/lastmile_qr_scan", "ios": "https://dc.lft.to/lastmile_qr_scan"}, "lat": 38.8943755, "is_reserved": 0, "is_disabled": 0, "fusion_lat": 0.0}, {"fusion_lon": 0.0, "bike_id": "00ff3bd095f322f5ee3d65f797ae5616", "name": "00ff3bd095f322f5ee3d65f797ae5616", "type": "electric_scooter", "lon": -77.00934816666667, "rental_uris": {"android": "https://dc.lft.to/lastmile_qr_scan", "ios": "https://dc.lft.to/lastmile_qr_scan"}, "lat": 38.87661833333333, "is_reserved": 0, "is_disabled": 0, "fusion_lat": 0.0}, {"fusion_lon": 0.0, "bike_id": "1b75d239870e296e99d85155b0d34c92", "name": "1b75d239870e296e99d85155b0d34c92", "type": "electric_scooter", "lon": -77.06001666666667, "rental_uris": {"android": "https://dc.lft.to/lastmile_qr_scan", "ios": "https://dc.lft.to/lastmile_qr_scan"}, "lat": 38.905219333333335, "is_reserved": 0, "is_disabled": 0, "fusion_lat": 0.0}, {"fusion_lon": 0.0, "bike_id": "57ca5993ab9614cf0734464e30eaf6c1", "name": "57ca5993ab9614cf0734464e30eaf6c1", "type": "electric_scooter", "lon": -77.023219, "rental_uris": {"android": "https://dc.lft.to/lastmile_qr_scan", "ios": "https://dc.lft.to/lastmile_qr_scan"}, "lat": 38.909218833333334, "is_reserved": 0, "is_disabled": 0, "fusion_lat": 0.0}, {"fusion_lon": 0.0, "bike_id": "0f7f2ceee5f02d04900cd448cdafdbcb", "name": "0f7f2ceee5f02d04900cd448cdafdbcb", "type": "electric_scooter", "lon": -77.03634316666667, "rental_uris": {"android": "https://dc.lft.to/lastmile_qr_scan", "ios": "https://dc.lft.to/lastmile_qr_scan"}, "lat": 38.91625283333333, "is_reserved": 0, "is_disabled": 0, "fusion_lat": 0.0}, {"fusion_lon": 0.0, "bike_id": "16adb89e1851e5ea922a771cb773318e", "name": "16adb89e1851e5ea922a771cb773318e", "type": "electric_scooter", "lon": -77.03440883333333, "rental_uris": {"android": "https://dc.lft.to/lastmile_qr_scan", "ios": "https://dc.lft.to/lastmile_qr_scan"}, "lat": 38.928615, "is_reserved": 0, "is_disabled": 0, "fusion_lat": 0.0}, {"fusion_lon": 0.0, "bike_id": "947c454689612476baa69ffa18c2b9ba", "name": "947c454689612476baa69ffa18c2b9ba", "type": "electric_scooter", "lon": -76.97001166666666, "rental_uris": {"android": "https://dc.lft.to/lastmile_qr_scan", "ios": "https://dc.lft.to/lastmile_qr_scan"}, "lat": 38.87371383333333, "is_reserved": 0, "is_disabled": 0, "fusion_lat": 0.0}, {"fusion_lon": 0.0, "bike_id": "c2d6206c63074ca7c5560d90073cf7c7", "name": "c2d6206c63074ca7c5560d90073cf7c7", "type": "electric_scooter", "lon": -77.08018516666667, "rental_uris": {"android": "https://dc.lft.to/lastmile_qr_scan", "ios": "https://dc.lft.to/lastmile_qr_scan"}, "lat": 38.948519166666664, "is_reserved": 0, "is_disabled": 0, "fusion_lat": 0.0}, {"fusion_lon": 0.0, "bike_id": "9d9509449f92bb9c96db0161bf0fcdc0", "name": "9d9509449f92bb9c96db0161bf0fcdc0", "type": "electric_scooter", "lon": -77.03353683333333, "rental_uris": {"android": "https://dc.lft.to/lastmile_qr_scan", "ios": "https://dc.lft.to/lastmile_qr_scan"}, "lat": 38.92747633333333, "is_reserved": 0, "is_disabled": 0, "fusion_lat": 0.0}, {"fusion_lon": 0.0, "bike_id": "1286ed5e3d9b734b9017106edaa499d0", "name": "1286ed5e3d9b734b9017106edaa499d0", "type": "electric_bike", "lon": -77.089536, "rental_uris": {"android": "https://dc.lft.to/lastmile_qr_scan", "ios": "https://dc.lft.to/lastmile_qr_scan"}, "lat": 38.842276166666664, "is_reserved": 0, "is_disabled": 0, "fusion_lat": 0.0}, {"fusion_lon": 0.0, "bike_id": "fd66f5b2663750db9e88e182a25f7b64", "name": "fd66f5b2663750db9e88e182a25f7b64", "type": "electric_scooter", "lon": -76.98728983333334, "rental_uris": {"android": "https://dc.lft.to/lastmile_qr_scan", "ios": "https://dc.lft.to/lastmile_qr_scan"}, "lat": 38.867087166666664, "is_reserved": 0, "is_disabled": 0, "fusion_lat": 0.0}, {"fusion_lon": 0.0, "bike_id": "a6ec70166a24a5c332ad11225d0a6db6", "name": "a6ec70166a24a5c332ad11225d0a6db6", "type": "electric_scooter", "lon": -77.017051, "rental_uris": {"android": "https://dc.lft.to/lastmile_qr_scan", "ios": "https://dc.lft.to/lastmile_qr_scan"}, "lat": 38.90726733333333, "is_reserved": 0, "is_disabled": 0, "fusion_lat": 0.0}, {"fusion_lon": 0.0, "bike_id": "86732170a0a33ebac344a5c1b61c3eba", "name": "86732170a0a33ebac344a5c1b61c3eba", "type": "electric_scooter", "lon": -77.0430935, "rental_uris": {"android": "https://dc.lft.to/lastmile_qr_scan", "ios": "https://dc.lft.to/lastmile_qr_scan"}, "lat": 38.92332666666667, "is_reserved": 0, "is_disabled": 0, "fusion_lat": 0.0}, {"fusion_lon": 0.0, "bike_id": "d99d4b9ee3bdad6df3dc13c52952918b", "name": "d99d4b9ee3bdad6df3dc13c52952918b", "type": "electric_scooter", "lon": -77.03296383333333, "rental_uris": {"android": "https://dc.lft.to/lastmile_qr_scan", "ios": "https://dc.lft.to/lastmile_qr_scan"}, "lat": 38.9285425, "is_reserved": 0, "is_disabled": 0, "fusion_lat": 0.0}, {"fusion_lon": 0.0, "bike_id": "e0aa2cd3bfb7b3dcab95ef656592a191", "name": "e0aa2cd3bfb7b3dcab95ef656592a191", "type": "electric_scooter", "lon": -77.0256585, "rental_uris": {"android": "https://dc.lft.to/lastmile_qr_scan", "ios": "https://dc.lft.to/lastmile_qr_scan"}, "lat": 38.90369833333333, "is_reserved": 0, "is_disabled": 0, "fusion_lat": 0.0}, {"fusion_lon": 0.0, "bike_id": "dd9db031290d830fee4a3d3a3dac8342", "name": "dd9db031290d830fee4a3d3a3dac8342", "type": "electric_scooter", "lon": -77.032752, "rental_uris": {"android": "https://dc.lft.to/lastmile_qr_scan", "ios": "https://dc.lft.to/lastmile_qr_scan"}, "lat": 38.9324775, "is_reserved": 0, "is_disabled": 0, "fusion_lat": 0.0}, {"fusion_lon": 0.0, "bike_id": "704df74049c217c76e556d3558f392f5", "name": "704df74049c217c76e556d3558f392f5", "type": "electric_scooter", "lon": -77.05928483333334, "rental_uris": {"android": "https://dc.lft.to/lastmile_qr_scan", "ios": "https://dc.lft.to/lastmile_qr_scan"}, "lat": 38.936627333333334, "is_reserved": 0, "is_disabled": 0, "fusion_lat": 0.0}, {"fusion_lon": 0.0, "bike_id": "1592af7d1aa703051c4597f31f10dd10", "name": "1592af7d1aa703051c4597f31f10dd10", "type": "electric_scooter", "lon": -77.02482383333333, "rental_uris": {"android": "https://dc.lft.to/lastmile_qr_scan", "ios": "https://dc.lft.to/lastmile_qr_scan"}, "lat": 38.939128333333336, "is_reserved": 0, "is_disabled": 0, "fusion_lat": 0.0}, {"fusion_lon": 0.0, "bike_id": "164c87afb655a373a8326a31c23cd501", "name": "164c87afb655a373a8326a31c23cd501", "type": "electric_bike", "lon": -77.18296166666667, "rental_uris": {"android": "https://dc.lft.to/lastmile_qr_scan", "ios": "https://dc.lft.to/lastmile_qr_scan"}, "lat": 38.88343233333333, "is_reserved": 0, "is_disabled": 0, "fusion_lat": 0.0}, {"fusion_lon": 0.0, "bike_id": "d59b582b0f791ce840bed86455b4a022", "name": "d59b582b0f791ce840bed86455b4a022", "type": "electric_scooter", "lon": -76.990227, "rental_uris": {"android": "https://dc.lft.to/lastmile_qr_scan", "ios": "https://dc.lft.to/lastmile_qr_scan"}, "lat": 38.85866016666667, "is_reserved": 0, "is_disabled": 0, "fusion_lat": 0.0}, {"fusion_lon": 0.0, "bike_id": "30f8d51526c6f40920236969c9e41b1a", "name": "30f8d51526c6f40920236969c9e41b1a", "type": "electric_scooter", "lon": -77.04814633333334, "rental_uris": {"android": "https://dc.lft.to/lastmile_qr_scan", "ios": "https://dc.lft.to/lastmile_qr_scan"}, "lat": 38.92034066666667, "is_reserved": 0, "is_disabled": 0, "fusion_lat": 0.0}, {"fusion_lon": 0.0, "bike_id": "5695bb3b2ea604fbe45fe83838894260", "name": "5695bb3b2ea604fbe45fe83838894260", "type": "electric_scooter", "lon": -77.03011433333333, "rental_uris": {"android": "https://dc.lft.to/lastmile_qr_scan", "ios": "https://dc.lft.to/lastmile_qr_scan"}, "lat": 38.89601433333333, "is_reserved": 0, "is_disabled": 0, "fusion_lat": 0.0}, {"fusion_lon": 0.0, "bike_id": "34eedfb4dbbcdbbdef447f7f46d11439", "name": "34eedfb4dbbcdbbdef447f7f46d11439", "type": "electric_scooter", "lon": -77.0277605, "rental_uris": {"android": "https://dc.lft.to/lastmile_qr_scan", "ios": "https://dc.lft.to/lastmile_qr_scan"}, "lat": 38.89214283333333, "is_reserved": 0, "is_disabled": 0, "fusion_lat": 0.0}, {"fusion_lon": 0.0, "bike_id": "80827556f9ac0b6318a7c048fc108635", "name": "80827556f9ac0b6318a7c048fc108635", "type": "electric_scooter", "lon": -76.9808535, "rental_uris": {"android": "https://dc.lft.to/lastmile_qr_scan", "ios": "https://dc.lft.to/lastmile_qr_scan"}, "lat": 38.85715366666667, "is_reserved": 0, "is_disabled": 0, "fusion_lat": 0.0}, {"fusion_lon": 0.0, "bike_id": "46b6f5655e9c79fd39eaf9642712dade", "name": "46b6f5655e9c79fd39eaf9642712dade", "type": "electric_scooter", "lon": -77.00063666666667, "rental_uris": {"android": "https://dc.lft.to/lastmile_qr_scan", "ios": "https://dc.lft.to/lastmile_qr_scan"}, "lat": 38.89290716666667, "is_reserved": 0, "is_disabled": 0, "fusion_lat": 0.0}, {"fusion_lon": 0.0, "bike_id": "f0c8dbc54b223be479ba5e4480d7b09f", "name": "f0c8dbc54b223be479ba5e4480d7b09f", "type": "electric_scooter", "lon": -77.035607, "rental_uris": {"android": "https://dc.lft.to/lastmile_qr_scan", "ios": "https://dc.lft.to/lastmile_qr_scan"}, "lat": 38.909531, "is_reserved": 0, "is_disabled": 0, "fusion_lat": 0.0}, {"fusion_lon": 0.0, "bike_id": "e26face07cd408c883b799f38d23e1a7", "name": "e26face07cd408c883b799f38d23e1a7", "type": "electric_scooter", "lon": -77.04077633333333, "rental_uris": {"android": "https://dc.lft.to/lastmile_qr_scan", "ios": "https://dc.lft.to/lastmile_qr_scan"}, "lat": 38.9050045, "is_reserved": 0, "is_disabled": 0, "fusion_lat": 0.0}, {"fusion_lon": 0.0, "bike_id": "b02293c8e002298ff49aef1ddd8e2dc7", "name": "b02293c8e002298ff49aef1ddd8e2dc7", "type": "electric_scooter", "lon": -77.07289666666667, "rental_uris": {"android": "https://dc.lft.to/lastmile_qr_scan", "ios": "https://dc.lft.to/lastmile_qr_scan"}, "lat": 38.931916, "is_reserved": 0, "is_disabled": 0, "fusion_lat": 0.0}, {"fusion_lon": 0.0, "bike_id": "19dfd887f9d42a812a6b40d48e499e69", "name": "19dfd887f9d42a812a6b40d48e499e69", "type": "electric_scooter", "lon": -77.02959633333333, "rental_uris": {"android": "https://dc.lft.to/lastmile_qr_scan", "ios": "https://dc.lft.to/lastmile_qr_scan"}, "lat": 38.921383166666665, "is_reserved": 0, "is_disabled": 0, "fusion_lat": 0.0}, {"fusion_lon": 0.0, "bike_id": "90fb514ac397241f69bd2e61e89d961f", "name": "90fb514ac397241f69bd2e61e89d961f", "type": "electric_scooter", "lon": -77.05800383333333, "rental_uris": {"android": "https://dc.lft.to/lastmile_qr_scan", "ios": "https://dc.lft.to/lastmile_qr_scan"}, "lat": 38.9028915, "is_reserved": 0, "is_disabled": 0, "fusion_lat": 0.0}, {"fusion_lon": 0.0, "bike_id": "ba7048ec00c78c93714f7bad08a406b0", "name": "ba7048ec00c78c93714f7bad08a406b0", "type": "electric_scooter", "lon": -77.04488266666667, "rental_uris": {"android": "https://dc.lft.to/lastmile_qr_scan", "ios": "https://dc.lft.to/lastmile_qr_scan"}, "lat": 38.89740666666667, "is_reserved": 0, "is_disabled": 0, "fusion_lat": 0.0}, {"fusion_lon": 0.0, "bike_id": "9a53bc527dc174488aac05cb97d67932", "name": "9a53bc527dc174488aac05cb97d67932", "type": "electric_scooter", "lon": -77.0281745, "rental_uris": {"android": "https://dc.lft.to/lastmile_qr_scan", "ios": "https://dc.lft.to/lastmile_qr_scan"}, "lat": 38.932128166666665, "is_reserved": 0, "is_disabled": 0, "fusion_lat": 0.0}, {"fusion_lon": 0.0, "bike_id": "8db784729cbc18d528a48a52888cd64f", "name": "8db784729cbc18d528a48a52888cd64f", "type": "electric_scooter", "lon": -77.0355335, "rental_uris": {"android": "https://dc.lft.to/lastmile_qr_scan", "ios": "https://dc.lft.to/lastmile_qr_scan"}, "lat": 38.91705683333333, "is_reserved": 0, "is_disabled": 0, "fusion_lat": 0.0}, {"fusion_lon": 0.0, "bike_id": "8eb109ecddf1d414685ffa8ebb57fc88", "name": "8eb109ecddf1d414685ffa8ebb57fc88", "type": "electric_scooter", "lon": -76.99492533333333, "rental_uris": {"android": "https://dc.lft.to/lastmile_qr_scan", "ios": "https://dc.lft.to/lastmile_qr_scan"}, "lat": 38.92580233333333, "is_reserved": 0, "is_disabled": 0, "fusion_lat": 0.0}, {"fusion_lon": 0.0, "bike_id": "2913414b2d8677b92e7a2597d64abf82", "name": "2913414b2d8677b92e7a2597d64abf82", "type": "electric_scooter", "lon": -77.0249505, "rental_uris": {"android": "https://dc.lft.to/lastmile_qr_scan", "ios": "https://dc.lft.to/lastmile_qr_scan"}, "lat": 38.94182833333333, "is_reserved": 0, "is_disabled": 0, "fusion_lat": 0.0}, {"fusion_lon": 0.0, "bike_id": "a689a0d8a2cb928fd74326c987567d61", "name": "a689a0d8a2cb928fd74326c987567d61", "type": "electric_scooter", "lon": -77.0585265, "rental_uris": {"android": "https://dc.lft.to/lastmile_qr_scan", "ios": "https://dc.lft.to/lastmile_qr_scan"}, "lat": 38.936983, "is_reserved": 0, "is_disabled": 0, "fusion_lat": 0.0}, {"fusion_lon": 0.0, "bike_id": "73f1894c85e11e642e30b0b1f8ce07ee", "name": "73f1894c85e11e642e30b0b1f8ce07ee", "type": "electric_scooter", "lon": -77.04825833333334, "rental_uris": {"android": "https://dc.lft.to/lastmile_qr_scan", "ios": "https://dc.lft.to/lastmile_qr_scan"}, "lat": 38.91614083333333, "is_reserved": 0, "is_disabled": 0, "fusion_lat": 0.0}, {"fusion_lon": 0.0, "bike_id": "9a6572d1f8d0a69e1c695aaf3832c619", "name": "9a6572d1f8d0a69e1c695aaf3832c619", "type": "electric_scooter", "lon": -76.98022833333333, "rental_uris": {"android": "https://dc.lft.to/lastmile_qr_scan", "ios": "https://dc.lft.to/lastmile_qr_scan"}, "lat": 38.86400866666666, "is_reserved": 0, "is_disabled": 0, "fusion_lat": 0.0}, {"fusion_lon": 0.0, "bike_id": "0f2624ac06713a01ff34c5c027ad4913", "name": "0f2624ac06713a01ff34c5c027ad4913", "type": "electric_scooter", "lon": -77.05111233333334, "rental_uris": {"android": "https://dc.lft.to/lastmile_qr_scan", "ios": "https://dc.lft.to/lastmile_qr_scan"}, "lat": 38.9236005, "is_reserved": 0, "is_disabled": 0, "fusion_lat": 0.0}, {"fusion_lon": 0.0, "bike_id": "cae53bae30a09cde17f7fa2a2541d5b6", "name": "cae53bae30a09cde17f7fa2a2541d5b6", "type": "electric_scooter", "lon": -77.03398383333334, "rental_uris": {"android": "https://dc.lft.to/lastmile_qr_scan", "ios": "https://dc.lft.to/lastmile_qr_scan"}, "lat": 38.92040466666667, "is_reserved": 0, "is_disabled": 0, "fusion_lat": 0.0}, {"fusion_lon": 0.0, "bike_id": "4157d83e0fddef9f8b7b78ccb028c6a6", "name": "4157d83e0fddef9f8b7b78ccb028c6a6", "type": "electric_scooter", "lon": -77.02476583333333, "rental_uris": {"android": "https://dc.lft.to/lastmile_qr_scan", "ios": "https://dc.lft.to/lastmile_qr_scan"}, "lat": 38.938411, "is_reserved": 0, "is_disabled": 0, "fusion_lat": 0.0}, {"fusion_lon": 0.0, "bike_id": "8448e47f01f5a2a13ddb8998386a72d5", "name": "8448e47f01f5a2a13ddb8998386a72d5", "type": "electric_bike", "lon": -77.07797316666667, "rental_uris": {"android": "https://dc.lft.to/lastmile_qr_scan", "ios": "https://dc.lft.to/lastmile_qr_scan"}, "lat": 38.84514333333333, "is_reserved": 0, "is_disabled": 0, "fusion_lat": 0.0}, {"fusion_lon": 0.0, "bike_id": "1713f40cea008c41171515dcdfe013e5", "name": "1713f40cea008c41171515dcdfe013e5", "type": "electric_scooter", "lon": -77.0247255, "rental_uris": {"android": "https://dc.lft.to/lastmile_qr_scan", "ios": "https://dc.lft.to/lastmile_qr_scan"}, "lat": 38.93772633333333, "is_reserved": 0, "is_disabled": 0, "fusion_lat": 0.0}, {"fusion_lon": 0.0, "bike_id": "2263a0d2fd5f42df00a8a6a045feea7b", "name": "2263a0d2fd5f42df00a8a6a045feea7b", "type": "electric_scooter", "lon": -76.98769083333333, "rental_uris": {"android": "https://dc.lft.to/lastmile_qr_scan", "ios": "https://dc.lft.to/lastmile_qr_scan"}, "lat": 38.912007833333334, "is_reserved": 0, "is_disabled": 0, "fusion_lat": 0.0}, {"fusion_lon": 0.0, "bike_id": "4475c16b5f1a68a86499fa000e23edcd", "name": "4475c16b5f1a68a86499fa000e23edcd", "type": "electric_scooter", "lon": -77.02721733333334, "rental_uris": {"android": "https://dc.lft.to/lastmile_qr_scan", "ios": "https://dc.lft.to/lastmile_qr_scan"}, "lat": 38.92479983333333, "is_reserved": 0, "is_disabled": 0, "fusion_lat": 0.0}, {"fusion_lon": 0.0, "bike_id": "21ce551c4849592184ef234ab1deb13b", "name": "21ce551c4849592184ef234ab1deb13b", "type": "electric_bike", "lon": -77.16225683333333, "rental_uris": {"android": "https://dc.lft.to/lastmile_qr_scan", "ios": "https://dc.lft.to/lastmile_qr_scan"}, "lat": 38.88665966666667, "is_reserved": 0, "is_disabled": 0, "fusion_lat": 0.0}, {"fusion_lon": 0.0, "bike_id": "e5bfdfb881d6964c67ad0ac47e363a31", "name": "e5bfdfb881d6964c67ad0ac47e363a31", "type": "electric_scooter", "lon": -77.025664, "rental_uris": {"android": "https://dc.lft.to/lastmile_qr_scan", "ios": "https://dc.lft.to/lastmile_qr_scan"}, "lat": 38.90368633333333, "is_reserved": 0, "is_disabled": 0, "fusion_lat": 0.0}, {"fusion_lon": 0.0, "bike_id": "68e52e932e648851ce94ea59e6f5bf08", "name": "68e52e932e648851ce94ea59e6f5bf08", "type": "electric_scooter", "lon": -76.94117283333334, "rental_uris": {"android": "https://dc.lft.to/lastmile_qr_scan", "ios": "https://dc.lft.to/lastmile_qr_scan"}, "lat": 38.907882666666666, "is_reserved": 0, "is_disabled": 0, "fusion_lat": 0.0}, {"fusion_lon": 0.0, "bike_id": "19ab90f189209fd53c6e25d6295ee48a", "name": "19ab90f189209fd53c6e25d6295ee48a", "type": "electric_scooter", "lon": -77.01261566666666, "rental_uris": {"android": "https://dc.lft.to/lastmile_qr_scan", "ios": "https://dc.lft.to/lastmile_qr_scan"}, "lat": 38.874840166666665, "is_reserved": 0, "is_disabled": 0, "fusion_lat": 0.0}, {"fusion_lon": 0.0, "bike_id": "6a3e89cfdb79585c7c15c03cdae53b0f", "name": "6a3e89cfdb79585c7c15c03cdae53b0f", "type": "electric_scooter", "lon": -77.0635235, "rental_uris": {"android": "https://dc.lft.to/lastmile_qr_scan", "ios": "https://dc.lft.to/lastmile_qr_scan"}, "lat": 38.94450033333333, "is_reserved": 0, "is_disabled": 0, "fusion_lat": 0.0}, {"fusion_lon": 0.0, "bike_id": "aca69b0701b509d0980e0bde0ca667b9", "name": "aca69b0701b509d0980e0bde0ca667b9", "type": "electric_scooter", "lon": -77.01528933333333, "rental_uris": {"android": "https://dc.lft.to/lastmile_qr_scan", "ios": "https://dc.lft.to/lastmile_qr_scan"}, "lat": 38.884846833333334, "is_reserved": 0, "is_disabled": 0, "fusion_lat": 0.0}, {"fusion_lon": 0.0, "bike_id": "a3a418a25ac98593fea7e33b05dadf63", "name": "a3a418a25ac98593fea7e33b05dadf63", "type": "electric_scooter", "lon": -77.00759016666666, "rental_uris": {"android": "https://dc.lft.to/lastmile_qr_scan", "ios": "https://dc.lft.to/lastmile_qr_scan"}, "lat": 38.90039866666667, "is_reserved": 0, "is_disabled": 0, "fusion_lat": 0.0}, {"fusion_lon": 0.0, "bike_id": "d0d09968121c4489171818e1f0c1b6f0", "name": "d0d09968121c4489171818e1f0c1b6f0", "type": "electric_scooter", "lon": -77.02189633333333, "rental_uris": {"android": "https://dc.lft.to/lastmile_qr_scan", "ios": "https://dc.lft.to/lastmile_qr_scan"}, "lat": 38.90508333333333, "is_reserved": 0, "is_disabled": 0, "fusion_lat": 0.0}, {"fusion_lon": 0.0, "bike_id": "6cf8beb1fab7ebf3ea7716f2881ec3ce", "name": "6cf8beb1fab7ebf3ea7716f2881ec3ce", "type": "electric_scooter", "lon": -77.00481533333334, "rental_uris": {"android": "https://dc.lft.to/lastmile_qr_scan", "ios": "https://dc.lft.to/lastmile_qr_scan"}, "lat": 38.925909, "is_reserved": 0, "is_disabled": 0, "fusion_lat": 0.0}, {"fusion_lon": 0.0, "bike_id": "d4a0c1473c5f4486c0b54ea22879e79a", "name": "d4a0c1473c5f4486c0b54ea22879e79a", "type": "electric_scooter", "lon": -76.9868935, "rental_uris": {"android": "https://dc.lft.to/lastmile_qr_scan", "ios": "https://dc.lft.to/lastmile_qr_scan"}, "lat": 38.85562916666667, "is_reserved": 0, "is_disabled": 0, "fusion_lat": 0.0}, {"fusion_lon": 0.0, "bike_id": "7940723c029e86d645e79401ea2e1488", "name": "7940723c029e86d645e79401ea2e1488", "type": "electric_scooter", "lon": -77.0462255, "rental_uris": {"android": "https://dc.lft.to/lastmile_qr_scan", "ios": "https://dc.lft.to/lastmile_qr_scan"}, "lat": 38.8998125, "is_reserved": 0, "is_disabled": 0, "fusion_lat": 0.0}, {"fusion_lon": 0.0, "bike_id": "d7bd28dc80414b25d7286e8623f17830", "name": "d7bd28dc80414b25d7286e8623f17830", "type": "electric_scooter", "lon": -77.01889866666667, "rental_uris": {"android": "https://dc.lft.to/lastmile_qr_scan", "ios": "https://dc.lft.to/lastmile_qr_scan"}, "lat": 38.94926133333333, "is_reserved": 0, "is_disabled": 0, "fusion_lat": 0.0}, {"fusion_lon": 0.0, "bike_id": "5ce0a36071a6c8441687c0d64c735a85", "name": "5ce0a36071a6c8441687c0d64c735a85", "type": "electric_scooter", "lon": -77.01183416666667, "rental_uris": {"android": "https://dc.lft.to/lastmile_qr_scan", "ios": "https://dc.lft.to/lastmile_qr_scan"}, "lat": 38.906513, "is_reserved": 0, "is_disabled": 0, "fusion_lat": 0.0}, {"fusion_lon": 0.0, "bike_id": "87f82994212d51929e19c5a5a6bfa879", "name": "87f82994212d51929e19c5a5a6bfa879", "type": "electric_scooter", "lon": -77.00203133333333, "rental_uris": {"android": "https://dc.lft.to/lastmile_qr_scan", "ios": "https://dc.lft.to/lastmile_qr_scan"}, "lat": 38.90024583333334, "is_reserved": 0, "is_disabled": 0, "fusion_lat": 0.0}, {"fusion_lon": 0.0, "bike_id": "c69d204060073cf7747b780e6f6d4ee3", "name": "c69d204060073cf7747b780e6f6d4ee3", "type": "electric_scooter", "lon": -77.04222016666667, "rental_uris": {"android": "https://dc.lft.to/lastmile_qr_scan", "ios": "https://dc.lft.to/lastmile_qr_scan"}, "lat": 38.93143083333333, "is_reserved": 0, "is_disabled": 0, "fusion_lat": 0.0}, {"fusion_lon": 0.0, "bike_id": "8f89a1ddea9a69cd2f1a3cfff07fdb8e", "name": "8f89a1ddea9a69cd2f1a3cfff07fdb8e", "type": "electric_scooter", "lon": -76.984674, "rental_uris": {"android": "https://dc.lft.to/lastmile_qr_scan", "ios": "https://dc.lft.to/lastmile_qr_scan"}, "lat": 38.87997633333333, "is_reserved": 0, "is_disabled": 0, "fusion_lat": 0.0}, {"fusion_lon": 0.0, "bike_id": "1e55c88ed0836420da6e8c5c87c3f0ce", "name": "1e55c88ed0836420da6e8c5c87c3f0ce", "type": "electric_scooter", "lon": -77.044991, "rental_uris": {"android": "https://dc.lft.to/lastmile_qr_scan", "ios": "https://dc.lft.to/lastmile_qr_scan"}, "lat": 38.911105166666665, "is_reserved": 0, "is_disabled": 0, "fusion_lat": 0.0}, {"fusion_lon": 0.0, "bike_id": "cbe759e6d2d7418a349d93ba5090331b", "name": "cbe759e6d2d7418a349d93ba5090331b", "type": "electric_bike", "lon": -76.98165616666667, "rental_uris": {"android": "https://dc.lft.to/lastmile_qr_scan", "ios": "https://dc.lft.to/lastmile_qr_scan"}, "lat": 38.959561666666666, "is_reserved": 0, "is_disabled": 0, "fusion_lat": 0.0}, {"fusion_lon": 0.0, "bike_id": "4312c5185fc63bc6c26574e5a13ca657", "name": "4312c5185fc63bc6c26574e5a13ca657", "type": "electric_scooter", "lon": -76.99190633333333, "rental_uris": {"android": "https://dc.lft.to/lastmile_qr_scan", "ios": "https://dc.lft.to/lastmile_qr_scan"}, "lat": 38.925956666666664, "is_reserved": 0, "is_disabled": 0, "fusion_lat": 0.0}, {"fusion_lon": 0.0, "bike_id": "fb7129513a7c760283b4cada0ccb2137", "name": "fb7129513a7c760283b4cada0ccb2137", "type": "electric_scooter", "lon": -76.93352733333333, "rental_uris": {"android": "https://dc.lft.to/lastmile_qr_scan", "ios": "https://dc.lft.to/lastmile_qr_scan"}, "lat": 38.89907216666667, "is_reserved": 0, "is_disabled": 0, "fusion_lat": 0.0}, {"fusion_lon": 0.0, "bike_id": "d0a6df9d5c69c079837dcde332fa92f9", "name": "d0a6df9d5c69c079837dcde332fa92f9", "type": "electric_scooter", "lon": -77.0272105, "rental_uris": {"android": "https://dc.lft.to/lastmile_qr_scan", "ios": "https://dc.lft.to/lastmile_qr_scan"}, "lat": 38.91670583333333, "is_reserved": 0, "is_disabled": 0, "fusion_lat": 0.0}, {"fusion_lon": 0.0, "bike_id": "276b181b5cc2f7847785fe7893505270", "name": "276b181b5cc2f7847785fe7893505270", "type": "electric_scooter", "lon": -77.01206833333333, "rental_uris": {"android": "https://dc.lft.to/lastmile_qr_scan", "ios": "https://dc.lft.to/lastmile_qr_scan"}, "lat": 38.893281333333334, "is_reserved": 0, "is_disabled": 0, "fusion_lat": 0.0}, {"fusion_lon": 0.0, "bike_id": "db844c1f95874daa1347b1fc17848ed4", "name": "db844c1f95874daa1347b1fc17848ed4", "type": "electric_scooter", "lon": -77.03104833333333, "rental_uris": {"android": "https://dc.lft.to/lastmile_qr_scan", "ios": "https://dc.lft.to/lastmile_qr_scan"}, "lat": 38.925687, "is_reserved": 0, "is_disabled": 0, "fusion_lat": 0.0}, {"fusion_lon": 0.0, "bike_id": "5bc1d51c45bc3aacd4908faece4de0f3", "name": "5bc1d51c45bc3aacd4908faece4de0f3", "type": "electric_scooter", "lon": -77.02452533333333, "rental_uris": {"android": "https://dc.lft.to/lastmile_qr_scan", "ios": "https://dc.lft.to/lastmile_qr_scan"}, "lat": 38.937152, "is_reserved": 0, "is_disabled": 0, "fusion_lat": 0.0}, {"fusion_lon": 0.0, "bike_id": "6fec6a6e148c50faf588fa29a29c0f1d", "name": "6fec6a6e148c50faf588fa29a29c0f1d", "type": "electric_scooter", "lon": -77.00067916666667, "rental_uris": {"android": "https://dc.lft.to/lastmile_qr_scan", "ios": "https://dc.lft.to/lastmile_qr_scan"}, "lat": 38.901372333333335, "is_reserved": 0, "is_disabled": 0, "fusion_lat": 0.0}, {"fusion_lon": 0.0, "bike_id": "569821bcd486d26da580a8ef1e371a0a", "name": "569821bcd486d26da580a8ef1e371a0a", "type": "electric_scooter", "lon": -76.97908033333333, "rental_uris": {"android": "https://dc.lft.to/lastmile_qr_scan", "ios": "https://dc.lft.to/lastmile_qr_scan"}, "lat": 38.894321166666664, "is_reserved": 0, "is_disabled": 0, "fusion_lat": 0.0}, {"fusion_lon": 0.0, "bike_id": "23424450665f54b70e27fc6551825970", "name": "23424450665f54b70e27fc6551825970", "type": "electric_scooter", "lon": -77.02801416666667, "rental_uris": {"android": "https://dc.lft.to/lastmile_qr_scan", "ios": "https://dc.lft.to/lastmile_qr_scan"}, "lat": 38.9329215, "is_reserved": 0, "is_disabled": 0, "fusion_lat": 0.0}, {"fusion_lon": 0.0, "bike_id": "d682d2816c4bc2f078d6fb592d30e5da", "name": "d682d2816c4bc2f078d6fb592d30e5da", "type": "electric_scooter", "lon": -77.05060183333333, "rental_uris": {"android": "https://dc.lft.to/lastmile_qr_scan", "ios": "https://dc.lft.to/lastmile_qr_scan"}, "lat": 38.900713333333336, "is_reserved": 0, "is_disabled": 0, "fusion_lat": 0.0}, {"fusion_lon": 0.0, "bike_id": "99a3d6dfb0857b328e746376965a792e", "name": "99a3d6dfb0857b328e746376965a792e", "type": "electric_scooter", "lon": -77.0296315, "rental_uris": {"android": "https://dc.lft.to/lastmile_qr_scan", "ios": "https://dc.lft.to/lastmile_qr_scan"}, "lat": 38.89626583333333, "is_reserved": 0, "is_disabled": 0, "fusion_lat": 0.0}, {"fusion_lon": 0.0, "bike_id": "d46e4686b1639893e6bd77909f2c5faa", "name": "d46e4686b1639893e6bd77909f2c5faa", "type": "electric_scooter", "lon": -77.02171866666667, "rental_uris": {"android": "https://dc.lft.to/lastmile_qr_scan", "ios": "https://dc.lft.to/lastmile_qr_scan"}, "lat": 38.899999333333334, "is_reserved": 0, "is_disabled": 0, "fusion_lat": 0.0}, {"fusion_lon": 0.0, "bike_id": "e9843770d2606660dd39fb53bd09100d", "name": "e9843770d2606660dd39fb53bd09100d", "type": "electric_scooter", "lon": -77.0139765, "rental_uris": {"android": "https://dc.lft.to/lastmile_qr_scan", "ios": "https://dc.lft.to/lastmile_qr_scan"}, "lat": 38.88027916666667, "is_reserved": 0, "is_disabled": 0, "fusion_lat": 0.0}, {"fusion_lon": 0.0, "bike_id": "f240582d46e485c3350cfc3da902fdf0", "name": "f240582d46e485c3350cfc3da902fdf0", "type": "electric_scooter", "lon": -77.0187825, "rental_uris": {"android": "https://dc.lft.to/lastmile_qr_scan", "ios": "https://dc.lft.to/lastmile_qr_scan"}, "lat": 38.9141985, "is_reserved": 0, "is_disabled": 0, "fusion_lat": 0.0}, {"fusion_lon": 0.0, "bike_id": "238c0d8adf0a59ee0eae19f4057c190c", "name": "238c0d8adf0a59ee0eae19f4057c190c", "type": "electric_scooter", "lon": -77.026063, "rental_uris": {"android": "https://dc.lft.to/lastmile_qr_scan", "ios": "https://dc.lft.to/lastmile_qr_scan"}, "lat": 38.90600033333333, "is_reserved": 0, "is_disabled": 0, "fusion_lat": 0.0}, {"fusion_lon": 0.0, "bike_id": "b2c7c949acba572c37840f1ca98fabc8", "name": "b2c7c949acba572c37840f1ca98fabc8", "type": "electric_bike", "lon": -77.10681166666667, "rental_uris": {"android": "https://dc.lft.to/lastmile_qr_scan", "ios": "https://dc.lft.to/lastmile_qr_scan"}, "lat": 38.93578766666667, "is_reserved": 0, "is_disabled": 0, "fusion_lat": 0.0}, {"fusion_lon": 0.0, "bike_id": "0ec3d33f174c8299350b2617bc076e1a", "name": "0ec3d33f174c8299350b2617bc076e1a", "type": "electric_bike", "lon": -76.98751033333333, "rental_uris": {"android": "https://dc.lft.to/lastmile_qr_scan", "ios": "https://dc.lft.to/lastmile_qr_scan"}, "lat": 38.857857, "is_reserved": 0, "is_disabled": 0, "fusion_lat": 0.0}, {"fusion_lon": 0.0, "bike_id": "c8a18b55ec1e53a02070861da5b26fae", "name": "c8a18b55ec1e53a02070861da5b26fae", "type": "electric_scooter", "lon": -77.01495816666667, "rental_uris": {"android": "https://dc.lft.to/lastmile_qr_scan", "ios": "https://dc.lft.to/lastmile_qr_scan"}, "lat": 38.956528166666665, "is_reserved": 0, "is_disabled": 0, "fusion_lat": 0.0}, {"fusion_lon": 0.0, "bike_id": "c765b316b24d1256899afe117fbff2f8", "name": "c765b316b24d1256899afe117fbff2f8", "type": "electric_scooter", "lon": -77.0049885, "rental_uris": {"android": "https://dc.lft.to/lastmile_qr_scan", "ios": "https://dc.lft.to/lastmile_qr_scan"}, "lat": 38.879513333333335, "is_reserved": 0, "is_disabled": 0, "fusion_lat": 0.0}, {"fusion_lon": 0.0, "bike_id": "ca4f5106bf94955f9893ec13a07f0c9d", "name": "ca4f5106bf94955f9893ec13a07f0c9d", "type": "electric_scooter", "lon": -77.0370915, "rental_uris": {"android": "https://dc.lft.to/lastmile_qr_scan", "ios": "https://dc.lft.to/lastmile_qr_scan"}, "lat": 38.926324, "is_reserved": 0, "is_disabled": 0, "fusion_lat": 0.0}, {"fusion_lon": 0.0, "bike_id": "2f40f18446e922b6068c6dd540582111", "name": "2f40f18446e922b6068c6dd540582111", "type": "electric_scooter", "lon": -77.02580866666666, "rental_uris": {"android": "https://dc.lft.to/lastmile_qr_scan", "ios": "https://dc.lft.to/lastmile_qr_scan"}, "lat": 38.904845, "is_reserved": 0, "is_disabled": 0, "fusion_lat": 0.0}, {"fusion_lon": 0.0, "bike_id": "0861f7507bbafc8967def21ae54e8158", "name": "0861f7507bbafc8967def21ae54e8158", "type": "electric_scooter", "lon": -77.05684233333334, "rental_uris": {"android": "https://dc.lft.to/lastmile_qr_scan", "ios": "https://dc.lft.to/lastmile_qr_scan"}, "lat": 38.905131, "is_reserved": 0, "is_disabled": 0, "fusion_lat": 0.0}, {"fusion_lon": 0.0, "bike_id": "fa04e0433e2584bf52666a396b924ecd", "name": "fa04e0433e2584bf52666a396b924ecd", "type": "electric_scooter", "lon": -77.034757, "rental_uris": {"android": "https://dc.lft.to/lastmile_qr_scan", "ios": "https://dc.lft.to/lastmile_qr_scan"}, "lat": 38.92480283333333, "is_reserved": 0, "is_disabled": 0, "fusion_lat": 0.0}, {"fusion_lon": 0.0, "bike_id": "918d93099603a0a621a45f6e00246141", "name": "918d93099603a0a621a45f6e00246141", "type": "electric_scooter", "lon": -77.02686783333333, "rental_uris": {"android": "https://dc.lft.to/lastmile_qr_scan", "ios": "https://dc.lft.to/lastmile_qr_scan"}, "lat": 38.89659733333333, "is_reserved": 0, "is_disabled": 0, "fusion_lat": 0.0}, {"fusion_lon": 0.0, "bike_id": "15a30897887142e85765da54afca3d42", "name": "15a30897887142e85765da54afca3d42", "type": "electric_bike", "lon": -76.98953566666667, "rental_uris": {"android": "https://dc.lft.to/lastmile_qr_scan", "ios": "https://dc.lft.to/lastmile_qr_scan"}, "lat": 38.889153, "is_reserved": 0, "is_disabled": 0, "fusion_lat": 0.0}, {"fusion_lon": 0.0, "bike_id": "6ab82c61a45a3dfe6dcc7f7166c6f8cc", "name": "6ab82c61a45a3dfe6dcc7f7166c6f8cc", "type": "electric_scooter", "lon": -77.00590766666667, "rental_uris": {"android": "https://dc.lft.to/lastmile_qr_scan", "ios": "https://dc.lft.to/lastmile_qr_scan"}, "lat": 38.87632083333333, "is_reserved": 0, "is_disabled": 0, "fusion_lat": 0.0}, {"fusion_lon": 0.0, "bike_id": "7702282b524bd5d5a0c71e9b084a5fb6", "name": "7702282b524bd5d5a0c71e9b084a5fb6", "type": "electric_scooter", "lon": -77.04607466666667, "rental_uris": {"android": "https://dc.lft.to/lastmile_qr_scan", "ios": "https://dc.lft.to/lastmile_qr_scan"}, "lat": 38.900547333333336, "is_reserved": 0, "is_disabled": 0, "fusion_lat": 0.0}, {"fusion_lon": 0.0, "bike_id": "9b733576044b3c3b7588ceed852cf309", "name": "9b733576044b3c3b7588ceed852cf309", "type": "electric_scooter", "lon": -77.01369483333333, "rental_uris": {"android": "https://dc.lft.to/lastmile_qr_scan", "ios": "https://dc.lft.to/lastmile_qr_scan"}, "lat": 38.8922145, "is_reserved": 0, "is_disabled": 0, "fusion_lat": 0.0}, {"fusion_lon": 0.0, "bike_id": "52b9c033d1a3bf3bd4565d34b9ac35c0", "name": "52b9c033d1a3bf3bd4565d34b9ac35c0", "type": "electric_scooter", "lon": -76.988833, "rental_uris": {"android": "https://dc.lft.to/lastmile_qr_scan", "ios": "https://dc.lft.to/lastmile_qr_scan"}, "lat": 38.866613, "is_reserved": 0, "is_disabled": 0, "fusion_lat": 0.0}, {"fusion_lon": 0.0, "bike_id": "6532c481c6b101fcf4a7a106e5d7e030", "name": "6532c481c6b101fcf4a7a106e5d7e030", "type": "electric_scooter", "lon": -77.044046, "rental_uris": {"android": "https://dc.lft.to/lastmile_qr_scan", "ios": "https://dc.lft.to/lastmile_qr_scan"}, "lat": 38.8939565, "is_reserved": 0, "is_disabled": 0, "fusion_lat": 0.0}, {"fusion_lon": 0.0, "bike_id": "25a9e848eb5cd5ae66b1c8493af1fdef", "name": "25a9e848eb5cd5ae66b1c8493af1fdef", "type": "electric_scooter", "lon": -77.03199833333333, "rental_uris": {"android": "https://dc.lft.to/lastmile_qr_scan", "ios": "https://dc.lft.to/lastmile_qr_scan"}, "lat": 38.91739666666667, "is_reserved": 0, "is_disabled": 0, "fusion_lat": 0.0}, {"fusion_lon": 0.0, "bike_id": "a05c1217b7add91ef8f661a54691a5cd", "name": "a05c1217b7add91ef8f661a54691a5cd", "type": "electric_scooter", "lon": -77.02079333333333, "rental_uris": {"android": "https://dc.lft.to/lastmile_qr_scan", "ios": "https://dc.lft.to/lastmile_qr_scan"}, "lat": 38.881232, "is_reserved": 0, "is_disabled": 0, "fusion_lat": 0.0}, {"fusion_lon": 0.0, "bike_id": "932e23ca5759f0fc9da4ec1a4aaae011", "name": "932e23ca5759f0fc9da4ec1a4aaae011", "type": "electric_bike", "lon": -76.9719595, "rental_uris": {"android": "https://dc.lft.to/lastmile_qr_scan", "ios": "https://dc.lft.to/lastmile_qr_scan"}, "lat": 38.89250666666667, "is_reserved": 0, "is_disabled": 0, "fusion_lat": 0.0}, {"fusion_lon": 0.0, "bike_id": "8dcabd182d6af42880afbd6341582517", "name": "8dcabd182d6af42880afbd6341582517", "type": "electric_bike", "lon": -76.979896, "rental_uris": {"android": "https://dc.lft.to/lastmile_qr_scan", "ios": "https://dc.lft.to/lastmile_qr_scan"}, "lat": 38.877462333333334, "is_reserved": 0, "is_disabled": 0, "fusion_lat": 0.0}, {"fusion_lon": 0.0, "bike_id": "12b15ebc731e80ee1644912083ab4874", "name": "12b15ebc731e80ee1644912083ab4874", "type": "electric_scooter", "lon": -77.034413, "rental_uris": {"android": "https://dc.lft.to/lastmile_qr_scan", "ios": "https://dc.lft.to/lastmile_qr_scan"}, "lat": 38.9073105, "is_reserved": 0, "is_disabled": 0, "fusion_lat": 0.0}, {"fusion_lon": 0.0, "bike_id": "adb70aa31ceff07a39bddba1906f320c", "name": "adb70aa31ceff07a39bddba1906f320c", "type": "electric_scooter", "lon": -77.04323966666666, "rental_uris": {"android": "https://dc.lft.to/lastmile_qr_scan", "ios": "https://dc.lft.to/lastmile_qr_scan"}, "lat": 38.915333833333335, "is_reserved": 0, "is_disabled": 0, "fusion_lat": 0.0}, {"fusion_lon": 0.0, "bike_id": "2316156574471ec5b7a429de61964993", "name": "2316156574471ec5b7a429de61964993", "type": "electric_scooter", "lon": -77.01403366666666, "rental_uris": {"android": "https://dc.lft.to/lastmile_qr_scan", "ios": "https://dc.lft.to/lastmile_qr_scan"}, "lat": 38.87901566666667, "is_reserved": 0, "is_disabled": 0, "fusion_lat": 0.0}, {"fusion_lon": 0.0, "bike_id": "b5501f33ef55b12013ac9acaeeaeab1b", "name": "b5501f33ef55b12013ac9acaeeaeab1b", "type": "electric_scooter", "lon": -77.0254025, "rental_uris": {"android": "https://dc.lft.to/lastmile_qr_scan", "ios": "https://dc.lft.to/lastmile_qr_scan"}, "lat": 38.93094, "is_reserved": 0, "is_disabled": 0, "fusion_lat": 0.0}, {"fusion_lon": 0.0, "bike_id": "b54089a21d415de39b7ca864985c2fff", "name": "b54089a21d415de39b7ca864985c2fff", "type": "electric_scooter", "lon": -77.03159783333334, "rental_uris": {"android": "https://dc.lft.to/lastmile_qr_scan", "ios": "https://dc.lft.to/lastmile_qr_scan"}, "lat": 38.92715233333333, "is_reserved": 0, "is_disabled": 0, "fusion_lat": 0.0}, {"fusion_lon": 0.0, "bike_id": "5f95212a5dc7b9c922650be6222d85e2", "name": "5f95212a5dc7b9c922650be6222d85e2", "type": "electric_scooter", "lon": -76.99521433333334, "rental_uris": {"android": "https://dc.lft.to/lastmile_qr_scan", "ios": "https://dc.lft.to/lastmile_qr_scan"}, "lat": 38.883671666666665, "is_reserved": 0, "is_disabled": 0, "fusion_lat": 0.0}, {"fusion_lon": 0.0, "bike_id": "742f30fe965da534a8c153f45b9e8ded", "name": "742f30fe965da534a8c153f45b9e8ded", "type": "electric_scooter", "lon": -77.0021465, "rental_uris": {"android": "https://dc.lft.to/lastmile_qr_scan", "ios": "https://dc.lft.to/lastmile_qr_scan"}, "lat": 38.89446233333334, "is_reserved": 0, "is_disabled": 0, "fusion_lat": 0.0}, {"fusion_lon": 0.0, "bike_id": "efeffcff8366c33b8bfb47a8100980e7", "name": "efeffcff8366c33b8bfb47a8100980e7", "type": "electric_scooter", "lon": -77.03049516666667, "rental_uris": {"android": "https://dc.lft.to/lastmile_qr_scan", "ios": "https://dc.lft.to/lastmile_qr_scan"}, "lat": 38.939781333333336, "is_reserved": 0, "is_disabled": 0, "fusion_lat": 0.0}, {"fusion_lon": 0.0, "bike_id": "a6904e491b4b24823d0bf7c654a21c3c", "name": "a6904e491b4b24823d0bf7c654a21c3c", "type": "electric_scooter", "lon": -77.02275366666667, "rental_uris": {"android": "https://dc.lft.to/lastmile_qr_scan", "ios": "https://dc.lft.to/lastmile_qr_scan"}, "lat": 38.916511166666666, "is_reserved": 0, "is_disabled": 0, "fusion_lat": 0.0}, {"fusion_lon": 0.0, "bike_id": "55827412b12f84d6654efa74f6975f2a", "name": "55827412b12f84d6654efa74f6975f2a", "type": "electric_scooter", "lon": -77.04170733333333, "rental_uris": {"android": "https://dc.lft.to/lastmile_qr_scan", "ios": "https://dc.lft.to/lastmile_qr_scan"}, "lat": 38.91547816666667, "is_reserved": 0, "is_disabled": 0, "fusion_lat": 0.0}, {"fusion_lon": 0.0, "bike_id": "6615a54cc0bf6c1476a5e96b7922afcf", "name": "6615a54cc0bf6c1476a5e96b7922afcf", "type": "electric_scooter", "lon": -76.99960583333333, "rental_uris": {"android": "https://dc.lft.to/lastmile_qr_scan", "ios": "https://dc.lft.to/lastmile_qr_scan"}, "lat": 38.893139, "is_reserved": 0, "is_disabled": 0, "fusion_lat": 0.0}, {"fusion_lon": 0.0, "bike_id": "27ac17a832c25fc4f58b94b43ea0d7b3", "name": "27ac17a832c25fc4f58b94b43ea0d7b3", "type": "electric_scooter", "lon": -77.0360185, "rental_uris": {"android": "https://dc.lft.to/lastmile_qr_scan", "ios": "https://dc.lft.to/lastmile_qr_scan"}, "lat": 38.92857816666667, "is_reserved": 0, "is_disabled": 0, "fusion_lat": 0.0}, {"fusion_lon": 0.0, "bike_id": "b64014d9639ed1df0bc065ba7a042c37", "name": "b64014d9639ed1df0bc065ba7a042c37", "type": "electric_scooter", "lon": -77.037797, "rental_uris": {"android": "https://dc.lft.to/lastmile_qr_scan", "ios": "https://dc.lft.to/lastmile_qr_scan"}, "lat": 38.926198, "is_reserved": 0, "is_disabled": 0, "fusion_lat": 0.0}, {"fusion_lon": 0.0, "bike_id": "ad8d2d745be5abc02d5f5bf3981a6f7a", "name": "ad8d2d745be5abc02d5f5bf3981a6f7a", "type": "electric_scooter", "lon": -77.02166716666666, "rental_uris": {"android": "https://dc.lft.to/lastmile_qr_scan", "ios": "https://dc.lft.to/lastmile_qr_scan"}, "lat": 38.94290216666667, "is_reserved": 0, "is_disabled": 0, "fusion_lat": 0.0}, {"fusion_lon": 0.0, "bike_id": "b7ae8b127d4dc1b9da653415e930a4b5", "name": "b7ae8b127d4dc1b9da653415e930a4b5", "type": "electric_scooter", "lon": -77.0169765, "rental_uris": {"android": "https://dc.lft.to/lastmile_qr_scan", "ios": "https://dc.lft.to/lastmile_qr_scan"}, "lat": 38.97496316666667, "is_reserved": 0, "is_disabled": 0, "fusion_lat": 0.0}, {"fusion_lon": 0.0, "bike_id": "9edd071751b75e08ca262734c726aa3e", "name": "9edd071751b75e08ca262734c726aa3e", "type": "electric_scooter", "lon": -77.04374966666667, "rental_uris": {"android": "https://dc.lft.to/lastmile_qr_scan", "ios": "https://dc.lft.to/lastmile_qr_scan"}, "lat": 38.902544666666664, "is_reserved": 0, "is_disabled": 0, "fusion_lat": 0.0}, {"fusion_lon": 0.0, "bike_id": "5ee5ff0c417beae99af9e29d7c4d0eac", "name": "5ee5ff0c417beae99af9e29d7c4d0eac", "type": "electric_scooter", "lon": -77.03057016666666, "rental_uris": {"android": "https://dc.lft.to/lastmile_qr_scan", "ios": "https://dc.lft.to/lastmile_qr_scan"}, "lat": 38.93976216666667, "is_reserved": 0, "is_disabled": 0, "fusion_lat": 0.0}, {"fusion_lon": 0.0, "bike_id": "1dd429f27884a01b1f53d081aefa958a", "name": "1dd429f27884a01b1f53d081aefa958a", "type": "electric_bike", "lon": -77.3609575, "rental_uris": {"android": "https://dc.lft.to/lastmile_qr_scan", "ios": "https://dc.lft.to/lastmile_qr_scan"}, "lat": 38.93958966666667, "is_reserved": 0, "is_disabled": 0, "fusion_lat": 0.0}, {"fusion_lon": 0.0, "bike_id": "a501d96e77e44854d3bd1df975743895", "name": "a501d96e77e44854d3bd1df975743895", "type": "electric_scooter", "lon": -77.029595, "rental_uris": {"android": "https://dc.lft.to/lastmile_qr_scan", "ios": "https://dc.lft.to/lastmile_qr_scan"}, "lat": 38.916811, "is_reserved": 0, "is_disabled": 0, "fusion_lat": 0.0}, {"fusion_lon": 0.0, "bike_id": "2642733fb4afe0ca1430869181abe4f1", "name": "2642733fb4afe0ca1430869181abe4f1", "type": "electric_scooter", "lon": -77.00933333333333, "rental_uris": {"android": "https://dc.lft.to/lastmile_qr_scan", "ios": "https://dc.lft.to/lastmile_qr_scan"}, "lat": 38.87681666666667, "is_reserved": 0, "is_disabled": 0, "fusion_lat": 0.0}, {"fusion_lon": 0.0, "bike_id": "d7b5e5652607739e270472247e2bc298", "name": "d7b5e5652607739e270472247e2bc298", "type": "electric_scooter", "lon": -77.00058916666667, "rental_uris": {"android": "https://dc.lft.to/lastmile_qr_scan", "ios": "https://dc.lft.to/lastmile_qr_scan"}, "lat": 38.87530683333333, "is_reserved": 0, "is_disabled": 0, "fusion_lat": 0.0}, {"fusion_lon": 0.0, "bike_id": "563656d9292dce898912f8c1367d990d", "name": "563656d9292dce898912f8c1367d990d", "type": "electric_scooter", "lon": -77.00371333333334, "rental_uris": {"android": "https://dc.lft.to/lastmile_qr_scan", "ios": "https://dc.lft.to/lastmile_qr_scan"}, "lat": 38.90604616666667, "is_reserved": 0, "is_disabled": 0, "fusion_lat": 0.0}, {"fusion_lon": 0.0, "bike_id": "7512a8cab7ac098932d161472d8aa1f9", "name": "7512a8cab7ac098932d161472d8aa1f9", "type": "electric_scooter", "lon": -77.03268683333333, "rental_uris": {"android": "https://dc.lft.to/lastmile_qr_scan", "ios": "https://dc.lft.to/lastmile_qr_scan"}, "lat": 38.9132725, "is_reserved": 0, "is_disabled": 0, "fusion_lat": 0.0}, {"fusion_lon": 0.0, "bike_id": "cd5dfc7f639aef9a49ecc6adc9534d76", "name": "cd5dfc7f639aef9a49ecc6adc9534d76", "type": "electric_bike", "lon": -76.92339866666667, "rental_uris": {"android": "https://dc.lft.to/lastmile_qr_scan", "ios": "https://dc.lft.to/lastmile_qr_scan"}, "lat": 38.88788666666667, "is_reserved": 0, "is_disabled": 0, "fusion_lat": 0.0}, {"fusion_lon": 0.0, "bike_id": "1a1d0a1a6a181328f8c4dc0e640a50d1", "name": "1a1d0a1a6a181328f8c4dc0e640a50d1", "type": "electric_scooter", "lon": -77.029938, "rental_uris": {"android": "https://dc.lft.to/lastmile_qr_scan", "ios": "https://dc.lft.to/lastmile_qr_scan"}, "lat": 38.92857033333333, "is_reserved": 0, "is_disabled": 0, "fusion_lat": 0.0}, {"fusion_lon": 0.0, "bike_id": "11a16055bf2312cf9b07b1cd24233177", "name": "11a16055bf2312cf9b07b1cd24233177", "type": "electric_scooter", "lon": -77.034473, "rental_uris": {"android": "https://dc.lft.to/lastmile_qr_scan", "ios": "https://dc.lft.to/lastmile_qr_scan"}, "lat": 38.903527833333335, "is_reserved": 0, "is_disabled": 0, "fusion_lat": 0.0}, {"fusion_lon": 0.0, "bike_id": "2732df3bb81a6abbaa8c4f7df726cb9b", "name": "2732df3bb81a6abbaa8c4f7df726cb9b", "type": "electric_scooter", "lon": -77.0228525, "rental_uris": {"android": "https://dc.lft.to/lastmile_qr_scan", "ios": "https://dc.lft.to/lastmile_qr_scan"}, "lat": 38.915656, "is_reserved": 0, "is_disabled": 0, "fusion_lat": 0.0}, {"fusion_lon": 0.0, "bike_id": "814623473e62347892651a3439fdc8ae", "name": "814623473e62347892651a3439fdc8ae", "type": "electric_scooter", "lon": -77.01058416666666, "rental_uris": {"android": "https://dc.lft.to/lastmile_qr_scan", "ios": "https://dc.lft.to/lastmile_qr_scan"}, "lat": 38.872432833333335, "is_reserved": 0, "is_disabled": 0, "fusion_lat": 0.0}, {"fusion_lon": 0.0, "bike_id": "64401e9c34b688f9f285edf8be6eea8b", "name": "64401e9c34b688f9f285edf8be6eea8b", "type": "electric_scooter", "lon": -77.04669333333334, "rental_uris": {"android": "https://dc.lft.to/lastmile_qr_scan", "ios": "https://dc.lft.to/lastmile_qr_scan"}, "lat": 38.8968805, "is_reserved": 0, "is_disabled": 0, "fusion_lat": 0.0}, {"fusion_lon": 0.0, "bike_id": "dc8dfe6d56a5d342dbdff4d427f66135", "name": "dc8dfe6d56a5d342dbdff4d427f66135", "type": "electric_scooter", "lon": -77.03842433333334, "rental_uris": {"android": "https://dc.lft.to/lastmile_qr_scan", "ios": "https://dc.lft.to/lastmile_qr_scan"}, "lat": 38.91659683333334, "is_reserved": 0, "is_disabled": 0, "fusion_lat": 0.0}, {"fusion_lon": 0.0, "bike_id": "d532cc7a4eb9e5cc58390401ba857b5b", "name": "d532cc7a4eb9e5cc58390401ba857b5b", "type": "electric_scooter", "lon": -77.0346595, "rental_uris": {"android": "https://dc.lft.to/lastmile_qr_scan", "ios": "https://dc.lft.to/lastmile_qr_scan"}, "lat": 38.921409833333335, "is_reserved": 0, "is_disabled": 0, "fusion_lat": 0.0}, {"fusion_lon": 0.0, "bike_id": "f1086f78429a8cd6c33777b44111101f", "name": "f1086f78429a8cd6c33777b44111101f", "type": "electric_scooter", "lon": -77.03180766666667, "rental_uris": {"android": "https://dc.lft.to/lastmile_qr_scan", "ios": "https://dc.lft.to/lastmile_qr_scan"}, "lat": 38.891760166666664, "is_reserved": 0, "is_disabled": 0, "fusion_lat": 0.0}, {"fusion_lon": 0.0, "bike_id": "1b7c005af3c59000935091b8281089d1", "name": "1b7c005af3c59000935091b8281089d1", "type": "electric_scooter", "lon": -77.0176895, "rental_uris": {"android": "https://dc.lft.to/lastmile_qr_scan", "ios": "https://dc.lft.to/lastmile_qr_scan"}, "lat": 38.921080833333335, "is_reserved": 0, "is_disabled": 0, "fusion_lat": 0.0}, {"fusion_lon": 0.0, "bike_id": "67e033b25ebcecb55781cbb24edb164a", "name": "67e033b25ebcecb55781cbb24edb164a", "type": "electric_scooter", "lon": -77.0364885, "rental_uris": {"android": "https://dc.lft.to/lastmile_qr_scan", "ios": "https://dc.lft.to/lastmile_qr_scan"}, "lat": 38.92120366666666, "is_reserved": 0, "is_disabled": 0, "fusion_lat": 0.0}, {"fusion_lon": 0.0, "bike_id": "a3dd0f1f77d5a051daf162a4b388a086", "name": "a3dd0f1f77d5a051daf162a4b388a086", "type": "electric_scooter", "lon": -77.00879433333333, "rental_uris": {"android": "https://dc.lft.to/lastmile_qr_scan", "ios": "https://dc.lft.to/lastmile_qr_scan"}, "lat": 38.9057145, "is_reserved": 0, "is_disabled": 0, "fusion_lat": 0.0}, {"fusion_lon": 0.0, "bike_id": "7b768b90881aa6c9db7d2c1e64a2bbcc", "name": "7b768b90881aa6c9db7d2c1e64a2bbcc", "type": "electric_scooter", "lon": -77.005531, "rental_uris": {"android": "https://dc.lft.to/lastmile_qr_scan", "ios": "https://dc.lft.to/lastmile_qr_scan"}, "lat": 38.8745555, "is_reserved": 0, "is_disabled": 0, "fusion_lat": 0.0}, {"fusion_lon": 0.0, "bike_id": "a30409c6d2aec5401fc583905ca1cac3", "name": "a30409c6d2aec5401fc583905ca1cac3", "type": "electric_bike", "lon": -77.023867, "rental_uris": {"android": "https://dc.lft.to/lastmile_qr_scan", "ios": "https://dc.lft.to/lastmile_qr_scan"}, "lat": 38.9291375, "is_reserved": 0, "is_disabled": 0, "fusion_lat": 0.0}, {"fusion_lon": 0.0, "bike_id": "7ce6cb584f3d6d4d14d195827107fb95", "name": "7ce6cb584f3d6d4d14d195827107fb95", "type": "electric_scooter", "lon": -77.00773866666667, "rental_uris": {"android": "https://dc.lft.to/lastmile_qr_scan", "ios": "https://dc.lft.to/lastmile_qr_scan"}, "lat": 38.9057045, "is_reserved": 0, "is_disabled": 0, "fusion_lat": 0.0}, {"fusion_lon": 0.0, "bike_id": "ab5717fc12a5befc87af7ccde75d2ccc", "name": "ab5717fc12a5befc87af7ccde75d2ccc", "type": "electric_scooter", "lon": -77.02466883333334, "rental_uris": {"android": "https://dc.lft.to/lastmile_qr_scan", "ios": "https://dc.lft.to/lastmile_qr_scan"}, "lat": 38.89715566666667, "is_reserved": 0, "is_disabled": 0, "fusion_lat": 0.0}, {"fusion_lon": 0.0, "bike_id": "464244f4653944e4995a8e50d369597a", "name": "464244f4653944e4995a8e50d369597a", "type": "electric_scooter", "lon": -77.00445033333334, "rental_uris": {"android": "https://dc.lft.to/lastmile_qr_scan", "ios": "https://dc.lft.to/lastmile_qr_scan"}, "lat": 38.91349066666667, "is_reserved": 0, "is_disabled": 0, "fusion_lat": 0.0}, {"fusion_lon": 0.0, "bike_id": "9d96c302872e7f892b2f5fa166807867", "name": "9d96c302872e7f892b2f5fa166807867", "type": "electric_bike", "lon": -77.12746383333334, "rental_uris": {"android": "https://dc.lft.to/lastmile_qr_scan", "ios": "https://dc.lft.to/lastmile_qr_scan"}, "lat": 38.8882475, "is_reserved": 0, "is_disabled": 0, "fusion_lat": 0.0}, {"fusion_lon": 0.0, "bike_id": "02c1f93f77958ca4590e17c576917d76", "name": "02c1f93f77958ca4590e17c576917d76", "type": "electric_scooter", "lon": -77.01902666666666, "rental_uris": {"android": "https://dc.lft.to/lastmile_qr_scan", "ios": "https://dc.lft.to/lastmile_qr_scan"}, "lat": 38.901443, "is_reserved": 0, "is_disabled": 0, "fusion_lat": 0.0}, {"fusion_lon": 0.0, "bike_id": "5be2ddd7870f6aa71d4507ee8bd6ff89", "name": "5be2ddd7870f6aa71d4507ee8bd6ff89", "type": "electric_scooter", "lon": -77.031908, "rental_uris": {"android": "https://dc.lft.to/lastmile_qr_scan", "ios": "https://dc.lft.to/lastmile_qr_scan"}, "lat": 38.929803, "is_reserved": 0, "is_disabled": 0, "fusion_lat": 0.0}, {"fusion_lon": 0.0, "bike_id": "bea4a4800f4656c9830f176c9699a014", "name": "bea4a4800f4656c9830f176c9699a014", "type": "electric_scooter", "lon": -76.98657483333334, "rental_uris": {"android": "https://dc.lft.to/lastmile_qr_scan", "ios": "https://dc.lft.to/lastmile_qr_scan"}, "lat": 38.9130815, "is_reserved": 0, "is_disabled": 0, "fusion_lat": 0.0}, {"fusion_lon": 0.0, "bike_id": "f2cb24cece3c953e00c1147c447564de", "name": "f2cb24cece3c953e00c1147c447564de", "type": "electric_scooter", "lon": -76.99899866666667, "rental_uris": {"android": "https://dc.lft.to/lastmile_qr_scan", "ios": "https://dc.lft.to/lastmile_qr_scan"}, "lat": 38.95650166666667, "is_reserved": 0, "is_disabled": 0, "fusion_lat": 0.0}, {"fusion_lon": 0.0, "bike_id": "7a51d345b24839129d8d246d80c7ae2b", "name": "7a51d345b24839129d8d246d80c7ae2b", "type": "electric_scooter", "lon": -77.08613916666667, "rental_uris": {"android": "https://dc.lft.to/lastmile_qr_scan", "ios": "https://dc.lft.to/lastmile_qr_scan"}, "lat": 38.95872766666667, "is_reserved": 0, "is_disabled": 0, "fusion_lat": 0.0}, {"fusion_lon": 0.0, "bike_id": "5d6a04b7e4bcf63706c952bdf93ff5d8", "name": "5d6a04b7e4bcf63706c952bdf93ff5d8", "type": "electric_scooter", "lon": -76.94887116666666, "rental_uris": {"android": "https://dc.lft.to/lastmile_qr_scan", "ios": "https://dc.lft.to/lastmile_qr_scan"}, "lat": 38.89533133333333, "is_reserved": 0, "is_disabled": 0, "fusion_lat": 0.0}, {"fusion_lon": 0.0, "bike_id": "62d84970c8e807ae0776122955d336df", "name": "62d84970c8e807ae0776122955d336df", "type": "electric_scooter", "lon": -77.0343475, "rental_uris": {"android": "https://dc.lft.to/lastmile_qr_scan", "ios": "https://dc.lft.to/lastmile_qr_scan"}, "lat": 38.90264116666667, "is_reserved": 0, "is_disabled": 0, "fusion_lat": 0.0}, {"fusion_lon": 0.0, "bike_id": "d0ed9301e5dbad0647474fb454379f66", "name": "d0ed9301e5dbad0647474fb454379f66", "type": "electric_scooter", "lon": -77.03471533333334, "rental_uris": {"android": "https://dc.lft.to/lastmile_qr_scan", "ios": "https://dc.lft.to/lastmile_qr_scan"}, "lat": 38.918038333333335, "is_reserved": 0, "is_disabled": 0, "fusion_lat": 0.0}, {"fusion_lon": 0.0, "bike_id": "c86ec489e5c26cb5a5c1ae58002094fc", "name": "c86ec489e5c26cb5a5c1ae58002094fc", "type": "electric_scooter", "lon": -77.022792, "rental_uris": {"android": "https://dc.lft.to/lastmile_qr_scan", "ios": "https://dc.lft.to/lastmile_qr_scan"}, "lat": 38.915624, "is_reserved": 0, "is_disabled": 0, "fusion_lat": 0.0}, {"fusion_lon": 0.0, "bike_id": "6466ca5910bb4c2e9715df08b5df7516", "name": "6466ca5910bb4c2e9715df08b5df7516", "type": "electric_scooter", "lon": -77.00923366666666, "rental_uris": {"android": "https://dc.lft.to/lastmile_qr_scan", "ios": "https://dc.lft.to/lastmile_qr_scan"}, "lat": 38.89544133333333, "is_reserved": 0, "is_disabled": 0, "fusion_lat": 0.0}, {"fusion_lon": 0.0, "bike_id": "65e77ab991f9711af5e080fdb03f901d", "name": "65e77ab991f9711af5e080fdb03f901d", "type": "electric_scooter", "lon": -77.031446, "rental_uris": {"android": "https://dc.lft.to/lastmile_qr_scan", "ios": "https://dc.lft.to/lastmile_qr_scan"}, "lat": 38.88308766666667, "is_reserved": 0, "is_disabled": 0, "fusion_lat": 0.0}, {"fusion_lon": 0.0, "bike_id": "ff00bda748655d7f9cdfeac79e6c62e6", "name": "ff00bda748655d7f9cdfeac79e6c62e6", "type": "electric_scooter", "lon": -77.031044, "rental_uris": {"android": "https://dc.lft.to/lastmile_qr_scan", "ios": "https://dc.lft.to/lastmile_qr_scan"}, "lat": 38.9285665, "is_reserved": 0, "is_disabled": 0, "fusion_lat": 0.0}, {"fusion_lon": 0.0, "bike_id": "fe738a469e4a7c5753ba8d309af0d70c", "name": "fe738a469e4a7c5753ba8d309af0d70c", "type": "electric_scooter", "lon": -77.05275633333333, "rental_uris": {"android": "https://dc.lft.to/lastmile_qr_scan", "ios": "https://dc.lft.to/lastmile_qr_scan"}, "lat": 38.910176666666665, "is_reserved": 0, "is_disabled": 0, "fusion_lat": 0.0},