{"data": {"bikes": [{"fusion_lon": 0.0, "fusion_lat": 0.0, "rental_uris": {"android": "https://dc.lft.to/lastmile_qr_scan", "ios": "https://dc.lft.to/lastmile_qr_scan"}, "is_disabled": 0, "type": "electric_scooter", "is_reserved": 0, "name": "8e3cb573b21b3a64a79e93ceed39996b", "lon": -76.93928466666667, "bike_id": "8e3cb573b21b3a64a79e93ceed39996b", "lat": 38.8932825}, {"fusion_lon": 0.0, "fusion_lat": 0.0, "rental_uris": {"android": "https://dc.lft.to/lastmile_qr_scan", "ios": "https://dc.lft.to/lastmile_qr_scan"}, "is_disabled": 0, "type": "electric_scooter", "is_reserved": 0, "name": "8dd5da12f24884b1c7ea9ec014c0e8f8", "lon": -77.07699166666667, "bike_id": "8dd5da12f24884b1c7ea9ec014c0e8f8", "lat": 38.922439}, {"fusion_lon": 0.0, "fusion_lat": 0.0, "rental_uris": {"android": "https://dc.lft.to/lastmile_qr_scan", "ios": "https://dc.lft.to/lastmile_qr_scan"}, "is_disabled": 0, "type": "electric_scooter", "is_reserved": 0, "name": "cef2590e14272e71033819bf179160e4", "lon": -77.04302316666667, "bike_id": "cef2590e14272e71033819bf179160e4", "lat": 38.9239445}, {"fusion_lon": 0.0, "fusion_lat": 0.0, "rental_uris": {"android": "https://dc.lft.to/lastmile_qr_scan", "ios": "https://dc.lft.to/lastmile_qr_scan"}, "is_disabled": 0, "type": "electric_bike", "is_reserved": 0, "name": "e59a330afb726cbaf7050ed5ae582694", "lon": -77.234115, "bike_id": "e59a330afb726cbaf7050ed5ae582694", "lat": 38.875781833333335}, {"fusion_lon": 0.0, "fusion_lat": 0.0, "rental_uris": {"android": "https://dc.lft.to/lastmile_qr_scan", "ios": "https://dc.lft.to/lastmile_qr_scan"}, "is_disabled": 0, "type": "electric_scooter", "is_reserved": 0, "name": "8ffc1a836ba3e470d86d3dbc9cffa78d", "lon": -77.02698266666667, "bike_id": "8ffc1a836ba3e470d86d3dbc9cffa78d", "lat": 38.906271}, {"fusion_lon": 0.0, "fusion_lat": 0.0, "rental_uris": {"android": "https://dc.lft.to/lastmile_qr_scan", "ios": "https://dc.lft.to/lastmile_qr_scan"}, "is_disabled": 0, "type": "electric_scooter", "is_reserved": 0, "name": "a1d812eee005a80e84c8f2113b33b406", "lon": -77.02202516666667, "bike_id": "a1d812eee005a80e84c8f2113b33b406", "lat": 38.897346666666664}, {"fusion_lon": 0.0, "fusion_lat": 0.0, "rental_uris": {"android": "https://dc.lft.to/lastmile_qr_scan", "ios": "https://dc.lft.to/lastmile_qr_scan"}, "is_disabled": 0, "type": "electric_scooter", "is_reserved": 0, "name": "7fc5437e348348b5d64ab37511dcc938", "lon": -77.0057135, "bike_id": "7fc5437e348348b5d64ab37511dcc938", "lat": 38.88502116666667}, {"fusion_lon": 0.0, "fusion_lat": 0.0, "rental_uris": {"android": "https://dc.lft.to/lastmile_qr_scan", "ios": "https://dc.lft.to/lastmile_qr_scan"}, "is_disabled": 0, "type": "electric_scooter", "is_reserved": 0, "name": "4366e82197d747e966215baf2d829d0d", "lon": -77.02611083333333, "bike_id": "4366e82197d747e966215baf2d829d0d", "lat": 38.89624416666667}, {"fusion_lon": 0.0, "fusion_lat": 0.0, "rental_uris": {"android": "https://dc.lft.to/lastmile_qr_scan", "ios": "https://dc.lft.to/lastmile_qr_scan"}, "is_disabled": 0, "type": "electric_scooter", "is_reserved": 0, "name": "e0b50fda070576d100c39ee946d97ca4", "lon": -77.01828716666667, "bike_id": "e0b50fda070576d100c39ee946d97ca4", "lat": 38.9214755}, {"fusion_lon": 0.0, "fusion_lat": 0.0, "rental_uris": {"android": "https://dc.lft.to/lastmile_qr_scan", "ios": "https://dc.lft.to/lastmile_qr_scan"}, "is_disabled": 0, "type": "electric_scooter", "is_reserved": 0, "name": "46fae82fe2ff8b01af8c36fc781c67ed", "lon": -77.0175375, "bike_id": "46fae82fe2ff8b01af8c36fc781c67ed", "lat": 38.90268583333334}, {"fusion_lon": 0.0, "fusion_lat": 0.0, "rental_uris": {"android": "https://dc.lft.to/lastmile_qr_scan", "ios": "https://dc.lft.to/lastmile_qr_scan"}, "is_disabled": 0, "type": "electric_scooter", "is_reserved": 0, "name": "342b1e0c499556df92370de6ed1abee2", "lon": -77.034475, "bike_id": "342b1e0c499556df92370de6ed1abee2", "lat": 38.9042025}, {"fusion_lon": 0.0, "fusion_lat": 0.0, "rental_uris": {"android": "https://dc.lft.to/lastmile_qr_scan", "ios": "https://dc.lft.to/lastmile_qr_scan"}, "is_disabled": 0, "type": "electric_bike", "is_reserved": 0, "name": "940d14b8ef6b72e805c09e320e818dd3", "lon": -76.93546333333333, "bike_id": "940d14b8ef6b72e805c09e320e818dd3", "lat": 38.95185516666667}, {"fusion_lon": 0.0, "fusion_lat": 0.0, "rental_uris": {"android": "https://dc.lft.to/lastmile_qr_scan", "ios": "https://dc.lft.to/lastmile_qr_scan"}, "is_disabled": 0, "type": "electric_scooter", "is_reserved": 0, "name": "420b1674f092f397eac258603a3de44f", "lon": -77.02576566666667, "bike_id": "420b1674f092f397eac258603a3de44f", "lat": 38.925034}, {"fusion_lon": 0.0, "fusion_lat": 0.0, "rental_uris": {"android": "https://dc.lft.to/lastmile_qr_scan", "ios": "https://dc.lft.to/lastmile_qr_scan"}, "is_disabled": 0, "type": "electric_scooter", "is_reserved": 0, "name": "0f880812595e154ec4c91c88ba7eb1cd", "lon": -77.03544583333333, "bike_id": "0f880812595e154ec4c91c88ba7eb1cd", "lat": 38.9246575}, {"fusion_lon": 0.0, "fusion_lat": 0.0, "rental_uris": {"android": "https://dc.lft.to/lastmile_qr_scan", "ios": "https://dc.lft.to/lastmile_qr_scan"}, "is_disabled": 0, "type": "electric_scooter", "is_reserved": 0, "name": "8e9bb6664835529cf1fd82313875dac2", "lon": -76.99504883333333, "bike_id": "8e9bb6664835529cf1fd82313875dac2", "lat": 38.8800335}, {"fusion_lon": 0.0, "fusion_lat": 0.0, "rental_uris": {"android": "https://dc.lft.to/lastmile_qr_scan", "ios": "https://dc.lft.to/lastmile_qr_scan"}, "is_disabled": 0, "type": "electric_scooter", "is_reserved": 0, "name": "4ba970638b420b847c4f36267dc8381c", "lon": -77.03983733333334, "bike_id": "4ba970638b420b847c4f36267dc8381c", "lat": 38.892215}, {"fusion_lon": 0.0, "fusion_lat": 0.0, "rental_uris": {"android": "https://dc.lft.to/lastmile_qr_scan", "ios": "https://dc.lft.to/lastmile_qr_scan"}, "is_disabled": 0, "type": "electric_scooter", "is_reserved": 0, "name": "a5ed8ae22b80931bfefb2dec02141742", "lon": -77.01412533333334, "bike_id": "a5ed8ae22b80931bfefb2dec02141742", "lat": 38.928032333333334}, {"fusion_lon": 0.0, "fusion_lat": 0.0, "rental_uris": {"android": "https://dc.lft.to/lastmile_qr_scan", "ios": "https://dc.lft.to/lastmile_qr_scan"}, "is_disabled": 0, "type": "electric_scooter", "is_reserved": 0, "name": "bbc8cc68c91eea5e3a4b0243640cc7eb", "lon": -77.01918566666667, "bike_id": "bbc8cc68c91eea5e3a4b0243640cc7eb", "lat": 38.92248466666667}, {"fusion_lon": 0.0, "fusion_lat": 0.0, "rental_uris": {"android": "https://dc.lft.to/lastmile_qr_scan", "ios": "https://dc.lft.to/lastmile_qr_scan"}, "is_disabled": 0, "type": "electric_scooter", "is_reserved": 0, "name": "91a68ce25919aca9bb4d467e27316be5", "lon": -77.08046783333333, "bike_id": "91a68ce25919aca9bb4d467e27316be5", "lat": 38.9236845}, {"fusion_lon": 0.0, "fusion_lat": 0.0, "rental_uris": {"android": "https://dc.lft.to/lastmile_qr_scan", "ios": "https://dc.lft.to/lastmile_qr_scan"}, "is_disabled": 0, "type": "electric_scooter", "is_reserved": 0, "name": "db7b80f5f413ccad859ac52845d9e989", "lon": -77.032683, "bike_id": "db7b80f5f413ccad859ac52845d9e989", "lat": 38.928982500000004}, {"fusion_lon": 0.0, "fusion_lat": 0.0, "rental_uris": {"android": "https://dc.lft.to/lastmile_qr_scan", "ios": "https://dc.lft.to/lastmile_qr_scan"}, "is_disabled": 0, "type": "electric_scooter", "is_reserved": 0, "name": "18ac30b5a68e725bdc5ad010ab1b90de", "lon": -77.07495183333333, "bike_id": "18ac30b5a68e725bdc5ad010ab1b90de", "lat": 38.9117675}, {"fusion_lon": 0.0, "fusion_lat": 0.0, "rental_uris": {"android": "https://dc.lft.to/lastmile_qr_scan", "ios": "https://dc.lft.to/lastmile_qr_scan"}, "is_disabled": 0, "type": "electric_bike", "is_reserved": 0, "name": "85d1a584fb341408d773788611b08f2f", "lon": -76.973062, "bike_id": "85d1a584fb341408d773788611b08f2f", "lat": 38.8650765}, {"fusion_lon": 0.0, "fusion_lat": 0.0, "rental_uris": {"android": "https://dc.lft.to/lastmile_qr_scan", "ios": "https://dc.lft.to/lastmile_qr_scan"}, "is_disabled": 0, "type": "electric_bike", "is_reserved": 0, "name": "ffa5bbbbb35c2a57d41c633c187ccfed", "lon": -77.01206, "bike_id": "ffa5bbbbb35c2a57d41c633c187ccfed", "lat": 38.950738666666666}, {"fusion_lon": 0.0, "fusion_lat": 0.0, "rental_uris": {"android": "https://dc.lft.to/lastmile_qr_scan", "ios": "https://dc.lft.to/lastmile_qr_scan"}, "is_disabled": 0, "type": "electric_scooter", "is_reserved": 0, "name": "495d100eac1628147a2e242b368ee784", "lon": -77.03348983333333, "bike_id": "495d100eac1628147a2e242b368ee784", "lat": 38.88483016666667}, {"fusion_lon": 0.0, "fusion_lat": 0.0, "rental_uris": {"android": "https://dc.lft.to/lastmile_qr_scan", "ios": "https://dc.lft.to/lastmile_qr_scan"}, "is_disabled": 0, "type": "electric_scooter", "is_reserved": 0, "name": "df086f6c453c6314e6f66f59c0d1ddbe", "lon": -77.01939583333333, "bike_id": "df086f6c453c6314e6f66f59c0d1ddbe", "lat": 38.956433833333335}, {"fusion_lon": 0.0, "fusion_lat": 0.0, "rental_uris": {"android": "https://dc.lft.to/lastmile_qr_scan", "ios": "https://dc.lft.to/lastmile_qr_scan"}, "is_disabled": 0, "type": "electric_scooter", "is_reserved": 0, "name": "08bd3b9531c8b936cba6b8d3f2f46282", "lon": -77.04586616666667, "bike_id": "08bd3b9531c8b936cba6b8d3f2f46282", "lat": 38.916007666666665}, {"fusion_lon": 0.0, "fusion_lat": 0.0, "rental_uris": {"android": "https://dc.lft.to/lastmile_qr_scan", "ios": "https://dc.lft.to/lastmile_qr_scan"}, "is_disabled": 0, "type": "electric_scooter", "is_reserved": 0, "name": "24fc4516b9dabaaebbb10e88d94ca368", "lon": -77.00328383333333, "bike_id": "24fc4516b9dabaaebbb10e88d94ca368", "lat": 38.8935935}, {"fusion_lon": 0.0, "fusion_lat": 0.0, "rental_uris": {"android": "https://dc.lft.to/lastmile_qr_scan", "ios": "https://dc.lft.to/lastmile_qr_scan"}, "is_disabled": 0, "type": "electric_scooter", "is_reserved": 0, "name": "df2a78d11d7f0fe714fe23de61f007cc", "lon": -77.00917766666667, "bike_id": "df2a78d11d7f0fe714fe23de61f007cc", "lat": 38.89553383333333}, {"fusion_lon": 0.0, "fusion_lat": 0.0, "rental_uris": {"android": "https://dc.lft.to/lastmile_qr_scan", "ios": "https://dc.lft.to/lastmile_qr_scan"}, "is_disabled": 0, "type": "electric_scooter", "is_reserved": 0, "name": "16051de3d2c70b33d94d200983f4888a", "lon": -77.033809, "bike_id": "16051de3d2c70b33d94d200983f4888a", "lat": 38.906022166666666}, {"fusion_lon": 0.0, "fusion_lat": 0.0, "rental_uris": {"android": "https://dc.lft.to/lastmile_qr_scan", "ios": "https://dc.lft.to/lastmile_qr_scan"}, "is_disabled": 0, "type": "electric_scooter", "is_reserved": 0, "name": "3a3055fa3629d0c4f812d2b8dfac8a1a", "lon": -77.03429916666667, "bike_id": "3a3055fa3629d0c4f812d2b8dfac8a1a", "lat": 38.9008695}, {"fusion_lon": 0.0, "fusion_lat": 0.0, "rental_uris": {"android": "https://dc.lft.to/lastmile_qr_scan", "ios": "https://dc.lft.to/lastmile_qr_scan"}, "is_disabled": 0, "type": "electric_scooter", "is_reserved": 0, "name": "4b77cfcb348928db1cd3f46aa6105772", "lon": -77.02406483333333, "bike_id": "4b77cfcb348928db1cd3f46aa6105772", "lat": 38.941809}, {"fusion_lon": 0.0, "fusion_lat": 0.0, "rental_uris": {"android": "https://dc.lft.to/lastmile_qr_scan", "ios": "https://dc.lft.to/lastmile_qr_scan"}, "is_disabled": 0, "type": "electric_bike", "is_reserved": 0, "name": "db8adad8f655a434439d170c64456268", "lon": -77.14869683333333, "bike_id": "db8adad8f655a434439d170c64456268", "lat": 38.87739233333333}, {"fusion_lon": 0.0, "fusion_lat": 0.0, "rental_uris": {"android": "https://dc.lft.to/lastmile_qr_scan", "ios": "https://dc.lft.to/lastmile_qr_scan"}, "is_disabled": 0, "type": "electric_bike", "is_reserved": 0, "name": "2c5042098dd13f448ced94ea8cd334a0", "lon": -77.10404133333333, "bike_id": "2c5042098dd13f448ced94ea8cd334a0", "lat": 39.005339666666664}, {"fusion_lon": 0.0, "fusion_lat": 0.0, "rental_uris": {"android": "https://dc.lft.to/lastmile_qr_scan", "ios": "https://dc.lft.to/lastmile_qr_scan"}, "is_disabled": 0, "type": "electric_scooter", "is_reserved": 0, "name": "6c0619de857fd8e881933cc5c7ff103f", "lon": -77.046065, "bike_id": "6c0619de857fd8e881933cc5c7ff103f", "lat": 38.90575}, {"fusion_lon": 0.0, "fusion_lat": 0.0, "rental_uris": {"android": "https://dc.lft.to/lastmile_qr_scan", "ios": "https://dc.lft.to/lastmile_qr_scan"}, "is_disabled": 0, "type": "electric_scooter", "is_reserved": 0, "name": "e107dc24787315e1bcab832e238fd898", "lon": -77.03521266666667, "bike_id": "e107dc24787315e1bcab832e238fd898", "lat": 38.922526166666664}, {"fusion_lon": 0.0, "fusion_lat": 0.0, "rental_uris": {"android": "https://dc.lft.to/lastmile_qr_scan", "ios": "https://dc.lft.to/lastmile_qr_scan"}, "is_disabled": 0, "type": "electric_scooter", "is_reserved": 0, "name": "eda5b841d46326ff238291db5e019499", "lon": -77.03200333333334, "bike_id": "eda5b841d46326ff238291db5e019499", "lat": 38.9096625}, {"fusion_lon": 0.0, "fusion_lat": 0.0, "rental_uris": {"android": "https://dc.lft.to/lastmile_qr_scan", "ios": "https://dc.lft.to/lastmile_qr_scan"}, "is_disabled": 0, "type": "electric_scooter", "is_reserved": 0, "name": "874a7d0eaca3fc090c85a9186251ca84", "lon": -77.01886916666666, "bike_id": "874a7d0eaca3fc090c85a9186251ca84", "lat": 38.9091435}, {"fusion_lon": 0.0, "fusion_lat": 0.0, "rental_uris": {"android": "https://dc.lft.to/lastmile_qr_scan", "ios": "https://dc.lft.to/lastmile_qr_scan"}, "is_disabled": 0, "type": "electric_scooter", "is_reserved": 0, "name": "e19493fb91947f8816489c9b993bd90e", "lon": -77.00206266666666, "bike_id": "e19493fb91947f8816489c9b993bd90e", "lat": 38.91189033333333}, {"fusion_lon": 0.0, "fusion_lat": 0.0, "rental_uris": {"android": "https://dc.lft.to/lastmile_qr_scan", "ios": "https://dc.lft.to/lastmile_qr_scan"}, "is_disabled": 0, "type": "electric_scooter", "is_reserved": 0, "name": "42fc223e3f211956b006e79820a7b643", "lon": -77.03173316666667, "bike_id": "42fc223e3f211956b006e79820a7b643", "lat": 38.898941666666666}, {"fusion_lon": 0.0, "fusion_lat": 0.0, "rental_uris": {"android": "https://dc.lft.to/lastmile_qr_scan", "ios": "https://dc.lft.to/lastmile_qr_scan"}, "is_disabled": 0, "type": "electric_scooter", "is_reserved": 0, "name": "34b4399150c53b0f9d444e520e5c567c", "lon": -77.03282733333333, "bike_id": "34b4399150c53b0f9d444e520e5c567c", "lat": 38.93735233333334}, {"fusion_lon": 0.0, "fusion_lat": 0.0, "rental_uris": {"android": "https://dc.lft.to/lastmile_qr_scan", "ios": "https://dc.lft.to/lastmile_qr_scan"}, "is_disabled": 0, "type": "electric_bike", "is_reserved": 0, "name": "891eb9d847646ef681ffc7693373695e", "lon": -76.98419116666666, "bike_id": "891eb9d847646ef681ffc7693373695e", "lat": 38.90998166666667}, {"fusion_lon": 0.0, "fusion_lat": 0.0, "rental_uris": {"android": "https://dc.lft.to/lastmile_qr_scan", "ios": "https://dc.lft.to/lastmile_qr_scan"}, "is_disabled": 0, "type": "electric_scooter", "is_reserved": 0, "name": "b0b6bfe84dfcc5882927e1c7e26d2aaf", "lon": -77.018134, "bike_id": "b0b6bfe84dfcc5882927e1c7e26d2aaf", "lat": 38.921100833333334}, {"fusion_lon": 0.0, "fusion_lat": 0.0, "rental_uris": {"android": "https://dc.lft.to/lastmile_qr_scan", "ios": "https://dc.lft.to/lastmile_qr_scan"}, "is_disabled": 0, "type": "electric_scooter", "is_reserved": 0, "name": "ee2577197f1bca7a3c4713182c11cb08", "lon": -77.0017345, "bike_id": "ee2577197f1bca7a3c4713182c11cb08", "lat": 38.94068333333333}, {"fusion_lon": 0.0, "fusion_lat": 0.0, "rental_uris": {"android": "https://dc.lft.to/lastmile_qr_scan", "ios": "https://dc.lft.to/lastmile_qr_scan"}, "is_disabled": 0, "type": "electric_scooter", "is_reserved": 0, "name": "6fa95854f85a35426234306f5105e946", "lon": -76.97805366666667, "bike_id": "6fa95854f85a35426234306f5105e946", "lat": 38.92037166666667}, {"fusion_lon": 0.0, "fusion_lat": 0.0, "rental_uris": {"android": "https://dc.lft.to/lastmile_qr_scan", "ios": "https://dc.lft.to/lastmile_qr_scan"}, "is_disabled": 0, "type": "electric_scooter", "is_reserved": 0, "name": "6a35bbf984bf433d92ab68962d207575", "lon": -77.02160883333333, "bike_id": "6a35bbf984bf433d92ab68962d207575", "lat": 38.92608466666667}, {"fusion_lon": 0.0, "fusion_lat": 0.0, "rental_uris": {"android": "https://dc.lft.to/lastmile_qr_scan", "ios": "https://dc.lft.to/lastmile_qr_scan"}, "is_disabled": 0, "type": "electric_scooter", "is_reserved": 0, "name": "9e3199b5db87049546fa982853ecbfe7", "lon": -77.03194, "bike_id": "9e3199b5db87049546fa982853ecbfe7", "lat": 38.9037605}, {"fusion_lon": 0.0, "fusion_lat": 0.0, "rental_uris": {"android": "https://dc.lft.to/lastmile_qr_scan", "ios": "https://dc.lft.to/lastmile_qr_scan"}, "is_disabled": 0, "type": "electric_bike", "is_reserved": 0, "name": "3bcd1f2f1d7b80f138d7890d567f7d54", "lon": -76.982166, "bike_id": "3bcd1f2f1d7b80f138d7890d567f7d54", "lat": 38.98499283333334}, {"fusion_lon": 0.0, "fusion_lat": 0.0, "rental_uris": {"android": "https://dc.lft.to/lastmile_qr_scan", "ios": "https://dc.lft.to/lastmile_qr_scan"}, "is_disabled": 0, "type": "electric_scooter", "is_reserved": 0, "name": "bbb09932d628989f69a60124eb1bdef7", "lon": -77.02120916666667, "bike_id": "bbb09932d628989f69a60124eb1bdef7", "lat": 38.93106366666667}, {"fusion_lon": 0.0, "fusion_lat": 0.0, "rental_uris": {"android": "https://dc.lft.to/lastmile_qr_scan", "ios": "https://dc.lft.to/lastmile_qr_scan"}, "is_disabled": 0, "type": "electric_scooter", "is_reserved": 0, "name": "6c28e56410e4e04a90c5ceaa6d24ec76", "lon": -77.055214, "bike_id": "6c28e56410e4e04a90c5ceaa6d24ec76", "lat": 38.897271333333336}, {"fusion_lon": 0.0, "fusion_lat": 0.0, "rental_uris": {"android": "https://dc.lft.to/lastmile_qr_scan", "ios": "https://dc.lft.to/lastmile_qr_scan"}, "is_disabled": 0, "type": "electric_bike", "is_reserved": 0, "name": "34595d9132cd6cbd8f85ef9601ffdd6c", "lon": -76.99311716666666, "bike_id": "34595d9132cd6cbd8f85ef9601ffdd6c", "lat": 38.9463475}, {"fusion_lon": 0.0, "fusion_lat": 0.0, "rental_uris": {"android": "https://dc.lft.to/lastmile_qr_scan", "ios": "https://dc.lft.to/lastmile_qr_scan"}, "is_disabled": 0, "type": "electric_scooter", "is_reserved": 0, "name": "43f78c3241dc93c1b414599161aa3a87", "lon": -77.01959216666667, "bike_id": "43f78c3241dc93c1b414599161aa3a87", "lat": 38.92367683333333}, {"fusion_lon": 0.0, "fusion_lat": 0.0, "rental_uris": {"android": "https://dc.lft.to/lastmile_qr_scan", "ios": "https://dc.lft.to/lastmile_qr_scan"}, "is_disabled": 0, "type": "electric_scooter", "is_reserved": 0, "name": "77be8ea1545853166836f97fc45d1b35", "lon": -77.0449925, "bike_id": "77be8ea1545853166836f97fc45d1b35", "lat": 38.89255516666667}, {"fusion_lon": 0.0, "fusion_lat": 0.0, "rental_uris": {"android": "https://dc.lft.to/lastmile_qr_scan", "ios": "https://dc.lft.to/lastmile_qr_scan"}, "is_disabled": 0, "type": "electric_scooter", "is_reserved": 0, "name": "96d8832f68f90d3c04d1c1fbc90fe29d", "lon": -77.04199333333334, "bike_id": "96d8832f68f90d3c04d1c1fbc90fe29d", "lat": 38.920463166666664}, {"fusion_lon": 0.0, "fusion_lat": 0.0, "rental_uris": {"android": "https://dc.lft.to/lastmile_qr_scan", "ios": "https://dc.lft.to/lastmile_qr_scan"}, "is_disabled": 0, "type": "electric_scooter", "is_reserved": 0, "name": "930ab448b2da6588ca0abda58e658afd", "lon": -77.009839, "bike_id": "930ab448b2da6588ca0abda58e658afd", "lat": 38.87290133333333}, {"fusion_lon": 0.0, "fusion_lat": 0.0, "rental_uris": {"android": "https://dc.lft.to/lastmile_qr_scan", "ios": "https://dc.lft.to/lastmile_qr_scan"}, "is_disabled": 0, "type": "electric_scooter", "is_reserved": 0, "name": "c07f97e1f127dc0627759c25b73ed77c", "lon": -77.02135366666667, "bike_id": "c07f97e1f127dc0627759c25b73ed77c", "lat": 38.92334616666667}, {"fusion_lon": 0.0, "fusion_lat": 0.0, "rental_uris": {"android": "https://dc.lft.to/lastmile_qr_scan", "ios": "https://dc.lft.to/lastmile_qr_scan"}, "is_disabled": 0, "type": "electric_bike", "is_reserved": 0, "name": "b8a2d513c4f569da22ba433e0aeb0779", "lon": -77.06082883333333, "bike_id": "b8a2d513c4f569da22ba433e0aeb0779", "lat": 38.804397333333334}, {"fusion_lon": 0.0, "fusion_lat": 0.0, "rental_uris": {"android": "https://dc.lft.to/lastmile_qr_scan", "ios": "https://dc.lft.to/lastmile_qr_scan"}, "is_disabled": 0, "type": "electric_scooter", "is_reserved": 0, "name": "9d12870533934b63ed0358102a32f8e2", "lon": -77.02988566666667, "bike_id": "9d12870533934b63ed0358102a32f8e2", "lat": 38.924489666666666}, {"fusion_lon": 0.0, "fusion_lat": 0.0, "rental_uris": {"android": "https://dc.lft.to/lastmile_qr_scan", "ios": "https://dc.lft.to/lastmile_qr_scan"}, "is_disabled": 0, "type": "electric_scooter", "is_reserved": 0, "name": "cff010c50825a9ee03cc8e631272f271", "lon": -77.03285533333333, "bike_id": "cff010c50825a9ee03cc8e631272f271", "lat": 38.929125166666665}, {"fusion_lon": 0.0, "fusion_lat": 0.0, "rental_uris": {"android": "https://dc.lft.to/lastmile_qr_scan", "ios": "https://dc.lft.to/lastmile_qr_scan"}, "is_disabled": 0, "type": "electric_scooter", "is_reserved": 0, "name": "485ca43629f89accceeec1af86894e70", "lon": -77.0512975, "bike_id": "485ca43629f89accceeec1af86894e70", "lat": 38.90162016666667}, {"fusion_lon": 0.0, "fusion_lat": 0.0, "rental_uris": {"android": "https://dc.lft.to/lastmile_qr_scan", "ios": "https://dc.lft.to/lastmile_qr_scan"}, "is_disabled": 0, "type": "electric_scooter", "is_reserved": 0, "name": "cb1343df3d0b8533578bcd64c4232c63", "lon": -77.03837183333333, "bike_id": "cb1343df3d0b8533578bcd64c4232c63", "lat": 38.9037215}, {"fusion_lon": 0.0, "fusion_lat": 0.0, "rental_uris": {"android": "https://dc.lft.to/lastmile_qr_scan", "ios": "https://dc.lft.to/lastmile_qr_scan"}, "is_disabled": 0, "type": "electric_scooter", "is_reserved": 0, "name": "a09e1711ff145d8bc9fa2d042a8cb1a9", "lon": -76.97677616666667, "bike_id": "a09e1711ff145d8bc9fa2d042a8cb1a9", "lat": 38.891970666666666}, {"fusion_lon": 0.0, "fusion_lat": 0.0, "rental_uris": {"android": "https://dc.lft.to/lastmile_qr_scan", "ios": "https://dc.lft.to/lastmile_qr_scan"}, "is_disabled": 0, "type": "electric_scooter", "is_reserved": 0, "name": "f4b4ab24cef9f4251c45043c9c0455ce", "lon": -76.99511583333333, "bike_id": "f4b4ab24cef9f4251c45043c9c0455ce", "lat": 38.88987316666667}, {"fusion_lon": 0.0, "fusion_lat": 0.0, "rental_uris": {"android": "https://dc.lft.to/lastmile_qr_scan", "ios": "https://dc.lft.to/lastmile_qr_scan"}, "is_disabled": 0, "type": "electric_bike", "is_reserved": 0, "name": "b36f1bf1b2faca510098644ae02a2d12", "lon": -76.99660283333333, "bike_id": "b36f1bf1b2faca510098644ae02a2d12", "lat": 38.967739}, {"fusion_lon": 0.0, "fusion_lat": 0.0, "rental_uris": {"android": "https://dc.lft.to/lastmile_qr_scan", "ios": "https://dc.lft.to/lastmile_qr_scan"}, "is_disabled": 0, "type": "electric_scooter", "is_reserved": 0, "name": "da0052513a46623cc58627513849d16c", "lon": -77.02577316666667, "bike_id": "da0052513a46623cc58627513849d16c", "lat": 38.892204666666665}, {"fusion_lon": 0.0, "fusion_lat": 0.0, "rental_uris": {"android": "https://dc.lft.to/lastmile_qr_scan", "ios": "https://dc.lft.to/lastmile_qr_scan"}, "is_disabled": 0, "type": "electric_scooter", "is_reserved": 0, "name": "e19ee5c2692b7d4c8fa1cbf848de32d1", "lon": -77.01914233333333, "bike_id": "e19ee5c2692b7d4c8fa1cbf848de32d1", "lat": 38.897274}, {"fusion_lon": 0.0, "fusion_lat": 0.0, "rental_uris": {"android": "https://dc.lft.to/lastmile_qr_scan", "ios": "https://dc.lft.to/lastmile_qr_scan"}, "is_disabled": 0, "type": "electric_scooter", "is_reserved": 0, "name": "e1e3095e94d61339f3c9ee485c88cd64", "lon": -77.03405183333334, "bike_id": "e1e3095e94d61339f3c9ee485c88cd64", "lat": 38.966869333333335}, {"fusion_lon": 0.0, "fusion_lat": 0.0, "rental_uris": {"android": "https://dc.lft.to/lastmile_qr_scan", "ios": "https://dc.lft.to/lastmile_qr_scan"}, "is_disabled": 0, "type": "electric_scooter", "is_reserved": 0, "name": "3bdfb0d05d5d7726a57e73496f8fbd35", "lon": -77.04308216666666, "bike_id": "3bdfb0d05d5d7726a57e73496f8fbd35", "lat": 38.900046}, {"fusion_lon": 0.0, "fusion_lat": 0.0, "rental_uris": {"android": "https://dc.lft.to/lastmile_qr_scan", "ios": "https://dc.lft.to/lastmile_qr_scan"}, "is_disabled": 0, "type": "electric_scooter", "is_reserved": 0, "name": "50c6b3423a56e3ddfab2b052fb7ec591", "lon": -77.038278, "bike_id": "50c6b3423a56e3ddfab2b052fb7ec591", "lat": 38.91687616666667}, {"fusion_lon": 0.0, "fusion_lat": 0.0, "rental_uris": {"android": "https://dc.lft.to/lastmile_qr_scan", "ios": "https://dc.lft.to/lastmile_qr_scan"}, "is_disabled": 0, "type": "electric_scooter", "is_reserved": 0, "name": "f4307a35f7ab2d17b08da03ebf3422ba", "lon": -77.014843, "bike_id": "f4307a35f7ab2d17b08da03ebf3422ba", "lat": 38.89665816666667}, {"fusion_lon": 0.0, "fusion_lat": 0.0, "rental_uris": {"android": "https://dc.lft.to/lastmile_qr_scan", "ios": "https://dc.lft.to/lastmile_qr_scan"}, "is_disabled": 0, "type": "electric_scooter", "is_reserved": 0, "name": "ddc1aab1385d2e7ccf84ad9cd493a8b7", "lon": -77.03260233333333, "bike_id": "ddc1aab1385d2e7ccf84ad9cd493a8b7", "lat": 38.9071945}, {"fusion_lon": 0.0, "fusion_lat": 0.0, "rental_uris": {"android": "https://dc.lft.to/lastmile_qr_scan", "ios": "https://dc.lft.to/lastmile_qr_scan"}, "is_disabled": 0, "type": "electric_scooter", "is_reserved": 0, "name": "0b5c2eefef28403d595a7873a0e5d1c3", "lon": -77.04209316666666, "bike_id": "0b5c2eefef28403d595a7873a0e5d1c3", "lat": 38.920518333333334}, {"fusion_lon": 0.0, "fusion_lat": 0.0, "rental_uris": {"android": "https://dc.lft.to/lastmile_qr_scan", "ios": "https://dc.lft.to/lastmile_qr_scan"}, "is_disabled": 0, "type": "electric_scooter", "is_reserved": 0, "name": "1207101b4ae6dfd9306c884185085dab", "lon": -76.93210616666667, "bike_id": "1207101b4ae6dfd9306c884185085dab", "lat": 38.8966275}, {"fusion_lon": 0.0, "fusion_lat": 0.0, "rental_uris": {"android": "https://dc.lft.to/lastmile_qr_scan", "ios": "https://dc.lft.to/lastmile_qr_scan"}, "is_disabled": 0, "type": "electric_scooter", "is_reserved": 0, "name": "35fd90090fe9588d7eb9e8d4885f31f9", "lon": -77.02501933333333, "bike_id": "35fd90090fe9588d7eb9e8d4885f31f9", "lat": 38.91979533333333}, {"fusion_lon": 0.0, "fusion_lat": 0.0, "rental_uris": {"android": "https://dc.lft.to/lastmile_qr_scan", "ios": "https://dc.lft.to/lastmile_qr_scan"}, "is_disabled": 0, "type": "electric_scooter", "is_reserved": 0, "name": "e9224bb720cca4ae70ab9f3f9d4178b9", "lon": -77.04527, "bike_id": "e9224bb720cca4ae70ab9f3f9d4178b9", "lat": 38.8995975}, {"fusion_lon": 0.0, "fusion_lat": 0.0, "rental_uris": {"android": "https://dc.lft.to/lastmile_qr_scan", "ios": "https://dc.lft.to/lastmile_qr_scan"}, "is_disabled": 0, "type": "electric_scooter", "is_reserved": 0, "name": "5d943a556a184ae7845096c4678f087a", "lon": -77.01630166666666, "bike_id": "5d943a556a184ae7845096c4678f087a", "lat": 38.9030345}, {"fusion_lon": 0.0, "fusion_lat": 0.0, "rental_uris": {"android": "https://dc.lft.to/lastmile_qr_scan", "ios": "https://dc.lft.to/lastmile_qr_scan"}, "is_disabled": 0, "type": "electric_scooter", "is_reserved": 0, "name": "73c5e53579bee1ec5628355bbc3184fe", "lon": -77.03452783333333, "bike_id": "73c5e53579bee1ec5628355bbc3184fe", "lat": 38.91818683333333}, {"fusion_lon": 0.0, "fusion_lat": 0.0, "rental_uris": {"android": "https://dc.lft.to/lastmile_qr_scan", "ios": "https://dc.lft.to/lastmile_qr_scan"}, "is_disabled": 0, "type": "electric_bike", "is_reserved": 0, "name": "e95beb391fca308305f4afa011f00586", "lon": -77.0041375, "bike_id": "e95beb391fca308305f4afa011f00586", "lat": 38.985291833333335}, {"fusion_lon": 0.0, "fusion_lat": 0.0, "rental_uris": {"android": "https://dc.lft.to/lastmile_qr_scan", "ios": "https://dc.lft.to/lastmile_qr_scan"}, "is_disabled": 0, "type": "electric_bike", "is_reserved": 0, "name": "d57d967a15d160b3961636b47a71283d", "lon": -76.980224, "bike_id": "d57d967a15d160b3961636b47a71283d", "lat": 38.868193}, {"fusion_lon": 0.0, "fusion_lat": 0.0, "rental_uris": {"android": "https://dc.lft.to/lastmile_qr_scan", "ios": "https://dc.lft.to/lastmile_qr_scan"}, "is_disabled": 0, "type": "electric_scooter", "is_reserved": 0, "name": "324a880f45de4a39d1b9b21501ec949b", "lon": -77.04902716666666, "bike_id": "324a880f45de4a39d1b9b21501ec949b", "lat": 38.9158845}, {"fusion_lon": 0.0, "fusion_lat": 0.0, "rental_uris": {"android": "https://dc.lft.to/lastmile_qr_scan", "ios": "https://dc.lft.to/lastmile_qr_scan"}, "is_disabled": 0, "type": "electric_scooter", "is_reserved": 0, "name": "6d023c496176083deb73844a78fb57e5", "lon": -77.02216916666667, "bike_id": "6d023c496176083deb73844a78fb57e5", "lat": 38.89971116666667}, {"fusion_lon": 0.0, "fusion_lat": 0.0, "rental_uris": {"android": "https://dc.lft.to/lastmile_qr_scan", "ios": "https://dc.lft.to/lastmile_qr_scan"}, "is_disabled": 0, "type": "electric_scooter", "is_reserved": 0, "name": "b78fa372c9d8d069927bcacb677bf458", "lon": -77.054221, "bike_id": "b78fa372c9d8d069927bcacb677bf458", "lat": 38.899135}, {"fusion_lon": 0.0, "fusion_lat": 0.0, "rental_uris": {"android": "https://dc.lft.to/lastmile_qr_scan", "ios": "https://dc.lft.to/lastmile_qr_scan"}, "is_disabled": 0, "type": "electric_scooter", "is_reserved": 0, "name": "3958c7bfe8e4b6595d4e30f80f8ae784", "lon": -77.03961483333333, "bike_id": "3958c7bfe8e4b6595d4e30f80f8ae784", "lat": 38.901193666666664}, {"fusion_lon": 0.0, "fusion_lat": 0.0, "rental_uris": {"android": "https://dc.lft.to/lastmile_qr_scan", "ios": "https://dc.lft.to/lastmile_qr_scan"}, "is_disabled": 0, "type": "electric_bike", "is_reserved": 0, "name": "fcda57a49abaeff1cbe63e1bf8d62afc", "lon": -76.9318555, "bike_id": "fcda57a49abaeff1cbe63e1bf8d62afc", "lat": 38.879528}, {"fusion_lon": 0.0, "fusion_lat": 0.0, "rental_uris": {"android": "https://dc.lft.to/lastmile_qr_scan", "ios": "https://dc.lft.to/lastmile_qr_scan"}, "is_disabled": 0, "type": "electric_scooter", "is_reserved": 0, "name": "c84b598cb74d49ef6f829c2fb38d65e7", "lon": -77.029732, "bike_id": "c84b598cb74d49ef6f829c2fb38d65e7", "lat": 38.912424666666666}, {"fusion_lon": 0.0, "fusion_lat": 0.0, "rental_uris": {"android": "https://dc.lft.to/lastmile_qr_scan", "ios": "https://dc.lft.to/lastmile_qr_scan"}, "is_disabled": 0, "type": "electric_scooter", "is_reserved": 0, "name": "8a69cea444dfbfe7e86842a72efaae36", "lon": -77.05003716666667, "bike_id": "8a69cea444dfbfe7e86842a72efaae36", "lat": 38.906132166666666}, {"fusion_lon": 0.0, "fusion_lat": 0.0, "rental_uris": {"android": "https://dc.lft.to/lastmile_qr_scan", "ios": "https://dc.lft.to/lastmile_qr_scan"}, "is_disabled": 0, "type": "electric_scooter", "is_reserved": 0, "name": "8f003efd7ef0e71b593ef87c68b791e6", "lon": -77.02498316666667, "bike_id": "8f003efd7ef0e71b593ef87c68b791e6", "lat": 38.917850333333334}, {"fusion_lon": 0.0, "fusion_lat": 0.0, "rental_uris": {"android": "https://dc.lft.to/lastmile_qr_scan", "ios": "https://dc.lft.to/lastmile_qr_scan"}, "is_disabled": 0, "type": "electric_bike", "is_reserved": 0, "name": "9f68149e216c9f0c2305c580984f9423", "lon": -76.95697066666666, "bike_id": "9f68149e216c9f0c2305c580984f9423", "lat": 38.888772333333335}, {"fusion_lon": 0.0, "fusion_lat": 0.0, "rental_uris": {"android": "https://dc.lft.to/lastmile_qr_scan", "ios": "https://dc.lft.to/lastmile_qr_scan"}, "is_disabled": 0, "type": "electric_scooter", "is_reserved": 0, "name": "7223541fd9b4342742937508c1ed8450", "lon": -77.0241825, "bike_id": "7223541fd9b4342742937508c1ed8450", "lat": 38.8949785}, {"fusion_lon": 0.0, "fusion_lat": 0.0, "rental_uris": {"android": "https://dc.lft.to/lastmile_qr_scan", "ios": "https://dc.lft.to/lastmile_qr_scan"}, "is_disabled": 0, "type": "electric_scooter", "is_reserved": 0, "name": "81b4cd3ea7febed6f0350321264826f2", "lon": -77.0637135, "bike_id": "81b4cd3ea7febed6f0350321264826f2", "lat": 38.90836266666667}, {"fusion_lon": 0.0, "fusion_lat": 0.0, "rental_uris": {"android": "https://dc.lft.to/lastmile_qr_scan", "ios": "https://dc.lft.to/lastmile_qr_scan"}, "is_disabled": 0, "type": "electric_scooter", "is_reserved": 0, "name": "60d5fad2539bff84c21cc6e9c8ee739e", "lon": -77.0526025, "bike_id": "60d5fad2539bff84c21cc6e9c8ee739e", "lat": 38.9032855}, {"fusion_lon": 0.0, "fusion_lat": 0.0, "rental_uris": {"android": "https://dc.lft.to/lastmile_qr_scan", "ios": "https://dc.lft.to/lastmile_qr_scan"}, "is_disabled": 0, "type": "electric_scooter", "is_reserved": 0, "name": "86ae594d8063a56bbc84cd1e7c45a68a", "lon": -77.0211975, "bike_id": "86ae594d8063a56bbc84cd1e7c45a68a", "lat": 38.94062233333333}, {"fusion_lon": 0.0, "fusion_lat": 0.0, "rental_uris": {"android": "https://dc.lft.to/lastmile_qr_scan", "ios": "https://dc.lft.to/lastmile_qr_scan"}, "is_disabled": 0, "type": "electric_scooter", "is_reserved": 0, "name": "1b9da35eb8c8fd5f8954fe4b18468580", "lon": -77.04173333333334, "bike_id": "1b9da35eb8c8fd5f8954fe4b18468580", "lat": 38.9190825}, {"fusion_lon": 0.0, "fusion_lat": 0.0, "rental_uris": {"android": "https://dc.lft.to/lastmile_qr_scan", "ios": "https://dc.lft.to/lastmile_qr_scan"}, "is_disabled": 0, "type": "electric_scooter", "is_reserved": 0, "name": "fa664494aa4bd291b818729c8c1e96c2", "lon": -77.02986466666667, "bike_id": "fa664494aa4bd291b818729c8c1e96c2", "lat": 38.947167}, {"fusion_lon": 0.0, "fusion_lat": 0.0, "rental_uris": {"android": "https://dc.lft.to/lastmile_qr_scan", "ios": "https://dc.lft.to/lastmile_qr_scan"}, "is_disabled": 0, "type": "electric_scooter", "is_reserved": 0, "name": "f0e79585871caad4a701296d1969cc48", "lon": -77.01959016666666, "bike_id": "f0e79585871caad4a701296d1969cc48", "lat": 38.92363433333333}, {"fusion_lon": 0.0, "fusion_lat": 0.0, "rental_uris": {"android": "https://dc.lft.to/lastmile_qr_scan", "ios": "https://dc.lft.to/lastmile_qr_scan"}, "is_disabled": 0, "type": "electric_scooter", "is_reserved": 0, "name": "3b77746eb05c0799cd4429c8b64dcded", "lon": -77.03278266666666, "bike_id": "3b77746eb05c0799cd4429c8b64dcded", "lat": 38.932019333333336}, {"fusion_lon": 0.0, "fusion_lat": 0.0, "rental_uris": {"android": "https://dc.lft.to/lastmile_qr_scan", "ios": "https://dc.lft.to/lastmile_qr_scan"}, "is_disabled": 0, "type": "electric_scooter", "is_reserved": 0, "name": "1fce3274fe95f8e7ff76438e18af5627", "lon": -77.030842, "bike_id": "1fce3274fe95f8e7ff76438e18af5627", "lat": 38.9353305}, {"fusion_lon": 0.0, "fusion_lat": 0.0, "rental_uris": {"android": "https://dc.lft.to/lastmile_qr_scan", "ios": "https://dc.lft.to/lastmile_qr_scan"}, "is_disabled": 0, "type": "electric_scooter", "is_reserved": 0, "name": "9587040c9fbf58c9fbaf1c9b1ad4975b", "lon": -77.00343783333334, "bike_id": "9587040c9fbf58c9fbaf1c9b1ad4975b", "lat": 38.90360283333333}, {"fusion_lon": 0.0, "fusion_lat": 0.0, "rental_uris": {"android": "https://dc.lft.to/lastmile_qr_scan", "ios": "https://dc.lft.to/lastmile_qr_scan"}, "is_disabled": 0, "type": "electric_scooter", "is_reserved": 0, "name": "03194f210a6f5371092e7b62633c05a3", "lon": -77.03668316666666, "bike_id": "03194f210a6f5371092e7b62633c05a3", "lat": 38.923229666666664}, {"fusion_lon": 0.0, "fusion_lat": 0.0, "rental_uris": {"android": "https://dc.lft.to/lastmile_qr_scan", "ios": "https://dc.lft.to/lastmile_qr_scan"}, "is_disabled": 0, "type": "electric_scooter", "is_reserved": 0, "name": "9fb53716d25091aedc2ac16dbd728458", "lon": -77.07149566666666, "bike_id": "9fb53716d25091aedc2ac16dbd728458", "lat": 38.907711666666664}, {"fusion_lon": 0.0, "fusion_lat": 0.0, "rental_uris": {"android": "https://dc.lft.to/lastmile_qr_scan", "ios": "https://dc.lft.to/lastmile_qr_scan"}, "is_disabled": 0, "type": "electric_scooter", "is_reserved": 0, "name": "54bd3088e08260d5a3fd7c80b6effd41", "lon": -77.01115333333334, "bike_id": "54bd3088e08260d5a3fd7c80b6effd41", "lat": 38.885090166666664}, {"fusion_lon": 0.0, "fusion_lat": 0.0, "rental_uris": {"android": "https://dc.lft.to/lastmile_qr_scan", "ios": "https://dc.lft.to/lastmile_qr_scan"}, "is_disabled": 0, "type": "electric_scooter", "is_reserved": 0, "name": "e8c5b8640ea7627ade1dd3e5a8fce5d4", "lon": -77.03202366666666, "bike_id": "e8c5b8640ea7627ade1dd3e5a8fce5d4", "lat": 38.92282733333333}, {"fusion_lon": 0.0, "fusion_lat": 0.0, "rental_uris": {"android": "https://dc.lft.to/lastmile_qr_scan", "ios": "https://dc.lft.to/lastmile_qr_scan"}, "is_disabled": 0, "type": "electric_scooter", "is_reserved": 0, "name": "c33e8445b1898898f8f301bcba1141e2", "lon": -77.062222, "bike_id": "c33e8445b1898898f8f301bcba1141e2", "lat": 38.913139666666666}, {"fusion_lon": 0.0, "fusion_lat": 0.0, "rental_uris": {"android": "https://dc.lft.to/lastmile_qr_scan", "ios": "https://dc.lft.to/lastmile_qr_scan"}, "is_disabled": 0, "type": "electric_scooter", "is_reserved": 0, "name": "b2b807e2501ba912a4e2abfa3b086cec", "lon": -77.08803066666667, "bike_id": "b2b807e2501ba912a4e2abfa3b086cec", "lat": 38.935343}, {"fusion_lon": 0.0, "fusion_lat": 0.0, "rental_uris": {"android": "https://dc.lft.to/lastmile_qr_scan", "ios": "https://dc.lft.to/lastmile_qr_scan"}, "is_disabled": 0, "type": "electric_scooter", "is_reserved": 0, "name": "6e26df43201ae4f5225d606c1b809c4a", "lon": -77.05986466666667, "bike_id": "6e26df43201ae4f5225d606c1b809c4a", "lat": 38.927117}, {"fusion_lon": 0.0, "fusion_lat": 0.0, "rental_uris": {"android": "https://dc.lft.to/lastmile_qr_scan", "ios": "https://dc.lft.to/lastmile_qr_scan"}, "is_disabled": 0, "type": "electric_scooter", "is_reserved": 0, "name": "39960707aa9f372ce6dcdbbefdc5d387", "lon": -77.01679466666667, "bike_id": "39960707aa9f372ce6dcdbbefdc5d387", "lat": 38.920430833333334}, {"fusion_lon": 0.0, "fusion_lat": 0.0, "rental_uris": {"android": "https://dc.lft.to/lastmile_qr_scan", "ios": "https://dc.lft.to/lastmile_qr_scan"}, "is_disabled": 0, "type": "electric_scooter", "is_reserved": 0, "name": "fd136a2625d7924f9431c41bce5533cb", "lon": -77.02277583333333, "bike_id": "fd136a2625d7924f9431c41bce5533cb", "lat": 38.91652166666667}, {"fusion_lon": 0.0, "fusion_lat": 0.0, "rental_uris": {"android": "https://dc.lft.to/lastmile_qr_scan", "ios": "https://dc.lft.to/lastmile_qr_scan"}, "is_disabled": 0, "type": "electric_bike", "is_reserved": 0, "name": "ac0245c9559269c05a262bd765876b0b", "lon": -76.92001883333333, "bike_id": "ac0245c9559269c05a262bd765876b0b", "lat": 38.891285333333336}, {"fusion_lon": 0.0, "fusion_lat": 0.0, "rental_uris": {"android": "https://dc.lft.to/lastmile_qr_scan", "ios": "https://dc.lft.to/lastmile_qr_scan"}, "is_disabled": 0, "type": "electric_scooter", "is_reserved": 0, "name": "ff38e9221a1468719e72bd43f1e57c50", "lon": -77.01990183333334, "bike_id": "ff38e9221a1468719e72bd43f1e57c50", "lat": 38.89855466666667}, {"fusion_lon": 0.0, "fusion_lat": 0.0, "rental_uris": {"android": "https://dc.lft.to/lastmile_qr_scan", "ios": "https://dc.lft.to/lastmile_qr_scan"}, "is_disabled": 0, "type": "electric_scooter", "is_reserved": 0, "name": "39d98a23ddd480534a261d4658ae47ed", "lon": -77.03858316666667, "bike_id": "39d98a23ddd480534a261d4658ae47ed", "lat": 38.9121225}, {"fusion_lon": 0.0, "fusion_lat": 0.0, "rental_uris": {"android": "https://dc.lft.to/lastmile_qr_scan", "ios": "https://dc.lft.to/lastmile_qr_scan"}, "is_disabled": 0, "type": "electric_scooter", "is_reserved": 0, "name": "51bd329ea7fcc36df604c1a3efb9a3e6", "lon": -76.97206183333333, "bike_id": "51bd329ea7fcc36df604c1a3efb9a3e6", "lat": 38.9254775}, {"fusion_lon": 0.0, "fusion_lat": 0.0, "rental_uris": {"android": "https://dc.lft.to/lastmile_qr_scan", "ios": "https://dc.lft.to/lastmile_qr_scan"}, "is_disabled": 0, "type": "electric_scooter", "is_reserved": 0, "name": "6545bdb2f19d078e280f2fd4239a9763", "lon": -77.022063, "bike_id": "6545bdb2f19d078e280f2fd4239a9763", "lat": 38.89971083333333}, {"fusion_lon": 0.0, "fusion_lat": 0.0, "rental_uris": {"android": "https://dc.lft.to/lastmile_qr_scan", "ios": "https://dc.lft.to/lastmile_qr_scan"}, "is_disabled": 0, "type": "electric_scooter", "is_reserved": 0, "name": "b51a75de8d0557a95c9a15a4e4ee2a8a", "lon": -76.98543233333334, "bike_id": "b51a75de8d0557a95c9a15a4e4ee2a8a", "lat": 38.88607866666667}, {"fusion_lon": 0.0, "fusion_lat": 0.0, "rental_uris": {"android": "https://dc.lft.to/lastmile_qr_scan", "ios": "https://dc.lft.to/lastmile_qr_scan"}, "is_disabled": 0, "type": "electric_bike", "is_reserved": 0, "name": "9241bb610690636280192fcc75e0eddd", "lon": -77.04078783333334, "bike_id": "9241bb610690636280192fcc75e0eddd", "lat": 38.83061633333333}, {"fusion_lon": 0.0, "fusion_lat": 0.0, "rental_uris": {"android": "https://dc.lft.to/lastmile_qr_scan", "ios": "https://dc.lft.to/lastmile_qr_scan"}, "is_disabled": 0, "type": "electric_scooter", "is_reserved": 0, "name": "e35e3ba25494ba4ffeffc52a4aef3300", "lon": -77.01732483333333, "bike_id": "e35e3ba25494ba4ffeffc52a4aef3300", "lat": 38.9024895}, {"fusion_lon": 0.0, "fusion_lat": 0.0, "rental_uris": {"android": "https://dc.lft.to/lastmile_qr_scan", "ios": "https://dc.lft.to/lastmile_qr_scan"}, "is_disabled": 0, "type": "electric_scooter", "is_reserved": 0, "name": "3b60d8e66cfc4db7f2ebddd20b0d8e7d", "lon": -77.0215535, "bike_id": "3b60d8e66cfc4db7f2ebddd20b0d8e7d", "lat": 38.893849}, {"fusion_lon": 0.0, "fusion_lat": 0.0, "rental_uris": {"android": "https://dc.lft.to/lastmile_qr_scan", "ios": "https://dc.lft.to/lastmile_qr_scan"}, "is_disabled": 0, "type": "electric_scooter", "is_reserved": 0, "name": "5b4a7f2a8c0362ef8204084e3c1e1a87", "lon": -77.04599133333333, "bike_id": "5b4a7f2a8c0362ef8204084e3c1e1a87", "lat": 38.905832}, {"fusion_lon": 0.0, "fusion_lat": 0.0, "rental_uris": {"android": "https://dc.lft.to/lastmile_qr_scan", "ios": "https://dc.lft.to/lastmile_qr_scan"}, "is_disabled": 0, "type": "electric_scooter", "is_reserved": 0, "name": "47cf4aa4289ccbc4b3eeed87d8f18228", "lon": -76.9850485, "bike_id": "47cf4aa4289ccbc4b3eeed87d8f18228", "lat": 38.880789666666665}, {"fusion_lon": 0.0, "fusion_lat": 0.0, "rental_uris": {"android": "https://dc.lft.to/lastmile_qr_scan", "ios": "https://dc.lft.to/lastmile_qr_scan"}, "is_disabled": 0, "type": "electric_scooter", "is_reserved": 0, "name": "3a9eec4b3f8b47571d6e9b9f62115b7f", "lon": -77.038645, "bike_id": "3a9eec4b3f8b47571d6e9b9f62115b7f", "lat": 38.9126575}, {"fusion_lon": 0.0, "fusion_lat": 0.0, "rental_uris": {"android": "https://dc.lft.to/lastmile_qr_scan", "ios": "https://dc.lft.to/lastmile_qr_scan"}, "is_disabled": 0, "type": "electric_bike", "is_reserved": 0, "name": "9f1b811791493e1a133708c7a38010ba", "lon": -77.02302966666667, "bike_id": "9f1b811791493e1a133708c7a38010ba", "lat": 38.96675716666667}, {"fusion_lon": 0.0, "fusion_lat": 0.0, "rental_uris": {"android": "https://dc.lft.to/lastmile_qr_scan", "ios": "https://dc.lft.to/lastmile_qr_scan"}, "is_disabled": 0, "type": "electric_scooter", "is_reserved": 0, "name": "01cbebcc68ff852c5bf99f966dea93dc", "lon": -77.01680083333333, "bike_id": "01cbebcc68ff852c5bf99f966dea93dc", "lat": 38.92040466666667}, {"fusion_lon": 0.0, "fusion_lat": 0.0, "rental_uris": {"android": "https://dc.lft.to/lastmile_qr_scan", "ios": "https://dc.lft.to/lastmile_qr_scan"}, "is_disabled": 0, "type": "electric_scooter", "is_reserved": 0, "name": "eee5057cbe90a6bd82e1db494b1deb0a", "lon": -77.05696166666667, "bike_id": "eee5057cbe90a6bd82e1db494b1deb0a", "lat": 38.91674716666667}, {"fusion_lon": 0.0, "fusion_lat": 0.0, "rental_uris": {"android": "https://dc.lft.to/lastmile_qr_scan", "ios": "https://dc.lft.to/lastmile_qr_scan"}, "is_disabled": 0, "type": "electric_scooter", "is_reserved": 0, "name": "a9a42aa02b9f832e7ac05d5cdd51b6fe", "lon": -77.05475333333334, "bike_id": "a9a42aa02b9f832e7ac05d5cdd51b6fe", "lat": 38.89391116666667}, {"fusion_lon": 0.0, "fusion_lat": 0.0, "rental_uris": {"android": "https://dc.lft.to/lastmile_qr_scan", "ios": "https://dc.lft.to/lastmile_qr_scan"}, "is_disabled": 0, "type": "electric_scooter", "is_reserved": 0, "name": "60ecb0527a14cb81dfdf475e96f54822", "lon": -76.99340183333334, "bike_id": "60ecb0527a14cb81dfdf475e96f54822", "lat": 38.900564}, {"fusion_lon": 0.0, "fusion_lat": 0.0, "rental_uris": {"android": "https://dc.lft.to/lastmile_qr_scan", "ios": "https://dc.lft.to/lastmile_qr_scan"}, "is_disabled": 0, "type": "electric_scooter", "is_reserved": 0, "name": "423361589ebc70297aa42fd406225ce8", "lon": -76.92502366666666, "bike_id": "423361589ebc70297aa42fd406225ce8", "lat": 38.88601366666666}, {"fusion_lon": 0.0, "fusion_lat": 0.0, "rental_uris": {"android": "https://dc.lft.to/lastmile_qr_scan", "ios": "https://dc.lft.to/lastmile_qr_scan"}, "is_disabled": 0, "type": "electric_scooter", "is_reserved": 0, "name": "75995f1a4491aabc9fa76f9dc1345989", "lon": -77.0004375, "bike_id": "75995f1a4491aabc9fa76f9dc1345989", "lat": 38.874776}, {"fusion_lon": 0.0, "fusion_lat": 0.0, "rental_uris": {"android": "https://dc.lft.to/lastmile_qr_scan", "ios": "https://dc.lft.to/lastmile_qr_scan"}, "is_disabled": 0, "type": "electric_scooter", "is_reserved": 0, "name": "80a33dd67a7b3dbab41175d5ae1970c1", "lon": -77.02767733333333, "bike_id": "80a33dd67a7b3dbab41175d5ae1970c1", "lat": 38.963857833333336}, {"fusion_lon": 0.0, "fusion_lat": 0.0, "rental_uris": {"android": "https://dc.lft.to/lastmile_qr_scan", "ios": "https://dc.lft.to/lastmile_qr_scan"}, "is_disabled": 0, "type": "electric_scooter", "is_reserved": 0, "name": "7208f79114fdca275629cd289b7732df", "lon": -77.01276866666667, "bike_id": "7208f79114fdca275629cd289b7732df", "lat": 38.95653766666667}, {"fusion_lon": 0.0, "fusion_lat": 0.0, "rental_uris": {"android": "https://dc.lft.to/lastmile_qr_scan", "ios": "https://dc.lft.to/lastmile_qr_scan"}, "is_disabled": 0, "type": "electric_scooter", "is_reserved": 0, "name": "737bc4d0a6d99d5fc61f857c4413e4c9", "lon": -77.03381383333334, "bike_id": "737bc4d0a6d99d5fc61f857c4413e4c9", "lat": 38.90109066666667}, {"fusion_lon": 0.0, "fusion_lat": 0.0, "rental_uris": {"android": "https://dc.lft.to/lastmile_qr_scan", "ios": "https://dc.lft.to/lastmile_qr_scan"}, "is_disabled": 0, "type": "electric_scooter", "is_reserved": 0, "name": "28fe95a02824a01623ba3d562bee89dc", "lon": -77.02124033333334, "bike_id": "28fe95a02824a01623ba3d562bee89dc", "lat": 38.92365516666667}, {"fusion_lon": 0.0, "fusion_lat": 0.0, "rental_uris": {"android": "https://dc.lft.to/lastmile_qr_scan", "ios": "https://dc.lft.to/lastmile_qr_scan"}, "is_disabled": 0, "type": "electric_scooter", "is_reserved": 0, "name": "9aeafabd0e6f957c43ea5ef5e7690785", "lon": -77.032747, "bike_id": "9aeafabd0e6f957c43ea5ef5e7690785", "lat": 38.9373295}, {"fusion_lon": 0.0, "fusion_lat": 0.0, "rental_uris": {"android": "https://dc.lft.to/lastmile_qr_scan", "ios": "https://dc.lft.to/lastmile_qr_scan"}, "is_disabled": 0, "type": "electric_scooter", "is_reserved": 0, "name": "7b587bb499b585eed617334bb0b6bd54", "lon": -77.00759183333334, "bike_id": "7b587bb499b585eed617334bb0b6bd54", "lat": 38.89833616666667}, {"fusion_lon": 0.0, "fusion_lat": 0.0, "rental_uris": {"android": "https://dc.lft.to/lastmile_qr_scan", "ios": "https://dc.lft.to/lastmile_qr_scan"}, "is_disabled": 0, "type": "electric_scooter", "is_reserved": 0, "name": "a32dbe2a2d04e08aec4f961dd39c6a9b", "lon": -76.99851166666667, "bike_id": "a32dbe2a2d04e08aec4f961dd39c6a9b", "lat": 38.89623433333333}, {"fusion_lon": 0.0, "fusion_lat": 0.0, "rental_uris": {"android": "https://dc.lft.to/lastmile_qr_scan", "ios": "https://dc.lft.to/lastmile_qr_scan"}, "is_disabled": 0, "type": "electric_scooter", "is_reserved": 0, "name": "38acb1dd5a5c996ccdcdf50ae9e0ab4d", "lon": -77.03261633333334, "bike_id": "38acb1dd5a5c996ccdcdf50ae9e0ab4d", "lat": 38.90375066666667}, {"fusion_lon": 0.0, "fusion_lat": 0.0, "rental_uris": {"android": "https://dc.lft.to/lastmile_qr_scan", "ios": "https://dc.lft.to/lastmile_qr_scan"}, "is_disabled": 0, "type": "electric_scooter", "is_reserved": 0, "name": "660b56ac62dddf7a033649f43138200c", "lon": -76.93194616666666, "bike_id": "660b56ac62dddf7a033649f43138200c", "lat": 38.88289183333333}, {"fusion_lon": 0.0, "fusion_lat": 0.0, "rental_uris": {"android": "https://dc.lft.to/lastmile_qr_scan", "ios": "https://dc.lft.to/lastmile_qr_scan"}, "is_disabled": 0, "type": "electric_scooter", "is_reserved": 0, "name": "8da06ee7818ff881e3084dec28a55c2e", "lon": -76.99033316666667, "bike_id": "8da06ee7818ff881e3084dec28a55c2e", "lat": 38.865155333333334}, {"fusion_lon": 0.0, "fusion_lat": 0.0, "rental_uris": {"android": "https://dc.lft.to/lastmile_qr_scan", "ios": "https://dc.lft.to/lastmile_qr_scan"}, "is_disabled": 0, "type": "electric_scooter", "is_reserved": 0, "name": "679f95a32c51ee08af79a035803906f0", "lon": -77.02065916666666, "bike_id": "679f95a32c51ee08af79a035803906f0", "lat": 38.893667666666666}, {"fusion_lon": 0.0, "fusion_lat": 0.0, "rental_uris": {"android": "https://dc.lft.to/lastmile_qr_scan", "ios": "https://dc.lft.to/lastmile_qr_scan"}, "is_disabled": 0, "type": "electric_scooter", "is_reserved": 0, "name": "ce23f6e7bae51f6c4caebe43acd57db5", "lon": -77.02987133333333, "bike_id": "ce23f6e7bae51f6c4caebe43acd57db5", "lat": 38.90142933333333}, {"fusion_lon": 0.0, "fusion_lat": 0.0, "rental_uris": {"android": "https://dc.lft.to/lastmile_qr_scan", "ios": "https://dc.lft.to/lastmile_qr_scan"}, "is_disabled": 0, "type": "electric_scooter", "is_reserved": 0, "name": "dafb4234eeb95e5fd8b2a3424dcc889b", "lon": -77.04185083333333, "bike_id": "dafb4234eeb95e5fd8b2a3424dcc889b", "lat": 38.90462466666666}, {"fusion_lon": 0.0, "fusion_lat": 0.0, "rental_uris": {"android": "https://dc.lft.to/lastmile_qr_scan", "ios": "https://dc.lft.to/lastmile_qr_scan"}, "is_disabled": 0, "type": "electric_scooter", "is_reserved": 0, "name": "eeb65f2201e738113cc674cc1ccb6ab6", "lon": -76.93209133333333, "bike_id": "eeb65f2201e738113cc674cc1ccb6ab6", "lat": 38.8985015}, {"fusion_lon": 0.0, "fusion_lat": 0.0, "rental_uris": {"android": "https://dc.lft.to/lastmile_qr_scan", "ios": "https://dc.lft.to/lastmile_qr_scan"}, "is_disabled": 0, "type": "electric_scooter", "is_reserved": 0, "name": "b26b2f9c3e6b917fb49a871cd3fc48d5", "lon": -77.074388, "bike_id": "b26b2f9c3e6b917fb49a871cd3fc48d5", "lat": 38.93585233333334}, {"fusion_lon": 0.0, "fusion_lat": 0.0, "rental_uris": {"android": "https://dc.lft.to/lastmile_qr_scan", "ios": "https://dc.lft.to/lastmile_qr_scan"}, "is_disabled": 0, "type": "electric_scooter", "is_reserved": 0, "name": "6102bb491845946fbbabcbc51e266bd7", "lon": -77.026699, "bike_id": "6102bb491845946fbbabcbc51e266bd7", "lat": 38.92172133333333}, {"fusion_lon": 0.0, "fusion_lat": 0.0, "rental_uris": {"android": "https://dc.lft.to/lastmile_qr_scan", "ios": "https://dc.lft.to/lastmile_qr_scan"}, "is_disabled": 0, "type": "electric_scooter", "is_reserved": 0, "name": "ef3eb5be5e19e9518968fb850af8833b", "lon": -77.04043433333334, "bike_id": "ef3eb5be5e19e9518968fb850af8833b", "lat": 38.9040175}, {"fusion_lon": 0.0, "fusion_lat": 0.0, "rental_uris": {"android": "https://dc.lft.to/lastmile_qr_scan", "ios": "https://dc.lft.to/lastmile_qr_scan"}, "is_disabled": 0, "type": "electric_scooter", "is_reserved": 0, "name": "fc919a5f93f63c9f28bf0749df5fe8d8", "lon": -77.04231966666667, "bike_id": "fc919a5f93f63c9f28bf0749df5fe8d8", "lat": 38.921919}, {"fusion_lon": 0.0, "fusion_lat": 0.0, "rental_uris": {"android": "https://dc.lft.to/lastmile_qr_scan", "ios": "https://dc.lft.to/lastmile_qr_scan"}, "is_disabled": 0, "type": "electric_scooter", "is_reserved": 0, "name": "87436b789919922196e5b0faf04b472c", "lon": -77.043363, "bike_id": "87436b789919922196e5b0faf04b472c", "lat": 38.925013666666665}, {"fusion_lon": 0.0, "fusion_lat": 0.0, "rental_uris": {"android": "https://dc.lft.to/lastmile_qr_scan", "ios": "https://dc.lft.to/lastmile_qr_scan"}, "is_disabled": 0, "type": "electric_scooter", "is_reserved": 0, "name": "11903c29b2cf755384f9e8dea40dbfb7", "lon": -77.04657683333333, "bike_id": "11903c29b2cf755384f9e8dea40dbfb7", "lat": 38.89467283333333}, {"fusion_lon": 0.0, "fusion_lat": 0.0, "rental_uris": {"android": "https://dc.lft.to/lastmile_qr_scan", "ios": "https://dc.lft.to/lastmile_qr_scan"}, "is_disabled": 0, "type": "electric_scooter", "is_reserved": 0, "name": "dc484a0cd128cf7b60730b273bf53b70", "lon": -77.00209483333333, "bike_id": "dc484a0cd128cf7b60730b273bf53b70", "lat": 38.90017433333333}, {"fusion_lon": 0.0, "fusion_lat": 0.0, "rental_uris": {"android": "https://dc.lft.to/lastmile_qr_scan", "ios": "https://dc.lft.to/lastmile_qr_scan"}, "is_disabled": 0, "type": "electric_scooter", "is_reserved": 0, "name": "30023515b8d3aca006dcee59d3d4ba18", "lon": -77.05004583333333, "bike_id": "30023515b8d3aca006dcee59d3d4ba18", "lat": 38.9010475}, {"fusion_lon": 0.0, "fusion_lat": 0.0, "rental_uris": {"android": "https://dc.lft.to/lastmile_qr_scan", "ios": "https://dc.lft.to/lastmile_qr_scan"}, "is_disabled": 0, "type": "electric_scooter", "is_reserved": 0, "name": "951eb7f65dc087f54dac92a29f97f1fd", "lon": -77.02534083333333, "bike_id": "951eb7f65dc087f54dac92a29f97f1fd", "lat": 38.89213733333333}, {"fusion_lon": 0.0, "fusion_lat": 0.0, "rental_uris": {"android": "https://dc.lft.to/lastmile_qr_scan", "ios": "https://dc.lft.to/lastmile_qr_scan"}, "is_disabled": 0, "type": "electric_scooter", "is_reserved": 0, "name": "2b06317a05a1fd52cfa4807bc41245b2", "lon": -77.0310425, "bike_id": "2b06317a05a1fd52cfa4807bc41245b2", "lat": 38.919186833333335}, {"fusion_lon": 0.0, "fusion_lat": 0.0, "rental_uris": {"android": "https://dc.lft.to/lastmile_qr_scan", "ios": "https://dc.lft.to/lastmile_qr_scan"}, "is_disabled": 0, "type": "electric_scooter", "is_reserved": 0, "name": "d5dafeda1cdb263adba96882384996a1", "lon": -77.02578933333334, "bike_id": "d5dafeda1cdb263adba96882384996a1", "lat": 38.925036}, {"fusion_lon": 0.0, "fusion_lat": 0.0, "rental_uris": {"android": "https://dc.lft.to/lastmile_qr_scan", "ios": "https://dc.lft.to/lastmile_qr_scan"}, "is_disabled": 0, "type": "electric_scooter", "is_reserved": 0, "name": "feacbd6017454edb71a169947ae15689", "lon": -77.01957433333334, "bike_id": "feacbd6017454edb71a169947ae15689", "lat": 38.923604833333336}, {"fusion_lon": 0.0, "fusion_lat": 0.0, "rental_uris": {"android": "https://dc.lft.to/lastmile_qr_scan", "ios": "https://dc.lft.to/lastmile_qr_scan"}, "is_disabled": 0, "type": "electric_scooter", "is_reserved": 0, "name": "2dfc1f960112581f2769281277c38a5f", "lon": -77.00948616666666, "bike_id": "2dfc1f960112581f2769281277c38a5f", "lat": 38.89497883333333}, {"fusion_lon": 0.0, "fusion_lat": 0.0, "rental_uris": {"android": "https://dc.lft.to/lastmile_qr_scan", "ios": "https://dc.lft.to/lastmile_qr_scan"}, "is_disabled": 0, "type": "electric_scooter", "is_reserved": 0, "name": "2ae3f7d380a174b04c12efe79bb26c37", "lon": -77.01895516666667, "bike_id": "2ae3f7d380a174b04c12efe79bb26c37", "lat": 38.913957833333335}, {"fusion_lon": 0.0, "fusion_lat": 0.0, "rental_uris": {"android": "https://dc.lft.to/lastmile_qr_scan", "ios": "https://dc.lft.to/lastmile_qr_scan"}, "is_disabled": 0, "type": "electric_scooter", "is_reserved": 0, "name": "27da210ee3af63928bea78ca1ee47a25", "lon": -77.04655666666666, "bike_id": "27da210ee3af63928bea78ca1ee47a25", "lat": 38.89723766666667}, {"fusion_lon": 0.0, "fusion_lat": 0.0, "rental_uris": {"android": "https://dc.lft.to/lastmile_qr_scan", "ios": "https://dc.lft.to/lastmile_qr_scan"}, "is_disabled": 0, "type": "electric_scooter", "is_reserved": 0, "name": "b8b1bb1bd51e69f9a5443d61e974de77", "lon": -77.01654483333333, "bike_id": "b8b1bb1bd51e69f9a5443d61e974de77", "lat": 38.90080583333334}, {"fusion_lon": 0.0, "fusion_lat": 0.0, "rental_uris": {"android": "https://dc.lft.to/lastmile_qr_scan", "ios": "https://dc.lft.to/lastmile_qr_scan"}, "is_disabled": 0, "type": "electric_scooter", "is_reserved": 0, "name": "ad7c6e1b83a53e00310c797f6b4a8b03", "lon": -77.03213033333333, "bike_id": "ad7c6e1b83a53e00310c797f6b4a8b03", "lat": 38.916095}, {"fusion_lon": 0.0, "fusion_lat": 0.0, "rental_uris": {"android": "https://dc.lft.to/lastmile_qr_scan", "ios": "https://dc.lft.to/lastmile_qr_scan"}, "is_disabled": 0, "type": "electric_scooter", "is_reserved": 0, "name": "3cfb15c3f95ad9dc2b62fa3ca2b5897d", "lon": -77.04957866666666, "bike_id": "3cfb15c3f95ad9dc2b62fa3ca2b5897d", "lat": 38.915936}, {"fusion_lon": 0.0, "fusion_lat": 0.0, "rental_uris": {"android": "https://dc.lft.to/lastmile_qr_scan", "ios": "https://dc.lft.to/lastmile_qr_scan"}, "is_disabled": 0, "type": "electric_scooter", "is_reserved": 0, "name": "1e419f358aa358964cc44d62f481ff2f", "lon": -77.021119, "bike_id": "1e419f358aa358964cc44d62f481ff2f", "lat": 38.917497}, {"fusion_lon": 0.0, "fusion_lat": 0.0, "rental_uris": {"android": "https://dc.lft.to/lastmile_qr_scan", "ios": "https://dc.lft.to/lastmile_qr_scan"}, "is_disabled": 0, "type": "electric_scooter", "is_reserved": 0, "name": "b96fec31dbd955a2a733512adf43f1a1", "lon": -77.020712, "bike_id": "b96fec31dbd955a2a733512adf43f1a1", "lat": 38.95259}, {"fusion_lon": 0.0, "fusion_lat": 0.0, "rental_uris": {"android": "https://dc.lft.to/lastmile_qr_scan", "ios": "https://dc.lft.to/lastmile_qr_scan"}, "is_disabled": 0, "type": "electric_scooter", "is_reserved": 0, "name": "0f4e2298903e652c3abc9c3db39f01e3", "lon": -77.04897966666667, "bike_id": "0f4e2298903e652c3abc9c3db39f01e3", "lat": 38.90103083333333}, {"fusion_lon": 0.0, "fusion_lat": 0.0, "rental_uris": {"android": "https://dc.lft.to/lastmile_qr_scan", "ios": "https://dc.lft.to/lastmile_qr_scan"}, "is_disabled": 0, "type": "electric_scooter", "is_reserved": 0, "name": "2c41a9644634576bb409145cc750ae20", "lon": -77.00556066666667, "bike_id": "2c41a9644634576bb409145cc750ae20", "lat": 38.905351}, {"fusion_lon": 0.0, "fusion_lat": 0.0, "rental_uris": {"android": "https://dc.lft.to/lastmile_qr_scan", "ios": "https://dc.lft.to/lastmile_qr_scan"}, "is_disabled": 0, "type": "electric_scooter", "is_reserved": 0, "name": "d52af3ae8746c21933b4725587879cf8", "lon": -77.06521333333333, "bike_id": "d52af3ae8746c21933b4725587879cf8", "lat": 38.905077166666665}, {"fusion_lon": 0.0, "fusion_lat": 0.0, "rental_uris": {"android": "https://dc.lft.to/lastmile_qr_scan", "ios": "https://dc.lft.to/lastmile_qr_scan"}, "is_disabled": 0, "type": "electric_scooter", "is_reserved": 0, "name": "70c6398f55501d8c5ef5c595fb8f4fb9", "lon": -77.04494466666667, "bike_id": "70c6398f55501d8c5ef5c595fb8f4fb9", "lat": 38.902038166666664}, {"fusion_lon": 0.0, "fusion_lat": 0.0, "rental_uris": {"android": "https://dc.lft.to/lastmile_qr_scan", "ios": "https://dc.lft.to/lastmile_qr_scan"}, "is_disabled": 0, "type": "electric_scooter", "is_reserved": 0, "name": "3bd00c01d2efdd92f0d549cefe381e81", "lon": -77.02719516666667, "bike_id": "3bd00c01d2efdd92f0d549cefe381e81", "lat": 38.901435666666664}, {"fusion_lon": 0.0, "fusion_lat": 0.0, "rental_uris": {"android": "https://dc.lft.to/lastmile_qr_scan", "ios": "https://dc.lft.to/lastmile_qr_scan"}, "is_disabled": 0, "type": "electric_scooter", "is_reserved": 0, "name": "09805b663649ff63828c6cb781d49714", "lon": -77.02596766666667, "bike_id": "09805b663649ff63828c6cb781d49714", "lat": 38.916911999999996}, {"fusion_lon": 0.0, "fusion_lat": 0.0, "rental_uris": {"android": "https://dc.lft.to/lastmile_qr_scan", "ios": "https://dc.lft.to/lastmile_qr_scan"}, "is_disabled": 0, "type": "electric_scooter", "is_reserved": 0, "name": "c3f777e0ea5e84e1a309117915a98076", "lon": -77.02436166666666, "bike_id": "c3f777e0ea5e84e1a309117915a98076", "lat": 38.92049883333333}, {"fusion_lon": 0.0, "fusion_lat": 0.0, "rental_uris": {"android": "https://dc.lft.to/lastmile_qr_scan", "ios": "https://dc.lft.to/lastmile_qr_scan"}, "is_disabled": 0, "type": "electric_scooter", "is_reserved": 0, "name": "3407ad4d2e8d076d8b2b0175d8120ac5", "lon": -77.04549933333334, "bike_id": "3407ad4d2e8d076d8b2b0175d8120ac5", "lat": 38.90968616666667}, {"fusion_lon": 0.0, "fusion_lat": 0.0, "rental_uris": {"android": "https://dc.lft.to/lastmile_qr_scan", "ios": "https://dc.lft.to/lastmile_qr_scan"}, "is_disabled": 0, "type": "electric_scooter", "is_reserved": 0, "name": "25efbaba3bca46b04e6f2c5f5964af93", "lon": -77.03170783333333, "bike_id": "25efbaba3bca46b04e6f2c5f5964af93", "lat": 38.901383833333334}, {"fusion_lon": 0.0, "fusion_lat": 0.0, "rental_uris": {"android": "https://dc.lft.to/lastmile_qr_scan", "ios": "https://dc.lft.to/lastmile_qr_scan"}, "is_disabled": 0, "type": "electric_scooter", "is_reserved": 0, "name": "f549417e389cae71c3bb6e6a59c2bcad", "lon": -77.03246766666666, "bike_id": "f549417e389cae71c3bb6e6a59c2bcad", "lat": 38.9288595}, {"fusion_lon": 0.0, "fusion_lat": 0.0, "rental_uris": {"android": "https://dc.lft.to/lastmile_qr_scan", "ios": "https://dc.lft.to/lastmile_qr_scan"}, "is_disabled": 0, "type": "electric_scooter", "is_reserved": 0, "name": "0dc282bc9e397166f0a24c7e586d37fa", "lon": -77.02214383333333, "bike_id": "0dc282bc9e397166f0a24c7e586d37fa", "lat": 38.92744316666667}, {"fusion_lon": 0.0, "fusion_lat": 0.0, "rental_uris": {"android": "https://dc.lft.to/lastmile_qr_scan", "ios": "https://dc.lft.to/lastmile_qr_scan"}, "is_disabled": 0, "type": "electric_scooter", "is_reserved": 0, "name": "0178ff2ea266c31157aacdbd1a5068b4", "lon": -77.02813933333333, "bike_id": "0178ff2ea266c31157aacdbd1a5068b4", "lat": 38.907003833333334}, {"fusion_lon": 0.0, "fusion_lat": 0.0, "rental_uris": {"android": "https://dc.lft.to/lastmile_qr_scan", "ios": "https://dc.lft.to/lastmile_qr_scan"}, "is_disabled": 0, "type": "electric_scooter", "is_reserved": 0, "name": "b98d5fe992bdcc30c2d6916939ccb5af", "lon": -77.03142433333333, "bike_id": "b98d5fe992bdcc30c2d6916939ccb5af", "lat": 38.928112}, {"fusion_lon": 0.0, "fusion_lat": 0.0, "rental_uris": {"android": "https://dc.lft.to/lastmile_qr_scan", "ios": "https://dc.lft.to/lastmile_qr_scan"}, "is_disabled": 0, "type": "electric_scooter", "is_reserved": 0, "name": "a4405e287790f3885b646a2f4e5f2f2d", "lon": -77.05754416666667, "bike_id": "a4405e287790f3885b646a2f4e5f2f2d", "lat": 38.924614}, {"fusion_lon": 0.0, "fusion_lat": 0.0, "rental_uris": {"android": "https://dc.lft.to/lastmile_qr_scan", "ios": "https://dc.lft.to/lastmile_qr_scan"}, "is_disabled": 0, "type": "electric_bike", "is_reserved": 0, "name": "e9412c6b68fbda5475d2f7945036332a", "lon": -76.90753433333333, "bike_id": "e9412c6b68fbda5475d2f7945036332a", "lat": 38.8961815}, {"fusion_lon": 0.0, "fusion_lat": 0.0, "rental_uris": {"android": "https://dc.lft.to/lastmile_qr_scan", "ios": "https://dc.lft.to/lastmile_qr_scan"}, "is_disabled": 0, "type": "electric_scooter", "is_reserved": 0, "name": "9c49e10867431dc451ee167a505a6715", "lon": -77.03981716666667, "bike_id": "9c49e10867431dc451ee167a505a6715", "lat": 38.920239}, {"fusion_lon": 0.0, "fusion_lat": 0.0, "rental_uris": {"android": "https://dc.lft.to/lastmile_qr_scan", "ios": "https://dc.lft.to/lastmile_qr_scan"}, "is_disabled": 0, "type": "electric_scooter", "is_reserved": 0, "name": "a762edb2bc10e9e54e5285c99551a402", "lon": -77.01613866666666, "bike_id": "a762edb2bc10e9e54e5285c99551a402", "lat": 38.879028166666664}, {"fusion_lon": 0.0, "fusion_lat": 0.0, "rental_uris": {"android": "https://dc.lft.to/lastmile_qr_scan", "ios": "https://dc.lft.to/lastmile_qr_scan"}, "is_disabled": 0, "type": "electric_scooter", "is_reserved": 0, "name": "f54342db222d1e75dfc210d008ac77f2", "lon": -77.043312, "bike_id": "f54342db222d1e75dfc210d008ac77f2", "lat": 38.90888833333333}, {"fusion_lon": 0.0, "fusion_lat": 0.0, "rental_uris": {"android": "https://dc.lft.to/lastmile_qr_scan", "ios": "https://dc.lft.to/lastmile_qr_scan"}, "is_disabled": 0, "type": "electric_scooter", "is_reserved": 0, "name": "4f72d403082f527732e86564cab988e2", "lon": -76.97139483333333, "bike_id": "4f72d403082f527732e86564cab988e2", "lat": 38.9134955}, {"fusion_lon": 0.0, "fusion_lat": 0.0, "rental_uris": {"android": "https://dc.lft.to/lastmile_qr_scan", "ios": "https://dc.lft.to/lastmile_qr_scan"}, "is_disabled": 0, "type": "electric_scooter", "is_reserved": 0, "name": "ab48f80dc8fd3c46a183236bd98decb1", "lon": -77.04206566666667, "bike_id": "ab48f80dc8fd3c46a183236bd98decb1", "lat": 38.920504333333334}, {"fusion_lon": 0.0, "fusion_lat": 0.0, "rental_uris": {"android": "https://dc.lft.to/lastmile_qr_scan", "ios": "https://dc.lft.to/lastmile_qr_scan"}, "is_disabled": 0, "type": "electric_scooter", "is_reserved": 0, "name": "dc36ae6d69739c68bcf3ba3c1f8dddce", "lon": -77.02706166666667, "bike_id": "dc36ae6d69739c68bcf3ba3c1f8dddce", "lat": 38.89751716666667}, {"fusion_lon": 0.0, "fusion_lat": 0.0, "rental_uris": {"android": "https://dc.lft.to/lastmile_qr_scan", "ios": "https://dc.lft.to/lastmile_qr_scan"}, "is_disabled": 0, "type": "electric_scooter", "is_reserved": 0, "name": "33388fed5091f36f145ce2dc00d3511f", "lon": -77.05391466666667, "bike_id": "33388fed5091f36f145ce2dc00d3511f", "lat": 38.92344883333333}, {"fusion_lon": 0.0, "fusion_lat": 0.0, "rental_uris": {"android": "https://dc.lft.to/lastmile_qr_scan", "ios": "https://dc.lft.to/lastmile_qr_scan"}, "is_disabled": 0, "type": "electric_scooter", "is_reserved": 0, "name": "9682f084e9a4fe8fc9653ffb89fca46d", "lon": -77.01592116666667, "bike_id": "9682f084e9a4fe8fc9653ffb89fca46d", "lat": 38.91695333333333}, {"fusion_lon": 0.0, "fusion_lat": 0.0, "rental_uris": {"android": "https://dc.lft.to/lastmile_qr_scan", "ios": "https://dc.lft.to/lastmile_qr_scan"}, "is_disabled": 0, "type": "electric_scooter", "is_reserved": 0, "name": "e2059ba978b3b276776d63cb37992925", "lon": -77.03540783333334, "bike_id": "e2059ba978b3b276776d63cb37992925", "lat": 38.90472583333333}, {"fusion_lon": 0.0, "fusion_lat": 0.0, "rental_uris": {"android": "https://dc.lft.to/lastmile_qr_scan", "ios": "https://dc.lft.to/lastmile_qr_scan"}, "is_disabled": 0, "type": "electric_scooter", "is_reserved": 0, "name": "e40a441b4edc8ea8b4606a55b0f41cc6", "lon": -77.00611216666667, "bike_id": "e40a441b4edc8ea8b4606a55b0f41cc6", "lat": 38.87197916666667}, {"fusion_lon": 0.0, "fusion_lat": 0.0, "rental_uris": {"android": "https://dc.lft.to/lastmile_qr_scan", "ios": "https://dc.lft.to/lastmile_qr_scan"}, "is_disabled": 0, "type": "electric_scooter", "is_reserved": 0, "name": "86b9c17de0c6cb6dcc0db5ab29e116eb", "lon": -77.03933183333334, "bike_id": "86b9c17de0c6cb6dcc0db5ab29e116eb", "lat": 38.908086833333336}, {"fusion_lon": 0.0, "fusion_lat": 0.0, "rental_uris": {"android": "https://dc.lft.to/lastmile_qr_scan", "ios": "https://dc.lft.to/lastmile_qr_scan"}, "is_disabled": 0, "type": "electric_scooter", "is_reserved": 0, "name": "f9acaabe3bc5558195119ef0f7e6d0b5", "lon": -77.03547116666667, "bike_id": "f9acaabe3bc5558195119ef0f7e6d0b5", "lat": 38.92360933333333}, {"fusion_lon": 0.0, "fusion_lat": 0.0, "rental_uris": {"android": "https://dc.lft.to/lastmile_qr_scan", "ios": "https://dc.lft.to/lastmile_qr_scan"}, "is_disabled": 0, "type": "electric_scooter", "is_reserved": 0, "name": "a4b496799b6c70048c009d188bb3bf52", "lon": -76.97737716666667, "bike_id": "a4b496799b6c70048c009d188bb3bf52", "lat": 38.869394166666666}, {"fusion_lon": 0.0, "fusion_lat": 0.0, "rental_uris": {"android": "https://dc.lft.to/lastmile_qr_scan", "ios": "https://dc.lft.to/lastmile_qr_scan"}, "is_disabled": 0, "type": "electric_scooter", "is_reserved": 0, "name": "b6296aea66baf8fc265d3169f1b7b2a7", "lon": -77.02153116666666, "bike_id": "b6296aea66baf8fc265d3169f1b7b2a7", "lat": 38.92441916666667}, {"fusion_lon": 0.0, "fusion_lat": 0.0, "rental_uris": {"android": "https://dc.lft.to/lastmile_qr_scan", "ios": "https://dc.lft.to/lastmile_qr_scan"}, "is_disabled": 0, "type": "electric_scooter", "is_reserved": 0, "name": "2ae27dd92e30b17d113b720a66381289", "lon": -77.02499783333333, "bike_id": "2ae27dd92e30b17d113b720a66381289", "lat": 38.92020766666667}, {"fusion_lon": 0.0, "fusion_lat": 0.0, "rental_uris": {"android": "https://dc.lft.to/lastmile_qr_scan", "ios": "https://dc.lft.to/lastmile_qr_scan"}, "is_disabled": 0, "type": "electric_scooter", "is_reserved": 0, "name": "90272c5a56dba3978b9ebcf549030842", "lon": -77.04207, "bike_id": "90272c5a56dba3978b9ebcf549030842", "lat": 38.920599}, {"fusion_lon": 0.0, "fusion_lat": 0.0, "rental_uris": {"android": "https://dc.lft.to/lastmile_qr_scan", "ios": "https://dc.lft.to/lastmile_qr_scan"}, "is_disabled": 0, "type": "electric_scooter", "is_reserved": 0, "name": "820ca138d79b10e6d56bfb68c4026e87", "lon": -76.988584, "bike_id": "820ca138d79b10e6d56bfb68c4026e87", "lat": 38.90030183333333}, {"fusion_lon": 0.0, "fusion_lat": 0.0, "rental_uris": {"android": "https://dc.lft.to/lastmile_qr_scan", "ios": "https://dc.lft.to/lastmile_qr_scan"}, "is_disabled": 0, "type": "electric_scooter", "is_reserved": 0, "name": "c92f3a33603bcf519f16dd2b072cc9c7", "lon": -77.02094983333333, "bike_id": "c92f3a33603bcf519f16dd2b072cc9c7", "lat": 38.92711933333333}, {"fusion_lon": 0.0, "fusion_lat": 0.0, "rental_uris": {"android": "https://dc.lft.to/lastmile_qr_scan", "ios": "https://dc.lft.to/lastmile_qr_scan"}, "is_disabled": 0, "type": "electric_scooter", "is_reserved": 0, "name": "ac841a132cb32bc1dea8c18342c6c6b2", "lon": -77.02125483333333, "bike_id": "ac841a132cb32bc1dea8c18342c6c6b2", "lat": 38.923938}, {"fusion_lon": 0.0, "fusion_lat": 0.0, "rental_uris": {"android": "https://dc.lft.to/lastmile_qr_scan", "ios": "https://dc.lft.to/lastmile_qr_scan"}, "is_disabled": 0, "type": "electric_scooter", "is_reserved": 0, "name": "dc6b2ab046cb2af7a2552e3c91499572", "lon": -77.02205966666666, "bike_id": "dc6b2ab046cb2af7a2552e3c91499572", "lat": 38.90534666666667}, {"fusion_lon": 0.0, "fusion_lat": 0.0, "rental_uris": {"android": "https://dc.lft.to/lastmile_qr_scan", "ios": "https://dc.lft.to/lastmile_qr_scan"}, "is_disabled": 0, "type": "electric_scooter", "is_reserved": 0, "name": "d2bc52aadc352d979a23fd155e8f572b", "lon": -76.9910205, "bike_id": "d2bc52aadc352d979a23fd155e8f572b", "lat": 38.8632405}, {"fusion_lon": 0.0, "fusion_lat": 0.0, "rental_uris": {"android": "https://dc.lft.to/lastmile_qr_scan", "ios": "https://dc.lft.to/lastmile_qr_scan"}, "is_disabled": 0, "type": "electric_scooter", "is_reserved": 0, "name": "e1c94ba0625527768237cd40a7324136", "lon": -77.036654, "bike_id": "e1c94ba0625527768237cd40a7324136", "lat": 38.922365666666664}, {"fusion_lon": 0.0, "fusion_lat": 0.0, "rental_uris": {"android": "https://dc.lft.to/lastmile_qr_scan", "ios": "https://dc.lft.to/lastmile_qr_scan"}, "is_disabled": 0, "type": "electric_scooter", "is_reserved": 0, "name": "fa5047a19c7ef5838fcaf85477edf28e", "lon": -77.02975483333333, "bike_id": "fa5047a19c7ef5838fcaf85477edf28e", "lat": 38.921508}, {"fusion_lon": 0.0, "fusion_lat": 0.0, "rental_uris": {"android": "https://dc.lft.to/lastmile_qr_scan", "ios": "https://dc.lft.to/lastmile_qr_scan"}, "is_disabled": 0, "type": "electric_scooter", "is_reserved": 0, "name": "755e05569547607755875ebdd52420bc", "lon": -77.04092983333334, "bike_id": "755e05569547607755875ebdd52420bc", "lat": 38.89222683333333}, {"fusion_lon": 0.0, "fusion_lat": 0.0, "rental_uris": {"android": "https://dc.lft.to/lastmile_qr_scan", "ios": "https://dc.lft.to/lastmile_qr_scan"}, "is_disabled": 0, "type": "electric_bike", "is_reserved": 0, "name": "7df413167cc6160d4fb5dc95aaa2927e", "lon": -76.96432583333333, "bike_id": "7df413167cc6160d4fb5dc95aaa2927e", "lat": 38.918684166666665}, {"fusion_lon": 0.0, "fusion_lat": 0.0, "rental_uris": {"android": "https://dc.lft.to/lastmile_qr_scan", "ios": "https://dc.lft.to/lastmile_qr_scan"}, "is_disabled": 0, "type": "electric_scooter", "is_reserved": 0, "name": "c66d4dc5688f2d1f805603012d5f8ebc", "lon": -77.01952216666666, "bike_id": "c66d4dc5688f2d1f805603012d5f8ebc", "lat": 38.92249233333333}, {"fusion_lon": 0.0, "fusion_lat": 0.0, "rental_uris": {"android": "https://dc.lft.to/lastmile_qr_scan", "ios": "https://dc.lft.to/lastmile_qr_scan"}, "is_disabled": 0, "type": "electric_bike", "is_reserved": 0, "name": "83e77dc5eccadc5c2f62b1b4d5a34d38", "lon": -77.0891345, "bike_id": "83e77dc5eccadc5c2f62b1b4d5a34d38", "lat": 38.9672295}, {"fusion_lon": 0.0, "fusion_lat": 0.0, "rental_uris": {"android": "https://dc.lft.to/lastmile_qr_scan", "ios": "https://dc.lft.to/lastmile_qr_scan"}, "is_disabled": 0, "type": "electric_scooter", "is_reserved": 0, "name": "c25c974a413ec59eedfdbd9c3ab4c647", "lon": -77.06622, "bike_id": "c25c974a413ec59eedfdbd9c3ab4c647", "lat": 38.936809}, {"fusion_lon": 0.0, "fusion_lat": 0.0, "rental_uris": {"android": "https://dc.lft.to/lastmile_qr_scan", "ios": "https://dc.lft.to/lastmile_qr_scan"}, "is_disabled": 0, "type": "electric_scooter", "is_reserved": 0, "name": "716bc6d16e17098ca07a705857d1f281", "lon": -76.98697183333333, "bike_id": "716bc6d16e17098ca07a705857d1f281", "lat": 38.90014}, {"fusion_lon": 0.0, "fusion_lat": 0.0, "rental_uris": {"android": "https://dc.lft.to/lastmile_qr_scan", "ios": "https://dc.lft.to/lastmile_qr_scan"}, "is_disabled": 0, "type": "electric_scooter", "is_reserved": 0, "name": "44e662ba8dc2ec4fa8d3253b479d196d", "lon": -77.0298085, "bike_id": "44e662ba8dc2ec4fa8d3253b479d196d", "lat": 38.895703166666664}, {"fusion_lon": 0.0, "fusion_lat": 0.0, "rental_uris": {"android": "https://dc.lft.to/lastmile_qr_scan", "ios": "https://dc.lft.to/lastmile_qr_scan"}, "is_disabled": 0, "type": "electric_scooter", "is_reserved": 0, "name": "6ad98a0bc964b2e8d2143b86c09652a4", "lon": -77.02826833333333, "bike_id": "6ad98a0bc964b2e8d2143b86c09652a4", "lat": 38.92225033333333}, {"fusion_lon": 0.0, "fusion_lat": 0.0, "rental_uris": {"android": "https://dc.lft.to/lastmile_qr_scan", "ios": "https://dc.lft.to/lastmile_qr_scan"}, "is_disabled": 0, "type": "electric_bike", "is_reserved": 0, "name": "e5fcd59b6540f5996e25dd677c928b84", "lon": -76.98815916666666, "bike_id": "e5fcd59b6540f5996e25dd677c928b84", "lat": 38.842733333333335}, {"fusion_lon": 0.0, "fusion_lat": 0.0, "rental_uris": {"android": "https://dc.lft.to/lastmile_qr_scan", "ios": "https://dc.lft.to/lastmile_qr_scan"}, "is_disabled": 0, "type": "electric_bike", "is_reserved": 0, "name": "b2f13fc3f057c552f485e26bcdd0c634", "lon": -77.00589116666667, "bike_id": "b2f13fc3f057c552f485e26bcdd0c634", "lat": 38.89792533333333}, {"fusion_lon": 0.0, "fusion_lat": 0.0, "rental_uris": {"android": "https://dc.lft.to/lastmile_qr_scan", "ios": "https://dc.lft.to/lastmile_qr_scan"}, "is_disabled": 0, "type": "electric_scooter", "is_reserved": 0, "name": "9bf9c08c03a4ab733887ef70d922b4c3", "lon": -77.02162483333333, "bike_id": "9bf9c08c03a4ab733887ef70d922b4c3", "lat": 38.926119666666665}, {"fusion_lon": 0.0, "fusion_lat": 0.0, "rental_uris": {"android": "https://dc.lft.to/lastmile_qr_scan", "ios": "https://dc.lft.to/lastmile_qr_scan"}, "is_disabled": 0, "type": "electric_scooter", "is_reserved": 0, "name": "64b93e214f73f122a042040109dcadb1", "lon": -77.04207916666667, "bike_id": "64b93e214f73f122a042040109dcadb1", "lat": 38.920529333333334}, {"fusion_lon": 0.0, "fusion_lat": 0.0, "rental_uris": {"android": "https://dc.lft.to/lastmile_qr_scan", "ios": "https://dc.lft.to/lastmile_qr_scan"}, "is_disabled": 0, "type": "electric_scooter", "is_reserved": 0, "name": "5ac5ed396f403539a71d8d9a0bad5d46", "lon": -77.00044416666667, "bike_id": "5ac5ed396f403539a71d8d9a0bad5d46", "lat": 38.88768133333333}, {"fusion_lon": 0.0, "fusion_lat": 0.0, "rental_uris": {"android": "https://dc.lft.to/lastmile_qr_scan", "ios": "https://dc.lft.to/lastmile_qr_scan"}, "is_disabled": 0, "type": "electric_scooter", "is_reserved": 0, "name": "13f19c2332570f37b5bce343f5609d84", "lon": -76.98836333333334, "bike_id": "13f19c2332570f37b5bce343f5609d84", "lat": 38.89096416666667}, {"fusion_lon": 0.0, "fusion_lat": 0.0, "rental_uris": {"android": "https://dc.lft.to/lastmile_qr_scan", "ios": "https://dc.lft.to/lastmile_qr_scan"}, "is_disabled": 0, "type": "electric_scooter", "is_reserved": 0, "name": "6ac716f0bda3014703a7a3f61c147e56", "lon": -77.0213, "bike_id": "6ac716f0bda3014703a7a3f61c147e56", "lat": 38.92420833333333}, {"fusion_lon": 0.0, "fusion_lat": 0.0, "rental_uris": {"android": "https://dc.lft.to/lastmile_qr_scan", "ios": "https://dc.lft.to/lastmile_qr_scan"}, "is_disabled": 0, "type": "electric_scooter", "is_reserved": 0, "name": "ab84e61806f9750d0dac0959b2e603e7", "lon": -77.01806083333334, "bike_id": "ab84e61806f9750d0dac0959b2e603e7", "lat": 38.914287333333334}, {"fusion_lon": 0.0, "fusion_lat": 0.0, "rental_uris": {"android": "https://dc.lft.to/lastmile_qr_scan", "ios": "https://dc.lft.to/lastmile_qr_scan"}, "is_disabled": 0, "type": "electric_scooter", "is_reserved": 0, "name": "8747d1db07d5e131a19e1f3b03443ae6", "lon": -76.98209966666667, "bike_id": "8747d1db07d5e131a19e1f3b03443ae6", "lat": 38.886429666666665}, {"fusion_lon": 0.0, "fusion_lat": 0.0, "rental_uris": {"android": "https://dc.lft.to/lastmile_qr_scan", "ios": "https://dc.lft.to/lastmile_qr_scan"}, "is_disabled": 0, "type": "electric_scooter", "is_reserved": 0, "name": "05275292fab2fcef034f2508f19626e3", "lon": -77.04657116666667, "bike_id": "05275292fab2fcef034f2508f19626e3", "lat": 38.89465666666667}, {"fusion_lon": 0.0, "fusion_lat": 0.0, "rental_uris": {"android": "https://dc.lft.to/lastmile_qr_scan", "ios": "https://dc.lft.to/lastmile_qr_scan"}, "is_disabled": 0, "type": "electric_scooter", "is_reserved": 0, "name": "1593b494d85c80df7931524a34c4a673", "lon": -77.039573, "bike_id": "1593b494d85c80df7931524a34c4a673", "lat": 38.89369516666667}, {"fusion_lon": 0.0, "fusion_lat": 0.0, "rental_uris": {"android": "https://dc.lft.to/lastmile_qr_scan", "ios": "https://dc.lft.to/lastmile_qr_scan"}, "is_disabled": 0, "type": "electric_scooter", "is_reserved": 0, "name": "3ffde6b5d24768b0c6bbec43bacaad2c", "lon": -77.01555366666666, "bike_id": "3ffde6b5d24768b0c6bbec43bacaad2c", "lat": 38.893725}, {"fusion_lon": 0.0, "fusion_lat": 0.0, "rental_uris": {"android": "https://dc.lft.to/lastmile_qr_scan", "ios": "https://dc.lft.to/lastmile_qr_scan"}, "is_disabled": 0, "type": "electric_bike", "is_reserved": 0, "name": "d3b16ff9d6ec92aedba6a79f5a149262", "lon": -77.13937233333333, "bike_id": "d3b16ff9d6ec92aedba6a79f5a149262", "lat": 38.846695}, {"fusion_lon": 0.0, "fusion_lat": 0.0, "rental_uris": {"android": "https://dc.lft.to/lastmile_qr_scan", "ios": "https://dc.lft.to/lastmile_qr_scan"}, "is_disabled": 0, "type": "electric_scooter", "is_reserved": 0, "name": "ab0e596af41d86662445847aec33160b", "lon": -76.98111916666667, "bike_id": "ab0e596af41d86662445847aec33160b", "lat": 38.91470133333333}, {"fusion_lon": 0.0, "fusion_lat": 0.0, "rental_uris": {"android": "https://dc.lft.to/lastmile_qr_scan", "ios": "https://dc.lft.to/lastmile_qr_scan"}, "is_disabled": 0, "type": "electric_scooter", "is_reserved": 0, "name": "10dbdc14948f229482a975723297f3be", "lon": -76.99396383333334, "bike_id": "10dbdc14948f229482a975723297f3be", "lat": 38.91002783333333}, {"fusion_lon": 0.0, "fusion_lat": 0.0, "rental_uris": {"android": "https://dc.lft.to/lastmile_qr_scan", "ios": "https://dc.lft.to/lastmile_qr_scan"}, "is_disabled": 0, "type": "electric_scooter", "is_reserved": 0, "name": "a7ff46ed890bf51cb27b3d37bc789447", "lon": -77.03976516666667, "bike_id": "a7ff46ed890bf51cb27b3d37bc789447", "lat": 38.90251466666667}, {"fusion_lon": 0.0, "fusion_lat": 0.0, "rental_uris": {"android": "https://dc.lft.to/lastmile_qr_scan", "ios": "https://dc.lft.to/lastmile_qr_scan"}, "is_disabled": 0, "type": "electric_scooter", "is_reserved": 0, "name": "f91d77d32c9edaaa2fabdf542e7d8b37", "lon": -76.933852, "bike_id": "f91d77d32c9edaaa2fabdf542e7d8b37", "lat": 38.89904966666667}, {"fusion_lon": 0.0, "fusion_lat": 0.0, "rental_uris": {"android": "https://dc.lft.to/lastmile_qr_scan", "ios": "https://dc.lft.to/lastmile_qr_scan"}, "is_disabled": 0, "type": "electric_scooter", "is_reserved": 0, "name": "d6ce4aee0f73606103f360bfe4b5ce91", "lon": -77.0230685, "bike_id": "d6ce4aee0f73606103f360bfe4b5ce91", "lat": 38.9077855}, {"fusion_lon": 0.0, "fusion_lat": 0.0, "rental_uris": {"android": "https://dc.lft.to/lastmile_qr_scan", "ios": "https://dc.lft.to/lastmile_qr_scan"}, "is_disabled": 0, "type": "electric_scooter", "is_reserved": 0, "name": "a7512af3b68eafe784edd2c6ccd73b9a", "lon": -77.04053066666667, "bike_id": "a7512af3b68eafe784edd2c6ccd73b9a", "lat": 38.89896616666667}, {"fusion_lon": 0.0, "fusion_lat": 0.0, "rental_uris": {"android": "https://dc.lft.to/lastmile_qr_scan", "ios": "https://dc.lft.to/lastmile_qr_scan"}, "is_disabled": 0, "type": "electric_scooter", "is_reserved": 0, "name": "288f6a0b4f5be6cb49d4fbb3989e2777", "lon": -77.0639205, "bike_id": "288f6a0b4f5be6cb49d4fbb3989e2777", "lat": 38.908603166666666}, {"fusion_lon": 0.0, "fusion_lat": 0.0, "rental_uris": {"android": "https://dc.lft.to/lastmile_qr_scan", "ios": "https://dc.lft.to/lastmile_qr_scan"}, "is_disabled": 0, "type": "electric_scooter", "is_reserved": 0, "name": "3bf9636e3054440ad71d7bdc107d19c3", "lon": -77.02265366666667, "bike_id": "3bf9636e3054440ad71d7bdc107d19c3", "lat": 38.897041333333334}, {"fusion_lon": 0.0, "fusion_lat": 0.0, "rental_uris": {"android": "https://dc.lft.to/lastmile_qr_scan", "ios": "https://dc.lft.to/lastmile_qr_scan"}, "is_disabled": 0, "type": "electric_scooter", "is_reserved": 0, "name": "7f1cc1e80692b8509b92f6b272e2159d", "lon": -77.048784, "bike_id": "7f1cc1e80692b8509b92f6b272e2159d", "lat": 38.898556166666665}, {"fusion_lon": 0.0, "fusion_lat": 0.0, "rental_uris": {"android": "https://dc.lft.to/lastmile_qr_scan", "ios": "https://dc.lft.to/lastmile_qr_scan"}, "is_disabled": 0, "type": "electric_scooter", "is_reserved": 0, "name": "0506d3fefa1e1105c0394640622227c8", "lon": -77.002904, "bike_id": "0506d3fefa1e1105c0394640622227c8", "lat": 38.89234116666667}, {"fusion_lon": 0.0, "fusion_lat": 0.0, "rental_uris": {"android": "https://dc.lft.to/lastmile_qr_scan", "ios": "https://dc.lft.to/lastmile_qr_scan"}, "is_disabled": 0, "type": "electric_scooter", "is_reserved": 0, "name": "e6c19649ff84656041512676e4b429a0", "lon": -77.03444733333333, "bike_id": "e6c19649ff84656041512676e4b429a0", "lat": 38.910093833333335}, {"fusion_lon": 0.0, "fusion_lat": 0.0, "rental_uris": {"android": "https://dc.lft.to/lastmile_qr_scan", "ios": "https://dc.lft.to/lastmile_qr_scan"}, "is_disabled": 0, "type": "electric_scooter", "is_reserved": 0, "name": "d999cd3bb305b605e092a2211e329894", "lon": -77.04177533333333, "bike_id": "d999cd3bb305b605e092a2211e329894", "lat": 38.9155175}, {"fusion_lon": 0.0, "fusion_lat": 0.0, "rental_uris": {"android": "https://dc.lft.to/lastmile_qr_scan", "ios": "https://dc.lft.to/lastmile_qr_scan"}, "is_disabled": 0, "type": "electric_scooter", "is_reserved": 0, "name": "dbcbedd2097a4892ece4fe9d46c20b45", "lon": -77.038345, "bike_id": "dbcbedd2097a4892ece4fe9d46c20b45", "lat": 38.911097}, {"fusion_lon": 0.0, "fusion_lat": 0.0, "rental_uris": {"android": "https://dc.lft.to/lastmile_qr_scan", "ios": "https://dc.lft.to/lastmile_qr_scan"}, "is_disabled": 0, "type": "electric_scooter", "is_reserved": 0, "name": "6f1aa447f07d16f6d1ee29c1d13b9eb6", "lon": -76.98495333333334, "bike_id": "6f1aa447f07d16f6d1ee29c1d13b9eb6", "lat": 38.88023966666667}, {"fusion_lon": 0.0, "fusion_lat": 0.0, "rental_uris": {"android": "https://dc.lft.to/lastmile_qr_scan", "ios": "https://dc.lft.to/lastmile_qr_scan"}, "is_disabled": 0, "type": "electric_scooter", "is_reserved": 0, "name": "d7cd20f927913aaee1d90681c73646e9", "lon": -76.93470733333334, "bike_id": "d7cd20f927913aaee1d90681c73646e9", "lat": 38.90835033333333}, {"fusion_lon": 0.0, "fusion_lat": 0.0, "rental_uris": {"android": "https://dc.lft.to/lastmile_qr_scan", "ios": "https://dc.lft.to/lastmile_qr_scan"}, "is_disabled": 0, "type": "electric_bike", "is_reserved": 0, "name": "0b4e595d14050e7313c96c94d638ce18", "lon": -77.1140975, "bike_id": "0b4e595d14050e7313c96c94d638ce18", "lat": 38.85247283333333}, {"fusion_lon": 0.0, "fusion_lat": 0.0, "rental_uris": {"android": "https://dc.lft.to/lastmile_qr_scan", "ios": "https://dc.lft.to/lastmile_qr_scan"}, "is_disabled": 0, "type": "electric_scooter", "is_reserved": 0, "name": "a440c83d9011f73e234b9303e33452aa", "lon": -77.00661983333333, "bike_id": "a440c83d9011f73e234b9303e33452aa", "lat": 38.87629066666667}, {"fusion_lon": 0.0, "fusion_lat": 0.0, "rental_uris": {"android": "https://dc.lft.to/lastmile_qr_scan", "ios": "https://dc.lft.to/lastmile_qr_scan"}, "is_disabled": 0, "type": "electric_scooter", "is_reserved": 0, "name": "e71fe3fc224d383ad23eb91dd17eb030", "lon": -77.02536683333334, "bike_id": "e71fe3fc224d383ad23eb91dd17eb030", "lat": 38.92080133333333}, {"fusion_lon": 0.0, "fusion_lat": 0.0, "rental_uris": {"android": "https://dc.lft.to/lastmile_qr_scan", "ios": "https://dc.lft.to/lastmile_qr_scan"}, "is_disabled": 0, "type": "electric_scooter", "is_reserved": 0, "name": "c0f4ab951ca0fe021f4659f70866c2c0", "lon": -77.01211316666667, "bike_id": "c0f4ab951ca0fe021f4659f70866c2c0", "lat": 38.92115833333333}, {"fusion_lon": 0.0, "fusion_lat": 0.0, "rental_uris": {"android": "https://dc.lft.to/lastmile_qr_scan", "ios": "https://dc.lft.to/lastmile_qr_scan"}, "is_disabled": 0, "type": "electric_bike", "is_reserved": 0, "name": "f2c8a622fad824cd658f2e7a6be26943", "lon": -76.90020766666666, "bike_id": "f2c8a622fad824cd658f2e7a6be26943", "lat": 39.006469333333335}, {"fusion_lon": 0.0, "fusion_lat": 0.0, "rental_uris": {"android": "https://dc.lft.to/lastmile_qr_scan", "ios": "https://dc.lft.to/lastmile_qr_scan"}, "is_disabled": 0, "type": "electric_scooter", "is_reserved": 0, "name": "a512dd88c472d6151a0b76b1c1ef78f2", "lon": -77.01825383333333, "bike_id": "a512dd88c472d6151a0b76b1c1ef78f2", "lat": 38.92213516666666}, {"fusion_lon": 0.0, "fusion_lat": 0.0, "rental_uris": {"android": "https://dc.lft.to/lastmile_qr_scan", "ios": "https://dc.lft.to/lastmile_qr_scan"}, "is_disabled": 0, "type": "electric_scooter", "is_reserved": 0, "name": "2092fa2ad19b963e319ffc151ffb7264", "lon": -77.0179015, "bike_id": "2092fa2ad19b963e319ffc151ffb7264", "lat": 38.9213225}, {"fusion_lon": 0.0, "fusion_lat": 0.0, "rental_uris": {"android": "https://dc.lft.to/lastmile_qr_scan", "ios": "https://dc.lft.to/lastmile_qr_scan"}, "is_disabled": 0, "type": "electric_scooter", "is_reserved": 0, "name": "ed785fe467538b6a0700dc7fc37ca0ff", "lon": -77.022002, "bike_id": "ed785fe467538b6a0700dc7fc37ca0ff", "lat": 38.910514666666664}, {"fusion_lon": 0.0, "fusion_lat": 0.0, "rental_uris": {"android": "https://dc.lft.to/lastmile_qr_scan", "ios": "https://dc.lft.to/lastmile_qr_scan"}, "is_disabled": 0, "type": "electric_scooter", "is_reserved": 0, "name": "586027d1bfebb7b65c6464776cfd9603", "lon": -77.022359, "bike_id": "586027d1bfebb7b65c6464776cfd9603", "lat": 38.92456033333333}, {"fusion_lon": 0.0, "fusion_lat": 0.0, "rental_uris": {"android": "https://dc.lft.to/lastmile_qr_scan", "ios": "https://dc.lft.to/lastmile_qr_scan"}, "is_disabled": 0, "type": "electric_scooter", "is_reserved": 0, "name": "b41de8362d62f6bea89d8fa165ce519d", "lon": -77.0042845, "bike_id": "b41de8362d62f6bea89d8fa165ce519d", "lat": 38.90397183333333}, {"fusion_lon": 0.0, "fusion_lat": 0.0, "rental_uris": {"android": "https://dc.lft.to/lastmile_qr_scan", "ios": "https://dc.lft.to/lastmile_qr_scan"}, "is_disabled": 0, "type": "electric_scooter", "is_reserved": 0, "name": "612a5b411346c0e2e479daaa63d7d631", "lon": -77.0416755, "bike_id": "612a5b411346c0e2e479daaa63d7d631", "lat": 38.91748483333333}, {"fusion_lon": 0.0, "fusion_lat": 0.0, "rental_uris": {"android": "https://dc.lft.to/lastmile_qr_scan", "ios": "https://dc.lft.to/lastmile_qr_scan"}, "is_disabled": 0, "type": "electric_bike", "is_reserved": 0, "name": "dfa27445ce9a4dc9c38af9edfd7ba1e2", "lon": -77.096247, "bike_id": "dfa27445ce9a4dc9c38af9edfd7ba1e2", "lat": 38.95248983333333}, {"fusion_lon": 0.0, "fusion_lat": 0.0, "rental_uris": {"android": "https://dc.lft.to/lastmile_qr_scan", "ios": "https://dc.lft.to/lastmile_qr_scan"}, "is_disabled": 0, "type": "electric_scooter", "is_reserved": 0, "name": "7ecb7cc89b0f0dd378f7f647a9f24885", "lon": -77.02727933333334, "bike_id": "7ecb7cc89b0f0dd378f7f647a9f24885", "lat": 38.902497333333336}, {"fusion_lon": 0.0, "fusion_lat": 0.0, "rental_uris": {"android": "https://dc.lft.to/lastmile_qr_scan", "ios": "https://dc.lft.to/lastmile_qr_scan"}, "is_disabled": 0, "type": "electric_scooter", "is_reserved": 0, "name": "17cc8aa60b41a2b2f525ffa4a51b56c0", "lon": -77.04126266666667, "bike_id": "17cc8aa60b41a2b2f525ffa4a51b56c0", "lat": 38.917055833333336}, {"fusion_lon": 0.0, "fusion_lat": 0.0, "rental_uris": {"android": "https://dc.lft.to/lastmile_qr_scan", "ios": "https://dc.lft.to/lastmile_qr_scan"}, "is_disabled": 0, "type": "electric_bike", "is_reserved": 0, "name": "8806d49c58dbdd6c34327c9b6ae86b0d", "lon": -77.035654, "bike_id": "8806d49c58dbdd6c34327c9b6ae86b0d", "lat": 38.96469716666667}, {"fusion_lon": 0.0, "fusion_lat": 0.0, "rental_uris": {"android": "https://dc.lft.to/lastmile_qr_scan", "ios": "https://dc.lft.to/lastmile_qr_scan"}, "is_disabled": 0, "type": "electric_bike", "is_reserved": 0, "name": "9bb3058ae8efd3b3dbb4f86e1eaf06d3", "lon": -77.00219816666667, "bike_id": "9bb3058ae8efd3b3dbb4f86e1eaf06d3", "lat": 38.936079166666666}, {"fusion_lon": 0.0, "fusion_lat": 0.0, "rental_uris": {"android": "https://dc.lft.to/lastmile_qr_scan", "ios": "https://dc.lft.to/lastmile_qr_scan"}, "is_disabled": 0, "type": "electric_bike", "is_reserved": 0, "name": "76039f5a6d90284365a56ed207003c78", "lon": -77.025754, "bike_id": "76039f5a6d90284365a56ed207003c78", "lat": 38.880825333333334}, {"fusion_lon": 0.0, "fusion_lat": 0.0, "rental_uris": {"android": "https://dc.lft.to/lastmile_qr_scan", "ios": "https://dc.lft.to/lastmile_qr_scan"}, "is_disabled": 0, "type": "electric_scooter", "is_reserved": 0, "name": "0b0cb968d017bb0403690ba1ee2acfac", "lon": -77.03967516666667, "bike_id": "0b0cb968d017bb0403690ba1ee2acfac", "lat": 38.9025145}, {"fusion_lon": 0.0, "fusion_lat": 0.0, "rental_uris": {"android": "https://dc.lft.to/lastmile_qr_scan", "ios": "https://dc.lft.to/lastmile_qr_scan"}, "is_disabled": 0, "type": "electric_scooter", "is_reserved": 0, "name": "e207954b33854f4372a523937267f5a5", "lon": -77.02637716666666, "bike_id": "e207954b33854f4372a523937267f5a5", "lat": 38.902430333333335}, {"fusion_lon": 0.0, "fusion_lat": 0.0, "rental_uris": {"android": "https://dc.lft.to/lastmile_qr_scan", "ios": "https://dc.lft.to/lastmile_qr_scan"}, "is_disabled": 0, "type": "electric_scooter", "is_reserved": 0, "name": "cfcf5b4cdcdb42129314a95054392793", "lon": -76.9833535, "bike_id": "cfcf5b4cdcdb42129314a95054392793", "lat": 38.8954435}, {"fusion_lon": 0.0, "fusion_lat": 0.0, "rental_uris": {"android": "https://dc.lft.to/lastmile_qr_scan", "ios": "https://dc.lft.to/lastmile_qr_scan"}, "is_disabled": 0, "type": "electric_scooter", "is_reserved": 0, "name": "9ca2f3c7400f413682bc9ef49e957d0a", "lon": -77.03279016666667, "bike_id": "9ca2f3c7400f413682bc9ef49e957d0a", "lat": 38.915619}, {"fusion_lon": 0.0, "fusion_lat": 0.0, "rental_uris": {"android": "https://dc.lft.to/lastmile_qr_scan", "ios": "https://dc.lft.to/lastmile_qr_scan"}, "is_disabled": 0, "type": "electric_bike", "is_reserved": 0, "name": "3928d9b8abaca2ee8996a363669a8361", "lon": -77.02980766666667, "bike_id": "3928d9b8abaca2ee8996a363669a8361", "lat": 38.9317485}, {"fusion_lon": 0.0, "fusion_lat": 0.0, "rental_uris": {"android": "https://dc.lft.to/lastmile_qr_scan", "ios": "https://dc.lft.to/lastmile_qr_scan"}, "is_disabled": 0, "type": "electric_scooter", "is_reserved": 0, "name": "6fb9638fcb36aeef8059d5f70cb58be0", "lon": -77.01148383333333, "bike_id": "6fb9638fcb36aeef8059d5f70cb58be0", "lat": 38.914789}, {"fusion_lon": 0.0, "fusion_lat": 0.0, "rental_uris": {"android": "https://dc.lft.to/lastmile_qr_scan", "ios": "https://dc.lft.to/lastmile_qr_scan"}, "is_disabled": 0, "type": "electric_scooter", "is_reserved": 0, "name": "58941a34aa6d9ffdfd6f8823dd02e10e", "lon": -77.0467715, "bike_id": "58941a34aa6d9ffdfd6f8823dd02e10e", "lat": 38.8936815}, {"fusion_lon": 0.0, "fusion_lat": 0.0, "rental_uris": {"android": "https://dc.lft.to/lastmile_qr_scan", "ios": "https://dc.lft.to/lastmile_qr_scan"}, "is_disabled": 0, "type": "electric_scooter", "is_reserved": 0, "name": "4571caa31f170ef6052abf310fe18355", "lon": -76.97866533333334, "bike_id": "4571caa31f170ef6052abf310fe18355", "lat": 38.89724416666667}, {"fusion_lon": 0.0, "fusion_lat": 0.0, "rental_uris": {"android": "https://dc.lft.to/lastmile_qr_scan", "ios": "https://dc.lft.to/lastmile_qr_scan"}, "is_disabled": 0, "type": "electric_bike", "is_reserved": 0, "name": "0cc0d970789d1f66efc04c6aa9cb9fc0", "lon": -77.01263566666667, "bike_id": "0cc0d970789d1f66efc04c6aa9cb9fc0", "lat": 38.864450833333336}, {"fusion_lon": 0.0, "fusion_lat": 0.0, "rental_uris": {"android": "https://dc.lft.to/lastmile_qr_scan", "ios": "https://dc.lft.to/lastmile_qr_scan"}, "is_disabled": 0, "type": "electric_scooter", "is_reserved": 0, "name": "d67778393cc99fad17086cd547673d6d", "lon": -77.0059055, "bike_id": "d67778393cc99fad17086cd547673d6d", "lat": 38.9055755}, {"fusion_lon": 0.0, "fusion_lat": 0.0, "rental_uris": {"android": "https://dc.lft.to/lastmile_qr_scan", "ios": "https://dc.lft.to/lastmile_qr_scan"}, "is_disabled": 0, "type": "electric_scooter", "is_reserved": 0, "name": "176fdb87e3bc23b22e98c3412eab2dc3", "lon": -77.02143466666666, "bike_id": "176fdb87e3bc23b22e98c3412eab2dc3", "lat": 38.9310865}, {"fusion_lon": 0.0, "fusion_lat": 0.0, "rental_uris": {"android": "https://dc.lft.to/lastmile_qr_scan", "ios": "https://dc.lft.to/lastmile_qr_scan"}, "is_disabled": 0, "type": "electric_scooter", "is_reserved": 0, "name": "4ad8eae3fdab7f75e48102c4c3ba6dc1", "lon": -76.985965, "bike_id": "4ad8eae3fdab7f75e48102c4c3ba6dc1", "lat": 38.9002985}, {"fusion_lon": 0.0, "fusion_lat": 0.0, "rental_uris": {"android": "https://dc.lft.to/lastmile_qr_scan", "ios": "https://dc.lft.to/lastmile_qr_scan"}, "is_disabled": 0, "type": "electric_scooter", "is_reserved": 0, "name": "9d5ec214238c6ec0d454b3be0786772c", "lon": -77.0095665, "bike_id": "9d5ec214238c6ec0d454b3be0786772c", "lat": 38.898742166666665}, {"fusion_lon": 0.0, "fusion_lat": 0.0, "rental_uris": {"android": "https://dc.lft.to/lastmile_qr_scan", "ios": "https://dc.lft.to/lastmile_qr_scan"}, "is_disabled": 0, "type": "electric_scooter", "is_reserved": 0, "name": "1c829638bd7d3c5200069b4de0d34064", "lon": -77.03280166666667, "bike_id": "1c829638bd7d3c5200069b4de0d34064", "lat": 38.93670633333333}, {"fusion_lon": 0.0, "fusion_lat": 0.0, "rental_uris": {"android": "https://dc.lft.to/lastmile_qr_scan", "ios": "https://dc.lft.to/lastmile_qr_scan"}, "is_disabled": 0, "type": "electric_scooter", "is_reserved": 0, "name": "d5b0775df3ef31c4a69463c2eaa122ad", "lon": -77.04498966666667, "bike_id": "d5b0775df3ef31c4a69463c2eaa122ad", "lat": 38.9000025}, {"fusion_lon": 0.0, "fusion_lat": 0.0, "rental_uris": {"android": "https://dc.lft.to/lastmile_qr_scan", "ios": "https://dc.lft.to/lastmile_qr_scan"}, "is_disabled": 0, "type": "electric_scooter", "is_reserved": 0, "name": "437d2282639fe31a22efdcf9617d1655", "lon": -77.02403466666667, "bike_id": "437d2282639fe31a22efdcf9617d1655", "lat": 38.905829833333335}, {"fusion_lon": 0.0, "fusion_lat": 0.0, "rental_uris": {"android": "https://dc.lft.to/lastmile_qr_scan", "ios": "https://dc.lft.to/lastmile_qr_scan"}, "is_disabled": 0, "type": "electric_scooter", "is_reserved": 0, "name": "7301800d28aaa12369488d8956e975e0", "lon": -77.02494283333333, "bike_id": "7301800d28aaa12369488d8956e975e0", "lat": 38.93965466666667}, {"fusion_lon": 0.0, "fusion_lat": 0.0, "rental_uris": {"android": "https://dc.lft.to/lastmile_qr_scan", "ios": "https://dc.lft.to/lastmile_qr_scan"}, "is_disabled": 0, "type": "electric_scooter", "is_reserved": 0, "name": "bd6aa56701dcfcddd01baf56dd2cdc02", "lon": -77.00145666666667, "bike_id": "bd6aa56701dcfcddd01baf56dd2cdc02", "lat": 38.867491}, {"fusion_lon": 0.0, "fusion_lat": 0.0, "rental_uris": {"android": "https://dc.lft.to/lastmile_qr_scan", "ios": "https://dc.lft.to/lastmile_qr_scan"}, "is_disabled": 0, "type": "electric_bike", "is_reserved": 0, "name": "08b8fd37195af96ed7f76b1aa8615cd4", "lon": -76.950615, "bike_id": "08b8fd37195af96ed7f76b1aa8615cd4", "lat": 39.085051}, {"fusion_lon": 0.0, "fusion_lat": 0.0, "rental_uris": {"android": "https://dc.lft.to/lastmile_qr_scan", "ios": "https://dc.lft.to/lastmile_qr_scan"}, "is_disabled": 0, "type": "electric_scooter", "is_reserved": 0, "name": "630eadba5aa69d7938ece6c01517eef3", "lon": -77.03202166666667, "bike_id": "630eadba5aa69d7938ece6c01517eef3", "lat": 38.892335333333335}, {"fusion_lon": 0.0, "fusion_lat": 0.0, "rental_uris": {"android": "https://dc.lft.to/lastmile_qr_scan", "ios": "https://dc.lft.to/lastmile_qr_scan"}, "is_disabled": 0, "type": "electric_scooter", "is_reserved": 0, "name": "5d0c931c6c9a0b78f543eb916fbd3003", "lon": -77.003243, "bike_id": "5d0c931c6c9a0b78f543eb916fbd3003", "lat": 38.88732433333333}, {"fusion_lon": 0.0, "fusion_lat": 0.0, "rental_uris": {"android": "https://dc.lft.to/lastmile_qr_scan", "ios": "https://dc.lft.to/lastmile_qr_scan"}, "is_disabled": 0, "type": "electric_scooter", "is_reserved": 0, "name": "b3e40e494e62988b823c7a47c97e035f", "lon": -77.03220616666667, "bike_id": "b3e40e494e62988b823c7a47c97e035f", "lat": 38.91637216666667}, {"fusion_lon": 0.0, "fusion_lat": 0.0, "rental_uris": {"android": "https://dc.lft.to/lastmile_qr_scan", "ios": "https://dc.lft.to/lastmile_qr_scan"}, "is_disabled": 0, "type": "electric_bike", "is_reserved": 0, "name": "be996abd16d45fa4c64bbca036db7c7b", "lon": -77.0483275, "bike_id": "be996abd16d45fa4c64bbca036db7c7b", "lat": 39.0374745}, {"fusion_lon": 0.0, "fusion_lat": 0.0, "rental_uris": {"android": "https://dc.lft.to/lastmile_qr_scan", "ios": "https://dc.lft.to/lastmile_qr_scan"}, "is_disabled": 0, "type": "electric_scooter", "is_reserved": 0, "name": "400f8482eda83954c530f621bf8b4ed8", "lon": -77.022135, "bike_id": "400f8482eda83954c530f621bf8b4ed8", "lat": 38.924689}, {"fusion_lon": 0.0, "fusion_lat": 0.0, "rental_uris": {"android": "https://dc.lft.to/lastmile_qr_scan", "ios": "https://dc.lft.to/lastmile_qr_scan"}, "is_disabled": 0, "type": "electric_scooter", "is_reserved": 0, "name": "9dc5da76d14d388e6839b7fa3d458a51", "lon": -77.02223716666667, "bike_id": "9dc5da76d14d388e6839b7fa3d458a51", "lat": 38.88630033333333}, {"fusion_lon": 0.0, "fusion_lat": 0.0, "rental_uris": {"android": "https://dc.lft.to/lastmile_qr_scan", "ios": "https://dc.lft.to/lastmile_qr_scan"}, "is_disabled": 0, "type": "electric_scooter", "is_reserved": 0, "name": "39214cbba2da3d32ad712f3302abe6b1", "lon": -77.02814083333334, "bike_id": "39214cbba2da3d32ad712f3302abe6b1", "lat": 38.92577816666667}, {"fusion_lon": 0.0, "fusion_lat": 0.0, "rental_uris": {"android": "https://dc.lft.to/lastmile_qr_scan", "ios": "https://dc.lft.to/lastmile_qr_scan"}, "is_disabled": 0, "type": "electric_scooter", "is_reserved": 0, "name": "fb798e4be67778dc2a40c28a0d5d8c48", "lon": -76.99117533333333, "bike_id": "fb798e4be67778dc2a40c28a0d5d8c48", "lat": 38.90027}, {"fusion_lon": 0.0, "fusion_lat": 0.0, "rental_uris": {"android": "https://dc.lft.to/lastmile_qr_scan", "ios": "https://dc.lft.to/lastmile_qr_scan"}, "is_disabled": 0, "type": "electric_scooter", "is_reserved": 0, "name": "3ba9c90544fb9bb141118059e427bf9c", "lon": -76.98523566666667, "bike_id": "3ba9c90544fb9bb141118059e427bf9c", "lat": 38.86674566666667}, {"fusion_lon": 0.0, "fusion_lat": 0.0, "rental_uris": {"android": "https://dc.lft.to/lastmile_qr_scan", "ios": "https://dc.lft.to/lastmile_qr_scan"}, "is_disabled": 0, "type": "electric_scooter", "is_reserved": 0, "name": "9b1602076f2938aab56d755eaa2b58b2", "lon": -77.02790416666667, "bike_id": "9b1602076f2938aab56d755eaa2b58b2", "lat": 38.918104666666665}, {"fusion_lon": 0.0, "fusion_lat": 0.0, "rental_uris": {"android": "https://dc.lft.to/lastmile_qr_scan", "ios": "https://dc.lft.to/lastmile_qr_scan"}, "is_disabled": 0, "type": "electric_scooter", "is_reserved": 0, "name": "afdb2740b314a498cca603324f124294", "lon": -77.04704166666667, "bike_id": "afdb2740b314a498cca603324f124294", "lat": 38.91675766666667}, {"fusion_lon": 0.0, "fusion_lat": 0.0, "rental_uris": {"android": "https://dc.lft.to/lastmile_qr_scan", "ios": "https://dc.lft.to/lastmile_qr_scan"}, "is_disabled": 0, "type": "electric_scooter", "is_reserved": 0, "name": "dc4a9b12f30de0372b6d127abb4116a6", "lon": -77.04622016666667, "bike_id": "dc4a9b12f30de0372b6d127abb4116a6", "lat": 38.916314}, {"fusion_lon": 0.0, "fusion_lat": 0.0, "rental_uris": {"android": "https://dc.lft.to/lastmile_qr_scan", "ios": "https://dc.lft.to/lastmile_qr_scan"}, "is_disabled": 0, "type": "electric_scooter", "is_reserved": 0, "name": "169d56d31923f39191efda3dbf38741a", "lon": -76.99594133333333, "bike_id": "169d56d31923f39191efda3dbf38741a", "lat": 38.8842845},