{"data": {"bikes": [{"rental_uris": {"ios": "https://dc.lft.to/lastmile_qr_scan", "android": "https://dc.lft.to/lastmile_qr_scan"}, "lon": -76.99500916666666, "type": "electric_bike", "fusion_lat": 0.0, "lat": 39.000071, "name": "0f59dbdb57954dd89a7728cb8503f76f", "fusion_lon": 0.0, "bike_id": "0f59dbdb57954dd89a7728cb8503f76f", "is_disabled": 0, "is_reserved": 0}, {"rental_uris": {"ios": "https://dc.lft.to/lastmile_qr_scan", "android": "https://dc.lft.to/lastmile_qr_scan"}, "lon": -77.05151466666666, "type": "electric_scooter", "fusion_lat": 0.0, "lat": 38.90123766666667, "name": "11a3627069810401576de2880469815d", "fusion_lon": 0.0, "bike_id": "11a3627069810401576de2880469815d", "is_disabled": 0, "is_reserved": 0}, {"rental_uris": {"ios": "https://dc.lft.to/lastmile_qr_scan", "android": "https://dc.lft.to/lastmile_qr_scan"}, "lon": -76.99964683333333, "type": "electric_scooter", "fusion_lat": 0.0, "lat": 38.838361666666664, "name": "eeaaff21bab40bdf68c0d413cff85666", "fusion_lon": 0.0, "bike_id": "eeaaff21bab40bdf68c0d413cff85666", "is_disabled": 0, "is_reserved": 0}, {"rental_uris": {"ios": "https://dc.lft.to/lastmile_qr_scan", "android": "https://dc.lft.to/lastmile_qr_scan"}, "lon": -77.0632615, "type": "electric_scooter", "fusion_lat": 0.0, "lat": 38.90763416666667, "name": "29bbb72701eeb715821bd4b60c01c51c", "fusion_lon": 0.0, "bike_id": "29bbb72701eeb715821bd4b60c01c51c", "is_disabled": 0, "is_reserved": 0}, {"rental_uris": {"ios": "https://dc.lft.to/lastmile_qr_scan", "android": "https://dc.lft.to/lastmile_qr_scan"}, "lon": -77.005132, "type": "electric_scooter", "fusion_lat": 0.0, "lat": 38.917163333333335, "name": "4dc6c2de7e5b754abed039912de2cdae", "fusion_lon": 0.0, "bike_id": "4dc6c2de7e5b754abed039912de2cdae", "is_disabled": 0, "is_reserved": 0}, {"rental_uris": {"ios": "https://dc.lft.to/lastmile_qr_scan", "android": "https://dc.lft.to/lastmile_qr_scan"}, "lon": -77.069853, "type": "electric_scooter", "fusion_lat": 0.0, "lat": 38.95484616666667, "name": "c5be1c22cd829648208eb6c8f3f02fa2", "fusion_lon": 0.0, "bike_id": "c5be1c22cd829648208eb6c8f3f02fa2", "is_disabled": 0, "is_reserved": 0}, {"rental_uris": {"ios": "https://dc.lft.to/lastmile_qr_scan", "android": "https://dc.lft.to/lastmile_qr_scan"}, "lon": -77.0396325, "type": "electric_scooter", "fusion_lat": 0.0, "lat": 38.89531566666667, "name": "7625f7e24bf82c9a9522ee7a3ee00799", "fusion_lon": 0.0, "bike_id": "7625f7e24bf82c9a9522ee7a3ee00799", "is_disabled": 0, "is_reserved": 0}, {"rental_uris": {"ios": "https://dc.lft.to/lastmile_qr_scan", "android": "https://dc.lft.to/lastmile_qr_scan"}, "lon": -76.9979235, "type": "electric_scooter", "fusion_lat": 0.0, "lat": 38.92183333333333, "name": "b2706e65b2e52c2d973e6a434ea15782", "fusion_lon": 0.0, "bike_id": "b2706e65b2e52c2d973e6a434ea15782", "is_disabled": 0, "is_reserved": 0}, {"rental_uris": {"ios": "https://dc.lft.to/lastmile_qr_scan", "android": "https://dc.lft.to/lastmile_qr_scan"}, "lon": -77.01433583333333, "type": "electric_scooter", "fusion_lat": 0.0, "lat": 38.929914833333335, "name": "fc092340672000150f1f086af7379545", "fusion_lon": 0.0, "bike_id": "fc092340672000150f1f086af7379545", "is_disabled": 0, "is_reserved": 0}, {"rental_uris": {"ios": "https://dc.lft.to/lastmile_qr_scan", "android": "https://dc.lft.to/lastmile_qr_scan"}, "lon": -77.00203866666666, "type": "electric_scooter", "fusion_lat": 0.0, "lat": 38.8998785, "name": "895c94aa5dd4a1866e11a4e8fb262afe", "fusion_lon": 0.0, "bike_id": "895c94aa5dd4a1866e11a4e8fb262afe", "is_disabled": 0, "is_reserved": 0}, {"rental_uris": {"ios": "https://dc.lft.to/lastmile_qr_scan", "android": "https://dc.lft.to/lastmile_qr_scan"}, "lon": -77.04288366666667, "type": "electric_scooter", "fusion_lat": 0.0, "lat": 38.905536166666664, "name": "6d1c7c12033075695341f8d00da4f903", "fusion_lon": 0.0, "bike_id": "6d1c7c12033075695341f8d00da4f903", "is_disabled": 0, "is_reserved": 0}, {"rental_uris": {"ios": "https://dc.lft.to/lastmile_qr_scan", "android": "https://dc.lft.to/lastmile_qr_scan"}, "lon": -77.028396, "type": "electric_scooter", "fusion_lat": 0.0, "lat": 38.92858366666667, "name": "a735ec838299f454172570232cf79259", "fusion_lon": 0.0, "bike_id": "a735ec838299f454172570232cf79259", "is_disabled": 0, "is_reserved": 0}, {"rental_uris": {"ios": "https://dc.lft.to/lastmile_qr_scan", "android": "https://dc.lft.to/lastmile_qr_scan"}, "lon": -77.05929966666666, "type": "electric_scooter", "fusion_lat": 0.0, "lat": 38.90956366666666, "name": "47de7ff142312b88e762f7473104a3f7", "fusion_lon": 0.0, "bike_id": "47de7ff142312b88e762f7473104a3f7", "is_disabled": 0, "is_reserved": 0}, {"rental_uris": {"ios": "https://dc.lft.to/lastmile_qr_scan", "android": "https://dc.lft.to/lastmile_qr_scan"}, "lon": -77.03559283333334, "type": "electric_scooter", "fusion_lat": 0.0, "lat": 38.927454166666664, "name": "934909134f1b911281b5b87cb2234e00", "fusion_lon": 0.0, "bike_id": "934909134f1b911281b5b87cb2234e00", "is_disabled": 0, "is_reserved": 0}, {"rental_uris": {"ios": "https://dc.lft.to/lastmile_qr_scan", "android": "https://dc.lft.to/lastmile_qr_scan"}, "lon": -76.989977, "type": "electric_scooter", "fusion_lat": 0.0, "lat": 38.9039175, "name": "bfa48d9d97ca55e1a0a461c49a860669", "fusion_lon": 0.0, "bike_id": "bfa48d9d97ca55e1a0a461c49a860669", "is_disabled": 0, "is_reserved": 0}, {"rental_uris": {"ios": "https://dc.lft.to/lastmile_qr_scan", "android": "https://dc.lft.to/lastmile_qr_scan"}, "lon": -77.010242, "type": "electric_scooter", "fusion_lat": 0.0, "lat": 38.91811716666667, "name": "11ec2d97feb4a7f0b3b356f67ff9a9c9", "fusion_lon": 0.0, "bike_id": "11ec2d97feb4a7f0b3b356f67ff9a9c9", "is_disabled": 0, "is_reserved": 0}, {"rental_uris": {"ios": "https://dc.lft.to/lastmile_qr_scan", "android": "https://dc.lft.to/lastmile_qr_scan"}, "lon": -77.02815133333333, "type": "electric_scooter", "fusion_lat": 0.0, "lat": 38.961385666666665, "name": "17082b6b9dfdec243288263cffc58bdb", "fusion_lon": 0.0, "bike_id": "17082b6b9dfdec243288263cffc58bdb", "is_disabled": 0, "is_reserved": 0}, {"rental_uris": {"ios": "https://dc.lft.to/lastmile_qr_scan", "android": "https://dc.lft.to/lastmile_qr_scan"}, "lon": -77.080434, "type": "electric_bike", "fusion_lat": 0.0, "lat": 38.848442666666664, "name": "f357322d5a68816202561fa888866a0e", "fusion_lon": 0.0, "bike_id": "f357322d5a68816202561fa888866a0e", "is_disabled": 0, "is_reserved": 0}, {"rental_uris": {"ios": "https://dc.lft.to/lastmile_qr_scan", "android": "https://dc.lft.to/lastmile_qr_scan"}, "lon": -77.06296, "type": "electric_scooter", "fusion_lat": 0.0, "lat": 38.90672683333333, "name": "f0674aeb2b9f05acc0f27e0580fe4c5f", "fusion_lon": 0.0, "bike_id": "f0674aeb2b9f05acc0f27e0580fe4c5f", "is_disabled": 0, "is_reserved": 0}, {"rental_uris": {"ios": "https://dc.lft.to/lastmile_qr_scan", "android": "https://dc.lft.to/lastmile_qr_scan"}, "lon": -77.019731, "type": "electric_bike", "fusion_lat": 0.0, "lat": 38.915277333333336, "name": "e381040284459b24d62754d4310f477a", "fusion_lon": 0.0, "bike_id": "e381040284459b24d62754d4310f477a", "is_disabled": 0, "is_reserved": 0}, {"rental_uris": {"ios": "https://dc.lft.to/lastmile_qr_scan", "android": "https://dc.lft.to/lastmile_qr_scan"}, "lon": -76.98129266666666, "type": "electric_scooter", "fusion_lat": 0.0, "lat": 38.857069833333334, "name": "f73f46f6f3ababc6b8115c1e8f34b6b7", "fusion_lon": 0.0, "bike_id": "f73f46f6f3ababc6b8115c1e8f34b6b7", "is_disabled": 0, "is_reserved": 0}, {"rental_uris": {"ios": "https://dc.lft.to/lastmile_qr_scan", "android": "https://dc.lft.to/lastmile_qr_scan"}, "lon": -77.03859316666667, "type": "electric_scooter", "fusion_lat": 0.0, "lat": 38.907729, "name": "6f81eb9d67690f3f400cdbf952119f7b", "fusion_lon": 0.0, "bike_id": "6f81eb9d67690f3f400cdbf952119f7b", "is_disabled": 0, "is_reserved": 0}, {"rental_uris": {"ios": "https://dc.lft.to/lastmile_qr_scan", "android": "https://dc.lft.to/lastmile_qr_scan"}, "lon": -77.0262155, "type": "electric_scooter", "fusion_lat": 0.0, "lat": 38.915261666666666, "name": "506eca11456ac67c5fb6d26f6046ba08", "fusion_lon": 0.0, "bike_id": "506eca11456ac67c5fb6d26f6046ba08", "is_disabled": 0, "is_reserved": 0}, {"rental_uris": {"ios": "https://dc.lft.to/lastmile_qr_scan", "android": "https://dc.lft.to/lastmile_qr_scan"}, "lon": -77.05474666666667, "type": "electric_scooter", "fusion_lat": 0.0, "lat": 38.9106665, "name": "291286763f43a98044c8e16f0a5594bc", "fusion_lon": 0.0, "bike_id": "291286763f43a98044c8e16f0a5594bc", "is_disabled": 0, "is_reserved": 0}, {"rental_uris": {"ios": "https://dc.lft.to/lastmile_qr_scan", "android": "https://dc.lft.to/lastmile_qr_scan"}, "lon": -77.047164, "type": "electric_scooter", "fusion_lat": 0.0, "lat": 38.899605333333334, "name": "9ca462ddafd1f97a83e907a3a50e27e3", "fusion_lon": 0.0, "bike_id": "9ca462ddafd1f97a83e907a3a50e27e3", "is_disabled": 0, "is_reserved": 0}, {"rental_uris": {"ios": "https://dc.lft.to/lastmile_qr_scan", "android": "https://dc.lft.to/lastmile_qr_scan"}, "lon": -76.99461216666667, "type": "electric_scooter", "fusion_lat": 0.0, "lat": 38.85161866666667, "name": "e6a383ab41745891f8bf1c0e367412e5", "fusion_lon": 0.0, "bike_id": "e6a383ab41745891f8bf1c0e367412e5", "is_disabled": 0, "is_reserved": 0}, {"rental_uris": {"ios": "https://dc.lft.to/lastmile_qr_scan", "android": "https://dc.lft.to/lastmile_qr_scan"}, "lon": -77.035652, "type": "electric_scooter", "fusion_lat": 0.0, "lat": 38.9398265, "name": "b3c43b67545b92ebf3b1aea52a3c3916", "fusion_lon": 0.0, "bike_id": "b3c43b67545b92ebf3b1aea52a3c3916", "is_disabled": 0, "is_reserved": 0}, {"rental_uris": {"ios": "https://dc.lft.to/lastmile_qr_scan", "android": "https://dc.lft.to/lastmile_qr_scan"}, "lon": -77.0554745, "type": "electric_scooter", "fusion_lat": 0.0, "lat": 38.9252705, "name": "be5fa1a65058a4ff2f39084ec0e8ad06", "fusion_lon": 0.0, "bike_id": "be5fa1a65058a4ff2f39084ec0e8ad06", "is_disabled": 0, "is_reserved": 0}, {"rental_uris": {"ios": "https://dc.lft.to/lastmile_qr_scan", "android": "https://dc.lft.to/lastmile_qr_scan"}, "lon": -77.041793, "type": "electric_scooter", "fusion_lat": 0.0, "lat": 38.90532066666667, "name": "d69d3ad8d29db0395719872d6d172523", "fusion_lon": 0.0, "bike_id": "d69d3ad8d29db0395719872d6d172523", "is_disabled": 0, "is_reserved": 0}, {"rental_uris": {"ios": "https://dc.lft.to/lastmile_qr_scan", "android": "https://dc.lft.to/lastmile_qr_scan"}, "lon": -76.93966516666667, "type": "electric_scooter", "fusion_lat": 0.0, "lat": 38.899663333333336, "name": "d88deb04da244d18f329c47268faf241", "fusion_lon": 0.0, "bike_id": "d88deb04da244d18f329c47268faf241", "is_disabled": 0, "is_reserved": 0}, {"rental_uris": {"ios": "https://dc.lft.to/lastmile_qr_scan", "android": "https://dc.lft.to/lastmile_qr_scan"}, "lon": -77.02135366666667, "type": "electric_scooter", "fusion_lat": 0.0, "lat": 38.8948965, "name": "9ecb95d023786feff6b773abbec516ae", "fusion_lon": 0.0, "bike_id": "9ecb95d023786feff6b773abbec516ae", "is_disabled": 0, "is_reserved": 0}, {"rental_uris": {"ios": "https://dc.lft.to/lastmile_qr_scan", "android": "https://dc.lft.to/lastmile_qr_scan"}, "lon": -76.95755383333334, "type": "electric_scooter", "fusion_lat": 0.0, "lat": 38.884256666666666, "name": "2f02b7796a9a5128e5c35696150f70cb", "fusion_lon": 0.0, "bike_id": "2f02b7796a9a5128e5c35696150f70cb", "is_disabled": 0, "is_reserved": 0}, {"rental_uris": {"ios": "https://dc.lft.to/lastmile_qr_scan", "android": "https://dc.lft.to/lastmile_qr_scan"}, "lon": -77.028915, "type": "electric_scooter", "fusion_lat": 0.0, "lat": 38.90719333333333, "name": "ee9ddd478dab291b0a7136908e291502", "fusion_lon": 0.0, "bike_id": "ee9ddd478dab291b0a7136908e291502", "is_disabled": 0, "is_reserved": 0}, {"rental_uris": {"ios": "https://dc.lft.to/lastmile_qr_scan", "android": "https://dc.lft.to/lastmile_qr_scan"}, "lon": -76.93163333333334, "type": "electric_bike", "fusion_lat": 0.0, "lat": 38.9086505, "name": "228a0154cb842180c2826bf76a060109", "fusion_lon": 0.0, "bike_id": "228a0154cb842180c2826bf76a060109", "is_disabled": 0, "is_reserved": 0}, {"rental_uris": {"ios": "https://dc.lft.to/lastmile_qr_scan", "android": "https://dc.lft.to/lastmile_qr_scan"}, "lon": -77.028174, "type": "electric_scooter", "fusion_lat": 0.0, "lat": 38.96138533333333, "name": "7a1fd928828d5934cfbec378b050c824", "fusion_lon": 0.0, "bike_id": "7a1fd928828d5934cfbec378b050c824", "is_disabled": 0, "is_reserved": 0}, {"rental_uris": {"ios": "https://dc.lft.to/lastmile_qr_scan", "android": "https://dc.lft.to/lastmile_qr_scan"}, "lon": -77.02937516666667, "type": "electric_scooter", "fusion_lat": 0.0, "lat": 38.9206225, "name": "703d559c3a06b7ce04aad0b6206a8096", "fusion_lon": 0.0, "bike_id": "703d559c3a06b7ce04aad0b6206a8096", "is_disabled": 0, "is_reserved": 0}, {"rental_uris": {"ios": "https://dc.lft.to/lastmile_qr_scan", "android": "https://dc.lft.to/lastmile_qr_scan"}, "lon": -76.94141483333334, "type": "electric_scooter", "fusion_lat": 0.0, "lat": 38.896789, "name": "4d566d2aba4340b84ede8230b9655aca", "fusion_lon": 0.0, "bike_id": "4d566d2aba4340b84ede8230b9655aca", "is_disabled": 0, "is_reserved": 0}, {"rental_uris": {"ios": "https://dc.lft.to/lastmile_qr_scan", "android": "https://dc.lft.to/lastmile_qr_scan"}, "lon": -77.03894383333333, "type": "electric_scooter", "fusion_lat": 0.0, "lat": 38.94396016666666, "name": "864b3ba8085142071f48aa8243d88222", "fusion_lon": 0.0, "bike_id": "864b3ba8085142071f48aa8243d88222", "is_disabled": 0, "is_reserved": 0}, {"rental_uris": {"ios": "https://dc.lft.to/lastmile_qr_scan", "android": "https://dc.lft.to/lastmile_qr_scan"}, "lon": -76.99067833333334, "type": "electric_scooter", "fusion_lat": 0.0, "lat": 38.86358883333333, "name": "a0b015b02c350c70c000a1bab7000fd1", "fusion_lon": 0.0, "bike_id": "a0b015b02c350c70c000a1bab7000fd1", "is_disabled": 0, "is_reserved": 0}, {"rental_uris": {"ios": "https://dc.lft.to/lastmile_qr_scan", "android": "https://dc.lft.to/lastmile_qr_scan"}, "lon": -77.003815, "type": "electric_bike", "fusion_lat": 0.0, "lat": 38.836094833333334, "name": "835c3a987e33ac0e14c566531649f28e", "fusion_lon": 0.0, "bike_id": "835c3a987e33ac0e14c566531649f28e", "is_disabled": 0, "is_reserved": 0}, {"rental_uris": {"ios": "https://dc.lft.to/lastmile_qr_scan", "android": "https://dc.lft.to/lastmile_qr_scan"}, "lon": -77.09551683333333, "type": "electric_bike", "fusion_lat": 0.0, "lat": 38.837325666666665, "name": "e6e8e25e7ded3aa3988d1d8529be0c99", "fusion_lon": 0.0, "bike_id": "e6e8e25e7ded3aa3988d1d8529be0c99", "is_disabled": 0, "is_reserved": 0}, {"rental_uris": {"ios": "https://dc.lft.to/lastmile_qr_scan", "android": "https://dc.lft.to/lastmile_qr_scan"}, "lon": -76.9700585, "type": "electric_bike", "fusion_lat": 0.0, "lat": 38.86367283333333, "name": "ceebbb7d3ee082b3125abee465dc0930", "fusion_lon": 0.0, "bike_id": "ceebbb7d3ee082b3125abee465dc0930", "is_disabled": 0, "is_reserved": 0}, {"rental_uris": {"ios": "https://dc.lft.to/lastmile_qr_scan", "android": "https://dc.lft.to/lastmile_qr_scan"}, "lon": -77.02658566666666, "type": "electric_scooter", "fusion_lat": 0.0, "lat": 38.916955, "name": "e51a93a66030494ca65666ccc5083b96", "fusion_lon": 0.0, "bike_id": "e51a93a66030494ca65666ccc5083b96", "is_disabled": 0, "is_reserved": 0}, {"rental_uris": {"ios": "https://dc.lft.to/lastmile_qr_scan", "android": "https://dc.lft.to/lastmile_qr_scan"}, "lon": -77.0468835, "type": "electric_scooter", "fusion_lat": 0.0, "lat": 38.897360666666664, "name": "7d2220ab41852b040baa655ee86b9086", "fusion_lon": 0.0, "bike_id": "7d2220ab41852b040baa655ee86b9086", "is_disabled": 0, "is_reserved": 0}, {"rental_uris": {"ios": "https://dc.lft.to/lastmile_qr_scan", "android": "https://dc.lft.to/lastmile_qr_scan"}, "lon": -77.0854005, "type": "electric_bike", "fusion_lat": 0.0, "lat": 38.856189, "name": "aac164e8d5b5278fc5354c1d625cfed1", "fusion_lon": 0.0, "bike_id": "aac164e8d5b5278fc5354c1d625cfed1", "is_disabled": 0, "is_reserved": 0}, {"rental_uris": {"ios": "https://dc.lft.to/lastmile_qr_scan", "android": "https://dc.lft.to/lastmile_qr_scan"}, "lon": -76.98885566666667, "type": "electric_scooter", "fusion_lat": 0.0, "lat": 38.86661216666667, "name": "b15ad6ed2525b1d6ecbd1bd370a41628", "fusion_lon": 0.0, "bike_id": "b15ad6ed2525b1d6ecbd1bd370a41628", "is_disabled": 0, "is_reserved": 0}, {"rental_uris": {"ios": "https://dc.lft.to/lastmile_qr_scan", "android": "https://dc.lft.to/lastmile_qr_scan"}, "lon": -77.011736, "type": "electric_scooter", "fusion_lat": 0.0, "lat": 38.9000565, "name": "be35cb8698f7c346135078f9f379f33e", "fusion_lon": 0.0, "bike_id": "be35cb8698f7c346135078f9f379f33e", "is_disabled": 0, "is_reserved": 0}, {"rental_uris": {"ios": "https://dc.lft.to/lastmile_qr_scan", "android": "https://dc.lft.to/lastmile_qr_scan"}, "lon": -77.03836366666667, "type": "electric_scooter", "fusion_lat": 0.0, "lat": 38.908359, "name": "4311d7a536af44b30632ccc4be1e6d59", "fusion_lon": 0.0, "bike_id": "4311d7a536af44b30632ccc4be1e6d59", "is_disabled": 0, "is_reserved": 0}, {"rental_uris": {"ios": "https://dc.lft.to/lastmile_qr_scan", "android": "https://dc.lft.to/lastmile_qr_scan"}, "lon": -77.0317945, "type": "electric_scooter", "fusion_lat": 0.0, "lat": 38.887406, "name": "3fedbdb226cf75653301eedf2ef8c4d4", "fusion_lon": 0.0, "bike_id": "3fedbdb226cf75653301eedf2ef8c4d4", "is_disabled": 0, "is_reserved": 0}, {"rental_uris": {"ios": "https://dc.lft.to/lastmile_qr_scan", "android": "https://dc.lft.to/lastmile_qr_scan"}, "lon": -77.0160345, "type": "electric_scooter", "fusion_lat": 0.0, "lat": 38.90181833333333, "name": "65b770aaabfda148c0a2b5521359a51e", "fusion_lon": 0.0, "bike_id": "65b770aaabfda148c0a2b5521359a51e", "is_disabled": 0, "is_reserved": 0}, {"rental_uris": {"ios": "https://dc.lft.to/lastmile_qr_scan", "android": "https://dc.lft.to/lastmile_qr_scan"}, "lon": -77.04644983333333, "type": "electric_bike", "fusion_lat": 0.0, "lat": 38.852122666666666, "name": "672610acd06f00c31eb2343cf2852cee", "fusion_lon": 0.0, "bike_id": "672610acd06f00c31eb2343cf2852cee", "is_disabled": 0, "is_reserved": 0}, {"rental_uris": {"ios": "https://dc.lft.to/lastmile_qr_scan", "android": "https://dc.lft.to/lastmile_qr_scan"}, "lon": -77.03203733333334, "type": "electric_scooter", "fusion_lat": 0.0, "lat": 38.91538166666667, "name": "2df1b276a3ed18312eb631dd6bb57fff", "fusion_lon": 0.0, "bike_id": "2df1b276a3ed18312eb631dd6bb57fff", "is_disabled": 0, "is_reserved": 0}, {"rental_uris": {"ios": "https://dc.lft.to/lastmile_qr_scan", "android": "https://dc.lft.to/lastmile_qr_scan"}, "lon": -77.0317025, "type": "electric_scooter", "fusion_lat": 0.0, "lat": 38.887282166666665, "name": "0be540b85c2c3cfbc3cd88be51d83c9d", "fusion_lon": 0.0, "bike_id": "0be540b85c2c3cfbc3cd88be51d83c9d", "is_disabled": 0, "is_reserved": 0}, {"rental_uris": {"ios": "https://dc.lft.to/lastmile_qr_scan", "android": "https://dc.lft.to/lastmile_qr_scan"}, "lon": -77.0466575, "type": "electric_scooter", "fusion_lat": 0.0, "lat": 38.933001, "name": "55dabbae83fad2c200835ecb29bf3429", "fusion_lon": 0.0, "bike_id": "55dabbae83fad2c200835ecb29bf3429", "is_disabled": 0, "is_reserved": 0}, {"rental_uris": {"ios": "https://dc.lft.to/lastmile_qr_scan", "android": "https://dc.lft.to/lastmile_qr_scan"}, "lon": -76.99040966666666, "type": "electric_scooter", "fusion_lat": 0.0, "lat": 38.856583666666666, "name": "3fe5e0122fb84dd5b30b0f40796bc1bf", "fusion_lon": 0.0, "bike_id": "3fe5e0122fb84dd5b30b0f40796bc1bf", "is_disabled": 0, "is_reserved": 0}, {"rental_uris": {"ios": "https://dc.lft.to/lastmile_qr_scan", "android": "https://dc.lft.to/lastmile_qr_scan"}, "lon": -76.9324525, "type": "electric_scooter", "fusion_lat": 0.0, "lat": 38.8940365, "name": "1e946658fb3a23c18219a1bfb993ab23", "fusion_lon": 0.0, "bike_id": "1e946658fb3a23c18219a1bfb993ab23", "is_disabled": 0, "is_reserved": 0}, {"rental_uris": {"ios": "https://dc.lft.to/lastmile_qr_scan", "android": "https://dc.lft.to/lastmile_qr_scan"}, "lon": -77.12962133333333, "type": "electric_bike", "fusion_lat": 0.0, "lat": 38.807871666666664, "name": "d03e02d6984f96e3c4a4121a0b81184d", "fusion_lon": 0.0, "bike_id": "d03e02d6984f96e3c4a4121a0b81184d", "is_disabled": 0, "is_reserved": 0}, {"rental_uris": {"ios": "https://dc.lft.to/lastmile_qr_scan", "android": "https://dc.lft.to/lastmile_qr_scan"}, "lon": -77.01295283333333, "type": "electric_bike", "fusion_lat": 0.0, "lat": 39.003838333333334, "name": "42f12b202fdbd775f78b559c5cfcb8b6", "fusion_lon": 0.0, "bike_id": "42f12b202fdbd775f78b559c5cfcb8b6", "is_disabled": 0, "is_reserved": 0}, {"rental_uris": {"ios": "https://dc.lft.to/lastmile_qr_scan", "android": "https://dc.lft.to/lastmile_qr_scan"}, "lon": -77.08394333333334, "type": "electric_scooter", "fusion_lat": 0.0, "lat": 38.960984833333335, "name": "8b2ccdac99acb0f620c4cb631e26deb2", "fusion_lon": 0.0, "bike_id": "8b2ccdac99acb0f620c4cb631e26deb2", "is_disabled": 0, "is_reserved": 0}, {"rental_uris": {"ios": "https://dc.lft.to/lastmile_qr_scan", "android": "https://dc.lft.to/lastmile_qr_scan"}, "lon": -77.04498233333334, "type": "electric_scooter", "fusion_lat": 0.0, "lat": 38.91109766666667, "name": "71b89c5ff70ab8df408ae2b123a6c7e1", "fusion_lon": 0.0, "bike_id": "71b89c5ff70ab8df408ae2b123a6c7e1", "is_disabled": 0, "is_reserved": 0}, {"rental_uris": {"ios": "https://dc.lft.to/lastmile_qr_scan", "android": "https://dc.lft.to/lastmile_qr_scan"}, "lon": -77.055247, "type": "electric_scooter", "fusion_lat": 0.0, "lat": 38.89733716666667, "name": "f340d8fdc414db8ac0e7ce24a7e86cdc", "fusion_lon": 0.0, "bike_id": "f340d8fdc414db8ac0e7ce24a7e86cdc", "is_disabled": 0, "is_reserved": 0}, {"rental_uris": {"ios": "https://dc.lft.to/lastmile_qr_scan", "android": "https://dc.lft.to/lastmile_qr_scan"}, "lon": -77.02934633333334, "type": "electric_scooter", "fusion_lat": 0.0, "lat": 38.8954165, "name": "b664d2fde4066c07f073d73abc94918e", "fusion_lon": 0.0, "bike_id": "b664d2fde4066c07f073d73abc94918e", "is_disabled": 0, "is_reserved": 0}, {"rental_uris": {"ios": "https://dc.lft.to/lastmile_qr_scan", "android": "https://dc.lft.to/lastmile_qr_scan"}, "lon": -77.01505083333333, "type": "electric_scooter", "fusion_lat": 0.0, "lat": 38.901453, "name": "7e4424114f4526c3dee160eeb65f222c", "fusion_lon": 0.0, "bike_id": "7e4424114f4526c3dee160eeb65f222c", "is_disabled": 0, "is_reserved": 0}, {"rental_uris": {"ios": "https://dc.lft.to/lastmile_qr_scan", "android": "https://dc.lft.to/lastmile_qr_scan"}, "lon": -77.04349116666667, "type": "electric_scooter", "fusion_lat": 0.0, "lat": 38.90812066666667, "name": "d5e67b0351d66e7051527e818cf12c16", "fusion_lon": 0.0, "bike_id": "d5e67b0351d66e7051527e818cf12c16", "is_disabled": 0, "is_reserved": 0}, {"rental_uris": {"ios": "https://dc.lft.to/lastmile_qr_scan", "android": "https://dc.lft.to/lastmile_qr_scan"}, "lon": -76.9721195, "type": "electric_scooter", "fusion_lat": 0.0, "lat": 38.8549475, "name": "fd5665e2738aecf914e78f1da60c69c2", "fusion_lon": 0.0, "bike_id": "fd5665e2738aecf914e78f1da60c69c2", "is_disabled": 0, "is_reserved": 0}, {"rental_uris": {"ios": "https://dc.lft.to/lastmile_qr_scan", "android": "https://dc.lft.to/lastmile_qr_scan"}, "lon": -77.04326916666666, "type": "electric_scooter", "fusion_lat": 0.0, "lat": 38.895831333333334, "name": "0da51ce0c39297517e088f07ce79aebf", "fusion_lon": 0.0, "bike_id": "0da51ce0c39297517e088f07ce79aebf", "is_disabled": 0, "is_reserved": 0}, {"rental_uris": {"ios": "https://dc.lft.to/lastmile_qr_scan", "android": "https://dc.lft.to/lastmile_qr_scan"}, "lon": -77.04701016666667, "type": "electric_scooter", "fusion_lat": 0.0, "lat": 38.90396583333333, "name": "1984efc4584dae11631252ef29ee98e3", "fusion_lon": 0.0, "bike_id": "1984efc4584dae11631252ef29ee98e3", "is_disabled": 0, "is_reserved": 0}, {"rental_uris": {"ios": "https://dc.lft.to/lastmile_qr_scan", "android": "https://dc.lft.to/lastmile_qr_scan"}, "lon": -77.0451205, "type": "electric_scooter", "fusion_lat": 0.0, "lat": 38.91196333333333, "name": "7029374ec111e314e335191375a039f1", "fusion_lon": 0.0, "bike_id": "7029374ec111e314e335191375a039f1", "is_disabled": 0, "is_reserved": 0}, {"rental_uris": {"ios": "https://dc.lft.to/lastmile_qr_scan", "android": "https://dc.lft.to/lastmile_qr_scan"}, "lon": -77.0382055, "type": "electric_scooter", "fusion_lat": 0.0, "lat": 38.926378666666665, "name": "2170a7930a16d99e92614fa08ed95042", "fusion_lon": 0.0, "bike_id": "2170a7930a16d99e92614fa08ed95042", "is_disabled": 0, "is_reserved": 0}, {"rental_uris": {"ios": "https://dc.lft.to/lastmile_qr_scan", "android": "https://dc.lft.to/lastmile_qr_scan"}, "lon": -77.03211466666667, "type": "electric_scooter", "fusion_lat": 0.0, "lat": 38.907656833333334, "name": "561a604079ad96ea56acc555dba76baa", "fusion_lon": 0.0, "bike_id": "561a604079ad96ea56acc555dba76baa", "is_disabled": 0, "is_reserved": 0}, {"rental_uris": {"ios": "https://dc.lft.to/lastmile_qr_scan", "android": "https://dc.lft.to/lastmile_qr_scan"}, "lon": -76.9462655, "type": "electric_bike", "fusion_lat": 0.0, "lat": 38.94623583333333, "name": "20f1c727cbebaea27a6d59fd3123e511", "fusion_lon": 0.0, "bike_id": "20f1c727cbebaea27a6d59fd3123e511", "is_disabled": 0, "is_reserved": 0}, {"rental_uris": {"ios": "https://dc.lft.to/lastmile_qr_scan", "android": "https://dc.lft.to/lastmile_qr_scan"}, "lon": -77.03933716666667, "type": "electric_scooter", "fusion_lat": 0.0, "lat": 38.89904666666666, "name": "a488ab13c2fb2270a200f44569af6f8e", "fusion_lon": 0.0, "bike_id": "a488ab13c2fb2270a200f44569af6f8e", "is_disabled": 0, "is_reserved": 0}, {"rental_uris": {"ios": "https://dc.lft.to/lastmile_qr_scan", "android": "https://dc.lft.to/lastmile_qr_scan"}, "lon": -77.026322, "type": "electric_scooter", "fusion_lat": 0.0, "lat": 38.896029166666665, "name": "06e4aaa36f28e878fdd329e271b6d617", "fusion_lon": 0.0, "bike_id": "06e4aaa36f28e878fdd329e271b6d617", "is_disabled": 0, "is_reserved": 0}, {"rental_uris": {"ios": "https://dc.lft.to/lastmile_qr_scan", "android": "https://dc.lft.to/lastmile_qr_scan"}, "lon": -77.03473133333334, "type": "electric_scooter", "fusion_lat": 0.0, "lat": 38.91708916666666, "name": "ef6e361a9027cd169a3f55813d6baecb", "fusion_lon": 0.0, "bike_id": "ef6e361a9027cd169a3f55813d6baecb", "is_disabled": 0, "is_reserved": 0}, {"rental_uris": {"ios": "https://dc.lft.to/lastmile_qr_scan", "android": "https://dc.lft.to/lastmile_qr_scan"}, "lon": -76.99879016666667, "type": "electric_scooter", "fusion_lat": 0.0, "lat": 38.907506166666664, "name": "3bef207891c013cfef8f8008d42e5bbf", "fusion_lon": 0.0, "bike_id": "3bef207891c013cfef8f8008d42e5bbf", "is_disabled": 0, "is_reserved": 0}, {"rental_uris": {"ios": "https://dc.lft.to/lastmile_qr_scan", "android": "https://dc.lft.to/lastmile_qr_scan"}, "lon": -77.0585595, "type": "electric_scooter", "fusion_lat": 0.0, "lat": 38.934246, "name": "68919c029a16791c7aae53e68a7d7af6", "fusion_lon": 0.0, "bike_id": "68919c029a16791c7aae53e68a7d7af6", "is_disabled": 0, "is_reserved": 0}, {"rental_uris": {"ios": "https://dc.lft.to/lastmile_qr_scan", "android": "https://dc.lft.to/lastmile_qr_scan"}, "lon": -77.07708583333333, "type": "electric_scooter", "fusion_lat": 0.0, "lat": 38.9561535, "name": "27f17bf8a75d8d849bedabcd65faa093", "fusion_lon": 0.0, "bike_id": "27f17bf8a75d8d849bedabcd65faa093", "is_disabled": 0, "is_reserved": 0}, {"rental_uris": {"ios": "https://dc.lft.to/lastmile_qr_scan", "android": "https://dc.lft.to/lastmile_qr_scan"}, "lon": -77.03763166666667, "type": "electric_scooter", "fusion_lat": 0.0, "lat": 38.929060666666665, "name": "9a8660104998b2fb0d3f636080bef928", "fusion_lon": 0.0, "bike_id": "9a8660104998b2fb0d3f636080bef928", "is_disabled": 0, "is_reserved": 0}, {"rental_uris": {"ios": "https://dc.lft.to/lastmile_qr_scan", "android": "https://dc.lft.to/lastmile_qr_scan"}, "lon": -77.13101633333333, "type": "electric_bike", "fusion_lat": 0.0, "lat": 38.8762995, "name": "2a738a5686dff135ad6ee57692f56cfa", "fusion_lon": 0.0, "bike_id": "2a738a5686dff135ad6ee57692f56cfa", "is_disabled": 0, "is_reserved": 0}, {"rental_uris": {"ios": "https://dc.lft.to/lastmile_qr_scan", "android": "https://dc.lft.to/lastmile_qr_scan"}, "lon": -76.98708816666667, "type": "electric_scooter", "fusion_lat": 0.0, "lat": 38.86537416666667, "name": "78ffd871beed3d26f42041598e84db09", "fusion_lon": 0.0, "bike_id": "78ffd871beed3d26f42041598e84db09", "is_disabled": 0, "is_reserved": 0}, {"rental_uris": {"ios": "https://dc.lft.to/lastmile_qr_scan", "android": "https://dc.lft.to/lastmile_qr_scan"}, "lon": -77.0461015, "type": "electric_scooter", "fusion_lat": 0.0, "lat": 38.906713333333336, "name": "de027ee4f2afd148a28053891ed2a367", "fusion_lon": 0.0, "bike_id": "de027ee4f2afd148a28053891ed2a367", "is_disabled": 0, "is_reserved": 0}, {"rental_uris": {"ios": "https://dc.lft.to/lastmile_qr_scan", "android": "https://dc.lft.to/lastmile_qr_scan"}, "lon": -77.00524866666666, "type": "electric_scooter", "fusion_lat": 0.0, "lat": 38.928993166666665, "name": "5bdae37ae708fc0515fdd1c366f0f040", "fusion_lon": 0.0, "bike_id": "5bdae37ae708fc0515fdd1c366f0f040", "is_disabled": 0, "is_reserved": 0}, {"rental_uris": {"ios": "https://dc.lft.to/lastmile_qr_scan", "android": "https://dc.lft.to/lastmile_qr_scan"}, "lon": -77.012007, "type": "electric_scooter", "fusion_lat": 0.0, "lat": 38.89998166666667, "name": "af35fc62fcfd3db0a84e370151994ad3", "fusion_lon": 0.0, "bike_id": "af35fc62fcfd3db0a84e370151994ad3", "is_disabled": 0, "is_reserved": 0}, {"rental_uris": {"ios": "https://dc.lft.to/lastmile_qr_scan", "android": "https://dc.lft.to/lastmile_qr_scan"}, "lon": -77.03182733333334, "type": "electric_scooter", "fusion_lat": 0.0, "lat": 38.899634, "name": "ae1dcfad184e9005fb38c2e7e510e382", "fusion_lon": 0.0, "bike_id": "ae1dcfad184e9005fb38c2e7e510e382", "is_disabled": 0, "is_reserved": 0}, {"rental_uris": {"ios": "https://dc.lft.to/lastmile_qr_scan", "android": "https://dc.lft.to/lastmile_qr_scan"}, "lon": -77.03929083333334, "type": "electric_scooter", "fusion_lat": 0.0, "lat": 38.89907483333333, "name": "36a6a9ef263ec50bbeeee7396e81862f", "fusion_lon": 0.0, "bike_id": "36a6a9ef263ec50bbeeee7396e81862f", "is_disabled": 0, "is_reserved": 0}, {"rental_uris": {"ios": "https://dc.lft.to/lastmile_qr_scan", "android": "https://dc.lft.to/lastmile_qr_scan"}, "lon": -77.035372, "type": "electric_scooter", "fusion_lat": 0.0, "lat": 38.918057166666664, "name": "146dc98fee72a58fd87c19ec157bff63", "fusion_lon": 0.0, "bike_id": "146dc98fee72a58fd87c19ec157bff63", "is_disabled": 0, "is_reserved": 0}, {"rental_uris": {"ios": "https://dc.lft.to/lastmile_qr_scan", "android": "https://dc.lft.to/lastmile_qr_scan"}, "lon": -77.0180995, "type": "electric_scooter", "fusion_lat": 0.0, "lat": 38.94209166666667, "name": "054d31e6833b352355e3333327370ad2", "fusion_lon": 0.0, "bike_id": "054d31e6833b352355e3333327370ad2", "is_disabled": 0, "is_reserved": 0}, {"rental_uris": {"ios": "https://dc.lft.to/lastmile_qr_scan", "android": "https://dc.lft.to/lastmile_qr_scan"}, "lon": -77.02855716666667, "type": "electric_scooter", "fusion_lat": 0.0, "lat": 38.93476616666667, "name": "36fb60eb571387222bb5d7e15ca20b0a", "fusion_lon": 0.0, "bike_id": "36fb60eb571387222bb5d7e15ca20b0a", "is_disabled": 0, "is_reserved": 0}, {"rental_uris": {"ios": "https://dc.lft.to/lastmile_qr_scan", "android": "https://dc.lft.to/lastmile_qr_scan"}, "lon": -77.00414766666667, "type": "electric_scooter", "fusion_lat": 0.0, "lat": 38.87892633333333, "name": "8d1646039aafe0276a8dd58227f8d473", "fusion_lon": 0.0, "bike_id": "8d1646039aafe0276a8dd58227f8d473", "is_disabled": 0, "is_reserved": 0}, {"rental_uris": {"ios": "https://dc.lft.to/lastmile_qr_scan", "android": "https://dc.lft.to/lastmile_qr_scan"}, "lon": -77.02977783333333, "type": "electric_scooter", "fusion_lat": 0.0, "lat": 38.962281833333336, "name": "45d518d1fc7f0ce3bc8b99408432ed54", "fusion_lon": 0.0, "bike_id": "45d518d1fc7f0ce3bc8b99408432ed54", "is_disabled": 0, "is_reserved": 0}, {"rental_uris": {"ios": "https://dc.lft.to/lastmile_qr_scan", "android": "https://dc.lft.to/lastmile_qr_scan"}, "lon": -77.032653, "type": "electric_scooter", "fusion_lat": 0.0, "lat": 38.93871633333333, "name": "c9739138e4f6d9f5d390d5dad1c536ab", "fusion_lon": 0.0, "bike_id": "c9739138e4f6d9f5d390d5dad1c536ab", "is_disabled": 0, "is_reserved": 0}, {"rental_uris": {"ios": "https://dc.lft.to/lastmile_qr_scan", "android": "https://dc.lft.to/lastmile_qr_scan"}, "lon": -77.051331, "type": "electric_scooter", "fusion_lat": 0.0, "lat": 38.90229866666667, "name": "3d7ac0e40f8fd8af241b645e1cbbd4c6", "fusion_lon": 0.0, "bike_id": "3d7ac0e40f8fd8af241b645e1cbbd4c6", "is_disabled": 0, "is_reserved": 0}, {"rental_uris": {"ios": "https://dc.lft.to/lastmile_qr_scan", "android": "https://dc.lft.to/lastmile_qr_scan"}, "lon": -77.02811416666667, "type": "electric_scooter", "fusion_lat": 0.0, "lat": 38.881754666666666, "name": "3ae7874a16829da3b3c23141b77a62a2", "fusion_lon": 0.0, "bike_id": "3ae7874a16829da3b3c23141b77a62a2", "is_disabled": 0, "is_reserved": 0}, {"rental_uris": {"ios": "https://dc.lft.to/lastmile_qr_scan", "android": "https://dc.lft.to/lastmile_qr_scan"}, "lon": -77.03201933333334, "type": "electric_scooter", "fusion_lat": 0.0, "lat": 38.91928083333333, "name": "b3c976af011517115bb33e4daeface2f", "fusion_lon": 0.0, "bike_id": "b3c976af011517115bb33e4daeface2f", "is_disabled": 0, "is_reserved": 0}, {"rental_uris": {"ios": "https://dc.lft.to/lastmile_qr_scan", "android": "https://dc.lft.to/lastmile_qr_scan"}, "lon": -77.02145983333334, "type": "electric_scooter", "fusion_lat": 0.0, "lat": 38.91553966666667, "name": "832237d3f80a5b3fa7910cb34214938a", "fusion_lon": 0.0, "bike_id": "832237d3f80a5b3fa7910cb34214938a", "is_disabled": 0, "is_reserved": 0}, {"rental_uris": {"ios": "https://dc.lft.to/lastmile_qr_scan", "android": "https://dc.lft.to/lastmile_qr_scan"}, "lon": -77.0426455, "type": "electric_scooter", "fusion_lat": 0.0, "lat": 38.923146833333334, "name": "caff788402fec7cf42bd06613a56238c", "fusion_lon": 0.0, "bike_id": "caff788402fec7cf42bd06613a56238c", "is_disabled": 0, "is_reserved": 0}, {"rental_uris": {"ios": "https://dc.lft.to/lastmile_qr_scan", "android": "https://dc.lft.to/lastmile_qr_scan"}, "lon": -77.0258255, "type": "electric_scooter", "fusion_lat": 0.0, "lat": 38.88230766666667, "name": "8a6425ef8ed4038b134b6641e7556eae", "fusion_lon": 0.0, "bike_id": "8a6425ef8ed4038b134b6641e7556eae", "is_disabled": 0, "is_reserved": 0}, {"rental_uris": {"ios": "https://dc.lft.to/lastmile_qr_scan", "android": "https://dc.lft.to/lastmile_qr_scan"}, "lon": -77.02966816666667, "type": "electric_scooter", "fusion_lat": 0.0, "lat": 38.89507916666667, "name": "a8344b1dc1563e4b11d28eae8f4ebbea", "fusion_lon": 0.0, "bike_id": "a8344b1dc1563e4b11d28eae8f4ebbea", "is_disabled": 0, "is_reserved": 0}, {"rental_uris": {"ios": "https://dc.lft.to/lastmile_qr_scan", "android": "https://dc.lft.to/lastmile_qr_scan"}, "lon": -76.995197, "type": "electric_scooter", "fusion_lat": 0.0, "lat": 38.862576833333335, "name": "33dda4de2586e3d41b9783af1513badd", "fusion_lon": 0.0, "bike_id": "33dda4de2586e3d41b9783af1513badd", "is_disabled": 0, "is_reserved": 0}, {"rental_uris": {"ios": "https://dc.lft.to/lastmile_qr_scan", "android": "https://dc.lft.to/lastmile_qr_scan"}, "lon": -77.008449, "type": "electric_bike", "fusion_lat": 0.0, "lat": 38.949144, "name": "848c39eea34dd144467f5f0813312b35", "fusion_lon": 0.0, "bike_id": "848c39eea34dd144467f5f0813312b35", "is_disabled": 0, "is_reserved": 0}, {"rental_uris": {"ios": "https://dc.lft.to/lastmile_qr_scan", "android": "https://dc.lft.to/lastmile_qr_scan"}, "lon": -77.01779366666666, "type": "electric_bike", "fusion_lat": 0.0, "lat": 38.91489516666667, "name": "9db3b90cc553da03eba3ace78292861f", "fusion_lon": 0.0, "bike_id": "9db3b90cc553da03eba3ace78292861f", "is_disabled": 0, "is_reserved": 0}, {"rental_uris": {"ios": "https://dc.lft.to/lastmile_qr_scan", "android": "https://dc.lft.to/lastmile_qr_scan"}, "lon": -77.03641966666666, "type": "electric_scooter", "fusion_lat": 0.0, "lat": 38.917333166666666, "name": "34eddc3374ba4e470da20f59910a6c5a", "fusion_lon": 0.0, "bike_id": "34eddc3374ba4e470da20f59910a6c5a", "is_disabled": 0, "is_reserved": 0}, {"rental_uris": {"ios": "https://dc.lft.to/lastmile_qr_scan", "android": "https://dc.lft.to/lastmile_qr_scan"}, "lon": -77.01085116666667, "type": "electric_scooter", "fusion_lat": 0.0, "lat": 38.916264, "name": "d644f6ea3dcc2040ca4f63a8b734a692", "fusion_lon": 0.0, "bike_id": "d644f6ea3dcc2040ca4f63a8b734a692", "is_disabled": 0, "is_reserved": 0}, {"rental_uris": {"ios": "https://dc.lft.to/lastmile_qr_scan", "android": "https://dc.lft.to/lastmile_qr_scan"}, "lon": -77.14120016666666, "type": "electric_bike", "fusion_lat": 0.0, "lat": 38.8160165, "name": "427cacb61edd601287c2d64e450604a9", "fusion_lon": 0.0, "bike_id": "427cacb61edd601287c2d64e450604a9", "is_disabled": 0, "is_reserved": 0}, {"rental_uris": {"ios": "https://dc.lft.to/lastmile_qr_scan", "android": "https://dc.lft.to/lastmile_qr_scan"}, "lon": -77.04269916666667, "type": "electric_scooter", "fusion_lat": 0.0, "lat": 38.91697283333333, "name": "c08bdd5959e80238d2d97eb45ee130ff", "fusion_lon": 0.0, "bike_id": "c08bdd5959e80238d2d97eb45ee130ff", "is_disabled": 0, "is_reserved": 0}, {"rental_uris": {"ios": "https://dc.lft.to/lastmile_qr_scan", "android": "https://dc.lft.to/lastmile_qr_scan"}, "lon": -77.1250225, "type": "electric_bike", "fusion_lat": 0.0, "lat": 39.024217, "name": "71662e96788e6eff225eccdba5069f5a", "fusion_lon": 0.0, "bike_id": "71662e96788e6eff225eccdba5069f5a", "is_disabled": 0, "is_reserved": 0}, {"rental_uris": {"ios": "https://dc.lft.to/lastmile_qr_scan", "android": "https://dc.lft.to/lastmile_qr_scan"}, "lon": -77.0438515, "type": "electric_scooter", "fusion_lat": 0.0, "lat": 38.9166965, "name": "9efe05974c2a3151895be901ab408c06", "fusion_lon": 0.0, "bike_id": "9efe05974c2a3151895be901ab408c06", "is_disabled": 0, "is_reserved": 0}, {"rental_uris": {"ios": "https://dc.lft.to/lastmile_qr_scan", "android": "https://dc.lft.to/lastmile_qr_scan"}, "lon": -77.04149183333334, "type": "electric_scooter", "fusion_lat": 0.0, "lat": 38.899998, "name": "a91083a62621fba1454e14dff781e405", "fusion_lon": 0.0, "bike_id": "a91083a62621fba1454e14dff781e405", "is_disabled": 0, "is_reserved": 0}, {"rental_uris": {"ios": "https://dc.lft.to/lastmile_qr_scan", "android": "https://dc.lft.to/lastmile_qr_scan"}, "lon": -76.95756683333333, "type": "electric_scooter", "fusion_lat": 0.0, "lat": 38.88430016666667, "name": "3cf59024a6854d80753f323b5679af00", "fusion_lon": 0.0, "bike_id": "3cf59024a6854d80753f323b5679af00", "is_disabled": 0, "is_reserved": 0}, {"rental_uris": {"ios": "https://dc.lft.to/lastmile_qr_scan", "android": "https://dc.lft.to/lastmile_qr_scan"}, "lon": -77.05506716666666, "type": "electric_scooter", "fusion_lat": 0.0, "lat": 38.92972533333333, "name": "1252df1bb62283c1a07f2b80cc60fa09", "fusion_lon": 0.0, "bike_id": "1252df1bb62283c1a07f2b80cc60fa09", "is_disabled": 0, "is_reserved": 0}, {"rental_uris": {"ios": "https://dc.lft.to/lastmile_qr_scan", "android": "https://dc.lft.to/lastmile_qr_scan"}, "lon": -77.05223016666666, "type": "electric_scooter", "fusion_lat": 0.0, "lat": 38.925913, "name": "d9bd9baf901c85f8b2c7804ce454db3d", "fusion_lon": 0.0, "bike_id": "d9bd9baf901c85f8b2c7804ce454db3d", "is_disabled": 0, "is_reserved": 0}, {"rental_uris": {"ios": "https://dc.lft.to/lastmile_qr_scan", "android": "https://dc.lft.to/lastmile_qr_scan"}, "lon": -77.03405683333334, "type": "electric_scooter", "fusion_lat": 0.0, "lat": 38.9226715, "name": "441c211c8884cda4dfd73a1d9665d406", "fusion_lon": 0.0, "bike_id": "441c211c8884cda4dfd73a1d9665d406", "is_disabled": 0, "is_reserved": 0}, {"rental_uris": {"ios": "https://dc.lft.to/lastmile_qr_scan", "android": "https://dc.lft.to/lastmile_qr_scan"}, "lon": -77.0428725, "type": "electric_scooter", "fusion_lat": 0.0, "lat": 38.90813266666667, "name": "20f349049f36b2d5659e29bd28b8c65b", "fusion_lon": 0.0, "bike_id": "20f349049f36b2d5659e29bd28b8c65b", "is_disabled": 0, "is_reserved": 0}, {"rental_uris": {"ios": "https://dc.lft.to/lastmile_qr_scan", "android": "https://dc.lft.to/lastmile_qr_scan"}, "lon": -76.9978775, "type": "electric_scooter", "fusion_lat": 0.0, "lat": 38.908710166666665, "name": "5057b152f665f8f33cc3d7c49d6c5638", "fusion_lon": 0.0, "bike_id": "5057b152f665f8f33cc3d7c49d6c5638", "is_disabled": 0, "is_reserved": 0}, {"rental_uris": {"ios": "https://dc.lft.to/lastmile_qr_scan", "android": "https://dc.lft.to/lastmile_qr_scan"}, "lon": -77.03420716666666, "type": "electric_scooter", "fusion_lat": 0.0, "lat": 38.93536666666667, "name": "83a71c8b7cc0549d04c0ae11fb5aef00", "fusion_lon": 0.0, "bike_id": "83a71c8b7cc0549d04c0ae11fb5aef00", "is_disabled": 0, "is_reserved": 0}, {"rental_uris": {"ios": "https://dc.lft.to/lastmile_qr_scan", "android": "https://dc.lft.to/lastmile_qr_scan"}, "lon": -76.93718766666667, "type": "electric_scooter", "fusion_lat": 0.0, "lat": 38.8958765, "name": "d9f7e48becf39e1b9c2ff680c98cefc8", "fusion_lon": 0.0, "bike_id": "d9f7e48becf39e1b9c2ff680c98cefc8", "is_disabled": 0, "is_reserved": 0}, {"rental_uris": {"ios": "https://dc.lft.to/lastmile_qr_scan", "android": "https://dc.lft.to/lastmile_qr_scan"}, "lon": -77.0238475, "type": "electric_scooter", "fusion_lat": 0.0, "lat": 38.91372116666667, "name": "83adb3ea4f53fe8c8c9b04af4ab1f929", "fusion_lon": 0.0, "bike_id": "83adb3ea4f53fe8c8c9b04af4ab1f929", "is_disabled": 0, "is_reserved": 0}, {"rental_uris": {"ios": "https://dc.lft.to/lastmile_qr_scan", "android": "https://dc.lft.to/lastmile_qr_scan"}, "lon": -77.00461866666667, "type": "electric_scooter", "fusion_lat": 0.0, "lat": 38.91266816666667, "name": "df47442a4d79fb743da42675dd8feed2", "fusion_lon": 0.0, "bike_id": "df47442a4d79fb743da42675dd8feed2", "is_disabled": 0, "is_reserved": 0}, {"rental_uris": {"ios": "https://dc.lft.to/lastmile_qr_scan", "android": "https://dc.lft.to/lastmile_qr_scan"}, "lon": -77.04112383333333, "type": "electric_scooter", "fusion_lat": 0.0, "lat": 38.9244295, "name": "2074cc8b387241b38da673fa2281c7a2", "fusion_lon": 0.0, "bike_id": "2074cc8b387241b38da673fa2281c7a2", "is_disabled": 0, "is_reserved": 0}, {"rental_uris": {"ios": "https://dc.lft.to/lastmile_qr_scan", "android": "https://dc.lft.to/lastmile_qr_scan"}, "lon": -77.00657133333333, "type": "electric_scooter", "fusion_lat": 0.0, "lat": 38.871789666666665, "name": "8eafa34bb347d177cd42293121d823ff", "fusion_lon": 0.0, "bike_id": "8eafa34bb347d177cd42293121d823ff", "is_disabled": 0, "is_reserved": 0}, {"rental_uris": {"ios": "https://dc.lft.to/lastmile_qr_scan", "android": "https://dc.lft.to/lastmile_qr_scan"}, "lon": -77.02608983333333, "type": "electric_scooter", "fusion_lat": 0.0, "lat": 38.89263183333333, "name": "13437cdfec6b0c5c90155510a5678eb1", "fusion_lon": 0.0, "bike_id": "13437cdfec6b0c5c90155510a5678eb1", "is_disabled": 0, "is_reserved": 0}, {"rental_uris": {"ios": "https://dc.lft.to/lastmile_qr_scan", "android": "https://dc.lft.to/lastmile_qr_scan"}, "lon": -77.05627966666667, "type": "electric_bike", "fusion_lat": 0.0, "lat": 38.92411216666667, "name": "ef99e0da43df58146a07916fb7045772", "fusion_lon": 0.0, "bike_id": "ef99e0da43df58146a07916fb7045772", "is_disabled": 0, "is_reserved": 0}, {"rental_uris": {"ios": "https://dc.lft.to/lastmile_qr_scan", "android": "https://dc.lft.to/lastmile_qr_scan"}, "lon": -77.040082, "type": "electric_scooter", "fusion_lat": 0.0, "lat": 38.9099685, "name": "37d592ac80ca67b5d3291b071544bd43", "fusion_lon": 0.0, "bike_id": "37d592ac80ca67b5d3291b071544bd43", "is_disabled": 0, "is_reserved": 0}, {"rental_uris": {"ios": "https://dc.lft.to/lastmile_qr_scan", "android": "https://dc.lft.to/lastmile_qr_scan"}, "lon": -77.04870283333334, "type": "electric_scooter", "fusion_lat": 0.0, "lat": 38.908538666666665, "name": "4ed23add6cebe857012dc72bb9cbad9e", "fusion_lon": 0.0, "bike_id": "4ed23add6cebe857012dc72bb9cbad9e", "is_disabled": 0, "is_reserved": 0}, {"rental_uris": {"ios": "https://dc.lft.to/lastmile_qr_scan", "android": "https://dc.lft.to/lastmile_qr_scan"}, "lon": -77.05815666666666, "type": "electric_scooter", "fusion_lat": 0.0, "lat": 38.9345325, "name": "bdb26ebe20ea21ffb6f62facfb90ac34", "fusion_lon": 0.0, "bike_id": "bdb26ebe20ea21ffb6f62facfb90ac34", "is_disabled": 0, "is_reserved": 0}, {"rental_uris": {"ios": "https://dc.lft.to/lastmile_qr_scan", "android": "https://dc.lft.to/lastmile_qr_scan"}, "lon": -76.97496366666667, "type": "electric_bike", "fusion_lat": 0.0, "lat": 38.920067, "name": "477a8c5a7f01dd0d9c6a1ceaf1ff9a9d", "fusion_lon": 0.0, "bike_id": "477a8c5a7f01dd0d9c6a1ceaf1ff9a9d", "is_disabled": 0, "is_reserved": 0}, {"rental_uris": {"ios": "https://dc.lft.to/lastmile_qr_scan", "android": "https://dc.lft.to/lastmile_qr_scan"}, "lon": -77.03226683333334, "type": "electric_scooter", "fusion_lat": 0.0, "lat": 38.926694166666664, "name": "66da6d4758fdb9a5c902b3b7df6ec43c", "fusion_lon": 0.0, "bike_id": "66da6d4758fdb9a5c902b3b7df6ec43c", "is_disabled": 0, "is_reserved": 0}, {"rental_uris": {"ios": "https://dc.lft.to/lastmile_qr_scan", "android": "https://dc.lft.to/lastmile_qr_scan"}, "lon": -76.97405716666667, "type": "electric_scooter", "fusion_lat": 0.0, "lat": 38.90154366666667, "name": "659f53c4bccca4f24a9fe04ddd54aa97", "fusion_lon": 0.0, "bike_id": "659f53c4bccca4f24a9fe04ddd54aa97", "is_disabled": 0, "is_reserved": 0}, {"rental_uris": {"ios": "https://dc.lft.to/lastmile_qr_scan", "android": "https://dc.lft.to/lastmile_qr_scan"}, "lon": -77.02725, "type": "electric_scooter", "fusion_lat": 0.0, "lat": 38.934317166666666, "name": "2716efa6d9a8694a7fe61a90c19ba2a6", "fusion_lon": 0.0, "bike_id": "2716efa6d9a8694a7fe61a90c19ba2a6", "is_disabled": 0, "is_reserved": 0}, {"rental_uris": {"ios": "https://dc.lft.to/lastmile_qr_scan", "android": "https://dc.lft.to/lastmile_qr_scan"}, "lon": -76.99616566666667, "type": "electric_scooter", "fusion_lat": 0.0, "lat": 38.8974415, "name": "f5a1cce9299eac9d857cb41733fbf081", "fusion_lon": 0.0, "bike_id": "f5a1cce9299eac9d857cb41733fbf081", "is_disabled": 0, "is_reserved": 0}, {"rental_uris": {"ios": "https://dc.lft.to/lastmile_qr_scan", "android": "https://dc.lft.to/lastmile_qr_scan"}, "lon": -76.986567, "type": "electric_scooter", "fusion_lat": 0.0, "lat": 38.858051, "name": "77170c7875f9662ff7a0713fbc09c4ac", "fusion_lon": 0.0, "bike_id": "77170c7875f9662ff7a0713fbc09c4ac", "is_disabled": 0, "is_reserved": 0}, {"rental_uris": {"ios": "https://dc.lft.to/lastmile_qr_scan", "android": "https://dc.lft.to/lastmile_qr_scan"}, "lon": -76.9471805, "type": "electric_scooter", "fusion_lat": 0.0, "lat": 38.897346666666664, "name": "7c2e5557142633ba6cf47a2da53093f5", "fusion_lon": 0.0, "bike_id": "7c2e5557142633ba6cf47a2da53093f5", "is_disabled": 0, "is_reserved": 0}, {"rental_uris": {"ios": "https://dc.lft.to/lastmile_qr_scan", "android": "https://dc.lft.to/lastmile_qr_scan"}, "lon": -77.04663216666667, "type": "electric_scooter", "fusion_lat": 0.0, "lat": 38.90751516666667, "name": "6a116cbfe9cab7e970bd7ae34d1305f1", "fusion_lon": 0.0, "bike_id": "6a116cbfe9cab7e970bd7ae34d1305f1", "is_disabled": 0, "is_reserved": 0}, {"rental_uris": {"ios": "https://dc.lft.to/lastmile_qr_scan", "android": "https://dc.lft.to/lastmile_qr_scan"}, "lon": -77.045087, "type": "electric_scooter", "fusion_lat": 0.0, "lat": 38.90019433333333, "name": "cf724509fdd41a24682206bed16c3347", "fusion_lon": 0.0, "bike_id": "cf724509fdd41a24682206bed16c3347", "is_disabled": 0, "is_reserved": 0}, {"rental_uris": {"ios": "https://dc.lft.to/lastmile_qr_scan", "android": "https://dc.lft.to/lastmile_qr_scan"}, "lon": -77.06104616666667, "type": "electric_scooter", "fusion_lat": 0.0, "lat": 38.9370365, "name": "7469466ed9bcddf0dedf1ba14725afe6", "fusion_lon": 0.0, "bike_id": "7469466ed9bcddf0dedf1ba14725afe6", "is_disabled": 0, "is_reserved": 0}, {"rental_uris": {"ios": "https://dc.lft.to/lastmile_qr_scan", "android": "https://dc.lft.to/lastmile_qr_scan"}, "lon": -76.996751, "type": "electric_scooter", "fusion_lat": 0.0, "lat": 38.91015766666666, "name": "8300c05ce69b2547c8b0e3290719c4b7", "fusion_lon": 0.0, "bike_id": "8300c05ce69b2547c8b0e3290719c4b7", "is_disabled": 0, "is_reserved": 0}, {"rental_uris": {"ios": "https://dc.lft.to/lastmile_qr_scan", "android": "https://dc.lft.to/lastmile_qr_scan"}, "lon": -77.00807883333333, "type": "electric_bike", "fusion_lat": 0.0, "lat": 38.92663483333333, "name": "d4f3fad783b584be3c8e3c2f8f491ca1", "fusion_lon": 0.0, "bike_id": "d4f3fad783b584be3c8e3c2f8f491ca1", "is_disabled": 0, "is_reserved": 0}, {"rental_uris": {"ios": "https://dc.lft.to/lastmile_qr_scan", "android": "https://dc.lft.to/lastmile_qr_scan"}, "lon": -77.03461266666666, "type": "electric_scooter", "fusion_lat": 0.0, "lat": 38.92150266666667, "name": "99cecec9e7d810dfd42370a4383d4cf5", "fusion_lon": 0.0, "bike_id": "99cecec9e7d810dfd42370a4383d4cf5", "is_disabled": 0, "is_reserved": 0}, {"rental_uris": {"ios": "https://dc.lft.to/lastmile_qr_scan", "android": "https://dc.lft.to/lastmile_qr_scan"}, "lon": -77.01343566666667, "type": "electric_bike", "fusion_lat": 0.0, "lat": 38.9999345, "name": "96a7f4d4a14d8e1542b919205a9fd078", "fusion_lon": 0.0, "bike_id": "96a7f4d4a14d8e1542b919205a9fd078", "is_disabled": 0, "is_reserved": 0}, {"rental_uris": {"ios": "https://dc.lft.to/lastmile_qr_scan", "android": "https://dc.lft.to/lastmile_qr_scan"}, "lon": -77.00652333333333, "type": "electric_scooter", "fusion_lat": 0.0, "lat": 38.87179066666667, "name": "9135c9b4c2db6b6b3463f43399138456", "fusion_lon": 0.0, "bike_id": "9135c9b4c2db6b6b3463f43399138456", "is_disabled": 0, "is_reserved": 0}, {"rental_uris": {"ios": "https://dc.lft.to/lastmile_qr_scan", "android": "https://dc.lft.to/lastmile_qr_scan"}, "lon": -77.05538516666667, "type": "electric_scooter", "fusion_lat": 0.0, "lat": 38.9278825, "name": "3b45a4d8966cb75b9513a363731146fa", "fusion_lon": 0.0, "bike_id": "3b45a4d8966cb75b9513a363731146fa", "is_disabled": 0, "is_reserved": 0}, {"rental_uris": {"ios": "https://dc.lft.to/lastmile_qr_scan", "android": "https://dc.lft.to/lastmile_qr_scan"}, "lon": -77.01898, "type": "electric_scooter", "fusion_lat": 0.0, "lat": 38.876607666666665, "name": "e7257a972648f80d36167e7f461725e9", "fusion_lon": 0.0, "bike_id": "e7257a972648f80d36167e7f461725e9", "is_disabled": 0, "is_reserved": 0}, {"rental_uris": {"ios": "https://dc.lft.to/lastmile_qr_scan", "android": "https://dc.lft.to/lastmile_qr_scan"}, "lon": -77.02751383333333, "type": "electric_scooter", "fusion_lat": 0.0, "lat": 38.93959316666667, "name": "719f71996fe3ba46bf7516cac1ef5941", "fusion_lon": 0.0, "bike_id": "719f71996fe3ba46bf7516cac1ef5941", "is_disabled": 0, "is_reserved": 0}, {"rental_uris": {"ios": "https://dc.lft.to/lastmile_qr_scan", "android": "https://dc.lft.to/lastmile_qr_scan"}, "lon": -77.02728333333333, "type": "electric_scooter", "fusion_lat": 0.0, "lat": 38.91379833333333, "name": "c0cc44df4d4da84f040b5959ef25d854", "fusion_lon": 0.0, "bike_id": "c0cc44df4d4da84f040b5959ef25d854", "is_disabled": 0, "is_reserved": 0}, {"rental_uris": {"ios": "https://dc.lft.to/lastmile_qr_scan", "android": "https://dc.lft.to/lastmile_qr_scan"}, "lon": -77.021352, "type": "electric_scooter", "fusion_lat": 0.0, "lat": 38.89486816666667, "name": "05584ddd7472bd955ce2c9b61f14958b", "fusion_lon": 0.0, "bike_id": "05584ddd7472bd955ce2c9b61f14958b", "is_disabled": 0, "is_reserved": 0}, {"rental_uris": {"ios": "https://dc.lft.to/lastmile_qr_scan", "android": "https://dc.lft.to/lastmile_qr_scan"}, "lon": -77.0570665, "type": "electric_scooter", "fusion_lat": 0.0, "lat": 38.90551833333333, "name": "94241383dde9a4b00f00d78d6e869aef", "fusion_lon": 0.0, "bike_id": "94241383dde9a4b00f00d78d6e869aef", "is_disabled": 0, "is_reserved": 0}, {"rental_uris": {"ios": "https://dc.lft.to/lastmile_qr_scan", "android": "https://dc.lft.to/lastmile_qr_scan"}, "lon": -77.02493233333334, "type": "electric_scooter", "fusion_lat": 0.0, "lat": 38.94183983333333, "name": "02d8895808775af9f8c31713f142b3b5", "fusion_lon": 0.0, "bike_id": "02d8895808775af9f8c31713f142b3b5", "is_disabled": 0, "is_reserved": 0}, {"rental_uris": {"ios": "https://dc.lft.to/lastmile_qr_scan", "android": "https://dc.lft.to/lastmile_qr_scan"}, "lon": -77.0340115, "type": "electric_scooter", "fusion_lat": 0.0, "lat": 38.9384715, "name": "fddcb70f36cebd8b657512d4a3578c1a", "fusion_lon": 0.0, "bike_id": "fddcb70f36cebd8b657512d4a3578c1a", "is_disabled": 0, "is_reserved": 0}, {"rental_uris": {"ios": "https://dc.lft.to/lastmile_qr_scan", "android": "https://dc.lft.to/lastmile_qr_scan"}, "lon": -77.06941566666667, "type": "electric_scooter", "fusion_lat": 0.0, "lat": 38.90499116666667, "name": "9c81109dedace3c638a7b0b26f346237", "fusion_lon": 0.0, "bike_id": "9c81109dedace3c638a7b0b26f346237", "is_disabled": 0, "is_reserved": 0}, {"rental_uris": {"ios": "https://dc.lft.to/lastmile_qr_scan", "android": "https://dc.lft.to/lastmile_qr_scan"}, "lon": -77.04052716666666, "type": "electric_scooter", "fusion_lat": 0.0, "lat": 38.92716216666667, "name": "1df1b8e2895d22c6f8c66e5c1d483569", "fusion_lon": 0.0, "bike_id": "1df1b8e2895d22c6f8c66e5c1d483569", "is_disabled": 0, "is_reserved": 0}, {"rental_uris": {"ios": "https://dc.lft.to/lastmile_qr_scan", "android": "https://dc.lft.to/lastmile_qr_scan"}, "lon": -77.001858, "type": "electric_scooter", "fusion_lat": 0.0, "lat": 38.873844, "name": "f01b9856851b5becc670eb7d3bbfe4b8", "fusion_lon": 0.0, "bike_id": "f01b9856851b5becc670eb7d3bbfe4b8", "is_disabled": 0, "is_reserved": 0}, {"rental_uris": {"ios": "https://dc.lft.to/lastmile_qr_scan", "android": "https://dc.lft.to/lastmile_qr_scan"}, "lon": -77.034661, "type": "electric_scooter", "fusion_lat": 0.0, "lat": 38.91825, "name": "1ef330dd033f2a32eee28e37b854d05d", "fusion_lon": 0.0, "bike_id": "1ef330dd033f2a32eee28e37b854d05d", "is_disabled": 0, "is_reserved": 0}, {"rental_uris": {"ios": "https://dc.lft.to/lastmile_qr_scan", "android": "https://dc.lft.to/lastmile_qr_scan"}, "lon": -77.09873183333333, "type": "electric_bike", "fusion_lat": 0.0, "lat": 38.85372866666667, "name": "8cf17370d8ff14c1c91fed91fa3c5460", "fusion_lon": 0.0, "bike_id": "8cf17370d8ff14c1c91fed91fa3c5460", "is_disabled": 0, "is_reserved": 0}, {"rental_uris": {"ios": "https://dc.lft.to/lastmile_qr_scan", "android": "https://dc.lft.to/lastmile_qr_scan"}, "lon": -77.04174966666666, "type": "electric_scooter", "fusion_lat": 0.0, "lat": 38.905312, "name": "12e365d4a692539975845ea2e8c1911a", "fusion_lon": 0.0, "bike_id": "12e365d4a692539975845ea2e8c1911a", "is_disabled": 0, "is_reserved": 0}, {"rental_uris": {"ios": "https://dc.lft.to/lastmile_qr_scan", "android": "https://dc.lft.to/lastmile_qr_scan"}, "lon": -77.02484016666666, "type": "electric_scooter", "fusion_lat": 0.0, "lat": 38.919251, "name": "99a231650821d00b2c431edf8878bed6", "fusion_lon": 0.0, "bike_id": "99a231650821d00b2c431edf8878bed6", "is_disabled": 0, "is_reserved": 0}, {"rental_uris": {"ios": "https://dc.lft.to/lastmile_qr_scan", "android": "https://dc.lft.to/lastmile_qr_scan"}, "lon": -77.0456335, "type": "electric_scooter", "fusion_lat": 0.0, "lat": 38.90857666666667, "name": "e330157460e985be56841f56ab24b224", "fusion_lon": 0.0, "bike_id": "e330157460e985be56841f56ab24b224", "is_disabled": 0, "is_reserved": 0}, {"rental_uris": {"ios": "https://dc.lft.to/lastmile_qr_scan", "android": "https://dc.lft.to/lastmile_qr_scan"}, "lon": -77.02230266666666, "type": "electric_scooter", "fusion_lat": 0.0, "lat": 38.8919545, "name": "54f491949438e9e1d68fdd865951d0f1", "fusion_lon": 0.0, "bike_id": "54f491949438e9e1d68fdd865951d0f1", "is_disabled": 0, "is_reserved": 0}, {"rental_uris": {"ios": "https://dc.lft.to/lastmile_qr_scan", "android": "https://dc.lft.to/lastmile_qr_scan"}, "lon": -77.03673483333333, "type": "electric_scooter", "fusion_lat": 0.0, "lat": 38.9182175, "name": "4c148c954bdc05ec9567c9a24c7388e9", "fusion_lon": 0.0, "bike_id": "4c148c954bdc05ec9567c9a24c7388e9", "is_disabled": 0, "is_reserved": 0}, {"rental_uris": {"ios": "https://dc.lft.to/lastmile_qr_scan", "android": "https://dc.lft.to/lastmile_qr_scan"}, "lon": -77.089398, "type": "electric_bike", "fusion_lat": 0.0, "lat": 38.841039333333335, "name": "9d8cc56b82720435acce6c45d733161c", "fusion_lon": 0.0, "bike_id": "9d8cc56b82720435acce6c45d733161c", "is_disabled": 0, "is_reserved": 0}, {"rental_uris": {"ios": "https://dc.lft.to/lastmile_qr_scan", "android": "https://dc.lft.to/lastmile_qr_scan"}, "lon": -77.00353866666667, "type": "electric_scooter", "fusion_lat": 0.0, "lat": 38.899111833333336, "name": "6a3a4b18dac8e83dbe228774884a6de5", "fusion_lon": 0.0, "bike_id": "6a3a4b18dac8e83dbe228774884a6de5", "is_disabled": 0, "is_reserved": 0}, {"rental_uris": {"ios": "https://dc.lft.to/lastmile_qr_scan", "android": "https://dc.lft.to/lastmile_qr_scan"}, "lon": -77.03291733333333, "type": "electric_scooter", "fusion_lat": 0.0, "lat": 38.934858, "name": "fc4f60cc8c40dfb17c8e63f883c8a89c", "fusion_lon": 0.0, "bike_id": "fc4f60cc8c40dfb17c8e63f883c8a89c", "is_disabled": 0, "is_reserved": 0}, {"rental_uris": {"ios": "https://dc.lft.to/lastmile_qr_scan", "android": "https://dc.lft.to/lastmile_qr_scan"}, "lon": -76.93742333333333, "type": "electric_scooter", "fusion_lat": 0.0, "lat": 38.912839166666664, "name": "9151efd806248586c46f68ef350ab9f2", "fusion_lon": 0.0, "bike_id": "9151efd806248586c46f68ef350ab9f2", "is_disabled": 0, "is_reserved": 0}, {"rental_uris": {"ios": "https://dc.lft.to/lastmile_qr_scan", "android": "https://dc.lft.to/lastmile_qr_scan"}, "lon": -77.02230533333334, "type": "electric_scooter", "fusion_lat": 0.0, "lat": 38.89194083333334, "name": "a5d26f1adaef2a8786244e2b43cf2862", "fusion_lon": 0.0, "bike_id": "a5d26f1adaef2a8786244e2b43cf2862", "is_disabled": 0, "is_reserved": 0}, {"rental_uris": {"ios": "https://dc.lft.to/lastmile_qr_scan", "android": "https://dc.lft.to/lastmile_qr_scan"}, "lon": -77.01399983333333, "type": "electric_scooter", "fusion_lat": 0.0, "lat": 38.9194185, "name": "7380b9faa8251c2793af442e502b9611", "fusion_lon": 0.0, "bike_id": "7380b9faa8251c2793af442e502b9611", "is_disabled": 0, "is_reserved": 0}, {"rental_uris": {"ios": "https://dc.lft.to/lastmile_qr_scan", "android": "https://dc.lft.to/lastmile_qr_scan"}, "lon": -77.027488, "type": "electric_bike", "fusion_lat": 0.0, "lat": 38.9096305, "name": "18fe88b3adb8879462d0ee798e626886", "fusion_lon": 0.0, "bike_id": "18fe88b3adb8879462d0ee798e626886", "is_disabled": 0, "is_reserved": 0}, {"rental_uris": {"ios": "https://dc.lft.to/lastmile_qr_scan", "android": "https://dc.lft.to/lastmile_qr_scan"}, "lon": -77.04259416666666, "type": "electric_scooter", "fusion_lat": 0.0, "lat": 38.92056783333334, "name": "d57d6b9e81f23c06e1de744432fc5117", "fusion_lon": 0.0, "bike_id": "d57d6b9e81f23c06e1de744432fc5117", "is_disabled": 0, "is_reserved": 0}, {"rental_uris": {"ios": "https://dc.lft.to/lastmile_qr_scan", "android": "https://dc.lft.to/lastmile_qr_scan"}, "lon": -76.98568416666667, "type": "electric_scooter", "fusion_lat": 0.0, "lat": 38.899527, "name": "928ff49d47a96e84e25fb0a28bde9102", "fusion_lon": 0.0, "bike_id": "928ff49d47a96e84e25fb0a28bde9102", "is_disabled": 0, "is_reserved": 0}, {"rental_uris": {"ios": "https://dc.lft.to/lastmile_qr_scan", "android": "https://dc.lft.to/lastmile_qr_scan"}, "lon": -77.04169983333334, "type": "electric_scooter", "fusion_lat": 0.0, "lat": 38.91393866666667, "name": "e032703f6868970c8ad2bc903c1aa14b", "fusion_lon": 0.0, "bike_id": "e032703f6868970c8ad2bc903c1aa14b", "is_disabled": 0, "is_reserved": 0}, {"rental_uris": {"ios": "https://dc.lft.to/lastmile_qr_scan", "android": "https://dc.lft.to/lastmile_qr_scan"}, "lon": -77.0967005, "type": "electric_scooter", "fusion_lat": 0.0, "lat": 38.91763683333333, "name": "56871136f4595e35fb21ab290ca66c22", "fusion_lon": 0.0, "bike_id": "56871136f4595e35fb21ab290ca66c22", "is_disabled": 0, "is_reserved": 0}, {"rental_uris": {"ios": "https://dc.lft.to/lastmile_qr_scan", "android": "https://dc.lft.to/lastmile_qr_scan"}, "lon": -77.03188133333333, "type": "electric_scooter", "fusion_lat": 0.0, "lat": 38.91807, "name": "b23e73b67050b4006a9897fb69fd742e", "fusion_lon": 0.0, "bike_id": "b23e73b67050b4006a9897fb69fd742e", "is_disabled": 0, "is_reserved": 0}, {"rental_uris": {"ios": "https://dc.lft.to/lastmile_qr_scan", "android": "https://dc.lft.to/lastmile_qr_scan"}, "lon": -76.98884783333334, "type": "electric_scooter", "fusion_lat": 0.0, "lat": 38.86657133333333, "name": "fea93416f942ccd376fc06cd304a143b", "fusion_lon": 0.0, "bike_id": "fea93416f942ccd376fc06cd304a143b", "is_disabled": 0, "is_reserved": 0}, {"rental_uris": {"ios": "https://dc.lft.to/lastmile_qr_scan", "android": "https://dc.lft.to/lastmile_qr_scan"}, "lon": -77.03475483333334, "type": "electric_scooter", "fusion_lat": 0.0, "lat": 38.91184333333333, "name": "418868bb40a0bd2b0dc5958c17d23fa4", "fusion_lon": 0.0, "bike_id": "418868bb40a0bd2b0dc5958c17d23fa4", "is_disabled": 0, "is_reserved": 0}, {"rental_uris": {"ios": "https://dc.lft.to/lastmile_qr_scan", "android": "https://dc.lft.to/lastmile_qr_scan"}, "lon": -77.032266, "type": "electric_scooter", "fusion_lat": 0.0, "lat": 38.908631666666665, "name": "89ebe32976eaaceda3787c0353b62050", "fusion_lon": 0.0, "bike_id": "89ebe32976eaaceda3787c0353b62050", "is_disabled": 0, "is_reserved": 0}, {"rental_uris": {"ios": "https://dc.lft.to/lastmile_qr_scan", "android": "https://dc.lft.to/lastmile_qr_scan"}, "lon": -77.0468645, "type": "electric_scooter", "fusion_lat": 0.0, "lat": 38.8960445, "name": "2ac3cb275c71ff0f57fef1ed9d103d84", "fusion_lon": 0.0, "bike_id": "2ac3cb275c71ff0f57fef1ed9d103d84", "is_disabled": 0, "is_reserved": 0}, {"rental_uris": {"ios": "https://dc.lft.to/lastmile_qr_scan", "android": "https://dc.lft.to/lastmile_qr_scan"}, "lon": -77.01062533333334, "type": "electric_scooter", "fusion_lat": 0.0, "lat": 38.875766666666664, "name": "eee5c30896023697e5c01e4d70186e5a", "fusion_lon": 0.0, "bike_id": "eee5c30896023697e5c01e4d70186e5a", "is_disabled": 0, "is_reserved": 0}, {"rental_uris": {"ios": "https://dc.lft.to/lastmile_qr_scan", "android": "https://dc.lft.to/lastmile_qr_scan"}, "lon": -76.97705933333333, "type": "electric_scooter", "fusion_lat": 0.0, "lat": 38.902544, "name": "620b120ed0b393b9d8981d0899639f48", "fusion_lon": 0.0, "bike_id": "620b120ed0b393b9d8981d0899639f48", "is_disabled": 0, "is_reserved": 0}, {"rental_uris": {"ios": "https://dc.lft.to/lastmile_qr_scan", "android": "https://dc.lft.to/lastmile_qr_scan"}, "lon": -77.10337033333333, "type": "electric_bike", "fusion_lat": 0.0, "lat": 38.85228766666667, "name": "2ad01178e23caa672302e02d2d03fd9a", "fusion_lon": 0.0, "bike_id": "2ad01178e23caa672302e02d2d03fd9a", "is_disabled": 0, "is_reserved": 0}, {"rental_uris": {"ios": "https://dc.lft.to/lastmile_qr_scan", "android": "https://dc.lft.to/lastmile_qr_scan"}, "lon": -77.02687166666666, "type": "electric_scooter", "fusion_lat": 0.0, "lat": 38.881073666666666, "name": "addd626ee8aa74194298524f81648171", "fusion_lon": 0.0, "bike_id": "addd626ee8aa74194298524f81648171", "is_disabled": 0, "is_reserved": 0}, {"rental_uris": {"ios": "https://dc.lft.to/lastmile_qr_scan", "android": "https://dc.lft.to/lastmile_qr_scan"}, "lon": -77.00135916666666, "type": "electric_scooter", "fusion_lat": 0.0, "lat": 38.904095166666664, "name": "55b3b50727e1d4293a02641be3cda821", "fusion_lon": 0.0, "bike_id": "55b3b50727e1d4293a02641be3cda821", "is_disabled": 0, "is_reserved": 0}, {"rental_uris": {"ios": "https://dc.lft.to/lastmile_qr_scan", "android": "https://dc.lft.to/lastmile_qr_scan"}, "lon": -76.92721883333333, "type": "electric_scooter", "fusion_lat": 0.0, "lat": 38.880365833333336, "name": "8009a9a1ed4b48a49883c2dd83b5cda4", "fusion_lon": 0.0, "bike_id": "8009a9a1ed4b48a49883c2dd83b5cda4", "is_disabled": 0, "is_reserved": 0}, {"rental_uris": {"ios": "https://dc.lft.to/lastmile_qr_scan", "android": "https://dc.lft.to/lastmile_qr_scan"}, "lon": -77.00878616666667, "type": "electric_scooter", "fusion_lat": 0.0, "lat": 38.91403283333333, "name": "ea8a21141e2d842d36ace5e8535ac3b3", "fusion_lon": 0.0, "bike_id": "ea8a21141e2d842d36ace5e8535ac3b3", "is_disabled": 0, "is_reserved": 0}, {"rental_uris": {"ios": "https://dc.lft.to/lastmile_qr_scan", "android": "https://dc.lft.to/lastmile_qr_scan"}, "lon": -77.023907, "type": "electric_scooter", "fusion_lat": 0.0, "lat": 38.90708816666667, "name": "223de7fc4c6d9878d6ce745e48bea333", "fusion_lon": 0.0, "bike_id": "223de7fc4c6d9878d6ce745e48bea333", "is_disabled": 0, "is_reserved": 0}, {"rental_uris": {"ios": "https://dc.lft.to/lastmile_qr_scan", "android": "https://dc.lft.to/lastmile_qr_scan"}, "lon": -77.005063, "type": "electric_scooter", "fusion_lat": 0.0, "lat": 38.878586, "name": "af4b4874a70fb175f28a5022c611b0ca", "fusion_lon": 0.0, "bike_id": "af4b4874a70fb175f28a5022c611b0ca", "is_disabled": 0, "is_reserved": 0}, {"rental_uris": {"ios": "https://dc.lft.to/lastmile_qr_scan", "android": "https://dc.lft.to/lastmile_qr_scan"}, "lon": -77.012815, "type": "electric_bike", "fusion_lat": 0.0, "lat": 38.88120716666667, "name": "0e3630351aeb80256dab3c442c057b93", "fusion_lon": 0.0, "bike_id": "0e3630351aeb80256dab3c442c057b93", "is_disabled": 0, "is_reserved": 0}, {"rental_uris": {"ios": "https://dc.lft.to/lastmile_qr_scan", "android": "https://dc.lft.to/lastmile_qr_scan"}, "lon": -76.92597333333333, "type": "electric_scooter", "fusion_lat": 0.0, "lat": 38.897305, "name": "5dd5ee886f37ccc9a4644545236b386f", "fusion_lon": 0.0, "bike_id": "5dd5ee886f37ccc9a4644545236b386f", "is_disabled": 0, "is_reserved": 0}, {"rental_uris": {"ios": "https://dc.lft.to/lastmile_qr_scan", "android": "https://dc.lft.to/lastmile_qr_scan"}, "lon": -77.02977783333333, "type": "electric_scooter", "fusion_lat": 0.0, "lat": 38.96229683333333, "name": "4f63cae5a87cd48a4b1019ae124978cb", "fusion_lon": 0.0, "bike_id": "4f63cae5a87cd48a4b1019ae124978cb", "is_disabled": 0, "is_reserved": 0}, {"rental_uris": {"ios": "https://dc.lft.to/lastmile_qr_scan", "android": "https://dc.lft.to/lastmile_qr_scan"}, "lon": -77.02228683333334, "type": "electric_scooter", "fusion_lat": 0.0, "lat": 38.892214, "name": "34a2891c6955a0d773b6534b095b66ad", "fusion_lon": 0.0, "bike_id": "34a2891c6955a0d773b6534b095b66ad", "is_disabled": 0, "is_reserved": 0}, {"rental_uris": {"ios": "https://dc.lft.to/lastmile_qr_scan", "android": "https://dc.lft.to/lastmile_qr_scan"}, "lon": -77.06998433333334, "type": "electric_bike", "fusion_lat": 0.0, "lat": 38.955025666666664, "name": "89546a59a59957601bf34ece9ad8e041", "fusion_lon": 0.0, "bike_id": "89546a59a59957601bf34ece9ad8e041", "is_disabled": 0, "is_reserved": 0}, {"rental_uris": {"ios": "https://dc.lft.to/lastmile_qr_scan", "android": "https://dc.lft.to/lastmile_qr_scan"}, "lon": -77.05046566666667, "type": "electric_scooter", "fusion_lat": 0.0, "lat": 38.90369183333333, "name": "6d83fe77a6d964ce73f0876a27b75eb4", "fusion_lon": 0.0, "bike_id": "6d83fe77a6d964ce73f0876a27b75eb4", "is_disabled": 0, "is_reserved": 0}, {"rental_uris": {"ios": "https://dc.lft.to/lastmile_qr_scan", "android": "https://dc.lft.to/lastmile_qr_scan"}, "lon": -77.10780583333333, "type": "electric_bike", "fusion_lat": 0.0, "lat": 38.8921665, "name": "4b32e5317df65e60b03be0f506289234", "fusion_lon": 0.0, "bike_id": "4b32e5317df65e60b03be0f506289234", "is_disabled": 0, "is_reserved": 0}, {"rental_uris": {"ios": "https://dc.lft.to/lastmile_qr_scan", "android": "https://dc.lft.to/lastmile_qr_scan"}, "lon": -77.02163833333333, "type": "electric_scooter", "fusion_lat": 0.0, "lat": 38.94292516666667, "name": "a74f3f8745548bc1221674f4cb6c2a31", "fusion_lon": 0.0, "bike_id": "a74f3f8745548bc1221674f4cb6c2a31", "is_disabled": 0, "is_reserved": 0}, {"rental_uris": {"ios": "https://dc.lft.to/lastmile_qr_scan", "android": "https://dc.lft.to/lastmile_qr_scan"}, "lon": -77.0294095, "type": "electric_scooter", "fusion_lat": 0.0, "lat": 38.90464583333333, "name": "841005c4248b975ea035899968a818c4", "fusion_lon": 0.0, "bike_id": "841005c4248b975ea035899968a818c4", "is_disabled": 0, "is_reserved": 0}, {"rental_uris": {"ios": "https://dc.lft.to/lastmile_qr_scan", "android": "https://dc.lft.to/lastmile_qr_scan"}, "lon": -77.0356465, "type": "electric_scooter", "fusion_lat": 0.0, "lat": 38.918052333333335, "name": "3584095f68490777985c86dae530811c", "fusion_lon": 0.0, "bike_id": "3584095f68490777985c86dae530811c", "is_disabled": 0, "is_reserved": 0}, {"rental_uris": {"ios": "https://dc.lft.to/lastmile_qr_scan", "android": "https://dc.lft.to/lastmile_qr_scan"}, "lon": -77.00988266666667, "type": "electric_scooter", "fusion_lat": 0.0, "lat": 38.8729525, "name": "53e6573cf174be50162521dcc7e115f5", "fusion_lon": 0.0, "bike_id": "53e6573cf174be50162521dcc7e115f5", "is_disabled": 0, "is_reserved": 0}, {"rental_uris": {"ios": "https://dc.lft.to/lastmile_qr_scan", "android": "https://dc.lft.to/lastmile_qr_scan"}, "lon": -77.040156, "type": "electric_scooter", "fusion_lat": 0.0, "lat": 38.921866, "name": "3f1c2c0726ebcceb2a044f42be83de0d", "fusion_lon": 0.0, "bike_id": "3f1c2c0726ebcceb2a044f42be83de0d", "is_disabled": 0, "is_reserved": 0}, {"rental_uris": {"ios": "https://dc.lft.to/lastmile_qr_scan", "android": "https://dc.lft.to/lastmile_qr_scan"}, "lon": -76.989156, "type": "electric_scooter", "fusion_lat": 0.0, "lat": 38.86693433333333, "name": "a5eb0624f718471f88d3f6a97fbeeadb", "fusion_lon": 0.0, "bike_id": "a5eb0624f718471f88d3f6a97fbeeadb", "is_disabled": 0, "is_reserved": 0}, {"rental_uris": {"ios": "https://dc.lft.to/lastmile_qr_scan", "android": "https://dc.lft.to/lastmile_qr_scan"}, "lon": -77.03937066666667, "type": "electric_scooter", "fusion_lat": 0.0, "lat": 38.899095333333335, "name": "01da743f06b322029b2081e1e3bcea54", "fusion_lon": 0.0, "bike_id": "01da743f06b322029b2081e1e3bcea54", "is_disabled": 0, "is_reserved": 0}, {"rental_uris": {"ios": "https://dc.lft.to/lastmile_qr_scan", "android": "https://dc.lft.to/lastmile_qr_scan"}, "lon": -76.98888533333333, "type": "electric_scooter", "fusion_lat": 0.0, "lat": 38.8665735, "name": "148a11a1b581bd69fddd8d23dfdd7835", "fusion_lon": 0.0, "bike_id": "148a11a1b581bd69fddd8d23dfdd7835", "is_disabled": 0, "is_reserved": 0}, {"rental_uris": {"ios": "https://dc.lft.to/lastmile_qr_scan", "android": "https://dc.lft.to/lastmile_qr_scan"}, "lon": -77.02386983333334, "type": "electric_scooter", "fusion_lat": 0.0, "lat": 38.9097675, "name": "a315eb265f1b6bb809c867710ec53090", "fusion_lon": 0.0, "bike_id": "a315eb265f1b6bb809c867710ec53090", "is_disabled": 0, "is_reserved": 0}, {"rental_uris": {"ios": "https://dc.lft.to/lastmile_qr_scan", "android": "https://dc.lft.to/lastmile_qr_scan"}, "lon": -77.02694783333334, "type": "electric_bike", "fusion_lat": 0.0, "lat": 38.911252833333336, "name": "ee70f4a07b73e0b27f01c0b23e5e2d13", "fusion_lon": 0.0, "bike_id": "ee70f4a07b73e0b27f01c0b23e5e2d13", "is_disabled": 0, "is_reserved": 0}, {"rental_uris": {"ios": "https://dc.lft.to/lastmile_qr_scan", "android": "https://dc.lft.to/lastmile_qr_scan"}, "lon": -77.03879583333334, "type": "electric_scooter", "fusion_lat": 0.0, "lat": 38.9324475, "name": "ff3cb78e53351a418f1dbf5d611cb96e", "fusion_lon": 0.0, "bike_id": "ff3cb78e53351a418f1dbf5d611cb96e", "is_disabled": 0, "is_reserved": 0}, {"rental_uris": {"ios": "https://dc.lft.to/lastmile_qr_scan", "android": "https://dc.lft.to/lastmile_qr_scan"}, "lon": -77.041679, "type": "electric_scooter", "fusion_lat": 0.0, "lat": 38.913994833333334, "name": "d6e37f1c75982079f8ea2c4f67428298", "fusion_lon": 0.0, "bike_id": "d6e37f1c75982079f8ea2c4f67428298", "is_disabled": 0, "is_reserved": 0}, {"rental_uris": {"ios": "https://dc.lft.to/lastmile_qr_scan", "android": "https://dc.lft.to/lastmile_qr_scan"}, "lon": -76.94418883333333, "type": "electric_scooter", "fusion_lat": 0.0, "lat": 38.8979205, "name": "f555186257f83ea3cff0fb69e3e20c10", "fusion_lon": 0.0, "bike_id": "f555186257f83ea3cff0fb69e3e20c10", "is_disabled": 0, "is_reserved": 0}, {"rental_uris": {"ios": "https://dc.lft.to/lastmile_qr_scan", "android": "https://dc.lft.to/lastmile_qr_scan"}, "lon": -77.04222183333333, "type": "electric_scooter", "fusion_lat": 0.0, "lat": 38.92105216666667, "name": "de5ba99b4bed216629ee27708535e809", "fusion_lon": 0.0, "bike_id": "de5ba99b4bed216629ee27708535e809", "is_disabled": 0, "is_reserved": 0}, {"rental_uris": {"ios": "https://dc.lft.to/lastmile_qr_scan", "android": "https://dc.lft.to/lastmile_qr_scan"}, "lon": -76.98350866666667, "type": "electric_scooter", "fusion_lat": 0.0, "lat": 38.915309666666666, "name": "95a35b2431d8b2d16974039102ac39a8", "fusion_lon": 0.0, "bike_id": "95a35b2431d8b2d16974039102ac39a8", "is_disabled": 0, "is_reserved": 0}, {"rental_uris": {"ios": "https://dc.lft.to/lastmile_qr_scan", "android": "https://dc.lft.to/lastmile_qr_scan"}, "lon": -77.06489083333334, "type": "electric_bike", "fusion_lat": 0.0, "lat": 38.964861666666664, "name": "de82df183aecc33e81911bf2a4781867", "fusion_lon": 0.0, "bike_id": "de82df183aecc33e81911bf2a4781867", "is_disabled": 0, "is_reserved": 0}, {"rental_uris": {"ios": "https://dc.lft.to/lastmile_qr_scan", "android": "https://dc.lft.to/lastmile_qr_scan"}, "lon": -77.04863416666667, "type": "electric_scooter", "fusion_lat": 0.0, "lat": 38.908516666666664, "name": "7354ed1bd628aea4ed38c06a1e2c2227", "fusion_lon": 0.0, "bike_id": "7354ed1bd628aea4ed38c06a1e2c2227", "is_disabled": 0, "is_reserved": 0}, {"rental_uris": {"ios": "https://dc.lft.to/lastmile_qr_scan", "android": "https://dc.lft.to/lastmile_qr_scan"}, "lon": -77.0322665, "type": "electric_scooter", "fusion_lat": 0.0, "lat": 38.92669433333333, "name": "e68ae7c41a96cbeb3d20a013919a49a1", "fusion_lon": 0.0, "bike_id": "e68ae7c41a96cbeb3d20a013919a49a1", "is_disabled": 0, "is_reserved": 0}, {"rental_uris": {"ios": "https://dc.lft.to/lastmile_qr_scan", "android": "https://dc.lft.to/lastmile_qr_scan"}, "lon": -76.993837, "type": "electric_scooter", "fusion_lat": 0.0, "lat": 38.887458333333335, "name": "6d6111c9db9d6a809815c1ef0a874b49", "fusion_lon": 0.0, "bike_id": "6d6111c9db9d6a809815c1ef0a874b49", "is_disabled": 0, "is_reserved": 0}, {"rental_uris": {"ios": "https://dc.lft.to/lastmile_qr_scan", "android": "https://dc.lft.to/lastmile_qr_scan"}, "lon": -77.05022266666667, "type": "electric_scooter", "fusion_lat": 0.0, "lat": 38.917947833333336, "name": "9374c3b01151949f01ff59077da5351b", "fusion_lon": 0.0, "bike_id": "9374c3b01151949f01ff59077da5351b", "is_disabled": 0, "is_reserved": 0}, {"rental_uris": {"ios": "https://dc.lft.to/lastmile_qr_scan", "android": "https://dc.lft.to/lastmile_qr_scan"}, "lon": -77.0233855, "type": "electric_scooter", "fusion_lat": 0.0, "lat": 38.929360833333334, "name": "47bc4c572216e27e09c6665391b91ead", "fusion_lon": 0.0, "bike_id": "47bc4c572216e27e09c6665391b91ead", "is_disabled": 0, "is_reserved": 0}, {"rental_uris": {"ios": "https://dc.lft.to/lastmile_qr_scan", "android": "https://dc.lft.to/lastmile_qr_scan"}, "lon": -77.062719, "type": "electric_scooter", "fusion_lat": 0.0, "lat": 38.90542583333333, "name": "934a469b093684aeb895a5d1b977c868", "fusion_lon": 0.0, "bike_id": "934a469b093684aeb895a5d1b977c868", "is_disabled": 0, "is_reserved": 0}, {"rental_uris": {"ios": "https://dc.lft.to/lastmile_qr_scan", "android": "https://dc.lft.to/lastmile_qr_scan"}, "lon": -77.04186083333333, "type": "electric_scooter", "fusion_lat": 0.0, "lat": 38.90062233333333, "name": "d09928d391a44ca6a0ad687163eb0faf", "fusion_lon": 0.0, "bike_id": "d09928d391a44ca6a0ad687163eb0faf", "is_disabled": 0, "is_reserved": 0}, {"rental_uris": {"ios": "https://dc.lft.to/lastmile_qr_scan", "android": "https://dc.lft.to/lastmile_qr_scan"}, "lon": -77.0419, "type": "electric_scooter", "fusion_lat": 0.0, "lat": 38.920170166666665, "name": "27e952e55b50596c7bdf15474731e3c4", "fusion_lon": 0.0, "bike_id": "27e952e55b50596c7bdf15474731e3c4", "is_disabled": 0, "is_reserved": 0}, {"rental_uris": {"ios": "https://dc.lft.to/lastmile_qr_scan", "android": "https://dc.lft.to/lastmile_qr_scan"}, "lon": -77.078945, "type": "electric_scooter", "fusion_lat": 0.0, "lat": 38.9254625, "name": "904d62ebdb35b4d76b947aa3c4d12481", "fusion_lon": 0.0, "bike_id": "904d62ebdb35b4d76b947aa3c4d12481", "is_disabled": 0, "is_reserved": 0}, {"rental_uris": {"ios": "https://dc.lft.to/lastmile_qr_scan", "android": "https://dc.lft.to/lastmile_qr_scan"}, "lon": -77.135978, "type": "electric_bike", "fusion_lat": 0.0, "lat": 39.0534715, "name": "62967855417175afa2fc08dcf00b9232", "fusion_lon": 0.0, "bike_id": "62967855417175afa2fc08dcf00b9232", "is_disabled": 0, "is_reserved": 0}, {"rental_uris": {"ios": "https://dc.lft.to/lastmile_qr_scan", "android": "https://dc.lft.to/lastmile_qr_scan"}, "lon": -77.01256383333333, "type": "electric_scooter", "fusion_lat": 0.0, "lat": 38.8996375, "name": "a408d3fb7f5065ce3dc1d4e01644d983", "fusion_lon": 0.0, "bike_id": "a408d3fb7f5065ce3dc1d4e01644d983", "is_disabled": 0, "is_reserved": 0}, {"rental_uris": {"ios": "https://dc.lft.to/lastmile_qr_scan", "android": "https://dc.lft.to/lastmile_qr_scan"}, "lon": -77.02595433333333, "type": "electric_scooter", "fusion_lat": 0.0, "lat": 38.89582883333333, "name": "9a8f542b82b17f51b8f5907665777b5c", "fusion_lon": 0.0, "bike_id": "9a8f542b82b17f51b8f5907665777b5c", "is_disabled": 0, "is_reserved": 0}, {"rental_uris": {"ios": "https://dc.lft.to/lastmile_qr_scan", "android": "https://dc.lft.to/lastmile_qr_scan"}, "lon": -76.9871665, "type": "electric_scooter", "fusion_lat": 0.0, "lat": 38.86266766666667, "name": "e981ae97f76708ec262a68ed0f7df2cc", "fusion_lon": 0.0, "bike_id": "e981ae97f76708ec262a68ed0f7df2cc", "is_disabled": 0, "is_reserved": 0}, {"rental_uris": {"ios": "https://dc.lft.to/lastmile_qr_scan", "android": "https://dc.lft.to/lastmile_qr_scan"}, "lon": -76.9914195, "type": "electric_scooter", "fusion_lat": 0.0, "lat": 38.900346666666664, "name": "17b2ef4fa15ebd86efefcb5876389509", "fusion_lon": 0.0, "bike_id": "17b2ef4fa15ebd86efefcb5876389509", "is_disabled": 0, "is_reserved": 0}, {"rental_uris": {"ios": "https://dc.lft.to/lastmile_qr_scan", "android": "https://dc.lft.to/lastmile_qr_scan"}, "lon": -77.01196183333333, "type": "electric_scooter", "fusion_lat": 0.0, "lat": 38.8999505, "name": "71842af7423a17dbd52878a523d94010", "fusion_lon": 0.0, "bike_id": "71842af7423a17dbd52878a523d94010", "is_disabled": 0, "is_reserved": 0}, {"rental_uris": {"ios": "https://dc.lft.to/lastmile_qr_scan", "android": "https://dc.lft.to/lastmile_qr_scan"}, "lon": -76.98617533333334, "type": "electric_scooter", "fusion_lat": 0.0, "lat": 38.86827233333333, "name": "4d929bb10fc93e49dcc38c2d49dc981c", "fusion_lon": 0.0, "bike_id": "4d929bb10fc93e49dcc38c2d49dc981c", "is_disabled": 0, "is_reserved": 0}, {"rental_uris": {"ios": "https://dc.lft.to/lastmile_qr_scan", "android": "https://dc.lft.to/lastmile_qr_scan"}, "lon": -77.03191816666667, "type": "electric_scooter", "fusion_lat": 0.0, "lat": 38.91649833333334, "name": "400ad52e3b797914f71e87b7d735b2dc", "fusion_lon": 0.0, "bike_id": "400ad52e3b797914f71e87b7d735b2dc", "is_disabled": 0, "is_reserved": 0}, {"rental_uris": {"ios": "https://dc.lft.to/lastmile_qr_scan", "android": "https://dc.lft.to/lastmile_qr_scan"}, "lon": -77.03189783333333, "type": "electric_scooter", "fusion_lat": 0.0, "lat": 38.914022333333335, "name": "2fbe0166874c8177a61d31c493549063", "fusion_lon": 0.0, "bike_id": "2fbe0166874c8177a61d31c493549063", "is_disabled": 0, "is_reserved": 0}, {"rental_uris": {"ios": "https://dc.lft.to/lastmile_qr_scan", "android": "https://dc.lft.to/lastmile_qr_scan"}, "lon": -76.8781945, "type": "electric_bike", "fusion_lat": 0.0, "lat": 38.992327833333334, "name": "4a96085ebcf06e1ac9ba7a2b9fcb039b", "fusion_lon": 0.0, "bike_id": "4a96085ebcf06e1ac9ba7a2b9fcb039b", "is_disabled": 0, "is_reserved": 0}, {"rental_uris": {"ios": "https://dc.lft.to/lastmile_qr_scan", "android": "https://dc.lft.to/lastmile_qr_scan"}, "lon": -76.946654, "type": "electric_scooter", "fusion_lat": 0.0, "lat": 38.90338083333333, "name": "b23c1c0c5199e1fea56dbc90807c2d05", "fusion_lon": 0.0, "bike_id": "b23c1c0c5199e1fea56dbc90807c2d05", "is_disabled": 0, "is_reserved": 0}, {"rental_uris": {"ios": "https://dc.lft.to/lastmile_qr_scan", "android": "https://dc.lft.to/lastmile_qr_scan"}, "lon": -77.00296516666667, "type": "electric_bike", "fusion_lat": 0.0, "lat": 38.91613516666666, "name": "2ae0aa114553b762b7af3789264c3c04", "fusion_lon": 0.0, "bike_id": "2ae0aa114553b762b7af3789264c3c04", "is_disabled": 0, "is_reserved": 0}, {"rental_uris": {"ios": "https://dc.lft.to/lastmile_qr_scan", "android": "https://dc.lft.to/lastmile_qr_scan"}, "lon": -77.0262225, "type": "electric_scooter", "fusion_lat": 0.0, "lat": 38.8922395, "name": "ad1813e7dbad0c4094c68d900d217058", "fusion_lon": 0.0, "bike_id": "ad1813e7dbad0c4094c68d900d217058", "is_disabled": 0, "is_reserved": 0}, {"rental_uris": {"ios": "https://dc.lft.to/lastmile_qr_scan", "android": "https://dc.lft.to/lastmile_qr_scan"}, "lon": -77.085618, "type": "electric_bike", "fusion_lat": 0.0, "lat": 38.909671, "name": "208449e642e095684df0f8674f968480", "fusion_lon": 0.0, "bike_id": "208449e642e095684df0f8674f968480", "is_disabled": 0, "is_reserved": 0}, {"rental_uris": {"ios": "https://dc.lft.to/lastmile_qr_scan", "android": "https://dc.lft.to/lastmile_qr_scan"}, "lon": -76.99357183333333, "type": "electric_scooter", "fusion_lat": 0.0, "lat": 38.9003605, "name": "bff2b5c7845d70da381c49173020385d", "fusion_lon": 0.0, "bike_id": "bff2b5c7845d70da381c49173020385d", "is_disabled": 0, "is_reserved": 0}, {"rental_uris": {"ios": "https://dc.lft.to/lastmile_qr_scan", "android": "https://dc.lft.to/lastmile_qr_scan"}, "lon": -76.99521566666667, "type": "electric_scooter", "fusion_lat": 0.0, "lat": 38.89486383333333, "name": "cb694289c11d0e53b91815bee560aa63", "fusion_lon": 0.0, "bike_id": "cb694289c11d0e53b91815bee560aa63", "is_disabled": 0, "is_reserved": 0}, {"rental_uris": {"ios": "https://dc.lft.to/lastmile_qr_scan", "android": "https://dc.lft.to/lastmile_qr_scan"}, "lon": -76.9576825, "type": "electric_bike", "fusion_lat": 0.0, "lat": 38.884179, "name": "227d0e3e584553e275fd95c06b39b811", "fusion_lon": 0.0, "bike_id": "227d0e3e584553e275fd95c06b39b811", "is_disabled": 0, "is_reserved": 0}, {"rental_uris": {"ios": "https://dc.lft.to/lastmile_qr_scan", "android": "https://dc.lft.to/lastmile_qr_scan"}, "lon": -76.93101616666667, "type": "electric_scooter", "fusion_lat": 0.0, "lat": 38.901414, "name": "c1ff4696daa3b62f6d3c5d34fbd4ee30", "fusion_lon": 0.0, "bike_id": "c1ff4696daa3b62f6d3c5d34fbd4ee30", "is_disabled": 0, "is_reserved": 0}, {"rental_uris": {"ios": "https://dc.lft.to/lastmile_qr_scan", "android": "https://dc.lft.to/lastmile_qr_scan"}, "lon": -77.02643483333334, "type": "electric_scooter", "fusion_lat": 0.0, "lat": 38.92395633333334, "name": "c2a6cdb4b175fa9e756338dbf28eb9e3", "fusion_lon": 0.0, "bike_id": "c2a6cdb4b175fa9e756338dbf28eb9e3", "is_disabled": 0, "is_reserved": 0}, {"rental_uris": {"ios": "https://dc.lft.to/lastmile_qr_scan", "android": "https://dc.lft.to/lastmile_qr_scan"}, "lon": -76.98004416666667, "type": "electric_bike", "fusion_lat": 0.0, "lat": 38.8628085, "name": "88b6dcb384ddbccd8f55efc9a053a9d7", "fusion_lon": 0.0, "bike_id": "88b6dcb384ddbccd8f55efc9a053a9d7", "is_disabled": 0, "is_reserved": 0}, {"rental_uris": {"ios": "https://dc.lft.to/lastmile_qr_scan", "android": "https://dc.lft.to/lastmile_qr_scan"}, "lon": -77.05352333333333, "type": "electric_scooter", "fusion_lat": 0.0, "lat": 38.9024955, "name": "8b22cbf1313f96db8bb5446021fcb703", "fusion_lon": 0.0, "bike_id": "8b22cbf1313f96db8bb5446021fcb703", "is_disabled": 0, "is_reserved": 0}, {"rental_uris": {"ios": "https://dc.lft.to/lastmile_qr_scan", "android": "https://dc.lft.to/lastmile_qr_scan"}, "lon": -77.02386216666666, "type": "electric_scooter", "fusion_lat": 0.0, "lat": 38.89491233333333, "name": "3ed0afdcc33f0fe5acd726260594fc7f", "fusion_lon": 0.0, "bike_id": "3ed0afdcc33f0fe5acd726260594fc7f", "is_disabled": 0, "is_reserved": 0}, {"rental_uris": {"ios": "https://dc.lft.to/lastmile_qr_scan", "android": "https://dc.lft.to/lastmile_qr_scan"}, "lon": -77.06383966666667, "type": "electric_scooter", "fusion_lat": 0.0, "lat": 38.9081965, "name": "d4f5c7c1662d78d30b9181a466c6e0bb", "fusion_lon": 0.0, "bike_id": "d4f5c7c1662d78d30b9181a466c6e0bb", "is_disabled": 0, "is_reserved": 0}, {"rental_uris": {"ios": "https://dc.lft.to/lastmile_qr_scan", "android": "https://dc.lft.to/lastmile_qr_scan"}, "lon": -77.032852, "type": "electric_scooter", "fusion_lat": 0.0, "lat": 38.92856616666667, "name": "c97140a032a9f3e20fbd3116f97af406", "fusion_lon": 0.0, "bike_id": "c97140a032a9f3e20fbd3116f97af406", "is_disabled": 0, "is_reserved": 0}, {"rental_uris": {"ios": "https://dc.lft.to/lastmile_qr_scan", "android": "https://dc.lft.to/lastmile_qr_scan"}, "lon": -76.98881083333333, "type": "electric_scooter", "fusion_lat": 0.0, "lat": 38.832246833333336, "name": "5893fe7ac9d1d5bbef926ede45777ebb", "fusion_lon": 0.0, "bike_id": "5893fe7ac9d1d5bbef926ede45777ebb", "is_disabled": 0, "is_reserved": 0}, {"rental_uris": {"ios": "https://dc.lft.to/lastmile_qr_scan", "android": "https://dc.lft.to/lastmile_qr_scan"}, "lon": -77.053965, "type": "electric_scooter", "fusion_lat": 0.0, "lat": 38.9024085, "name": "2160ed0fa484258078d62603b536990c", "fusion_lon": 0.0, "bike_id": "2160ed0fa484258078d62603b536990c", "is_disabled": 0, "is_reserved": 0}, {"rental_uris": {"ios": "https://dc.lft.to/lastmile_qr_scan", "android": "https://dc.lft.to/lastmile_qr_scan"}, "lon": -77.03551916666666, "type": "electric_scooter", "fusion_lat": 0.0, "lat": 38.90841983333333, "name": "a5613767f54931825d752df02ee97956", "fusion_lon": 0.0, "bike_id": "a5613767f54931825d752df02ee97956", "is_disabled": 0, "is_reserved": 0}, {"rental_uris": {"ios": "https://dc.lft.to/lastmile_qr_scan", "android": "https://dc.lft.to/lastmile_qr_scan"}, "lon": -77.02672566666666, "type": "electric_scooter", "fusion_lat": 0.0, "lat": 38.916975666666666, "name": "df6cbdf883f8b3e93025dc21e94fdd3a", "fusion_lon": 0.0, "bike_id": "df6cbdf883f8b3e93025dc21e94fdd3a", "is_disabled": 0, "is_reserved": 0}, {"rental_uris": {"ios": "https://dc.lft.to/lastmile_qr_scan", "android": "https://dc.lft.to/lastmile_qr_scan"}, "lon": -77.0168255, "type": "electric_bike", "fusion_lat": 0.0, "lat": 38.97519333333334, "name": "8dd6bcd1ef86364d37a02f92c36bea0e", "fusion_lon": 0.0, "bike_id": "8dd6bcd1ef86364d37a02f92c36bea0e", "is_disabled": 0, "is_reserved": 0}, {"rental_uris": {"ios": "https://dc.lft.to/lastmile_qr_scan", "android": "https://dc.lft.to/lastmile_qr_scan"}, "lon": -77.0640215, "type": "electric_bike", "fusion_lat": 0.0, "lat": 38.84347916666667, "name": "1d27343115a5f76b37ce59950300e2d2", "fusion_lon": 0.0, "bike_id": "1d27343115a5f76b37ce59950300e2d2", "is_disabled": 0, "is_reserved": 0}, {"rental_uris": {"ios": "https://dc.lft.to/lastmile_qr_scan", "android": "https://dc.lft.to/lastmile_qr_scan"}, "lon": -76.99278366666667, "type": "electric_scooter", "fusion_lat": 0.0, "lat": 38.9213295, "name": "7efc345c96eefa06147356d6e35534a1", "fusion_lon": 0.0, "bike_id": "7efc345c96eefa06147356d6e35534a1", "is_disabled": 0, "is_reserved": 0}, {"rental_uris": {"ios": "https://dc.lft.to/lastmile_qr_scan", "android": "https://dc.lft.to/lastmile_qr_scan"}, "lon": -77.03181766666667, "type": "electric_scooter", "fusion_lat": 0.0, "lat": 38.89955283333333, "name": "e972a9bbdaa35c9c037871caff234e42", "fusion_lon": 0.0, "bike_id": "e972a9bbdaa35c9c037871caff234e42", "is_disabled": 0, "is_reserved": 0}, {"rental_uris": {"ios": "https://dc.lft.to/lastmile_qr_scan", "android": "https://dc.lft.to/lastmile_qr_scan"}, "lon": -77.03193216666666, "type": "electric_scooter", "fusion_lat": 0.0, "lat": 38.90853933333333, "name": "7b784a487b8fbefaea445d89b54ec30e", "fusion_lon": 0.0, "bike_id": "7b784a487b8fbefaea445d89b54ec30e", "is_disabled": 0, "is_reserved": 0}, {"rental_uris": {"ios": "https://dc.lft.to/lastmile_qr_scan", "android": "https://dc.lft.to/lastmile_qr_scan"}, "lon": -77.042608, "type": "electric_scooter", "fusion_lat": 0.0, "lat": 38.90262333333333, "name": "fea79e3fa3c39181e058b20d0fceba07", "fusion_lon": 0.0, "bike_id": "fea79e3fa3c39181e058b20d0fceba07", "is_disabled": 0, "is_reserved": 0}, {"rental_uris": {"ios": "https://dc.lft.to/lastmile_qr_scan", "android": "https://dc.lft.to/lastmile_qr_scan"}, "lon": -77.03268333333334, "type": "electric_scooter", "fusion_lat": 0.0, "lat": 38.925478166666664, "name": "bbcc8a993500900b5312ec67a4c9a766", "fusion_lon": 0.0, "bike_id": "bbcc8a993500900b5312ec67a4c9a766", "is_disabled": 0, "is_reserved": 0}, {"rental_uris": {"ios": "https://dc.lft.to/lastmile_qr_scan", "android": "https://dc.lft.to/lastmile_qr_scan"}, "lon": -77.043325, "type": "electric_scooter", "fusion_lat": 0.0, "lat": 38.89585833333334, "name": "58113f59b566a11d8e855dd3b942b02b", "fusion_lon": 0.0, "bike_id": "58113f59b566a11d8e855dd3b942b02b", "is_disabled": 0, "is_reserved": 0}, {"rental_uris": {"ios": "https://dc.lft.to/lastmile_qr_scan", "android": "https://dc.lft.to/lastmile_qr_scan"}, "lon": -77.03192366666667, "type": "electric_scooter", "fusion_lat": 0.0, "lat": 38.917971666666666, "name": "fd2ad628677bb347720fe7ef2fee0c20", "fusion_lon": 0.0, "bike_id": "fd2ad628677bb347720fe7ef2fee0c20", "is_disabled": 0, "is_reserved": 0}, {"rental_uris": {"ios": "https://dc.lft.to/lastmile_qr_scan", "android": "https://dc.lft.to/lastmile_qr_scan"}, "lon": -77.066945, "type": "electric_scooter", "fusion_lat": 0.0, "lat": 38.9051425, "name": "2cc2501673015759b1edfb187fd9e3ba", "fusion_lon": 0.0, "bike_id": "2cc2501673015759b1edfb187fd9e3ba", "is_disabled": 0, "is_reserved": 0}, {"rental_uris": {"ios": "https://dc.lft.to/lastmile_qr_scan", "android": "https://dc.lft.to/lastmile_qr_scan"}, "lon": -77.034683, "type": "electric_scooter", "fusion_lat": 0.0, "lat": 38.916875166666664, "name": "26b84ea3918c3dde5139510586a90b17", "fusion_lon": 0.0, "bike_id": "26b84ea3918c3dde5139510586a90b17", "is_disabled": 0, "is_reserved": 0}, {"rental_uris": {"ios": "https://dc.lft.to/lastmile_qr_scan", "android": "https://dc.lft.to/lastmile_qr_scan"}, "lon": -77.0065585, "type": "electric_scooter", "fusion_lat": 0.0, "lat": 38.94460983333333, "name": "bd333f666a6aea4c8fd7a65fe90feb49", "fusion_lon": 0.0, "bike_id": "bd333f666a6aea4c8fd7a65fe90feb49", "is_disabled": 0, "is_reserved": 0}, {"rental_uris": {"ios": "https://dc.lft.to/lastmile_qr_scan", "android": "https://dc.lft.to/lastmile_qr_scan"}, "lon": -76.94879866666666, "type": "electric_scooter", "fusion_lat": 0.0, "lat": 38.8950025, "name": "dfd377513d63cca3aa7710c67e6efc60", "fusion_lon": 0.0, "bike_id": "dfd377513d63cca3aa7710c67e6efc60", "is_disabled": 0, "is_reserved": 0}, {"rental_uris": {"ios": "https://dc.lft.to/lastmile_qr_scan", "android": "https://dc.lft.to/lastmile_qr_scan"}, "lon": -77.04677883333333, "type": "electric_scooter", "fusion_lat": 0.0, "lat": 38.9148235, "name": "040156a11bc48be6ee923496ec15c126", "fusion_lon": 0.0, "bike_id": "040156a11bc48be6ee923496ec15c126", "is_disabled": 0, "is_reserved": 0}, {"rental_uris": {"ios": "https://dc.lft.to/lastmile_qr_scan", "android": "https://dc.lft.to/lastmile_qr_scan"}, "lon": -77.0344575, "type": "electric_scooter", "fusion_lat": 0.0, "lat": 38.9080545, "name": "db919be57c6d696d1ef136df5529c12d", "fusion_lon": 0.0, "bike_id": "db919be57c6d696d1ef136df5529c12d", "is_disabled": 0, "is_reserved": 0}, {"rental_uris": {"ios": "https://dc.lft.to/lastmile_qr_scan", "android": "https://dc.lft.to/lastmile_qr_scan"}, "lon": -77.02942766666666, "type": "electric_scooter", "fusion_lat": 0.0, "lat": 38.904662333333334, "name": "6e68b1805c634705c126f9a000d56513", "fusion_lon": 0.0, "bike_id": "6e68b1805c634705c126f9a000d56513", "is_disabled": 0, "is_reserved": 0}, {"rental_uris": {"ios": "https://dc.lft.to/lastmile_qr_scan", "android": "https://dc.lft.to/lastmile_qr_scan"}, "lon": -77.02883966666667, "type": "electric_scooter", "fusion_lat": 0.0, "lat": 38.9059275, "name": "5486e83323b39ad856172cf7d2dff36f", "fusion_lon": 0.0, "bike_id": "5486e83323b39ad856172cf7d2dff36f", "is_disabled": 0, "is_reserved": 0}, {"rental_uris": {"ios": "https://dc.lft.to/lastmile_qr_scan", "android": "https://dc.lft.to/lastmile_qr_scan"}, "lon": -77.03179166666666, "type": "electric_bike", "fusion_lat": 0.0, "lat": 38.915568666666665, "name": "1e7545a0b71acdfb509a27bfc62459de", "fusion_lon": 0.0, "bike_id": "1e7545a0b71acdfb509a27bfc62459de", "is_disabled": 0, "is_reserved": 0}, {"rental_uris": {"ios": "https://dc.lft.to/lastmile_qr_scan", "android": "https://dc.lft.to/lastmile_qr_scan"}, "lon": -77.10686983333333, "type": "electric_bike", "fusion_lat": 0.0, "lat": 38.935835, "name": "4aaf061cc5308b2ba2ebe8e144146175", "fusion_lon": 0.0, "bike_id": "4aaf061cc5308b2ba2ebe8e144146175", "is_disabled": 0, "is_reserved": 0}, {"rental_uris": {"ios": "https://dc.lft.to/lastmile_qr_scan", "android": "https://dc.lft.to/lastmile_qr_scan"}, "lon": -77.0319435, "type": "electric_scooter", "fusion_lat": 0.0, "lat": 38.9192195, "name": "ee4230fd650c50e4f38a1a7e346933d8", "fusion_lon": 0.0, "bike_id": "ee4230fd650c50e4f38a1a7e346933d8", "is_disabled": 0, "is_reserved": 0}, {"rental_uris": {"ios": "https://dc.lft.to/lastmile_qr_scan", "android": "https://dc.lft.to/lastmile_qr_scan"}, "lon": -77.04004933333333, "type": "electric_scooter", "fusion_lat": 0.0, "lat": 38.898777333333335, "name": "1d6a3be8c1206276241ae1b6e396bf14", "fusion_lon": 0.0, "bike_id": "1d6a3be8c1206276241ae1b6e396bf14", "is_disabled": 0, "is_reserved": 0}, {"rental_uris": {"ios": "https://dc.lft.to/lastmile_qr_scan", "android": "https://dc.lft.to/lastmile_qr_scan"}, "lon": -77.02965566666667, "type": "electric_scooter", "fusion_lat": 0.0, "lat": 38.90061383333333, "name": "e1efac6ba41c743572913e0a95ee8bb7", "fusion_lon": 0.0, "bike_id": "e1efac6ba41c743572913e0a95ee8bb7", "is_disabled": 0, "is_reserved": 0}, {"rental_uris": {"ios": "https://dc.lft.to/lastmile_qr_scan", "android": "https://dc.lft.to/lastmile_qr_scan"}, "lon": -77.050567, "type": "electric_scooter", "fusion_lat": 0.0, "lat": 38.900553, "name": "bffe1a4d72b2fdb16b3dde8b973b663a", "fusion_lon": 0.0, "bike_id": "bffe1a4d72b2fdb16b3dde8b973b663a", "is_disabled": 0, "is_reserved": 0}, {"rental_uris": {"ios": "https://dc.lft.to/lastmile_qr_scan", "android": "https://dc.lft.to/lastmile_qr_scan"}, "lon": -77.0363325, "type": "electric_bike", "fusion_lat": 0.0, "lat": 38.91265666666666, "name": "6b5de825042662f33c66f0b615e2b316", "fusion_lon": 0.0, "bike_id": "6b5de825042662f33c66f0b615e2b316", "is_disabled": 0, "is_reserved": 0}, {"rental_uris": {"ios": "https://dc.lft.to/lastmile_qr_scan", "android": "https://dc.lft.to/lastmile_qr_scan"}, "lon": -77.036301, "type": "electric_scooter", "fusion_lat": 0.0, "lat": 38.93687633333333, "name": "1452cedf95e387a2e4bade89f61d9569", "fusion_lon": 0.0, "bike_id": "1452cedf95e387a2e4bade89f61d9569", "is_disabled": 0, "is_reserved": 0}, {"rental_uris": {"ios": "https://dc.lft.to/lastmile_qr_scan", "android": "https://dc.lft.to/lastmile_qr_scan"}, "lon": -76.997797, "type": "electric_scooter", "fusion_lat": 0.0, "lat": 38.844232833333336, "name": "65cc1136e8d3e895cfb4143b64250c48", "fusion_lon": 0.0, "bike_id": "65cc1136e8d3e895cfb4143b64250c48", "is_disabled": 0, "is_reserved": 0}, {"rental_uris": {"ios": "https://dc.lft.to/lastmile_qr_scan", "android": "https://dc.lft.to/lastmile_qr_scan"}, "lon": -76.9743915, "type": "electric_bike", "fusion_lat": 0.0, "lat": 38.86406683333333, "name": "2088e01c5ec18aaca8f2a8b4162e6a4c", "fusion_lon": 0.0, "bike_id": "2088e01c5ec18aaca8f2a8b4162e6a4c", "is_disabled": 0, "is_reserved": 0}, {"rental_uris": {"ios": "https://dc.lft.to/lastmile_qr_scan", "android": "https://dc.lft.to/lastmile_qr_scan"}, "lon": -77.01864033333334, "type": "electric_scooter", "fusion_lat": 0.0, "lat": 38.915720666666665, "name": "590278c4953f80e209c4217ab13b3ab5", "fusion_lon": 0.0, "bike_id": "590278c4953f80e209c4217ab13b3ab5", "is_disabled": 0, "is_reserved": 0}, {"rental_uris": {"ios": "https://dc.lft.to/lastmile_qr_scan", "android": "https://dc.lft.to/lastmile_qr_scan"}, "lon": -77.04137216666666, "type": "electric_scooter", "fusion_lat": 0.0, "lat": 38.905919833333336, "name": "2d1a01055810e532446f0e3710660151", "fusion_lon": 0.0, "bike_id": "2d1a01055810e532446f0e3710660151", "is_disabled": 0, "is_reserved": 0}, {"rental_uris": {"ios": "https://dc.lft.to/lastmile_qr_scan", "android": "https://dc.lft.to/lastmile_qr_scan"}, "lon": -77.0153075, "type": "electric_scooter", "fusion_lat": 0.0, "lat": 38.898285, "name": "814f3117b2ca8bb97eb85bc054c65db3", "fusion_lon": 0.0, "bike_id": "814f3117b2ca8bb97eb85bc054c65db3", "is_disabled": 0, "is_reserved": 0}, {"rental_uris": {"ios": "https://dc.lft.to/lastmile_qr_scan", "android": "https://dc.lft.to/lastmile_qr_scan"}, "lon": -77.062855, "type": "electric_scooter", "fusion_lat": 0.0, "lat": 38.912431833333336, "name": "904b47e05f22a40fbfa33ddd47c66bca", "fusion_lon": 0.0, "bike_id": "904b47e05f22a40fbfa33ddd47c66bca", "is_disabled": 0, "is_reserved": 0}, {"rental_uris": {"ios": "https://dc.lft.to/lastmile_qr_scan", "android": "https://dc.lft.to/lastmile_qr_scan"}, "lon": -77.03427683333334, "type": "electric_scooter", "fusion_lat": 0.0, "lat": 38.908099166666666, "name": "44c670fc9508884831794ce9c1d886c7", "fusion_lon": 0.0, "bike_id": "44c670fc9508884831794ce9c1d886c7", "is_disabled": 0, "is_reserved": 0}, {"rental_uris": {"ios": "https://dc.lft.to/lastmile_qr_scan", "android": "https://dc.lft.to/lastmile_qr_scan"}, "lon": -76.94984933333333, "type": "electric_scooter", "fusion_lat": 0.0, "lat": 38.893638833333334, "name": "51e18205b41b2d02aeec657e8d3cd2b9", "fusion_lon": 0.0, "bike_id": "51e18205b41b2d02aeec657e8d3cd2b9", "is_disabled": 0, "is_reserved": 0}, {"rental_uris": {"ios": "https://dc.lft.to/lastmile_qr_scan", "android": "https://dc.lft.to/lastmile_qr_scan"}, "lon": -77.0468765, "type": "electric_scooter", "fusion_lat": 0.0, "lat": 38.89222216666667, "name": "86b2e3b49d84f8d7bf2563c230592432", "fusion_lon": 0.0, "bike_id": "86b2e3b49d84f8d7bf2563c230592432", "is_disabled": 0, "is_reserved": 0}, {"rental_uris": {"ios": "https://dc.lft.to/lastmile_qr_scan", "android": "https://dc.lft.to/lastmile_qr_scan"}, "lon": -77.00207716666667, "type": "electric_scooter", "fusion_lat": 0.0, "lat": 38.908395666666664, "name": "431f2f38a32cd3a98bfbe2132268a8e6", "fusion_lon": 0.0, "bike_id": "431f2f38a32cd3a98bfbe2132268a8e6", "is_disabled": 0, "is_reserved": 0}, {"rental_uris": {"ios": "https://dc.lft.to/lastmile_qr_scan", "android": "https://dc.lft.to/lastmile_qr_scan"}, "lon": -77.03585, "type": "electric_scooter", "fusion_lat": 0.0, "lat": 38.932448, "name": "e5ca4ccdbf79186d23482c602bf097ec", "fusion_lon": 0.0, "bike_id": "e5ca4ccdbf79186d23482c602bf097ec", "is_disabled": 0, "is_reserved": 0}, {"rental_uris": {"ios": "https://dc.lft.to/lastmile_qr_scan", "android": "https://dc.lft.to/lastmile_qr_scan"}, "lon": -77.03797216666666, "type": "electric_bike", "fusion_lat": 0.0, "lat": 38.996853, "name": "b05116c40e71f008b9847cd6bfe74ee2", "fusion_lon": 0.0, "bike_id": "b05116c40e71f008b9847cd6bfe74ee2", "is_disabled": 0, "is_reserved": 0}, {"rental_uris": {"ios": "https://dc.lft.to/lastmile_qr_scan", "android": "https://dc.lft.to/lastmile_qr_scan"}, "lon": -77.02689466666666, "type": "electric_scooter", "fusion_lat": 0.0, "lat": 38.90686016666667, "name": "2647deb64f5a71a7ff930c1891cb9d76", "fusion_lon": 0.0, "bike_id": "2647deb64f5a71a7ff930c1891cb9d76", "is_disabled": 0, "is_reserved": 0}, {"rental_uris": {"ios": "https://dc.lft.to/lastmile_qr_scan", "android": "https://dc.lft.to/lastmile_qr_scan"}, "lon": -77.04134316666666, "type": "electric_scooter", "fusion_lat": 0.0, "lat": 38.9243835, "name": "5f0e406505d47437a55d5dde7af67937", "fusion_lon": 0.0, "bike_id": "5f0e406505d47437a55d5dde7af67937", "is_disabled": 0, "is_reserved": 0}, {"rental_uris": {"ios": "https://dc.lft.to/lastmile_qr_scan", "android": "https://dc.lft.to/lastmile_qr_scan"},