{"data": {"bikes": [{"rental_uris": {"android": "https://dc.lft.to/lastmile_qr_scan", "ios": "https://dc.lft.to/lastmile_qr_scan"}, "name": "9816fe1d69be0d06e73f694a710b5696", "fusion_lat": 0.0, "lon": -77.03942633333334, "is_disabled": 0, "is_reserved": 0, "fusion_lon": 0.0, "lat": 38.902542833333335, "type": "electric_scooter", "bike_id": "9816fe1d69be0d06e73f694a710b5696"}, {"rental_uris": {"android": "https://dc.lft.to/lastmile_qr_scan", "ios": "https://dc.lft.to/lastmile_qr_scan"}, "name": "dd9030067508bd35a1f24a680df2458f", "fusion_lat": 0.0, "lon": -77.023615, "is_disabled": 0, "is_reserved": 0, "fusion_lon": 0.0, "lat": 38.93313533333333, "type": "electric_scooter", "bike_id": "dd9030067508bd35a1f24a680df2458f"}, {"rental_uris": {"android": "https://dc.lft.to/lastmile_qr_scan", "ios": "https://dc.lft.to/lastmile_qr_scan"}, "name": "11470cc3625c7086b1cf77aa9ba94de5", "fusion_lat": 0.0, "lon": -77.031672, "is_disabled": 0, "is_reserved": 0, "fusion_lon": 0.0, "lat": 38.91403616666667, "type": "electric_scooter", "bike_id": "11470cc3625c7086b1cf77aa9ba94de5"}, {"rental_uris": {"android": "https://dc.lft.to/lastmile_qr_scan", "ios": "https://dc.lft.to/lastmile_qr_scan"}, "name": "0b488ef3b61294b3c02bdd5b002b0daa", "fusion_lat": 0.0, "lon": -77.02789633333333, "is_disabled": 0, "is_reserved": 0, "fusion_lon": 0.0, "lat": 38.96083933333333, "type": "electric_scooter", "bike_id": "0b488ef3b61294b3c02bdd5b002b0daa"}, {"rental_uris": {"android": "https://dc.lft.to/lastmile_qr_scan", "ios": "https://dc.lft.to/lastmile_qr_scan"}, "name": "7df3a083ded3c290418f2e6992f93b17", "fusion_lat": 0.0, "lon": -77.0459825, "is_disabled": 0, "is_reserved": 0, "fusion_lon": 0.0, "lat": 38.921400166666665, "type": "electric_scooter", "bike_id": "7df3a083ded3c290418f2e6992f93b17"}, {"rental_uris": {"android": "https://dc.lft.to/lastmile_qr_scan", "ios": "https://dc.lft.to/lastmile_qr_scan"}, "name": "920a812091efb78b48aa3d4fee11e947", "fusion_lat": 0.0, "lon": -77.01999516666666, "is_disabled": 0, "is_reserved": 0, "fusion_lon": 0.0, "lat": 38.89451733333333, "type": "electric_scooter", "bike_id": "920a812091efb78b48aa3d4fee11e947"}, {"rental_uris": {"android": "https://dc.lft.to/lastmile_qr_scan", "ios": "https://dc.lft.to/lastmile_qr_scan"}, "name": "fd249700093d3b4683d8ee9c493cf081", "fusion_lat": 0.0, "lon": -77.02664233333333, "is_disabled": 0, "is_reserved": 0, "fusion_lon": 0.0, "lat": 38.979384333333336, "type": "electric_scooter", "bike_id": "fd249700093d3b4683d8ee9c493cf081"}, {"rental_uris": {"android": "https://dc.lft.to/lastmile_qr_scan", "ios": "https://dc.lft.to/lastmile_qr_scan"}, "name": "5a78d5e271cf8bc1d8a3f046d703ff14", "fusion_lat": 0.0, "lon": -77.03434233333333, "is_disabled": 0, "is_reserved": 0, "fusion_lon": 0.0, "lat": 38.90485733333333, "type": "electric_scooter", "bike_id": "5a78d5e271cf8bc1d8a3f046d703ff14"}, {"rental_uris": {"android": "https://dc.lft.to/lastmile_qr_scan", "ios": "https://dc.lft.to/lastmile_qr_scan"}, "name": "ab1095710897ec6f4c9873141ec63bf8", "fusion_lat": 0.0, "lon": -77.0244875, "is_disabled": 0, "is_reserved": 0, "fusion_lon": 0.0, "lat": 38.92800366666667, "type": "electric_scooter", "bike_id": "ab1095710897ec6f4c9873141ec63bf8"}, {"rental_uris": {"android": "https://dc.lft.to/lastmile_qr_scan", "ios": "https://dc.lft.to/lastmile_qr_scan"}, "name": "11eadadca80d21720d37abe77772928f", "fusion_lat": 0.0, "lon": -76.99492533333333, "is_disabled": 0, "is_reserved": 0, "fusion_lon": 0.0, "lat": 38.933604333333335, "type": "electric_bike", "bike_id": "11eadadca80d21720d37abe77772928f"}, {"rental_uris": {"android": "https://dc.lft.to/lastmile_qr_scan", "ios": "https://dc.lft.to/lastmile_qr_scan"}, "name": "07d77db26f64ac7d0f584ee5964c8bad", "fusion_lat": 0.0, "lon": -76.98829183333334, "is_disabled": 0, "is_reserved": 0, "fusion_lon": 0.0, "lat": 38.98563216666667, "type": "electric_bike", "bike_id": "07d77db26f64ac7d0f584ee5964c8bad"}, {"rental_uris": {"android": "https://dc.lft.to/lastmile_qr_scan", "ios": "https://dc.lft.to/lastmile_qr_scan"}, "name": "862d8021ab44a80a42bbe05604ff3b6a", "fusion_lat": 0.0, "lon": -77.0326455, "is_disabled": 0, "is_reserved": 0, "fusion_lon": 0.0, "lat": 38.932155333333334, "type": "electric_scooter", "bike_id": "862d8021ab44a80a42bbe05604ff3b6a"}, {"rental_uris": {"android": "https://dc.lft.to/lastmile_qr_scan", "ios": "https://dc.lft.to/lastmile_qr_scan"}, "name": "e0749bb89b3451dec2ad2f8c236f56b4", "fusion_lat": 0.0, "lon": -77.0302905, "is_disabled": 0, "is_reserved": 0, "fusion_lon": 0.0, "lat": 38.922531666666664, "type": "electric_scooter", "bike_id": "e0749bb89b3451dec2ad2f8c236f56b4"}, {"rental_uris": {"android": "https://dc.lft.to/lastmile_qr_scan", "ios": "https://dc.lft.to/lastmile_qr_scan"}, "name": "35ea034609f00e4edf0229cac8766419", "fusion_lat": 0.0, "lon": -77.04348033333333, "is_disabled": 0, "is_reserved": 0, "fusion_lon": 0.0, "lat": 38.901239833333335, "type": "electric_scooter", "bike_id": "35ea034609f00e4edf0229cac8766419"}, {"rental_uris": {"android": "https://dc.lft.to/lastmile_qr_scan", "ios": "https://dc.lft.to/lastmile_qr_scan"}, "name": "5ef656bf4d0f55188d3ebb60ef61b558", "fusion_lat": 0.0, "lon": -76.99964966666667, "is_disabled": 0, "is_reserved": 0, "fusion_lon": 0.0, "lat": 38.843478166666664, "type": "electric_scooter", "bike_id": "5ef656bf4d0f55188d3ebb60ef61b558"}, {"rental_uris": {"android": "https://dc.lft.to/lastmile_qr_scan", "ios": "https://dc.lft.to/lastmile_qr_scan"}, "name": "c0257b731e5aac210c22de736b2ef994", "fusion_lat": 0.0, "lon": -77.04833233333333, "is_disabled": 0, "is_reserved": 0, "fusion_lon": 0.0, "lat": 38.90031283333333, "type": "electric_scooter", "bike_id": "c0257b731e5aac210c22de736b2ef994"}, {"rental_uris": {"android": "https://dc.lft.to/lastmile_qr_scan", "ios": "https://dc.lft.to/lastmile_qr_scan"}, "name": "82a6a506cd2c790322d7279b95f1a20a", "fusion_lat": 0.0, "lon": -76.9901825, "is_disabled": 0, "is_reserved": 0, "fusion_lon": 0.0, "lat": 38.861155, "type": "electric_scooter", "bike_id": "82a6a506cd2c790322d7279b95f1a20a"}, {"rental_uris": {"android": "https://dc.lft.to/lastmile_qr_scan", "ios": "https://dc.lft.to/lastmile_qr_scan"}, "name": "7f219df978f227864d4f010138cfd944", "fusion_lat": 0.0, "lon": -77.06290666666666, "is_disabled": 0, "is_reserved": 0, "fusion_lon": 0.0, "lat": 38.9045645, "type": "electric_scooter", "bike_id": "7f219df978f227864d4f010138cfd944"}, {"rental_uris": {"android": "https://dc.lft.to/lastmile_qr_scan", "ios": "https://dc.lft.to/lastmile_qr_scan"}, "name": "7e8752b48737be3a5044472499274807", "fusion_lat": 0.0, "lon": -76.957527, "is_disabled": 0, "is_reserved": 0, "fusion_lon": 0.0, "lat": 38.884359833333335, "type": "electric_scooter", "bike_id": "7e8752b48737be3a5044472499274807"}, {"rental_uris": {"android": "https://dc.lft.to/lastmile_qr_scan", "ios": "https://dc.lft.to/lastmile_qr_scan"}, "name": "542a57bfa67b6c0ef23bd05fe1d75f97", "fusion_lat": 0.0, "lon": -77.024843, "is_disabled": 0, "is_reserved": 0, "fusion_lon": 0.0, "lat": 38.97367233333333, "type": "electric_bike", "bike_id": "542a57bfa67b6c0ef23bd05fe1d75f97"}, {"rental_uris": {"android": "https://dc.lft.to/lastmile_qr_scan", "ios": "https://dc.lft.to/lastmile_qr_scan"}, "name": "3ee6d259bd4caf7887a6e46b749df448", "fusion_lat": 0.0, "lon": -77.02494583333333, "is_disabled": 0, "is_reserved": 0, "fusion_lon": 0.0, "lat": 38.941876, "type": "electric_scooter", "bike_id": "3ee6d259bd4caf7887a6e46b749df448"}, {"rental_uris": {"android": "https://dc.lft.to/lastmile_qr_scan", "ios": "https://dc.lft.to/lastmile_qr_scan"}, "name": "cb7de44e1682f6aa1d57aeac1c54dd70", "fusion_lat": 0.0, "lon": -76.996315, "is_disabled": 0, "is_reserved": 0, "fusion_lon": 0.0, "lat": 38.84623633333333, "type": "electric_scooter", "bike_id": "cb7de44e1682f6aa1d57aeac1c54dd70"}, {"rental_uris": {"android": "https://dc.lft.to/lastmile_qr_scan", "ios": "https://dc.lft.to/lastmile_qr_scan"}, "name": "57e64d1efe825543cc4a36e518bbbb58", "fusion_lat": 0.0, "lon": -76.9671475, "is_disabled": 0, "is_reserved": 0, "fusion_lon": 0.0, "lat": 38.869498166666666, "type": "electric_scooter", "bike_id": "57e64d1efe825543cc4a36e518bbbb58"}, {"rental_uris": {"android": "https://dc.lft.to/lastmile_qr_scan", "ios": "https://dc.lft.to/lastmile_qr_scan"}, "name": "645d0f7586b446d64b79a1954efb3f25", "fusion_lat": 0.0, "lon": -77.07097666666667, "is_disabled": 0, "is_reserved": 0, "fusion_lon": 0.0, "lat": 38.91964133333333, "type": "electric_scooter", "bike_id": "645d0f7586b446d64b79a1954efb3f25"}, {"rental_uris": {"android": "https://dc.lft.to/lastmile_qr_scan", "ios": "https://dc.lft.to/lastmile_qr_scan"}, "name": "c8402ccd1f2d480faa15f53265f0dcb9", "fusion_lat": 0.0, "lon": -77.02698966666667, "is_disabled": 0, "is_reserved": 0, "fusion_lon": 0.0, "lat": 38.90845766666666, "type": "electric_scooter", "bike_id": "c8402ccd1f2d480faa15f53265f0dcb9"}, {"rental_uris": {"android": "https://dc.lft.to/lastmile_qr_scan", "ios": "https://dc.lft.to/lastmile_qr_scan"}, "name": "c79f8c699f6935cfbb3d2b8fbc39b4d9", "fusion_lat": 0.0, "lon": -77.04193733333334, "is_disabled": 0, "is_reserved": 0, "fusion_lon": 0.0, "lat": 38.92297166666667, "type": "electric_scooter", "bike_id": "c79f8c699f6935cfbb3d2b8fbc39b4d9"}, {"rental_uris": {"android": "https://dc.lft.to/lastmile_qr_scan", "ios": "https://dc.lft.to/lastmile_qr_scan"}, "name": "0c65e3c22c3c01e57fdb9bc6f0b34b30", "fusion_lat": 0.0, "lon": -77.044851, "is_disabled": 0, "is_reserved": 0, "fusion_lon": 0.0, "lat": 38.90683216666667, "type": "electric_scooter", "bike_id": "0c65e3c22c3c01e57fdb9bc6f0b34b30"}, {"rental_uris": {"android": "https://dc.lft.to/lastmile_qr_scan", "ios": "https://dc.lft.to/lastmile_qr_scan"}, "name": "667c0b4c72539f2f898697ea8a20aa40", "fusion_lat": 0.0, "lon": -77.16229466666667, "is_disabled": 0, "is_reserved": 0, "fusion_lon": 0.0, "lat": 38.886582833333335, "type": "electric_bike", "bike_id": "667c0b4c72539f2f898697ea8a20aa40"}, {"rental_uris": {"android": "https://dc.lft.to/lastmile_qr_scan", "ios": "https://dc.lft.to/lastmile_qr_scan"}, "name": "dd01dad3ffe465990a53749a6095297b", "fusion_lat": 0.0, "lon": -77.03069333333333, "is_disabled": 0, "is_reserved": 0, "fusion_lon": 0.0, "lat": 38.902665, "type": "electric_scooter", "bike_id": "dd01dad3ffe465990a53749a6095297b"}, {"rental_uris": {"android": "https://dc.lft.to/lastmile_qr_scan", "ios": "https://dc.lft.to/lastmile_qr_scan"}, "name": "c094689e6400386431e108abae100d30", "fusion_lat": 0.0, "lon": -77.02713466666667, "is_disabled": 0, "is_reserved": 0, "fusion_lon": 0.0, "lat": 38.91961383333334, "type": "electric_scooter", "bike_id": "c094689e6400386431e108abae100d30"}, {"rental_uris": {"android": "https://dc.lft.to/lastmile_qr_scan", "ios": "https://dc.lft.to/lastmile_qr_scan"}, "name": "25a314f7a177ff0e5c6d384aebabab52", "fusion_lat": 0.0, "lon": -77.01776583333333, "is_disabled": 0, "is_reserved": 0, "fusion_lon": 0.0, "lat": 38.921027, "type": "electric_scooter", "bike_id": "25a314f7a177ff0e5c6d384aebabab52"}, {"rental_uris": {"android": "https://dc.lft.to/lastmile_qr_scan", "ios": "https://dc.lft.to/lastmile_qr_scan"}, "name": "c45467ffdc463e93785bd8e586b572e4", "fusion_lat": 0.0, "lon": -76.98921966666667, "is_disabled": 0, "is_reserved": 0, "fusion_lon": 0.0, "lat": 38.88207533333333, "type": "electric_scooter", "bike_id": "c45467ffdc463e93785bd8e586b572e4"}, {"rental_uris": {"android": "https://dc.lft.to/lastmile_qr_scan", "ios": "https://dc.lft.to/lastmile_qr_scan"}, "name": "2afaed8b849970092b568d853d66aeec", "fusion_lat": 0.0, "lon": -77.01061533333333, "is_disabled": 0, "is_reserved": 0, "fusion_lon": 0.0, "lat": 38.872455, "type": "electric_scooter", "bike_id": "2afaed8b849970092b568d853d66aeec"}, {"rental_uris": {"android": "https://dc.lft.to/lastmile_qr_scan", "ios": "https://dc.lft.to/lastmile_qr_scan"}, "name": "aba5119744e4f055601382ae891d6c16", "fusion_lat": 0.0, "lon": -77.04475783333334, "is_disabled": 0, "is_reserved": 0, "fusion_lon": 0.0, "lat": 38.9053335, "type": "electric_scooter", "bike_id": "aba5119744e4f055601382ae891d6c16"}, {"rental_uris": {"android": "https://dc.lft.to/lastmile_qr_scan", "ios": "https://dc.lft.to/lastmile_qr_scan"}, "name": "41c207865e030c1c8f43582d1e6f1d02", "fusion_lat": 0.0, "lon": -77.04979466666667, "is_disabled": 0, "is_reserved": 0, "fusion_lon": 0.0, "lat": 38.89609316666667, "type": "electric_scooter", "bike_id": "41c207865e030c1c8f43582d1e6f1d02"}, {"rental_uris": {"android": "https://dc.lft.to/lastmile_qr_scan", "ios": "https://dc.lft.to/lastmile_qr_scan"}, "name": "7903c52e208d8fab7fb486d26b96dc11", "fusion_lat": 0.0, "lon": -77.02483783333334, "is_disabled": 0, "is_reserved": 0, "fusion_lon": 0.0, "lat": 38.93882766666667, "type": "electric_scooter", "bike_id": "7903c52e208d8fab7fb486d26b96dc11"}, {"rental_uris": {"android": "https://dc.lft.to/lastmile_qr_scan", "ios": "https://dc.lft.to/lastmile_qr_scan"}, "name": "35792acb4e5c1d5309cad47b117ab433", "fusion_lat": 0.0, "lon": -77.01589166666666, "is_disabled": 0, "is_reserved": 0, "fusion_lon": 0.0, "lat": 38.928443333333334, "type": "electric_scooter", "bike_id": "35792acb4e5c1d5309cad47b117ab433"}, {"rental_uris": {"android": "https://dc.lft.to/lastmile_qr_scan", "ios": "https://dc.lft.to/lastmile_qr_scan"}, "name": "58034a1da491480b3e8a94088e709ef3", "fusion_lat": 0.0, "lon": -77.02032733333333, "is_disabled": 0, "is_reserved": 0, "fusion_lon": 0.0, "lat": 38.91312966666667, "type": "electric_scooter", "bike_id": "58034a1da491480b3e8a94088e709ef3"}, {"rental_uris": {"android": "https://dc.lft.to/lastmile_qr_scan", "ios": "https://dc.lft.to/lastmile_qr_scan"}, "name": "94f9a94ee2cd19d277c1697617ba88ae", "fusion_lat": 0.0, "lon": -77.029362, "is_disabled": 0, "is_reserved": 0, "fusion_lon": 0.0, "lat": 38.895532, "type": "electric_scooter", "bike_id": "94f9a94ee2cd19d277c1697617ba88ae"}, {"rental_uris": {"android": "https://dc.lft.to/lastmile_qr_scan", "ios": "https://dc.lft.to/lastmile_qr_scan"}, "name": "8a684f1a4739d4b6758c6a923aede990", "fusion_lat": 0.0, "lon": -77.022215, "is_disabled": 0, "is_reserved": 0, "fusion_lon": 0.0, "lat": 38.9210785, "type": "electric_scooter", "bike_id": "8a684f1a4739d4b6758c6a923aede990"}, {"rental_uris": {"android": "https://dc.lft.to/lastmile_qr_scan", "ios": "https://dc.lft.to/lastmile_qr_scan"}, "name": "8a7e9771e4c46717c373a98daa1771a4", "fusion_lat": 0.0, "lon": -77.04181283333334, "is_disabled": 0, "is_reserved": 0, "fusion_lon": 0.0, "lat": 38.9126725, "type": "electric_scooter", "bike_id": "8a7e9771e4c46717c373a98daa1771a4"}, {"rental_uris": {"android": "https://dc.lft.to/lastmile_qr_scan", "ios": "https://dc.lft.to/lastmile_qr_scan"}, "name": "bc7f5159a33a0008a2dbdc6217b8509f", "fusion_lat": 0.0, "lon": -77.02382166666666, "is_disabled": 0, "is_reserved": 0, "fusion_lon": 0.0, "lat": 38.8923105, "type": "electric_scooter", "bike_id": "bc7f5159a33a0008a2dbdc6217b8509f"}, {"rental_uris": {"android": "https://dc.lft.to/lastmile_qr_scan", "ios": "https://dc.lft.to/lastmile_qr_scan"}, "name": "7c36564faa48006b5040f0da52e7c85c", "fusion_lat": 0.0, "lon": -77.02797916666667, "is_disabled": 0, "is_reserved": 0, "fusion_lon": 0.0, "lat": 38.92685683333333, "type": "electric_scooter", "bike_id": "7c36564faa48006b5040f0da52e7c85c"}, {"rental_uris": {"android": "https://dc.lft.to/lastmile_qr_scan", "ios": "https://dc.lft.to/lastmile_qr_scan"}, "name": "145f4b07a192f1eb3dfc9ab12134b8c2", "fusion_lat": 0.0, "lon": -77.05437483333333, "is_disabled": 0, "is_reserved": 0, "fusion_lon": 0.0, "lat": 38.896041833333335, "type": "electric_scooter", "bike_id": "145f4b07a192f1eb3dfc9ab12134b8c2"}, {"rental_uris": {"android": "https://dc.lft.to/lastmile_qr_scan", "ios": "https://dc.lft.to/lastmile_qr_scan"}, "name": "272da0bdd8764014e27217c9a4d42bdb", "fusion_lat": 0.0, "lon": -76.99589083333333, "is_disabled": 0, "is_reserved": 0, "fusion_lon": 0.0, "lat": 38.9001375, "type": "electric_scooter", "bike_id": "272da0bdd8764014e27217c9a4d42bdb"}, {"rental_uris": {"android": "https://dc.lft.to/lastmile_qr_scan", "ios": "https://dc.lft.to/lastmile_qr_scan"}, "name": "c43fbcf2de9f2fdea0c86ac8ab66bc64", "fusion_lat": 0.0, "lon": -76.94823833333334, "is_disabled": 0, "is_reserved": 0, "fusion_lon": 0.0, "lat": 38.885163166666665, "type": "electric_scooter", "bike_id": "c43fbcf2de9f2fdea0c86ac8ab66bc64"}, {"rental_uris": {"android": "https://dc.lft.to/lastmile_qr_scan", "ios": "https://dc.lft.to/lastmile_qr_scan"}, "name": "1754fc582802afb8a32da0f1b0d7504d", "fusion_lat": 0.0, "lon": -77.0383835, "is_disabled": 0, "is_reserved": 0, "fusion_lon": 0.0, "lat": 38.902718166666666, "type": "electric_scooter", "bike_id": "1754fc582802afb8a32da0f1b0d7504d"}, {"rental_uris": {"android": "https://dc.lft.to/lastmile_qr_scan", "ios": "https://dc.lft.to/lastmile_qr_scan"}, "name": "06a499c0a86fd398a0cdb4898c13571d", "fusion_lat": 0.0, "lon": -77.022868, "is_disabled": 0, "is_reserved": 0, "fusion_lon": 0.0, "lat": 38.91654966666667, "type": "electric_scooter", "bike_id": "06a499c0a86fd398a0cdb4898c13571d"}, {"rental_uris": {"android": "https://dc.lft.to/lastmile_qr_scan", "ios": "https://dc.lft.to/lastmile_qr_scan"}, "name": "bf6283ab54cf56ef613b779a074faca8", "fusion_lat": 0.0, "lon": -77.002883, "is_disabled": 0, "is_reserved": 0, "fusion_lon": 0.0, "lat": 38.893584833333335, "type": "electric_scooter", "bike_id": "bf6283ab54cf56ef613b779a074faca8"}, {"rental_uris": {"android": "https://dc.lft.to/lastmile_qr_scan", "ios": "https://dc.lft.to/lastmile_qr_scan"}, "name": "d9b5c0e656da6290c3d022be8ac454f2", "fusion_lat": 0.0, "lon": -77.019496, "is_disabled": 0, "is_reserved": 0, "fusion_lon": 0.0, "lat": 38.92250683333333, "type": "electric_scooter", "bike_id": "d9b5c0e656da6290c3d022be8ac454f2"}, {"rental_uris": {"android": "https://dc.lft.to/lastmile_qr_scan", "ios": "https://dc.lft.to/lastmile_qr_scan"}, "name": "5771991fcaf35fb58343c868cc067c67", "fusion_lat": 0.0, "lon": -77.02950916666667, "is_disabled": 0, "is_reserved": 0, "fusion_lon": 0.0, "lat": 38.904088333333334, "type": "electric_scooter", "bike_id": "5771991fcaf35fb58343c868cc067c67"}, {"rental_uris": {"android": "https://dc.lft.to/lastmile_qr_scan", "ios": "https://dc.lft.to/lastmile_qr_scan"}, "name": "4ba7c598368e2cd88e957ee0ee784114", "fusion_lat": 0.0, "lon": -77.029642, "is_disabled": 0, "is_reserved": 0, "fusion_lon": 0.0, "lat": 38.898335333333335, "type": "electric_scooter", "bike_id": "4ba7c598368e2cd88e957ee0ee784114"}, {"rental_uris": {"android": "https://dc.lft.to/lastmile_qr_scan", "ios": "https://dc.lft.to/lastmile_qr_scan"}, "name": "a3a6be3cf49a176b54efa581e7bc8929", "fusion_lat": 0.0, "lon": -77.06289683333334, "is_disabled": 0, "is_reserved": 0, "fusion_lon": 0.0, "lat": 38.90617816666666, "type": "electric_scooter", "bike_id": "a3a6be3cf49a176b54efa581e7bc8929"}, {"rental_uris": {"android": "https://dc.lft.to/lastmile_qr_scan", "ios": "https://dc.lft.to/lastmile_qr_scan"}, "name": "7ebcc2e2ce16a35a7401474473055425", "fusion_lat": 0.0, "lon": -77.043553, "is_disabled": 0, "is_reserved": 0, "fusion_lon": 0.0, "lat": 38.90375016666667, "type": "electric_scooter", "bike_id": "7ebcc2e2ce16a35a7401474473055425"}, {"rental_uris": {"android": "https://dc.lft.to/lastmile_qr_scan", "ios": "https://dc.lft.to/lastmile_qr_scan"}, "name": "b4089e2116026a6286c61682369e8961", "fusion_lat": 0.0, "lon": -77.0408085, "is_disabled": 0, "is_reserved": 0, "fusion_lon": 0.0, "lat": 38.89853516666667, "type": "electric_scooter", "bike_id": "b4089e2116026a6286c61682369e8961"}, {"rental_uris": {"android": "https://dc.lft.to/lastmile_qr_scan", "ios": "https://dc.lft.to/lastmile_qr_scan"}, "name": "bb875b2699d736b866679c427ab96176", "fusion_lat": 0.0, "lon": -77.03687616666667, "is_disabled": 0, "is_reserved": 0, "fusion_lon": 0.0, "lat": 38.91680916666667, "type": "electric_scooter", "bike_id": "bb875b2699d736b866679c427ab96176"}, {"rental_uris": {"android": "https://dc.lft.to/lastmile_qr_scan", "ios": "https://dc.lft.to/lastmile_qr_scan"}, "name": "faa4eccbe96397414e2a4d6be12d5912", "fusion_lat": 0.0, "lon": -77.00790383333333, "is_disabled": 0, "is_reserved": 0, "fusion_lon": 0.0, "lat": 38.907488666666666, "type": "electric_scooter", "bike_id": "faa4eccbe96397414e2a4d6be12d5912"}, {"rental_uris": {"android": "https://dc.lft.to/lastmile_qr_scan", "ios": "https://dc.lft.to/lastmile_qr_scan"}, "name": "7fb1497889f37afd38996ebc27224016", "fusion_lat": 0.0, "lon": -77.03219883333334, "is_disabled": 0, "is_reserved": 0, "fusion_lon": 0.0, "lat": 38.8922325, "type": "electric_scooter", "bike_id": "7fb1497889f37afd38996ebc27224016"}, {"rental_uris": {"android": "https://dc.lft.to/lastmile_qr_scan", "ios": "https://dc.lft.to/lastmile_qr_scan"}, "name": "b43fb5cc018f1eb98172fb9b4adfde8c", "fusion_lat": 0.0, "lon": -76.9854025, "is_disabled": 0, "is_reserved": 0, "fusion_lon": 0.0, "lat": 38.88589866666667, "type": "electric_scooter", "bike_id": "b43fb5cc018f1eb98172fb9b4adfde8c"}, {"rental_uris": {"android": "https://dc.lft.to/lastmile_qr_scan", "ios": "https://dc.lft.to/lastmile_qr_scan"}, "name": "3b6fcca529f41648516dddd5b05d090d", "fusion_lat": 0.0, "lon": -77.02092316666666, "is_disabled": 0, "is_reserved": 0, "fusion_lon": 0.0, "lat": 38.92915266666667, "type": "electric_scooter", "bike_id": "3b6fcca529f41648516dddd5b05d090d"}, {"rental_uris": {"android": "https://dc.lft.to/lastmile_qr_scan", "ios": "https://dc.lft.to/lastmile_qr_scan"}, "name": "84d42060fb3fadbea9d43a78f382e3f9", "fusion_lat": 0.0, "lon": -77.02717033333333, "is_disabled": 0, "is_reserved": 0, "fusion_lon": 0.0, "lat": 38.924888833333334, "type": "electric_scooter", "bike_id": "84d42060fb3fadbea9d43a78f382e3f9"}, {"rental_uris": {"android": "https://dc.lft.to/lastmile_qr_scan", "ios": "https://dc.lft.to/lastmile_qr_scan"}, "name": "3ab3f47684ed883d260aa1265528ea90", "fusion_lat": 0.0, "lon": -77.00824533333333, "is_disabled": 0, "is_reserved": 0, "fusion_lon": 0.0, "lat": 38.87650416666666, "type": "electric_scooter", "bike_id": "3ab3f47684ed883d260aa1265528ea90"}, {"rental_uris": {"android": "https://dc.lft.to/lastmile_qr_scan", "ios": "https://dc.lft.to/lastmile_qr_scan"}, "name": "668af9574e32d117d3f2bdbb84fec8dc", "fusion_lat": 0.0, "lon": -77.07709283333334, "is_disabled": 0, "is_reserved": 0, "fusion_lon": 0.0, "lat": 38.942938166666664, "type": "electric_scooter", "bike_id": "668af9574e32d117d3f2bdbb84fec8dc"}, {"rental_uris": {"android": "https://dc.lft.to/lastmile_qr_scan", "ios": "https://dc.lft.to/lastmile_qr_scan"}, "name": "324517d639216f3f1fd59debe6dbccef", "fusion_lat": 0.0, "lon": -77.04042666666666, "is_disabled": 0, "is_reserved": 0, "fusion_lon": 0.0, "lat": 38.905612, "type": "electric_scooter", "bike_id": "324517d639216f3f1fd59debe6dbccef"}, {"rental_uris": {"android": "https://dc.lft.to/lastmile_qr_scan", "ios": "https://dc.lft.to/lastmile_qr_scan"}, "name": "011cdfd5390958d2544088839d0d53c1", "fusion_lat": 0.0, "lon": -77.0367195, "is_disabled": 0, "is_reserved": 0, "fusion_lon": 0.0, "lat": 38.931702333333334, "type": "electric_scooter", "bike_id": "011cdfd5390958d2544088839d0d53c1"}, {"rental_uris": {"android": "https://dc.lft.to/lastmile_qr_scan", "ios": "https://dc.lft.to/lastmile_qr_scan"}, "name": "1cba88f28ad39d770057e7fc82dd6af2", "fusion_lat": 0.0, "lon": -77.06527316666667, "is_disabled": 0, "is_reserved": 0, "fusion_lon": 0.0, "lat": 38.905326, "type": "electric_scooter", "bike_id": "1cba88f28ad39d770057e7fc82dd6af2"}, {"rental_uris": {"android": "https://dc.lft.to/lastmile_qr_scan", "ios": "https://dc.lft.to/lastmile_qr_scan"}, "name": "436274ee4d25dfe9f63684bf93966c05", "fusion_lat": 0.0, "lon": -77.00418533333334, "is_disabled": 0, "is_reserved": 0, "fusion_lon": 0.0, "lat": 38.876479833333335, "type": "electric_scooter", "bike_id": "436274ee4d25dfe9f63684bf93966c05"}, {"rental_uris": {"android": "https://dc.lft.to/lastmile_qr_scan", "ios": "https://dc.lft.to/lastmile_qr_scan"}, "name": "ecb3bafe3cd436f39a0a480757de1554", "fusion_lat": 0.0, "lon": -77.00338333333333, "is_disabled": 0, "is_reserved": 0, "fusion_lon": 0.0, "lat": 38.895059833333335, "type": "electric_scooter", "bike_id": "ecb3bafe3cd436f39a0a480757de1554"}, {"rental_uris": {"android": "https://dc.lft.to/lastmile_qr_scan", "ios": "https://dc.lft.to/lastmile_qr_scan"}, "name": "b74cf3802e39e37fdc8fb9d4f45064d3", "fusion_lat": 0.0, "lon": -77.0145575, "is_disabled": 0, "is_reserved": 0, "fusion_lon": 0.0, "lat": 38.868082666666666, "type": "electric_bike", "bike_id": "b74cf3802e39e37fdc8fb9d4f45064d3"}, {"rental_uris": {"android": "https://dc.lft.to/lastmile_qr_scan", "ios": "https://dc.lft.to/lastmile_qr_scan"}, "name": "653079ea5c35b5f093669b98aabeb4a6", "fusion_lat": 0.0, "lon": -77.0178, "is_disabled": 0, "is_reserved": 0, "fusion_lon": 0.0, "lat": 38.877948333333336, "type": "electric_scooter", "bike_id": "653079ea5c35b5f093669b98aabeb4a6"}, {"rental_uris": {"android": "https://dc.lft.to/lastmile_qr_scan", "ios": "https://dc.lft.to/lastmile_qr_scan"}, "name": "7d428d872a039c3f44eb38aa5c4581d2", "fusion_lat": 0.0, "lon": -77.01118966666667, "is_disabled": 0, "is_reserved": 0, "fusion_lon": 0.0, "lat": 38.896070333333334, "type": "electric_scooter", "bike_id": "7d428d872a039c3f44eb38aa5c4581d2"}, {"rental_uris": {"android": "https://dc.lft.to/lastmile_qr_scan", "ios": "https://dc.lft.to/lastmile_qr_scan"}, "name": "8a6be842d607e381238f9dad946d70b7", "fusion_lat": 0.0, "lon": -77.02432683333333, "is_disabled": 0, "is_reserved": 0, "fusion_lon": 0.0, "lat": 38.9057205, "type": "electric_scooter", "bike_id": "8a6be842d607e381238f9dad946d70b7"}, {"rental_uris": {"android": "https://dc.lft.to/lastmile_qr_scan", "ios": "https://dc.lft.to/lastmile_qr_scan"}, "name": "90e3a47e747547c5a4cf0d74ceecc7ba", "fusion_lat": 0.0, "lon": -77.0444275, "is_disabled": 0, "is_reserved": 0, "fusion_lon": 0.0, "lat": 38.91120316666667, "type": "electric_scooter", "bike_id": "90e3a47e747547c5a4cf0d74ceecc7ba"}, {"rental_uris": {"android": "https://dc.lft.to/lastmile_qr_scan", "ios": "https://dc.lft.to/lastmile_qr_scan"}, "name": "ea218d8bcf50b796d86af1acf3139f54", "fusion_lat": 0.0, "lon": -77.03485733333333, "is_disabled": 0, "is_reserved": 0, "fusion_lon": 0.0, "lat": 38.90272233333334, "type": "electric_scooter", "bike_id": "ea218d8bcf50b796d86af1acf3139f54"}, {"rental_uris": {"android": "https://dc.lft.to/lastmile_qr_scan", "ios": "https://dc.lft.to/lastmile_qr_scan"}, "name": "95af5a3e93497f052bd18131f04020ea", "fusion_lat": 0.0, "lon": -76.98663933333333, "is_disabled": 0, "is_reserved": 0, "fusion_lon": 0.0, "lat": 38.855604666666665, "type": "electric_scooter", "bike_id": "95af5a3e93497f052bd18131f04020ea"}, {"rental_uris": {"android": "https://dc.lft.to/lastmile_qr_scan", "ios": "https://dc.lft.to/lastmile_qr_scan"}, "name": "a305364938ffb3feb8132a9705a75e7e", "fusion_lat": 0.0, "lon": -77.027708, "is_disabled": 0, "is_reserved": 0, "fusion_lon": 0.0, "lat": 38.929838833333335, "type": "electric_scooter", "bike_id": "a305364938ffb3feb8132a9705a75e7e"}, {"rental_uris": {"android": "https://dc.lft.to/lastmile_qr_scan", "ios": "https://dc.lft.to/lastmile_qr_scan"}, "name": "58356c89cf6435aedafcd3ca5d233000", "fusion_lat": 0.0, "lon": -77.024139, "is_disabled": 0, "is_reserved": 0, "fusion_lon": 0.0, "lat": 38.892298, "type": "electric_scooter", "bike_id": "58356c89cf6435aedafcd3ca5d233000"}, {"rental_uris": {"android": "https://dc.lft.to/lastmile_qr_scan", "ios": "https://dc.lft.to/lastmile_qr_scan"}, "name": "64690eff7aa64083ca3d44fb9c6454d9", "fusion_lat": 0.0, "lon": -77.0616275, "is_disabled": 0, "is_reserved": 0, "fusion_lon": 0.0, "lat": 38.94221866666667, "type": "electric_scooter", "bike_id": "64690eff7aa64083ca3d44fb9c6454d9"}, {"rental_uris": {"android": "https://dc.lft.to/lastmile_qr_scan", "ios": "https://dc.lft.to/lastmile_qr_scan"}, "name": "9c4ff834f47535f7d92a3d31b525fdc8", "fusion_lat": 0.0, "lon": -76.98774216666666, "is_disabled": 0, "is_reserved": 0, "fusion_lon": 0.0, "lat": 38.91202466666667, "type": "electric_scooter", "bike_id": "9c4ff834f47535f7d92a3d31b525fdc8"}, {"rental_uris": {"android": "https://dc.lft.to/lastmile_qr_scan", "ios": "https://dc.lft.to/lastmile_qr_scan"}, "name": "b88f67d350f35b4d20e5cd6b9f2c5a9b", "fusion_lat": 0.0, "lon": -77.00774966666667, "is_disabled": 0, "is_reserved": 0, "fusion_lon": 0.0, "lat": 38.9004905, "type": "electric_scooter", "bike_id": "b88f67d350f35b4d20e5cd6b9f2c5a9b"}, {"rental_uris": {"android": "https://dc.lft.to/lastmile_qr_scan", "ios": "https://dc.lft.to/lastmile_qr_scan"}, "name": "f1938823913a3bd3e02060bccdbf7e16", "fusion_lat": 0.0, "lon": -77.01589416666667, "is_disabled": 0, "is_reserved": 0, "fusion_lon": 0.0, "lat": 38.89730516666667, "type": "electric_scooter", "bike_id": "f1938823913a3bd3e02060bccdbf7e16"}, {"rental_uris": {"android": "https://dc.lft.to/lastmile_qr_scan", "ios": "https://dc.lft.to/lastmile_qr_scan"}, "name": "af1ad37bb97c3ee836aa640fdb4d3b39", "fusion_lat": 0.0, "lon": -76.94124966666666, "is_disabled": 0, "is_reserved": 0, "fusion_lon": 0.0, "lat": 38.907954, "type": "electric_scooter", "bike_id": "af1ad37bb97c3ee836aa640fdb4d3b39"}, {"rental_uris": {"android": "https://dc.lft.to/lastmile_qr_scan", "ios": "https://dc.lft.to/lastmile_qr_scan"}, "name": "481fa02c739d84833521d35a58991d50", "fusion_lat": 0.0, "lon": -76.93159616666667, "is_disabled": 0, "is_reserved": 0, "fusion_lon": 0.0, "lat": 38.898800666666666, "type": "electric_scooter", "bike_id": "481fa02c739d84833521d35a58991d50"}, {"rental_uris": {"android": "https://dc.lft.to/lastmile_qr_scan", "ios": "https://dc.lft.to/lastmile_qr_scan"}, "name": "6d0145148085e9c0239da78978b594d7", "fusion_lat": 0.0, "lon": -77.00481266666667, "is_disabled": 0, "is_reserved": 0, "fusion_lon": 0.0, "lat": 38.9259455, "type": "electric_scooter", "bike_id": "6d0145148085e9c0239da78978b594d7"}, {"rental_uris": {"android": "https://dc.lft.to/lastmile_qr_scan", "ios": "https://dc.lft.to/lastmile_qr_scan"}, "name": "3aa7027cb085c74d8e3fe530724e05e1", "fusion_lat": 0.0, "lon": -77.0074205, "is_disabled": 0, "is_reserved": 0, "fusion_lon": 0.0, "lat": 38.876516333333335, "type": "electric_scooter", "bike_id": "3aa7027cb085c74d8e3fe530724e05e1"}, {"rental_uris": {"android": "https://dc.lft.to/lastmile_qr_scan", "ios": "https://dc.lft.to/lastmile_qr_scan"}, "name": "b476f1d7d552efe163fb6e74d9b890e9", "fusion_lat": 0.0, "lon": -77.02550483333333, "is_disabled": 0, "is_reserved": 0, "fusion_lon": 0.0, "lat": 38.923967166666664, "type": "electric_scooter", "bike_id": "b476f1d7d552efe163fb6e74d9b890e9"}, {"rental_uris": {"android": "https://dc.lft.to/lastmile_qr_scan", "ios": "https://dc.lft.to/lastmile_qr_scan"}, "name": "c4861f672fd9171d13ba363500bd84f8", "fusion_lat": 0.0, "lon": -76.98200616666666, "is_disabled": 0, "is_reserved": 0, "fusion_lon": 0.0, "lat": 38.9850155, "type": "electric_bike", "bike_id": "c4861f672fd9171d13ba363500bd84f8"}, {"rental_uris": {"android": "https://dc.lft.to/lastmile_qr_scan", "ios": "https://dc.lft.to/lastmile_qr_scan"}, "name": "e473a4f93221026e6ac6969885855843", "fusion_lat": 0.0, "lon": -77.01740816666667, "is_disabled": 0, "is_reserved": 0, "fusion_lon": 0.0, "lat": 38.9027785, "type": "electric_scooter", "bike_id": "e473a4f93221026e6ac6969885855843"}, {"rental_uris": {"android": "https://dc.lft.to/lastmile_qr_scan", "ios": "https://dc.lft.to/lastmile_qr_scan"}, "name": "1bc173ea2362d1bff1b1168a69aba85d", "fusion_lat": 0.0, "lon": -76.99785033333333, "is_disabled": 0, "is_reserved": 0, "fusion_lon": 0.0, "lat": 38.9532625, "type": "electric_scooter", "bike_id": "1bc173ea2362d1bff1b1168a69aba85d"}, {"rental_uris": {"android": "https://dc.lft.to/lastmile_qr_scan", "ios": "https://dc.lft.to/lastmile_qr_scan"}, "name": "e23d9d8c0a0407a08718fd29391d2d0c", "fusion_lat": 0.0, "lon": -77.02689416666666, "is_disabled": 0, "is_reserved": 0, "fusion_lon": 0.0, "lat": 38.909738833333336, "type": "electric_scooter", "bike_id": "e23d9d8c0a0407a08718fd29391d2d0c"}, {"rental_uris": {"android": "https://dc.lft.to/lastmile_qr_scan", "ios": "https://dc.lft.to/lastmile_qr_scan"}, "name": "5448485df0d3ce76a663e3a1442f791e", "fusion_lat": 0.0, "lon": -77.03861066666667, "is_disabled": 0, "is_reserved": 0, "fusion_lon": 0.0, "lat": 38.918069833333334, "type": "electric_scooter", "bike_id": "5448485df0d3ce76a663e3a1442f791e"}, {"rental_uris": {"android": "https://dc.lft.to/lastmile_qr_scan", "ios": "https://dc.lft.to/lastmile_qr_scan"}, "name": "836f05d9aced5d25e5bbb463007b1c91", "fusion_lat": 0.0, "lon": -77.03261233333333, "is_disabled": 0, "is_reserved": 0, "fusion_lon": 0.0, "lat": 38.932068666666666, "type": "electric_scooter", "bike_id": "836f05d9aced5d25e5bbb463007b1c91"}, {"rental_uris": {"android": "https://dc.lft.to/lastmile_qr_scan", "ios": "https://dc.lft.to/lastmile_qr_scan"}, "name": "45bc4092cf21327013b1c3b6d828188c", "fusion_lat": 0.0, "lon": -77.04352833333333, "is_disabled": 0, "is_reserved": 0, "fusion_lon": 0.0, "lat": 38.923190166666664, "type": "electric_scooter", "bike_id": "45bc4092cf21327013b1c3b6d828188c"}, {"rental_uris": {"android": "https://dc.lft.to/lastmile_qr_scan", "ios": "https://dc.lft.to/lastmile_qr_scan"}, "name": "dfe86b05d75427884b887ab70ca49454", "fusion_lat": 0.0, "lon": -77.03161283333333, "is_disabled": 0, "is_reserved": 0, "fusion_lon": 0.0, "lat": 38.92718683333333, "type": "electric_scooter", "bike_id": "dfe86b05d75427884b887ab70ca49454"}, {"rental_uris": {"android": "https://dc.lft.to/lastmile_qr_scan", "ios": "https://dc.lft.to/lastmile_qr_scan"}, "name": "c83eaa503276ff1b7ee7c98b2c1bfcf2", "fusion_lat": 0.0, "lon": -76.93412966666666, "is_disabled": 0, "is_reserved": 0, "fusion_lon": 0.0, "lat": 38.946231833333336, "type": "electric_bike", "bike_id": "c83eaa503276ff1b7ee7c98b2c1bfcf2"}, {"rental_uris": {"android": "https://dc.lft.to/lastmile_qr_scan", "ios": "https://dc.lft.to/lastmile_qr_scan"}, "name": "4eccf0bd5fc44d6510474d25c5c80877", "fusion_lat": 0.0, "lon": -77.012549, "is_disabled": 0, "is_reserved": 0, "fusion_lon": 0.0, "lat": 38.876304, "type": "electric_scooter", "bike_id": "4eccf0bd5fc44d6510474d25c5c80877"}, {"rental_uris": {"android": "https://dc.lft.to/lastmile_qr_scan", "ios": "https://dc.lft.to/lastmile_qr_scan"}, "name": "e06e37e50d7bfe8701cf179e27e8f2f9", "fusion_lat": 0.0, "lon": -77.03274566666667, "is_disabled": 0, "is_reserved": 0, "fusion_lon": 0.0, "lat": 38.9309695, "type": "electric_scooter", "bike_id": "e06e37e50d7bfe8701cf179e27e8f2f9"}, {"rental_uris": {"android": "https://dc.lft.to/lastmile_qr_scan", "ios": "https://dc.lft.to/lastmile_qr_scan"}, "name": "1121c8c60a5ddb12f84adc95a98e5157", "fusion_lat": 0.0, "lon": -77.00580516666666, "is_disabled": 0, "is_reserved": 0, "fusion_lon": 0.0, "lat": 38.88537866666667, "type": "electric_scooter", "bike_id": "1121c8c60a5ddb12f84adc95a98e5157"}, {"rental_uris": {"android": "https://dc.lft.to/lastmile_qr_scan", "ios": "https://dc.lft.to/lastmile_qr_scan"}, "name": "559eaccd632c7ec51cc63ee44c446481", "fusion_lat": 0.0, "lon": -76.92402816666667, "is_disabled": 0, "is_reserved": 0, "fusion_lon": 0.0, "lat": 38.889893, "type": "electric_scooter", "bike_id": "559eaccd632c7ec51cc63ee44c446481"}, {"rental_uris": {"android": "https://dc.lft.to/lastmile_qr_scan", "ios": "https://dc.lft.to/lastmile_qr_scan"}, "name": "9970a82900e37c83d45c007b07c5840c", "fusion_lat": 0.0, "lon": -77.02954666666666, "is_disabled": 0, "is_reserved": 0, "fusion_lon": 0.0, "lat": 38.893274166666664, "type": "electric_scooter", "bike_id": "9970a82900e37c83d45c007b07c5840c"}, {"rental_uris": {"android": "https://dc.lft.to/lastmile_qr_scan", "ios": "https://dc.lft.to/lastmile_qr_scan"}, "name": "271d46833973ae325772673562f68907", "fusion_lat": 0.0, "lon": -77.0058335, "is_disabled": 0, "is_reserved": 0, "fusion_lon": 0.0, "lat": 38.885367, "type": "electric_scooter", "bike_id": "271d46833973ae325772673562f68907"}, {"rental_uris": {"android": "https://dc.lft.to/lastmile_qr_scan", "ios": "https://dc.lft.to/lastmile_qr_scan"}, "name": "b6d523add555222df35e635e946a558c", "fusion_lat": 0.0, "lon": -76.990563, "is_disabled": 0, "is_reserved": 0, "fusion_lon": 0.0, "lat": 38.863594166666665, "type": "electric_scooter", "bike_id": "b6d523add555222df35e635e946a558c"}, {"rental_uris": {"android": "https://dc.lft.to/lastmile_qr_scan", "ios": "https://dc.lft.to/lastmile_qr_scan"}, "name": "1d21675e993fac8d2cf2a4383074fd41", "fusion_lat": 0.0, "lon": -77.04333933333334, "is_disabled": 0, "is_reserved": 0, "fusion_lon": 0.0, "lat": 38.90895733333333, "type": "electric_scooter", "bike_id": "1d21675e993fac8d2cf2a4383074fd41"}, {"rental_uris": {"android": "https://dc.lft.to/lastmile_qr_scan", "ios": "https://dc.lft.to/lastmile_qr_scan"}, "name": "38e28b7b2b386b26c2e6898836fce772", "fusion_lat": 0.0, "lon": -77.03958166666666, "is_disabled": 0, "is_reserved": 0, "fusion_lon": 0.0, "lat": 38.901970166666665, "type": "electric_scooter", "bike_id": "38e28b7b2b386b26c2e6898836fce772"}, {"rental_uris": {"android": "https://dc.lft.to/lastmile_qr_scan", "ios": "https://dc.lft.to/lastmile_qr_scan"}, "name": "6c2cf0c8105c4b056ba43c737fcb8851", "fusion_lat": 0.0, "lon": -77.02751066666667, "is_disabled": 0, "is_reserved": 0, "fusion_lon": 0.0, "lat": 38.932016, "type": "electric_scooter", "bike_id": "6c2cf0c8105c4b056ba43c737fcb8851"}, {"rental_uris": {"android": "https://dc.lft.to/lastmile_qr_scan", "ios": "https://dc.lft.to/lastmile_qr_scan"}, "name": "992e9c7b07e5525b322a5e4e732b3072", "fusion_lat": 0.0, "lon": -77.033278, "is_disabled": 0, "is_reserved": 0, "fusion_lon": 0.0, "lat": 38.9162445, "type": "electric_scooter", "bike_id": "992e9c7b07e5525b322a5e4e732b3072"}, {"rental_uris": {"android": "https://dc.lft.to/lastmile_qr_scan", "ios": "https://dc.lft.to/lastmile_qr_scan"}, "name": "409f280f05d09fba233b3fc962d0bbef", "fusion_lat": 0.0, "lon": -77.045536, "is_disabled": 0, "is_reserved": 0, "fusion_lon": 0.0, "lat": 38.90737633333333, "type": "electric_scooter", "bike_id": "409f280f05d09fba233b3fc962d0bbef"}, {"rental_uris": {"android": "https://dc.lft.to/lastmile_qr_scan", "ios": "https://dc.lft.to/lastmile_qr_scan"}, "name": "08e56a47394e632e82b927c11c4b738c", "fusion_lat": 0.0, "lon": -77.031671, "is_disabled": 0, "is_reserved": 0, "fusion_lon": 0.0, "lat": 38.89731966666667, "type": "electric_scooter", "bike_id": "08e56a47394e632e82b927c11c4b738c"}, {"rental_uris": {"android": "https://dc.lft.to/lastmile_qr_scan", "ios": "https://dc.lft.to/lastmile_qr_scan"}, "name": "1fd9f5ec44c41b98a048b8132fbab691", "fusion_lat": 0.0, "lon": -77.00732616666667, "is_disabled": 0, "is_reserved": 0, "fusion_lon": 0.0, "lat": 38.87696583333334, "type": "electric_scooter", "bike_id": "1fd9f5ec44c41b98a048b8132fbab691"}, {"rental_uris": {"android": "https://dc.lft.to/lastmile_qr_scan", "ios": "https://dc.lft.to/lastmile_qr_scan"}, "name": "c41b54efc2cfb3ffb72cb53ead6c8154", "fusion_lat": 0.0, "lon": -77.004497, "is_disabled": 0, "is_reserved": 0, "fusion_lon": 0.0, "lat": 38.889705166666666, "type": "electric_scooter", "bike_id": "c41b54efc2cfb3ffb72cb53ead6c8154"}, {"rental_uris": {"android": "https://dc.lft.to/lastmile_qr_scan", "ios": "https://dc.lft.to/lastmile_qr_scan"}, "name": "71eec87ba297eea14449e7c180c5c1b3", "fusion_lat": 0.0, "lon": -77.03857383333333, "is_disabled": 0, "is_reserved": 0, "fusion_lon": 0.0, "lat": 38.909524833333336, "type": "electric_scooter", "bike_id": "71eec87ba297eea14449e7c180c5c1b3"}, {"rental_uris": {"android": "https://dc.lft.to/lastmile_qr_scan", "ios": "https://dc.lft.to/lastmile_qr_scan"}, "name": "04c43682d84600f7996d94fb87ce9276", "fusion_lat": 0.0, "lon": -77.06024666666667, "is_disabled": 0, "is_reserved": 0, "fusion_lon": 0.0, "lat": 38.93936433333333, "type": "electric_scooter", "bike_id": "04c43682d84600f7996d94fb87ce9276"}, {"rental_uris": {"android": "https://dc.lft.to/lastmile_qr_scan", "ios": "https://dc.lft.to/lastmile_qr_scan"}, "name": "bb9fffbd4e9cfdcc578c726004dea1e7", "fusion_lat": 0.0, "lon": -76.9412065, "is_disabled": 0, "is_reserved": 0, "fusion_lon": 0.0, "lat": 38.907963, "type": "electric_scooter", "bike_id": "bb9fffbd4e9cfdcc578c726004dea1e7"}, {"rental_uris": {"android": "https://dc.lft.to/lastmile_qr_scan", "ios": "https://dc.lft.to/lastmile_qr_scan"}, "name": "2a07a5a66ff78d38d314d896d111a464", "fusion_lat": 0.0, "lon": -77.02757766666667, "is_disabled": 0, "is_reserved": 0, "fusion_lon": 0.0, "lat": 38.9541665, "type": "electric_scooter", "bike_id": "2a07a5a66ff78d38d314d896d111a464"}, {"rental_uris": {"android": "https://dc.lft.to/lastmile_qr_scan", "ios": "https://dc.lft.to/lastmile_qr_scan"}, "name": "1a399a7594e5dde66b461363fb53b06d", "fusion_lat": 0.0, "lon": -77.03299416666667, "is_disabled": 0, "is_reserved": 0, "fusion_lon": 0.0, "lat": 38.899126333333335, "type": "electric_scooter", "bike_id": "1a399a7594e5dde66b461363fb53b06d"}, {"rental_uris": {"android": "https://dc.lft.to/lastmile_qr_scan", "ios": "https://dc.lft.to/lastmile_qr_scan"}, "name": "cfdf9571d2a1b088e5411e349f3babfa", "fusion_lat": 0.0, "lon": -77.05152266666667, "is_disabled": 0, "is_reserved": 0, "fusion_lon": 0.0, "lat": 38.904417333333335, "type": "electric_scooter", "bike_id": "cfdf9571d2a1b088e5411e349f3babfa"}, {"rental_uris": {"android": "https://dc.lft.to/lastmile_qr_scan", "ios": "https://dc.lft.to/lastmile_qr_scan"}, "name": "15f3a51568d262ad0e40cb6e07c46790", "fusion_lat": 0.0, "lon": -77.006927, "is_disabled": 0, "is_reserved": 0, "fusion_lon": 0.0, "lat": 38.895997666666666, "type": "electric_scooter", "bike_id": "15f3a51568d262ad0e40cb6e07c46790"}, {"rental_uris": {"android": "https://dc.lft.to/lastmile_qr_scan", "ios": "https://dc.lft.to/lastmile_qr_scan"}, "name": "06db5906f322a67ec680eb51a3a1e67c", "fusion_lat": 0.0, "lon": -77.0424415, "is_disabled": 0, "is_reserved": 0, "fusion_lon": 0.0, "lat": 38.94547516666667, "type": "electric_scooter", "bike_id": "06db5906f322a67ec680eb51a3a1e67c"}, {"rental_uris": {"android": "https://dc.lft.to/lastmile_qr_scan", "ios": "https://dc.lft.to/lastmile_qr_scan"}, "name": "a393f12906abe399af5491a38161db68", "fusion_lat": 0.0, "lon": -77.063958, "is_disabled": 0, "is_reserved": 0, "fusion_lon": 0.0, "lat": 38.929148166666664, "type": "electric_scooter", "bike_id": "a393f12906abe399af5491a38161db68"}, {"rental_uris": {"android": "https://dc.lft.to/lastmile_qr_scan", "ios": "https://dc.lft.to/lastmile_qr_scan"}, "name": "d3a73f09e4f070e9304863afadf59f53", "fusion_lat": 0.0, "lon": -77.02305383333334, "is_disabled": 0, "is_reserved": 0, "fusion_lon": 0.0, "lat": 38.916155333333336, "type": "electric_scooter", "bike_id": "d3a73f09e4f070e9304863afadf59f53"}, {"rental_uris": {"android": "https://dc.lft.to/lastmile_qr_scan", "ios": "https://dc.lft.to/lastmile_qr_scan"}, "name": "14137320ff5f2a7bdeb2b85f844a20d1", "fusion_lat": 0.0, "lon": -77.027202, "is_disabled": 0, "is_reserved": 0, "fusion_lon": 0.0, "lat": 38.917672833333334, "type": "electric_scooter", "bike_id": "14137320ff5f2a7bdeb2b85f844a20d1"}, {"rental_uris": {"android": "https://dc.lft.to/lastmile_qr_scan", "ios": "https://dc.lft.to/lastmile_qr_scan"}, "name": "a04a862d6a02a88446e33a84a8c9b4d0", "fusion_lat": 0.0, "lon": -77.0364345, "is_disabled": 0, "is_reserved": 0, "fusion_lon": 0.0, "lat": 38.912764333333335, "type": "electric_scooter", "bike_id": "a04a862d6a02a88446e33a84a8c9b4d0"}, {"rental_uris": {"android": "https://dc.lft.to/lastmile_qr_scan", "ios": "https://dc.lft.to/lastmile_qr_scan"}, "name": "82120ae59328891731eb9167b7f19054", "fusion_lat": 0.0, "lon": -76.93673333333334, "is_disabled": 0, "is_reserved": 0, "fusion_lon": 0.0, "lat": 38.8875335, "type": "electric_scooter", "bike_id": "82120ae59328891731eb9167b7f19054"}, {"rental_uris": {"android": "https://dc.lft.to/lastmile_qr_scan", "ios": "https://dc.lft.to/lastmile_qr_scan"}, "name": "09106fcd91be7a428888a3b1e90699b6", "fusion_lat": 0.0, "lon": -77.03761933333334, "is_disabled": 0, "is_reserved": 0, "fusion_lon": 0.0, "lat": 38.91694283333333, "type": "electric_scooter", "bike_id": "09106fcd91be7a428888a3b1e90699b6"}, {"rental_uris": {"android": "https://dc.lft.to/lastmile_qr_scan", "ios": "https://dc.lft.to/lastmile_qr_scan"}, "name": "164b0430d50913e213bc04409b0fa039", "fusion_lat": 0.0, "lon": -77.0307055, "is_disabled": 0, "is_reserved": 0, "fusion_lon": 0.0, "lat": 38.907474, "type": "electric_scooter", "bike_id": "164b0430d50913e213bc04409b0fa039"}, {"rental_uris": {"android": "https://dc.lft.to/lastmile_qr_scan", "ios": "https://dc.lft.to/lastmile_qr_scan"}, "name": "615d00df1e554b63e7501d10e84f12a4", "fusion_lat": 0.0, "lon": -77.04003316666666, "is_disabled": 0, "is_reserved": 0, "fusion_lon": 0.0, "lat": 38.93258616666667, "type": "electric_scooter", "bike_id": "615d00df1e554b63e7501d10e84f12a4"}, {"rental_uris": {"android": "https://dc.lft.to/lastmile_qr_scan", "ios": "https://dc.lft.to/lastmile_qr_scan"}, "name": "ba2ac4aba21eef87fb1f2ca0576a4922", "fusion_lat": 0.0, "lon": -77.03217816666667, "is_disabled": 0, "is_reserved": 0, "fusion_lon": 0.0, "lat": 38.928770666666665, "type": "electric_scooter", "bike_id": "ba2ac4aba21eef87fb1f2ca0576a4922"}, {"rental_uris": {"android": "https://dc.lft.to/lastmile_qr_scan", "ios": "https://dc.lft.to/lastmile_qr_scan"}, "name": "133a166951cf6e6a09e6046010a7fb95", "fusion_lat": 0.0, "lon": -77.050062, "is_disabled": 0, "is_reserved": 0, "fusion_lon": 0.0, "lat": 38.8954345, "type": "electric_scooter", "bike_id": "133a166951cf6e6a09e6046010a7fb95"}, {"rental_uris": {"android": "https://dc.lft.to/lastmile_qr_scan", "ios": "https://dc.lft.to/lastmile_qr_scan"}, "name": "83fd3132b5fedc4f96e3a20916938b1c", "fusion_lat": 0.0, "lon": -76.99636916666667, "is_disabled": 0, "is_reserved": 0, "fusion_lon": 0.0, "lat": 38.84625116666667, "type": "electric_scooter", "bike_id": "83fd3132b5fedc4f96e3a20916938b1c"}, {"rental_uris": {"android": "https://dc.lft.to/lastmile_qr_scan", "ios": "https://dc.lft.to/lastmile_qr_scan"}, "name": "ccd6e9a616670fa95036c1cf5fff1bfb", "fusion_lat": 0.0, "lon": -77.02116366666667, "is_disabled": 0, "is_reserved": 0, "fusion_lon": 0.0, "lat": 38.94099516666667, "type": "electric_scooter", "bike_id": "ccd6e9a616670fa95036c1cf5fff1bfb"}, {"rental_uris": {"android": "https://dc.lft.to/lastmile_qr_scan", "ios": "https://dc.lft.to/lastmile_qr_scan"}, "name": "15e58f1dc1491fdf2c89d736de978717", "fusion_lat": 0.0, "lon": -76.965077, "is_disabled": 0, "is_reserved": 0, "fusion_lon": 0.0, "lat": 38.876455666666665, "type": "electric_scooter", "bike_id": "15e58f1dc1491fdf2c89d736de978717"}, {"rental_uris": {"android": "https://dc.lft.to/lastmile_qr_scan", "ios": "https://dc.lft.to/lastmile_qr_scan"}, "name": "7bca37d7c1f5ef64a6246de13bed6176", "fusion_lat": 0.0, "lon": -77.02512033333333, "is_disabled": 0, "is_reserved": 0, "fusion_lon": 0.0, "lat": 38.899818333333336, "type": "electric_scooter", "bike_id": "7bca37d7c1f5ef64a6246de13bed6176"}, {"rental_uris": {"android": "https://dc.lft.to/lastmile_qr_scan", "ios": "https://dc.lft.to/lastmile_qr_scan"}, "name": "2d3f25f9d3bdc03c262b636698a4cb67", "fusion_lat": 0.0, "lon": -77.04406116666667, "is_disabled": 0, "is_reserved": 0, "fusion_lon": 0.0, "lat": 38.9295135, "type": "electric_scooter", "bike_id": "2d3f25f9d3bdc03c262b636698a4cb67"}, {"rental_uris": {"android": "https://dc.lft.to/lastmile_qr_scan", "ios": "https://dc.lft.to/lastmile_qr_scan"}, "name": "ff3d074f36b21d4a2ae79a446ff1d9cd", "fusion_lat": 0.0, "lon": -77.03273933333334, "is_disabled": 0, "is_reserved": 0, "fusion_lon": 0.0, "lat": 38.9344175, "type": "electric_scooter", "bike_id": "ff3d074f36b21d4a2ae79a446ff1d9cd"}, {"rental_uris": {"android": "https://dc.lft.to/lastmile_qr_scan", "ios": "https://dc.lft.to/lastmile_qr_scan"}, "name": "943d90b4d23ddd31c09df244a3638039", "fusion_lat": 0.0, "lon": -77.04680716666667, "is_disabled": 0, "is_reserved": 0, "fusion_lon": 0.0, "lat": 38.900796666666665, "type": "electric_scooter", "bike_id": "943d90b4d23ddd31c09df244a3638039"}, {"rental_uris": {"android": "https://dc.lft.to/lastmile_qr_scan", "ios": "https://dc.lft.to/lastmile_qr_scan"}, "name": "7cede7a0cca399b304040cf6e21f9c0a", "fusion_lat": 0.0, "lon": -77.029038, "is_disabled": 0, "is_reserved": 0, "fusion_lon": 0.0, "lat": 38.903262, "type": "electric_scooter", "bike_id": "7cede7a0cca399b304040cf6e21f9c0a"}, {"rental_uris": {"android": "https://dc.lft.to/lastmile_qr_scan", "ios": "https://dc.lft.to/lastmile_qr_scan"}, "name": "4ef4cde77d7e994d1920cf25eef97ed3", "fusion_lat": 0.0, "lon": -77.00053533333333, "is_disabled": 0, "is_reserved": 0, "fusion_lon": 0.0, "lat": 38.876332166666664, "type": "electric_scooter", "bike_id": "4ef4cde77d7e994d1920cf25eef97ed3"}, {"rental_uris": {"android": "https://dc.lft.to/lastmile_qr_scan", "ios": "https://dc.lft.to/lastmile_qr_scan"}, "name": "b0904097352dbe97def3eee0c69728ef", "fusion_lat": 0.0, "lon": -77.0316125, "is_disabled": 0, "is_reserved": 0, "fusion_lon": 0.0, "lat": 38.929052666666664, "type": "electric_scooter", "bike_id": "b0904097352dbe97def3eee0c69728ef"}, {"rental_uris": {"android": "https://dc.lft.to/lastmile_qr_scan", "ios": "https://dc.lft.to/lastmile_qr_scan"}, "name": "1a0f888c70adf627c7564a7709734bf3", "fusion_lat": 0.0, "lon": -76.97427733333333, "is_disabled": 0, "is_reserved": 0, "fusion_lon": 0.0, "lat": 38.86401016666667, "type": "electric_scooter", "bike_id": "1a0f888c70adf627c7564a7709734bf3"}, {"rental_uris": {"android": "https://dc.lft.to/lastmile_qr_scan", "ios": "https://dc.lft.to/lastmile_qr_scan"}, "name": "7aa223e9716789112e63e52bb5b391d7", "fusion_lat": 0.0, "lon": -77.03818733333334, "is_disabled": 0, "is_reserved": 0, "fusion_lon": 0.0, "lat": 38.90688166666666, "type": "electric_scooter", "bike_id": "7aa223e9716789112e63e52bb5b391d7"}, {"rental_uris": {"android": "https://dc.lft.to/lastmile_qr_scan", "ios": "https://dc.lft.to/lastmile_qr_scan"}, "name": "1311d9e0381b831d829c6ecb6b40d80e", "fusion_lat": 0.0, "lon": -77.02052083333334, "is_disabled": 0, "is_reserved": 0, "fusion_lon": 0.0, "lat": 38.941264833333335, "type": "electric_scooter", "bike_id": "1311d9e0381b831d829c6ecb6b40d80e"}, {"rental_uris": {"android": "https://dc.lft.to/lastmile_qr_scan", "ios": "https://dc.lft.to/lastmile_qr_scan"}, "name": "584e2fd1cf4fd8315ccacd93085f7c10", "fusion_lat": 0.0, "lon": -76.97499066666667, "is_disabled": 0, "is_reserved": 0, "fusion_lon": 0.0, "lat": 38.919302, "type": "electric_bike", "bike_id": "584e2fd1cf4fd8315ccacd93085f7c10"}, {"rental_uris": {"android": "https://dc.lft.to/lastmile_qr_scan", "ios": "https://dc.lft.to/lastmile_qr_scan"}, "name": "b1e333f5b0535cbc307a9ab4966c0779", "fusion_lat": 0.0, "lon": -77.03278833333333, "is_disabled": 0, "is_reserved": 0, "fusion_lon": 0.0, "lat": 38.898926, "type": "electric_scooter", "bike_id": "b1e333f5b0535cbc307a9ab4966c0779"}, {"rental_uris": {"android": "https://dc.lft.to/lastmile_qr_scan", "ios": "https://dc.lft.to/lastmile_qr_scan"}, "name": "54763b0741d398349a8391c88602040a", "fusion_lat": 0.0, "lon": -77.08433583333333, "is_disabled": 0, "is_reserved": 0, "fusion_lon": 0.0, "lat": 38.8102695, "type": "electric_bike", "bike_id": "54763b0741d398349a8391c88602040a"}, {"rental_uris": {"android": "https://dc.lft.to/lastmile_qr_scan", "ios": "https://dc.lft.to/lastmile_qr_scan"}, "name": "d25644a5540aa00fcc3f66dac03d01d5", "fusion_lat": 0.0, "lon": -76.99153516666667, "is_disabled": 0, "is_reserved": 0, "fusion_lon": 0.0, "lat": 38.8867745, "type": "electric_scooter", "bike_id": "d25644a5540aa00fcc3f66dac03d01d5"}, {"rental_uris": {"android": "https://dc.lft.to/lastmile_qr_scan", "ios": "https://dc.lft.to/lastmile_qr_scan"}, "name": "cf4f86e8963af697cfb99c77f5065470", "fusion_lat": 0.0, "lon": -77.043315, "is_disabled": 0, "is_reserved": 0, "fusion_lon": 0.0, "lat": 38.908809166666664, "type": "electric_scooter", "bike_id": "cf4f86e8963af697cfb99c77f5065470"}, {"rental_uris": {"android": "https://dc.lft.to/lastmile_qr_scan", "ios": "https://dc.lft.to/lastmile_qr_scan"}, "name": "f52bff5ab09d84503d8d3947d7b52ee8", "fusion_lat": 0.0, "lon": -77.0365485, "is_disabled": 0, "is_reserved": 0, "fusion_lon": 0.0, "lat": 38.942030833333334, "type": "electric_scooter", "bike_id": "f52bff5ab09d84503d8d3947d7b52ee8"}, {"rental_uris": {"android": "https://dc.lft.to/lastmile_qr_scan", "ios": "https://dc.lft.to/lastmile_qr_scan"}, "name": "643a458bb6891a7ef116cb5b0dea4bee", "fusion_lat": 0.0, "lon": -76.97930633333333, "is_disabled": 0, "is_reserved": 0, "fusion_lon": 0.0, "lat": 38.90247266666667, "type": "electric_scooter", "bike_id": "643a458bb6891a7ef116cb5b0dea4bee"}, {"rental_uris": {"android": "https://dc.lft.to/lastmile_qr_scan", "ios": "https://dc.lft.to/lastmile_qr_scan"}, "name": "44b5d84ffb990ba0b7fb5930e3220035", "fusion_lat": 0.0, "lon": -77.03192416666667, "is_disabled": 0, "is_reserved": 0, "fusion_lon": 0.0, "lat": 38.90354033333333, "type": "electric_scooter", "bike_id": "44b5d84ffb990ba0b7fb5930e3220035"}, {"rental_uris": {"android": "https://dc.lft.to/lastmile_qr_scan", "ios": "https://dc.lft.to/lastmile_qr_scan"}, "name": "a27dfedb67a607de895a994df969a205", "fusion_lat": 0.0, "lon": -76.98832633333333, "is_disabled": 0, "is_reserved": 0, "fusion_lon": 0.0, "lat": 38.9004255, "type": "electric_scooter", "bike_id": "a27dfedb67a607de895a994df969a205"}, {"rental_uris": {"android": "https://dc.lft.to/lastmile_qr_scan", "ios": "https://dc.lft.to/lastmile_qr_scan"}, "name": "42c5a5ba941834682a8fd2749bccf241", "fusion_lat": 0.0, "lon": -77.02619516666667, "is_disabled": 0, "is_reserved": 0, "fusion_lon": 0.0, "lat": 38.91858033333333, "type": "electric_scooter", "bike_id": "42c5a5ba941834682a8fd2749bccf241"}, {"rental_uris": {"android": "https://dc.lft.to/lastmile_qr_scan", "ios": "https://dc.lft.to/lastmile_qr_scan"}, "name": "c5542bc85e03e1dfd9e22a09e567faa7", "fusion_lat": 0.0, "lon": -76.98456733333333, "is_disabled": 0, "is_reserved": 0, "fusion_lon": 0.0, "lat": 38.880188, "type": "electric_scooter", "bike_id": "c5542bc85e03e1dfd9e22a09e567faa7"}, {"rental_uris": {"android": "https://dc.lft.to/lastmile_qr_scan", "ios": "https://dc.lft.to/lastmile_qr_scan"}, "name": "16fe8afae3fc33bc85e48bc3c3ff237f", "fusion_lat": 0.0, "lon": -77.05330066666667, "is_disabled": 0, "is_reserved": 0, "fusion_lon": 0.0, "lat": 38.90998366666667, "type": "electric_scooter", "bike_id": "16fe8afae3fc33bc85e48bc3c3ff237f"}, {"rental_uris": {"android": "https://dc.lft.to/lastmile_qr_scan", "ios": "https://dc.lft.to/lastmile_qr_scan"}, "name": "049c6f365ebc5ddf002bc4e71ca64b48", "fusion_lat": 0.0, "lon": -76.94721216666667, "is_disabled": 0, "is_reserved": 0, "fusion_lon": 0.0, "lat": 38.897319, "type": "electric_scooter", "bike_id": "049c6f365ebc5ddf002bc4e71ca64b48"}, {"rental_uris": {"android": "https://dc.lft.to/lastmile_qr_scan", "ios": "https://dc.lft.to/lastmile_qr_scan"}, "name": "eeb4faf3fc0a368139e0fd2faa599362", "fusion_lat": 0.0, "lon": -77.03634566666666, "is_disabled": 0, "is_reserved": 0, "fusion_lon": 0.0, "lat": 38.906828, "type": "electric_scooter", "bike_id": "eeb4faf3fc0a368139e0fd2faa599362"}, {"rental_uris": {"android": "https://dc.lft.to/lastmile_qr_scan", "ios": "https://dc.lft.to/lastmile_qr_scan"}, "name": "af72f00804052710bd4ddadc0436a982", "fusion_lat": 0.0, "lon": -77.032167, "is_disabled": 0, "is_reserved": 0, "fusion_lon": 0.0, "lat": 38.892224666666664, "type": "electric_scooter", "bike_id": "af72f00804052710bd4ddadc0436a982"}, {"rental_uris": {"android": "https://dc.lft.to/lastmile_qr_scan", "ios": "https://dc.lft.to/lastmile_qr_scan"}, "name": "fdd7734671019ab8d7da25668e66a539", "fusion_lat": 0.0, "lon": -77.03480666666667, "is_disabled": 0, "is_reserved": 0, "fusion_lon": 0.0, "lat": 38.93106516666667, "type": "electric_scooter", "bike_id": "fdd7734671019ab8d7da25668e66a539"}, {"rental_uris": {"android": "https://dc.lft.to/lastmile_qr_scan", "ios": "https://dc.lft.to/lastmile_qr_scan"}, "name": "b52ed6c825cb3d2492537faf8281c9da", "fusion_lat": 0.0, "lon": -77.03217466666666, "is_disabled": 0, "is_reserved": 0, "fusion_lon": 0.0, "lat": 38.88739733333333, "type": "electric_scooter", "bike_id": "b52ed6c825cb3d2492537faf8281c9da"}, {"rental_uris": {"android": "https://dc.lft.to/lastmile_qr_scan", "ios": "https://dc.lft.to/lastmile_qr_scan"}, "name": "4353a8e4aeb89ad515b4391311484f4d", "fusion_lat": 0.0, "lon": -77.03215033333333, "is_disabled": 0, "is_reserved": 0, "fusion_lon": 0.0, "lat": 38.97653966666667, "type": "electric_bike", "bike_id": "4353a8e4aeb89ad515b4391311484f4d"}, {"rental_uris": {"android": "https://dc.lft.to/lastmile_qr_scan", "ios": "https://dc.lft.to/lastmile_qr_scan"}, "name": "1c96bab29333174b3c2e435f033ab6ea", "fusion_lat": 0.0, "lon": -77.06785083333334, "is_disabled": 0, "is_reserved": 0, "fusion_lon": 0.0, "lat": 38.90521916666667, "type": "electric_scooter", "bike_id": "1c96bab29333174b3c2e435f033ab6ea"}, {"rental_uris": {"android": "https://dc.lft.to/lastmile_qr_scan", "ios": "https://dc.lft.to/lastmile_qr_scan"}, "name": "987bf6a8de39d7162f4c6de766fd13a4", "fusion_lat": 0.0, "lon": -77.04173533333334, "is_disabled": 0, "is_reserved": 0, "fusion_lon": 0.0, "lat": 38.913454333333334, "type": "electric_scooter", "bike_id": "987bf6a8de39d7162f4c6de766fd13a4"}, {"rental_uris": {"android": "https://dc.lft.to/lastmile_qr_scan", "ios": "https://dc.lft.to/lastmile_qr_scan"}, "name": "5043adafa976269749299e640bd545c2", "fusion_lat": 0.0, "lon": -76.909682, "is_disabled": 0, "is_reserved": 0, "fusion_lon": 0.0, "lat": 38.854328333333335, "type": "electric_bike", "bike_id": "5043adafa976269749299e640bd545c2"}, {"rental_uris": {"android": "https://dc.lft.to/lastmile_qr_scan", "ios": "https://dc.lft.to/lastmile_qr_scan"}, "name": "fbf3b4cb72562bda4729528cd1dd7821", "fusion_lat": 0.0, "lon": -76.93755916666667, "is_disabled": 0, "is_reserved": 0, "fusion_lon": 0.0, "lat": 38.890362833333334, "type": "electric_scooter", "bike_id": "fbf3b4cb72562bda4729528cd1dd7821"}, {"rental_uris": {"android": "https://dc.lft.to/lastmile_qr_scan", "ios": "https://dc.lft.to/lastmile_qr_scan"}, "name": "33d5a5908c16409ea539b22adc585bc4", "fusion_lat": 0.0, "lon": -77.01610166666667, "is_disabled": 0, "is_reserved": 0, "fusion_lon": 0.0, "lat": 38.899663833333335, "type": "electric_scooter", "bike_id": "33d5a5908c16409ea539b22adc585bc4"}, {"rental_uris": {"android": "https://dc.lft.to/lastmile_qr_scan", "ios": "https://dc.lft.to/lastmile_qr_scan"}, "name": "c84ae6e0147c829800d5e131d424fe09", "fusion_lat": 0.0, "lon": -77.0091885, "is_disabled": 0, "is_reserved": 0, "fusion_lon": 0.0, "lat": 38.896436, "type": "electric_scooter", "bike_id": "c84ae6e0147c829800d5e131d424fe09"}, {"rental_uris": {"android": "https://dc.lft.to/lastmile_qr_scan", "ios": "https://dc.lft.to/lastmile_qr_scan"}, "name": "067df4dc7dca702f56caea0a38472580", "fusion_lat": 0.0, "lon": -77.00340616666666, "is_disabled": 0, "is_reserved": 0, "fusion_lon": 0.0, "lat": 38.9226865, "type": "electric_scooter", "bike_id": "067df4dc7dca702f56caea0a38472580"}, {"rental_uris": {"android": "https://dc.lft.to/lastmile_qr_scan", "ios": "https://dc.lft.to/lastmile_qr_scan"}, "name": "d7a0b28e832e768c16ea74c30bee41af", "fusion_lat": 0.0, "lon": -77.06569266666666, "is_disabled": 0, "is_reserved": 0, "fusion_lon": 0.0, "lat": 38.9052125, "type": "electric_scooter", "bike_id": "d7a0b28e832e768c16ea74c30bee41af"}, {"rental_uris": {"android": "https://dc.lft.to/lastmile_qr_scan", "ios": "https://dc.lft.to/lastmile_qr_scan"}, "name": "bfb3a3865766d5488f4350d7e535f1e9", "fusion_lat": 0.0, "lon": -77.058432, "is_disabled": 0, "is_reserved": 0, "fusion_lon": 0.0, "lat": 38.905277166666664, "type": "electric_scooter", "bike_id": "bfb3a3865766d5488f4350d7e535f1e9"}, {"rental_uris": {"android": "https://dc.lft.to/lastmile_qr_scan", "ios": "https://dc.lft.to/lastmile_qr_scan"}, "name": "e5647ea41cc58e8daa5b2f8775950a99", "fusion_lat": 0.0, "lon": -77.04392783333333, "is_disabled": 0, "is_reserved": 0, "fusion_lon": 0.0, "lat": 38.92358733333333, "type": "electric_scooter", "bike_id": "e5647ea41cc58e8daa5b2f8775950a99"}, {"rental_uris": {"android": "https://dc.lft.to/lastmile_qr_scan", "ios": "https://dc.lft.to/lastmile_qr_scan"}, "name": "a749ca7854d59c81e72a14498958324a", "fusion_lat": 0.0, "lon": -77.04332866666667, "is_disabled": 0, "is_reserved": 0, "fusion_lon": 0.0, "lat": 38.9071965, "type": "electric_scooter", "bike_id": "a749ca7854d59c81e72a14498958324a"}, {"rental_uris": {"android": "https://dc.lft.to/lastmile_qr_scan", "ios": "https://dc.lft.to/lastmile_qr_scan"}, "name": "1ffbe2af09f7e7df12d806e2f68f6b4e", "fusion_lat": 0.0, "lon": -77.03814983333334, "is_disabled": 0, "is_reserved": 0, "fusion_lon": 0.0, "lat": 38.903737, "type": "electric_scooter", "bike_id": "1ffbe2af09f7e7df12d806e2f68f6b4e"}, {"rental_uris": {"android": "https://dc.lft.to/lastmile_qr_scan", "ios": "https://dc.lft.to/lastmile_qr_scan"}, "name": "8df040c4c768e0ccd6d9991cf33e6b0c", "fusion_lat": 0.0, "lon": -76.9477365, "is_disabled": 0, "is_reserved": 0, "fusion_lon": 0.0, "lat": 38.896774666666666, "type": "electric_scooter", "bike_id": "8df040c4c768e0ccd6d9991cf33e6b0c"}, {"rental_uris": {"android": "https://dc.lft.to/lastmile_qr_scan", "ios": "https://dc.lft.to/lastmile_qr_scan"}, "name": "4778fef2a2369c3c04ad4e0d587417c4", "fusion_lat": 0.0, "lon": -77.02714816666666, "is_disabled": 0, "is_reserved": 0, "fusion_lon": 0.0, "lat": 38.924847666666665, "type": "electric_scooter", "bike_id": "4778fef2a2369c3c04ad4e0d587417c4"}, {"rental_uris": {"android": "https://dc.lft.to/lastmile_qr_scan", "ios": "https://dc.lft.to/lastmile_qr_scan"}, "name": "e1e475c6a96e56001bc99c69c04b5b8c", "fusion_lat": 0.0, "lon": -77.0347035, "is_disabled": 0, "is_reserved": 0, "fusion_lon": 0.0, "lat": 38.903740166666665, "type": "electric_scooter", "bike_id": "e1e475c6a96e56001bc99c69c04b5b8c"}, {"rental_uris": {"android": "https://dc.lft.to/lastmile_qr_scan", "ios": "https://dc.lft.to/lastmile_qr_scan"}, "name": "57a316f1d0130e092fe5d9b9f1245e12", "fusion_lat": 0.0, "lon": -77.00258533333333, "is_disabled": 0, "is_reserved": 0, "fusion_lon": 0.0, "lat": 38.952206833333335, "type": "electric_scooter", "bike_id": "57a316f1d0130e092fe5d9b9f1245e12"}, {"rental_uris": {"android": "https://dc.lft.to/lastmile_qr_scan", "ios": "https://dc.lft.to/lastmile_qr_scan"}, "name": "aef064b6db64407c3b59e687ef6cdea7", "fusion_lat": 0.0, "lon": -77.00861633333334, "is_disabled": 0, "is_reserved": 0, "fusion_lon": 0.0, "lat": 38.8765775, "type": "electric_scooter", "bike_id": "aef064b6db64407c3b59e687ef6cdea7"}, {"rental_uris": {"android": "https://dc.lft.to/lastmile_qr_scan", "ios": "https://dc.lft.to/lastmile_qr_scan"}, "name": "66da0544f48a073c092920697ed51573", "fusion_lat": 0.0, "lon": -77.0372495, "is_disabled": 0, "is_reserved": 0, "fusion_lon": 0.0, "lat": 38.9063765, "type": "electric_scooter", "bike_id": "66da0544f48a073c092920697ed51573"}, {"rental_uris": {"android": "https://dc.lft.to/lastmile_qr_scan", "ios": "https://dc.lft.to/lastmile_qr_scan"}, "name": "4835d49921438cca6355b3d5be09ff09", "fusion_lat": 0.0, "lon": -77.00609916666667, "is_disabled": 0, "is_reserved": 0, "fusion_lon": 0.0, "lat": 38.8718185, "type": "electric_scooter", "bike_id": "4835d49921438cca6355b3d5be09ff09"}, {"rental_uris": {"android": "https://dc.lft.to/lastmile_qr_scan", "ios": "https://dc.lft.to/lastmile_qr_scan"}, "name": "1b922329e9587497311c62ccc8323bdb", "fusion_lat": 0.0, "lon": -77.03850033333333, "is_disabled": 0, "is_reserved": 0, "fusion_lon": 0.0, "lat": 38.9153505, "type": "electric_scooter", "bike_id": "1b922329e9587497311c62ccc8323bdb"}, {"rental_uris": {"android": "https://dc.lft.to/lastmile_qr_scan", "ios": "https://dc.lft.to/lastmile_qr_scan"}, "name": "861db4f1fd36b537af4f8ce318362560", "fusion_lat": 0.0, "lon": -77.063601, "is_disabled": 0, "is_reserved": 0, "fusion_lon": 0.0, "lat": 38.94439166666667, "type": "electric_scooter", "bike_id": "861db4f1fd36b537af4f8ce318362560"}, {"rental_uris": {"android": "https://dc.lft.to/lastmile_qr_scan", "ios": "https://dc.lft.to/lastmile_qr_scan"}, "name": "dca529fc7c9f9255d2d11a604582052a", "fusion_lat": 0.0, "lon": -77.037197, "is_disabled": 0, "is_reserved": 0, "fusion_lon": 0.0, "lat": 38.91809533333333, "type": "electric_scooter", "bike_id": "dca529fc7c9f9255d2d11a604582052a"}, {"rental_uris": {"android": "https://dc.lft.to/lastmile_qr_scan", "ios": "https://dc.lft.to/lastmile_qr_scan"}, "name": "8a6227e4907220fac8da9738ddc73148", "fusion_lat": 0.0, "lon": -77.08619783333333, "is_disabled": 0, "is_reserved": 0, "fusion_lon": 0.0, "lat": 38.958774, "type": "electric_scooter", "bike_id": "8a6227e4907220fac8da9738ddc73148"}, {"rental_uris": {"android": "https://dc.lft.to/lastmile_qr_scan", "ios": "https://dc.lft.to/lastmile_qr_scan"}, "name": "dc2725ff520e935b04524cca82fad913", "fusion_lat": 0.0, "lon": -77.018946, "is_disabled": 0, "is_reserved": 0, "fusion_lon": 0.0, "lat": 38.87835283333333, "type": "electric_scooter", "bike_id": "dc2725ff520e935b04524cca82fad913"}, {"rental_uris": {"android": "https://dc.lft.to/lastmile_qr_scan", "ios": "https://dc.lft.to/lastmile_qr_scan"}, "name": "502ef101a0523296a7d42070eed54367", "fusion_lat": 0.0, "lon": -77.03051083333334, "is_disabled": 0, "is_reserved": 0, "fusion_lon": 0.0, "lat": 38.90956766666667, "type": "electric_scooter", "bike_id": "502ef101a0523296a7d42070eed54367"}, {"rental_uris": {"android": "https://dc.lft.to/lastmile_qr_scan", "ios": "https://dc.lft.to/lastmile_qr_scan"}, "name": "6d86437da1d52b85af9a86005c86527c", "fusion_lat": 0.0, "lon": -77.042939, "is_disabled": 0, "is_reserved": 0, "fusion_lon": 0.0, "lat": 38.917896, "type": "electric_scooter", "bike_id": "6d86437da1d52b85af9a86005c86527c"}, {"rental_uris": {"android": "https://dc.lft.to/lastmile_qr_scan", "ios": "https://dc.lft.to/lastmile_qr_scan"}, "name": "94de6b5f71fad800228327400544dc90", "fusion_lat": 0.0, "lon": -77.03821616666667, "is_disabled": 0, "is_reserved": 0, "fusion_lon": 0.0, "lat": 38.916903166666664, "type": "electric_scooter", "bike_id": "94de6b5f71fad800228327400544dc90"}, {"rental_uris": {"android": "https://dc.lft.to/lastmile_qr_scan", "ios": "https://dc.lft.to/lastmile_qr_scan"}, "name": "237238c0ae1de0dbb3505c0aafa5e2a0", "fusion_lat": 0.0, "lon": -76.99952116666667, "is_disabled": 0, "is_reserved": 0, "fusion_lon": 0.0, "lat": 38.9086365, "type": "electric_scooter", "bike_id": "237238c0ae1de0dbb3505c0aafa5e2a0"}, {"rental_uris": {"android": "https://dc.lft.to/lastmile_qr_scan", "ios": "https://dc.lft.to/lastmile_qr_scan"}, "name": "0d5c0f359f516b08d2bd9fbe9b87d5b2", "fusion_lat": 0.0, "lon": -77.04245116666667, "is_disabled": 0, "is_reserved": 0, "fusion_lon": 0.0, "lat": 38.922262833333335, "type": "electric_scooter", "bike_id": "0d5c0f359f516b08d2bd9fbe9b87d5b2"}, {"rental_uris": {"android": "https://dc.lft.to/lastmile_qr_scan", "ios": "https://dc.lft.to/lastmile_qr_scan"}, "name": "919a33a18ed75ce9eb852034f03d0e89", "fusion_lat": 0.0, "lon": -77.04989766666667, "is_disabled": 0, "is_reserved": 0, "fusion_lon": 0.0, "lat": 38.904116333333334, "type": "electric_scooter", "bike_id": "919a33a18ed75ce9eb852034f03d0e89"}, {"rental_uris": {"android": "https://dc.lft.to/lastmile_qr_scan", "ios": "https://dc.lft.to/lastmile_qr_scan"}, "name": "da9749688ea083cf16df9eb425386a59", "fusion_lat": 0.0, "lon": -77.02499483333334, "is_disabled": 0, "is_reserved": 0, "fusion_lon": 0.0, "lat": 38.93289466666667, "type": "electric_scooter", "bike_id": "da9749688ea083cf16df9eb425386a59"}, {"rental_uris": {"android": "https://dc.lft.to/lastmile_qr_scan", "ios": "https://dc.lft.to/lastmile_qr_scan"}, "name": "8dc82a579cba7978316bd57a161faba9", "fusion_lat": 0.0, "lon": -76.9963655, "is_disabled": 0, "is_reserved": 0, "fusion_lon": 0.0, "lat": 38.8861525, "type": "electric_scooter", "bike_id": "8dc82a579cba7978316bd57a161faba9"}, {"rental_uris": {"android": "https://dc.lft.to/lastmile_qr_scan", "ios": "https://dc.lft.to/lastmile_qr_scan"}, "name": "d6b8bc54fdf6416217ab051a8193cb07", "fusion_lat": 0.0, "lon": -77.03992216666667, "is_disabled": 0, "is_reserved": 0, "fusion_lon": 0.0, "lat": 38.8935055, "type": "electric_scooter", "bike_id": "d6b8bc54fdf6416217ab051a8193cb07"}, {"rental_uris": {"android": "https://dc.lft.to/lastmile_qr_scan", "ios": "https://dc.lft.to/lastmile_qr_scan"}, "name": "710a0f7cb36c4f169efc8b9933bbf68d", "fusion_lat": 0.0, "lon": -77.0486325, "is_disabled": 0, "is_reserved": 0, "fusion_lon": 0.0, "lat": 38.912037166666664, "type": "electric_scooter", "bike_id": "710a0f7cb36c4f169efc8b9933bbf68d"}, {"rental_uris": {"android": "https://dc.lft.to/lastmile_qr_scan", "ios": "https://dc.lft.to/lastmile_qr_scan"}, "name": "79d4e23e78a3a7e9538de0065b5646f3", "fusion_lat": 0.0, "lon": -77.03641366666666, "is_disabled": 0, "is_reserved": 0, "fusion_lon": 0.0, "lat": 38.91619983333333, "type": "electric_scooter", "bike_id": "79d4e23e78a3a7e9538de0065b5646f3"}, {"rental_uris": {"android": "https://dc.lft.to/lastmile_qr_scan", "ios": "https://dc.lft.to/lastmile_qr_scan"}, "name": "51cb240dcb0fb3d486b508a8e5dcbb43", "fusion_lat": 0.0, "lon": -76.98479533333334, "is_disabled": 0, "is_reserved": 0, "fusion_lon": 0.0, "lat": 38.8937575, "type": "electric_scooter", "bike_id": "51cb240dcb0fb3d486b508a8e5dcbb43"}, {"rental_uris": {"android": "https://dc.lft.to/lastmile_qr_scan", "ios": "https://dc.lft.to/lastmile_qr_scan"}, "name": "2ff61fb601aba3c0c14107b935f64ec5", "fusion_lat": 0.0, "lon": -77.02687733333333, "is_disabled": 0, "is_reserved": 0, "fusion_lon": 0.0, "lat": 38.909735166666664, "type": "electric_scooter", "bike_id": "2ff61fb601aba3c0c14107b935f64ec5"}, {"rental_uris": {"android": "https://dc.lft.to/lastmile_qr_scan", "ios": "https://dc.lft.to/lastmile_qr_scan"}, "name": "d2883aa1c5c317d5d400b3b75ad7aac8", "fusion_lat": 0.0, "lon": -76.950254, "is_disabled": 0, "is_reserved": 0, "fusion_lon": 0.0, "lat": 38.907242, "type": "electric_scooter", "bike_id": "d2883aa1c5c317d5d400b3b75ad7aac8"}, {"rental_uris": {"android": "https://dc.lft.to/lastmile_qr_scan", "ios": "https://dc.lft.to/lastmile_qr_scan"}, "name": "6fd73f6ccf0d14120d2a9516e31c1809", "fusion_lat": 0.0, "lon": -76.980397, "is_disabled": 0, "is_reserved": 0, "fusion_lon": 0.0, "lat": 38.89930733333333, "type": "electric_scooter", "bike_id": "6fd73f6ccf0d14120d2a9516e31c1809"}, {"rental_uris": {"android": "https://dc.lft.to/lastmile_qr_scan", "ios": "https://dc.lft.to/lastmile_qr_scan"}, "name": "a60a6e5452097e5dbe9765cfc3f1305d", "fusion_lat": 0.0, "lon": -77.05929416666666, "is_disabled": 0, "is_reserved": 0, "fusion_lon": 0.0, "lat": 38.93662666666667, "type": "electric_scooter", "bike_id": "a60a6e5452097e5dbe9765cfc3f1305d"}, {"rental_uris": {"android": "https://dc.lft.to/lastmile_qr_scan", "ios": "https://dc.lft.to/lastmile_qr_scan"}, "name": "4adfa20980bb9b47b1de714cf5c0fd54", "fusion_lat": 0.0, "lon": -77.043315, "is_disabled": 0, "is_reserved": 0, "fusion_lon": 0.0, "lat": 38.908885166666664, "type": "electric_scooter", "bike_id": "4adfa20980bb9b47b1de714cf5c0fd54"}, {"rental_uris": {"android": "https://dc.lft.to/lastmile_qr_scan", "ios": "https://dc.lft.to/lastmile_qr_scan"}, "name": "b5d936d61d5b25603eb11bb528d53447", "fusion_lat": 0.0, "lon": -77.03982916666666, "is_disabled": 0, "is_reserved": 0, "fusion_lon": 0.0, "lat": 38.91636183333333, "type": "electric_scooter", "bike_id": "b5d936d61d5b25603eb11bb528d53447"}, {"rental_uris": {"android": "https://dc.lft.to/lastmile_qr_scan", "ios": "https://dc.lft.to/lastmile_qr_scan"}, "name": "329b8dd7c35bf9acd239c2ccadc947f4", "fusion_lat": 0.0, "lon": -76.99699633333333, "is_disabled": 0, "is_reserved": 0, "fusion_lon": 0.0, "lat": 38.884261333333335, "type": "electric_scooter", "bike_id": "329b8dd7c35bf9acd239c2ccadc947f4"}, {"rental_uris": {"android": "https://dc.lft.to/lastmile_qr_scan", "ios": "https://dc.lft.to/lastmile_qr_scan"}, "name": "9400aecc4537490cb62197102f39620c", "fusion_lat": 0.0, "lon": -76.99370533333334, "is_disabled": 0, "is_reserved": 0, "fusion_lon": 0.0, "lat": 38.9005525, "type": "electric_scooter", "bike_id": "9400aecc4537490cb62197102f39620c"}, {"rental_uris": {"android": "https://dc.lft.to/lastmile_qr_scan", "ios": "https://dc.lft.to/lastmile_qr_scan"}, "name": "4481439c6d35e3250ad55df157d6714f", "fusion_lat": 0.0, "lon": -77.059173, "is_disabled": 0, "is_reserved": 0, "fusion_lon": 0.0, "lat": 38.900820833333334, "type": "electric_scooter", "bike_id": "4481439c6d35e3250ad55df157d6714f"}, {"rental_uris": {"android": "https://dc.lft.to/lastmile_qr_scan", "ios": "https://dc.lft.to/lastmile_qr_scan"}, "name": "f46b1e4cec91606d044a03b6966feb51", "fusion_lat": 0.0, "lon": -77.0270895, "is_disabled": 0, "is_reserved": 0, "fusion_lon": 0.0, "lat": 38.904591, "type": "electric_scooter", "bike_id": "f46b1e4cec91606d044a03b6966feb51"}, {"rental_uris": {"android": "https://dc.lft.to/lastmile_qr_scan", "ios": "https://dc.lft.to/lastmile_qr_scan"}, "name": "d7204a9248ff2cc6c3f0c51d9add7302", "fusion_lat": 0.0, "lon": -77.02034283333333, "is_disabled": 0, "is_reserved": 0, "fusion_lon": 0.0, "lat": 38.8926965, "type": "electric_scooter", "bike_id": "d7204a9248ff2cc6c3f0c51d9add7302"}, {"rental_uris": {"android": "https://dc.lft.to/lastmile_qr_scan", "ios": "https://dc.lft.to/lastmile_qr_scan"}, "name": "54c1b4cac1e601ee65b3969e102ae6d4", "fusion_lat": 0.0, "lon": -77.02405216666666, "is_disabled": 0, "is_reserved": 0, "fusion_lon": 0.0, "lat": 38.90743833333333, "type": "electric_scooter", "bike_id": "54c1b4cac1e601ee65b3969e102ae6d4"}, {"rental_uris": {"android": "https://dc.lft.to/lastmile_qr_scan", "ios": "https://dc.lft.to/lastmile_qr_scan"}, "name": "d78974e6677e63ea288e331a2d4614d6", "fusion_lat": 0.0, "lon": -77.029763, "is_disabled": 0, "is_reserved": 0, "fusion_lon": 0.0, "lat": 38.924603, "type": "electric_scooter", "bike_id": "d78974e6677e63ea288e331a2d4614d6"}, {"rental_uris": {"android": "https://dc.lft.to/lastmile_qr_scan", "ios": "https://dc.lft.to/lastmile_qr_scan"}, "name": "2642b4290cee7642bbd26f5198029fb6", "fusion_lat": 0.0, "lon": -77.03757316666666, "is_disabled": 0, "is_reserved": 0, "fusion_lon": 0.0, "lat": 38.9024255, "type": "electric_scooter", "bike_id": "2642b4290cee7642bbd26f5198029fb6"}, {"rental_uris": {"android": "https://dc.lft.to/lastmile_qr_scan", "ios": "https://dc.lft.to/lastmile_qr_scan"}, "name": "e858eb6e25efa0f75f775ac1b35167cb", "fusion_lat": 0.0, "lon": -77.01890733333333, "is_disabled": 0, "is_reserved": 0, "fusion_lon": 0.0, "lat": 38.939150166666664, "type": "electric_scooter", "bike_id": "e858eb6e25efa0f75f775ac1b35167cb"}, {"rental_uris": {"android": "https://dc.lft.to/lastmile_qr_scan", "ios": "https://dc.lft.to/lastmile_qr_scan"}, "name": "b6cd21c61aacc744f36d89701eeb6db1", "fusion_lat": 0.0, "lon": -77.02936933333334, "is_disabled": 0, "is_reserved": 0, "fusion_lon": 0.0, "lat": 38.897950333333334, "type": "electric_scooter", "bike_id": "b6cd21c61aacc744f36d89701eeb6db1"}, {"rental_uris": {"android": "https://dc.lft.to/lastmile_qr_scan", "ios": "https://dc.lft.to/lastmile_qr_scan"}, "name": "aa42913652c2b728daf9f125ecdd161b", "fusion_lat": 0.0, "lon": -77.04533516666666, "is_disabled": 0, "is_reserved": 0, "fusion_lon": 0.0, "lat": 38.90388766666667, "type": "electric_scooter", "bike_id": "aa42913652c2b728daf9f125ecdd161b"}, {"rental_uris": {"android": "https://dc.lft.to/lastmile_qr_scan", "ios": "https://dc.lft.to/lastmile_qr_scan"}, "name": "6a2eecb17620a7961ed44aa100137511", "fusion_lat": 0.0, "lon": -77.03660133333334, "is_disabled": 0, "is_reserved": 0, "fusion_lon": 0.0, "lat": 38.9025705, "type": "electric_scooter", "bike_id": "6a2eecb17620a7961ed44aa100137511"}, {"rental_uris": {"android": "https://dc.lft.to/lastmile_qr_scan", "ios": "https://dc.lft.to/lastmile_qr_scan"}, "name": "c439637071bfe5dd85525d6a32e4957a", "fusion_lat": 0.0, "lon": -76.94793116666666, "is_disabled": 0, "is_reserved": 0, "fusion_lon": 0.0, "lat": 38.896629, "type": "electric_bike", "bike_id": "c439637071bfe5dd85525d6a32e4957a"}, {"rental_uris": {"android": "https://dc.lft.to/lastmile_qr_scan", "ios": "https://dc.lft.to/lastmile_qr_scan"}, "name": "896e59e779e370cde13e8f73cada8952", "fusion_lat": 0.0, "lon": -77.02750816666666, "is_disabled": 0, "is_reserved": 0, "fusion_lon": 0.0, "lat": 38.92404533333333, "type": "electric_scooter", "bike_id": "896e59e779e370cde13e8f73cada8952"}, {"rental_uris": {"android": "https://dc.lft.to/lastmile_qr_scan", "ios": "https://dc.lft.to/lastmile_qr_scan"}, "name": "26b43b1bbc04839996dde738e5064d78", "fusion_lat": 0.0, "lon": -76.9846405, "is_disabled": 0, "is_reserved": 0, "fusion_lon": 0.0, "lat": 38.893667, "type": "electric_scooter", "bike_id": "26b43b1bbc04839996dde738e5064d78"}, {"rental_uris": {"android": "https://dc.lft.to/lastmile_qr_scan", "ios": "https://dc.lft.to/lastmile_qr_scan"}, "name": "e90f7af75f95b14e3f7e8cb59f375a95", "fusion_lat": 0.0, "lon": -77.03336816666666, "is_disabled": 0, "is_reserved": 0, "fusion_lon": 0.0, "lat": 38.919180833333336, "type": "electric_scooter", "bike_id": "e90f7af75f95b14e3f7e8cb59f375a95"}, {"rental_uris": {"android": "https://dc.lft.to/lastmile_qr_scan", "ios": "https://dc.lft.to/lastmile_qr_scan"}, "name": "65ce28f8044bc3912eff9ea1e6576773", "fusion_lat": 0.0, "lon": -76.99079966666666, "is_disabled": 0, "is_reserved": 0, "fusion_lon": 0.0, "lat": 38.8428795, "type": "electric_scooter", "bike_id": "65ce28f8044bc3912eff9ea1e6576773"}, {"rental_uris": {"android": "https://dc.lft.to/lastmile_qr_scan", "ios": "https://dc.lft.to/lastmile_qr_scan"}, "name": "8aa02b6c673e5db8169acb6e2420091c", "fusion_lat": 0.0, "lon": -77.004715, "is_disabled": 0, "is_reserved": 0, "fusion_lon": 0.0, "lat": 38.91185516666667, "type": "electric_scooter", "bike_id": "8aa02b6c673e5db8169acb6e2420091c"}, {"rental_uris": {"android": "https://dc.lft.to/lastmile_qr_scan", "ios": "https://dc.lft.to/lastmile_qr_scan"}, "name": "ef958eb166e583b10350ed25d8ca6f75", "fusion_lat": 0.0, "lon": -77.01134816666666, "is_disabled": 0, "is_reserved": 0, "fusion_lon": 0.0, "lat": 38.870761333333334, "type": "electric_scooter", "bike_id": "ef958eb166e583b10350ed25d8ca6f75"}, {"rental_uris": {"android": "https://dc.lft.to/lastmile_qr_scan", "ios": "https://dc.lft.to/lastmile_qr_scan"}, "name": "0c07c178c991360558aca4db83cbb588", "fusion_lat": 0.0, "lon": -77.04676366666666, "is_disabled": 0, "is_reserved": 0, "fusion_lon": 0.0, "lat": 38.90722816666667, "type": "electric_scooter", "bike_id": "0c07c178c991360558aca4db83cbb588"}, {"rental_uris": {"android": "https://dc.lft.to/lastmile_qr_scan", "ios": "https://dc.lft.to/lastmile_qr_scan"}, "name": "bd8f8308f8fac8db9f3c17100a99347d", "fusion_lat": 0.0, "lon": -77.03219183333333, "is_disabled": 0, "is_reserved": 0, "fusion_lon": 0.0, "lat": 38.919283666666665, "type": "electric_scooter", "bike_id": "bd8f8308f8fac8db9f3c17100a99347d"}, {"rental_uris": {"android": "https://dc.lft.to/lastmile_qr_scan", "ios": "https://dc.lft.to/lastmile_qr_scan"}, "name": "756c37ad55e10f28382ad9a2b5d2ad24", "fusion_lat": 0.0, "lon": -77.03794233333333, "is_disabled": 0, "is_reserved": 0, "fusion_lon": 0.0, "lat": 38.933236, "type": "electric_scooter", "bike_id": "756c37ad55e10f28382ad9a2b5d2ad24"}, {"rental_uris": {"android": "https://dc.lft.to/lastmile_qr_scan", "ios": "https://dc.lft.to/lastmile_qr_scan"}, "name": "386a41a352986115b148608499f3b100", "fusion_lat": 0.0, "lon": -77.0249025, "is_disabled": 0, "is_reserved": 0, "fusion_lon": 0.0, "lat": 38.919529833333335, "type": "electric_scooter", "bike_id": "386a41a352986115b148608499f3b100"}, {"rental_uris": {"android": "https://dc.lft.to/lastmile_qr_scan", "ios": "https://dc.lft.to/lastmile_qr_scan"}, "name": "d4a69ddd67bbcd01c8b6921597ca5c95", "fusion_lat": 0.0, "lon": -76.990292, "is_disabled": 0, "is_reserved": 0, "fusion_lon": 0.0, "lat": 38.928696, "type": "electric_scooter", "bike_id": "d4a69ddd67bbcd01c8b6921597ca5c95"}, {"rental_uris": {"android": "https://dc.lft.to/lastmile_qr_scan", "ios": "https://dc.lft.to/lastmile_qr_scan"}, "name": "c9f6e39b68d2c3af24a24d9a6f5622a2", "fusion_lat": 0.0, "lon": -77.04319766666667, "is_disabled": 0, "is_reserved": 0, "fusion_lon": 0.0, "lat": 38.90811933333333, "type": "electric_scooter", "bike_id": "c9f6e39b68d2c3af24a24d9a6f5622a2"}, {"rental_uris": {"android": "https://dc.lft.to/lastmile_qr_scan", "ios": "https://dc.lft.to/lastmile_qr_scan"}, "name": "2802cb835316082938353c9c28108745", "fusion_lat": 0.0, "lon": -77.00029933333333, "is_disabled": 0, "is_reserved": 0, "fusion_lon": 0.0, "lat": 38.873985833333336, "type": "electric_scooter", "bike_id": "2802cb835316082938353c9c28108745"}, {"rental_uris": {"android": "https://dc.lft.to/lastmile_qr_scan", "ios": "https://dc.lft.to/lastmile_qr_scan"}, "name": "7290d73ded4216f5f73bc99ec10c6187", "fusion_lat": 0.0, "lon": -76.98769266666666, "is_disabled": 0, "is_reserved": 0, "fusion_lon": 0.0, "lat": 38.883145, "type": "electric_scooter", "bike_id": "7290d73ded4216f5f73bc99ec10c6187"}, {"rental_uris": {"android": "https://dc.lft.to/lastmile_qr_scan", "ios": "https://dc.lft.to/lastmile_qr_scan"}, "name": "18badd84c78748e2287062e734a6803e", "fusion_lat": 0.0, "lon": -77.0257275, "is_disabled": 0, "is_reserved": 0, "fusion_lon": 0.0, "lat": 38.925102333333335, "type": "electric_scooter", "bike_id": "18badd84c78748e2287062e734a6803e"}, {"rental_uris": {"android": "https://dc.lft.to/lastmile_qr_scan", "ios": "https://dc.lft.to/lastmile_qr_scan"}, "name": "67dd98571fb48d971f2aa79b980508d1", "fusion_lat": 0.0, "lon": -77.07098216666667, "is_disabled": 0, "is_reserved": 0, "fusion_lon": 0.0, "lat": 38.919686666666664, "type": "electric_scooter", "bike_id": "67dd98571fb48d971f2aa79b980508d1"}, {"rental_uris": {"android": "https://dc.lft.to/lastmile_qr_scan", "ios": "https://dc.lft.to/lastmile_qr_scan"}, "name": "c44b5aa96b7a31a341477fd630697249", "fusion_lat": 0.0, "lon": -76.94618166666666, "is_disabled": 0, "is_reserved": 0, "fusion_lon": 0.0, "lat": 38.832336166666664, "type": "electric_bike", "bike_id": "c44b5aa96b7a31a341477fd630697249"}, {"rental_uris": {"android": "https://dc.lft.to/lastmile_qr_scan", "ios": "https://dc.lft.to/lastmile_qr_scan"}, "name": "fa2a8cdb26542ef0b1ebd152202dd3b0", "fusion_lat": 0.0, "lon": -77.06521133333334, "is_disabled": 0, "is_reserved": 0, "fusion_lon": 0.0, "lat": 38.905286333333336, "type": "electric_scooter", "bike_id": "fa2a8cdb26542ef0b1ebd152202dd3b0"}, {"rental_uris": {"android": "https://dc.lft.to/lastmile_qr_scan", "ios": "https://dc.lft.to/lastmile_qr_scan"}, "name": "d2aa282797af3c18230317848a8e3225", "fusion_lat": 0.0, "lon": -77.04581666666667, "is_disabled": 0, "is_reserved": 0, "fusion_lon": 0.0, "lat": 38.913505666666666, "type": "electric_scooter", "bike_id": "d2aa282797af3c18230317848a8e3225"}, {"rental_uris": {"android": "https://dc.lft.to/lastmile_qr_scan", "ios": "https://dc.lft.to/lastmile_qr_scan"}, "name": "276fd1b412ded95960fe1d5c0178d3c9", "fusion_lat": 0.0, "lon": -77.02679333333333, "is_disabled": 0, "is_reserved": 0, "fusion_lon": 0.0, "lat": 38.89853683333333, "type": "electric_scooter", "bike_id": "276fd1b412ded95960fe1d5c0178d3c9"}, {"rental_uris": {"android": "https://dc.lft.to/lastmile_qr_scan", "ios": "https://dc.lft.to/lastmile_qr_scan"}, "name": "6c8a7407408965dfd166536421759966", "fusion_lat": 0.0, "lon": -76.97192883333334, "is_disabled": 0, "is_reserved": 0, "fusion_lon": 0.0, "lat": 38.8924935, "type": "electric_bike", "bike_id": "6c8a7407408965dfd166536421759966"}, {"rental_uris": {"android": "https://dc.lft.to/lastmile_qr_scan", "ios": "https://dc.lft.to/lastmile_qr_scan"}, "name": "6c9935b2dbf7951c86bf460be7791f8b", "fusion_lat": 0.0, "lon": -77.01371583333334, "is_disabled": 0, "is_reserved": 0, "fusion_lon": 0.0, "lat": 38.892243, "type": "electric_scooter", "bike_id": "6c9935b2dbf7951c86bf460be7791f8b"}, {"rental_uris": {"android": "https://dc.lft.to/lastmile_qr_scan", "ios": "https://dc.lft.to/lastmile_qr_scan"}, "name": "1856e32d43cd2140c06b16137e3dfab9", "fusion_lat": 0.0, "lon": -77.03182083333333, "is_disabled": 0, "is_reserved": 0, "fusion_lon": 0.0, "lat": 38.90951883333334, "type": "electric_scooter", "bike_id": "1856e32d43cd2140c06b16137e3dfab9"}, {"rental_uris": {"android": "https://dc.lft.to/lastmile_qr_scan", "ios": "https://dc.lft.to/lastmile_qr_scan"}, "name": "cb083da155ba3e66024996569564b71a", "fusion_lat": 0.0, "lon": -77.043553, "is_disabled": 0, "is_reserved": 0, "fusion_lon": 0.0, "lat": 38.91054583333333, "type": "electric_scooter", "bike_id": "cb083da155ba3e66024996569564b71a"}, {"rental_uris": {"android": "https://dc.lft.to/lastmile_qr_scan", "ios": "https://dc.lft.to/lastmile_qr_scan"}, "name": "27ea25740efcd6803a5a061ecd5458e6", "fusion_lat": 0.0, "lon": -76.98905433333333, "is_disabled": 0, "is_reserved": 0, "fusion_lon": 0.0, "lat": 38.90021683333333, "type": "electric_bike", "bike_id": "27ea25740efcd6803a5a061ecd5458e6"}, {"rental_uris": {"android": "https://dc.lft.to/lastmile_qr_scan", "ios": "https://dc.lft.to/lastmile_qr_scan"}, "name": "04ce59ad90332482d3cd7191fe28a7ad", "fusion_lat": 0.0, "lon": -77.005659, "is_disabled": 0, "is_reserved": 0, "fusion_lon": 0.0, "lat": 38.8850245, "type": "electric_scooter", "bike_id": "04ce59ad90332482d3cd7191fe28a7ad"}, {"rental_uris": {"android": "https://dc.lft.to/lastmile_qr_scan", "ios": "https://dc.lft.to/lastmile_qr_scan"}, "name": "520863e6000c2b681125743a2737927d", "fusion_lat": 0.0, "lon": -76.98686583333334, "is_disabled": 0, "is_reserved": 0, "fusion_lon": 0.0, "lat": 38.88531533333333, "type": "electric_scooter", "bike_id": "520863e6000c2b681125743a2737927d"}, {"rental_uris": {"android": "https://dc.lft.to/lastmile_qr_scan", "ios": "https://dc.lft.to/lastmile_qr_scan"}, "name": "b9ee6815f7ba2a58235d80ad9f574260", "fusion_lat": 0.0, "lon": -77.03502933333333, "is_disabled": 0, "is_reserved": 0, "fusion_lon": 0.0, "lat": 38.9169225, "type": "electric_scooter", "bike_id": "b9ee6815f7ba2a58235d80ad9f574260"}, {"rental_uris": {"android": "https://dc.lft.to/lastmile_qr_scan", "ios": "https://dc.lft.to/lastmile_qr_scan"}, "name": "eed8e9017b4dadf165cd1686c7f56327", "fusion_lat": 0.0, "lon": -77.03793416666667, "is_disabled": 0, "is_reserved": 0, "fusion_lon": 0.0, "lat": 38.91988516666667, "type": "electric_scooter", "bike_id": "eed8e9017b4dadf165cd1686c7f56327"}, {"rental_uris": {"android": "https://dc.lft.to/lastmile_qr_scan", "ios": "https://dc.lft.to/lastmile_qr_scan"}, "name": "13184136606e54cc9292df70b3840308", "fusion_lat": 0.0, "lon": -77.0440715, "is_disabled": 0, "is_reserved": 0, "fusion_lon": 0.0, "lat": 38.8939535, "type": "electric_scooter", "bike_id": "13184136606e54cc9292df70b3840308"}, {"rental_uris": {"android": "https://dc.lft.to/lastmile_qr_scan", "ios": "https://dc.lft.to/lastmile_qr_scan"}, "name": "a296f2a3c1fb2ad2c7bbcfaec6d5e03b", "fusion_lat": 0.0, "lon": -77.03933983333333, "is_disabled": 0, "is_reserved": 0, "fusion_lon": 0.0, "lat": 38.9047445, "type": "electric_scooter", "bike_id": "a296f2a3c1fb2ad2c7bbcfaec6d5e03b"}, {"rental_uris": {"android": "https://dc.lft.to/lastmile_qr_scan", "ios": "https://dc.lft.to/lastmile_qr_scan"}, "name": "7fcb3b0ce418ec906813963bf3453461", "fusion_lat": 0.0, "lon": -77.0439375, "is_disabled": 0, "is_reserved": 0, "fusion_lon": 0.0, "lat": 38.911101, "type": "electric_scooter", "bike_id": "7fcb3b0ce418ec906813963bf3453461"}, {"rental_uris": {"android": "https://dc.lft.to/lastmile_qr_scan", "ios": "https://dc.lft.to/lastmile_qr_scan"}, "name": "6c2b0e3b2573496a7508e66dd1353e66", "fusion_lat": 0.0, "lon": -77.02283333333334, "is_disabled": 0, "is_reserved": 0, "fusion_lon": 0.0, "lat": 38.90161483333333, "type": "electric_scooter", "bike_id": "6c2b0e3b2573496a7508e66dd1353e66"}, {"rental_uris": {"android": "https://dc.lft.to/lastmile_qr_scan", "ios": "https://dc.lft.to/lastmile_qr_scan"}, "name": "2a6cd6776c623aadcdb04a4e647bf15f", "fusion_lat": 0.0, "lon": -77.03185616666667, "is_disabled": 0, "is_reserved": 0, "fusion_lon": 0.0, "lat": 38.9641765, "type": "electric_scooter", "bike_id": "2a6cd6776c623aadcdb04a4e647bf15f"}, {"rental_uris": {"android": "https://dc.lft.to/lastmile_qr_scan", "ios": "https://dc.lft.to/lastmile_qr_scan"}, "name": "977c919f0a5f1a0e2e2d27af539a77c9", "fusion_lat": 0.0, "lon": -77.00350366666666, "is_disabled": 0, "is_reserved": 0, "fusion_lon": 0.0, "lat": 38.913462, "type": "electric_scooter", "bike_id": "977c919f0a5f1a0e2e2d27af539a77c9"}, {"rental_uris": {"android": "https://dc.lft.to/lastmile_qr_scan", "ios": "https://dc.lft.to/lastmile_qr_scan"}, "name": "b8fe28dd952a67fd6589acae7b2df707", "fusion_lat": 0.0, "lon": -77.02780283333334, "is_disabled": 0, "is_reserved": 0, "fusion_lon": 0.0, "lat": 38.8922025, "type": "electric_scooter", "bike_id": "b8fe28dd952a67fd6589acae7b2df707"}, {"rental_uris": {"android": "https://dc.lft.to/lastmile_qr_scan", "ios": "https://dc.lft.to/lastmile_qr_scan"}, "name": "b3f7f7b9426d6dedd357c7cbabcb00a2", "fusion_lat": 0.0, "lon": -77.063602, "is_disabled": 0, "is_reserved": 0, "fusion_lon": 0.0, "lat": 38.9444145, "type": "electric_scooter", "bike_id": "b3f7f7b9426d6dedd357c7cbabcb00a2"}, {"rental_uris": {"android": "https://dc.lft.to/lastmile_qr_scan", "ios": "https://dc.lft.to/lastmile_qr_scan"}, "name": "b5216f832424dc8b10ec5dfcc10e3c4d", "fusion_lat": 0.0, "lon": -77.02582416666667, "is_disabled": 0, "is_reserved": 0, "fusion_lon": 0.0, "lat": 38.89742016666667, "type": "electric_scooter", "bike_id": "b5216f832424dc8b10ec5dfcc10e3c4d"}, {"rental_uris": {"android": "https://dc.lft.to/lastmile_qr_scan", "ios": "https://dc.lft.to/lastmile_qr_scan"}, "name": "4c6719cb3bae42e783d7f3311d4658be", "fusion_lat": 0.0, "lon": -77.02015733333333, "is_disabled": 0, "is_reserved": 0, "fusion_lon": 0.0, "lat": 38.924195, "type": "electric_scooter", "bike_id": "4c6719cb3bae42e783d7f3311d4658be"}, {"rental_uris": {"android": "https://dc.lft.to/lastmile_qr_scan", "ios": "https://dc.lft.to/lastmile_qr_scan"}, "name": "7648969b43024cf774ebd5ce93ce172c", "fusion_lat": 0.0, "lon": -77.009653, "is_disabled": 0, "is_reserved": 0, "fusion_lon": 0.0, "lat": 38.88129883333333, "type": "electric_scooter", "bike_id": "7648969b43024cf774ebd5ce93ce172c"}, {"rental_uris": {"android": "https://dc.lft.to/lastmile_qr_scan", "ios": "https://dc.lft.to/lastmile_qr_scan"}, "name": "9c3857bc022b1ffc8ad462108b08a807", "fusion_lat": 0.0, "lon": -77.02946166666666, "is_disabled": 0, "is_reserved": 0, "fusion_lon": 0.0, "lat": 38.89833983333333, "type": "electric_scooter", "bike_id": "9c3857bc022b1ffc8ad462108b08a807"}, {"rental_uris": {"android": "https://dc.lft.to/lastmile_qr_scan", "ios": "https://dc.lft.to/lastmile_qr_scan"}, "name": "097735758a5fe39413583400a03c3843", "fusion_lat": 0.0, "lon": -77.01371266666666, "is_disabled": 0, "is_reserved": 0, "fusion_lon": 0.0, "lat": 38.886401, "type": "electric_scooter", "bike_id": "097735758a5fe39413583400a03c3843"}, {"rental_uris": {"android": "https://dc.lft.to/lastmile_qr_scan", "ios": "https://dc.lft.to/lastmile_qr_scan"}, "name": "10fbbd4fafae569810c66e779a67d125", "fusion_lat": 0.0, "lon": -77.0421145, "is_disabled": 0, "is_reserved": 0, "fusion_lon": 0.0, "lat": 38.920894833333335, "type": "electric_scooter", "bike_id": "10fbbd4fafae569810c66e779a67d125"}, {"rental_uris": {"android": "https://dc.lft.to/lastmile_qr_scan", "ios": "https://dc.lft.to/lastmile_qr_scan"}, "name": "f9711d7fa1b6f4d18ae01217f1dfad8d", "fusion_lat": 0.0, "lon": -77.05520016666667, "is_disabled": 0, "is_reserved": 0, "fusion_lon": 0.0, "lat": 38.94417933333333, "type": "electric_scooter", "bike_id": "f9711d7fa1b6f4d18ae01217f1dfad8d"}, {"rental_uris": {"android": "https://dc.lft.to/lastmile_qr_scan", "ios": "https://dc.lft.to/lastmile_qr_scan"}, "name": "abe7bf6ea1e347127b4b1ae2c742c94b", "fusion_lat": 0.0, "lon": -77.031508, "is_disabled": 0, "is_reserved": 0, "fusion_lon": 0.0, "lat": 38.887459166666666, "type": "electric_scooter", "bike_id": "abe7bf6ea1e347127b4b1ae2c742c94b"}, {"rental_uris": {"android": "https://dc.lft.to/lastmile_qr_scan", "ios": "https://dc.lft.to/lastmile_qr_scan"}, "name": "e14c3b1aee0bc3771fe4e356ae872624", "fusion_lat": 0.0, "lon": -77.04159333333334, "is_disabled": 0, "is_reserved": 0, "fusion_lon": 0.0, "lat": 38.90521416666667, "type": "electric_scooter", "bike_id": "e14c3b1aee0bc3771fe4e356ae872624"}, {"rental_uris": {"android": "https://dc.lft.to/lastmile_qr_scan", "ios": "https://dc.lft.to/lastmile_qr_scan"}, "name": "444d6272484aeabeb22af43f5bb63c3e", "fusion_lat": 0.0, "lon": -77.06297583333334, "is_disabled": 0, "is_reserved": 0, "fusion_lon": 0.0, "lat": 38.9040055, "type": "electric_scooter", "bike_id": "444d6272484aeabeb22af43f5bb63c3e"}, {"rental_uris": {"android": "https://dc.lft.to/lastmile_qr_scan", "ios": "https://dc.lft.to/lastmile_qr_scan"}, "name": "401ca764e68d7563e017a8e85105a6df", "fusion_lat": 0.0, "lon": -77.0221815, "is_disabled": 0, "is_reserved": 0, "fusion_lon": 0.0, "lat": 38.90095916666667, "type": "electric_scooter", "bike_id": "401ca764e68d7563e017a8e85105a6df"}, {"rental_uris": {"android": "https://dc.lft.to/lastmile_qr_scan", "ios": "https://dc.lft.to/lastmile_qr_scan"}, "name": "6cbd8d1a2b8d84fc38ea2f3501f9bcf2", "fusion_lat": 0.0, "lon": -77.02457266666667, "is_disabled": 0, "is_reserved": 0, "fusion_lon": 0.0, "lat": 38.92895766666667, "type": "electric_scooter", "bike_id": "6cbd8d1a2b8d84fc38ea2f3501f9bcf2"}, {"rental_uris": {"android": "https://dc.lft.to/lastmile_qr_scan", "ios": "https://dc.lft.to/lastmile_qr_scan"}, "name": "2399a9365bb059a0eb3433524e92e9f8", "fusion_lat": 0.0, "lon": -77.04641566666666, "is_disabled": 0, "is_reserved": 0, "fusion_lon": 0.0, "lat": 38.90563, "type": "electric_scooter", "bike_id": "2399a9365bb059a0eb3433524e92e9f8"}, {"rental_uris": {"android": "https://dc.lft.to/lastmile_qr_scan", "ios": "https://dc.lft.to/lastmile_qr_scan"}, "name": "56b5ec80be4b2cbfc9871e181a2ff8a0", "fusion_lat": 0.0, "lon": -76.9891435, "is_disabled": 0, "is_reserved": 0, "fusion_lon": 0.0, "lat": 38.90221733333333, "type": "electric_scooter", "bike_id": "56b5ec80be4b2cbfc9871e181a2ff8a0"}, {"rental_uris": {"android": "https://dc.lft.to/lastmile_qr_scan", "ios": "https://dc.lft.to/lastmile_qr_scan"}, "name": "34ae774d9d2ca334ae6e669c8ffab27d", "fusion_lat": 0.0, "lon": -77.04654133333334, "is_disabled": 0, "is_reserved": 0, "fusion_lon": 0.0, "lat": 38.90414533333333, "type": "electric_scooter", "bike_id": "34ae774d9d2ca334ae6e669c8ffab27d"}, {"rental_uris": {"android": "https://dc.lft.to/lastmile_qr_scan", "ios": "https://dc.lft.to/lastmile_qr_scan"}, "name": "4870722587e1c432bf6b974f417dc317", "fusion_lat": 0.0, "lon": -76.9484165, "is_disabled": 0, "is_reserved": 0, "fusion_lon": 0.0, "lat": 38.89485633333334, "type": "electric_scooter", "bike_id": "4870722587e1c432bf6b974f417dc317"}, {"rental_uris": {"android": "https://dc.lft.to/lastmile_qr_scan", "ios": "https://dc.lft.to/lastmile_qr_scan"}, "name": "e5fea31821e17cddcd5ff17f46c228c4", "fusion_lat": 0.0, "lon": -77.04194516666666, "is_disabled": 0, "is_reserved": 0, "fusion_lon": 0.0, "lat": 38.92340333333333, "type": "electric_scooter", "bike_id": "e5fea31821e17cddcd5ff17f46c228c4"}, {"rental_uris": {"android": "https://dc.lft.to/lastmile_qr_scan", "ios": "https://dc.lft.to/lastmile_qr_scan"}, "name": "4ac07729a800a6efd369e18ce6df560f", "fusion_lat": 0.0, "lon": -77.02223333333333, "is_disabled": 0, "is_reserved": 0, "fusion_lon": 0.0, "lat": 38.89859083333333, "type": "electric_scooter", "bike_id": "4ac07729a800a6efd369e18ce6df560f"}, {"rental_uris": {"android": "https://dc.lft.to/lastmile_qr_scan", "ios": "https://dc.lft.to/lastmile_qr_scan"}, "name": "44b2e31fc1ae86a765773c541897545d", "fusion_lat": 0.0, "lon": -77.02358533333333, "is_disabled": 0, "is_reserved": 0, "fusion_lon": 0.0, "lat": 38.93087233333333, "type": "electric_scooter", "bike_id": "44b2e31fc1ae86a765773c541897545d"}, {"rental_uris": {"android": "https://dc.lft.to/lastmile_qr_scan", "ios": "https://dc.lft.to/lastmile_qr_scan"}, "name": "d5c94d836c9c372b1be09a65f8783564", "fusion_lat": 0.0, "lon": -76.9832565, "is_disabled": 0, "is_reserved": 0, "fusion_lon": 0.0, "lat": 38.861713333333334, "type": "electric_scooter", "bike_id": "d5c94d836c9c372b1be09a65f8783564"}, {"rental_uris": {"android": "https://dc.lft.to/lastmile_qr_scan", "ios": "https://dc.lft.to/lastmile_qr_scan"}, "name": "db0422d9c537dbbe14b931fe4047e68d", "fusion_lat": 0.0, "lon": -76.96504983333334, "is_disabled": 0, "is_reserved": 0, "fusion_lon": 0.0, "lat": 38.876487833333336, "type": "electric_scooter", "bike_id": "db0422d9c537dbbe14b931fe4047e68d"}, {"rental_uris": {"android": "https://dc.lft.to/lastmile_qr_scan", "ios": "https://dc.lft.to/lastmile_qr_scan"}, "name": "ca2023cc3648c6c106e92e5379692336", "fusion_lat": 0.0, "lon": -77.15266633333333, "is_disabled": 0, "is_reserved": 0, "fusion_lon": 0.0, "lat": 39.105669666666664, "type": "electric_bike", "bike_id": "ca2023cc3648c6c106e92e5379692336"}, {"rental_uris": {"android": "https://dc.lft.to/lastmile_qr_scan", "ios": "https://dc.lft.to/lastmile_qr_scan"}, "name": "6931a1734df253e147dcd937f5b2e249", "fusion_lat": 0.0, "lon": -77.05199433333334, "is_disabled": 0, "is_reserved": 0, "fusion_lon": 0.0, "lat": 38.92432183333333, "type": "electric_scooter", "bike_id": "6931a1734df253e147dcd937f5b2e249"}, {"rental_uris": {"android": "https://dc.lft.to/lastmile_qr_scan", "ios": "https://dc.lft.to/lastmile_qr_scan"}, "name": "ef31ceece1bc5e8f695f184a25bd1aa3", "fusion_lat": 0.0, "lon": -77.005905, "is_disabled": 0, "is_reserved": 0, "fusion_lon": 0.0, "lat": 38.87542033333333, "type": "electric_scooter", "bike_id": "ef31ceece1bc5e8f695f184a25bd1aa3"}, {"rental_uris": {"android": "https://dc.lft.to/lastmile_qr_scan", "ios": "https://dc.lft.to/lastmile_qr_scan"}, "name": "55b66dc2aef79c5734ea7539bf0de69d", "fusion_lat": 0.0, "lon": -77.03320583333333, "is_disabled": 0, "is_reserved": 0, "fusion_lon": 0.0, "lat": 38.96012966666667, "type": "electric_scooter", "bike_id": "55b66dc2aef79c5734ea7539bf0de69d"}, {"rental_uris": {"android": "https://dc.lft.to/lastmile_qr_scan", "ios": "https://dc.lft.to/lastmile_qr_scan"}, "name": "05bd5381fe908cffeca477df9b053258", "fusion_lat": 0.0, "lon": -77.01499783333334, "is_disabled": 0, "is_reserved": 0, "fusion_lon": 0.0, "lat": 38.8847295, "type": "electric_scooter", "bike_id": "05bd5381fe908cffeca477df9b053258"}, {"rental_uris": {"android": "https://dc.lft.to/lastmile_qr_scan", "ios": "https://dc.lft.to/lastmile_qr_scan"}, "name": "03ea371573ba9afb214aba6d517141c3", "fusion_lat": 0.0, "lon": -77.04184316666667, "is_disabled": 0, "is_reserved": 0, "fusion_lon": 0.0, "lat": 38.91266916666667, "type": "electric_scooter", "bike_id": "03ea371573ba9afb214aba6d517141c3"}, {"rental_uris": {"android": "https://dc.lft.to/lastmile_qr_scan", "ios": "https://dc.lft.to/lastmile_qr_scan"}, "name": "1fd54957190dc546f7d8994c56330cf2", "fusion_lat": 0.0, "lon": -77.04720583333334, "is_disabled": 0, "is_reserved": 0, "fusion_lon": 0.0, "lat": 38.899555, "type": "electric_scooter", "bike_id": "1fd54957190dc546f7d8994c56330cf2"}, {"rental_uris": {"android": "https://dc.lft.to/lastmile_qr_scan", "ios": "https://dc.lft.to/lastmile_qr_scan"}, "name": "2668e12c8d8ebacbe0d44c8e097a6039", "fusion_lat": 0.0, "lon": -76.9684025, "is_disabled": 0, "is_reserved": 0, "fusion_lon": 0.0, "lat": 38.924468166666664, "type": "electric_bike", "bike_id": "2668e12c8d8ebacbe0d44c8e097a6039"}, {"rental_uris": {"android": "https://dc.lft.to/lastmile_qr_scan", "ios": "https://dc.lft.to/lastmile_qr_scan"}, "name": "7311b3ed0b2bcbc2ffdc0883f240f2f4", "fusion_lat": 0.0, "lon": -77.036372, "is_disabled": 0, "is_reserved": 0, "fusion_lon": 0.0, "lat": 38.93173, "type": "electric_scooter", "bike_id": "7311b3ed0b2bcbc2ffdc0883f240f2f4"}, {"rental_uris": {"android": "https://dc.lft.to/lastmile_qr_scan", "ios": "https://dc.lft.to/lastmile_qr_scan"}, "name": "b299ff267224f5409bb6f5bdf4505cfd", "fusion_lat": 0.0, "lon": -76.96540716666667, "is_disabled": 0, "is_reserved": 0, "fusion_lon": 0.0, "lat": 38.91850916666667, "type": "electric_scooter", "bike_id": "b299ff267224f5409bb6f5bdf4505cfd"},