{"data": {"bikes": [{"lon": -77.03584483333333, "bike_id": "614a408057435be8facc8b7b262bffcd", "lat": 38.917708166666664, "fusion_lon": 0.0, "fusion_lat": 0.0, "type": "electric_scooter", "name": "614a408057435be8facc8b7b262bffcd", "is_disabled": 0, "rental_uris": {"ios": "https://dc.lft.to/lastmile_qr_scan", "android": "https://dc.lft.to/lastmile_qr_scan"}, "is_reserved": 0}, {"lon": -76.9299735, "bike_id": "ed6048757d902308d8104ea181e01059", "lat": 38.901885166666666, "fusion_lon": 0.0, "fusion_lat": 0.0, "type": "electric_scooter", "name": "ed6048757d902308d8104ea181e01059", "is_disabled": 0, "rental_uris": {"ios": "https://dc.lft.to/lastmile_qr_scan", "android": "https://dc.lft.to/lastmile_qr_scan"}, "is_reserved": 0}, {"lon": -77.0231935, "bike_id": "5f7d070bf7fa0aaed7d2d7b24eb9ea00", "lat": 38.91677816666667, "fusion_lon": 0.0, "fusion_lat": 0.0, "type": "electric_scooter", "name": "5f7d070bf7fa0aaed7d2d7b24eb9ea00", "is_disabled": 0, "rental_uris": {"ios": "https://dc.lft.to/lastmile_qr_scan", "android": "https://dc.lft.to/lastmile_qr_scan"}, "is_reserved": 0}, {"lon": -77.043232, "bike_id": "51af7a18447aba3b50915f8f793b09c3", "lat": 38.907321, "fusion_lon": 0.0, "fusion_lat": 0.0, "type": "electric_scooter", "name": "51af7a18447aba3b50915f8f793b09c3", "is_disabled": 0, "rental_uris": {"ios": "https://dc.lft.to/lastmile_qr_scan", "android": "https://dc.lft.to/lastmile_qr_scan"}, "is_reserved": 0}, {"lon": -77.040282, "bike_id": "95c9d4ba08338d430536d2a6f083d256", "lat": 38.91112366666667, "fusion_lon": 0.0, "fusion_lat": 0.0, "type": "electric_scooter", "name": "95c9d4ba08338d430536d2a6f083d256", "is_disabled": 0, "rental_uris": {"ios": "https://dc.lft.to/lastmile_qr_scan", "android": "https://dc.lft.to/lastmile_qr_scan"}, "is_reserved": 0}, {"lon": -77.1091325, "bike_id": "4534cf73feaac445aef49469e61567a9", "lat": 39.052054, "fusion_lon": 0.0, "fusion_lat": 0.0, "type": "electric_bike", "name": "4534cf73feaac445aef49469e61567a9", "is_disabled": 0, "rental_uris": {"ios": "https://dc.lft.to/lastmile_qr_scan", "android": "https://dc.lft.to/lastmile_qr_scan"}, "is_reserved": 0}, {"lon": -77.01412816666667, "bike_id": "c99bdf2f4f5548ae8c2b64189936f96c", "lat": 38.92858733333333, "fusion_lon": 0.0, "fusion_lat": 0.0, "type": "electric_scooter", "name": "c99bdf2f4f5548ae8c2b64189936f96c", "is_disabled": 0, "rental_uris": {"ios": "https://dc.lft.to/lastmile_qr_scan", "android": "https://dc.lft.to/lastmile_qr_scan"}, "is_reserved": 0}, {"lon": -77.04514416666666, "bike_id": "81aeb0f6e5d69d78a2d1c21f11f90a2f", "lat": 38.88605716666667, "fusion_lon": 0.0, "fusion_lat": 0.0, "type": "electric_scooter", "name": "81aeb0f6e5d69d78a2d1c21f11f90a2f", "is_disabled": 0, "rental_uris": {"ios": "https://dc.lft.to/lastmile_qr_scan", "android": "https://dc.lft.to/lastmile_qr_scan"}, "is_reserved": 0}, {"lon": -77.03162666666667, "bike_id": "9665dfbd9a73ebcca2eb7e02fbcd5a47", "lat": 38.89681616666667, "fusion_lon": 0.0, "fusion_lat": 0.0, "type": "electric_scooter", "name": "9665dfbd9a73ebcca2eb7e02fbcd5a47", "is_disabled": 0, "rental_uris": {"ios": "https://dc.lft.to/lastmile_qr_scan", "android": "https://dc.lft.to/lastmile_qr_scan"}, "is_reserved": 0}, {"lon": -77.038836, "bike_id": "c4b80a2a140e2dc735e3a2654b4c0389", "lat": 38.920128, "fusion_lon": 0.0, "fusion_lat": 0.0, "type": "electric_scooter", "name": "c4b80a2a140e2dc735e3a2654b4c0389", "is_disabled": 0, "rental_uris": {"ios": "https://dc.lft.to/lastmile_qr_scan", "android": "https://dc.lft.to/lastmile_qr_scan"}, "is_reserved": 0}, {"lon": -77.02717483333333, "bike_id": "55856f5cc271d82480986cdd3a4f9108", "lat": 38.927695166666666, "fusion_lon": 0.0, "fusion_lat": 0.0, "type": "electric_scooter", "name": "55856f5cc271d82480986cdd3a4f9108", "is_disabled": 0, "rental_uris": {"ios": "https://dc.lft.to/lastmile_qr_scan", "android": "https://dc.lft.to/lastmile_qr_scan"}, "is_reserved": 0}, {"lon": -77.03659483333334, "bike_id": "decce11ad8f33fa3e4fe5f8d757bed99", "lat": 38.917551, "fusion_lon": 0.0, "fusion_lat": 0.0, "type": "electric_scooter", "name": "decce11ad8f33fa3e4fe5f8d757bed99", "is_disabled": 0, "rental_uris": {"ios": "https://dc.lft.to/lastmile_qr_scan", "android": "https://dc.lft.to/lastmile_qr_scan"}, "is_reserved": 0}, {"lon": -77.0376255, "bike_id": "7734966d3617bdb4dce23bf2fe2eda95", "lat": 38.907841, "fusion_lon": 0.0, "fusion_lat": 0.0, "type": "electric_scooter", "name": "7734966d3617bdb4dce23bf2fe2eda95", "is_disabled": 0, "rental_uris": {"ios": "https://dc.lft.to/lastmile_qr_scan", "android": "https://dc.lft.to/lastmile_qr_scan"}, "is_reserved": 0}, {"lon": -77.02742066666667, "bike_id": "99e87df48207c9ec0fd1f7c1185f19c0", "lat": 38.92900683333333, "fusion_lon": 0.0, "fusion_lat": 0.0, "type": "electric_scooter", "name": "99e87df48207c9ec0fd1f7c1185f19c0", "is_disabled": 0, "rental_uris": {"ios": "https://dc.lft.to/lastmile_qr_scan", "android": "https://dc.lft.to/lastmile_qr_scan"}, "is_reserved": 0}, {"lon": -77.0287405, "bike_id": "727a3a175be4903ac3078302f1c281f3", "lat": 38.91702166666666, "fusion_lon": 0.0, "fusion_lat": 0.0, "type": "electric_scooter", "name": "727a3a175be4903ac3078302f1c281f3", "is_disabled": 0, "rental_uris": {"ios": "https://dc.lft.to/lastmile_qr_scan", "android": "https://dc.lft.to/lastmile_qr_scan"}, "is_reserved": 0}, {"lon": -77.01343183333333, "bike_id": "09d43b12a4e6d6d741598369553761e1", "lat": 38.87819416666667, "fusion_lon": 0.0, "fusion_lat": 0.0, "type": "electric_scooter", "name": "09d43b12a4e6d6d741598369553761e1", "is_disabled": 0, "rental_uris": {"ios": "https://dc.lft.to/lastmile_qr_scan", "android": "https://dc.lft.to/lastmile_qr_scan"}, "is_reserved": 0}, {"lon": -77.02080883333333, "bike_id": "b3da2f5a22b8c6e7c9fa2d18c5f37762", "lat": 38.88183083333333, "fusion_lon": 0.0, "fusion_lat": 0.0, "type": "electric_scooter", "name": "b3da2f5a22b8c6e7c9fa2d18c5f37762", "is_disabled": 0, "rental_uris": {"ios": "https://dc.lft.to/lastmile_qr_scan", "android": "https://dc.lft.to/lastmile_qr_scan"}, "is_reserved": 0}, {"lon": -77.02530966666667, "bike_id": "b0ec092e606c11bfbb893dd397f9e800", "lat": 38.9289745, "fusion_lon": 0.0, "fusion_lat": 0.0, "type": "electric_scooter", "name": "b0ec092e606c11bfbb893dd397f9e800", "is_disabled": 0, "rental_uris": {"ios": "https://dc.lft.to/lastmile_qr_scan", "android": "https://dc.lft.to/lastmile_qr_scan"}, "is_reserved": 0}, {"lon": -76.96524183333334, "bike_id": "6e376467fa92c987854bfa3d1b4a558e", "lat": 38.876279, "fusion_lon": 0.0, "fusion_lat": 0.0, "type": "electric_scooter", "name": "6e376467fa92c987854bfa3d1b4a558e", "is_disabled": 0, "rental_uris": {"ios": "https://dc.lft.to/lastmile_qr_scan", "android": "https://dc.lft.to/lastmile_qr_scan"}, "is_reserved": 0}, {"lon": -77.10027933333333, "bike_id": "3940208787014740ddfd2879b40a8627", "lat": 38.8713385, "fusion_lon": 0.0, "fusion_lat": 0.0, "type": "electric_bike", "name": "3940208787014740ddfd2879b40a8627", "is_disabled": 0, "rental_uris": {"ios": "https://dc.lft.to/lastmile_qr_scan", "android": "https://dc.lft.to/lastmile_qr_scan"}, "is_reserved": 0}, {"lon": -77.00566233333333, "bike_id": "895e94cf501f8353ae3c7de380047534", "lat": 38.905737333333335, "fusion_lon": 0.0, "fusion_lat": 0.0, "type": "electric_scooter", "name": "895e94cf501f8353ae3c7de380047534", "is_disabled": 0, "rental_uris": {"ios": "https://dc.lft.to/lastmile_qr_scan", "android": "https://dc.lft.to/lastmile_qr_scan"}, "is_reserved": 0}, {"lon": -77.07861833333334, "bike_id": "09aec97f0c2069ab2c72c95ee3559e7f", "lat": 38.92466266666667, "fusion_lon": 0.0, "fusion_lat": 0.0, "type": "electric_scooter", "name": "09aec97f0c2069ab2c72c95ee3559e7f", "is_disabled": 0, "rental_uris": {"ios": "https://dc.lft.to/lastmile_qr_scan", "android": "https://dc.lft.to/lastmile_qr_scan"}, "is_reserved": 0}, {"lon": -77.0366865, "bike_id": "1ed96b434cc689e1e0ca1bf5de9356ed", "lat": 38.9362635, "fusion_lon": 0.0, "fusion_lat": 0.0, "type": "electric_scooter", "name": "1ed96b434cc689e1e0ca1bf5de9356ed", "is_disabled": 0, "rental_uris": {"ios": "https://dc.lft.to/lastmile_qr_scan", "android": "https://dc.lft.to/lastmile_qr_scan"}, "is_reserved": 0}, {"lon": -77.11779833333334, "bike_id": "a221e28d3d3004210aa2f7cd1ea3cddb", "lat": 39.054929333333334, "fusion_lon": 0.0, "fusion_lat": 0.0, "type": "electric_bike", "name": "a221e28d3d3004210aa2f7cd1ea3cddb", "is_disabled": 0, "rental_uris": {"ios": "https://dc.lft.to/lastmile_qr_scan", "android": "https://dc.lft.to/lastmile_qr_scan"}, "is_reserved": 0}, {"lon": -77.03289516666666, "bike_id": "affc6c5995c71d341dc379dbce1dc9ef", "lat": 38.956531166666664, "fusion_lon": 0.0, "fusion_lat": 0.0, "type": "electric_scooter", "name": "affc6c5995c71d341dc379dbce1dc9ef", "is_disabled": 0, "rental_uris": {"ios": "https://dc.lft.to/lastmile_qr_scan", "android": "https://dc.lft.to/lastmile_qr_scan"}, "is_reserved": 0}, {"lon": -77.05605766666666, "bike_id": "0acf2efb52ddff29ea68dfa950083639", "lat": 38.937006, "fusion_lon": 0.0, "fusion_lat": 0.0, "type": "electric_bike", "name": "0acf2efb52ddff29ea68dfa950083639", "is_disabled": 0, "rental_uris": {"ios": "https://dc.lft.to/lastmile_qr_scan", "android": "https://dc.lft.to/lastmile_qr_scan"}, "is_reserved": 0}, {"lon": -76.99054683333334, "bike_id": "99c37de4bd18c25a220a375f0058b7f9", "lat": 38.86381516666667, "fusion_lon": 0.0, "fusion_lat": 0.0, "type": "electric_scooter", "name": "99c37de4bd18c25a220a375f0058b7f9", "is_disabled": 0, "rental_uris": {"ios": "https://dc.lft.to/lastmile_qr_scan", "android": "https://dc.lft.to/lastmile_qr_scan"}, "is_reserved": 0}, {"lon": -77.0294675, "bike_id": "3d027cc8b51bd89818735e51d70317e6", "lat": 38.91683333333334, "fusion_lon": 0.0, "fusion_lat": 0.0, "type": "electric_scooter", "name": "3d027cc8b51bd89818735e51d70317e6", "is_disabled": 0, "rental_uris": {"ios": "https://dc.lft.to/lastmile_qr_scan", "android": "https://dc.lft.to/lastmile_qr_scan"}, "is_reserved": 0}, {"lon": -77.03276616666666, "bike_id": "6b3e4d98ab76f13f776d6c763cf571a7", "lat": 38.929328166666664, "fusion_lon": 0.0, "fusion_lat": 0.0, "type": "electric_scooter", "name": "6b3e4d98ab76f13f776d6c763cf571a7", "is_disabled": 0, "rental_uris": {"ios": "https://dc.lft.to/lastmile_qr_scan", "android": "https://dc.lft.to/lastmile_qr_scan"}, "is_reserved": 0}, {"lon": -77.01865683333334, "bike_id": "bdc981e3d678f2f00275131e81a84f4b", "lat": 38.93019433333333, "fusion_lon": 0.0, "fusion_lat": 0.0, "type": "electric_bike", "name": "bdc981e3d678f2f00275131e81a84f4b", "is_disabled": 0, "rental_uris": {"ios": "https://dc.lft.to/lastmile_qr_scan", "android": "https://dc.lft.to/lastmile_qr_scan"}, "is_reserved": 0}, {"lon": -77.17844983333333, "bike_id": "d399c174e967dfc7ac9aa69fb4b6df61", "lat": 39.088631666666664, "fusion_lon": 0.0, "fusion_lat": 0.0, "type": "electric_bike", "name": "d399c174e967dfc7ac9aa69fb4b6df61", "is_disabled": 0, "rental_uris": {"ios": "https://dc.lft.to/lastmile_qr_scan", "android": "https://dc.lft.to/lastmile_qr_scan"}, "is_reserved": 0}, {"lon": -76.99376933333333, "bike_id": "cee157afef5989957a7fb27ba1dcae06", "lat": 38.971950666666665, "fusion_lon": 0.0, "fusion_lat": 0.0, "type": "electric_bike", "name": "cee157afef5989957a7fb27ba1dcae06", "is_disabled": 0, "rental_uris": {"ios": "https://dc.lft.to/lastmile_qr_scan", "android": "https://dc.lft.to/lastmile_qr_scan"}, "is_reserved": 0}, {"lon": -76.98103566666667, "bike_id": "25d9b98425255a748ad46136d75d7011", "lat": 38.90526766666667, "fusion_lon": 0.0, "fusion_lat": 0.0, "type": "electric_scooter", "name": "25d9b98425255a748ad46136d75d7011", "is_disabled": 0, "rental_uris": {"ios": "https://dc.lft.to/lastmile_qr_scan", "android": "https://dc.lft.to/lastmile_qr_scan"}, "is_reserved": 0}, {"lon": -77.07010783333334, "bike_id": "061e9a00edcbb66723b427bc09f86fd2", "lat": 38.9585665, "fusion_lon": 0.0, "fusion_lat": 0.0, "type": "electric_scooter", "name": "061e9a00edcbb66723b427bc09f86fd2", "is_disabled": 0, "rental_uris": {"ios": "https://dc.lft.to/lastmile_qr_scan", "android": "https://dc.lft.to/lastmile_qr_scan"}, "is_reserved": 0}, {"lon": -77.03666683333333, "bike_id": "c13bec86f4615db8c799291bedc4ea72", "lat": 38.923283833333336, "fusion_lon": 0.0, "fusion_lat": 0.0, "type": "electric_scooter", "name": "c13bec86f4615db8c799291bedc4ea72", "is_disabled": 0, "rental_uris": {"ios": "https://dc.lft.to/lastmile_qr_scan", "android": "https://dc.lft.to/lastmile_qr_scan"}, "is_reserved": 0}, {"lon": -77.03942733333334, "bike_id": "5fd7a481d293681ab23574a674a06529", "lat": 38.90058833333333, "fusion_lon": 0.0, "fusion_lat": 0.0, "type": "electric_scooter", "name": "5fd7a481d293681ab23574a674a06529", "is_disabled": 0, "rental_uris": {"ios": "https://dc.lft.to/lastmile_qr_scan", "android": "https://dc.lft.to/lastmile_qr_scan"}, "is_reserved": 0}, {"lon": -76.99953516666666, "bike_id": "6c116b9953a4b894c5248d40e433f674", "lat": 38.898261166666664, "fusion_lon": 0.0, "fusion_lat": 0.0, "type": "electric_scooter", "name": "6c116b9953a4b894c5248d40e433f674", "is_disabled": 0, "rental_uris": {"ios": "https://dc.lft.to/lastmile_qr_scan", "android": "https://dc.lft.to/lastmile_qr_scan"}, "is_reserved": 0}, {"lon": -77.0057705, "bike_id": "e8c34f15c9416123111c63d5b9b04d94", "lat": 38.835936333333336, "fusion_lon": 0.0, "fusion_lat": 0.0, "type": "electric_scooter", "name": "e8c34f15c9416123111c63d5b9b04d94", "is_disabled": 0, "rental_uris": {"ios": "https://dc.lft.to/lastmile_qr_scan", "android": "https://dc.lft.to/lastmile_qr_scan"}, "is_reserved": 0}, {"lon": -77.012972, "bike_id": "8639211e054c8f25d85a20c694b1620d", "lat": 38.94321133333333, "fusion_lon": 0.0, "fusion_lat": 0.0, "type": "electric_scooter", "name": "8639211e054c8f25d85a20c694b1620d", "is_disabled": 0, "rental_uris": {"ios": "https://dc.lft.to/lastmile_qr_scan", "android": "https://dc.lft.to/lastmile_qr_scan"}, "is_reserved": 0}, {"lon": -77.03208483333333, "bike_id": "5e2f46d6d6c150cab30a282f11d813d8", "lat": 38.919239166666664, "fusion_lon": 0.0, "fusion_lat": 0.0, "type": "electric_scooter", "name": "5e2f46d6d6c150cab30a282f11d813d8", "is_disabled": 0, "rental_uris": {"ios": "https://dc.lft.to/lastmile_qr_scan", "android": "https://dc.lft.to/lastmile_qr_scan"}, "is_reserved": 0}, {"lon": -77.04873933333333, "bike_id": "f74fe9909e8b8b67c1e1cf35ed10ccd6", "lat": 38.892319666666666, "fusion_lon": 0.0, "fusion_lat": 0.0, "type": "electric_scooter", "name": "f74fe9909e8b8b67c1e1cf35ed10ccd6", "is_disabled": 0, "rental_uris": {"ios": "https://dc.lft.to/lastmile_qr_scan", "android": "https://dc.lft.to/lastmile_qr_scan"}, "is_reserved": 0}, {"lon": -76.98522666666666, "bike_id": "168e54495482a2eb24df6186aed32a0c", "lat": 38.904626666666665, "fusion_lon": 0.0, "fusion_lat": 0.0, "type": "electric_scooter", "name": "168e54495482a2eb24df6186aed32a0c", "is_disabled": 0, "rental_uris": {"ios": "https://dc.lft.to/lastmile_qr_scan", "android": "https://dc.lft.to/lastmile_qr_scan"}, "is_reserved": 0}, {"lon": -77.03205766666666, "bike_id": "3c465e549fc7476d3a193274cd1e40c0", "lat": 38.919248333333336, "fusion_lon": 0.0, "fusion_lat": 0.0, "type": "electric_scooter", "name": "3c465e549fc7476d3a193274cd1e40c0", "is_disabled": 0, "rental_uris": {"ios": "https://dc.lft.to/lastmile_qr_scan", "android": "https://dc.lft.to/lastmile_qr_scan"}, "is_reserved": 0}, {"lon": -77.1171085, "bike_id": "5bc5db7d5dff269329b4a221af2f7497", "lat": 38.86746, "fusion_lon": 0.0, "fusion_lat": 0.0, "type": "electric_bike", "name": "5bc5db7d5dff269329b4a221af2f7497", "is_disabled": 0, "rental_uris": {"ios": "https://dc.lft.to/lastmile_qr_scan", "android": "https://dc.lft.to/lastmile_qr_scan"}, "is_reserved": 0}, {"lon": -76.95749216666667, "bike_id": "f5ba1a78edcc69823cc4d37c4aa56e71", "lat": 38.884305833333336, "fusion_lon": 0.0, "fusion_lat": 0.0, "type": "electric_scooter", "name": "f5ba1a78edcc69823cc4d37c4aa56e71", "is_disabled": 0, "rental_uris": {"ios": "https://dc.lft.to/lastmile_qr_scan", "android": "https://dc.lft.to/lastmile_qr_scan"}, "is_reserved": 0}, {"lon": -77.00337666666667, "bike_id": "56741438f338215f85699ea44418fac7", "lat": 38.891919666666666, "fusion_lon": 0.0, "fusion_lat": 0.0, "type": "electric_scooter", "name": "56741438f338215f85699ea44418fac7", "is_disabled": 0, "rental_uris": {"ios": "https://dc.lft.to/lastmile_qr_scan", "android": "https://dc.lft.to/lastmile_qr_scan"}, "is_reserved": 0}, {"lon": -77.00150333333333, "bike_id": "40cc0867fbe891b64d695cfbd21d4df2", "lat": 38.91082516666667, "fusion_lon": 0.0, "fusion_lat": 0.0, "type": "electric_scooter", "name": "40cc0867fbe891b64d695cfbd21d4df2", "is_disabled": 0, "rental_uris": {"ios": "https://dc.lft.to/lastmile_qr_scan", "android": "https://dc.lft.to/lastmile_qr_scan"}, "is_reserved": 0}, {"lon": -77.023613, "bike_id": "395c1d378acfb636996c88a2e8002157", "lat": 38.922240333333335, "fusion_lon": 0.0, "fusion_lat": 0.0, "type": "electric_scooter", "name": "395c1d378acfb636996c88a2e8002157", "is_disabled": 0, "rental_uris": {"ios": "https://dc.lft.to/lastmile_qr_scan", "android": "https://dc.lft.to/lastmile_qr_scan"}, "is_reserved": 0}, {"lon": -77.02653016666666, "bike_id": "3fb00d785224462eee12cd1b0a6e7211", "lat": 38.881182, "fusion_lon": 0.0, "fusion_lat": 0.0, "type": "electric_scooter", "name": "3fb00d785224462eee12cd1b0a6e7211", "is_disabled": 0, "rental_uris": {"ios": "https://dc.lft.to/lastmile_qr_scan", "android": "https://dc.lft.to/lastmile_qr_scan"}, "is_reserved": 0}, {"lon": -77.04047983333334, "bike_id": "ccaced172b2400e98057f6f4d9ce0b17", "lat": 38.9288145, "fusion_lon": 0.0, "fusion_lat": 0.0, "type": "electric_scooter", "name": "ccaced172b2400e98057f6f4d9ce0b17", "is_disabled": 0, "rental_uris": {"ios": "https://dc.lft.to/lastmile_qr_scan", "android": "https://dc.lft.to/lastmile_qr_scan"}, "is_reserved": 0}, {"lon": -77.0319915, "bike_id": "f7410105b562ec1d9bf1a09c49d6269b", "lat": 38.9073475, "fusion_lon": 0.0, "fusion_lat": 0.0, "type": "electric_scooter", "name": "f7410105b562ec1d9bf1a09c49d6269b", "is_disabled": 0, "rental_uris": {"ios": "https://dc.lft.to/lastmile_qr_scan", "android": "https://dc.lft.to/lastmile_qr_scan"}, "is_reserved": 0}, {"lon": -77.03173033333333, "bike_id": "790b00c6bc6687ad1be00906b056da92", "lat": 38.89775266666667, "fusion_lon": 0.0, "fusion_lat": 0.0, "type": "electric_scooter", "name": "790b00c6bc6687ad1be00906b056da92", "is_disabled": 0, "rental_uris": {"ios": "https://dc.lft.to/lastmile_qr_scan", "android": "https://dc.lft.to/lastmile_qr_scan"}, "is_reserved": 0}, {"lon": -77.04581583333334, "bike_id": "ef1f8fc1cc426d385cba1eee3c7e0cb2", "lat": 38.913721333333335, "fusion_lon": 0.0, "fusion_lat": 0.0, "type": "electric_scooter", "name": "ef1f8fc1cc426d385cba1eee3c7e0cb2", "is_disabled": 0, "rental_uris": {"ios": "https://dc.lft.to/lastmile_qr_scan", "android": "https://dc.lft.to/lastmile_qr_scan"}, "is_reserved": 0}, {"lon": -77.02316816666666, "bike_id": "6597b9f5818cf27b986c981b0e5b4983", "lat": 38.89486616666667, "fusion_lon": 0.0, "fusion_lat": 0.0, "type": "electric_scooter", "name": "6597b9f5818cf27b986c981b0e5b4983", "is_disabled": 0, "rental_uris": {"ios": "https://dc.lft.to/lastmile_qr_scan", "android": "https://dc.lft.to/lastmile_qr_scan"}, "is_reserved": 0}, {"lon": -77.00044216666667, "bike_id": "a19e7648ef86a3c990955f207b944a43", "lat": 38.92396316666667, "fusion_lon": 0.0, "fusion_lat": 0.0, "type": "electric_scooter", "name": "a19e7648ef86a3c990955f207b944a43", "is_disabled": 0, "rental_uris": {"ios": "https://dc.lft.to/lastmile_qr_scan", "android": "https://dc.lft.to/lastmile_qr_scan"}, "is_reserved": 0}, {"lon": -77.0120005, "bike_id": "9afaecf2c26ae8911932b4a90f5ee3cc", "lat": 38.824046, "fusion_lon": 0.0, "fusion_lat": 0.0, "type": "electric_bike", "name": "9afaecf2c26ae8911932b4a90f5ee3cc", "is_disabled": 0, "rental_uris": {"ios": "https://dc.lft.to/lastmile_qr_scan", "android": "https://dc.lft.to/lastmile_qr_scan"}, "is_reserved": 0}, {"lon": -77.047629, "bike_id": "a52ac4a37b261e150a2ac7f32d29345b", "lat": 38.9177085, "fusion_lon": 0.0, "fusion_lat": 0.0, "type": "electric_scooter", "name": "a52ac4a37b261e150a2ac7f32d29345b", "is_disabled": 0, "rental_uris": {"ios": "https://dc.lft.to/lastmile_qr_scan", "android": "https://dc.lft.to/lastmile_qr_scan"}, "is_reserved": 0}, {"lon": -77.03207833333333, "bike_id": "67fb7b5f7756ee20a32e6616bda6f70d", "lat": 38.90979933333333, "fusion_lon": 0.0, "fusion_lat": 0.0, "type": "electric_scooter", "name": "67fb7b5f7756ee20a32e6616bda6f70d", "is_disabled": 0, "rental_uris": {"ios": "https://dc.lft.to/lastmile_qr_scan", "android": "https://dc.lft.to/lastmile_qr_scan"}, "is_reserved": 0}, {"lon": -77.0344955, "bike_id": "93983647823d5e095c8bc6ad2172e99f", "lat": 38.92736416666666, "fusion_lon": 0.0, "fusion_lat": 0.0, "type": "electric_scooter", "name": "93983647823d5e095c8bc6ad2172e99f", "is_disabled": 0, "rental_uris": {"ios": "https://dc.lft.to/lastmile_qr_scan", "android": "https://dc.lft.to/lastmile_qr_scan"}, "is_reserved": 0}, {"lon": -77.03632, "bike_id": "eb4f58546ae5a263266ec5716c7a1b2c", "lat": 38.93286666666667, "fusion_lon": 0.0, "fusion_lat": 0.0, "type": "electric_bike", "name": "eb4f58546ae5a263266ec5716c7a1b2c", "is_disabled": 0, "rental_uris": {"ios": "https://dc.lft.to/lastmile_qr_scan", "android": "https://dc.lft.to/lastmile_qr_scan"}, "is_reserved": 0}, {"lon": -76.99047566666667, "bike_id": "84c31adb351b6d5a40c7c850040a05a4", "lat": 38.887658333333334, "fusion_lon": 0.0, "fusion_lat": 0.0, "type": "electric_scooter", "name": "84c31adb351b6d5a40c7c850040a05a4", "is_disabled": 0, "rental_uris": {"ios": "https://dc.lft.to/lastmile_qr_scan", "android": "https://dc.lft.to/lastmile_qr_scan"}, "is_reserved": 0}, {"lon": -76.96795733333333, "bike_id": "43e2e7aedf7da95bd6eafad407c6c77d", "lat": 38.86850183333333, "fusion_lon": 0.0, "fusion_lat": 0.0, "type": "electric_scooter", "name": "43e2e7aedf7da95bd6eafad407c6c77d", "is_disabled": 0, "rental_uris": {"ios": "https://dc.lft.to/lastmile_qr_scan", "android": "https://dc.lft.to/lastmile_qr_scan"}, "is_reserved": 0}, {"lon": -77.00804166666667, "bike_id": "31223352e1faefa8074f447b8a566b3c", "lat": 38.905571, "fusion_lon": 0.0, "fusion_lat": 0.0, "type": "electric_scooter", "name": "31223352e1faefa8074f447b8a566b3c", "is_disabled": 0, "rental_uris": {"ios": "https://dc.lft.to/lastmile_qr_scan", "android": "https://dc.lft.to/lastmile_qr_scan"}, "is_reserved": 0}, {"lon": -77.03868683333333, "bike_id": "e014b529847555d761e7b6e27a3f73c3", "lat": 38.94505783333334, "fusion_lon": 0.0, "fusion_lat": 0.0, "type": "electric_scooter", "name": "e014b529847555d761e7b6e27a3f73c3", "is_disabled": 0, "rental_uris": {"ios": "https://dc.lft.to/lastmile_qr_scan", "android": "https://dc.lft.to/lastmile_qr_scan"}, "is_reserved": 0}, {"lon": -77.03436033333334, "bike_id": "eaf2309f6ab81cf22d70aea17d314179", "lat": 38.9024595, "fusion_lon": 0.0, "fusion_lat": 0.0, "type": "electric_scooter", "name": "eaf2309f6ab81cf22d70aea17d314179", "is_disabled": 0, "rental_uris": {"ios": "https://dc.lft.to/lastmile_qr_scan", "android": "https://dc.lft.to/lastmile_qr_scan"}, "is_reserved": 0}, {"lon": -76.9353275, "bike_id": "7b31b68437c7b318e3a4d1767a63dd89", "lat": 38.89684233333333, "fusion_lon": 0.0, "fusion_lat": 0.0, "type": "electric_scooter", "name": "7b31b68437c7b318e3a4d1767a63dd89", "is_disabled": 0, "rental_uris": {"ios": "https://dc.lft.to/lastmile_qr_scan", "android": "https://dc.lft.to/lastmile_qr_scan"}, "is_reserved": 0}, {"lon": -76.98098133333333, "bike_id": "eda63525d7706b0d8121e8dd2a1275b1", "lat": 38.89552666666667, "fusion_lon": 0.0, "fusion_lat": 0.0, "type": "electric_scooter", "name": "eda63525d7706b0d8121e8dd2a1275b1", "is_disabled": 0, "rental_uris": {"ios": "https://dc.lft.to/lastmile_qr_scan", "android": "https://dc.lft.to/lastmile_qr_scan"}, "is_reserved": 0}, {"lon": -77.02711916666667, "bike_id": "d42885862ab4de24234c19cc907b7dcb", "lat": 38.924784833333334, "fusion_lon": 0.0, "fusion_lat": 0.0, "type": "electric_scooter", "name": "d42885862ab4de24234c19cc907b7dcb", "is_disabled": 0, "rental_uris": {"ios": "https://dc.lft.to/lastmile_qr_scan", "android": "https://dc.lft.to/lastmile_qr_scan"}, "is_reserved": 0}, {"lon": -76.96155816666666, "bike_id": "2b0e1da05c5cd9ff9f9c4f74221152a7", "lat": 38.883591833333334, "fusion_lon": 0.0, "fusion_lat": 0.0, "type": "electric_scooter", "name": "2b0e1da05c5cd9ff9f9c4f74221152a7", "is_disabled": 0, "rental_uris": {"ios": "https://dc.lft.to/lastmile_qr_scan", "android": "https://dc.lft.to/lastmile_qr_scan"}, "is_reserved": 0}, {"lon": -77.03174016666667, "bike_id": "cad0d77cf46174b9c4db7c439592ff33", "lat": 38.919130333333335, "fusion_lon": 0.0, "fusion_lat": 0.0, "type": "electric_scooter", "name": "cad0d77cf46174b9c4db7c439592ff33", "is_disabled": 0, "rental_uris": {"ios": "https://dc.lft.to/lastmile_qr_scan", "android": "https://dc.lft.to/lastmile_qr_scan"}, "is_reserved": 0}, {"lon": -77.04186833333333, "bike_id": "4bd883c4f049bc1467a0db9dd2a1c727", "lat": 38.90568433333333, "fusion_lon": 0.0, "fusion_lat": 0.0, "type": "electric_scooter", "name": "4bd883c4f049bc1467a0db9dd2a1c727", "is_disabled": 0, "rental_uris": {"ios": "https://dc.lft.to/lastmile_qr_scan", "android": "https://dc.lft.to/lastmile_qr_scan"}, "is_reserved": 0}, {"lon": -77.02398416666666, "bike_id": "9783990a436e1b97dae5471b8d141b3c", "lat": 38.920979833333334, "fusion_lon": 0.0, "fusion_lat": 0.0, "type": "electric_scooter", "name": "9783990a436e1b97dae5471b8d141b3c", "is_disabled": 0, "rental_uris": {"ios": "https://dc.lft.to/lastmile_qr_scan", "android": "https://dc.lft.to/lastmile_qr_scan"}, "is_reserved": 0}, {"lon": -77.04579683333333, "bike_id": "c2587edd1241312f4af376db528f6f56", "lat": 38.913676333333335, "fusion_lon": 0.0, "fusion_lat": 0.0, "type": "electric_scooter", "name": "c2587edd1241312f4af376db528f6f56", "is_disabled": 0, "rental_uris": {"ios": "https://dc.lft.to/lastmile_qr_scan", "android": "https://dc.lft.to/lastmile_qr_scan"}, "is_reserved": 0}, {"lon": -77.00567116666667, "bike_id": "e00867bbc12a4f59fd34017c0c483b73", "lat": 38.90577033333334, "fusion_lon": 0.0, "fusion_lat": 0.0, "type": "electric_scooter", "name": "e00867bbc12a4f59fd34017c0c483b73", "is_disabled": 0, "rental_uris": {"ios": "https://dc.lft.to/lastmile_qr_scan", "android": "https://dc.lft.to/lastmile_qr_scan"}, "is_reserved": 0}, {"lon": -77.0217745, "bike_id": "d7566bc4219193631721eb0daae3c104", "lat": 38.893569, "fusion_lon": 0.0, "fusion_lat": 0.0, "type": "electric_scooter", "name": "d7566bc4219193631721eb0daae3c104", "is_disabled": 0, "rental_uris": {"ios": "https://dc.lft.to/lastmile_qr_scan", "android": "https://dc.lft.to/lastmile_qr_scan"}, "is_reserved": 0}, {"lon": -77.10807966666667, "bike_id": "0119cce3b28b3c1efc6f17201b6d4571", "lat": 38.81206016666667, "fusion_lon": 0.0, "fusion_lat": 0.0, "type": "electric_bike", "name": "0119cce3b28b3c1efc6f17201b6d4571", "is_disabled": 0, "rental_uris": {"ios": "https://dc.lft.to/lastmile_qr_scan", "android": "https://dc.lft.to/lastmile_qr_scan"}, "is_reserved": 0}, {"lon": -77.00009733333333, "bike_id": "c1d52e2fa444e8a37e709668d4091cb0", "lat": 38.897382666666665, "fusion_lon": 0.0, "fusion_lat": 0.0, "type": "electric_scooter", "name": "c1d52e2fa444e8a37e709668d4091cb0", "is_disabled": 0, "rental_uris": {"ios": "https://dc.lft.to/lastmile_qr_scan", "android": "https://dc.lft.to/lastmile_qr_scan"}, "is_reserved": 0}, {"lon": -77.05425516666666, "bike_id": "304e4f4d2c0d961bc77c630337898075", "lat": 38.92853516666667, "fusion_lon": 0.0, "fusion_lat": 0.0, "type": "electric_bike", "name": "304e4f4d2c0d961bc77c630337898075", "is_disabled": 0, "rental_uris": {"ios": "https://dc.lft.to/lastmile_qr_scan", "android": "https://dc.lft.to/lastmile_qr_scan"}, "is_reserved": 0}, {"lon": -76.97430066666666, "bike_id": "5f02b558ef0fedc93d50c44b8b3a6cb8", "lat": 38.904028, "fusion_lon": 0.0, "fusion_lat": 0.0, "type": "electric_scooter", "name": "5f02b558ef0fedc93d50c44b8b3a6cb8", "is_disabled": 0, "rental_uris": {"ios": "https://dc.lft.to/lastmile_qr_scan", "android": "https://dc.lft.to/lastmile_qr_scan"}, "is_reserved": 0}, {"lon": -77.03346116666667, "bike_id": "ca60d9e0f14c4f10d42b7d5873b82e98", "lat": 38.907281166666664, "fusion_lon": 0.0, "fusion_lat": 0.0, "type": "electric_scooter", "name": "ca60d9e0f14c4f10d42b7d5873b82e98", "is_disabled": 0, "rental_uris": {"ios": "https://dc.lft.to/lastmile_qr_scan", "android": "https://dc.lft.to/lastmile_qr_scan"}, "is_reserved": 0}, {"lon": -77.03995566666667, "bike_id": "c2796fb867ab3a16eaa4b84b574714f0", "lat": 38.93392, "fusion_lon": 0.0, "fusion_lat": 0.0, "type": "electric_bike", "name": "c2796fb867ab3a16eaa4b84b574714f0", "is_disabled": 0, "rental_uris": {"ios": "https://dc.lft.to/lastmile_qr_scan", "android": "https://dc.lft.to/lastmile_qr_scan"}, "is_reserved": 0}, {"lon": -77.03197916666667, "bike_id": "60272f7b98824133b569256269aa07dd", "lat": 38.903047666666666, "fusion_lon": 0.0, "fusion_lat": 0.0, "type": "electric_scooter", "name": "60272f7b98824133b569256269aa07dd", "is_disabled": 0, "rental_uris": {"ios": "https://dc.lft.to/lastmile_qr_scan", "android": "https://dc.lft.to/lastmile_qr_scan"}, "is_reserved": 0}, {"lon": -77.03218266666667, "bike_id": "ce124aed3386780247db4e2cf5595686", "lat": 38.892256, "fusion_lon": 0.0, "fusion_lat": 0.0, "type": "electric_scooter", "name": "ce124aed3386780247db4e2cf5595686", "is_disabled": 0, "rental_uris": {"ios": "https://dc.lft.to/lastmile_qr_scan", "android": "https://dc.lft.to/lastmile_qr_scan"}, "is_reserved": 0}, {"lon": -77.01520883333333, "bike_id": "c97a61add3334ae1f52dce807dac92ff", "lat": 38.885000833333336, "fusion_lon": 0.0, "fusion_lat": 0.0, "type": "electric_scooter", "name": "c97a61add3334ae1f52dce807dac92ff", "is_disabled": 0, "rental_uris": {"ios": "https://dc.lft.to/lastmile_qr_scan", "android": "https://dc.lft.to/lastmile_qr_scan"}, "is_reserved": 0}, {"lon": -77.03507883333333, "bike_id": "24fe9f05ad317f92c4eaa0ff67e71194", "lat": 38.92154266666667, "fusion_lon": 0.0, "fusion_lat": 0.0, "type": "electric_scooter", "name": "24fe9f05ad317f92c4eaa0ff67e71194", "is_disabled": 0, "rental_uris": {"ios": "https://dc.lft.to/lastmile_qr_scan", "android": "https://dc.lft.to/lastmile_qr_scan"}, "is_reserved": 0}, {"lon": -77.03584566666666, "bike_id": "d23df59959589e240082d695007f33f3", "lat": 38.99226933333333, "fusion_lon": 0.0, "fusion_lat": 0.0, "type": "electric_scooter", "name": "d23df59959589e240082d695007f33f3", "is_disabled": 0, "rental_uris": {"ios": "https://dc.lft.to/lastmile_qr_scan", "android": "https://dc.lft.to/lastmile_qr_scan"}, "is_reserved": 0}, {"lon": -77.03522083333333, "bike_id": "50bd5839ee9d8759e9641a592b19117f", "lat": 38.9273225, "fusion_lon": 0.0, "fusion_lat": 0.0, "type": "electric_scooter", "name": "50bd5839ee9d8759e9641a592b19117f", "is_disabled": 0, "rental_uris": {"ios": "https://dc.lft.to/lastmile_qr_scan", "android": "https://dc.lft.to/lastmile_qr_scan"}, "is_reserved": 0}, {"lon": -77.02980816666667, "bike_id": "c34b99c4dd7d45ecee422f2a063f6fe8", "lat": 38.9350405, "fusion_lon": 0.0, "fusion_lat": 0.0, "type": "electric_scooter", "name": "c34b99c4dd7d45ecee422f2a063f6fe8", "is_disabled": 0, "rental_uris": {"ios": "https://dc.lft.to/lastmile_qr_scan", "android": "https://dc.lft.to/lastmile_qr_scan"}, "is_reserved": 0}, {"lon": -76.97825833333333, "bike_id": "e1a6089de5cdbf878aa432cdb6476f5e", "lat": 38.843771833333335, "fusion_lon": 0.0, "fusion_lat": 0.0, "type": "electric_bike", "name": "e1a6089de5cdbf878aa432cdb6476f5e", "is_disabled": 0, "rental_uris": {"ios": "https://dc.lft.to/lastmile_qr_scan", "android": "https://dc.lft.to/lastmile_qr_scan"}, "is_reserved": 0}, {"lon": -77.023049, "bike_id": "6e51361e9934c8fb9feebbc94cde930f", "lat": 38.90883133333333, "fusion_lon": 0.0, "fusion_lat": 0.0, "type": "electric_scooter", "name": "6e51361e9934c8fb9feebbc94cde930f", "is_disabled": 0, "rental_uris": {"ios": "https://dc.lft.to/lastmile_qr_scan", "android": "https://dc.lft.to/lastmile_qr_scan"}, "is_reserved": 0}, {"lon": -77.08336733333333, "bike_id": "0e8785c98fe3f4e6cb474397fcee8f8a", "lat": 38.8544185, "fusion_lon": 0.0, "fusion_lat": 0.0, "type": "electric_bike", "name": "0e8785c98fe3f4e6cb474397fcee8f8a", "is_disabled": 0, "rental_uris": {"ios": "https://dc.lft.to/lastmile_qr_scan", "android": "https://dc.lft.to/lastmile_qr_scan"}, "is_reserved": 0}, {"lon": -77.02495, "bike_id": "e60a2f05de4614248558daba25687c3f", "lat": 38.90399266666667, "fusion_lon": 0.0, "fusion_lat": 0.0, "type": "electric_scooter", "name": "e60a2f05de4614248558daba25687c3f", "is_disabled": 0, "rental_uris": {"ios": "https://dc.lft.to/lastmile_qr_scan", "android": "https://dc.lft.to/lastmile_qr_scan"}, "is_reserved": 0}, {"lon": -77.02606333333334, "bike_id": "fe77cce5641e5550fd9d622c74262907", "lat": 38.925884, "fusion_lon": 0.0, "fusion_lat": 0.0, "type": "electric_scooter", "name": "fe77cce5641e5550fd9d622c74262907", "is_disabled": 0, "rental_uris": {"ios": "https://dc.lft.to/lastmile_qr_scan", "android": "https://dc.lft.to/lastmile_qr_scan"}, "is_reserved": 0}, {"lon": -77.01180166666667, "bike_id": "7660a98716b75bbcce9a003dfd7b1c10", "lat": 38.90020833333333, "fusion_lon": 0.0, "fusion_lat": 0.0, "type": "electric_scooter", "name": "7660a98716b75bbcce9a003dfd7b1c10", "is_disabled": 0, "rental_uris": {"ios": "https://dc.lft.to/lastmile_qr_scan", "android": "https://dc.lft.to/lastmile_qr_scan"}, "is_reserved": 0}, {"lon": -77.029952, "bike_id": "951ea8e168fe97bfd19e468a88be39a7", "lat": 38.92909316666667, "fusion_lon": 0.0, "fusion_lat": 0.0, "type": "electric_scooter", "name": "951ea8e168fe97bfd19e468a88be39a7", "is_disabled": 0, "rental_uris": {"ios": "https://dc.lft.to/lastmile_qr_scan", "android": "https://dc.lft.to/lastmile_qr_scan"}, "is_reserved": 0}, {"lon": -77.01843866666667, "bike_id": "cdbf02ced421d520070d41f3fa26e4c3", "lat": 38.90097216666667, "fusion_lon": 0.0, "fusion_lat": 0.0, "type": "electric_scooter", "name": "cdbf02ced421d520070d41f3fa26e4c3", "is_disabled": 0, "rental_uris": {"ios": "https://dc.lft.to/lastmile_qr_scan", "android": "https://dc.lft.to/lastmile_qr_scan"}, "is_reserved": 0}, {"lon": -77.01722866666667, "bike_id": "cb0d75628332f5817f8c863ac6b2c2d5", "lat": 38.90576633333333, "fusion_lon": 0.0, "fusion_lat": 0.0, "type": "electric_scooter", "name": "cb0d75628332f5817f8c863ac6b2c2d5", "is_disabled": 0, "rental_uris": {"ios": "https://dc.lft.to/lastmile_qr_scan", "android": "https://dc.lft.to/lastmile_qr_scan"}, "is_reserved": 0}, {"lon": -77.041889, "bike_id": "88baee073edaae5a542ec9c106c0414b", "lat": 38.9205725, "fusion_lon": 0.0, "fusion_lat": 0.0, "type": "electric_scooter", "name": "88baee073edaae5a542ec9c106c0414b", "is_disabled": 0, "rental_uris": {"ios": "https://dc.lft.to/lastmile_qr_scan", "android": "https://dc.lft.to/lastmile_qr_scan"}, "is_reserved": 0}, {"lon": -76.97560766666666, "bike_id": "2bd121f68ba43c78ca567396090f3d5a", "lat": 38.92458583333333, "fusion_lon": 0.0, "fusion_lat": 0.0, "type": "electric_bike", "name": "2bd121f68ba43c78ca567396090f3d5a", "is_disabled": 0, "rental_uris": {"ios": "https://dc.lft.to/lastmile_qr_scan", "android": "https://dc.lft.to/lastmile_qr_scan"}, "is_reserved": 0}, {"lon": -77.02331716666667, "bike_id": "fa5f1967b0098c37c59714a37e69dd45", "lat": 38.93529233333334, "fusion_lon": 0.0, "fusion_lat": 0.0, "type": "electric_scooter", "name": "fa5f1967b0098c37c59714a37e69dd45", "is_disabled": 0, "rental_uris": {"ios": "https://dc.lft.to/lastmile_qr_scan", "android": "https://dc.lft.to/lastmile_qr_scan"}, "is_reserved": 0}, {"lon": -77.00404333333333, "bike_id": "daa2d45adb8674c5107a7b5be7d15186", "lat": 38.921366666666664, "fusion_lon": 0.0, "fusion_lat": 0.0, "type": "electric_scooter", "name": "daa2d45adb8674c5107a7b5be7d15186", "is_disabled": 0, "rental_uris": {"ios": "https://dc.lft.to/lastmile_qr_scan", "android": "https://dc.lft.to/lastmile_qr_scan"}, "is_reserved": 0}, {"lon": -76.9500565, "bike_id": "415fa2544c87eca3231b356ac73fb966", "lat": 38.8937775, "fusion_lon": 0.0, "fusion_lat": 0.0, "type": "electric_scooter", "name": "415fa2544c87eca3231b356ac73fb966", "is_disabled": 0, "rental_uris": {"ios": "https://dc.lft.to/lastmile_qr_scan", "android": "https://dc.lft.to/lastmile_qr_scan"}, "is_reserved": 0}, {"lon": -77.01567766666666, "bike_id": "3a09fe8e5748e22addcf49a605bb601a", "lat": 38.882999833333336, "fusion_lon": 0.0, "fusion_lat": 0.0, "type": "electric_scooter", "name": "3a09fe8e5748e22addcf49a605bb601a", "is_disabled": 0, "rental_uris": {"ios": "https://dc.lft.to/lastmile_qr_scan", "android": "https://dc.lft.to/lastmile_qr_scan"}, "is_reserved": 0}, {"lon": -76.997542, "bike_id": "11123167c2911468fd333f9f0345d479", "lat": 38.950080666666665, "fusion_lon": 0.0, "fusion_lat": 0.0, "type": "electric_bike", "name": "11123167c2911468fd333f9f0345d479", "is_disabled": 0, "rental_uris": {"ios": "https://dc.lft.to/lastmile_qr_scan", "android": "https://dc.lft.to/lastmile_qr_scan"}, "is_reserved": 0}, {"lon": -77.032639, "bike_id": "f78d7e4b4f08423486f5ebe912f06754", "lat": 38.937738, "fusion_lon": 0.0, "fusion_lat": 0.0, "type": "electric_scooter", "name": "f78d7e4b4f08423486f5ebe912f06754", "is_disabled": 0, "rental_uris": {"ios": "https://dc.lft.to/lastmile_qr_scan", "android": "https://dc.lft.to/lastmile_qr_scan"}, "is_reserved": 0}, {"lon": -77.01098866666666, "bike_id": "6512bb309bd3c0fdd5dfe7110d3035f3", "lat": 38.90847083333333, "fusion_lon": 0.0, "fusion_lat": 0.0, "type": "electric_scooter", "name": "6512bb309bd3c0fdd5dfe7110d3035f3", "is_disabled": 0, "rental_uris": {"ios": "https://dc.lft.to/lastmile_qr_scan", "android": "https://dc.lft.to/lastmile_qr_scan"}, "is_reserved": 0}, {"lon": -77.03255566666667, "bike_id": "bb50d04d786c04a95df57eb34f0555b0", "lat": 38.931343166666665, "fusion_lon": 0.0, "fusion_lat": 0.0, "type": "electric_scooter", "name": "bb50d04d786c04a95df57eb34f0555b0", "is_disabled": 0, "rental_uris": {"ios": "https://dc.lft.to/lastmile_qr_scan", "android": "https://dc.lft.to/lastmile_qr_scan"}, "is_reserved": 0}, {"lon": -77.01437316666667, "bike_id": "fb9edfd4ab67611b8a6955d521c060f0", "lat": 38.905405333333334, "fusion_lon": 0.0, "fusion_lat": 0.0, "type": "electric_scooter", "name": "fb9edfd4ab67611b8a6955d521c060f0", "is_disabled": 0, "rental_uris": {"ios": "https://dc.lft.to/lastmile_qr_scan", "android": "https://dc.lft.to/lastmile_qr_scan"}, "is_reserved": 0}, {"lon": -76.97857733333333, "bike_id": "3debe3c3321689eb1a30b656983140c8", "lat": 38.90723216666667, "fusion_lon": 0.0, "fusion_lat": 0.0, "type": "electric_scooter", "name": "3debe3c3321689eb1a30b656983140c8", "is_disabled": 0, "rental_uris": {"ios": "https://dc.lft.to/lastmile_qr_scan", "android": "https://dc.lft.to/lastmile_qr_scan"}, "is_reserved": 0}, {"lon": -77.02091233333333, "bike_id": "e457addce2a66b892ea8aa800fbace35", "lat": 38.929128, "fusion_lon": 0.0, "fusion_lat": 0.0, "type": "electric_scooter", "name": "e457addce2a66b892ea8aa800fbace35", "is_disabled": 0, "rental_uris": {"ios": "https://dc.lft.to/lastmile_qr_scan", "android": "https://dc.lft.to/lastmile_qr_scan"}, "is_reserved": 0}, {"lon": -77.027214, "bike_id": "ffbca921dadead363e7667d7e440b3a8", "lat": 38.90270783333333, "fusion_lon": 0.0, "fusion_lat": 0.0, "type": "electric_scooter", "name": "ffbca921dadead363e7667d7e440b3a8", "is_disabled": 0, "rental_uris": {"ios": "https://dc.lft.to/lastmile_qr_scan", "android": "https://dc.lft.to/lastmile_qr_scan"}, "is_reserved": 0}, {"lon": -77.034423, "bike_id": "8cec27fe2e7486c2b9e53c4c2e5929c1", "lat": 38.93601266666667, "fusion_lon": 0.0, "fusion_lat": 0.0, "type": "electric_scooter", "name": "8cec27fe2e7486c2b9e53c4c2e5929c1", "is_disabled": 0, "rental_uris": {"ios": "https://dc.lft.to/lastmile_qr_scan", "android": "https://dc.lft.to/lastmile_qr_scan"}, "is_reserved": 0}, {"lon": -76.98528266666666, "bike_id": "1795ea3ed888c5d252bbbb42355d6604", "lat": 38.86687033333333, "fusion_lon": 0.0, "fusion_lat": 0.0, "type": "electric_scooter", "name": "1795ea3ed888c5d252bbbb42355d6604", "is_disabled": 0, "rental_uris": {"ios": "https://dc.lft.to/lastmile_qr_scan", "android": "https://dc.lft.to/lastmile_qr_scan"}, "is_reserved": 0}, {"lon": -77.0148265, "bike_id": "001470dd9459048d503f6814fe1dfc5f", "lat": 38.95871183333333, "fusion_lon": 0.0, "fusion_lat": 0.0, "type": "electric_scooter", "name": "001470dd9459048d503f6814fe1dfc5f", "is_disabled": 0, "rental_uris": {"ios": "https://dc.lft.to/lastmile_qr_scan", "android": "https://dc.lft.to/lastmile_qr_scan"}, "is_reserved": 0}, {"lon": -77.04133083333333, "bike_id": "39d98b2c0225a2950eef1075be457d22", "lat": 38.9062845, "fusion_lon": 0.0, "fusion_lat": 0.0, "type": "electric_scooter", "name": "39d98b2c0225a2950eef1075be457d22", "is_disabled": 0, "rental_uris": {"ios": "https://dc.lft.to/lastmile_qr_scan", "android": "https://dc.lft.to/lastmile_qr_scan"}, "is_reserved": 0}, {"lon": -77.11581666666666, "bike_id": "d95e77f84bf1964c9902d7d4c296aa1b", "lat": 38.993444, "fusion_lon": 0.0, "fusion_lat": 0.0, "type": "electric_bike", "name": "d95e77f84bf1964c9902d7d4c296aa1b", "is_disabled": 0, "rental_uris": {"ios": "https://dc.lft.to/lastmile_qr_scan", "android": "https://dc.lft.to/lastmile_qr_scan"}, "is_reserved": 0}, {"lon": -77.05933516666667, "bike_id": "7149cc7ec4f310a87eae07b786c74b09", "lat": 38.90531566666667, "fusion_lon": 0.0, "fusion_lat": 0.0, "type": "electric_bike", "name": "7149cc7ec4f310a87eae07b786c74b09", "is_disabled": 0, "rental_uris": {"ios": "https://dc.lft.to/lastmile_qr_scan", "android": "https://dc.lft.to/lastmile_qr_scan"}, "is_reserved": 0}, {"lon": -77.00195933333333, "bike_id": "7d0034a56b4298839d89b6f689d9517c", "lat": 38.9023775, "fusion_lon": 0.0, "fusion_lat": 0.0, "type": "electric_scooter", "name": "7d0034a56b4298839d89b6f689d9517c", "is_disabled": 0, "rental_uris": {"ios": "https://dc.lft.to/lastmile_qr_scan", "android": "https://dc.lft.to/lastmile_qr_scan"}, "is_reserved": 0}, {"lon": -77.03644483333333, "bike_id": "4b4ea2fbcdc1a9f05997d2bb8519e34c", "lat": 38.918318666666664, "fusion_lon": 0.0, "fusion_lat": 0.0, "type": "electric_scooter", "name": "4b4ea2fbcdc1a9f05997d2bb8519e34c", "is_disabled": 0, "rental_uris": {"ios": "https://dc.lft.to/lastmile_qr_scan", "android": "https://dc.lft.to/lastmile_qr_scan"}, "is_reserved": 0}, {"lon": -77.0290305, "bike_id": "81387eef370919ffbc8566baa09dbba9", "lat": 38.916942166666665, "fusion_lon": 0.0, "fusion_lat": 0.0, "type": "electric_scooter", "name": "81387eef370919ffbc8566baa09dbba9", "is_disabled": 0, "rental_uris": {"ios": "https://dc.lft.to/lastmile_qr_scan", "android": "https://dc.lft.to/lastmile_qr_scan"}, "is_reserved": 0}, {"lon": -77.0740675, "bike_id": "23d70569700930e803d62e51cb78be1e", "lat": 38.96215616666667, "fusion_lon": 0.0, "fusion_lat": 0.0, "type": "electric_scooter", "name": "23d70569700930e803d62e51cb78be1e", "is_disabled": 0, "rental_uris": {"ios": "https://dc.lft.to/lastmile_qr_scan", "android": "https://dc.lft.to/lastmile_qr_scan"}, "is_reserved": 0}, {"lon": -77.057414, "bike_id": "5cc1114ec85c94cc9ede33a9c2906a4e", "lat": 38.924357666666666, "fusion_lon": 0.0, "fusion_lat": 0.0, "type": "electric_scooter", "name": "5cc1114ec85c94cc9ede33a9c2906a4e", "is_disabled": 0, "rental_uris": {"ios": "https://dc.lft.to/lastmile_qr_scan", "android": "https://dc.lft.to/lastmile_qr_scan"}, "is_reserved": 0}, {"lon": -76.96381866666667, "bike_id": "c18815b5dc3d10ad55cb7a2206fe8b74", "lat": 38.951798833333335, "fusion_lon": 0.0, "fusion_lat": 0.0, "type": "electric_bike", "name": "c18815b5dc3d10ad55cb7a2206fe8b74", "is_disabled": 0, "rental_uris": {"ios": "https://dc.lft.to/lastmile_qr_scan", "android": "https://dc.lft.to/lastmile_qr_scan"}, "is_reserved": 0}, {"lon": -77.02241116666667, "bike_id": "5a5dee10aa3756a70f70f7d928f7e7fb", "lat": 38.908586, "fusion_lon": 0.0, "fusion_lat": 0.0, "type": "electric_scooter", "name": "5a5dee10aa3756a70f70f7d928f7e7fb", "is_disabled": 0, "rental_uris": {"ios": "https://dc.lft.to/lastmile_qr_scan", "android": "https://dc.lft.to/lastmile_qr_scan"}, "is_reserved": 0}, {"lon": -77.03121916666667, "bike_id": "627f5ab791b4b909e325a3f0c0015a4a", "lat": 38.98834933333333, "fusion_lon": 0.0, "fusion_lat": 0.0, "type": "electric_scooter", "name": "627f5ab791b4b909e325a3f0c0015a4a", "is_disabled": 0, "rental_uris": {"ios": "https://dc.lft.to/lastmile_qr_scan", "android": "https://dc.lft.to/lastmile_qr_scan"}, "is_reserved": 0}, {"lon": -77.22798966666667, "bike_id": "55e798807aa1d8b95c6e356df018263a", "lat": 38.91015183333333, "fusion_lon": 0.0, "fusion_lat": 0.0, "type": "electric_bike", "name": "55e798807aa1d8b95c6e356df018263a", "is_disabled": 0, "rental_uris": {"ios": "https://dc.lft.to/lastmile_qr_scan", "android": "https://dc.lft.to/lastmile_qr_scan"}, "is_reserved": 0}, {"lon": -77.03331, "bike_id": "9db5df3a9a3fbe7c9c23254ce0b8a0b8", "lat": 38.9605005, "fusion_lon": 0.0, "fusion_lat": 0.0, "type": "electric_scooter", "name": "9db5df3a9a3fbe7c9c23254ce0b8a0b8", "is_disabled": 0, "rental_uris": {"ios": "https://dc.lft.to/lastmile_qr_scan", "android": "https://dc.lft.to/lastmile_qr_scan"}, "is_reserved": 0}, {"lon": -77.01981116666667, "bike_id": "56f717892aedf097cbd837c50d0b4942", "lat": 38.910996, "fusion_lon": 0.0, "fusion_lat": 0.0, "type": "electric_scooter", "name": "56f717892aedf097cbd837c50d0b4942", "is_disabled": 0, "rental_uris": {"ios": "https://dc.lft.to/lastmile_qr_scan", "android": "https://dc.lft.to/lastmile_qr_scan"}, "is_reserved": 0}, {"lon": -77.03849216666667, "bike_id": "3519e2022cf2b690766620d11b865aac", "lat": 38.91809533333333, "fusion_lon": 0.0, "fusion_lat": 0.0, "type": "electric_scooter", "name": "3519e2022cf2b690766620d11b865aac", "is_disabled": 0, "rental_uris": {"ios": "https://dc.lft.to/lastmile_qr_scan", "android": "https://dc.lft.to/lastmile_qr_scan"}, "is_reserved": 0}, {"lon": -77.00693833333334, "bike_id": "2832c0c34833cfe49d7a5a0bf19ffb7b", "lat": 38.90592766666666, "fusion_lon": 0.0, "fusion_lat": 0.0, "type": "electric_scooter", "name": "2832c0c34833cfe49d7a5a0bf19ffb7b", "is_disabled": 0, "rental_uris": {"ios": "https://dc.lft.to/lastmile_qr_scan", "android": "https://dc.lft.to/lastmile_qr_scan"}, "is_reserved": 0}, {"lon": -77.04329566666667, "bike_id": "1d0a4bcca714396b6e133ef5b6e867b1", "lat": 38.907229, "fusion_lon": 0.0, "fusion_lat": 0.0, "type": "electric_scooter", "name": "1d0a4bcca714396b6e133ef5b6e867b1", "is_disabled": 0, "rental_uris": {"ios": "https://dc.lft.to/lastmile_qr_scan", "android": "https://dc.lft.to/lastmile_qr_scan"}, "is_reserved": 0}, {"lon": -77.01018933333333, "bike_id": "2ba2d5053e71a578cfa6f8c5fd510233", "lat": 38.9086115, "fusion_lon": 0.0, "fusion_lat": 0.0, "type": "electric_scooter", "name": "2ba2d5053e71a578cfa6f8c5fd510233", "is_disabled": 0, "rental_uris": {"ios": "https://dc.lft.to/lastmile_qr_scan", "android": "https://dc.lft.to/lastmile_qr_scan"}, "is_reserved": 0}, {"lon": -77.02090666666666, "bike_id": "91bc265ef6b58438699bbe6828d9d150", "lat": 38.929124333333334, "fusion_lon": 0.0, "fusion_lat": 0.0, "type": "electric_scooter", "name": "91bc265ef6b58438699bbe6828d9d150", "is_disabled": 0, "rental_uris": {"ios": "https://dc.lft.to/lastmile_qr_scan", "android": "https://dc.lft.to/lastmile_qr_scan"}, "is_reserved": 0}, {"lon": -77.00078216666667, "bike_id": "845f3b2d6a0747d2d3dcc58bb6d51222", "lat": 38.908243, "fusion_lon": 0.0, "fusion_lat": 0.0, "type": "electric_scooter", "name": "845f3b2d6a0747d2d3dcc58bb6d51222", "is_disabled": 0, "rental_uris": {"ios": "https://dc.lft.to/lastmile_qr_scan", "android": "https://dc.lft.to/lastmile_qr_scan"}, "is_reserved": 0}, {"lon": -77.03687383333333, "bike_id": "0386fe6629641d2da174cd5d1fc69da4", "lat": 38.91272583333333, "fusion_lon": 0.0, "fusion_lat": 0.0, "type": "electric_scooter", "name": "0386fe6629641d2da174cd5d1fc69da4", "is_disabled": 0, "rental_uris": {"ios": "https://dc.lft.to/lastmile_qr_scan", "android": "https://dc.lft.to/lastmile_qr_scan"}, "is_reserved": 0}, {"lon": -77.04605283333333, "bike_id": "6a07d127dadbc9efec9beb932e876dc4", "lat": 38.883846166666665, "fusion_lon": 0.0, "fusion_lat": 0.0, "type": "electric_scooter", "name": "6a07d127dadbc9efec9beb932e876dc4", "is_disabled": 0, "rental_uris": {"ios": "https://dc.lft.to/lastmile_qr_scan", "android": "https://dc.lft.to/lastmile_qr_scan"}, "is_reserved": 0}, {"lon": -77.00748483333334, "bike_id": "a4b633906b8da77ea4567ccabe507c3f", "lat": 38.925320666666664, "fusion_lon": 0.0, "fusion_lat": 0.0, "type": "electric_scooter", "name": "a4b633906b8da77ea4567ccabe507c3f", "is_disabled": 0, "rental_uris": {"ios": "https://dc.lft.to/lastmile_qr_scan", "android": "https://dc.lft.to/lastmile_qr_scan"}, "is_reserved": 0}, {"lon": -77.028026, "bike_id": "1d825fbf4b51bda685a7d2b4ab5d1154", "lat": 38.954206, "fusion_lon": 0.0, "fusion_lat": 0.0, "type": "electric_scooter", "name": "1d825fbf4b51bda685a7d2b4ab5d1154", "is_disabled": 0, "rental_uris": {"ios": "https://dc.lft.to/lastmile_qr_scan", "android": "https://dc.lft.to/lastmile_qr_scan"}, "is_reserved": 0}, {"lon": -77.0226105, "bike_id": "857d62615b8fc4f86f29fbf3e457f292", "lat": 38.928274333333334, "fusion_lon": 0.0, "fusion_lat": 0.0, "type": "electric_scooter", "name": "857d62615b8fc4f86f29fbf3e457f292", "is_disabled": 0, "rental_uris": {"ios": "https://dc.lft.to/lastmile_qr_scan", "android": "https://dc.lft.to/lastmile_qr_scan"}, "is_reserved": 0}, {"lon": -76.93176183333334, "bike_id": "82d4084815962bf0818a1f080aab21ca", "lat": 38.898847333333336, "fusion_lon": 0.0, "fusion_lat": 0.0, "type": "electric_scooter", "name": "82d4084815962bf0818a1f080aab21ca", "is_disabled": 0, "rental_uris": {"ios": "https://dc.lft.to/lastmile_qr_scan", "android": "https://dc.lft.to/lastmile_qr_scan"}, "is_reserved": 0}, {"lon": -77.043206, "bike_id": "36458ae6b5176d8f87de8d68ccc46989", "lat": 38.918797, "fusion_lon": 0.0, "fusion_lat": 0.0, "type": "electric_scooter", "name": "36458ae6b5176d8f87de8d68ccc46989", "is_disabled": 0, "rental_uris": {"ios": "https://dc.lft.to/lastmile_qr_scan", "android": "https://dc.lft.to/lastmile_qr_scan"}, "is_reserved": 0}, {"lon": -77.03063366666666, "bike_id": "72dd5129ee4b77d7e6e3827646a08d3c", "lat": 38.9387765, "fusion_lon": 0.0, "fusion_lat": 0.0, "type": "electric_scooter", "name": "72dd5129ee4b77d7e6e3827646a08d3c", "is_disabled": 0, "rental_uris": {"ios": "https://dc.lft.to/lastmile_qr_scan", "android": "https://dc.lft.to/lastmile_qr_scan"}, "is_reserved": 0}, {"lon": -77.02145416666667, "bike_id": "59197aa6adba928de60d1b9bb6560247", "lat": 38.894964333333334, "fusion_lon": 0.0, "fusion_lat": 0.0, "type": "electric_scooter", "name": "59197aa6adba928de60d1b9bb6560247", "is_disabled": 0, "rental_uris": {"ios": "https://dc.lft.to/lastmile_qr_scan", "android": "https://dc.lft.to/lastmile_qr_scan"}, "is_reserved": 0}, {"lon": -77.01398283333333, "bike_id": "f568b81778f0619bfdbb22fbae2ad176", "lat": 38.928615666666666, "fusion_lon": 0.0, "fusion_lat": 0.0, "type": "electric_scooter", "name": "f568b81778f0619bfdbb22fbae2ad176", "is_disabled": 0, "rental_uris": {"ios": "https://dc.lft.to/lastmile_qr_scan", "android": "https://dc.lft.to/lastmile_qr_scan"}, "is_reserved": 0}, {"lon": -76.9871715, "bike_id": "5f1f73ecc3e50260ce2b154170bf569f", "lat": 38.86704683333333, "fusion_lon": 0.0, "fusion_lat": 0.0, "type": "electric_scooter", "name": "5f1f73ecc3e50260ce2b154170bf569f", "is_disabled": 0, "rental_uris": {"ios": "https://dc.lft.to/lastmile_qr_scan", "android": "https://dc.lft.to/lastmile_qr_scan"}, "is_reserved": 0}, {"lon": -77.031712, "bike_id": "3d14af49a75e7f7636e578d26e2d8ee3", "lat": 38.8873975, "fusion_lon": 0.0, "fusion_lat": 0.0, "type": "electric_scooter", "name": "3d14af49a75e7f7636e578d26e2d8ee3", "is_disabled": 0, "rental_uris": {"ios": "https://dc.lft.to/lastmile_qr_scan", "android": "https://dc.lft.to/lastmile_qr_scan"}, "is_reserved": 0}, {"lon": -77.02896516666667, "bike_id": "37ee8271cbc357d6485a9a9830949dfe", "lat": 38.93981383333333, "fusion_lon": 0.0, "fusion_lat": 0.0, "type": "electric_scooter", "name": "37ee8271cbc357d6485a9a9830949dfe", "is_disabled": 0, "rental_uris": {"ios": "https://dc.lft.to/lastmile_qr_scan", "android": "https://dc.lft.to/lastmile_qr_scan"}, "is_reserved": 0}, {"lon": -77.03197833333333, "bike_id": "00c7ebf50f0c34aed926b25e706a8bcc", "lat": 38.8840485, "fusion_lon": 0.0, "fusion_lat": 0.0, "type": "electric_scooter", "name": "00c7ebf50f0c34aed926b25e706a8bcc", "is_disabled": 0, "rental_uris": {"ios": "https://dc.lft.to/lastmile_qr_scan", "android": "https://dc.lft.to/lastmile_qr_scan"}, "is_reserved": 0}, {"lon": -77.02122733333333, "bike_id": "353d04f039780c9eb937d231bc7e97c6", "lat": 38.92190016666667, "fusion_lon": 0.0, "fusion_lat": 0.0, "type": "electric_scooter", "name": "353d04f039780c9eb937d231bc7e97c6", "is_disabled": 0, "rental_uris": {"ios": "https://dc.lft.to/lastmile_qr_scan", "android": "https://dc.lft.to/lastmile_qr_scan"}, "is_reserved": 0}, {"lon": -77.02683383333333, "bike_id": "62bdb5a497e15dc8c14610e5d38829d8", "lat": 38.98491333333333, "fusion_lon": 0.0, "fusion_lat": 0.0, "type": "electric_scooter", "name": "62bdb5a497e15dc8c14610e5d38829d8", "is_disabled": 0, "rental_uris": {"ios": "https://dc.lft.to/lastmile_qr_scan", "android": "https://dc.lft.to/lastmile_qr_scan"}, "is_reserved": 0}, {"lon": -77.01542766666667, "bike_id": "a690ca986d676207d347101528a27edc", "lat": 38.8832555, "fusion_lon": 0.0, "fusion_lat": 0.0, "type": "electric_scooter", "name": "a690ca986d676207d347101528a27edc", "is_disabled": 0, "rental_uris": {"ios": "https://dc.lft.to/lastmile_qr_scan", "android": "https://dc.lft.to/lastmile_qr_scan"}, "is_reserved": 0}, {"lon": -77.03308383333334, "bike_id": "1b55e49742d0019303655332a37dc095", "lat": 38.9255585, "fusion_lon": 0.0, "fusion_lat": 0.0, "type": "electric_scooter", "name": "1b55e49742d0019303655332a37dc095", "is_disabled": 0, "rental_uris": {"ios": "https://dc.lft.to/lastmile_qr_scan", "android": "https://dc.lft.to/lastmile_qr_scan"}, "is_reserved": 0}, {"lon": -77.00156966666667, "bike_id": "72fe056507a092ca16a47fe638bc9445", "lat": 38.8427925, "fusion_lon": 0.0, "fusion_lat": 0.0, "type": "electric_scooter", "name": "72fe056507a092ca16a47fe638bc9445", "is_disabled": 0, "rental_uris": {"ios": "https://dc.lft.to/lastmile_qr_scan", "android": "https://dc.lft.to/lastmile_qr_scan"}, "is_reserved": 0}, {"lon": -76.98713466666666, "bike_id": "0a3c4790f98cea39281a554c97aec2dc", "lat": 38.866924833333336, "fusion_lon": 0.0, "fusion_lat": 0.0, "type": "electric_scooter", "name": "0a3c4790f98cea39281a554c97aec2dc", "is_disabled": 0, "rental_uris": {"ios": "https://dc.lft.to/lastmile_qr_scan", "android": "https://dc.lft.to/lastmile_qr_scan"}, "is_reserved": 0}, {"lon": -76.9875025, "bike_id": "e9fe5508f0b7e457b01da6100d15c348", "lat": 38.90385366666667, "fusion_lon": 0.0, "fusion_lat": 0.0, "type": "electric_scooter", "name": "e9fe5508f0b7e457b01da6100d15c348", "is_disabled": 0, "rental_uris": {"ios": "https://dc.lft.to/lastmile_qr_scan", "android": "https://dc.lft.to/lastmile_qr_scan"}, "is_reserved": 0}, {"lon": -76.99187533333334, "bike_id": "3e4d3cfb59334b13319603f12042c2e9", "lat": 38.9083595, "fusion_lon": 0.0, "fusion_lat": 0.0, "type": "electric_scooter", "name": "3e4d3cfb59334b13319603f12042c2e9", "is_disabled": 0, "rental_uris": {"ios": "https://dc.lft.to/lastmile_qr_scan", "android": "https://dc.lft.to/lastmile_qr_scan"}, "is_reserved": 0}, {"lon": -77.00327583333333, "bike_id": "b0846fdfd52fb9ac2f9b09a4bafbe8ee", "lat": 38.91984933333333, "fusion_lon": 0.0, "fusion_lat": 0.0, "type": "electric_bike", "name": "b0846fdfd52fb9ac2f9b09a4bafbe8ee", "is_disabled": 0, "rental_uris": {"ios": "https://dc.lft.to/lastmile_qr_scan", "android": "https://dc.lft.to/lastmile_qr_scan"}, "is_reserved": 0}, {"lon": -77.00884616666667, "bike_id": "15a85cd6cff041d59449c5ab2aac0ef0", "lat": 38.9179225, "fusion_lon": 0.0, "fusion_lat": 0.0, "type": "electric_scooter", "name": "15a85cd6cff041d59449c5ab2aac0ef0", "is_disabled": 0, "rental_uris": {"ios": "https://dc.lft.to/lastmile_qr_scan", "android": "https://dc.lft.to/lastmile_qr_scan"}, "is_reserved": 0}, {"lon": -77.02123933333333, "bike_id": "348de8759568eaf421df04f3cf2dc6f5", "lat": 38.935837666666664, "fusion_lon": 0.0, "fusion_lat": 0.0, "type": "electric_bike", "name": "348de8759568eaf421df04f3cf2dc6f5", "is_disabled": 0, "rental_uris": {"ios": "https://dc.lft.to/lastmile_qr_scan", "android": "https://dc.lft.to/lastmile_qr_scan"}, "is_reserved": 0}, {"lon": -77.040227, "bike_id": "2af46214c253fabe83fa1078cd02e149", "lat": 38.924550333333336, "fusion_lon": 0.0, "fusion_lat": 0.0, "type": "electric_scooter", "name": "2af46214c253fabe83fa1078cd02e149", "is_disabled": 0, "rental_uris": {"ios": "https://dc.lft.to/lastmile_qr_scan", "android": "https://dc.lft.to/lastmile_qr_scan"}, "is_reserved": 0}, {"lon": -77.02609, "bike_id": "fc0c1846c9628b63e5e3b5e2c2354bcc", "lat": 38.9279385, "fusion_lon": 0.0, "fusion_lat": 0.0, "type": "electric_scooter", "name": "fc0c1846c9628b63e5e3b5e2c2354bcc", "is_disabled": 0, "rental_uris": {"ios": "https://dc.lft.to/lastmile_qr_scan", "android": "https://dc.lft.to/lastmile_qr_scan"}, "is_reserved": 0}, {"lon": -76.98711583333333, "bike_id": "6a914b908f5ca2eac0c302f10beb0f0f", "lat": 38.867019666666664, "fusion_lon": 0.0, "fusion_lat": 0.0, "type": "electric_scooter", "name": "6a914b908f5ca2eac0c302f10beb0f0f", "is_disabled": 0, "rental_uris": {"ios": "https://dc.lft.to/lastmile_qr_scan", "android": "https://dc.lft.to/lastmile_qr_scan"}, "is_reserved": 0}, {"lon": -77.01741766666666, "bike_id": "f6d00797f600dfaffcc672a0a8e2cd3b", "lat": 38.90264416666667, "fusion_lon": 0.0, "fusion_lat": 0.0, "type": "electric_scooter", "name": "f6d00797f600dfaffcc672a0a8e2cd3b", "is_disabled": 0, "rental_uris": {"ios": "https://dc.lft.to/lastmile_qr_scan", "android": "https://dc.lft.to/lastmile_qr_scan"}, "is_reserved": 0}, {"lon": -76.9766785, "bike_id": "b0f6705261cd56dbb7a1bdd85b8f9829", "lat": 38.94522633333333, "fusion_lon": 0.0, "fusion_lat": 0.0, "type": "electric_bike", "name": "b0f6705261cd56dbb7a1bdd85b8f9829", "is_disabled": 0, "rental_uris": {"ios": "https://dc.lft.to/lastmile_qr_scan", "android": "https://dc.lft.to/lastmile_qr_scan"}, "is_reserved": 0}, {"lon": -77.01208633333333, "bike_id": "787a756642f931ceed95371c11801a83", "lat": 38.9159695, "fusion_lon": 0.0, "fusion_lat": 0.0, "type": "electric_scooter", "name": "787a756642f931ceed95371c11801a83", "is_disabled": 0, "rental_uris": {"ios": "https://dc.lft.to/lastmile_qr_scan", "android": "https://dc.lft.to/lastmile_qr_scan"}, "is_reserved": 0}, {"lon": -77.03176016666667, "bike_id": "96073b575ddc10f4ee234aa41d5a95fd", "lat": 38.921143, "fusion_lon": 0.0, "fusion_lat": 0.0, "type": "electric_scooter", "name": "96073b575ddc10f4ee234aa41d5a95fd", "is_disabled": 0, "rental_uris": {"ios": "https://dc.lft.to/lastmile_qr_scan", "android": "https://dc.lft.to/lastmile_qr_scan"}, "is_reserved": 0}, {"lon": -77.03034216666667, "bike_id": "bc1588c52cca24b860d911500cb81d46", "lat": 38.91686216666667, "fusion_lon": 0.0, "fusion_lat": 0.0, "type": "electric_scooter", "name": "bc1588c52cca24b860d911500cb81d46", "is_disabled": 0, "rental_uris": {"ios": "https://dc.lft.to/lastmile_qr_scan", "android": "https://dc.lft.to/lastmile_qr_scan"}, "is_reserved": 0}, {"lon": -77.03519683333333, "bike_id": "18f8cf7289ad43b27fde1a92e44261ad", "lat": 38.923375, "fusion_lon": 0.0, "fusion_lat": 0.0, "type": "electric_scooter", "name": "18f8cf7289ad43b27fde1a92e44261ad", "is_disabled": 0, "rental_uris": {"ios": "https://dc.lft.to/lastmile_qr_scan", "android": "https://dc.lft.to/lastmile_qr_scan"}, "is_reserved": 0}, {"lon": -76.98878666666667, "bike_id": "4de835bfd9bb493ab617c59d988e6b4c", "lat": 38.8665895, "fusion_lon": 0.0, "fusion_lat": 0.0, "type": "electric_scooter", "name": "4de835bfd9bb493ab617c59d988e6b4c", "is_disabled": 0, "rental_uris": {"ios": "https://dc.lft.to/lastmile_qr_scan", "android": "https://dc.lft.to/lastmile_qr_scan"}, "is_reserved": 0}, {"lon": -77.03867633333333, "bike_id": "1e11a1779f7a9142adcbb08c7e39e407", "lat": 38.90359433333333, "fusion_lon": 0.0, "fusion_lat": 0.0, "type": "electric_scooter", "name": "1e11a1779f7a9142adcbb08c7e39e407", "is_disabled": 0, "rental_uris": {"ios": "https://dc.lft.to/lastmile_qr_scan", "android": "https://dc.lft.to/lastmile_qr_scan"}, "is_reserved": 0}, {"lon": -77.07764266666666, "bike_id": "a64be69b97734c25540e9d9a7b4db69a", "lat": 38.92564633333333, "fusion_lon": 0.0, "fusion_lat": 0.0, "type": "electric_scooter", "name": "a64be69b97734c25540e9d9a7b4db69a", "is_disabled": 0, "rental_uris": {"ios": "https://dc.lft.to/lastmile_qr_scan", "android": "https://dc.lft.to/lastmile_qr_scan"}, "is_reserved": 0}, {"lon": -77.0249545, "bike_id": "cd08bc4a7d4dc6eac80fc482206ff090", "lat": 38.93089483333333, "fusion_lon": 0.0, "fusion_lat": 0.0, "type": "electric_scooter", "name": "cd08bc4a7d4dc6eac80fc482206ff090", "is_disabled": 0, "rental_uris": {"ios": "https://dc.lft.to/lastmile_qr_scan", "android": "https://dc.lft.to/lastmile_qr_scan"}, "is_reserved": 0}, {"lon": -76.9375765, "bike_id": "fd3a259d6954b9c28810e07aee3eaa9c", "lat": 38.8904595, "fusion_lon": 0.0, "fusion_lat": 0.0, "type": "electric_scooter", "name": "fd3a259d6954b9c28810e07aee3eaa9c", "is_disabled": 0, "rental_uris": {"ios": "https://dc.lft.to/lastmile_qr_scan", "android": "https://dc.lft.to/lastmile_qr_scan"}, "is_reserved": 0}, {"lon": -76.93736833333334, "bike_id": "616d0faa34a886e843c1e2f09e26df74", "lat": 38.890154333333335, "fusion_lon": 0.0, "fusion_lat": 0.0, "type": "electric_scooter", "name": "616d0faa34a886e843c1e2f09e26df74", "is_disabled": 0, "rental_uris": {"ios": "https://dc.lft.to/lastmile_qr_scan", "android": "https://dc.lft.to/lastmile_qr_scan"}, "is_reserved": 0}, {"lon": -77.07333883333334, "bike_id": "9706bc50d4b3ccd9717c5a27699b1505", "lat": 38.93552583333334, "fusion_lon": 0.0, "fusion_lat": 0.0, "type": "electric_scooter", "name": "9706bc50d4b3ccd9717c5a27699b1505", "is_disabled": 0, "rental_uris": {"ios": "https://dc.lft.to/lastmile_qr_scan", "android": "https://dc.lft.to/lastmile_qr_scan"}, "is_reserved": 0}, {"lon": -77.04485433333333, "bike_id": "137cb48c1ccd30084b1da38038935a42", "lat": 38.91403866666667, "fusion_lon": 0.0, "fusion_lat": 0.0, "type": "electric_scooter", "name": "137cb48c1ccd30084b1da38038935a42", "is_disabled": 0, "rental_uris": {"ios": "https://dc.lft.to/lastmile_qr_scan", "android": "https://dc.lft.to/lastmile_qr_scan"}, "is_reserved": 0}, {"lon": -77.0049095, "bike_id": "6a34e0e0f85f9b97f059b7f56b629bf9", "lat": 38.905525, "fusion_lon": 0.0, "fusion_lat": 0.0, "type": "electric_scooter", "name": "6a34e0e0f85f9b97f059b7f56b629bf9", "is_disabled": 0, "rental_uris": {"ios": "https://dc.lft.to/lastmile_qr_scan", "android": "https://dc.lft.to/lastmile_qr_scan"}, "is_reserved": 0}, {"lon": -77.01628633333333, "bike_id": "f4d437025cf3176084b0ad0388cfb190", "lat": 38.928949, "fusion_lon": 0.0, "fusion_lat": 0.0, "type": "electric_scooter", "name": "f4d437025cf3176084b0ad0388cfb190", "is_disabled": 0, "rental_uris": {"ios": "https://dc.lft.to/lastmile_qr_scan", "android": "https://dc.lft.to/lastmile_qr_scan"}, "is_reserved": 0}, {"lon": -77.02980433333333, "bike_id": "273fe1517d11820e00a0d41df92d0e15", "lat": 38.9074305, "fusion_lon": 0.0, "fusion_lat": 0.0, "type": "electric_scooter", "name": "273fe1517d11820e00a0d41df92d0e15", "is_disabled": 0, "rental_uris": {"ios": "https://dc.lft.to/lastmile_qr_scan", "android": "https://dc.lft.to/lastmile_qr_scan"}, "is_reserved": 0}, {"lon": -77.04425616666667, "bike_id": "af3528472d338606b4da6a551299b671", "lat": 38.9212665, "fusion_lon": 0.0, "fusion_lat": 0.0, "type": "electric_scooter", "name": "af3528472d338606b4da6a551299b671", "is_disabled": 0, "rental_uris": {"ios": "https://dc.lft.to/lastmile_qr_scan", "android": "https://dc.lft.to/lastmile_qr_scan"}, "is_reserved": 0}, {"lon": -77.02801183333334, "bike_id": "b37eea8fc25d12252bbee5c8e57fbb3d", "lat": 38.93021616666667, "fusion_lon": 0.0, "fusion_lat": 0.0, "type": "electric_scooter", "name": "b37eea8fc25d12252bbee5c8e57fbb3d", "is_disabled": 0, "rental_uris": {"ios": "https://dc.lft.to/lastmile_qr_scan", "android": "https://dc.lft.to/lastmile_qr_scan"}, "is_reserved": 0}, {"lon": -77.03664033333334, "bike_id": "0321bfee77e6567db1c044c8f7cde2a7", "lat": 38.933302, "fusion_lon": 0.0, "fusion_lat": 0.0, "type": "electric_scooter", "name": "0321bfee77e6567db1c044c8f7cde2a7", "is_disabled": 0, "rental_uris": {"ios": "https://dc.lft.to/lastmile_qr_scan", "android": "https://dc.lft.to/lastmile_qr_scan"}, "is_reserved": 0}, {"lon": -77.03206616666667, "bike_id": "b6cfa7490f0bdfce47b973e281af7af6", "lat": 38.9098755, "fusion_lon": 0.0, "fusion_lat": 0.0, "type": "electric_scooter", "name": "b6cfa7490f0bdfce47b973e281af7af6", "is_disabled": 0, "rental_uris": {"ios": "https://dc.lft.to/lastmile_qr_scan", "android": "https://dc.lft.to/lastmile_qr_scan"}, "is_reserved": 0}, {"lon": -76.9824675, "bike_id": "04b391652008f830a1e2f6136d054633", "lat": 38.86461533333333, "fusion_lon": 0.0, "fusion_lat": 0.0, "type": "electric_scooter", "name": "04b391652008f830a1e2f6136d054633", "is_disabled": 0, "rental_uris": {"ios": "https://dc.lft.to/lastmile_qr_scan", "android": "https://dc.lft.to/lastmile_qr_scan"}, "is_reserved": 0}, {"lon": -77.0334655, "bike_id": "274d70de48be6886647a221beaa2be8f", "lat": 38.93518, "fusion_lon": 0.0, "fusion_lat": 0.0, "type": "electric_scooter", "name": "274d70de48be6886647a221beaa2be8f", "is_disabled": 0, "rental_uris": {"ios": "https://dc.lft.to/lastmile_qr_scan", "android": "https://dc.lft.to/lastmile_qr_scan"}, "is_reserved": 0}, {"lon": -77.04695783333334, "bike_id": "df9ec9215fb22d1642ccc5624bc82524", "lat": 38.9190905, "fusion_lon": 0.0, "fusion_lat": 0.0, "type": "electric_scooter", "name": "df9ec9215fb22d1642ccc5624bc82524", "is_disabled": 0, "rental_uris": {"ios": "https://dc.lft.to/lastmile_qr_scan", "android": "https://dc.lft.to/lastmile_qr_scan"}, "is_reserved": 0}, {"lon": -77.03662833333334, "bike_id": "6c9c2f16c68a56a71bfe662aebc8451f", "lat": 38.9334415, "fusion_lon": 0.0, "fusion_lat": 0.0, "type": "electric_scooter", "name": "6c9c2f16c68a56a71bfe662aebc8451f", "is_disabled": 0, "rental_uris": {"ios": "https://dc.lft.to/lastmile_qr_scan", "android": "https://dc.lft.to/lastmile_qr_scan"}, "is_reserved": 0}, {"lon": -77.04704116666667, "bike_id": "a5d479c6b3c0bd47badda64e0e87b37d", "lat": 38.920650333333334, "fusion_lon": 0.0, "fusion_lat": 0.0, "type": "electric_scooter", "name": "a5d479c6b3c0bd47badda64e0e87b37d", "is_disabled": 0, "rental_uris": {"ios": "https://dc.lft.to/lastmile_qr_scan", "android": "https://dc.lft.to/lastmile_qr_scan"}, "is_reserved": 0}, {"lon": -76.94942033333334, "bike_id": "ae3fc394cf032713c150270e30918664", "lat": 38.903680333333334, "fusion_lon": 0.0, "fusion_lat": 0.0, "type": "electric_scooter", "name": "ae3fc394cf032713c150270e30918664", "is_disabled": 0, "rental_uris": {"ios": "https://dc.lft.to/lastmile_qr_scan", "android": "https://dc.lft.to/lastmile_qr_scan"}, "is_reserved": 0}, {"lon": -77.0326805, "bike_id": "7108d8b5bb8de766f2b30c8daf3e78dd", "lat": 38.93222433333333, "fusion_lon": 0.0, "fusion_lat": 0.0, "type": "electric_scooter", "name": "7108d8b5bb8de766f2b30c8daf3e78dd", "is_disabled": 0, "rental_uris": {"ios": "https://dc.lft.to/lastmile_qr_scan", "android": "https://dc.lft.to/lastmile_qr_scan"}, "is_reserved": 0}, {"lon": -76.998696, "bike_id": "07797e663f18bdce2383305cb823f21b", "lat": 38.900295166666666, "fusion_lon": 0.0, "fusion_lat": 0.0, "type": "electric_scooter", "name": "07797e663f18bdce2383305cb823f21b", "is_disabled": 0, "rental_uris": {"ios": "https://dc.lft.to/lastmile_qr_scan", "android": "https://dc.lft.to/lastmile_qr_scan"}, "is_reserved": 0}, {"lon": -77.00192666666666, "bike_id": "817e37ceddaac8178e31446a0d2a433c", "lat": 38.894757, "fusion_lon": 0.0, "fusion_lat": 0.0, "type": "electric_scooter", "name": "817e37ceddaac8178e31446a0d2a433c", "is_disabled": 0, "rental_uris": {"ios": "https://dc.lft.to/lastmile_qr_scan", "android": "https://dc.lft.to/lastmile_qr_scan"}, "is_reserved": 0}, {"lon": -77.01480816666667, "bike_id": "7c48682700334b1a08b5bc50b38f831f", "lat": 38.919288, "fusion_lon": 0.0, "fusion_lat": 0.0, "type": "electric_scooter", "name": "7c48682700334b1a08b5bc50b38f831f", "is_disabled": 0, "rental_uris": {"ios": "https://dc.lft.to/lastmile_qr_scan", "android": "https://dc.lft.to/lastmile_qr_scan"}, "is_reserved": 0}, {"lon": -76.997866, "bike_id": "794e1acb6256915643c261b2ce99f08b", "lat": 38.891013666666666, "fusion_lon": 0.0, "fusion_lat": 0.0, "type": "electric_scooter", "name": "794e1acb6256915643c261b2ce99f08b", "is_disabled": 0, "rental_uris": {"ios": "https://dc.lft.to/lastmile_qr_scan", "android": "https://dc.lft.to/lastmile_qr_scan"}, "is_reserved": 0}, {"lon": -76.981078, "bike_id": "0bba5d910afa43c47c84a1397256a9ec", "lat": 38.877310333333334, "fusion_lon": 0.0, "fusion_lat": 0.0, "type": "electric_bike", "name": "0bba5d910afa43c47c84a1397256a9ec", "is_disabled": 0, "rental_uris": {"ios": "https://dc.lft.to/lastmile_qr_scan", "android": "https://dc.lft.to/lastmile_qr_scan"}, "is_reserved": 0}, {"lon": -77.02700033333333, "bike_id": "b4a5e876ae64181dc9356c5042181f19", "lat": 38.903864, "fusion_lon": 0.0, "fusion_lat": 0.0, "type": "electric_scooter", "name": "b4a5e876ae64181dc9356c5042181f19", "is_disabled": 0, "rental_uris": {"ios": "https://dc.lft.to/lastmile_qr_scan", "android": "https://dc.lft.to/lastmile_qr_scan"}, "is_reserved": 0}, {"lon": -77.009576, "bike_id": "2788081a13fa8e53af87a6d438cb4876", "lat": 38.92139916666667, "fusion_lon": 0.0, "fusion_lat": 0.0, "type": "electric_scooter", "name": "2788081a13fa8e53af87a6d438cb4876", "is_disabled": 0, "rental_uris": {"ios": "https://dc.lft.to/lastmile_qr_scan", "android": "https://dc.lft.to/lastmile_qr_scan"}, "is_reserved": 0}, {"lon": -76.99922466666666, "bike_id": "492b573a55e0a63dc55344f85cb6c702", "lat": 38.889712833333334, "fusion_lon": 0.0, "fusion_lat": 0.0, "type": "electric_scooter", "name": "492b573a55e0a63dc55344f85cb6c702", "is_disabled": 0, "rental_uris": {"ios": "https://dc.lft.to/lastmile_qr_scan", "android": "https://dc.lft.to/lastmile_qr_scan"}, "is_reserved": 0}, {"lon": -77.02733233333333, "bike_id": "4905827dc31bd22a4a74976d97fb460b", "lat": 38.8978065, "fusion_lon": 0.0, "fusion_lat": 0.0, "type": "electric_scooter", "name": "4905827dc31bd22a4a74976d97fb460b", "is_disabled": 0, "rental_uris": {"ios": "https://dc.lft.to/lastmile_qr_scan", "android": "https://dc.lft.to/lastmile_qr_scan"}, "is_reserved": 0}, {"lon": -77.02178183333334, "bike_id": "a3994bf6a0fb8750d2245619cb0f6d71", "lat": 38.89359266666666, "fusion_lon": 0.0, "fusion_lat": 0.0, "type": "electric_scooter", "name": "a3994bf6a0fb8750d2245619cb0f6d71", "is_disabled": 0, "rental_uris": {"ios": "https://dc.lft.to/lastmile_qr_scan", "android": "https://dc.lft.to/lastmile_qr_scan"}, "is_reserved": 0}, {"lon": -77.034624, "bike_id": "a65a031cdedbda931ef9027989132508", "lat": 38.91934783333333, "fusion_lon": 0.0, "fusion_lat": 0.0, "type": "electric_scooter", "name": "a65a031cdedbda931ef9027989132508", "is_disabled": 0, "rental_uris": {"ios": "https://dc.lft.to/lastmile_qr_scan", "android": "https://dc.lft.to/lastmile_qr_scan"}, "is_reserved": 0}, {"lon": -76.98086833333333, "bike_id": "ddaf50348b027e5f9582e0acc9d9446b", "lat": 38.88426033333333, "fusion_lon": 0.0, "fusion_lat": 0.0, "type": "electric_scooter", "name": "ddaf50348b027e5f9582e0acc9d9446b", "is_disabled": 0, "rental_uris": {"ios": "https://dc.lft.to/lastmile_qr_scan", "android": "https://dc.lft.to/lastmile_qr_scan"}, "is_reserved": 0}, {"lon": -77.04884533333333, "bike_id": "d37f0d624389f82d32605e08f8403b6f", "lat": 38.916151666666664, "fusion_lon": 0.0, "fusion_lat": 0.0, "type": "electric_scooter", "name": "d37f0d624389f82d32605e08f8403b6f", "is_disabled": 0, "rental_uris": {"ios": "https://dc.lft.to/lastmile_qr_scan", "android": "https://dc.lft.to/lastmile_qr_scan"}, "is_reserved": 0}, {"lon": -77.03215466666667, "bike_id": "3332c6e4782e4e68657dccf1c8ad6557", "lat": 38.892207, "fusion_lon": 0.0, "fusion_lat": 0.0, "type": "electric_scooter", "name": "3332c6e4782e4e68657dccf1c8ad6557", "is_disabled": 0, "rental_uris": {"ios": "https://dc.lft.to/lastmile_qr_scan", "android": "https://dc.lft.to/lastmile_qr_scan"}, "is_reserved": 0}, {"lon": -76.98361616666666, "bike_id": "3004dd8449a2001749a589773407c9b2", "lat": 38.9028405, "fusion_lon": 0.0, "fusion_lat": 0.0, "type": "electric_scooter", "name": "3004dd8449a2001749a589773407c9b2", "is_disabled": 0, "rental_uris": {"ios": "https://dc.lft.to/lastmile_qr_scan", "android": "https://dc.lft.to/lastmile_qr_scan"}, "is_reserved": 0}, {"lon": -77.05856533333333, "bike_id": "c7bf24e1e514b9f727a582825945ddc4", "lat": 38.936068166666665, "fusion_lon": 0.0, "fusion_lat": 0.0, "type": "electric_scooter", "name": "c7bf24e1e514b9f727a582825945ddc4", "is_disabled": 0, "rental_uris": {"ios": "https://dc.lft.to/lastmile_qr_scan", "android": "https://dc.lft.to/lastmile_qr_scan"}, "is_reserved": 0}, {"lon": -77.03647266666667, "bike_id": "06d0e83bdb89ada4e7f7f3dc65c984b8", "lat": 38.91253533333333, "fusion_lon": 0.0, "fusion_lat": 0.0, "type": "electric_scooter", "name": "06d0e83bdb89ada4e7f7f3dc65c984b8", "is_disabled": 0, "rental_uris": {"ios": "https://dc.lft.to/lastmile_qr_scan", "android": "https://dc.lft.to/lastmile_qr_scan"}, "is_reserved": 0}, {"lon": -76.9733005, "bike_id": "9e0b410cdbfd3547102fba689668307c", "lat": 38.865201666666664, "fusion_lon": 0.0, "fusion_lat": 0.0, "type": "electric_bike", "name": "9e0b410cdbfd3547102fba689668307c", "is_disabled": 0, "rental_uris": {"ios": "https://dc.lft.to/lastmile_qr_scan", "android": "https://dc.lft.to/lastmile_qr_scan"}, "is_reserved": 0}, {"lon": -76.994846, "bike_id": "9bcef55dc9f38457e62e3baf1cee37ae", "lat": 38.9157165, "fusion_lon": 0.0, "fusion_lat": 0.0, "type": "electric_scooter", "name": "9bcef55dc9f38457e62e3baf1cee37ae", "is_disabled": 0, "rental_uris": {"ios": "https://dc.lft.to/lastmile_qr_scan", "android": "https://dc.lft.to/lastmile_qr_scan"}, "is_reserved": 0}, {"lon": -77.06487166666666, "bike_id": "2b31bc03bd4c42c2253bbe035d0a71d2", "lat": 38.946457833333334, "fusion_lon": 0.0, "fusion_lat": 0.0, "type": "electric_scooter", "name": "2b31bc03bd4c42c2253bbe035d0a71d2", "is_disabled": 0, "rental_uris": {"ios": "https://dc.lft.to/lastmile_qr_scan", "android": "https://dc.lft.to/lastmile_qr_scan"}, "is_reserved": 0}, {"lon": -76.93380266666667, "bike_id": "27157c82ec3d0de5540450270601e9fd", "lat": 38.899065666666665, "fusion_lon": 0.0, "fusion_lat": 0.0, "type": "electric_scooter", "name": "27157c82ec3d0de5540450270601e9fd", "is_disabled": 0, "rental_uris": {"ios": "https://dc.lft.to/lastmile_qr_scan", "android": "https://dc.lft.to/lastmile_qr_scan"}, "is_reserved": 0}, {"lon": -77.04097433333334, "bike_id": "cc7ff3ac1bd423e1c5b744aa37f66178", "lat": 38.92038266666667, "fusion_lon": 0.0, "fusion_lat": 0.0, "type": "electric_scooter", "name": "cc7ff3ac1bd423e1c5b744aa37f66178", "is_disabled": 0, "rental_uris": {"ios": "https://dc.lft.to/lastmile_qr_scan", "android": "https://dc.lft.to/lastmile_qr_scan"}, "is_reserved": 0}, {"lon": -77.10087966666667, "bike_id": "d4df8b8a868df49611dcd9bfca68beb2", "lat": 38.959569, "fusion_lon": 0.0, "fusion_lat": 0.0, "type": "electric_bike", "name": "d4df8b8a868df49611dcd9bfca68beb2", "is_disabled": 0, "rental_uris": {"ios": "https://dc.lft.to/lastmile_qr_scan", "android": "https://dc.lft.to/lastmile_qr_scan"}, "is_reserved": 0}, {"lon": -76.9889415, "bike_id": "1245477c52a47a38b5cfd248347bc6e1", "lat": 38.913416833333336, "fusion_lon": 0.0, "fusion_lat": 0.0, "type": "electric_scooter", "name": "1245477c52a47a38b5cfd248347bc6e1", "is_disabled": 0, "rental_uris": {"ios": "https://dc.lft.to/lastmile_qr_scan", "android": "https://dc.lft.to/lastmile_qr_scan"}, "is_reserved": 0}, {"lon": -76.9940335, "bike_id": "f5aa323c183ea09046fd4ee13c92c51b", "lat": 38.83141966666667, "fusion_lon": 0.0, "fusion_lat": 0.0, "type": "electric_bike", "name": "f5aa323c183ea09046fd4ee13c92c51b", "is_disabled": 0, "rental_uris": {"ios": "https://dc.lft.to/lastmile_qr_scan", "android": "https://dc.lft.to/lastmile_qr_scan"}, "is_reserved": 0}, {"lon": -77.03653116666666, "bike_id": "e50542937441bc2075ba7102411e9c0f", "lat": 38.94182266666667, "fusion_lon": 0.0, "fusion_lat": 0.0, "type": "electric_scooter", "name": "e50542937441bc2075ba7102411e9c0f", "is_disabled": 0, "rental_uris": {"ios": "https://dc.lft.to/lastmile_qr_scan", "android": "https://dc.lft.to/lastmile_qr_scan"}, "is_reserved": 0}, {"lon": -76.98185216666667, "bike_id": "bd947cd9c2e5e22de4595638dcdade6d", "lat": 38.92604566666667, "fusion_lon": 0.0, "fusion_lat": 0.0, "type": "electric_scooter", "name": "bd947cd9c2e5e22de4595638dcdade6d", "is_disabled": 0, "rental_uris": {"ios": "https://dc.lft.to/lastmile_qr_scan", "android": "https://dc.lft.to/lastmile_qr_scan"}, "is_reserved": 0}, {"lon": -76.942922, "bike_id": "c4079884905b672061e260cec01a6d6e", "lat": 38.93869216666667, "fusion_lon": 0.0, "fusion_lat": 0.0, "type": "electric_bike", "name": "c4079884905b672061e260cec01a6d6e", "is_disabled": 0, "rental_uris": {"ios": "https://dc.lft.to/lastmile_qr_scan", "android": "https://dc.lft.to/lastmile_qr_scan"}, "is_reserved": 0}, {"lon": -77.02627666666666, "bike_id": "c27291d3d8e36c2a9e76ff811e6faf36", "lat": 38.962201666666665, "fusion_lon": 0.0, "fusion_lat": 0.0, "type": "electric_bike", "name": "c27291d3d8e36c2a9e76ff811e6faf36", "is_disabled": 0, "rental_uris": {"ios": "https://dc.lft.to/lastmile_qr_scan", "android": "https://dc.lft.to/lastmile_qr_scan"}, "is_reserved": 0}, {"lon": -77.0068495, "bike_id": "6710ae225ea7bbce2096134474eba50e", "lat": 38.879469, "fusion_lon": 0.0, "fusion_lat": 0.0, "type": "electric_scooter", "name": "6710ae225ea7bbce2096134474eba50e", "is_disabled": 0, "rental_uris": {"ios": "https://dc.lft.to/lastmile_qr_scan", "android": "https://dc.lft.to/lastmile_qr_scan"}, "is_reserved": 0}, {"lon": -76.9548165, "bike_id": "8a39393a26e21a21e1a01bcf81a66dfb", "lat": 38.884672, "fusion_lon": 0.0, "fusion_lat": 0.0, "type": "electric_scooter", "name": "8a39393a26e21a21e1a01bcf81a66dfb", "is_disabled": 0, "rental_uris": {"ios": "https://dc.lft.to/lastmile_qr_scan", "android": "https://dc.lft.to/lastmile_qr_scan"}, "is_reserved": 0}, {"lon": -77.03879116666667, "bike_id": "73f68b901d1a03451450625e59c54a67", "lat": 38.932936833333336, "fusion_lon": 0.0, "fusion_lat": 0.0, "type": "electric_scooter", "name": "73f68b901d1a03451450625e59c54a67", "is_disabled": 0, "rental_uris": {"ios": "https://dc.lft.to/lastmile_qr_scan", "android": "https://dc.lft.to/lastmile_qr_scan"}, "is_reserved": 0}, {"lon": -77.00201166666666, "bike_id": "7725e74122386b95d1daebfe355ce2e6", "lat": 38.90038966666667, "fusion_lon": 0.0, "fusion_lat": 0.0, "type": "electric_scooter", "name": "7725e74122386b95d1daebfe355ce2e6", "is_disabled": 0, "rental_uris": {"ios": "https://dc.lft.to/lastmile_qr_scan", "android": "https://dc.lft.to/lastmile_qr_scan"}, "is_reserved": 0}, {"lon": -76.98259333333333, "bike_id": "cb5f38cd52d67c05ff7a213778c978b1", "lat": 38.90854783333333, "fusion_lon": 0.0, "fusion_lat": 0.0, "type": "electric_scooter", "name": "cb5f38cd52d67c05ff7a213778c978b1", "is_disabled": 0, "rental_uris": {"ios": "https://dc.lft.to/lastmile_qr_scan", "android": "https://dc.lft.to/lastmile_qr_scan"}, "is_reserved": 0}, {"lon": -76.98883716666667, "bike_id": "420e12be47025ccef3808907f115751f", "lat": 38.866490666666664, "fusion_lon": 0.0, "fusion_lat": 0.0, "type": "electric_scooter", "name": "420e12be47025ccef3808907f115751f", "is_disabled": 0, "rental_uris": {"ios": "https://dc.lft.to/lastmile_qr_scan", "android": "https://dc.lft.to/lastmile_qr_scan"}, "is_reserved": 0}, {"lon": -76.98593016666666, "bike_id": "ea2fe5beed7a66af5d512a1c713bea4e", "lat": 38.908145, "fusion_lon": 0.0, "fusion_lat": 0.0, "type": "electric_scooter", "name": "ea2fe5beed7a66af5d512a1c713bea4e", "is_disabled": 0, "rental_uris": {"ios": "https://dc.lft.to/lastmile_qr_scan", "android": "https://dc.lft.to/lastmile_qr_scan"}, "is_reserved": 0}, {"lon": -77.00211833333333, "bike_id": "50fb112aa8a252b927ff5f17684ffa7c", "lat": 38.9003565, "fusion_lon": 0.0, "fusion_lat": 0.0, "type": "electric_scooter", "name": "50fb112aa8a252b927ff5f17684ffa7c", "is_disabled": 0, "rental_uris": {"ios": "https://dc.lft.to/lastmile_qr_scan", "android": "https://dc.lft.to/lastmile_qr_scan"}, "is_reserved": 0}, {"lon": -76.9747985, "bike_id": "9377a5d3a275b3bb1ccbb5d39f1a857f", "lat": 38.90353366666667, "fusion_lon": 0.0, "fusion_lat": 0.0, "type": "electric_scooter", "name": "9377a5d3a275b3bb1ccbb5d39f1a857f", "is_disabled": 0, "rental_uris": {"ios": "https://dc.lft.to/lastmile_qr_scan", "android": "https://dc.lft.to/lastmile_qr_scan"}, "is_reserved": 0}, {"lon": -77.0065025, "bike_id": "a73a36128d21bc0d6cd2380b78f9394f", "lat": 38.926216333333336, "fusion_lon": 0.0, "fusion_lat": 0.0, "type": "electric_scooter", "name": "a73a36128d21bc0d6cd2380b78f9394f", "is_disabled": 0, "rental_uris": {"ios": "https://dc.lft.to/lastmile_qr_scan", "android": "https://dc.lft.to/lastmile_qr_scan"}, "is_reserved": 0}, {"lon": -77.03393733333333, "bike_id": "9b02139c21847bb9fc3d0751262e1ea0", "lat": 38.90546616666666, "fusion_lon": 0.0, "fusion_lat": 0.0, "type": "electric_scooter", "name": "9b02139c21847bb9fc3d0751262e1ea0", "is_disabled": 0, "rental_uris": {"ios": "https://dc.lft.to/lastmile_qr_scan", "android": "https://dc.lft.to/lastmile_qr_scan"}, "is_reserved": 0}, {"lon": -77.06513083333333, "bike_id": "ea25a8c619d9433e20affe6d7584b21e", "lat": 38.90397, "fusion_lon": 0.0, "fusion_lat": 0.0, "type": "electric_scooter", "name": "ea25a8c619d9433e20affe6d7584b21e", "is_disabled": 0, "rental_uris": {"ios": "https://dc.lft.to/lastmile_qr_scan", "android": "https://dc.lft.to/lastmile_qr_scan"}, "is_reserved": 0}, {"lon": -77.0128695, "bike_id": "4c61a5d11e7ca772db7163ba0d40ff20", "lat": 38.920222333333335, "fusion_lon": 0.0, "fusion_lat": 0.0, "type": "electric_scooter", "name": "4c61a5d11e7ca772db7163ba0d40ff20", "is_disabled": 0, "rental_uris": {"ios": "https://dc.lft.to/lastmile_qr_scan", "android": "https://dc.lft.to/lastmile_qr_scan"}, "is_reserved": 0}, {"lon": -76.9901885, "bike_id": "cf9cef9ce601501ecb78b07a4e65cf07", "lat": 38.8664265, "fusion_lon": 0.0, "fusion_lat": 0.0, "type": "electric_scooter", "name": "cf9cef9ce601501ecb78b07a4e65cf07", "is_disabled": 0, "rental_uris": {"ios": "https://dc.lft.to/lastmile_qr_scan", "android": "https://dc.lft.to/lastmile_qr_scan"}, "is_reserved": 0}, {"lon": -77.03874366666666, "bike_id": "e461deb991bc1d148b1e578f190dff09", "lat": 38.9155855, "fusion_lon": 0.0, "fusion_lat": 0.0, "type": "electric_scooter", "name": "e461deb991bc1d148b1e578f190dff09", "is_disabled": 0, "rental_uris": {"ios": "https://dc.lft.to/lastmile_qr_scan", "android": "https://dc.lft.to/lastmile_qr_scan"}, "is_reserved": 0}, {"lon": -76.99088716666667, "bike_id": "562e8a1b2de665cc8c2ca4d89e60bd61", "lat": 38.86239333333333, "fusion_lon": 0.0, "fusion_lat": 0.0, "type": "electric_bike", "name": "562e8a1b2de665cc8c2ca4d89e60bd61", "is_disabled": 0, "rental_uris": {"ios": "https://dc.lft.to/lastmile_qr_scan", "android": "https://dc.lft.to/lastmile_qr_scan"}, "is_reserved": 0}, {"lon": -77.080758, "bike_id": "4c5fb559ba447bfa86725eb181aa6e0d", "lat": 39.05283333333333, "fusion_lon": 0.0, "fusion_lat": 0.0, "type": "electric_bike", "name": "4c5fb559ba447bfa86725eb181aa6e0d", "is_disabled": 0, "rental_uris": {"ios": "https://dc.lft.to/lastmile_qr_scan", "android": "https://dc.lft.to/lastmile_qr_scan"}, "is_reserved": 0}, {"lon": -76.995296, "bike_id": "156c695cb52bef18bc4bec7530ad6e0a", "lat": 38.8837135, "fusion_lon": 0.0, "fusion_lat": 0.0, "type": "electric_scooter", "name": "156c695cb52bef18bc4bec7530ad6e0a", "is_disabled": 0, "rental_uris": {"ios": "https://dc.lft.to/lastmile_qr_scan", "android": "https://dc.lft.to/lastmile_qr_scan"}, "is_reserved": 0}, {"lon": -77.019388, "bike_id": "45b545543eef08c8c91a3d23d60202ad", "lat": 38.9352895, "fusion_lon": 0.0, "fusion_lat": 0.0, "type": "electric_scooter", "name": "45b545543eef08c8c91a3d23d60202ad", "is_disabled": 0, "rental_uris": {"ios": "https://dc.lft.to/lastmile_qr_scan", "android": "https://dc.lft.to/lastmile_qr_scan"}, "is_reserved": 0}, {"lon": -77.04864483333333, "bike_id": "6d60b143af508f81a58de16cd44cc97d", "lat": 38.892186833333334, "fusion_lon": 0.0, "fusion_lat": 0.0, "type": "electric_scooter", "name": "6d60b143af508f81a58de16cd44cc97d", "is_disabled": 0, "rental_uris": {"ios": "https://dc.lft.to/lastmile_qr_scan", "android": "https://dc.lft.to/lastmile_qr_scan"}, "is_reserved": 0}, {"lon": -77.03436216666667, "bike_id": "4202055bc5d2535dd7c91ab1ad0165bc", "lat": 38.9097685, "fusion_lon": 0.0, "fusion_lat": 0.0, "type": "electric_scooter", "name": "4202055bc5d2535dd7c91ab1ad0165bc", "is_disabled": 0, "rental_uris": {"ios": "https://dc.lft.to/lastmile_qr_scan", "android": "https://dc.lft.to/lastmile_qr_scan"}, "is_reserved": 0}, {"lon": -76.96551066666666, "bike_id": "cbea9440b359b50d22a00999f766d4c9", "lat": 38.9184635, "fusion_lon": 0.0, "fusion_lat": 0.0, "type": "electric_scooter", "name": "cbea9440b359b50d22a00999f766d4c9", "is_disabled": 0, "rental_uris": {"ios": "https://dc.lft.to/lastmile_qr_scan", "android": "https://dc.lft.to/lastmile_qr_scan"}, "is_reserved": 0}, {"lon": -77.06833783333333, "bike_id": "b6fa79186f07eaef94771693c372f364", "lat": 38.805714, "fusion_lon": 0.0, "fusion_lat": 0.0, "type": "electric_bike", "name": "b6fa79186f07eaef94771693c372f364", "is_disabled": 0, "rental_uris": {"ios": "https://dc.lft.to/lastmile_qr_scan", "android": "https://dc.lft.to/lastmile_qr_scan"}, "is_reserved": 0}, {"lon": -76.99007066666667, "bike_id": "187d43b9e19688f47ceb14eb3a601cc7", "lat": 38.865072, "fusion_lon": 0.0, "fusion_lat": 0.0, "type": "electric_scooter", "name": "187d43b9e19688f47ceb14eb3a601cc7", "is_disabled": 0, "rental_uris": {"ios": "https://dc.lft.to/lastmile_qr_scan", "android": "https://dc.lft.to/lastmile_qr_scan"}, "is_reserved": 0}, {"lon": -77.00327933333334, "bike_id": "d5908cc8f2ba88551180e72232494372", "lat": 38.89731783333333, "fusion_lon": 0.0, "fusion_lat": 0.0, "type": "electric_scooter", "name": "d5908cc8f2ba88551180e72232494372", "is_disabled": 0, "rental_uris": {"ios": "https://dc.lft.to/lastmile_qr_scan", "android": "https://dc.lft.to/lastmile_qr_scan"}, "is_reserved": 0}, {"lon": -77.03258533333333, "bike_id": "5afb4e590611b674ed116629679f6565", "lat": 38.93699566666667, "fusion_lon": 0.0, "fusion_lat": 0.0, "type": "electric_scooter", "name": "5afb4e590611b674ed116629679f6565", "is_disabled": 0, "rental_uris": {"ios": "https://dc.lft.to/lastmile_qr_scan", "android": "https://dc.lft.to/lastmile_qr_scan"}, "is_reserved": 0}, {"lon": -77.00522916666667, "bike_id": "6ac14627b7030b1efc0b2f36d9268803", "lat": 38.87548566666667, "fusion_lon": 0.0, "fusion_lat": 0.0, "type": "electric_scooter", "name": "6ac14627b7030b1efc0b2f36d9268803", "is_disabled": 0, "rental_uris": {"ios": "https://dc.lft.to/lastmile_qr_scan", "android": "https://dc.lft.to/lastmile_qr_scan"}, "is_reserved": 0}, {"lon": -77.0280725, "bike_id": "d28a1dcdc1c0dc048db1e15529e0a8fe", "lat": 38.930803833333336, "fusion_lon": 0.0, "fusion_lat": 0.0, "type": "electric_scooter", "name": "d28a1dcdc1c0dc048db1e15529e0a8fe", "is_disabled": 0, "rental_uris": {"ios": "https://dc.lft.to/lastmile_qr_scan", "android": "https://dc.lft.to/lastmile_qr_scan"}, "is_reserved": 0}, {"lon": -77.02769533333333, "bike_id": "ecc83e8d9590b5bd5dc952d11352a447", "lat": 38.95423483333333, "fusion_lon": 0.0, "fusion_lat": 0.0, "type": "electric_scooter", "name": "ecc83e8d9590b5bd5dc952d11352a447", "is_disabled": 0, "rental_uris": {"ios": "https://dc.lft.to/lastmile_qr_scan", "android": "https://dc.lft.to/lastmile_qr_scan"}, "is_reserved": 0}, {"lon": -76.98088716666666, "bike_id": "97d73f6019da53a97d3b72ea0d3d33b5", "lat": 38.907092, "fusion_lon": 0.0, "fusion_lat": 0.0, "type": "electric_scooter", "name": "97d73f6019da53a97d3b72ea0d3d33b5", "is_disabled": 0, "rental_uris": {"ios": "https://dc.lft.to/lastmile_qr_scan", "android": "https://dc.lft.to/lastmile_qr_scan"}, "is_reserved": 0}, {"lon": -77.05239466666667, "bike_id": "e41208ec2b9a2bc1996479bd64449642", "lat": 38.92343983333333, "fusion_lon": 0.0, "fusion_lat": 0.0, "type": "electric_scooter", "name": "e41208ec2b9a2bc1996479bd64449642", "is_disabled": 0, "rental_uris": {"ios": "https://dc.lft.to/lastmile_qr_scan", "android": "https://dc.lft.to/lastmile_qr_scan"}, "is_reserved": 0}, {"lon": -77.03218566666666, "bike_id": "e9182fc8f0b014b7103dcb7e529dd9a9", "lat": 38.91711683333333, "fusion_lon": 0.0, "fusion_lat": 0.0, "type": "electric_scooter", "name": "e9182fc8f0b014b7103dcb7e529dd9a9", "is_disabled": 0, "rental_uris": {"ios": "https://dc.lft.to/lastmile_qr_scan", "android": "https://dc.lft.to/lastmile_qr_scan"}, "is_reserved": 0}, {"lon": -77.03282166666666, "bike_id": "73901d06458870a7582076ef4ae54548", "lat": 38.92835916666667, "fusion_lon": 0.0, "fusion_lat": 0.0, "type": "electric_scooter", "name": "73901d06458870a7582076ef4ae54548", "is_disabled": 0, "rental_uris": {"ios": "https://dc.lft.to/lastmile_qr_scan", "android": "https://dc.lft.to/lastmile_qr_scan"}, "is_reserved": 0}, {"lon": -77.03331533333333, "bike_id": "1a106a856ccf0e907d7bc047092379de", "lat": 38.93895933333334, "fusion_lon": 0.0, "fusion_lat": 0.0, "type": "electric_scooter", "name": "1a106a856ccf0e907d7bc047092379de", "is_disabled": 0, "rental_uris": {"ios": "https://dc.lft.to/lastmile_qr_scan", "android": "https://dc.lft.to/lastmile_qr_scan"}, "is_reserved": 0}, {"lon": -77.0340085, "bike_id": "694022352c1daa0e747ee631c6231151", "lat": 38.905582833333334, "fusion_lon": 0.0, "fusion_lat": 0.0, "type": "electric_scooter", "name": "694022352c1daa0e747ee631c6231151", "is_disabled": 0, "rental_uris": {"ios": "https://dc.lft.to/lastmile_qr_scan", "android": "https://dc.lft.to/lastmile_qr_scan"}, "is_reserved": 0}, {"lon": -77.02278066666666, "bike_id": "1eb32908ced54fe7c00bf16f0a4fdce4", "lat": 38.909653166666665, "fusion_lon": 0.0, "fusion_lat": 0.0, "type": "electric_scooter", "name": "1eb32908ced54fe7c00bf16f0a4fdce4", "is_disabled": 0, "rental_uris": {"ios": "https://dc.lft.to/lastmile_qr_scan", "android": "https://dc.lft.to/lastmile_qr_scan"}, "is_reserved": 0}, {"lon": -77.04478866666666, "bike_id": "280be4f587a9372f8365f50fafb8168e", "lat": 38.91937766666667, "fusion_lon": 0.0, "fusion_lat": 0.0, "type": "electric_scooter", "name": "280be4f587a9372f8365f50fafb8168e", "is_disabled": 0, "rental_uris": {"ios": "https://dc.lft.to/lastmile_qr_scan", "android": "https://dc.lft.to/lastmile_qr_scan"}, "is_reserved": 0}, {"lon": -77.01724783333333, "bike_id": "dc705a6c400f55e1ff6811dc51a31b89", "lat": 38.9037715, "fusion_lon": 0.0, "fusion_lat": 0.0, "type": "electric_scooter", "name": "dc705a6c400f55e1ff6811dc51a31b89", "is_disabled": 0, "rental_uris": {"ios": "https://dc.lft.to/lastmile_qr_scan", "android": "https://dc.lft.to/lastmile_qr_scan"}, "is_reserved": 0}, {"lon": -77.04654283333333, "bike_id": "bd47028610fdea985e4fc1d39d575dac", "lat": 38.9136415, "fusion_lon": 0.0, "fusion_lat": 0.0, "type": "electric_scooter", "name": "bd47028610fdea985e4fc1d39d575dac", "is_disabled": 0, "rental_uris": {"ios": "https://dc.lft.to/lastmile_qr_scan", "android": "https://dc.lft.to/lastmile_qr_scan"}, "is_reserved": 0}, {"lon": -76.9936335, "bike_id": "240bbe5a157cb1cb8b3c73d2a37ad2b3", "lat": 38.9239525, "fusion_lon": 0.0, "fusion_lat": 0.0, "type": "electric_scooter", "name": "240bbe5a157cb1cb8b3c73d2a37ad2b3", "is_disabled": 0, "rental_uris": {"ios": "https://dc.lft.to/lastmile_qr_scan", "android": "https://dc.lft.to/lastmile_qr_scan"}, "is_reserved": 0}, {"lon": -77.029637, "bike_id": "286bd6a77c4ac82e70c64d569357183d", "lat": 38.90501883333334, "fusion_lon": 0.0, "fusion_lat": 0.0, "type": "electric_scooter", "name": "286bd6a77c4ac82e70c64d569357183d", "is_disabled": 0, "rental_uris": {"ios": "https://dc.lft.to/lastmile_qr_scan", "android": "https://dc.lft.to/lastmile_qr_scan"}, "is_reserved": 0}, {"lon": -77.05231016666667, "bike_id": "5222a577dcb7936a58e1868aa6909fda", "lat": 38.92474266666667, "fusion_lon": 0.0, "fusion_lat": 0.0, "type": "electric_scooter", "name": "5222a577dcb7936a58e1868aa6909fda", "is_disabled": 0, "rental_uris": {"ios": "https://dc.lft.to/lastmile_qr_scan", "android": "https://dc.lft.to/lastmile_qr_scan"}, "is_reserved": 0}, {"lon": -77.02728466666667, "bike_id": "46b495158f6241282cc63fbe85615772", "lat": 38.93208416666667, "fusion_lon": 0.0, "fusion_lat": 0.0, "type": "electric_scooter", "name": "46b495158f6241282cc63fbe85615772", "is_disabled": 0, "rental_uris": {"ios": "https://dc.lft.to/lastmile_qr_scan", "android": "https://dc.lft.to/lastmile_qr_scan"}, "is_reserved": 0}, {"lon": -77.01463466666667, "bike_id": "9b0ed41b83f7db1ce55d0562b8709f31", "lat": 38.91767383333333, "fusion_lon": 0.0, "fusion_lat": 0.0, "type": "electric_scooter", "name": "9b0ed41b83f7db1ce55d0562b8709f31", "is_disabled": 0, "rental_uris": {"ios": "https://dc.lft.to/lastmile_qr_scan", "android": "https://dc.lft.to/lastmile_qr_scan"}, "is_reserved": 0}, {"lon": -77.010934, "bike_id": "a5131ee9cc2a6dc1007385ff8c855ad8", "lat": 38.91565666666666, "fusion_lon": 0.0, "fusion_lat": 0.0, "type": "electric_scooter", "name": "a5131ee9cc2a6dc1007385ff8c855ad8", "is_disabled": 0, "rental_uris": {"ios": "https://dc.lft.to/lastmile_qr_scan", "android": "https://dc.lft.to/lastmile_qr_scan"}, "is_reserved": 0}, {"lon": -77.0279575, "bike_id": "13da873ce6e3481e5ac8f88080b79ee3", "lat": 38.92028483333333, "fusion_lon": 0.0, "fusion_lat": 0.0, "type": "electric_scooter", "name": "13da873ce6e3481e5ac8f88080b79ee3", "is_disabled": 0, "rental_uris": {"ios": "https://dc.lft.to/lastmile_qr_scan", "android": "https://dc.lft.to/lastmile_qr_scan"}, "is_reserved": 0}, {"lon": -77.0030565, "bike_id": "b89595b522ab8d2fd5ad9f05248b2f2c", "lat": 38.907463166666666, "fusion_lon": 0.0, "fusion_lat": 0.0, "type": "electric_bike", "name": "b89595b522ab8d2fd5ad9f05248b2f2c", "is_disabled": 0, "rental_uris": {"ios": "https://dc.lft.to/lastmile_qr_scan", "android": "https://dc.lft.to/lastmile_qr_scan"}, "is_reserved": 0}, {"lon": -77.0526955, "bike_id": "680b86b432f1ae8a3960cd2049d29325", "lat": 38.9102725, "fusion_lon": 0.0, "fusion_lat": 0.0, "type": "electric_scooter", "name": "680b86b432f1ae8a3960cd2049d29325", "is_disabled": 0, "rental_uris": {"ios": "https://dc.lft.to/lastmile_qr_scan", "android": "https://dc.lft.to/lastmile_qr_scan"}, "is_reserved": 0}, {"lon": -77.02785016666667, "bike_id": "b2f7c9d9a9cfa9f3bb7fb7ef07b0ad9a", "lat": 38.956763, "fusion_lon": 0.0, "fusion_lat": 0.0, "type": "electric_scooter", "name": "b2f7c9d9a9cfa9f3bb7fb7ef07b0ad9a", "is_disabled": 0, "rental_uris": {"ios": "https://dc.lft.to/lastmile_qr_scan", "android": "https://dc.lft.to/lastmile_qr_scan"}, "is_reserved": 0}, {"lon": -77.02563566666667, "bike_id": "ded68f640728d3f7563f59c54a9942f3", "lat": 38.925751166666664, "fusion_lon": 0.0, "fusion_lat": 0.0, "type": "electric_scooter", "name": "ded68f640728d3f7563f59c54a9942f3", "is_disabled": 0, "rental_uris": {"ios": "https://dc.lft.to/lastmile_qr_scan", "android": "https://dc.lft.to/lastmile_qr_scan"}, "is_reserved": 0}, {"lon": -77.05233716666666, "bike_id": "03ffa1609eef903772634500ada837e4", "lat": 38.9246475, "fusion_lon": 0.0, "fusion_lat": 0.0, "type": "electric_scooter", "name": "03ffa1609eef903772634500ada837e4", "is_disabled": 0, "rental_uris": {"ios": "https://dc.lft.to/lastmile_qr_scan", "android": "https://dc.lft.to/lastmile_qr_scan"}, "is_reserved": 0}, {"lon": -77.03266216666667, "bike_id": "aba56ce60fc99a03918e4b3ade011eca", "lat": 38.9254495, "fusion_lon": 0.0, "fusion_lat": 0.0, "type": "electric_scooter", "name": "aba56ce60fc99a03918e4b3ade011eca", "is_disabled": 0, "rental_uris": {"ios": "https://dc.lft.to/lastmile_qr_scan", "android": "https://dc.lft.to/lastmile_qr_scan"}, "is_reserved": 0}, {"lon": -77.0226805, "bike_id": "bc60f9a9cc75b105154bbf0d7b3e8f2b", "lat": 38.93770983333334, "fusion_lon": 0.0, "fusion_lat": 0.0, "type": "electric_scooter", "name": "bc60f9a9cc75b105154bbf0d7b3e8f2b", "is_disabled": 0, "rental_uris": {"ios": "https://dc.lft.to/lastmile_qr_scan", "android": "https://dc.lft.to/lastmile_qr_scan"}, "is_reserved": 0}, {"lon": -77.050247, "bike_id": "31bf296735adb77babf478399d9a3ec5", "lat": 38.8968975, "fusion_lon": 0.0, "fusion_lat": 0.0, "type": "electric_scooter", "name": "31bf296735adb77babf478399d9a3ec5", "is_disabled": 0, "rental_uris": {"ios": "https://dc.lft.to/lastmile_qr_scan", "android": "https://dc.lft.to/lastmile_qr_scan"}, "is_reserved": 0}, {"lon": -77.045901, "bike_id": "f1cecd3c938ce80588c8c309db5ce15f", "lat": 38.92136266666667, "fusion_lon": 0.0, "fusion_lat": 0.0, "type": "electric_scooter", "name": "f1cecd3c938ce80588c8c309db5ce15f", "is_disabled": 0, "rental_uris": {"ios": "https://dc.lft.to/lastmile_qr_scan", "android": "https://dc.lft.to/lastmile_qr_scan"}, "is_reserved": 0}, {"lon": -77.044031, "bike_id": "819ac9a11a202cefcf3a24ff5d947cc4", "lat": 38.933264, "fusion_lon": 0.0, "fusion_lat": 0.0, "type": "electric_scooter", "name": "819ac9a11a202cefcf3a24ff5d947cc4", "is_disabled": 0, "rental_uris": {"ios": "https://dc.lft.to/lastmile_qr_scan", "android": "https://dc.lft.to/lastmile_qr_scan"}, "is_reserved": 0}, {"lon": -77.04251916666666, "bike_id": "d0549bb0915a430cd0c3f1621babec29", "lat": 38.92634066666667, "fusion_lon": 0.0, "fusion_lat": 0.0, "type": "electric_scooter", "name": "d0549bb0915a430cd0c3f1621babec29", "is_disabled": 0, "rental_uris": {"ios": "https://dc.lft.to/lastmile_qr_scan", "android": "https://dc.lft.to/lastmile_qr_scan"}, "is_reserved": 0}, {"lon": -77.02711183333334, "bike_id": "98686f69c34821e152eabbd8dd68ebad", "lat": 38.92770183333333, "fusion_lon": 0.0, "fusion_lat": 0.0, "type": "electric_scooter", "name": "98686f69c34821e152eabbd8dd68ebad", "is_disabled": 0, "rental_uris": {"ios": "https://dc.lft.to/lastmile_qr_scan", "android": "https://dc.lft.to/lastmile_qr_scan"}, "is_reserved": 0}, {"lon": -77.04791216666666, "bike_id": "58266bd60b23322f603a4ed802cc795a", "lat": 38.90975, "fusion_lon": 0.0, "fusion_lat": 0.0, "type": "electric_scooter", "name": "58266bd60b23322f603a4ed802cc795a", "is_disabled": 0, "rental_uris": {"ios": "https://dc.lft.to/lastmile_qr_scan", "android": "https://dc.lft.to/lastmile_qr_scan"}, "is_reserved": 0}, {"lon": -77.0534935, "bike_id": "f44581fb46355507bb0bb731a0ca2f17", "lat": 38.9270755, "fusion_lon": 0.0, "fusion_lat": 0.0, "type": "electric_scooter", "name": "f44581fb46355507bb0bb731a0ca2f17", "is_disabled": 0, "rental_uris": {"ios": "https://dc.lft.to/lastmile_qr_scan", "android": "https://dc.lft.to/lastmile_qr_scan"}, "is_reserved": 0}, {"lon": -76.92738033333333, "bike_id": "15e4d59eb5e0a3af78a7c88472b2da8b", "lat": 38.889674666666664, "fusion_lon": 0.0, "fusion_lat": 0.0, "type": "electric_scooter", "name": "15e4d59eb5e0a3af78a7c88472b2da8b", "is_disabled": 0, "rental_uris": {"ios": "https://dc.lft.to/lastmile_qr_scan", "android": "https://dc.lft.to/lastmile_qr_scan"}, "is_reserved": 0}, {"lon": -76.99106216666667, "bike_id": "af84f42dfd706ac93838e2de923154c1", "lat": 38.903174166666666, "fusion_lon": 0.0, "fusion_lat": 0.0, "type": "electric_scooter", "name": "af84f42dfd706ac93838e2de923154c1", "is_disabled": 0, "rental_uris": {"ios": "https://dc.lft.to/lastmile_qr_scan", "android": "https://dc.lft.to/lastmile_qr_scan"}, "is_reserved": 0}, {"lon": -76.98559566666667, "bike_id": "0b80730d80bc3dcb5ac9799f54334bda", "lat": 38.89953966666667, "fusion_lon": 0.0, "fusion_lat": 0.0, "type": "electric_scooter", "name": "0b80730d80bc3dcb5ac9799f54334bda", "is_disabled": 0, "rental_uris": {"ios": "https://dc.lft.to/lastmile_qr_scan", "android": "https://dc.lft.to/lastmile_qr_scan"}, "is_reserved": 0},