{"data": {"bikes": [{"name": "57a716a0cd474fd8d7d83ccb919ccbd2", "fusion_lat": 0.0, "type": "electric_scooter", "lat": 38.89850833333333, "is_reserved": 0, "is_disabled": 0, "fusion_lon": 0.0, "bike_id": "57a716a0cd474fd8d7d83ccb919ccbd2", "lon": -77.04085383333333, "rental_uris": {"ios": "https://dc.lft.to/lastmile_qr_scan", "android": "https://dc.lft.to/lastmile_qr_scan"}}, {"name": "d0e626c868cbe22c559f317adb891361", "fusion_lat": 0.0, "type": "electric_bike", "lat": 38.9518485, "is_reserved": 0, "is_disabled": 0, "fusion_lon": 0.0, "bike_id": "d0e626c868cbe22c559f317adb891361", "lon": -76.93545533333334, "rental_uris": {"ios": "https://dc.lft.to/lastmile_qr_scan", "android": "https://dc.lft.to/lastmile_qr_scan"}}, {"name": "7d9956b4787d1bb78963952b4533e507", "fusion_lat": 0.0, "type": "electric_scooter", "lat": 38.87268433333333, "is_reserved": 0, "is_disabled": 0, "fusion_lon": 0.0, "bike_id": "7d9956b4787d1bb78963952b4533e507", "lon": -77.01532133333333, "rental_uris": {"ios": "https://dc.lft.to/lastmile_qr_scan", "android": "https://dc.lft.to/lastmile_qr_scan"}}, {"name": "5823f6e22cbb8b2f3e5e7e064eed48b5", "fusion_lat": 0.0, "type": "electric_scooter", "lat": 38.89760883333334, "is_reserved": 0, "is_disabled": 0, "fusion_lon": 0.0, "bike_id": "5823f6e22cbb8b2f3e5e7e064eed48b5", "lon": -77.0267305, "rental_uris": {"ios": "https://dc.lft.to/lastmile_qr_scan", "android": "https://dc.lft.to/lastmile_qr_scan"}}, {"name": "0ce0fa952796a9deccb2b32a801b0007", "fusion_lat": 0.0, "type": "electric_scooter", "lat": 38.912249333333335, "is_reserved": 0, "is_disabled": 0, "fusion_lon": 0.0, "bike_id": "0ce0fa952796a9deccb2b32a801b0007", "lon": -77.029447, "rental_uris": {"ios": "https://dc.lft.to/lastmile_qr_scan", "android": "https://dc.lft.to/lastmile_qr_scan"}}, {"name": "2180176342488adcbc2c896555a9f1ce", "fusion_lat": 0.0, "type": "electric_scooter", "lat": 38.901393, "is_reserved": 0, "is_disabled": 0, "fusion_lon": 0.0, "bike_id": "2180176342488adcbc2c896555a9f1ce", "lon": -77.0007565, "rental_uris": {"ios": "https://dc.lft.to/lastmile_qr_scan", "android": "https://dc.lft.to/lastmile_qr_scan"}}, {"name": "4207632600cf1c784e80285f812ab4e5", "fusion_lat": 0.0, "type": "electric_scooter", "lat": 38.93819466666667, "is_reserved": 0, "is_disabled": 0, "fusion_lon": 0.0, "bike_id": "4207632600cf1c784e80285f812ab4e5", "lon": -77.02649233333334, "rental_uris": {"ios": "https://dc.lft.to/lastmile_qr_scan", "android": "https://dc.lft.to/lastmile_qr_scan"}}, {"name": "ecf2b7d4d300a4d56d8842d42aec86e8", "fusion_lat": 0.0, "type": "electric_scooter", "lat": 38.94185983333333, "is_reserved": 0, "is_disabled": 0, "fusion_lon": 0.0, "bike_id": "ecf2b7d4d300a4d56d8842d42aec86e8", "lon": -77.02487866666667, "rental_uris": {"ios": "https://dc.lft.to/lastmile_qr_scan", "android": "https://dc.lft.to/lastmile_qr_scan"}}, {"name": "1bb87f6148e2fc9025ec907e599119e1", "fusion_lat": 0.0, "type": "electric_bike", "lat": 38.923502166666665, "is_reserved": 0, "is_disabled": 0, "fusion_lon": 0.0, "bike_id": "1bb87f6148e2fc9025ec907e599119e1", "lon": -76.99249766666667, "rental_uris": {"ios": "https://dc.lft.to/lastmile_qr_scan", "android": "https://dc.lft.to/lastmile_qr_scan"}}, {"name": "958c5b7aabed20d5f65aae4d7da4021e", "fusion_lat": 0.0, "type": "electric_scooter", "lat": 38.902643833333336, "is_reserved": 0, "is_disabled": 0, "fusion_lon": 0.0, "bike_id": "958c5b7aabed20d5f65aae4d7da4021e", "lon": -77.021498, "rental_uris": {"ios": "https://dc.lft.to/lastmile_qr_scan", "android": "https://dc.lft.to/lastmile_qr_scan"}}, {"name": "1e36864d397c8defceb282b92670d25a", "fusion_lat": 0.0, "type": "electric_scooter", "lat": 38.9064435, "is_reserved": 0, "is_disabled": 0, "fusion_lon": 0.0, "bike_id": "1e36864d397c8defceb282b92670d25a", "lon": -77.0531335, "rental_uris": {"ios": "https://dc.lft.to/lastmile_qr_scan", "android": "https://dc.lft.to/lastmile_qr_scan"}}, {"name": "c77403959eb77cdf3bc31c282c15591c", "fusion_lat": 0.0, "type": "electric_scooter", "lat": 38.9013435, "is_reserved": 0, "is_disabled": 0, "fusion_lon": 0.0, "bike_id": "c77403959eb77cdf3bc31c282c15591c", "lon": -77.04974883333334, "rental_uris": {"ios": "https://dc.lft.to/lastmile_qr_scan", "android": "https://dc.lft.to/lastmile_qr_scan"}}, {"name": "9bccb5bfc31fe667bcbe8d6fe676c33c", "fusion_lat": 0.0, "type": "electric_scooter", "lat": 38.89853733333333, "is_reserved": 0, "is_disabled": 0, "fusion_lon": 0.0, "bike_id": "9bccb5bfc31fe667bcbe8d6fe676c33c", "lon": -77.016118, "rental_uris": {"ios": "https://dc.lft.to/lastmile_qr_scan", "android": "https://dc.lft.to/lastmile_qr_scan"}}, {"name": "db6e81f3c9b5a6381f08918c43b651f5", "fusion_lat": 0.0, "type": "electric_scooter", "lat": 38.899051666666665, "is_reserved": 0, "is_disabled": 0, "fusion_lon": 0.0, "bike_id": "db6e81f3c9b5a6381f08918c43b651f5", "lon": -77.03906216666667, "rental_uris": {"ios": "https://dc.lft.to/lastmile_qr_scan", "android": "https://dc.lft.to/lastmile_qr_scan"}}, {"name": "48d9143cfe229b03118e3cf425c0f75b", "fusion_lat": 0.0, "type": "electric_scooter", "lat": 38.911781166666664, "is_reserved": 0, "is_disabled": 0, "fusion_lon": 0.0, "bike_id": "48d9143cfe229b03118e3cf425c0f75b", "lon": -77.03140716666667, "rental_uris": {"ios": "https://dc.lft.to/lastmile_qr_scan", "android": "https://dc.lft.to/lastmile_qr_scan"}}, {"name": "277a7450ae31bdb59f0b47d19f4664b5", "fusion_lat": 0.0, "type": "electric_scooter", "lat": 38.91135383333334, "is_reserved": 0, "is_disabled": 0, "fusion_lon": 0.0, "bike_id": "277a7450ae31bdb59f0b47d19f4664b5", "lon": -77.03662366666667, "rental_uris": {"ios": "https://dc.lft.to/lastmile_qr_scan", "android": "https://dc.lft.to/lastmile_qr_scan"}}, {"name": "07168745bb1ab5b20a46eecc1bf7f388", "fusion_lat": 0.0, "type": "electric_scooter", "lat": 38.907533, "is_reserved": 0, "is_disabled": 0, "fusion_lon": 0.0, "bike_id": "07168745bb1ab5b20a46eecc1bf7f388", "lon": -77.03609316666666, "rental_uris": {"ios": "https://dc.lft.to/lastmile_qr_scan", "android": "https://dc.lft.to/lastmile_qr_scan"}}, {"name": "2e77c433bf86d509e6f4aa31319a2d04", "fusion_lat": 0.0, "type": "electric_scooter", "lat": 38.863543, "is_reserved": 0, "is_disabled": 0, "fusion_lon": 0.0, "bike_id": "2e77c433bf86d509e6f4aa31319a2d04", "lon": -76.9906595, "rental_uris": {"ios": "https://dc.lft.to/lastmile_qr_scan", "android": "https://dc.lft.to/lastmile_qr_scan"}}, {"name": "7f720f153f0fc3d2504d0601d0d142ba", "fusion_lat": 0.0, "type": "electric_scooter", "lat": 38.89886, "is_reserved": 0, "is_disabled": 0, "fusion_lon": 0.0, "bike_id": "7f720f153f0fc3d2504d0601d0d142ba", "lon": -76.931714, "rental_uris": {"ios": "https://dc.lft.to/lastmile_qr_scan", "android": "https://dc.lft.to/lastmile_qr_scan"}}, {"name": "1d9f8d012300d689311e40751c19ef42", "fusion_lat": 0.0, "type": "electric_scooter", "lat": 38.90009666666667, "is_reserved": 0, "is_disabled": 0, "fusion_lon": 0.0, "bike_id": "1d9f8d012300d689311e40751c19ef42", "lon": -77.05525166666666, "rental_uris": {"ios": "https://dc.lft.to/lastmile_qr_scan", "android": "https://dc.lft.to/lastmile_qr_scan"}}, {"name": "ac29b0754303322ea99a24bd60c64471", "fusion_lat": 0.0, "type": "electric_scooter", "lat": 38.88053883333333, "is_reserved": 0, "is_disabled": 0, "fusion_lon": 0.0, "bike_id": "ac29b0754303322ea99a24bd60c64471", "lon": -77.0132815, "rental_uris": {"ios": "https://dc.lft.to/lastmile_qr_scan", "android": "https://dc.lft.to/lastmile_qr_scan"}}, {"name": "82ee48722bdb9841052d5204a96c45ed", "fusion_lat": 0.0, "type": "electric_scooter", "lat": 38.923001166666666, "is_reserved": 0, "is_disabled": 0, "fusion_lon": 0.0, "bike_id": "82ee48722bdb9841052d5204a96c45ed", "lon": -77.042023, "rental_uris": {"ios": "https://dc.lft.to/lastmile_qr_scan", "android": "https://dc.lft.to/lastmile_qr_scan"}}, {"name": "ec650495abcd4f21a96094c89afb3e6c", "fusion_lat": 0.0, "type": "electric_scooter", "lat": 38.912536333333335, "is_reserved": 0, "is_disabled": 0, "fusion_lon": 0.0, "bike_id": "ec650495abcd4f21a96094c89afb3e6c", "lon": -77.03860283333333, "rental_uris": {"ios": "https://dc.lft.to/lastmile_qr_scan", "android": "https://dc.lft.to/lastmile_qr_scan"}}, {"name": "54ea603af0cc688f9b91b502a9ac6363", "fusion_lat": 0.0, "type": "electric_scooter", "lat": 38.8982755, "is_reserved": 0, "is_disabled": 0, "fusion_lon": 0.0, "bike_id": "54ea603af0cc688f9b91b502a9ac6363", "lon": -76.98778933333334, "rental_uris": {"ios": "https://dc.lft.to/lastmile_qr_scan", "android": "https://dc.lft.to/lastmile_qr_scan"}}, {"name": "65f8c5aa2a643d1b29f6d4b5be212e31", "fusion_lat": 0.0, "type": "electric_scooter", "lat": 38.942075, "is_reserved": 0, "is_disabled": 0, "fusion_lon": 0.0, "bike_id": "65f8c5aa2a643d1b29f6d4b5be212e31", "lon": -77.03589783333334, "rental_uris": {"ios": "https://dc.lft.to/lastmile_qr_scan", "android": "https://dc.lft.to/lastmile_qr_scan"}}, {"name": "dc81c87cc733154944d2c03dff550a77", "fusion_lat": 0.0, "type": "electric_scooter", "lat": 38.896133666666664, "is_reserved": 0, "is_disabled": 0, "fusion_lon": 0.0, "bike_id": "dc81c87cc733154944d2c03dff550a77", "lon": -77.02680433333333, "rental_uris": {"ios": "https://dc.lft.to/lastmile_qr_scan", "android": "https://dc.lft.to/lastmile_qr_scan"}}, {"name": "473041df51a460a59ad48d8d110709ad", "fusion_lat": 0.0, "type": "electric_scooter", "lat": 38.89797466666667, "is_reserved": 0, "is_disabled": 0, "fusion_lon": 0.0, "bike_id": "473041df51a460a59ad48d8d110709ad", "lon": -76.99163633333333, "rental_uris": {"ios": "https://dc.lft.to/lastmile_qr_scan", "android": "https://dc.lft.to/lastmile_qr_scan"}}, {"name": "ef4346edb3570a4a0f0cd129b94b63a5", "fusion_lat": 0.0, "type": "electric_scooter", "lat": 38.90366183333333, "is_reserved": 0, "is_disabled": 0, "fusion_lon": 0.0, "bike_id": "ef4346edb3570a4a0f0cd129b94b63a5", "lon": -77.03557483333333, "rental_uris": {"ios": "https://dc.lft.to/lastmile_qr_scan", "android": "https://dc.lft.to/lastmile_qr_scan"}}, {"name": "6091e6891f8711d976b317cec2ff080d", "fusion_lat": 0.0, "type": "electric_scooter", "lat": 38.90721416666667, "is_reserved": 0, "is_disabled": 0, "fusion_lon": 0.0, "bike_id": "6091e6891f8711d976b317cec2ff080d", "lon": -77.0320185, "rental_uris": {"ios": "https://dc.lft.to/lastmile_qr_scan", "android": "https://dc.lft.to/lastmile_qr_scan"}}, {"name": "9b2365127bc50474ff54e4a33e8e0ebb", "fusion_lat": 0.0, "type": "electric_scooter", "lat": 38.9270085, "is_reserved": 0, "is_disabled": 0, "fusion_lon": 0.0, "bike_id": "9b2365127bc50474ff54e4a33e8e0ebb", "lon": -77.0373165, "rental_uris": {"ios": "https://dc.lft.to/lastmile_qr_scan", "android": "https://dc.lft.to/lastmile_qr_scan"}}, {"name": "5928444856c8086a488f5128200d9854", "fusion_lat": 0.0, "type": "electric_scooter", "lat": 38.89894783333333, "is_reserved": 0, "is_disabled": 0, "fusion_lon": 0.0, "bike_id": "5928444856c8086a488f5128200d9854", "lon": -77.01499666666666, "rental_uris": {"ios": "https://dc.lft.to/lastmile_qr_scan", "android": "https://dc.lft.to/lastmile_qr_scan"}}, {"name": "61862b412198d82e532d6c8340a39d16", "fusion_lat": 0.0, "type": "electric_bike", "lat": 38.815105833333334, "is_reserved": 0, "is_disabled": 0, "fusion_lon": 0.0, "bike_id": "61862b412198d82e532d6c8340a39d16", "lon": -77.12657066666667, "rental_uris": {"ios": "https://dc.lft.to/lastmile_qr_scan", "android": "https://dc.lft.to/lastmile_qr_scan"}}, {"name": "628f7abe4418a51157c95e0f3b95961e", "fusion_lat": 0.0, "type": "electric_scooter", "lat": 38.86209733333333, "is_reserved": 0, "is_disabled": 0, "fusion_lon": 0.0, "bike_id": "628f7abe4418a51157c95e0f3b95961e", "lon": -76.99470483333333, "rental_uris": {"ios": "https://dc.lft.to/lastmile_qr_scan", "android": "https://dc.lft.to/lastmile_qr_scan"}}, {"name": "f19b64b9561a6caeae5d42f184bcdfcf", "fusion_lat": 0.0, "type": "electric_scooter", "lat": 38.901165166666665, "is_reserved": 0, "is_disabled": 0, "fusion_lon": 0.0, "bike_id": "f19b64b9561a6caeae5d42f184bcdfcf", "lon": -77.03171366666666, "rental_uris": {"ios": "https://dc.lft.to/lastmile_qr_scan", "android": "https://dc.lft.to/lastmile_qr_scan"}}, {"name": "7717e824bef76174ffe9703def74e12f", "fusion_lat": 0.0, "type": "electric_scooter", "lat": 38.91185566666667, "is_reserved": 0, "is_disabled": 0, "fusion_lon": 0.0, "bike_id": "7717e824bef76174ffe9703def74e12f", "lon": -77.03255316666667, "rental_uris": {"ios": "https://dc.lft.to/lastmile_qr_scan", "android": "https://dc.lft.to/lastmile_qr_scan"}}, {"name": "37c17b4d18aaf2ba7108c84f1bcfcd66", "fusion_lat": 0.0, "type": "electric_scooter", "lat": 38.91334633333334, "is_reserved": 0, "is_disabled": 0, "fusion_lon": 0.0, "bike_id": "37c17b4d18aaf2ba7108c84f1bcfcd66", "lon": -77.04226216666666, "rental_uris": {"ios": "https://dc.lft.to/lastmile_qr_scan", "android": "https://dc.lft.to/lastmile_qr_scan"}}, {"name": "33cd19f5f971ab6ce2a9dda902a19103", "fusion_lat": 0.0, "type": "electric_scooter", "lat": 38.895531166666665, "is_reserved": 0, "is_disabled": 0, "fusion_lon": 0.0, "bike_id": "33cd19f5f971ab6ce2a9dda902a19103", "lon": -76.94888066666667, "rental_uris": {"ios": "https://dc.lft.to/lastmile_qr_scan", "android": "https://dc.lft.to/lastmile_qr_scan"}}, {"name": "2b8d7d65431a69d63df87dc0d7856285", "fusion_lat": 0.0, "type": "electric_scooter", "lat": 38.92332583333334, "is_reserved": 0, "is_disabled": 0, "fusion_lon": 0.0, "bike_id": "2b8d7d65431a69d63df87dc0d7856285", "lon": -77.043006, "rental_uris": {"ios": "https://dc.lft.to/lastmile_qr_scan", "android": "https://dc.lft.to/lastmile_qr_scan"}}, {"name": "2d4f2de1ddf6ab801b3009f071c6aa7a", "fusion_lat": 0.0, "type": "electric_scooter", "lat": 38.90447866666667, "is_reserved": 0, "is_disabled": 0, "fusion_lon": 0.0, "bike_id": "2d4f2de1ddf6ab801b3009f071c6aa7a", "lon": -76.996199, "rental_uris": {"ios": "https://dc.lft.to/lastmile_qr_scan", "android": "https://dc.lft.to/lastmile_qr_scan"}}, {"name": "02e3480c409b22cc1345cff048368cee", "fusion_lat": 0.0, "type": "electric_scooter", "lat": 38.8775405, "is_reserved": 0, "is_disabled": 0, "fusion_lon": 0.0, "bike_id": "02e3480c409b22cc1345cff048368cee", "lon": -76.99419833333333, "rental_uris": {"ios": "https://dc.lft.to/lastmile_qr_scan", "android": "https://dc.lft.to/lastmile_qr_scan"}}, {"name": "bf987ffad342258eba804cd9e04eb8ce", "fusion_lat": 0.0, "type": "electric_scooter", "lat": 38.89583283333333, "is_reserved": 0, "is_disabled": 0, "fusion_lon": 0.0, "bike_id": "bf987ffad342258eba804cd9e04eb8ce", "lon": -76.9372115, "rental_uris": {"ios": "https://dc.lft.to/lastmile_qr_scan", "android": "https://dc.lft.to/lastmile_qr_scan"}}, {"name": "43aebfdffeb7ffeda92c703377f56991", "fusion_lat": 0.0, "type": "electric_scooter", "lat": 38.90961983333333, "is_reserved": 0, "is_disabled": 0, "fusion_lon": 0.0, "bike_id": "43aebfdffeb7ffeda92c703377f56991", "lon": -77.04564266666667, "rental_uris": {"ios": "https://dc.lft.to/lastmile_qr_scan", "android": "https://dc.lft.to/lastmile_qr_scan"}}, {"name": "cb5c69bafa893704fda0a50f16b4d35f", "fusion_lat": 0.0, "type": "electric_scooter", "lat": 38.9031365, "is_reserved": 0, "is_disabled": 0, "fusion_lon": 0.0, "bike_id": "cb5c69bafa893704fda0a50f16b4d35f", "lon": -77.03459233333334, "rental_uris": {"ios": "https://dc.lft.to/lastmile_qr_scan", "android": "https://dc.lft.to/lastmile_qr_scan"}}, {"name": "98497cd3d3845e98bb08839f9b3d1eb0", "fusion_lat": 0.0, "type": "electric_scooter", "lat": 38.85621716666667, "is_reserved": 0, "is_disabled": 0, "fusion_lon": 0.0, "bike_id": "98497cd3d3845e98bb08839f9b3d1eb0", "lon": -76.98018166666667, "rental_uris": {"ios": "https://dc.lft.to/lastmile_qr_scan", "android": "https://dc.lft.to/lastmile_qr_scan"}}, {"name": "67e323d7cae7471cbf9edead85e18068", "fusion_lat": 0.0, "type": "electric_scooter", "lat": 38.90681566666667, "is_reserved": 0, "is_disabled": 0, "fusion_lon": 0.0, "bike_id": "67e323d7cae7471cbf9edead85e18068", "lon": -77.006107, "rental_uris": {"ios": "https://dc.lft.to/lastmile_qr_scan", "android": "https://dc.lft.to/lastmile_qr_scan"}}, {"name": "b236ddd372b100b2afa7d086d0bc6c9f", "fusion_lat": 0.0, "type": "electric_bike", "lat": 38.9200585, "is_reserved": 0, "is_disabled": 0, "fusion_lon": 0.0, "bike_id": "b236ddd372b100b2afa7d086d0bc6c9f", "lon": -76.97489666666667, "rental_uris": {"ios": "https://dc.lft.to/lastmile_qr_scan", "android": "https://dc.lft.to/lastmile_qr_scan"}}, {"name": "a8f591dd93be5561ceb9b9491f904aa8", "fusion_lat": 0.0, "type": "electric_scooter", "lat": 38.910045833333335, "is_reserved": 0, "is_disabled": 0, "fusion_lon": 0.0, "bike_id": "a8f591dd93be5561ceb9b9491f904aa8", "lon": -76.99412516666666, "rental_uris": {"ios": "https://dc.lft.to/lastmile_qr_scan", "android": "https://dc.lft.to/lastmile_qr_scan"}}, {"name": "6d54ae2d1aa8c64eedce2ecb51715ff5", "fusion_lat": 0.0, "type": "electric_scooter", "lat": 38.91274283333333, "is_reserved": 0, "is_disabled": 0, "fusion_lon": 0.0, "bike_id": "6d54ae2d1aa8c64eedce2ecb51715ff5", "lon": -77.060885, "rental_uris": {"ios": "https://dc.lft.to/lastmile_qr_scan", "android": "https://dc.lft.to/lastmile_qr_scan"}}, {"name": "da35a8e8901b6f6e6992abb10f3130e2", "fusion_lat": 0.0, "type": "electric_scooter", "lat": 38.912159333333335, "is_reserved": 0, "is_disabled": 0, "fusion_lon": 0.0, "bike_id": "da35a8e8901b6f6e6992abb10f3130e2", "lon": -77.076, "rental_uris": {"ios": "https://dc.lft.to/lastmile_qr_scan", "android": "https://dc.lft.to/lastmile_qr_scan"}}, {"name": "3c492fb531fe0c988facd25e84eb4575", "fusion_lat": 0.0, "type": "electric_scooter", "lat": 38.8429245, "is_reserved": 0, "is_disabled": 0, "fusion_lon": 0.0, "bike_id": "3c492fb531fe0c988facd25e84eb4575", "lon": -76.99947616666667, "rental_uris": {"ios": "https://dc.lft.to/lastmile_qr_scan", "android": "https://dc.lft.to/lastmile_qr_scan"}}, {"name": "b6157df76bea4e878edc523f2fc5be2a", "fusion_lat": 0.0, "type": "electric_scooter", "lat": 38.88073383333333, "is_reserved": 0, "is_disabled": 0, "fusion_lon": 0.0, "bike_id": "b6157df76bea4e878edc523f2fc5be2a", "lon": -76.93540283333333, "rental_uris": {"ios": "https://dc.lft.to/lastmile_qr_scan", "android": "https://dc.lft.to/lastmile_qr_scan"}}, {"name": "fb8f408058663ff526d48643b6280e43", "fusion_lat": 0.0, "type": "electric_scooter", "lat": 38.918208, "is_reserved": 0, "is_disabled": 0, "fusion_lon": 0.0, "bike_id": "fb8f408058663ff526d48643b6280e43", "lon": -77.012093, "rental_uris": {"ios": "https://dc.lft.to/lastmile_qr_scan", "android": "https://dc.lft.to/lastmile_qr_scan"}}, {"name": "9fffdeacdd1cbb7d7e73ea12555e21e5", "fusion_lat": 0.0, "type": "electric_scooter", "lat": 38.885041666666666, "is_reserved": 0, "is_disabled": 0, "fusion_lon": 0.0, "bike_id": "9fffdeacdd1cbb7d7e73ea12555e21e5", "lon": -77.0217825, "rental_uris": {"ios": "https://dc.lft.to/lastmile_qr_scan", "android": "https://dc.lft.to/lastmile_qr_scan"}}, {"name": "eb4f41daeb2d7c48eb58d09b7c912583", "fusion_lat": 0.0, "type": "electric_scooter", "lat": 38.88336966666667, "is_reserved": 0, "is_disabled": 0, "fusion_lon": 0.0, "bike_id": "eb4f41daeb2d7c48eb58d09b7c912583", "lon": -77.01545416666667, "rental_uris": {"ios": "https://dc.lft.to/lastmile_qr_scan", "android": "https://dc.lft.to/lastmile_qr_scan"}}, {"name": "26fab62d351ae3d5ae93e4b62a389764", "fusion_lat": 0.0, "type": "electric_scooter", "lat": 38.9055895, "is_reserved": 0, "is_disabled": 0, "fusion_lon": 0.0, "bike_id": "26fab62d351ae3d5ae93e4b62a389764", "lon": -77.00594366666667, "rental_uris": {"ios": "https://dc.lft.to/lastmile_qr_scan", "android": "https://dc.lft.to/lastmile_qr_scan"}}, {"name": "7136a9c81a99ae5f5a06e5186fbee22f", "fusion_lat": 0.0, "type": "electric_scooter", "lat": 38.92738466666667, "is_reserved": 0, "is_disabled": 0, "fusion_lon": 0.0, "bike_id": "7136a9c81a99ae5f5a06e5186fbee22f", "lon": -77.024924, "rental_uris": {"ios": "https://dc.lft.to/lastmile_qr_scan", "android": "https://dc.lft.to/lastmile_qr_scan"}}, {"name": "8531500cd0058e0be5fd75c841a030bb", "fusion_lat": 0.0, "type": "electric_scooter", "lat": 38.911735666666665, "is_reserved": 0, "is_disabled": 0, "fusion_lon": 0.0, "bike_id": "8531500cd0058e0be5fd75c841a030bb", "lon": -77.03182083333333, "rental_uris": {"ios": "https://dc.lft.to/lastmile_qr_scan", "android": "https://dc.lft.to/lastmile_qr_scan"}}, {"name": "c2c98b4589bde718e83fcd4b71d489e9", "fusion_lat": 0.0, "type": "electric_scooter", "lat": 38.92876666666667, "is_reserved": 0, "is_disabled": 0, "fusion_lon": 0.0, "bike_id": "c2c98b4589bde718e83fcd4b71d489e9", "lon": -77.02706916666666, "rental_uris": {"ios": "https://dc.lft.to/lastmile_qr_scan", "android": "https://dc.lft.to/lastmile_qr_scan"}}, {"name": "28e9b03bd10ce3620b320a4697d5641f", "fusion_lat": 0.0, "type": "electric_scooter", "lat": 38.9022745, "is_reserved": 0, "is_disabled": 0, "fusion_lon": 0.0, "bike_id": "28e9b03bd10ce3620b320a4697d5641f", "lon": -77.039544, "rental_uris": {"ios": "https://dc.lft.to/lastmile_qr_scan", "android": "https://dc.lft.to/lastmile_qr_scan"}}, {"name": "999d94f95d9a835fefaf9622ee128146", "fusion_lat": 0.0, "type": "electric_scooter", "lat": 38.92740916666666, "is_reserved": 0, "is_disabled": 0, "fusion_lon": 0.0, "bike_id": "999d94f95d9a835fefaf9622ee128146", "lon": -77.02254466666666, "rental_uris": {"ios": "https://dc.lft.to/lastmile_qr_scan", "android": "https://dc.lft.to/lastmile_qr_scan"}}, {"name": "8d909bef22e68cd1e8bc454e57567d46", "fusion_lat": 0.0, "type": "electric_bike", "lat": 38.92789666666667, "is_reserved": 0, "is_disabled": 0, "fusion_lon": 0.0, "bike_id": "8d909bef22e68cd1e8bc454e57567d46", "lon": -77.03243283333333, "rental_uris": {"ios": "https://dc.lft.to/lastmile_qr_scan", "android": "https://dc.lft.to/lastmile_qr_scan"}}, {"name": "4e0388e2493fa68c90026b0922f4aaed", "fusion_lat": 0.0, "type": "electric_scooter", "lat": 38.907301333333336, "is_reserved": 0, "is_disabled": 0, "fusion_lon": 0.0, "bike_id": "4e0388e2493fa68c90026b0922f4aaed", "lon": -77.03202066666667, "rental_uris": {"ios": "https://dc.lft.to/lastmile_qr_scan", "android": "https://dc.lft.to/lastmile_qr_scan"}}, {"name": "a09782041b768ca1de4d4cf6697a5a46", "fusion_lat": 0.0, "type": "electric_scooter", "lat": 38.8996215, "is_reserved": 0, "is_disabled": 0, "fusion_lon": 0.0, "bike_id": "a09782041b768ca1de4d4cf6697a5a46", "lon": -77.05295733333334, "rental_uris": {"ios": "https://dc.lft.to/lastmile_qr_scan", "android": "https://dc.lft.to/lastmile_qr_scan"}}, {"name": "547e2af27f2af772ecb76e0a88c91897", "fusion_lat": 0.0, "type": "electric_scooter", "lat": 38.91013816666667, "is_reserved": 0, "is_disabled": 0, "fusion_lon": 0.0, "bike_id": "547e2af27f2af772ecb76e0a88c91897", "lon": -76.99671133333334, "rental_uris": {"ios": "https://dc.lft.to/lastmile_qr_scan", "android": "https://dc.lft.to/lastmile_qr_scan"}}, {"name": "eb6eae8285002a23c35fff9880cb3eda", "fusion_lat": 0.0, "type": "electric_scooter", "lat": 38.90162733333333, "is_reserved": 0, "is_disabled": 0, "fusion_lon": 0.0, "bike_id": "eb6eae8285002a23c35fff9880cb3eda", "lon": -77.04716266666667, "rental_uris": {"ios": "https://dc.lft.to/lastmile_qr_scan", "android": "https://dc.lft.to/lastmile_qr_scan"}}, {"name": "40c58a68d17ae98dabc7364b8cddaf5f", "fusion_lat": 0.0, "type": "electric_scooter", "lat": 38.939116, "is_reserved": 0, "is_disabled": 0, "fusion_lon": 0.0, "bike_id": "40c58a68d17ae98dabc7364b8cddaf5f", "lon": -77.060436, "rental_uris": {"ios": "https://dc.lft.to/lastmile_qr_scan", "android": "https://dc.lft.to/lastmile_qr_scan"}}, {"name": "16e6db50b61e4614515193c05a565f0c", "fusion_lat": 0.0, "type": "electric_scooter", "lat": 38.922393666666665, "is_reserved": 0, "is_disabled": 0, "fusion_lon": 0.0, "bike_id": "16e6db50b61e4614515193c05a565f0c", "lon": -77.0389905, "rental_uris": {"ios": "https://dc.lft.to/lastmile_qr_scan", "android": "https://dc.lft.to/lastmile_qr_scan"}}, {"name": "9c014f01940231f41cad478c00c9275b", "fusion_lat": 0.0, "type": "electric_scooter", "lat": 38.913561666666666, "is_reserved": 0, "is_disabled": 0, "fusion_lon": 0.0, "bike_id": "9c014f01940231f41cad478c00c9275b", "lon": -77.045743, "rental_uris": {"ios": "https://dc.lft.to/lastmile_qr_scan", "android": "https://dc.lft.to/lastmile_qr_scan"}}, {"name": "fa6c6b441a77cffba695a88411ef2cbe", "fusion_lat": 0.0, "type": "electric_scooter", "lat": 38.92343866666667, "is_reserved": 0, "is_disabled": 0, "fusion_lon": 0.0, "bike_id": "fa6c6b441a77cffba695a88411ef2cbe", "lon": -77.0509715, "rental_uris": {"ios": "https://dc.lft.to/lastmile_qr_scan", "android": "https://dc.lft.to/lastmile_qr_scan"}}, {"name": "604272f063584beed28a29ac62e914d5", "fusion_lat": 0.0, "type": "electric_scooter", "lat": 38.90327966666667, "is_reserved": 0, "is_disabled": 0, "fusion_lon": 0.0, "bike_id": "604272f063584beed28a29ac62e914d5", "lon": -77.03637816666667, "rental_uris": {"ios": "https://dc.lft.to/lastmile_qr_scan", "android": "https://dc.lft.to/lastmile_qr_scan"}}, {"name": "4a18fc7b7859f38f135f3b80c92d4c1b", "fusion_lat": 0.0, "type": "electric_scooter", "lat": 38.90418483333333, "is_reserved": 0, "is_disabled": 0, "fusion_lon": 0.0, "bike_id": "4a18fc7b7859f38f135f3b80c92d4c1b", "lon": -77.04016733333333, "rental_uris": {"ios": "https://dc.lft.to/lastmile_qr_scan", "android": "https://dc.lft.to/lastmile_qr_scan"}}, {"name": "fa191165a35a6b021b4a4b2db5694dd1", "fusion_lat": 0.0, "type": "electric_scooter", "lat": 38.93773816666667, "is_reserved": 0, "is_disabled": 0, "fusion_lon": 0.0, "bike_id": "fa191165a35a6b021b4a4b2db5694dd1", "lon": -77.03262983333333, "rental_uris": {"ios": "https://dc.lft.to/lastmile_qr_scan", "android": "https://dc.lft.to/lastmile_qr_scan"}}, {"name": "c2c9bc0daa3619e6d9a10ce54b872846", "fusion_lat": 0.0, "type": "electric_scooter", "lat": 38.9200795, "is_reserved": 0, "is_disabled": 0, "fusion_lon": 0.0, "bike_id": "c2c9bc0daa3619e6d9a10ce54b872846", "lon": -76.9849675, "rental_uris": {"ios": "https://dc.lft.to/lastmile_qr_scan", "android": "https://dc.lft.to/lastmile_qr_scan"}}, {"name": "3b24fdd629c931c4acd927d1df7c7fbc", "fusion_lat": 0.0, "type": "electric_scooter", "lat": 38.942252833333335, "is_reserved": 0, "is_disabled": 0, "fusion_lon": 0.0, "bike_id": "3b24fdd629c931c4acd927d1df7c7fbc", "lon": -77.07682016666666, "rental_uris": {"ios": "https://dc.lft.to/lastmile_qr_scan", "android": "https://dc.lft.to/lastmile_qr_scan"}}, {"name": "4a092eda0bc3715ec768f8f09910b959", "fusion_lat": 0.0, "type": "electric_scooter", "lat": 38.9024265, "is_reserved": 0, "is_disabled": 0, "fusion_lon": 0.0, "bike_id": "4a092eda0bc3715ec768f8f09910b959", "lon": -77.0019655, "rental_uris": {"ios": "https://dc.lft.to/lastmile_qr_scan", "android": "https://dc.lft.to/lastmile_qr_scan"}}, {"name": "87f0fde3a5481db9c829c2846f3af4f9", "fusion_lat": 0.0, "type": "electric_scooter", "lat": 38.906932833333336, "is_reserved": 0, "is_disabled": 0, "fusion_lon": 0.0, "bike_id": "87f0fde3a5481db9c829c2846f3af4f9", "lon": -77.03183933333334, "rental_uris": {"ios": "https://dc.lft.to/lastmile_qr_scan", "android": "https://dc.lft.to/lastmile_qr_scan"}}, {"name": "2b1e85058bc0d54510661e195eb8ebcc", "fusion_lat": 0.0, "type": "electric_scooter", "lat": 38.88418883333333, "is_reserved": 0, "is_disabled": 0, "fusion_lon": 0.0, "bike_id": "2b1e85058bc0d54510661e195eb8ebcc", "lon": -76.99548733333333, "rental_uris": {"ios": "https://dc.lft.to/lastmile_qr_scan", "android": "https://dc.lft.to/lastmile_qr_scan"}}, {"name": "7994ff51bcec988ea7007af547fa78ef", "fusion_lat": 0.0, "type": "electric_scooter", "lat": 38.925344833333334, "is_reserved": 0, "is_disabled": 0, "fusion_lon": 0.0, "bike_id": "7994ff51bcec988ea7007af547fa78ef", "lon": -77.026373, "rental_uris": {"ios": "https://dc.lft.to/lastmile_qr_scan", "android": "https://dc.lft.to/lastmile_qr_scan"}}, {"name": "96c267f8e2f8eb041cf0c3b862189ddc", "fusion_lat": 0.0, "type": "electric_bike", "lat": 38.8506, "is_reserved": 0, "is_disabled": 0, "fusion_lon": 0.0, "bike_id": "96c267f8e2f8eb041cf0c3b862189ddc", "lon": -76.97331816666667, "rental_uris": {"ios": "https://dc.lft.to/lastmile_qr_scan", "android": "https://dc.lft.to/lastmile_qr_scan"}}, {"name": "9ede5df73d2bd4936277cbcd41c65029", "fusion_lat": 0.0, "type": "electric_scooter", "lat": 38.91626383333333, "is_reserved": 0, "is_disabled": 0, "fusion_lon": 0.0, "bike_id": "9ede5df73d2bd4936277cbcd41c65029", "lon": -77.023108, "rental_uris": {"ios": "https://dc.lft.to/lastmile_qr_scan", "android": "https://dc.lft.to/lastmile_qr_scan"}}, {"name": "517f78a6cfef68d66af4c8e1ce509d45", "fusion_lat": 0.0, "type": "electric_scooter", "lat": 38.92590116666667, "is_reserved": 0, "is_disabled": 0, "fusion_lon": 0.0, "bike_id": "517f78a6cfef68d66af4c8e1ce509d45", "lon": -77.02611, "rental_uris": {"ios": "https://dc.lft.to/lastmile_qr_scan", "android": "https://dc.lft.to/lastmile_qr_scan"}}, {"name": "79d64871cb3ef67d417efe6f1741c16e", "fusion_lat": 0.0, "type": "electric_scooter", "lat": 38.8665945, "is_reserved": 0, "is_disabled": 0, "fusion_lon": 0.0, "bike_id": "79d64871cb3ef67d417efe6f1741c16e", "lon": -76.98891016666667, "rental_uris": {"ios": "https://dc.lft.to/lastmile_qr_scan", "android": "https://dc.lft.to/lastmile_qr_scan"}}, {"name": "fe70c6b9b95a6e04a41d79ce5f4a3233", "fusion_lat": 0.0, "type": "electric_bike", "lat": 38.8584925, "is_reserved": 0, "is_disabled": 0, "fusion_lon": 0.0, "bike_id": "fe70c6b9b95a6e04a41d79ce5f4a3233", "lon": -77.097538, "rental_uris": {"ios": "https://dc.lft.to/lastmile_qr_scan", "android": "https://dc.lft.to/lastmile_qr_scan"}}, {"name": "d7b6eb48cf2a8967de54c3e11cfbf055", "fusion_lat": 0.0, "type": "electric_scooter", "lat": 38.90262416666667, "is_reserved": 0, "is_disabled": 0, "fusion_lon": 0.0, "bike_id": "d7b6eb48cf2a8967de54c3e11cfbf055", "lon": -77.00590433333333, "rental_uris": {"ios": "https://dc.lft.to/lastmile_qr_scan", "android": "https://dc.lft.to/lastmile_qr_scan"}}, {"name": "44605dc8ff8234315a2264c597e9827c", "fusion_lat": 0.0, "type": "electric_scooter", "lat": 38.92104783333333, "is_reserved": 0, "is_disabled": 0, "fusion_lon": 0.0, "bike_id": "44605dc8ff8234315a2264c597e9827c", "lon": -77.0316985, "rental_uris": {"ios": "https://dc.lft.to/lastmile_qr_scan", "android": "https://dc.lft.to/lastmile_qr_scan"}}, {"name": "b2801128d240c1a4d0f56a32dd23b013", "fusion_lat": 0.0, "type": "electric_scooter", "lat": 38.892315833333335, "is_reserved": 0, "is_disabled": 0, "fusion_lon": 0.0, "bike_id": "b2801128d240c1a4d0f56a32dd23b013", "lon": -77.03192733333333, "rental_uris": {"ios": "https://dc.lft.to/lastmile_qr_scan", "android": "https://dc.lft.to/lastmile_qr_scan"}}, {"name": "e475d4069a960ed6df6cb22ce5fcae47", "fusion_lat": 0.0, "type": "electric_scooter", "lat": 38.912569833333336, "is_reserved": 0, "is_disabled": 0, "fusion_lon": 0.0, "bike_id": "e475d4069a960ed6df6cb22ce5fcae47", "lon": -77.03868116666666, "rental_uris": {"ios": "https://dc.lft.to/lastmile_qr_scan", "android": "https://dc.lft.to/lastmile_qr_scan"}}, {"name": "2ea0738684dd70eed30c4cac90d0d101", "fusion_lat": 0.0, "type": "electric_scooter", "lat": 38.931258, "is_reserved": 0, "is_disabled": 0, "fusion_lon": 0.0, "bike_id": "2ea0738684dd70eed30c4cac90d0d101", "lon": -77.03603433333333, "rental_uris": {"ios": "https://dc.lft.to/lastmile_qr_scan", "android": "https://dc.lft.to/lastmile_qr_scan"}}, {"name": "1e5d2529f479bedcd092e2c299ab8f08", "fusion_lat": 0.0, "type": "electric_scooter", "lat": 38.893832, "is_reserved": 0, "is_disabled": 0, "fusion_lon": 0.0, "bike_id": "1e5d2529f479bedcd092e2c299ab8f08", "lon": -77.029772, "rental_uris": {"ios": "https://dc.lft.to/lastmile_qr_scan", "android": "https://dc.lft.to/lastmile_qr_scan"}}, {"name": "da12fe975a3f09e8c6d8fbf51bb6243c", "fusion_lat": 0.0, "type": "electric_scooter", "lat": 38.90727233333333, "is_reserved": 0, "is_disabled": 0, "fusion_lon": 0.0, "bike_id": "da12fe975a3f09e8c6d8fbf51bb6243c", "lon": -77.045029, "rental_uris": {"ios": "https://dc.lft.to/lastmile_qr_scan", "android": "https://dc.lft.to/lastmile_qr_scan"}}, {"name": "4544ed0ced02242afdb627225cf49a3e", "fusion_lat": 0.0, "type": "electric_scooter", "lat": 38.938207166666665, "is_reserved": 0, "is_disabled": 0, "fusion_lon": 0.0, "bike_id": "4544ed0ced02242afdb627225cf49a3e", "lon": -77.0328665, "rental_uris": {"ios": "https://dc.lft.to/lastmile_qr_scan", "android": "https://dc.lft.to/lastmile_qr_scan"}}, {"name": "e2bb7336747d41332624545e36fb10b8", "fusion_lat": 0.0, "type": "electric_scooter", "lat": 38.92492216666667, "is_reserved": 0, "is_disabled": 0, "fusion_lon": 0.0, "bike_id": "e2bb7336747d41332624545e36fb10b8", "lon": -77.07338166666666, "rental_uris": {"ios": "https://dc.lft.to/lastmile_qr_scan", "android": "https://dc.lft.to/lastmile_qr_scan"}}, {"name": "0b6b854ece364c0d4e53cc3e7a3bcd9f", "fusion_lat": 0.0, "type": "electric_scooter", "lat": 38.9089745, "is_reserved": 0, "is_disabled": 0, "fusion_lon": 0.0, "bike_id": "0b6b854ece364c0d4e53cc3e7a3bcd9f", "lon": -77.03150166666667, "rental_uris": {"ios": "https://dc.lft.to/lastmile_qr_scan", "android": "https://dc.lft.to/lastmile_qr_scan"}}, {"name": "d14a908e70b406879d3772bcca883b8d", "fusion_lat": 0.0, "type": "electric_scooter", "lat": 38.910113333333335, "is_reserved": 0, "is_disabled": 0, "fusion_lon": 0.0, "bike_id": "d14a908e70b406879d3772bcca883b8d", "lon": -77.02159833333333, "rental_uris": {"ios": "https://dc.lft.to/lastmile_qr_scan", "android": "https://dc.lft.to/lastmile_qr_scan"}}, {"name": "0a3fd95842a9d8df594a08d50c00e25a", "fusion_lat": 0.0, "type": "electric_scooter", "lat": 38.902648, "is_reserved": 0, "is_disabled": 0, "fusion_lon": 0.0, "bike_id": "0a3fd95842a9d8df594a08d50c00e25a", "lon": -77.00926233333334, "rental_uris": {"ios": "https://dc.lft.to/lastmile_qr_scan", "android": "https://dc.lft.to/lastmile_qr_scan"}}, {"name": "d8131ebc8cfdfce488aeba573294fedd", "fusion_lat": 0.0, "type": "electric_scooter", "lat": 38.9237355, "is_reserved": 0, "is_disabled": 0, "fusion_lon": 0.0, "bike_id": "d8131ebc8cfdfce488aeba573294fedd", "lon": -77.03129416666667, "rental_uris": {"ios": "https://dc.lft.to/lastmile_qr_scan", "android": "https://dc.lft.to/lastmile_qr_scan"}}, {"name": "9a9413d27a1b8513cfd6b66704b3ff9c", "fusion_lat": 0.0, "type": "electric_scooter", "lat": 38.894718, "is_reserved": 0, "is_disabled": 0, "fusion_lon": 0.0, "bike_id": "9a9413d27a1b8513cfd6b66704b3ff9c", "lon": -77.03049716666666, "rental_uris": {"ios": "https://dc.lft.to/lastmile_qr_scan", "android": "https://dc.lft.to/lastmile_qr_scan"}}, {"name": "8b5c481872a6ab40330c7c172797e491", "fusion_lat": 0.0, "type": "electric_bike", "lat": 38.919149833333336, "is_reserved": 0, "is_disabled": 0, "fusion_lon": 0.0, "bike_id": "8b5c481872a6ab40330c7c172797e491", "lon": -77.02508833333333, "rental_uris": {"ios": "https://dc.lft.to/lastmile_qr_scan", "android": "https://dc.lft.to/lastmile_qr_scan"}}, {"name": "2715345e02789e00509c3e9d39c1331f", "fusion_lat": 0.0, "type": "electric_scooter", "lat": 38.949609833333334, "is_reserved": 0, "is_disabled": 0, "fusion_lon": 0.0, "bike_id": "2715345e02789e00509c3e9d39c1331f", "lon": -77.02723016666667, "rental_uris": {"ios": "https://dc.lft.to/lastmile_qr_scan", "android": "https://dc.lft.to/lastmile_qr_scan"}}, {"name": "43122620afc56ce50ef55d93feacffef", "fusion_lat": 0.0, "type": "electric_scooter", "lat": 38.917040166666666, "is_reserved": 0, "is_disabled": 0, "fusion_lon": 0.0, "bike_id": "43122620afc56ce50ef55d93feacffef", "lon": -77.03175466666667, "rental_uris": {"ios": "https://dc.lft.to/lastmile_qr_scan", "android": "https://dc.lft.to/lastmile_qr_scan"}}, {"name": "2aa3eea2f66d91f27c23f91d461ad181", "fusion_lat": 0.0, "type": "electric_scooter", "lat": 38.922859, "is_reserved": 0, "is_disabled": 0, "fusion_lon": 0.0, "bike_id": "2aa3eea2f66d91f27c23f91d461ad181", "lon": -77.02963516666667, "rental_uris": {"ios": "https://dc.lft.to/lastmile_qr_scan", "android": "https://dc.lft.to/lastmile_qr_scan"}}, {"name": "711b365cd0af3552b68c0df68747d87b", "fusion_lat": 0.0, "type": "electric_scooter", "lat": 38.874987833333336, "is_reserved": 0, "is_disabled": 0, "fusion_lon": 0.0, "bike_id": "711b365cd0af3552b68c0df68747d87b", "lon": -76.99793716666667, "rental_uris": {"ios": "https://dc.lft.to/lastmile_qr_scan", "android": "https://dc.lft.to/lastmile_qr_scan"}}, {"name": "c6b47612d92ce459d0861af56b1d223f", "fusion_lat": 0.0, "type": "electric_scooter", "lat": 38.90033116666667, "is_reserved": 0, "is_disabled": 0, "fusion_lon": 0.0, "bike_id": "c6b47612d92ce459d0861af56b1d223f", "lon": -77.00094466666667, "rental_uris": {"ios": "https://dc.lft.to/lastmile_qr_scan", "android": "https://dc.lft.to/lastmile_qr_scan"}}, {"name": "d4dc24598ca01549bb1b37701bcdfaa7", "fusion_lat": 0.0, "type": "electric_scooter", "lat": 38.920509333333335, "is_reserved": 0, "is_disabled": 0, "fusion_lon": 0.0, "bike_id": "d4dc24598ca01549bb1b37701bcdfaa7", "lon": -77.02348433333333, "rental_uris": {"ios": "https://dc.lft.to/lastmile_qr_scan", "android": "https://dc.lft.to/lastmile_qr_scan"}}, {"name": "61d4b5142d75ce3b13491eb39dd25795", "fusion_lat": 0.0, "type": "electric_scooter", "lat": 38.914050333333336, "is_reserved": 0, "is_disabled": 0, "fusion_lon": 0.0, "bike_id": "61d4b5142d75ce3b13491eb39dd25795", "lon": -77.0223175, "rental_uris": {"ios": "https://dc.lft.to/lastmile_qr_scan", "android": "https://dc.lft.to/lastmile_qr_scan"}}, {"name": "e7f742ff235011f243abd469fde1670c", "fusion_lat": 0.0, "type": "electric_scooter", "lat": 38.900421, "is_reserved": 0, "is_disabled": 0, "fusion_lon": 0.0, "bike_id": "e7f742ff235011f243abd469fde1670c", "lon": -76.997493, "rental_uris": {"ios": "https://dc.lft.to/lastmile_qr_scan", "android": "https://dc.lft.to/lastmile_qr_scan"}}, {"name": "ae336f2edf7cd72a58c28b0e64a85d10", "fusion_lat": 0.0, "type": "electric_scooter", "lat": 38.93110633333333, "is_reserved": 0, "is_disabled": 0, "fusion_lon": 0.0, "bike_id": "ae336f2edf7cd72a58c28b0e64a85d10", "lon": -77.03031433333334, "rental_uris": {"ios": "https://dc.lft.to/lastmile_qr_scan", "android": "https://dc.lft.to/lastmile_qr_scan"}}, {"name": "ad9cc88f7f1a1a724a5875b13f71d7f5", "fusion_lat": 0.0, "type": "electric_scooter", "lat": 38.880206666666666, "is_reserved": 0, "is_disabled": 0, "fusion_lon": 0.0, "bike_id": "ad9cc88f7f1a1a724a5875b13f71d7f5", "lon": -76.9312945, "rental_uris": {"ios": "https://dc.lft.to/lastmile_qr_scan", "android": "https://dc.lft.to/lastmile_qr_scan"}}, {"name": "2e2b25b7ee131b282c26c881cd50e588", "fusion_lat": 0.0, "type": "electric_scooter", "lat": 38.892833833333334, "is_reserved": 0, "is_disabled": 0, "fusion_lon": 0.0, "bike_id": "2e2b25b7ee131b282c26c881cd50e588", "lon": -77.0502695, "rental_uris": {"ios": "https://dc.lft.to/lastmile_qr_scan", "android": "https://dc.lft.to/lastmile_qr_scan"}}, {"name": "8a64221157a050dcd903691914a00b27", "fusion_lat": 0.0, "type": "electric_scooter", "lat": 38.89690683333333, "is_reserved": 0, "is_disabled": 0, "fusion_lon": 0.0, "bike_id": "8a64221157a050dcd903691914a00b27", "lon": -77.01205466666667, "rental_uris": {"ios": "https://dc.lft.to/lastmile_qr_scan", "android": "https://dc.lft.to/lastmile_qr_scan"}}, {"name": "f6a3014acb49268c7938243e7cb669a4", "fusion_lat": 0.0, "type": "electric_scooter", "lat": 38.910501333333336, "is_reserved": 0, "is_disabled": 0, "fusion_lon": 0.0, "bike_id": "f6a3014acb49268c7938243e7cb669a4", "lon": -77.0457735, "rental_uris": {"ios": "https://dc.lft.to/lastmile_qr_scan", "android": "https://dc.lft.to/lastmile_qr_scan"}}, {"name": "c25698cf2788336e5fd0855abef8558f", "fusion_lat": 0.0, "type": "electric_scooter", "lat": 38.905651666666664, "is_reserved": 0, "is_disabled": 0, "fusion_lon": 0.0, "bike_id": "c25698cf2788336e5fd0855abef8558f", "lon": -77.0059705, "rental_uris": {"ios": "https://dc.lft.to/lastmile_qr_scan", "android": "https://dc.lft.to/lastmile_qr_scan"}}, {"name": "57767e51a107c7f6d7f148bea62de69c", "fusion_lat": 0.0, "type": "electric_scooter", "lat": 38.9297605, "is_reserved": 0, "is_disabled": 0, "fusion_lon": 0.0, "bike_id": "57767e51a107c7f6d7f148bea62de69c", "lon": -77.0260765, "rental_uris": {"ios": "https://dc.lft.to/lastmile_qr_scan", "android": "https://dc.lft.to/lastmile_qr_scan"}}, {"name": "2f85b40485059ef6362e46b883db1c37", "fusion_lat": 0.0, "type": "electric_scooter", "lat": 38.94201316666667, "is_reserved": 0, "is_disabled": 0, "fusion_lon": 0.0, "bike_id": "2f85b40485059ef6362e46b883db1c37", "lon": -77.0251795, "rental_uris": {"ios": "https://dc.lft.to/lastmile_qr_scan", "android": "https://dc.lft.to/lastmile_qr_scan"}}, {"name": "c5cd415d36419d01558c8022621ef76a", "fusion_lat": 0.0, "type": "electric_scooter", "lat": 38.90107483333333, "is_reserved": 0, "is_disabled": 0, "fusion_lon": 0.0, "bike_id": "c5cd415d36419d01558c8022621ef76a", "lon": -77.031506, "rental_uris": {"ios": "https://dc.lft.to/lastmile_qr_scan", "android": "https://dc.lft.to/lastmile_qr_scan"}}, {"name": "23fe059b8b3ce39f06153ae6d83e2d0c", "fusion_lat": 0.0, "type": "electric_bike", "lat": 38.82728316666667, "is_reserved": 0, "is_disabled": 0, "fusion_lon": 0.0, "bike_id": "23fe059b8b3ce39f06153ae6d83e2d0c", "lon": -77.00863133333333, "rental_uris": {"ios": "https://dc.lft.to/lastmile_qr_scan", "android": "https://dc.lft.to/lastmile_qr_scan"}}, {"name": "890d2229165567ef1861f83cbd277775", "fusion_lat": 0.0, "type": "electric_scooter", "lat": 38.928349833333336, "is_reserved": 0, "is_disabled": 0, "fusion_lon": 0.0, "bike_id": "890d2229165567ef1861f83cbd277775", "lon": -77.05417066666666, "rental_uris": {"ios": "https://dc.lft.to/lastmile_qr_scan", "android": "https://dc.lft.to/lastmile_qr_scan"}}, {"name": "62ba140b577b3a081c53868a6065682d", "fusion_lat": 0.0, "type": "electric_scooter", "lat": 38.865101333333335, "is_reserved": 0, "is_disabled": 0, "fusion_lon": 0.0, "bike_id": "62ba140b577b3a081c53868a6065682d", "lon": -76.9900405, "rental_uris": {"ios": "https://dc.lft.to/lastmile_qr_scan", "android": "https://dc.lft.to/lastmile_qr_scan"}}, {"name": "9e595f01d268104a1b45bdd7f66badc1", "fusion_lat": 0.0, "type": "electric_scooter", "lat": 38.899146333333334, "is_reserved": 0, "is_disabled": 0, "fusion_lon": 0.0, "bike_id": "9e595f01d268104a1b45bdd7f66badc1", "lon": -77.03303383333333, "rental_uris": {"ios": "https://dc.lft.to/lastmile_qr_scan", "android": "https://dc.lft.to/lastmile_qr_scan"}}, {"name": "ce6d96c8a1090ee6a2a952e52fb4247f", "fusion_lat": 0.0, "type": "electric_scooter", "lat": 38.898332833333335, "is_reserved": 0, "is_disabled": 0, "fusion_lon": 0.0, "bike_id": "ce6d96c8a1090ee6a2a952e52fb4247f", "lon": -76.94640683333333, "rental_uris": {"ios": "https://dc.lft.to/lastmile_qr_scan", "android": "https://dc.lft.to/lastmile_qr_scan"}}, {"name": "29a6d452a501267897c126163f386da9", "fusion_lat": 0.0, "type": "electric_scooter", "lat": 38.918971666666664, "is_reserved": 0, "is_disabled": 0, "fusion_lon": 0.0, "bike_id": "29a6d452a501267897c126163f386da9", "lon": -77.05292133333333, "rental_uris": {"ios": "https://dc.lft.to/lastmile_qr_scan", "android": "https://dc.lft.to/lastmile_qr_scan"}}, {"name": "2af539eac1a323cdbf991cf5041631b9", "fusion_lat": 0.0, "type": "electric_scooter", "lat": 38.926117833333336, "is_reserved": 0, "is_disabled": 0, "fusion_lon": 0.0, "bike_id": "2af539eac1a323cdbf991cf5041631b9", "lon": -77.02159116666667, "rental_uris": {"ios": "https://dc.lft.to/lastmile_qr_scan", "android": "https://dc.lft.to/lastmile_qr_scan"}}, {"name": "976f6a3f3fbec475ba4bdd3952913fe6", "fusion_lat": 0.0, "type": "electric_scooter", "lat": 38.89499566666667, "is_reserved": 0, "is_disabled": 0, "fusion_lon": 0.0, "bike_id": "976f6a3f3fbec475ba4bdd3952913fe6", "lon": -77.02369933333334, "rental_uris": {"ios": "https://dc.lft.to/lastmile_qr_scan", "android": "https://dc.lft.to/lastmile_qr_scan"}}, {"name": "c8f2f698c1cf1177b90a1a0f435535b0", "fusion_lat": 0.0, "type": "electric_scooter", "lat": 38.895106166666665, "is_reserved": 0, "is_disabled": 0, "fusion_lon": 0.0, "bike_id": "c8f2f698c1cf1177b90a1a0f435535b0", "lon": -76.94889916666666, "rental_uris": {"ios": "https://dc.lft.to/lastmile_qr_scan", "android": "https://dc.lft.to/lastmile_qr_scan"}}, {"name": "5658aa82e87bf64dcc380fac1b2cc0ff", "fusion_lat": 0.0, "type": "electric_scooter", "lat": 38.898509833333335, "is_reserved": 0, "is_disabled": 0, "fusion_lon": 0.0, "bike_id": "5658aa82e87bf64dcc380fac1b2cc0ff", "lon": -76.99030616666667, "rental_uris": {"ios": "https://dc.lft.to/lastmile_qr_scan", "android": "https://dc.lft.to/lastmile_qr_scan"}}, {"name": "8bfc7c196385d54172339c64945f39d9", "fusion_lat": 0.0, "type": "electric_scooter", "lat": 38.922272666666665, "is_reserved": 0, "is_disabled": 0, "fusion_lon": 0.0, "bike_id": "8bfc7c196385d54172339c64945f39d9", "lon": -77.04707016666667, "rental_uris": {"ios": "https://dc.lft.to/lastmile_qr_scan", "android": "https://dc.lft.to/lastmile_qr_scan"}}, {"name": "f4e25924e3e860aa2fd9d7a701afba13", "fusion_lat": 0.0, "type": "electric_scooter", "lat": 38.961187333333335, "is_reserved": 0, "is_disabled": 0, "fusion_lon": 0.0, "bike_id": "f4e25924e3e860aa2fd9d7a701afba13", "lon": -77.02813766666667, "rental_uris": {"ios": "https://dc.lft.to/lastmile_qr_scan", "android": "https://dc.lft.to/lastmile_qr_scan"}}, {"name": "f5678ac1238e95b69013ea3f472fb003", "fusion_lat": 0.0, "type": "electric_scooter", "lat": 38.89843716666667, "is_reserved": 0, "is_disabled": 0, "fusion_lon": 0.0, "bike_id": "f5678ac1238e95b69013ea3f472fb003", "lon": -76.99273816666667, "rental_uris": {"ios": "https://dc.lft.to/lastmile_qr_scan", "android": "https://dc.lft.to/lastmile_qr_scan"}}, {"name": "dab00da25fbdf638945b5a3c10abe1ef", "fusion_lat": 0.0, "type": "electric_scooter", "lat": 38.930197666666665, "is_reserved": 0, "is_disabled": 0, "fusion_lon": 0.0, "bike_id": "dab00da25fbdf638945b5a3c10abe1ef", "lon": -77.02319833333334, "rental_uris": {"ios": "https://dc.lft.to/lastmile_qr_scan", "android": "https://dc.lft.to/lastmile_qr_scan"}}, {"name": "27463a242f1cabaeef4b0982edb329e7", "fusion_lat": 0.0, "type": "electric_scooter", "lat": 38.89287816666667, "is_reserved": 0, "is_disabled": 0, "fusion_lon": 0.0, "bike_id": "27463a242f1cabaeef4b0982edb329e7", "lon": -77.02009983333333, "rental_uris": {"ios": "https://dc.lft.to/lastmile_qr_scan", "android": "https://dc.lft.to/lastmile_qr_scan"}}, {"name": "809e50ab59b42d99fa5851f89dc98a52", "fusion_lat": 0.0, "type": "electric_scooter", "lat": 38.9370225, "is_reserved": 0, "is_disabled": 0, "fusion_lon": 0.0, "bike_id": "809e50ab59b42d99fa5851f89dc98a52", "lon": -77.0609785, "rental_uris": {"ios": "https://dc.lft.to/lastmile_qr_scan", "android": "https://dc.lft.to/lastmile_qr_scan"}}, {"name": "87d540cf96548fa67a8e86d957f21d37", "fusion_lat": 0.0, "type": "electric_bike", "lat": 38.999112833333335, "is_reserved": 0, "is_disabled": 0, "fusion_lon": 0.0, "bike_id": "87d540cf96548fa67a8e86d957f21d37", "lon": -77.04617966666666, "rental_uris": {"ios": "https://dc.lft.to/lastmile_qr_scan", "android": "https://dc.lft.to/lastmile_qr_scan"}}, {"name": "975f6faa3103aa124553e2b70459c95e", "fusion_lat": 0.0, "type": "electric_scooter", "lat": 38.911111166666664, "is_reserved": 0, "is_disabled": 0, "fusion_lon": 0.0, "bike_id": "975f6faa3103aa124553e2b70459c95e", "lon": -77.04479816666667, "rental_uris": {"ios": "https://dc.lft.to/lastmile_qr_scan", "android": "https://dc.lft.to/lastmile_qr_scan"}}, {"name": "56137a7e9737992b821e7d79aad922bd", "fusion_lat": 0.0, "type": "electric_bike", "lat": 38.845742, "is_reserved": 0, "is_disabled": 0, "fusion_lon": 0.0, "bike_id": "56137a7e9737992b821e7d79aad922bd", "lon": -77.09622383333334, "rental_uris": {"ios": "https://dc.lft.to/lastmile_qr_scan", "android": "https://dc.lft.to/lastmile_qr_scan"}}, {"name": "473cafebb3c8e4f8b4a05a114c715627", "fusion_lat": 0.0, "type": "electric_scooter", "lat": 38.90063816666667, "is_reserved": 0, "is_disabled": 0, "fusion_lon": 0.0, "bike_id": "473cafebb3c8e4f8b4a05a114c715627", "lon": -77.04507, "rental_uris": {"ios": "https://dc.lft.to/lastmile_qr_scan", "android": "https://dc.lft.to/lastmile_qr_scan"}}, {"name": "aa40c55547b27540105468023b9d71c3", "fusion_lat": 0.0, "type": "electric_scooter", "lat": 38.9046405, "is_reserved": 0, "is_disabled": 0, "fusion_lon": 0.0, "bike_id": "aa40c55547b27540105468023b9d71c3", "lon": -77.04823216666666, "rental_uris": {"ios": "https://dc.lft.to/lastmile_qr_scan", "android": "https://dc.lft.to/lastmile_qr_scan"}}, {"name": "f95313cfb889074f1d0508f858a61c29", "fusion_lat": 0.0, "type": "electric_scooter", "lat": 38.91416916666667, "is_reserved": 0, "is_disabled": 0, "fusion_lon": 0.0, "bike_id": "f95313cfb889074f1d0508f858a61c29", "lon": -77.026449, "rental_uris": {"ios": "https://dc.lft.to/lastmile_qr_scan", "android": "https://dc.lft.to/lastmile_qr_scan"}}, {"name": "9aad7755abff373a68e5271171f271d8", "fusion_lat": 0.0, "type": "electric_scooter", "lat": 38.90571416666667, "is_reserved": 0, "is_disabled": 0, "fusion_lon": 0.0, "bike_id": "9aad7755abff373a68e5271171f271d8", "lon": -77.0299, "rental_uris": {"ios": "https://dc.lft.to/lastmile_qr_scan", "android": "https://dc.lft.to/lastmile_qr_scan"}}, {"name": "baee7aa76d346d277dbfd7de1d1ab2bf", "fusion_lat": 0.0, "type": "electric_bike", "lat": 39.038802833333335, "is_reserved": 0, "is_disabled": 0, "fusion_lon": 0.0, "bike_id": "baee7aa76d346d277dbfd7de1d1ab2bf", "lon": -76.9904805, "rental_uris": {"ios": "https://dc.lft.to/lastmile_qr_scan", "android": "https://dc.lft.to/lastmile_qr_scan"}}, {"name": "33ab4c3806b0c3b470ad8c4f9939403d", "fusion_lat": 0.0, "type": "electric_scooter", "lat": 38.90823866666667, "is_reserved": 0, "is_disabled": 0, "fusion_lon": 0.0, "bike_id": "33ab4c3806b0c3b470ad8c4f9939403d", "lon": -77.039271, "rental_uris": {"ios": "https://dc.lft.to/lastmile_qr_scan", "android": "https://dc.lft.to/lastmile_qr_scan"}}, {"name": "9338739fd7b33d597965ed4bbf79f8fa", "fusion_lat": 0.0, "type": "electric_scooter", "lat": 38.88481683333333, "is_reserved": 0, "is_disabled": 0, "fusion_lon": 0.0, "bike_id": "9338739fd7b33d597965ed4bbf79f8fa", "lon": -77.0307055, "rental_uris": {"ios": "https://dc.lft.to/lastmile_qr_scan", "android": "https://dc.lft.to/lastmile_qr_scan"}}, {"name": "4901edcbc25d143169150682b109be87", "fusion_lat": 0.0, "type": "electric_scooter", "lat": 38.93910416666667, "is_reserved": 0, "is_disabled": 0, "fusion_lon": 0.0, "bike_id": "4901edcbc25d143169150682b109be87", "lon": -77.06044733333333, "rental_uris": {"ios": "https://dc.lft.to/lastmile_qr_scan", "android": "https://dc.lft.to/lastmile_qr_scan"}}, {"name": "a605c87f35f62b2bbc1585a1e202a670", "fusion_lat": 0.0, "type": "electric_scooter", "lat": 38.90567083333333, "is_reserved": 0, "is_disabled": 0, "fusion_lon": 0.0, "bike_id": "a605c87f35f62b2bbc1585a1e202a670", "lon": -77.02987383333334, "rental_uris": {"ios": "https://dc.lft.to/lastmile_qr_scan", "android": "https://dc.lft.to/lastmile_qr_scan"}}, {"name": "6a9df4e8c95b0b40ef6c1dc3b445dec4", "fusion_lat": 0.0, "type": "electric_scooter", "lat": 38.92047783333334, "is_reserved": 0, "is_disabled": 0, "fusion_lon": 0.0, "bike_id": "6a9df4e8c95b0b40ef6c1dc3b445dec4", "lon": -77.03444966666666, "rental_uris": {"ios": "https://dc.lft.to/lastmile_qr_scan", "android": "https://dc.lft.to/lastmile_qr_scan"}}, {"name": "177bb03d24860b59c7e84463b066ccc0", "fusion_lat": 0.0, "type": "electric_scooter", "lat": 38.8972005, "is_reserved": 0, "is_disabled": 0, "fusion_lon": 0.0, "bike_id": "177bb03d24860b59c7e84463b066ccc0", "lon": -77.032776, "rental_uris": {"ios": "https://dc.lft.to/lastmile_qr_scan", "android": "https://dc.lft.to/lastmile_qr_scan"}}, {"name": "f2a0da3f18b902016fc209fb4b22a9a8", "fusion_lat": 0.0, "type": "electric_scooter", "lat": 38.91804166666667, "is_reserved": 0, "is_disabled": 0, "fusion_lon": 0.0, "bike_id": "f2a0da3f18b902016fc209fb4b22a9a8", "lon": -77.03206283333333, "rental_uris": {"ios": "https://dc.lft.to/lastmile_qr_scan", "android": "https://dc.lft.to/lastmile_qr_scan"}}, {"name": "233a2d9cc90286d2a7424714d2ff2c1f", "fusion_lat": 0.0, "type": "electric_scooter", "lat": 38.91489833333333, "is_reserved": 0, "is_disabled": 0, "fusion_lon": 0.0, "bike_id": "233a2d9cc90286d2a7424714d2ff2c1f", "lon": -77.03236816666667, "rental_uris": {"ios": "https://dc.lft.to/lastmile_qr_scan", "android": "https://dc.lft.to/lastmile_qr_scan"}}, {"name": "cd3ae54bb8b32544af66e18c17ffdd7c", "fusion_lat": 0.0, "type": "electric_scooter", "lat": 38.895687, "is_reserved": 0, "is_disabled": 0, "fusion_lon": 0.0, "bike_id": "cd3ae54bb8b32544af66e18c17ffdd7c", "lon": -76.94867866666667, "rental_uris": {"ios": "https://dc.lft.to/lastmile_qr_scan", "android": "https://dc.lft.to/lastmile_qr_scan"}}, {"name": "3a1e2aa97dfcdbd6823a8f2072801183", "fusion_lat": 0.0, "type": "electric_bike", "lat": 38.96867833333334, "is_reserved": 0, "is_disabled": 0, "fusion_lon": 0.0, "bike_id": "3a1e2aa97dfcdbd6823a8f2072801183", "lon": -77.03334866666667, "rental_uris": {"ios": "https://dc.lft.to/lastmile_qr_scan", "android": "https://dc.lft.to/lastmile_qr_scan"}}, {"name": "e7035c5bc707b8fd37c09e96f91ac771", "fusion_lat": 0.0, "type": "electric_scooter", "lat": 38.9008665, "is_reserved": 0, "is_disabled": 0, "fusion_lon": 0.0, "bike_id": "e7035c5bc707b8fd37c09e96f91ac771", "lon": -77.0499835, "rental_uris": {"ios": "https://dc.lft.to/lastmile_qr_scan", "android": "https://dc.lft.to/lastmile_qr_scan"}}, {"name": "9a809175638af2c9a17b096f69bf15da", "fusion_lat": 0.0, "type": "electric_scooter", "lat": 38.90576083333333, "is_reserved": 0, "is_disabled": 0, "fusion_lon": 0.0, "bike_id": "9a809175638af2c9a17b096f69bf15da", "lon": -77.032677, "rental_uris": {"ios": "https://dc.lft.to/lastmile_qr_scan", "android": "https://dc.lft.to/lastmile_qr_scan"}}, {"name": "d31d0d52b7694ed10ad4faaa2af03c80", "fusion_lat": 0.0, "type": "electric_scooter", "lat": 38.89965883333333, "is_reserved": 0, "is_disabled": 0, "fusion_lon": 0.0, "bike_id": "d31d0d52b7694ed10ad4faaa2af03c80", "lon": -77.031243, "rental_uris": {"ios": "https://dc.lft.to/lastmile_qr_scan", "android": "https://dc.lft.to/lastmile_qr_scan"}}, {"name": "00ce28db2c06e0dd55c57df9bd9f13c8", "fusion_lat": 0.0, "type": "electric_bike", "lat": 38.95902066666667, "is_reserved": 0, "is_disabled": 0, "fusion_lon": 0.0, "bike_id": "00ce28db2c06e0dd55c57df9bd9f13c8", "lon": -77.00159133333334, "rental_uris": {"ios": "https://dc.lft.to/lastmile_qr_scan", "android": "https://dc.lft.to/lastmile_qr_scan"}}, {"name": "90dec3814c7c4b1987ec4465ab1415b5", "fusion_lat": 0.0, "type": "electric_scooter", "lat": 38.911176166666664, "is_reserved": 0, "is_disabled": 0, "fusion_lon": 0.0, "bike_id": "90dec3814c7c4b1987ec4465ab1415b5", "lon": -77.02414383333333, "rental_uris": {"ios": "https://dc.lft.to/lastmile_qr_scan", "android": "https://dc.lft.to/lastmile_qr_scan"}}, {"name": "64aa0b81fcac0c1a53bed9e2be40ecba", "fusion_lat": 0.0, "type": "electric_scooter", "lat": 38.922407666666665, "is_reserved": 0, "is_disabled": 0, "fusion_lon": 0.0, "bike_id": "64aa0b81fcac0c1a53bed9e2be40ecba", "lon": -77.03662416666667, "rental_uris": {"ios": "https://dc.lft.to/lastmile_qr_scan", "android": "https://dc.lft.to/lastmile_qr_scan"}}, {"name": "eb0c4ac2bb677133a957d9f8470b0e39", "fusion_lat": 0.0, "type": "electric_scooter", "lat": 38.9063765, "is_reserved": 0, "is_disabled": 0, "fusion_lon": 0.0, "bike_id": "eb0c4ac2bb677133a957d9f8470b0e39", "lon": -77.02600183333334, "rental_uris": {"ios": "https://dc.lft.to/lastmile_qr_scan", "android": "https://dc.lft.to/lastmile_qr_scan"}}, {"name": "a9162794402b32820192ac533c6e2d88", "fusion_lat": 0.0, "type": "electric_scooter", "lat": 38.938673666666666, "is_reserved": 0, "is_disabled": 0, "fusion_lon": 0.0, "bike_id": "a9162794402b32820192ac533c6e2d88", "lon": -77.02653183333334, "rental_uris": {"ios": "https://dc.lft.to/lastmile_qr_scan", "android": "https://dc.lft.to/lastmile_qr_scan"}}, {"name": "04bd3f428b01656ebfc52826d00106ed", "fusion_lat": 0.0, "type": "electric_scooter", "lat": 38.90470166666667, "is_reserved": 0, "is_disabled": 0, "fusion_lon": 0.0, "bike_id": "04bd3f428b01656ebfc52826d00106ed", "lon": -77.02798983333334, "rental_uris": {"ios": "https://dc.lft.to/lastmile_qr_scan", "android": "https://dc.lft.to/lastmile_qr_scan"}}, {"name": "a7ec119eb1632b331be750d2aef32407", "fusion_lat": 0.0, "type": "electric_bike", "lat": 38.92049266666667, "is_reserved": 0, "is_disabled": 0, "fusion_lon": 0.0, "bike_id": "a7ec119eb1632b331be750d2aef32407", "lon": -77.00355566666667, "rental_uris": {"ios": "https://dc.lft.to/lastmile_qr_scan", "android": "https://dc.lft.to/lastmile_qr_scan"}}, {"name": "163bebee7106fca5b24df920c987e952", "fusion_lat": 0.0, "type": "electric_scooter", "lat": 38.9210475, "is_reserved": 0, "is_disabled": 0, "fusion_lon": 0.0, "bike_id": "163bebee7106fca5b24df920c987e952", "lon": -77.02982333333334, "rental_uris": {"ios": "https://dc.lft.to/lastmile_qr_scan", "android": "https://dc.lft.to/lastmile_qr_scan"}}, {"name": "8489a125b6667ac68c4c2cf122b93439", "fusion_lat": 0.0, "type": "electric_scooter", "lat": 38.90203733333333, "is_reserved": 0, "is_disabled": 0, "fusion_lon": 0.0, "bike_id": "8489a125b6667ac68c4c2cf122b93439", "lon": -76.9881665, "rental_uris": {"ios": "https://dc.lft.to/lastmile_qr_scan", "android": "https://dc.lft.to/lastmile_qr_scan"}}, {"name": "bfb3c5d53e9187a0dd1bc0dd13ceb324", "fusion_lat": 0.0, "type": "electric_scooter", "lat": 38.86455216666667, "is_reserved": 0, "is_disabled": 0, "fusion_lon": 0.0, "bike_id": "bfb3c5d53e9187a0dd1bc0dd13ceb324", "lon": -76.9824215, "rental_uris": {"ios": "https://dc.lft.to/lastmile_qr_scan", "android": "https://dc.lft.to/lastmile_qr_scan"}}, {"name": "713bef5550ae4ddbba1d279cc2bf7c12", "fusion_lat": 0.0, "type": "electric_bike", "lat": 38.928686166666665, "is_reserved": 0, "is_disabled": 0, "fusion_lon": 0.0, "bike_id": "713bef5550ae4ddbba1d279cc2bf7c12", "lon": -76.96109116666666, "rental_uris": {"ios": "https://dc.lft.to/lastmile_qr_scan", "android": "https://dc.lft.to/lastmile_qr_scan"}}, {"name": "08ab566929a6822d417750b092bd3180", "fusion_lat": 0.0, "type": "electric_scooter", "lat": 38.90414283333333, "is_reserved": 0, "is_disabled": 0, "fusion_lon": 0.0, "bike_id": "08ab566929a6822d417750b092bd3180", "lon": -77.05334033333334, "rental_uris": {"ios": "https://dc.lft.to/lastmile_qr_scan", "android": "https://dc.lft.to/lastmile_qr_scan"}}, {"name": "4abc45dc7ab4114821a60e6427332e59", "fusion_lat": 0.0, "type": "electric_bike", "lat": 38.8737805, "is_reserved": 0, "is_disabled": 0, "fusion_lon": 0.0, "bike_id": "4abc45dc7ab4114821a60e6427332e59", "lon": -77.0009685, "rental_uris": {"ios": "https://dc.lft.to/lastmile_qr_scan", "android": "https://dc.lft.to/lastmile_qr_scan"}}, {"name": "5766a0272d51799c45aee7896663c6d0", "fusion_lat": 0.0, "type": "electric_scooter", "lat": 38.940443, "is_reserved": 0, "is_disabled": 0, "fusion_lon": 0.0, "bike_id": "5766a0272d51799c45aee7896663c6d0", "lon": -77.02971833333334, "rental_uris": {"ios": "https://dc.lft.to/lastmile_qr_scan", "android": "https://dc.lft.to/lastmile_qr_scan"}}, {"name": "3f80e8ac6de919893b9a8ce14a3ddcf6", "fusion_lat": 0.0, "type": "electric_bike", "lat": 38.9214735, "is_reserved": 0, "is_disabled": 0, "fusion_lon": 0.0, "bike_id": "3f80e8ac6de919893b9a8ce14a3ddcf6", "lon": -77.03481733333334, "rental_uris": {"ios": "https://dc.lft.to/lastmile_qr_scan", "android": "https://dc.lft.to/lastmile_qr_scan"}}, {"name": "9abdf2fec62ae56faeccd9b4a342137f", "fusion_lat": 0.0, "type": "electric_scooter", "lat": 38.965632166666666, "is_reserved": 0, "is_disabled": 0, "fusion_lon": 0.0, "bike_id": "9abdf2fec62ae56faeccd9b4a342137f", "lon": -77.01619133333334, "rental_uris": {"ios": "https://dc.lft.to/lastmile_qr_scan", "android": "https://dc.lft.to/lastmile_qr_scan"}}, {"name": "677fc78ffc300b8ae8c663f8576de110", "fusion_lat": 0.0, "type": "electric_scooter", "lat": 38.89737516666667, "is_reserved": 0, "is_disabled": 0, "fusion_lon": 0.0, "bike_id": "677fc78ffc300b8ae8c663f8576de110", "lon": -76.94718133333333, "rental_uris": {"ios": "https://dc.lft.to/lastmile_qr_scan", "android": "https://dc.lft.to/lastmile_qr_scan"}}, {"name": "648aa780854694565b5d2996c852ce8b", "fusion_lat": 0.0, "type": "electric_scooter", "lat": 38.91188116666667, "is_reserved": 0, "is_disabled": 0, "fusion_lon": 0.0, "bike_id": "648aa780854694565b5d2996c852ce8b", "lon": -77.0609265, "rental_uris": {"ios": "https://dc.lft.to/lastmile_qr_scan", "android": "https://dc.lft.to/lastmile_qr_scan"}}, {"name": "5b1d041351ccc5926b72fa6132d3ca84", "fusion_lat": 0.0, "type": "electric_scooter", "lat": 38.901403333333334, "is_reserved": 0, "is_disabled": 0, "fusion_lon": 0.0, "bike_id": "5b1d041351ccc5926b72fa6132d3ca84", "lon": -77.044434, "rental_uris": {"ios": "https://dc.lft.to/lastmile_qr_scan", "android": "https://dc.lft.to/lastmile_qr_scan"}}, {"name": "f502b97b7807ecad721f384c83a1b82b", "fusion_lat": 0.0, "type": "electric_scooter", "lat": 38.896097, "is_reserved": 0, "is_disabled": 0, "fusion_lon": 0.0, "bike_id": "f502b97b7807ecad721f384c83a1b82b", "lon": -77.04541983333333, "rental_uris": {"ios": "https://dc.lft.to/lastmile_qr_scan", "android": "https://dc.lft.to/lastmile_qr_scan"}}, {"name": "5bde4a4033dfadc2be029bce5b410454", "fusion_lat": 0.0, "type": "electric_scooter", "lat": 38.905331333333336, "is_reserved": 0, "is_disabled": 0, "fusion_lon": 0.0, "bike_id": "5bde4a4033dfadc2be029bce5b410454", "lon": -77.05028566666667, "rental_uris": {"ios": "https://dc.lft.to/lastmile_qr_scan", "android": "https://dc.lft.to/lastmile_qr_scan"}}, {"name": "0f030afad04a532ea5cb483ec6cd3d2d", "fusion_lat": 0.0, "type": "electric_scooter", "lat": 38.9750385, "is_reserved": 0, "is_disabled": 0, "fusion_lon": 0.0, "bike_id": "0f030afad04a532ea5cb483ec6cd3d2d", "lon": -77.01689833333333, "rental_uris": {"ios": "https://dc.lft.to/lastmile_qr_scan", "android": "https://dc.lft.to/lastmile_qr_scan"}}, {"name": "1c095c4a9e3ae874a9bae794880f1308", "fusion_lat": 0.0, "type": "electric_scooter", "lat": 38.896561, "is_reserved": 0, "is_disabled": 0, "fusion_lon": 0.0, "bike_id": "1c095c4a9e3ae874a9bae794880f1308", "lon": -77.025882, "rental_uris": {"ios": "https://dc.lft.to/lastmile_qr_scan", "android": "https://dc.lft.to/lastmile_qr_scan"}}, {"name": "008cc1c16b352f71eab08ac4f2475463", "fusion_lat": 0.0, "type": "electric_scooter", "lat": 38.9024335, "is_reserved": 0, "is_disabled": 0, "fusion_lon": 0.0, "bike_id": "008cc1c16b352f71eab08ac4f2475463", "lon": -77.0315425, "rental_uris": {"ios": "https://dc.lft.to/lastmile_qr_scan", "android": "https://dc.lft.to/lastmile_qr_scan"}}, {"name": "2a93bb55c44aacbd3f12d7c53fb65c3d", "fusion_lat": 0.0, "type": "electric_scooter", "lat": 38.88994433333333, "is_reserved": 0, "is_disabled": 0, "fusion_lon": 0.0, "bike_id": "2a93bb55c44aacbd3f12d7c53fb65c3d", "lon": -76.954173, "rental_uris": {"ios": "https://dc.lft.to/lastmile_qr_scan", "android": "https://dc.lft.to/lastmile_qr_scan"}}, {"name": "72739425cffb77f8614ce4ab5e1bf8d8", "fusion_lat": 0.0, "type": "electric_scooter", "lat": 38.84291533333333, "is_reserved": 0, "is_disabled": 0, "fusion_lon": 0.0, "bike_id": "72739425cffb77f8614ce4ab5e1bf8d8", "lon": -76.99944316666667, "rental_uris": {"ios": "https://dc.lft.to/lastmile_qr_scan", "android": "https://dc.lft.to/lastmile_qr_scan"}}, {"name": "737c01ed3495a97543f01efad604ff57", "fusion_lat": 0.0, "type": "electric_scooter", "lat": 38.912167833333335, "is_reserved": 0, "is_disabled": 0, "fusion_lon": 0.0, "bike_id": "737c01ed3495a97543f01efad604ff57", "lon": -77.07591733333334, "rental_uris": {"ios": "https://dc.lft.to/lastmile_qr_scan", "android": "https://dc.lft.to/lastmile_qr_scan"}}, {"name": "39b3302850dfd1501ac489b4086f21a9", "fusion_lat": 0.0, "type": "electric_scooter", "lat": 38.90261733333333, "is_reserved": 0, "is_disabled": 0, "fusion_lon": 0.0, "bike_id": "39b3302850dfd1501ac489b4086f21a9", "lon": -77.01783516666667, "rental_uris": {"ios": "https://dc.lft.to/lastmile_qr_scan", "android": "https://dc.lft.to/lastmile_qr_scan"}}, {"name": "1cece9a62b277d84f0f598ca5f5bcc3e", "fusion_lat": 0.0, "type": "electric_scooter", "lat": 38.92029466666666, "is_reserved": 0, "is_disabled": 0, "fusion_lon": 0.0, "bike_id": "1cece9a62b277d84f0f598ca5f5bcc3e", "lon": -77.011112, "rental_uris": {"ios": "https://dc.lft.to/lastmile_qr_scan", "android": "https://dc.lft.to/lastmile_qr_scan"}}, {"name": "a7521ce879de97211240d5eadb293da6", "fusion_lat": 0.0, "type": "electric_scooter", "lat": 38.90324966666667, "is_reserved": 0, "is_disabled": 0, "fusion_lon": 0.0, "bike_id": "a7521ce879de97211240d5eadb293da6", "lon": -77.05319316666667, "rental_uris": {"ios": "https://dc.lft.to/lastmile_qr_scan", "android": "https://dc.lft.to/lastmile_qr_scan"}}, {"name": "4433d5b7da1827c44c03581d1ee02686", "fusion_lat": 0.0, "type": "electric_bike", "lat": 38.917150666666664, "is_reserved": 0, "is_disabled": 0, "fusion_lon": 0.0, "bike_id": "4433d5b7da1827c44c03581d1ee02686", "lon": -76.98862266666667, "rental_uris": {"ios": "https://dc.lft.to/lastmile_qr_scan", "android": "https://dc.lft.to/lastmile_qr_scan"}}, {"name": "9e7bb2f229f8c57e5943507ec782000b", "fusion_lat": 0.0, "type": "electric_bike", "lat": 38.96537, "is_reserved": 0, "is_disabled": 0, "fusion_lon": 0.0, "bike_id": "9e7bb2f229f8c57e5943507ec782000b", "lon": -77.03516666666667, "rental_uris": {"ios": "https://dc.lft.to/lastmile_qr_scan", "android": "https://dc.lft.to/lastmile_qr_scan"}}, {"name": "2f7477c34197d2831c820d411098cd74", "fusion_lat": 0.0, "type": "electric_scooter", "lat": 38.915509666666665, "is_reserved": 0, "is_disabled": 0, "fusion_lon": 0.0, "bike_id": "2f7477c34197d2831c820d411098cd74", "lon": -77.03849066666666, "rental_uris": {"ios": "https://dc.lft.to/lastmile_qr_scan", "android": "https://dc.lft.to/lastmile_qr_scan"}}, {"name": "b63eb4d8562738ca5405a47435644a7c", "fusion_lat": 0.0, "type": "electric_scooter", "lat": 38.94202033333333, "is_reserved": 0, "is_disabled": 0, "fusion_lon": 0.0, "bike_id": "b63eb4d8562738ca5405a47435644a7c", "lon": -77.02516333333334, "rental_uris": {"ios": "https://dc.lft.to/lastmile_qr_scan", "android": "https://dc.lft.to/lastmile_qr_scan"}}, {"name": "06a9871355d950cf1bd152593ae40648", "fusion_lat": 0.0, "type": "electric_scooter", "lat": 38.905392666666664, "is_reserved": 0, "is_disabled": 0, "fusion_lon": 0.0, "bike_id": "06a9871355d950cf1bd152593ae40648", "lon": -77.04745966666667, "rental_uris": {"ios": "https://dc.lft.to/lastmile_qr_scan", "android": "https://dc.lft.to/lastmile_qr_scan"}}, {"name": "22df3763c9b23f7a5e4807433aa57f5c", "fusion_lat": 0.0, "type": "electric_bike", "lat": 38.8193925, "is_reserved": 0, "is_disabled": 0, "fusion_lon": 0.0, "bike_id": "22df3763c9b23f7a5e4807433aa57f5c", "lon": -77.00204216666667, "rental_uris": {"ios": "https://dc.lft.to/lastmile_qr_scan", "android": "https://dc.lft.to/lastmile_qr_scan"}}, {"name": "806f2698d37b2f0dfb87284f4252a76b", "fusion_lat": 0.0, "type": "electric_bike", "lat": 38.91164083333334, "is_reserved": 0, "is_disabled": 0, "fusion_lon": 0.0, "bike_id": "806f2698d37b2f0dfb87284f4252a76b", "lon": -77.00178816666667, "rental_uris": {"ios": "https://dc.lft.to/lastmile_qr_scan", "android": "https://dc.lft.to/lastmile_qr_scan"}}, {"name": "4f7c8518204c4d7f0a375ceee84d6c6a", "fusion_lat": 0.0, "type": "electric_scooter", "lat": 38.905426, "is_reserved": 0, "is_disabled": 0, "fusion_lon": 0.0, "bike_id": "4f7c8518204c4d7f0a375ceee84d6c6a", "lon": -77.04527716666666, "rental_uris": {"ios": "https://dc.lft.to/lastmile_qr_scan", "android": "https://dc.lft.to/lastmile_qr_scan"}}, {"name": "8f28340c1d26f2b9e85b928638be08ea", "fusion_lat": 0.0, "type": "electric_scooter", "lat": 38.894527333333336, "is_reserved": 0, "is_disabled": 0, "fusion_lon": 0.0, "bike_id": "8f28340c1d26f2b9e85b928638be08ea", "lon": -77.02019483333333, "rental_uris": {"ios": "https://dc.lft.to/lastmile_qr_scan", "android": "https://dc.lft.to/lastmile_qr_scan"}}, {"name": "d6f39904c028e5e5894098c538888ba8", "fusion_lat": 0.0, "type": "electric_scooter", "lat": 38.935502666666665, "is_reserved": 0, "is_disabled": 0, "fusion_lon": 0.0, "bike_id": "d6f39904c028e5e5894098c538888ba8", "lon": -77.081947, "rental_uris": {"ios": "https://dc.lft.to/lastmile_qr_scan", "android": "https://dc.lft.to/lastmile_qr_scan"}}, {"name": "9b066d2120af111b69442a0cc7274c95", "fusion_lat": 0.0, "type": "electric_scooter", "lat": 38.918068166666664, "is_reserved": 0, "is_disabled": 0, "fusion_lon": 0.0, "bike_id": "9b066d2120af111b69442a0cc7274c95", "lon": -77.03205916666667, "rental_uris": {"ios": "https://dc.lft.to/lastmile_qr_scan", "android": "https://dc.lft.to/lastmile_qr_scan"}}, {"name": "e98099d289c28ee9c099c96c32f88f38", "fusion_lat": 0.0, "type": "electric_scooter", "lat": 38.884116, "is_reserved": 0, "is_disabled": 0, "fusion_lon": 0.0, "bike_id": "e98099d289c28ee9c099c96c32f88f38", "lon": -76.97600583333333, "rental_uris": {"ios": "https://dc.lft.to/lastmile_qr_scan", "android": "https://dc.lft.to/lastmile_qr_scan"}}, {"name": "3e1e829400086ef1485f4306053c9e88", "fusion_lat": 0.0, "type": "electric_scooter", "lat": 38.9176375, "is_reserved": 0, "is_disabled": 0, "fusion_lon": 0.0, "bike_id": "3e1e829400086ef1485f4306053c9e88", "lon": -77.01499616666666, "rental_uris": {"ios": "https://dc.lft.to/lastmile_qr_scan", "android": "https://dc.lft.to/lastmile_qr_scan"}}, {"name": "658dfdbd8ae62e2c7b3514778b8e6307", "fusion_lat": 0.0, "type": "electric_scooter", "lat": 38.917497, "is_reserved": 0, "is_disabled": 0, "fusion_lon": 0.0, "bike_id": "658dfdbd8ae62e2c7b3514778b8e6307", "lon": -77.01889333333334, "rental_uris": {"ios": "https://dc.lft.to/lastmile_qr_scan", "android": "https://dc.lft.to/lastmile_qr_scan"}}, {"name": "dae85ef5893a6be49aa5f8d91fece328", "fusion_lat": 0.0, "type": "electric_scooter", "lat": 38.93900133333333, "is_reserved": 0, "is_disabled": 0, "fusion_lon": 0.0, "bike_id": "dae85ef5893a6be49aa5f8d91fece328", "lon": -77.03264983333334, "rental_uris": {"ios": "https://dc.lft.to/lastmile_qr_scan", "android": "https://dc.lft.to/lastmile_qr_scan"}}, {"name": "6f37b990e83d590b27850ae16858c8fd", "fusion_lat": 0.0, "type": "electric_scooter", "lat": 38.898836, "is_reserved": 0, "is_disabled": 0, "fusion_lon": 0.0, "bike_id": "6f37b990e83d590b27850ae16858c8fd", "lon": -77.03321116666666, "rental_uris": {"ios": "https://dc.lft.to/lastmile_qr_scan", "android": "https://dc.lft.to/lastmile_qr_scan"}}, {"name": "54996df11de7279d3cec99d2a0bc720e", "fusion_lat": 0.0, "type": "electric_scooter", "lat": 38.89878083333333, "is_reserved": 0, "is_disabled": 0, "fusion_lon": 0.0, "bike_id": "54996df11de7279d3cec99d2a0bc720e", "lon": -76.93159483333334, "rental_uris": {"ios": "https://dc.lft.to/lastmile_qr_scan", "android": "https://dc.lft.to/lastmile_qr_scan"}}, {"name": "2db2ec233d669842e6f9c12a7298dc9f", "fusion_lat": 0.0, "type": "electric_bike", "lat": 38.961224333333334, "is_reserved": 0, "is_disabled": 0, "fusion_lon": 0.0, "bike_id": "2db2ec233d669842e6f9c12a7298dc9f", "lon": -77.0327, "rental_uris": {"ios": "https://dc.lft.to/lastmile_qr_scan", "android": "https://dc.lft.to/lastmile_qr_scan"}}, {"name": "fd2b5c5fef5bf14cec4d77a2cddc1098", "fusion_lat": 0.0, "type": "electric_scooter", "lat": 38.8614995, "is_reserved": 0, "is_disabled": 0, "fusion_lon": 0.0, "bike_id": "fd2b5c5fef5bf14cec4d77a2cddc1098", "lon": -76.9893585, "rental_uris": {"ios": "https://dc.lft.to/lastmile_qr_scan", "android": "https://dc.lft.to/lastmile_qr_scan"}}, {"name": "579b0fa8eaed62abcf46afa4e2deb7e3", "fusion_lat": 0.0, "type": "electric_scooter", "lat": 38.924444333333334, "is_reserved": 0, "is_disabled": 0, "fusion_lon": 0.0, "bike_id": "579b0fa8eaed62abcf46afa4e2deb7e3", "lon": -76.99337716666666, "rental_uris": {"ios": "https://dc.lft.to/lastmile_qr_scan", "android": "https://dc.lft.to/lastmile_qr_scan"}}, {"name": "3f5452e5a07bb382ed0201d22f3cf1e2", "fusion_lat": 0.0, "type": "electric_scooter", "lat": 38.912645499999996, "is_reserved": 0, "is_disabled": 0, "fusion_lon": 0.0, "bike_id": "3f5452e5a07bb382ed0201d22f3cf1e2", "lon": -77.03552483333333, "rental_uris": {"ios": "https://dc.lft.to/lastmile_qr_scan", "android": "https://dc.lft.to/lastmile_qr_scan"}}, {"name": "65ff11cdfe740b8d97b6862b0daaed32", "fusion_lat": 0.0, "type": "electric_scooter", "lat": 38.908587833333335, "is_reserved": 0, "is_disabled": 0, "fusion_lon": 0.0, "bike_id": "65ff11cdfe740b8d97b6862b0daaed32", "lon": -77.01331283333333, "rental_uris": {"ios": "https://dc.lft.to/lastmile_qr_scan", "android": "https://dc.lft.to/lastmile_qr_scan"}}, {"name": "fd41ec017afa9eedeaf07ca5a8820e15", "fusion_lat": 0.0, "type": "electric_scooter", "lat": 38.923581, "is_reserved": 0, "is_disabled": 0, "fusion_lon": 0.0, "bike_id": "fd41ec017afa9eedeaf07ca5a8820e15", "lon": -77.05237766666667, "rental_uris": {"ios": "https://dc.lft.to/lastmile_qr_scan", "android": "https://dc.lft.to/lastmile_qr_scan"}}, {"name": "268beb3a729c7d6b62ce98ba87f7e834", "fusion_lat": 0.0, "type": "electric_scooter", "lat": 38.91731633333333, "is_reserved": 0, "is_disabled": 0, "fusion_lon": 0.0, "bike_id": "268beb3a729c7d6b62ce98ba87f7e834", "lon": -77.01029483333333, "rental_uris": {"ios": "https://dc.lft.to/lastmile_qr_scan", "android": "https://dc.lft.to/lastmile_qr_scan"}}, {"name": "a2dc44462c0eea576a6cf926433121d5", "fusion_lat": 0.0, "type": "electric_scooter", "lat": 38.9181245, "is_reserved": 0, "is_disabled": 0, "fusion_lon": 0.0, "bike_id": "a2dc44462c0eea576a6cf926433121d5", "lon": -77.04003883333333, "rental_uris": {"ios": "https://dc.lft.to/lastmile_qr_scan", "android": "https://dc.lft.to/lastmile_qr_scan"}}, {"name": "6c43752327f690a19517424af8804b52", "fusion_lat": 0.0, "type": "electric_scooter", "lat": 38.919087833333336, "is_reserved": 0, "is_disabled": 0, "fusion_lon": 0.0, "bike_id": "6c43752327f690a19517424af8804b52", "lon": -77.02179766666667, "rental_uris": {"ios": "https://dc.lft.to/lastmile_qr_scan", "android": "https://dc.lft.to/lastmile_qr_scan"}}, {"name": "0ac6c2723fa5d9d12da77f05451cefb4", "fusion_lat": 0.0, "type": "electric_scooter", "lat": 38.908877333333336, "is_reserved": 0, "is_disabled": 0, "fusion_lon": 0.0, "bike_id": "0ac6c2723fa5d9d12da77f05451cefb4", "lon": -77.00576683333334, "rental_uris": {"ios": "https://dc.lft.to/lastmile_qr_scan", "android": "https://dc.lft.to/lastmile_qr_scan"}}, {"name": "006dcab1deb7bd08b335b4aedd2b082c", "fusion_lat": 0.0, "type": "electric_scooter", "lat": 38.927962, "is_reserved": 0, "is_disabled": 0, "fusion_lon": 0.0, "bike_id": "006dcab1deb7bd08b335b4aedd2b082c", "lon": -77.03976083333333, "rental_uris": {"ios": "https://dc.lft.to/lastmile_qr_scan", "android": "https://dc.lft.to/lastmile_qr_scan"}}, {"name": "d0f9f4673154300c458e6f4c9d83f5cd", "fusion_lat": 0.0, "type": "electric_scooter", "lat": 38.9193315, "is_reserved": 0, "is_disabled": 0, "fusion_lon": 0.0, "bike_id": "d0f9f4673154300c458e6f4c9d83f5cd", "lon": -77.04494383333333, "rental_uris": {"ios": "https://dc.lft.to/lastmile_qr_scan", "android": "https://dc.lft.to/lastmile_qr_scan"}}, {"name": "ac5e6a24fb16fdb74f95789d6ef5afff", "fusion_lat": 0.0, "type": "electric_scooter", "lat": 38.90400116666667, "is_reserved": 0, "is_disabled": 0, "fusion_lon": 0.0, "bike_id": "ac5e6a24fb16fdb74f95789d6ef5afff", "lon": -77.0639855, "rental_uris": {"ios": "https://dc.lft.to/lastmile_qr_scan", "android": "https://dc.lft.to/lastmile_qr_scan"}}, {"name": "1c9ba2731c5012347fc445882fb22a48", "fusion_lat": 0.0, "type": "electric_scooter", "lat": 38.90479216666667, "is_reserved": 0, "is_disabled": 0, "fusion_lon": 0.0, "bike_id": "1c9ba2731c5012347fc445882fb22a48", "lon": -77.00719783333334, "rental_uris": {"ios": "https://dc.lft.to/lastmile_qr_scan", "android": "https://dc.lft.to/lastmile_qr_scan"}}, {"name": "612c6e52ea5e33bee5267b1385f81f82", "fusion_lat": 0.0, "type": "electric_scooter", "lat": 38.911118, "is_reserved": 0, "is_disabled": 0, "fusion_lon": 0.0, "bike_id": "612c6e52ea5e33bee5267b1385f81f82", "lon": -77.03713433333333, "rental_uris": {"ios": "https://dc.lft.to/lastmile_qr_scan", "android": "https://dc.lft.to/lastmile_qr_scan"}}, {"name": "d72325b53beace88c1a140303d6bc09e", "fusion_lat": 0.0, "type": "electric_scooter", "lat": 38.90594566666667, "is_reserved": 0, "is_disabled": 0, "fusion_lon": 0.0, "bike_id": "d72325b53beace88c1a140303d6bc09e", "lon": -77.06998, "rental_uris": {"ios": "https://dc.lft.to/lastmile_qr_scan", "android": "https://dc.lft.to/lastmile_qr_scan"}}, {"name": "e45b55e8e7d92b38101f8bc3709db339", "fusion_lat": 0.0, "type": "electric_scooter", "lat": 38.9378315, "is_reserved": 0, "is_disabled": 0, "fusion_lon": 0.0, "bike_id": "e45b55e8e7d92b38101f8bc3709db339", "lon": -77.05985783333334, "rental_uris": {"ios": "https://dc.lft.to/lastmile_qr_scan", "android": "https://dc.lft.to/lastmile_qr_scan"}}, {"name": "9d34efe06c23ca5851eaf1fb5526f85c", "fusion_lat": 0.0, "type": "electric_scooter", "lat": 38.92211316666667, "is_reserved": 0, "is_disabled": 0, "fusion_lon": 0.0, "bike_id": "9d34efe06c23ca5851eaf1fb5526f85c", "lon": -77.04241433333334, "rental_uris": {"ios": "https://dc.lft.to/lastmile_qr_scan", "android": "https://dc.lft.to/lastmile_qr_scan"}}, {"name": "e061f3ccafc347d0ac6d9a05907962d1", "fusion_lat": 0.0, "type": "electric_scooter", "lat": 38.923181166666666, "is_reserved": 0, "is_disabled": 0, "fusion_lon": 0.0, "bike_id": "e061f3ccafc347d0ac6d9a05907962d1", "lon": -77.04021216666666, "rental_uris": {"ios": "https://dc.lft.to/lastmile_qr_scan", "android": "https://dc.lft.to/lastmile_qr_scan"}}, {"name": "7068101aaacf516f0f4d01ae7e4a37ca", "fusion_lat": 0.0, "type": "electric_scooter", "lat": 38.87650033333333, "is_reserved": 0, "is_disabled": 0, "fusion_lon": 0.0, "bike_id": "7068101aaacf516f0f4d01ae7e4a37ca", "lon": -76.96506116666667, "rental_uris": {"ios": "https://dc.lft.to/lastmile_qr_scan", "android": "https://dc.lft.to/lastmile_qr_scan"}}, {"name": "f00adfabbab30692c29f709751dbbbd4", "fusion_lat": 0.0, "type": "electric_scooter", "lat": 38.938543833333334, "is_reserved": 0, "is_disabled": 0, "fusion_lon": 0.0, "bike_id": "f00adfabbab30692c29f709751dbbbd4", "lon": -77.02496516666666, "rental_uris": {"ios": "https://dc.lft.to/lastmile_qr_scan", "android": "https://dc.lft.to/lastmile_qr_scan"}}, {"name": "79be8ef29cb9094cd20dafecf87c2626", "fusion_lat": 0.0, "type": "electric_scooter", "lat": 38.90359566666667, "is_reserved": 0, "is_disabled": 0, "fusion_lon": 0.0, "bike_id": "79be8ef29cb9094cd20dafecf87c2626", "lon": -77.03986266666666, "rental_uris": {"ios": "https://dc.lft.to/lastmile_qr_scan", "android": "https://dc.lft.to/lastmile_qr_scan"}}, {"name": "c7b3aaee183c84878f790e65f6bb0595", "fusion_lat": 0.0, "type": "electric_bike", "lat": 38.99057616666666, "is_reserved": 0, "is_disabled": 0, "fusion_lon": 0.0, "bike_id": "c7b3aaee183c84878f790e65f6bb0595", "lon": -77.10023333333334, "rental_uris": {"ios": "https://dc.lft.to/lastmile_qr_scan", "android": "https://dc.lft.to/lastmile_qr_scan"}}, {"name": "10fa8755a224ddeff05a6c2dab487dab", "fusion_lat": 0.0, "type": "electric_scooter", "lat": 38.899926666666666, "is_reserved": 0, "is_disabled": 0, "fusion_lon": 0.0, "bike_id": "10fa8755a224ddeff05a6c2dab487dab", "lon": -77.02705166666667, "rental_uris": {"ios": "https://dc.lft.to/lastmile_qr_scan", "android": "https://dc.lft.to/lastmile_qr_scan"}}, {"name": "8612e4d3e5615ff3de168093ca049f38", "fusion_lat": 0.0, "type": "electric_scooter", "lat": 38.8579895, "is_reserved": 0, "is_disabled": 0, "fusion_lon": 0.0, "bike_id": "8612e4d3e5615ff3de168093ca049f38", "lon": -76.9865125, "rental_uris": {"ios": "https://dc.lft.to/lastmile_qr_scan", "android": "https://dc.lft.to/lastmile_qr_scan"}}, {"name": "5f094d23216899cd7cd73b2f5bb2668f", "fusion_lat": 0.0, "type": "electric_scooter", "lat": 38.939479, "is_reserved": 0, "is_disabled": 0, "fusion_lon": 0.0, "bike_id": "5f094d23216899cd7cd73b2f5bb2668f", "lon": -77.032608, "rental_uris": {"ios": "https://dc.lft.to/lastmile_qr_scan", "android": "https://dc.lft.to/lastmile_qr_scan"}}, {"name": "adfc976da427f2e261cfbeff908aad80", "fusion_lat": 0.0, "type": "electric_scooter", "lat": 38.929453, "is_reserved": 0, "is_disabled": 0, "fusion_lon": 0.0, "bike_id": "adfc976da427f2e261cfbeff908aad80", "lon": -77.034861, "rental_uris": {"ios": "https://dc.lft.to/lastmile_qr_scan", "android": "https://dc.lft.to/lastmile_qr_scan"}}, {"name": "d1590c404541f8122e53bf85abc12736", "fusion_lat": 0.0, "type": "electric_scooter", "lat": 38.90265933333333, "is_reserved": 0, "is_disabled": 0, "fusion_lon": 0.0, "bike_id": "d1590c404541f8122e53bf85abc12736", "lon": -77.04356316666667, "rental_uris": {"ios": "https://dc.lft.to/lastmile_qr_scan", "android": "https://dc.lft.to/lastmile_qr_scan"}}, {"name": "54dafb9d2572f2f9ed50e00f015ded8b", "fusion_lat": 0.0, "type": "electric_scooter", "lat": 38.9134955, "is_reserved": 0, "is_disabled": 0, "fusion_lon": 0.0, "bike_id": "54dafb9d2572f2f9ed50e00f015ded8b", "lon": -77.0033875, "rental_uris": {"ios": "https://dc.lft.to/lastmile_qr_scan", "android": "https://dc.lft.to/lastmile_qr_scan"}}, {"name": "bdaaa748516306b8a1eb87f8dcc9c36d", "fusion_lat": 0.0, "type": "electric_scooter", "lat": 38.93608416666667, "is_reserved": 0, "is_disabled": 0, "fusion_lon": 0.0, "bike_id": "bdaaa748516306b8a1eb87f8dcc9c36d", "lon": -77.05585333333333, "rental_uris": {"ios": "https://dc.lft.to/lastmile_qr_scan", "android": "https://dc.lft.to/lastmile_qr_scan"}}, {"name": "818afb0e56c7f9f8806eca3b608a3604", "fusion_lat": 0.0, "type": "electric_scooter", "lat": 38.90026183333333, "is_reserved": 0, "is_disabled": 0, "fusion_lon": 0.0, "bike_id": "818afb0e56c7f9f8806eca3b608a3604", "lon": -76.99860633333333, "rental_uris": {"ios": "https://dc.lft.to/lastmile_qr_scan", "android": "https://dc.lft.to/lastmile_qr_scan"}}, {"name": "174a3a797968edc8543149900894293d", "fusion_lat": 0.0, "type": "electric_scooter", "lat": 38.90028866666667, "is_reserved": 0, "is_disabled": 0, "fusion_lon": 0.0, "bike_id": "174a3a797968edc8543149900894293d", "lon": -76.98847816666667, "rental_uris": {"ios": "https://dc.lft.to/lastmile_qr_scan", "android": "https://dc.lft.to/lastmile_qr_scan"}}, {"name": "275a4c55f2116cb8a0a985995782a028", "fusion_lat": 0.0, "type": "electric_scooter", "lat": 38.924546666666664, "is_reserved": 0, "is_disabled": 0, "fusion_lon": 0.0, "bike_id": "275a4c55f2116cb8a0a985995782a028", "lon": -77.03287416666667, "rental_uris": {"ios": "https://dc.lft.to/lastmile_qr_scan", "android": "https://dc.lft.to/lastmile_qr_scan"}}, {"name": "c47220ba5b1bdc3dd5061e1c5a736877", "fusion_lat": 0.0, "type": "electric_scooter", "lat": 38.93564833333333, "is_reserved": 0, "is_disabled": 0, "fusion_lon": 0.0, "bike_id": "c47220ba5b1bdc3dd5061e1c5a736877", "lon": -77.02361833333333, "rental_uris": {"ios": "https://dc.lft.to/lastmile_qr_scan", "android": "https://dc.lft.to/lastmile_qr_scan"}}, {"name": "df6945a694fdc1f7f026571719c6c356", "fusion_lat": 0.0, "type": "electric_scooter", "lat": 38.908685, "is_reserved": 0, "is_disabled": 0, "fusion_lon": 0.0, "bike_id": "df6945a694fdc1f7f026571719c6c356", "lon": -77.08591933333334, "rental_uris": {"ios": "https://dc.lft.to/lastmile_qr_scan", "android": "https://dc.lft.to/lastmile_qr_scan"}}, {"name": "ed0ffc4f3fb4cf01a54c7c1f7887d110", "fusion_lat": 0.0, "type": "electric_bike", "lat": 38.945862, "is_reserved": 0, "is_disabled": 0, "fusion_lon": 0.0, "bike_id": "ed0ffc4f3fb4cf01a54c7c1f7887d110", "lon": -77.0026975, "rental_uris": {"ios": "https://dc.lft.to/lastmile_qr_scan", "android": "https://dc.lft.to/lastmile_qr_scan"}}, {"name": "eb0096a03e2eedc0e1a98d75c9690daf", "fusion_lat": 0.0, "type": "electric_scooter", "lat": 38.938899166666666, "is_reserved": 0, "is_disabled": 0, "fusion_lon": 0.0, "bike_id": "eb0096a03e2eedc0e1a98d75c9690daf", "lon": -77.0246815, "rental_uris": {"ios": "https://dc.lft.to/lastmile_qr_scan", "android": "https://dc.lft.to/lastmile_qr_scan"}}, {"name": "11c38f8cf060609417001a6331a6e6f7", "fusion_lat": 0.0, "type": "electric_scooter", "lat": 38.956484333333336, "is_reserved": 0, "is_disabled": 0, "fusion_lon": 0.0, "bike_id": "11c38f8cf060609417001a6331a6e6f7", "lon": -77.03287733333333, "rental_uris": {"ios": "https://dc.lft.to/lastmile_qr_scan", "android": "https://dc.lft.to/lastmile_qr_scan"}}, {"name": "49f7f5d1e828cae48fc28886189ca6c2", "fusion_lat": 0.0, "type": "electric_scooter", "lat": 38.902028333333334, "is_reserved": 0, "is_disabled": 0, "fusion_lon": 0.0, "bike_id": "49f7f5d1e828cae48fc28886189ca6c2", "lon": -77.02523066666667, "rental_uris": {"ios": "https://dc.lft.to/lastmile_qr_scan", "android": "https://dc.lft.to/lastmile_qr_scan"}}, {"name": "d0efdd1b07d372ec92a0277518134dfb", "fusion_lat": 0.0, "type": "electric_scooter", "lat": 38.89531983333333, "is_reserved": 0, "is_disabled": 0, "fusion_lon": 0.0, "bike_id": "d0efdd1b07d372ec92a0277518134dfb", "lon": -77.0320935, "rental_uris": {"ios": "https://dc.lft.to/lastmile_qr_scan", "android": "https://dc.lft.to/lastmile_qr_scan"}}, {"name": "421a50b058a4f0d406250fb040cfa1c1", "fusion_lat": 0.0, "type": "electric_scooter", "lat": 38.922113833333334, "is_reserved": 0, "is_disabled": 0, "fusion_lon": 0.0, "bike_id": "421a50b058a4f0d406250fb040cfa1c1", "lon": -76.98750683333333, "rental_uris": {"ios": "https://dc.lft.to/lastmile_qr_scan", "android": "https://dc.lft.to/lastmile_qr_scan"}}, {"name": "366f9b4698fa36b0bc69ad552f25ef42", "fusion_lat": 0.0, "type": "electric_scooter", "lat": 38.959089166666665, "is_reserved": 0, "is_disabled": 0, "fusion_lon": 0.0, "bike_id": "366f9b4698fa36b0bc69ad552f25ef42", "lon": -77.080801, "rental_uris": {"ios": "https://dc.lft.to/lastmile_qr_scan", "android": "https://dc.lft.to/lastmile_qr_scan"}}, {"name": "d406f4e5b09797bf489dc521107428f0", "fusion_lat": 0.0, "type": "electric_scooter", "lat": 38.93207966666667, "is_reserved": 0, "is_disabled": 0, "fusion_lon": 0.0, "bike_id": "d406f4e5b09797bf489dc521107428f0", "lon": -77.0365605, "rental_uris": {"ios": "https://dc.lft.to/lastmile_qr_scan", "android": "https://dc.lft.to/lastmile_qr_scan"}}, {"name": "ba867a11554a6bfaca79d393e774948b", "fusion_lat": 0.0, "type": "electric_scooter", "lat": 38.9247885, "is_reserved": 0, "is_disabled": 0, "fusion_lon": 0.0, "bike_id": "ba867a11554a6bfaca79d393e774948b", "lon": -77.05205766666667, "rental_uris": {"ios": "https://dc.lft.to/lastmile_qr_scan", "android": "https://dc.lft.to/lastmile_qr_scan"}}, {"name": "0fa1fb668f01adce75a5e463b90e258f", "fusion_lat": 0.0, "type": "electric_scooter", "lat": 38.912727833333335, "is_reserved": 0, "is_disabled": 0, "fusion_lon": 0.0, "bike_id": "0fa1fb668f01adce75a5e463b90e258f", "lon": -77.03182733333334, "rental_uris": {"ios": "https://dc.lft.to/lastmile_qr_scan", "android": "https://dc.lft.to/lastmile_qr_scan"}}, {"name": "3a92a6a0ccdafeae7e672f45ef9fff73", "fusion_lat": 0.0, "type": "electric_scooter", "lat": 38.902830333333334, "is_reserved": 0, "is_disabled": 0, "fusion_lon": 0.0, "bike_id": "3a92a6a0ccdafeae7e672f45ef9fff73", "lon": -77.03641883333333, "rental_uris": {"ios": "https://dc.lft.to/lastmile_qr_scan", "android": "https://dc.lft.to/lastmile_qr_scan"}}, {"name": "e38ce90dfd19defc09b3913c532699a6", "fusion_lat": 0.0, "type": "electric_bike", "lat": 39.003815333333336, "is_reserved": 0, "is_disabled": 0, "fusion_lon": 0.0, "bike_id": "e38ce90dfd19defc09b3913c532699a6", "lon": -77.01284166666667, "rental_uris": {"ios": "https://dc.lft.to/lastmile_qr_scan", "android": "https://dc.lft.to/lastmile_qr_scan"}}, {"name": "887f613ef960d52759ad9a480678d8c7", "fusion_lat": 0.0, "type": "electric_scooter", "lat": 38.85792383333333, "is_reserved": 0, "is_disabled": 0, "fusion_lon": 0.0, "bike_id": "887f613ef960d52759ad9a480678d8c7", "lon": -76.9909075, "rental_uris": {"ios": "https://dc.lft.to/lastmile_qr_scan", "android": "https://dc.lft.to/lastmile_qr_scan"}}, {"name": "a77f80d1d98a1a66283da8fce0fdecf8", "fusion_lat": 0.0, "type": "electric_scooter", "lat": 38.923123833333335, "is_reserved": 0, "is_disabled": 0, "fusion_lon": 0.0, "bike_id": "a77f80d1d98a1a66283da8fce0fdecf8", "lon": -77.02972116666666, "rental_uris": {"ios": "https://dc.lft.to/lastmile_qr_scan", "android": "https://dc.lft.to/lastmile_qr_scan"}}, {"name": "358754205db21fa467a880b00f1d4a3e", "fusion_lat": 0.0, "type": "electric_bike", "lat": 39.030487, "is_reserved": 0, "is_disabled": 0, "fusion_lon": 0.0, "bike_id": "358754205db21fa467a880b00f1d4a3e", "lon": -77.09476083333334, "rental_uris": {"ios": "https://dc.lft.to/lastmile_qr_scan", "android": "https://dc.lft.to/lastmile_qr_scan"}}, {"name": "56e3398527d82210303c4a8f28aa94b8", "fusion_lat": 0.0, "type": "electric_scooter", "lat": 38.92263466666667, "is_reserved": 0, "is_disabled": 0, "fusion_lon": 0.0, "bike_id": "56e3398527d82210303c4a8f28aa94b8", "lon": -77.0340315, "rental_uris": {"ios": "https://dc.lft.to/lastmile_qr_scan", "android": "https://dc.lft.to/lastmile_qr_scan"}}, {"name": "1d7d65dd3a34e5afe5fb5c385791fb4e", "fusion_lat": 0.0, "type": "electric_scooter", "lat": 38.95403533333333, "is_reserved": 0, "is_disabled": 0, "fusion_lon": 0.0, "bike_id": "1d7d65dd3a34e5afe5fb5c385791fb4e", "lon": -77.0274855, "rental_uris": {"ios": "https://dc.lft.to/lastmile_qr_scan", "android": "https://dc.lft.to/lastmile_qr_scan"}}, {"name": "626e3507dbecdcb1fafec74025a245d3", "fusion_lat": 0.0, "type": "electric_scooter", "lat": 38.89955783333333, "is_reserved": 0, "is_disabled": 0, "fusion_lon": 0.0, "bike_id": "626e3507dbecdcb1fafec74025a245d3", "lon": -77.04103016666667, "rental_uris": {"ios": "https://dc.lft.to/lastmile_qr_scan", "android": "https://dc.lft.to/lastmile_qr_scan"}}, {"name": "e0d079ae0a2d21edb0b44c69223f355a", "fusion_lat": 0.0, "type": "electric_scooter", "lat": 38.92242516666666, "is_reserved": 0, "is_disabled": 0, "fusion_lon": 0.0, "bike_id": "e0d079ae0a2d21edb0b44c69223f355a", "lon": -77.03664283333333, "rental_uris": {"ios": "https://dc.lft.to/lastmile_qr_scan", "android": "https://dc.lft.to/lastmile_qr_scan"}}, {"name": "0be87d44201d262a26b73e93f01ae1ae", "fusion_lat": 0.0, "type": "electric_scooter", "lat": 38.911364166666665, "is_reserved": 0, "is_disabled": 0, "fusion_lon": 0.0, "bike_id": "0be87d44201d262a26b73e93f01ae1ae", "lon": -77.02183083333334, "rental_uris": {"ios": "https://dc.lft.to/lastmile_qr_scan", "android": "https://dc.lft.to/lastmile_qr_scan"}}, {"name": "f84fbc359d274e3fb745fae945d23449", "fusion_lat": 0.0, "type": "electric_scooter", "lat": 38.88620183333333, "is_reserved": 0, "is_disabled": 0, "fusion_lon": 0.0, "bike_id": "f84fbc359d274e3fb745fae945d23449", "lon": -77.0194955, "rental_uris": {"ios": "https://dc.lft.to/lastmile_qr_scan", "android": "https://dc.lft.to/lastmile_qr_scan"}}, {"name": "d6f1c08b5fef42e24c7b53fe83f999a2", "fusion_lat": 0.0, "type": "electric_scooter", "lat": 38.92064933333333, "is_reserved": 0, "is_disabled": 0, "fusion_lon": 0.0, "bike_id": "d6f1c08b5fef42e24c7b53fe83f999a2", "lon": -77.04260666666667, "rental_uris": {"ios": "https://dc.lft.to/lastmile_qr_scan", "android": "https://dc.lft.to/lastmile_qr_scan"}}, {"name": "7409c132241260478af1a0a18ae8d4e3", "fusion_lat": 0.0, "type": "electric_scooter", "lat": 38.910108, "is_reserved": 0, "is_disabled": 0, "fusion_lon": 0.0, "bike_id": "7409c132241260478af1a0a18ae8d4e3", "lon": -76.9939135, "rental_uris": {"ios": "https://dc.lft.to/lastmile_qr_scan", "android": "https://dc.lft.to/lastmile_qr_scan"}}, {"name": "733efa16e63ffd1c8ae70c1baacdab04", "fusion_lat": 0.0, "type": "electric_scooter", "lat": 38.90375933333333, "is_reserved": 0, "is_disabled": 0, "fusion_lon": 0.0, "bike_id": "733efa16e63ffd1c8ae70c1baacdab04", "lon": -77.045049, "rental_uris": {"ios": "https://dc.lft.to/lastmile_qr_scan", "android": "https://dc.lft.to/lastmile_qr_scan"}}, {"name": "8d6bdd35ad26976207ce324ee7c453f3", "fusion_lat": 0.0, "type": "electric_scooter", "lat": 38.905182, "is_reserved": 0, "is_disabled": 0, "fusion_lon": 0.0, "bike_id": "8d6bdd35ad26976207ce324ee7c453f3", "lon": -77.06633633333334, "rental_uris": {"ios": "https://dc.lft.to/lastmile_qr_scan", "android": "https://dc.lft.to/lastmile_qr_scan"}}, {"name": "e7d6b490ba632cd1e7bda845bef7d812", "fusion_lat": 0.0, "type": "electric_bike", "lat": 38.94277683333333, "is_reserved": 0, "is_disabled": 0, "fusion_lon": 0.0, "bike_id": "e7d6b490ba632cd1e7bda845bef7d812", "lon": -76.98071533333334, "rental_uris": {"ios": "https://dc.lft.to/lastmile_qr_scan", "android": "https://dc.lft.to/lastmile_qr_scan"}}, {"name": "addd85d343cb88112d88fb2d54993e3e", "fusion_lat": 0.0, "type": "electric_scooter", "lat": 38.8962575, "is_reserved": 0, "is_disabled": 0, "fusion_lon": 0.0, "bike_id": "addd85d343cb88112d88fb2d54993e3e", "lon": -77.0102025, "rental_uris": {"ios": "https://dc.lft.to/lastmile_qr_scan", "android": "https://dc.lft.to/lastmile_qr_scan"}}, {"name": "3b892f8989bc7369cc1efb1f3fd12dcf", "fusion_lat": 0.0, "type": "electric_bike", "lat": 38.874762833333335, "is_reserved": 0, "is_disabled": 0, "fusion_lon": 0.0, "bike_id": "3b892f8989bc7369cc1efb1f3fd12dcf", "lon": -76.96516033333333, "rental_uris": {"ios": "https://dc.lft.to/lastmile_qr_scan", "android": "https://dc.lft.to/lastmile_qr_scan"}}, {"name": "937a559a3b0ae67da30c85fbe32dc1a6", "fusion_lat": 0.0, "type": "electric_scooter", "lat": 38.912608166666665, "is_reserved": 0, "is_disabled": 0, "fusion_lon": 0.0, "bike_id": "937a559a3b0ae67da30c85fbe32dc1a6", "lon": -77.03442916666667, "rental_uris": {"ios": "https://dc.lft.to/lastmile_qr_scan", "android": "https://dc.lft.to/lastmile_qr_scan"}}, {"name": "755c850a4c0280c9e4df255107fc5af2", "fusion_lat": 0.0, "type": "electric_scooter", "lat": 38.898851, "is_reserved": 0, "is_disabled": 0, "fusion_lon": 0.0, "bike_id": "755c850a4c0280c9e4df255107fc5af2", "lon": -76.93174716666667, "rental_uris": {"ios": "https://dc.lft.to/lastmile_qr_scan", "android": "https://dc.lft.to/lastmile_qr_scan"}}, {"name": "546fa9a804702a1eb0a6ec647b0c7c4d", "fusion_lat": 0.0, "type": "electric_scooter", "lat": 38.899949, "is_reserved": 0, "is_disabled": 0, "fusion_lon": 0.0, "bike_id": "546fa9a804702a1eb0a6ec647b0c7c4d", "lon": -77.01128516666667, "rental_uris": {"ios": "https://dc.lft.to/lastmile_qr_scan", "android": "https://dc.lft.to/lastmile_qr_scan"}}, {"name": "71f3c6a96b76696ddd0bd8ae37815267", "fusion_lat": 0.0, "type": "electric_scooter", "lat": 38.90045416666667, "is_reserved": 0, "is_disabled": 0, "fusion_lon": 0.0, "bike_id": "71f3c6a96b76696ddd0bd8ae37815267", "lon": -76.988269, "rental_uris": {"ios": "https://dc.lft.to/lastmile_qr_scan", "android": "https://dc.lft.to/lastmile_qr_scan"}}, {"name": "a5611fcbaaf45293a3c190da9ccc8d19", "fusion_lat": 0.0, "type": "electric_scooter", "lat": 38.932454, "is_reserved": 0, "is_disabled": 0, "fusion_lon": 0.0, "bike_id": "a5611fcbaaf45293a3c190da9ccc8d19", "lon": -77.040067, "rental_uris": {"ios": "https://dc.lft.to/lastmile_qr_scan", "android": "https://dc.lft.to/lastmile_qr_scan"}}, {"name": "bb941a67ff5beceb3c36df8973d300f9", "fusion_lat": 0.0, "type": "electric_scooter", "lat": 38.91662783333334, "is_reserved": 0, "is_disabled": 0, "fusion_lon": 0.0, "bike_id": "bb941a67ff5beceb3c36df8973d300f9", "lon": -77.0256835, "rental_uris": {"ios": "https://dc.lft.to/lastmile_qr_scan", "android": "https://dc.lft.to/lastmile_qr_scan"}}, {"name": "ae2daf1205a6cacfea363a7f292280b3", "fusion_lat": 0.0, "type": "electric_scooter", "lat": 38.911147666666665, "is_reserved": 0, "is_disabled": 0, "fusion_lon": 0.0, "bike_id": "ae2daf1205a6cacfea363a7f292280b3", "lon": -77.0330035, "rental_uris": {"ios": "https://dc.lft.to/lastmile_qr_scan", "android": "https://dc.lft.to/lastmile_qr_scan"}}, {"name": "2fa82fec869e2ea250c71dd799154ebd", "fusion_lat": 0.0, "type": "electric_scooter", "lat": 38.90008666666667, "is_reserved": 0, "is_disabled": 0, "fusion_lon": 0.0, "bike_id": "2fa82fec869e2ea250c71dd799154ebd", "lon": -77.03319166666667, "rental_uris": {"ios": "https://dc.lft.to/lastmile_qr_scan", "android": "https://dc.lft.to/lastmile_qr_scan"}}, {"name": "8faedfee61147c73e3cbad4eba0660d3", "fusion_lat": 0.0, "type": "electric_scooter", "lat": 38.90610133333333, "is_reserved": 0, "is_disabled": 0, "fusion_lon": 0.0, "bike_id": "8faedfee61147c73e3cbad4eba0660d3", "lon": -77.0465025, "rental_uris": {"ios": "https://dc.lft.to/lastmile_qr_scan", "android": "https://dc.lft.to/lastmile_qr_scan"}}, {"name": "16d312035c2a77d448090d1c9fee4321", "fusion_lat": 0.0, "type": "electric_scooter", "lat": 38.9248245, "is_reserved": 0, "is_disabled": 0, "fusion_lon": 0.0, "bike_id": "16d312035c2a77d448090d1c9fee4321", "lon": -77.02896716666666, "rental_uris": {"ios": "https://dc.lft.to/lastmile_qr_scan", "android": "https://dc.lft.to/lastmile_qr_scan"}}, {"name": "cecc049a5c38134aaa846c7f15bb494c", "fusion_lat": 0.0, "type": "electric_scooter", "lat": 38.866602, "is_reserved": 0, "is_disabled": 0, "fusion_lon": 0.0, "bike_id": "cecc049a5c38134aaa846c7f15bb494c", "lon": -76.9888275, "rental_uris": {"ios": "https://dc.lft.to/lastmile_qr_scan", "android": "https://dc.lft.to/lastmile_qr_scan"}}, {"name": "32fde21ec122a992b307974c926ef057", "fusion_lat": 0.0, "type": "electric_scooter", "lat": 38.916954833333335, "is_reserved": 0, "is_disabled": 0, "fusion_lon": 0.0, "bike_id": "32fde21ec122a992b307974c926ef057", "lon": -77.02442116666667, "rental_uris": {"ios": "https://dc.lft.to/lastmile_qr_scan", "android": "https://dc.lft.to/lastmile_qr_scan"}}, {"name": "ea1e4652eaf1e333fef9454fe457d8d9", "fusion_lat": 0.0, "type": "electric_scooter", "lat": 38.902313166666666, "is_reserved": 0, "is_disabled": 0, "fusion_lon": 0.0, "bike_id": "ea1e4652eaf1e333fef9454fe457d8d9", "lon": -77.04567416666667, "rental_uris": {"ios": "https://dc.lft.to/lastmile_qr_scan", "android": "https://dc.lft.to/lastmile_qr_scan"}}, {"name": "11a2cd5e4774fe7553fae115d7c19c70", "fusion_lat": 0.0, "type": "electric_bike", "lat": 38.99237333333333, "is_reserved": 0, "is_disabled": 0, "fusion_lon": 0.0, "bike_id": "11a2cd5e4774fe7553fae115d7c19c70", "lon": -76.87818183333333, "rental_uris": {"ios": "https://dc.lft.to/lastmile_qr_scan", "android": "https://dc.lft.to/lastmile_qr_scan"}}, {"name": "478d8ba3fad4bcfdb53ccee672106ab7", "fusion_lat": 0.0, "type": "electric_scooter", "lat": 38.908447, "is_reserved": 0, "is_disabled": 0, "fusion_lon": 0.0, "bike_id": "478d8ba3fad4bcfdb53ccee672106ab7", "lon": -77.03185716666667, "rental_uris": {"ios": "https://dc.lft.to/lastmile_qr_scan", "android": "https://dc.lft.to/lastmile_qr_scan"}}, {"name": "12d6f1833b4b893f2f0614f64da98cb2", "fusion_lat": 0.0, "type": "electric_scooter", "lat": 38.91115933333333, "is_reserved": 0, "is_disabled": 0, "fusion_lon": 0.0, "bike_id": "12d6f1833b4b893f2f0614f64da98cb2", "lon": -77.037369, "rental_uris": {"ios": "https://dc.lft.to/lastmile_qr_scan", "android": "https://dc.lft.to/lastmile_qr_scan"}}, {"name": "6521585e7b93049710655a50efb19cb6", "fusion_lat": 0.0, "type": "electric_scooter", "lat": 38.901450833333335, "is_reserved": 0, "is_disabled": 0, "fusion_lon": 0.0, "bike_id": "6521585e7b93049710655a50efb19cb6", "lon": -77.04503566666666, "rental_uris": {"ios": "https://dc.lft.to/lastmile_qr_scan", "android": "https://dc.lft.to/lastmile_qr_scan"}}, {"name": "bd027cadf72b8138ca46ba4071afbe25", "fusion_lat": 0.0, "type": "electric_scooter", "lat": 38.8984215, "is_reserved": 0, "is_disabled": 0, "fusion_lon": 0.0, "bike_id": "bd027cadf72b8138ca46ba4071afbe25", "lon": -77.04834266666667, "rental_uris": {"ios": "https://dc.lft.to/lastmile_qr_scan", "android": "https://dc.lft.to/lastmile_qr_scan"}}, {"name": "2678ce20d6de3c3ab524f736f8a35faa", "fusion_lat": 0.0, "type": "electric_bike", "lat": 38.943632, "is_reserved": 0, "is_disabled": 0, "fusion_lon": 0.0, "bike_id": "2678ce20d6de3c3ab524f736f8a35faa", "lon": -77.00346383333333, "rental_uris": {"ios": "https://dc.lft.to/lastmile_qr_scan", "android": "https://dc.lft.to/lastmile_qr_scan"}}, {"name": "958170b1e7984d0ff14b342e981c556a", "fusion_lat": 0.0, "type": "electric_scooter", "lat": 38.907356666666665, "is_reserved": 0, "is_disabled": 0, "fusion_lon": 0.0, "bike_id": "958170b1e7984d0ff14b342e981c556a", "lon": -77.03446983333333, "rental_uris": {"ios": "https://dc.lft.to/lastmile_qr_scan", "android": "https://dc.lft.to/lastmile_qr_scan"}},