{"data": {"bikes": [{"rental_uris": {"android": "https://dc.lft.to/lastmile_qr_scan", "ios": "https://dc.lft.to/lastmile_qr_scan"}, "lon": -77.02687516666667, "name": "ee462785f5e320f76f4ed8680821c853", "fusion_lon": 0.0, "bike_id": "ee462785f5e320f76f4ed8680821c853", "is_reserved": 0, "type": "electric_scooter", "lat": 38.9023835, "fusion_lat": 0.0, "is_disabled": 0}, {"rental_uris": {"android": "https://dc.lft.to/lastmile_qr_scan", "ios": "https://dc.lft.to/lastmile_qr_scan"}, "lon": -77.02321616666667, "name": "20e959e7c1d13e489d6800450a5c4bca", "fusion_lon": 0.0, "bike_id": "20e959e7c1d13e489d6800450a5c4bca", "is_reserved": 0, "type": "electric_scooter", "lat": 38.8941295, "fusion_lat": 0.0, "is_disabled": 0}, {"rental_uris": {"android": "https://dc.lft.to/lastmile_qr_scan", "ios": "https://dc.lft.to/lastmile_qr_scan"}, "lon": -77.017576, "name": "1479d8c9edaddbee0746a5fc52509da1", "fusion_lon": 0.0, "bike_id": "1479d8c9edaddbee0746a5fc52509da1", "is_reserved": 0, "type": "electric_scooter", "lat": 38.9026065, "fusion_lat": 0.0, "is_disabled": 0}, {"rental_uris": {"android": "https://dc.lft.to/lastmile_qr_scan", "ios": "https://dc.lft.to/lastmile_qr_scan"}, "lon": -77.03443133333333, "name": "340e001dc47b86bd3afff9b33e749bcf", "fusion_lon": 0.0, "bike_id": "340e001dc47b86bd3afff9b33e749bcf", "is_reserved": 0, "type": "electric_scooter", "lat": 38.9178745, "fusion_lat": 0.0, "is_disabled": 0}, {"rental_uris": {"android": "https://dc.lft.to/lastmile_qr_scan", "ios": "https://dc.lft.to/lastmile_qr_scan"}, "lon": -77.02791666666667, "name": "2e1836122e0445b0d3f8d5fb0584f176", "fusion_lon": 0.0, "bike_id": "2e1836122e0445b0d3f8d5fb0584f176", "is_reserved": 0, "type": "electric_scooter", "lat": 38.9072065, "fusion_lat": 0.0, "is_disabled": 0}, {"rental_uris": {"android": "https://dc.lft.to/lastmile_qr_scan", "ios": "https://dc.lft.to/lastmile_qr_scan"}, "lon": -77.00293066666667, "name": "dd9c61c7e011d66197338aced810286d", "fusion_lon": 0.0, "bike_id": "dd9c61c7e011d66197338aced810286d", "is_reserved": 0, "type": "electric_scooter", "lat": 38.90551983333334, "fusion_lat": 0.0, "is_disabled": 0}, {"rental_uris": {"android": "https://dc.lft.to/lastmile_qr_scan", "ios": "https://dc.lft.to/lastmile_qr_scan"}, "lon": -77.02590383333333, "name": "02f51ed1063154591798f3f2fab21ce5", "fusion_lon": 0.0, "bike_id": "02f51ed1063154591798f3f2fab21ce5", "is_reserved": 0, "type": "electric_scooter", "lat": 38.9016195, "fusion_lat": 0.0, "is_disabled": 0}, {"rental_uris": {"android": "https://dc.lft.to/lastmile_qr_scan", "ios": "https://dc.lft.to/lastmile_qr_scan"}, "lon": -77.04477066666666, "name": "3d13792078c0f0da347bdf6f06bbc61a", "fusion_lon": 0.0, "bike_id": "3d13792078c0f0da347bdf6f06bbc61a", "is_reserved": 0, "type": "electric_scooter", "lat": 38.89234866666666, "fusion_lat": 0.0, "is_disabled": 0}, {"rental_uris": {"android": "https://dc.lft.to/lastmile_qr_scan", "ios": "https://dc.lft.to/lastmile_qr_scan"}, "lon": -77.031974, "name": "f4139d62c3c63904cbf7bb266c6872ce", "fusion_lon": 0.0, "bike_id": "f4139d62c3c63904cbf7bb266c6872ce", "is_reserved": 0, "type": "electric_scooter", "lat": 38.91338783333333, "fusion_lat": 0.0, "is_disabled": 0}, {"rental_uris": {"android": "https://dc.lft.to/lastmile_qr_scan", "ios": "https://dc.lft.to/lastmile_qr_scan"}, "lon": -77.00403, "name": "e017a2714cea853e1f8b5fe611769b7d", "fusion_lon": 0.0, "bike_id": "e017a2714cea853e1f8b5fe611769b7d", "is_reserved": 0, "type": "electric_scooter", "lat": 38.88608266666667, "fusion_lat": 0.0, "is_disabled": 0}, {"rental_uris": {"android": "https://dc.lft.to/lastmile_qr_scan", "ios": "https://dc.lft.to/lastmile_qr_scan"}, "lon": -77.0373235, "name": "00ea39b890516b700006a52c997b8082", "fusion_lon": 0.0, "bike_id": "00ea39b890516b700006a52c997b8082", "is_reserved": 0, "type": "electric_scooter", "lat": 38.92857433333333, "fusion_lat": 0.0, "is_disabled": 0}, {"rental_uris": {"android": "https://dc.lft.to/lastmile_qr_scan", "ios": "https://dc.lft.to/lastmile_qr_scan"}, "lon": -77.0320035, "name": "d9abf544fb2b593ff436113784eb2f62", "fusion_lon": 0.0, "bike_id": "d9abf544fb2b593ff436113784eb2f62", "is_reserved": 0, "type": "electric_scooter", "lat": 38.9153635, "fusion_lat": 0.0, "is_disabled": 0}, {"rental_uris": {"android": "https://dc.lft.to/lastmile_qr_scan", "ios": "https://dc.lft.to/lastmile_qr_scan"}, "lon": -77.02967983333333, "name": "b45060f67646dea79fc7f9da8395d6dc", "fusion_lon": 0.0, "bike_id": "b45060f67646dea79fc7f9da8395d6dc", "is_reserved": 0, "type": "electric_scooter", "lat": 38.895686, "fusion_lat": 0.0, "is_disabled": 0}, {"rental_uris": {"android": "https://dc.lft.to/lastmile_qr_scan", "ios": "https://dc.lft.to/lastmile_qr_scan"}, "lon": -76.93234966666667, "name": "5a7129939824ae87dfa7fc736cbdd870", "fusion_lon": 0.0, "bike_id": "5a7129939824ae87dfa7fc736cbdd870", "is_reserved": 0, "type": "electric_bike", "lat": 38.882793666666664, "fusion_lat": 0.0, "is_disabled": 0}, {"rental_uris": {"android": "https://dc.lft.to/lastmile_qr_scan", "ios": "https://dc.lft.to/lastmile_qr_scan"}, "lon": -76.97635366666667, "name": "87e0d0e959f60515756891eb38edd9b6", "fusion_lon": 0.0, "bike_id": "87e0d0e959f60515756891eb38edd9b6", "is_reserved": 0, "type": "electric_bike", "lat": 38.886885166666666, "fusion_lat": 0.0, "is_disabled": 0}, {"rental_uris": {"android": "https://dc.lft.to/lastmile_qr_scan", "ios": "https://dc.lft.to/lastmile_qr_scan"}, "lon": -77.031925, "name": "1e7fb5687f7671e910f46d54d67aa147", "fusion_lon": 0.0, "bike_id": "1e7fb5687f7671e910f46d54d67aa147", "is_reserved": 0, "type": "electric_scooter", "lat": 38.9081025, "fusion_lat": 0.0, "is_disabled": 0}, {"rental_uris": {"android": "https://dc.lft.to/lastmile_qr_scan", "ios": "https://dc.lft.to/lastmile_qr_scan"}, "lon": -77.030945, "name": "091cf9a7faf1783bd9cb7b8e0337e06c", "fusion_lon": 0.0, "bike_id": "091cf9a7faf1783bd9cb7b8e0337e06c", "is_reserved": 0, "type": "electric_scooter", "lat": 38.932542833333336, "fusion_lat": 0.0, "is_disabled": 0}, {"rental_uris": {"android": "https://dc.lft.to/lastmile_qr_scan", "ios": "https://dc.lft.to/lastmile_qr_scan"}, "lon": -77.026147, "name": "d76e03c5da97accfea80af86b7193c0f", "fusion_lon": 0.0, "bike_id": "d76e03c5da97accfea80af86b7193c0f", "is_reserved": 0, "type": "electric_scooter", "lat": 38.887375166666665, "fusion_lat": 0.0, "is_disabled": 0}, {"rental_uris": {"android": "https://dc.lft.to/lastmile_qr_scan", "ios": "https://dc.lft.to/lastmile_qr_scan"}, "lon": -76.983867, "name": "31e5a309b44d3bcd7a448f1d970166ba", "fusion_lon": 0.0, "bike_id": "31e5a309b44d3bcd7a448f1d970166ba", "is_reserved": 0, "type": "electric_scooter", "lat": 38.91577733333333, "fusion_lat": 0.0, "is_disabled": 0}, {"rental_uris": {"android": "https://dc.lft.to/lastmile_qr_scan", "ios": "https://dc.lft.to/lastmile_qr_scan"}, "lon": -76.9317215, "name": "9a108b2bb40c8e6fa8988e03f7b88887", "fusion_lon": 0.0, "bike_id": "9a108b2bb40c8e6fa8988e03f7b88887", "is_reserved": 0, "type": "electric_scooter", "lat": 38.898889, "fusion_lat": 0.0, "is_disabled": 0}, {"rental_uris": {"android": "https://dc.lft.to/lastmile_qr_scan", "ios": "https://dc.lft.to/lastmile_qr_scan"}, "lon": -77.0294115, "name": "48cdad16bb9604f7ba6da03d20da7423", "fusion_lon": 0.0, "bike_id": "48cdad16bb9604f7ba6da03d20da7423", "is_reserved": 0, "type": "electric_scooter", "lat": 38.89996516666667, "fusion_lat": 0.0, "is_disabled": 0}, {"rental_uris": {"android": "https://dc.lft.to/lastmile_qr_scan", "ios": "https://dc.lft.to/lastmile_qr_scan"}, "lon": -77.023095, "name": "7711a341e4b8dd4649dc26b8677d5c21", "fusion_lon": 0.0, "bike_id": "7711a341e4b8dd4649dc26b8677d5c21", "is_reserved": 0, "type": "electric_scooter", "lat": 38.90064983333333, "fusion_lat": 0.0, "is_disabled": 0}, {"rental_uris": {"android": "https://dc.lft.to/lastmile_qr_scan", "ios": "https://dc.lft.to/lastmile_qr_scan"}, "lon": -77.048254, "name": "b5672d8fb65278c00d98f28c7a5a4534", "fusion_lon": 0.0, "bike_id": "b5672d8fb65278c00d98f28c7a5a4534", "is_reserved": 0, "type": "electric_scooter", "lat": 38.90057316666667, "fusion_lat": 0.0, "is_disabled": 0}, {"rental_uris": {"android": "https://dc.lft.to/lastmile_qr_scan", "ios": "https://dc.lft.to/lastmile_qr_scan"}, "lon": -77.04414116666666, "name": "ec8a80b5d48a87eec392d32c805abd97", "fusion_lon": 0.0, "bike_id": "ec8a80b5d48a87eec392d32c805abd97", "is_reserved": 0, "type": "electric_scooter", "lat": 38.911322166666665, "fusion_lat": 0.0, "is_disabled": 0}, {"rental_uris": {"android": "https://dc.lft.to/lastmile_qr_scan", "ios": "https://dc.lft.to/lastmile_qr_scan"}, "lon": -77.02383233333333, "name": "d69cd19fca15fce65087193230247277", "fusion_lon": 0.0, "bike_id": "d69cd19fca15fce65087193230247277", "is_reserved": 0, "type": "electric_scooter", "lat": 38.91611066666667, "fusion_lat": 0.0, "is_disabled": 0}, {"rental_uris": {"android": "https://dc.lft.to/lastmile_qr_scan", "ios": "https://dc.lft.to/lastmile_qr_scan"}, "lon": -77.02712933333333, "name": "32f1d4a4ad0f616bd0631df1021a1e46", "fusion_lon": 0.0, "bike_id": "32f1d4a4ad0f616bd0631df1021a1e46", "is_reserved": 0, "type": "electric_scooter", "lat": 38.92482483333333, "fusion_lat": 0.0, "is_disabled": 0}, {"rental_uris": {"android": "https://dc.lft.to/lastmile_qr_scan", "ios": "https://dc.lft.to/lastmile_qr_scan"}, "lon": -77.02316666666667, "name": "9cb360c823c4c115b9cc2b412bbf2888", "fusion_lon": 0.0, "bike_id": "9cb360c823c4c115b9cc2b412bbf2888", "is_reserved": 0, "type": "electric_scooter", "lat": 38.920767166666664, "fusion_lat": 0.0, "is_disabled": 0}, {"rental_uris": {"android": "https://dc.lft.to/lastmile_qr_scan", "ios": "https://dc.lft.to/lastmile_qr_scan"}, "lon": -76.9937755, "name": "2069b6076bd586bc97f726310e80d84b", "fusion_lon": 0.0, "bike_id": "2069b6076bd586bc97f726310e80d84b", "is_reserved": 0, "type": "electric_scooter", "lat": 38.893441, "fusion_lat": 0.0, "is_disabled": 0}, {"rental_uris": {"android": "https://dc.lft.to/lastmile_qr_scan", "ios": "https://dc.lft.to/lastmile_qr_scan"}, "lon": -77.02017766666667, "name": "0a3494a61210f02a555a0618b90f72a9", "fusion_lon": 0.0, "bike_id": "0a3494a61210f02a555a0618b90f72a9", "is_reserved": 0, "type": "electric_scooter", "lat": 38.9244565, "fusion_lat": 0.0, "is_disabled": 0}, {"rental_uris": {"android": "https://dc.lft.to/lastmile_qr_scan", "ios": "https://dc.lft.to/lastmile_qr_scan"}, "lon": -77.07250233333333, "name": "2bb58dfcd7bd65b3568089eebf1caa8c", "fusion_lon": 0.0, "bike_id": "2bb58dfcd7bd65b3568089eebf1caa8c", "is_reserved": 0, "type": "electric_scooter", "lat": 38.907847833333335, "fusion_lat": 0.0, "is_disabled": 0}, {"rental_uris": {"android": "https://dc.lft.to/lastmile_qr_scan", "ios": "https://dc.lft.to/lastmile_qr_scan"}, "lon": -77.0271045, "name": "11054047b1345c4cd98b37b78c0e973f", "fusion_lon": 0.0, "bike_id": "11054047b1345c4cd98b37b78c0e973f", "is_reserved": 0, "type": "electric_scooter", "lat": 38.90079566666667, "fusion_lat": 0.0, "is_disabled": 0}, {"rental_uris": {"android": "https://dc.lft.to/lastmile_qr_scan", "ios": "https://dc.lft.to/lastmile_qr_scan"}, "lon": -77.0278945, "name": "0205c85d7a020c29e5025e6c32942e06", "fusion_lon": 0.0, "bike_id": "0205c85d7a020c29e5025e6c32942e06", "is_reserved": 0, "type": "electric_scooter", "lat": 38.907205833333336, "fusion_lat": 0.0, "is_disabled": 0}, {"rental_uris": {"android": "https://dc.lft.to/lastmile_qr_scan", "ios": "https://dc.lft.to/lastmile_qr_scan"}, "lon": -77.04195883333334, "name": "fb205349add986a164e07bcf7e3262f1", "fusion_lon": 0.0, "bike_id": "fb205349add986a164e07bcf7e3262f1", "is_reserved": 0, "type": "electric_scooter", "lat": 38.90576516666667, "fusion_lat": 0.0, "is_disabled": 0}, {"rental_uris": {"android": "https://dc.lft.to/lastmile_qr_scan", "ios": "https://dc.lft.to/lastmile_qr_scan"}, "lon": -77.02401433333333, "name": "5a5399098d3f2ae23a0de58439d4f97b", "fusion_lon": 0.0, "bike_id": "5a5399098d3f2ae23a0de58439d4f97b", "is_reserved": 0, "type": "electric_scooter", "lat": 38.907034, "fusion_lat": 0.0, "is_disabled": 0}, {"rental_uris": {"android": "https://dc.lft.to/lastmile_qr_scan", "ios": "https://dc.lft.to/lastmile_qr_scan"}, "lon": -77.02341133333333, "name": "4171edbe92c5bbbb5031b6fdfd8beb4c", "fusion_lon": 0.0, "bike_id": "4171edbe92c5bbbb5031b6fdfd8beb4c", "is_reserved": 0, "type": "electric_scooter", "lat": 38.9496775, "fusion_lat": 0.0, "is_disabled": 0}, {"rental_uris": {"android": "https://dc.lft.to/lastmile_qr_scan", "ios": "https://dc.lft.to/lastmile_qr_scan"}, "lon": -76.99758983333334, "name": "13589e4c99c501430ec06e99a9edb5b1", "fusion_lon": 0.0, "bike_id": "13589e4c99c501430ec06e99a9edb5b1", "is_reserved": 0, "type": "electric_scooter", "lat": 38.922772333333334, "fusion_lat": 0.0, "is_disabled": 0}, {"rental_uris": {"android": "https://dc.lft.to/lastmile_qr_scan", "ios": "https://dc.lft.to/lastmile_qr_scan"}, "lon": -77.04505266666666, "name": "93bccf0c14556ad985e94baad9a200d3", "fusion_lon": 0.0, "bike_id": "93bccf0c14556ad985e94baad9a200d3", "is_reserved": 0, "type": "electric_scooter", "lat": 38.892267, "fusion_lat": 0.0, "is_disabled": 0}, {"rental_uris": {"android": "https://dc.lft.to/lastmile_qr_scan", "ios": "https://dc.lft.to/lastmile_qr_scan"}, "lon": -76.964768, "name": "6c75c541e9df1928d79ff2815f6d8f95", "fusion_lon": 0.0, "bike_id": "6c75c541e9df1928d79ff2815f6d8f95", "is_reserved": 0, "type": "electric_bike", "lat": 38.91881383333333, "fusion_lat": 0.0, "is_disabled": 0}, {"rental_uris": {"android": "https://dc.lft.to/lastmile_qr_scan", "ios": "https://dc.lft.to/lastmile_qr_scan"}, "lon": -77.03210616666667, "name": "bfbb1fb897f4964ae71943e66b602c50", "fusion_lon": 0.0, "bike_id": "bfbb1fb897f4964ae71943e66b602c50", "is_reserved": 0, "type": "electric_scooter", "lat": 38.914724166666666, "fusion_lat": 0.0, "is_disabled": 0}, {"rental_uris": {"android": "https://dc.lft.to/lastmile_qr_scan", "ios": "https://dc.lft.to/lastmile_qr_scan"}, "lon": -77.027565, "name": "13041f01b005e75b9a96fcb1b9499df3", "fusion_lon": 0.0, "bike_id": "13041f01b005e75b9a96fcb1b9499df3", "is_reserved": 0, "type": "electric_scooter", "lat": 38.926682666666665, "fusion_lat": 0.0, "is_disabled": 0}, {"rental_uris": {"android": "https://dc.lft.to/lastmile_qr_scan", "ios": "https://dc.lft.to/lastmile_qr_scan"}, "lon": -77.07272333333333, "name": "03d449f36ef4b36f2d94bc20ea8f3926", "fusion_lon": 0.0, "bike_id": "03d449f36ef4b36f2d94bc20ea8f3926", "is_reserved": 0, "type": "electric_scooter", "lat": 38.91925066666667, "fusion_lat": 0.0, "is_disabled": 0}, {"rental_uris": {"android": "https://dc.lft.to/lastmile_qr_scan", "ios": "https://dc.lft.to/lastmile_qr_scan"}, "lon": -77.02163783333333, "name": "ee0c850c602fb2dd4ca03a0ac1cb5b91", "fusion_lon": 0.0, "bike_id": "ee0c850c602fb2dd4ca03a0ac1cb5b91", "is_reserved": 0, "type": "electric_scooter", "lat": 38.884996, "fusion_lat": 0.0, "is_disabled": 0}, {"rental_uris": {"android": "https://dc.lft.to/lastmile_qr_scan", "ios": "https://dc.lft.to/lastmile_qr_scan"}, "lon": -77.02172733333333, "name": "dda6d109ae7fb552a1126a27e5264647", "fusion_lon": 0.0, "bike_id": "dda6d109ae7fb552a1126a27e5264647", "is_reserved": 0, "type": "electric_scooter", "lat": 38.9019525, "fusion_lat": 0.0, "is_disabled": 0}, {"rental_uris": {"android": "https://dc.lft.to/lastmile_qr_scan", "ios": "https://dc.lft.to/lastmile_qr_scan"}, "lon": -77.0416925, "name": "d2a6f4c7a018f26e5be45c4e26ba19bf", "fusion_lon": 0.0, "bike_id": "d2a6f4c7a018f26e5be45c4e26ba19bf", "is_reserved": 0, "type": "electric_scooter", "lat": 38.92118216666667, "fusion_lat": 0.0, "is_disabled": 0}, {"rental_uris": {"android": "https://dc.lft.to/lastmile_qr_scan", "ios": "https://dc.lft.to/lastmile_qr_scan"}, "lon": -76.97999866666666, "name": "bea8c57b0738bda2c41a8197cea04e81", "fusion_lon": 0.0, "bike_id": "bea8c57b0738bda2c41a8197cea04e81", "is_reserved": 0, "type": "electric_scooter", "lat": 38.89906633333333, "fusion_lat": 0.0, "is_disabled": 0}, {"rental_uris": {"android": "https://dc.lft.to/lastmile_qr_scan", "ios": "https://dc.lft.to/lastmile_qr_scan"}, "lon": -77.0281015, "name": "3ca572abaaf2a41105215a2b7e34e5fa", "fusion_lon": 0.0, "bike_id": "3ca572abaaf2a41105215a2b7e34e5fa", "is_reserved": 0, "type": "electric_scooter", "lat": 38.917195166666666, "fusion_lat": 0.0, "is_disabled": 0}, {"rental_uris": {"android": "https://dc.lft.to/lastmile_qr_scan", "ios": "https://dc.lft.to/lastmile_qr_scan"}, "lon": -76.9948255, "name": "1608ce065dff36f5c8078e59c16e5c89", "fusion_lon": 0.0, "bike_id": "1608ce065dff36f5c8078e59c16e5c89", "is_reserved": 0, "type": "electric_bike", "lat": 38.97317833333334, "fusion_lat": 0.0, "is_disabled": 0}, {"rental_uris": {"android": "https://dc.lft.to/lastmile_qr_scan", "ios": "https://dc.lft.to/lastmile_qr_scan"}, "lon": -77.01694466666666, "name": "d0048622d8e6b015c69e7a3e8fa18648", "fusion_lon": 0.0, "bike_id": "d0048622d8e6b015c69e7a3e8fa18648", "is_reserved": 0, "type": "electric_scooter", "lat": 38.9750265, "fusion_lat": 0.0, "is_disabled": 0}, {"rental_uris": {"android": "https://dc.lft.to/lastmile_qr_scan", "ios": "https://dc.lft.to/lastmile_qr_scan"}, "lon": -77.01408833333333, "name": "54f85e7fa4942d0092e1982f8556d1b3", "fusion_lon": 0.0, "bike_id": "54f85e7fa4942d0092e1982f8556d1b3", "is_reserved": 0, "type": "electric_scooter", "lat": 38.92834883333333, "fusion_lat": 0.0, "is_disabled": 0}, {"rental_uris": {"android": "https://dc.lft.to/lastmile_qr_scan", "ios": "https://dc.lft.to/lastmile_qr_scan"}, "lon": -77.0207845, "name": "943e462aac346a3dd54d2e2a723267be", "fusion_lon": 0.0, "bike_id": "943e462aac346a3dd54d2e2a723267be", "is_reserved": 0, "type": "electric_scooter", "lat": 38.9215805, "fusion_lat": 0.0, "is_disabled": 0}, {"rental_uris": {"android": "https://dc.lft.to/lastmile_qr_scan", "ios": "https://dc.lft.to/lastmile_qr_scan"}, "lon": -77.01496133333333, "name": "c9f6c8821265858a492b7a2bec61af8b", "fusion_lon": 0.0, "bike_id": "c9f6c8821265858a492b7a2bec61af8b", "is_reserved": 0, "type": "electric_scooter", "lat": 38.913241666666664, "fusion_lat": 0.0, "is_disabled": 0}, {"rental_uris": {"android": "https://dc.lft.to/lastmile_qr_scan", "ios": "https://dc.lft.to/lastmile_qr_scan"}, "lon": -77.0297575, "name": "81ee7544f33d8bd4d780cfacd015b2d4", "fusion_lon": 0.0, "bike_id": "81ee7544f33d8bd4d780cfacd015b2d4", "is_reserved": 0, "type": "electric_scooter", "lat": 38.940895833333336, "fusion_lat": 0.0, "is_disabled": 0}, {"rental_uris": {"android": "https://dc.lft.to/lastmile_qr_scan", "ios": "https://dc.lft.to/lastmile_qr_scan"}, "lon": -77.038374, "name": "e23e2862f06a85fd6290f66704cbb319", "fusion_lon": 0.0, "bike_id": "e23e2862f06a85fd6290f66704cbb319", "is_reserved": 0, "type": "electric_scooter", "lat": 38.911706333333335, "fusion_lat": 0.0, "is_disabled": 0}, {"rental_uris": {"android": "https://dc.lft.to/lastmile_qr_scan", "ios": "https://dc.lft.to/lastmile_qr_scan"}, "lon": -76.99457133333334, "name": "51aec0a71c799241032ad04eeee6e0b3", "fusion_lon": 0.0, "bike_id": "51aec0a71c799241032ad04eeee6e0b3", "is_reserved": 0, "type": "electric_scooter", "lat": 38.86221166666667, "fusion_lat": 0.0, "is_disabled": 0}, {"rental_uris": {"android": "https://dc.lft.to/lastmile_qr_scan", "ios": "https://dc.lft.to/lastmile_qr_scan"}, "lon": -77.01230366666667, "name": "70854ade51a1df468a80ad9abbf1a496", "fusion_lon": 0.0, "bike_id": "70854ade51a1df468a80ad9abbf1a496", "is_reserved": 0, "type": "electric_bike", "lat": 38.901390166666665, "fusion_lat": 0.0, "is_disabled": 0}, {"rental_uris": {"android": "https://dc.lft.to/lastmile_qr_scan", "ios": "https://dc.lft.to/lastmile_qr_scan"}, "lon": -77.0440805, "name": "c480e2cd80a8d7b689e9567b192ad3a9", "fusion_lon": 0.0, "bike_id": "c480e2cd80a8d7b689e9567b192ad3a9", "is_reserved": 0, "type": "electric_scooter", "lat": 38.89605733333333, "fusion_lat": 0.0, "is_disabled": 0}, {"rental_uris": {"android": "https://dc.lft.to/lastmile_qr_scan", "ios": "https://dc.lft.to/lastmile_qr_scan"}, "lon": -77.037984, "name": "a2f01656ee540724d5e9561b6cb876ee", "fusion_lon": 0.0, "bike_id": "a2f01656ee540724d5e9561b6cb876ee", "is_reserved": 0, "type": "electric_scooter", "lat": 38.9067365, "fusion_lat": 0.0, "is_disabled": 0}, {"rental_uris": {"android": "https://dc.lft.to/lastmile_qr_scan", "ios": "https://dc.lft.to/lastmile_qr_scan"}, "lon": -76.99014533333333, "name": "e84adff3e9e29a8c4525479f81b679ab", "fusion_lon": 0.0, "bike_id": "e84adff3e9e29a8c4525479f81b679ab", "is_reserved": 0, "type": "electric_scooter", "lat": 38.88275816666667, "fusion_lat": 0.0, "is_disabled": 0}, {"rental_uris": {"android": "https://dc.lft.to/lastmile_qr_scan", "ios": "https://dc.lft.to/lastmile_qr_scan"}, "lon": -77.03273, "name": "3270c36e87dccae6e2b280a528034a76", "fusion_lon": 0.0, "bike_id": "3270c36e87dccae6e2b280a528034a76", "is_reserved": 0, "type": "electric_scooter", "lat": 38.93251033333333, "fusion_lat": 0.0, "is_disabled": 0}, {"rental_uris": {"android": "https://dc.lft.to/lastmile_qr_scan", "ios": "https://dc.lft.to/lastmile_qr_scan"}, "lon": -77.03312016666666, "name": "8cd826965d0aab765ee00860da81f96b", "fusion_lon": 0.0, "bike_id": "8cd826965d0aab765ee00860da81f96b", "is_reserved": 0, "type": "electric_scooter", "lat": 38.902453333333334, "fusion_lat": 0.0, "is_disabled": 0}, {"rental_uris": {"android": "https://dc.lft.to/lastmile_qr_scan", "ios": "https://dc.lft.to/lastmile_qr_scan"}, "lon": -77.04119333333334, "name": "d0b31781cfdef15b1e49e7b7cde4487d", "fusion_lon": 0.0, "bike_id": "d0b31781cfdef15b1e49e7b7cde4487d", "is_reserved": 0, "type": "electric_scooter", "lat": 38.925337, "fusion_lat": 0.0, "is_disabled": 0}, {"rental_uris": {"android": "https://dc.lft.to/lastmile_qr_scan", "ios": "https://dc.lft.to/lastmile_qr_scan"}, "lon": -76.95765316666666, "name": "909930ca27bf35fdce19092125e503f8", "fusion_lon": 0.0, "bike_id": "909930ca27bf35fdce19092125e503f8", "is_reserved": 0, "type": "electric_scooter", "lat": 38.8844065, "fusion_lat": 0.0, "is_disabled": 0}, {"rental_uris": {"android": "https://dc.lft.to/lastmile_qr_scan", "ios": "https://dc.lft.to/lastmile_qr_scan"}, "lon": -77.0250085, "name": "028a2554f8ff31ddf6dca9ac9a74d02e", "fusion_lon": 0.0, "bike_id": "028a2554f8ff31ddf6dca9ac9a74d02e", "is_reserved": 0, "type": "electric_scooter", "lat": 38.92085333333333, "fusion_lat": 0.0, "is_disabled": 0}, {"rental_uris": {"android": "https://dc.lft.to/lastmile_qr_scan", "ios": "https://dc.lft.to/lastmile_qr_scan"}, "lon": -77.00504016666666, "name": "4cf41149a2a0b0a915e47316d533e4dd", "fusion_lon": 0.0, "bike_id": "4cf41149a2a0b0a915e47316d533e4dd", "is_reserved": 0, "type": "electric_scooter", "lat": 38.89593833333333, "fusion_lat": 0.0, "is_disabled": 0}, {"rental_uris": {"android": "https://dc.lft.to/lastmile_qr_scan", "ios": "https://dc.lft.to/lastmile_qr_scan"}, "lon": -77.03083433333333, "name": "a8edcfba2ea97f92a064e355ed9b9ddb", "fusion_lon": 0.0, "bike_id": "a8edcfba2ea97f92a064e355ed9b9ddb", "is_reserved": 0, "type": "electric_scooter", "lat": 38.9225075, "fusion_lat": 0.0, "is_disabled": 0}, {"rental_uris": {"android": "https://dc.lft.to/lastmile_qr_scan", "ios": "https://dc.lft.to/lastmile_qr_scan"}, "lon": -77.00872716666667, "name": "884e308cb04648b830e00711d8cdcef6", "fusion_lon": 0.0, "bike_id": "884e308cb04648b830e00711d8cdcef6", "is_reserved": 0, "type": "electric_scooter", "lat": 38.883753, "fusion_lat": 0.0, "is_disabled": 0}, {"rental_uris": {"android": "https://dc.lft.to/lastmile_qr_scan", "ios": "https://dc.lft.to/lastmile_qr_scan"}, "lon": -77.02134283333334, "name": "f4083f9101d2d854ed269a00c09474ed", "fusion_lon": 0.0, "bike_id": "f4083f9101d2d854ed269a00c09474ed", "is_reserved": 0, "type": "electric_scooter", "lat": 38.92490983333333, "fusion_lat": 0.0, "is_disabled": 0}, {"rental_uris": {"android": "https://dc.lft.to/lastmile_qr_scan", "ios": "https://dc.lft.to/lastmile_qr_scan"}, "lon": -77.071507, "name": "acbdecff366a8ed56fa3e260d4f2c77b", "fusion_lon": 0.0, "bike_id": "acbdecff366a8ed56fa3e260d4f2c77b", "is_reserved": 0, "type": "electric_scooter", "lat": 38.908740333333334, "fusion_lat": 0.0, "is_disabled": 0}, {"rental_uris": {"android": "https://dc.lft.to/lastmile_qr_scan", "ios": "https://dc.lft.to/lastmile_qr_scan"}, "lon": -77.022062, "name": "843b0d76055d19bc676bd17f3e29aae5", "fusion_lon": 0.0, "bike_id": "843b0d76055d19bc676bd17f3e29aae5", "is_reserved": 0, "type": "electric_scooter", "lat": 38.904238, "fusion_lat": 0.0, "is_disabled": 0}, {"rental_uris": {"android": "https://dc.lft.to/lastmile_qr_scan", "ios": "https://dc.lft.to/lastmile_qr_scan"}, "lon": -77.02387516666667, "name": "ff2e7b46cfad8835bb3fdd880fb6c2f2", "fusion_lon": 0.0, "bike_id": "ff2e7b46cfad8835bb3fdd880fb6c2f2", "is_reserved": 0, "type": "electric_scooter", "lat": 38.909573, "fusion_lat": 0.0, "is_disabled": 0}, {"rental_uris": {"android": "https://dc.lft.to/lastmile_qr_scan", "ios": "https://dc.lft.to/lastmile_qr_scan"}, "lon": -77.00594666666667, "name": "3a7d74ee0822b367dbc1544cce15fd11", "fusion_lon": 0.0, "bike_id": "3a7d74ee0822b367dbc1544cce15fd11", "is_reserved": 0, "type": "electric_scooter", "lat": 38.905518666666666, "fusion_lat": 0.0, "is_disabled": 0}, {"rental_uris": {"android": "https://dc.lft.to/lastmile_qr_scan", "ios": "https://dc.lft.to/lastmile_qr_scan"}, "lon": -77.01757933333333, "name": "d74bbd2780f26ea3f0b8d21e1642f4f2", "fusion_lon": 0.0, "bike_id": "d74bbd2780f26ea3f0b8d21e1642f4f2", "is_reserved": 0, "type": "electric_scooter", "lat": 38.902351833333334, "fusion_lat": 0.0, "is_disabled": 0}, {"rental_uris": {"android": "https://dc.lft.to/lastmile_qr_scan", "ios": "https://dc.lft.to/lastmile_qr_scan"}, "lon": -77.031998, "name": "f15bdd6d8d4f1cca5306520502f8f360", "fusion_lon": 0.0, "bike_id": "f15bdd6d8d4f1cca5306520502f8f360", "is_reserved": 0, "type": "electric_scooter", "lat": 38.9181605, "fusion_lat": 0.0, "is_disabled": 0}, {"rental_uris": {"android": "https://dc.lft.to/lastmile_qr_scan", "ios": "https://dc.lft.to/lastmile_qr_scan"}, "lon": -77.001958, "name": "139941954eaae04c466b0bc47fb29dfb", "fusion_lon": 0.0, "bike_id": "139941954eaae04c466b0bc47fb29dfb", "is_reserved": 0, "type": "electric_scooter", "lat": 38.894939, "fusion_lat": 0.0, "is_disabled": 0}, {"rental_uris": {"android": "https://dc.lft.to/lastmile_qr_scan", "ios": "https://dc.lft.to/lastmile_qr_scan"}, "lon": -77.04622483333333, "name": "7003b3bef19d58fd2fffbd9761c77b57", "fusion_lon": 0.0, "bike_id": "7003b3bef19d58fd2fffbd9761c77b57", "is_reserved": 0, "type": "electric_scooter", "lat": 38.91633783333333, "fusion_lat": 0.0, "is_disabled": 0}, {"rental_uris": {"android": "https://dc.lft.to/lastmile_qr_scan", "ios": "https://dc.lft.to/lastmile_qr_scan"}, "lon": -77.04075266666666, "name": "c1fc36f32346c33031576e7208b22a97", "fusion_lon": 0.0, "bike_id": "c1fc36f32346c33031576e7208b22a97", "is_reserved": 0, "type": "electric_scooter", "lat": 38.905527166666666, "fusion_lat": 0.0, "is_disabled": 0}, {"rental_uris": {"android": "https://dc.lft.to/lastmile_qr_scan", "ios": "https://dc.lft.to/lastmile_qr_scan"}, "lon": -77.01852, "name": "8f4b0b90b89ba70f276cd9cc64cf6b76", "fusion_lon": 0.0, "bike_id": "8f4b0b90b89ba70f276cd9cc64cf6b76", "is_reserved": 0, "type": "electric_scooter", "lat": 38.914810833333334, "fusion_lat": 0.0, "is_disabled": 0}, {"rental_uris": {"android": "https://dc.lft.to/lastmile_qr_scan", "ios": "https://dc.lft.to/lastmile_qr_scan"}, "lon": -77.03198983333333, "name": "7adfb48b370870f048943b578ffb81d8", "fusion_lon": 0.0, "bike_id": "7adfb48b370870f048943b578ffb81d8", "is_reserved": 0, "type": "electric_scooter", "lat": 38.932436833333334, "fusion_lat": 0.0, "is_disabled": 0}, {"rental_uris": {"android": "https://dc.lft.to/lastmile_qr_scan", "ios": "https://dc.lft.to/lastmile_qr_scan"}, "lon": -76.93260133333334, "name": "6aa18ba76ab6097e14f0f6e10ab438e0", "fusion_lon": 0.0, "bike_id": "6aa18ba76ab6097e14f0f6e10ab438e0", "is_reserved": 0, "type": "electric_scooter", "lat": 38.887714, "fusion_lat": 0.0, "is_disabled": 0}, {"rental_uris": {"android": "https://dc.lft.to/lastmile_qr_scan", "ios": "https://dc.lft.to/lastmile_qr_scan"}, "lon": -77.06341933333333, "name": "e9499ca1475bbfe0bf9d5435b33338f1", "fusion_lon": 0.0, "bike_id": "e9499ca1475bbfe0bf9d5435b33338f1", "is_reserved": 0, "type": "electric_scooter", "lat": 38.9084525, "fusion_lat": 0.0, "is_disabled": 0}, {"rental_uris": {"android": "https://dc.lft.to/lastmile_qr_scan", "ios": "https://dc.lft.to/lastmile_qr_scan"}, "lon": -77.04591716666667, "name": "a97e226e6d667d335c5a1124c77caabe", "fusion_lon": 0.0, "bike_id": "a97e226e6d667d335c5a1124c77caabe", "is_reserved": 0, "type": "electric_scooter", "lat": 38.89614, "fusion_lat": 0.0, "is_disabled": 0}, {"rental_uris": {"android": "https://dc.lft.to/lastmile_qr_scan", "ios": "https://dc.lft.to/lastmile_qr_scan"}, "lon": -77.025026, "name": "19183a967d2d1bb36a2076e8b29929a6", "fusion_lon": 0.0, "bike_id": "19183a967d2d1bb36a2076e8b29929a6", "is_reserved": 0, "type": "electric_scooter", "lat": 38.92090666666667, "fusion_lat": 0.0, "is_disabled": 0}, {"rental_uris": {"android": "https://dc.lft.to/lastmile_qr_scan", "ios": "https://dc.lft.to/lastmile_qr_scan"}, "lon": -77.0224805, "name": "6fe435c4f9bb165381d3a1a796da214d", "fusion_lon": 0.0, "bike_id": "6fe435c4f9bb165381d3a1a796da214d", "is_reserved": 0, "type": "electric_scooter", "lat": 38.92733916666667, "fusion_lat": 0.0, "is_disabled": 0}, {"rental_uris": {"android": "https://dc.lft.to/lastmile_qr_scan", "ios": "https://dc.lft.to/lastmile_qr_scan"}, "lon": -77.01221316666667, "name": "c018ae9625559cf8ad9e23566198d8bf", "fusion_lon": 0.0, "bike_id": "c018ae9625559cf8ad9e23566198d8bf", "is_reserved": 0, "type": "electric_scooter", "lat": 38.91545216666667, "fusion_lat": 0.0, "is_disabled": 0}, {"rental_uris": {"android": "https://dc.lft.to/lastmile_qr_scan", "ios": "https://dc.lft.to/lastmile_qr_scan"}, "lon": -77.0551265, "name": "3be2e1c6ad40fe133124e3b54d30535a", "fusion_lon": 0.0, "bike_id": "3be2e1c6ad40fe133124e3b54d30535a", "is_reserved": 0, "type": "electric_scooter", "lat": 38.94413566666667, "fusion_lat": 0.0, "is_disabled": 0}, {"rental_uris": {"android": "https://dc.lft.to/lastmile_qr_scan", "ios": "https://dc.lft.to/lastmile_qr_scan"}, "lon": -77.0424045, "name": "47f60aac5b2a9beaff86a982a35b40bf", "fusion_lon": 0.0, "bike_id": "47f60aac5b2a9beaff86a982a35b40bf", "is_reserved": 0, "type": "electric_scooter", "lat": 38.92224, "fusion_lat": 0.0, "is_disabled": 0}, {"rental_uris": {"android": "https://dc.lft.to/lastmile_qr_scan", "ios": "https://dc.lft.to/lastmile_qr_scan"}, "lon": -77.00625416666666, "name": "a01cf8f8c3d7254f9a381000fc658fbd", "fusion_lon": 0.0, "bike_id": "a01cf8f8c3d7254f9a381000fc658fbd", "is_reserved": 0, "type": "electric_scooter", "lat": 38.90457466666667, "fusion_lat": 0.0, "is_disabled": 0}, {"rental_uris": {"android": "https://dc.lft.to/lastmile_qr_scan", "ios": "https://dc.lft.to/lastmile_qr_scan"}, "lon": -77.02935883333333, "name": "f2161ea575941241ebc5b5fc379064a8", "fusion_lon": 0.0, "bike_id": "f2161ea575941241ebc5b5fc379064a8", "is_reserved": 0, "type": "electric_scooter", "lat": 38.9056745, "fusion_lat": 0.0, "is_disabled": 0}, {"rental_uris": {"android": "https://dc.lft.to/lastmile_qr_scan", "ios": "https://dc.lft.to/lastmile_qr_scan"}, "lon": -77.05014, "name": "274f9a19d5d3d5c59e414edbfacbb09a", "fusion_lon": 0.0, "bike_id": "274f9a19d5d3d5c59e414edbfacbb09a", "is_reserved": 0, "type": "electric_scooter", "lat": 38.898701833333334, "fusion_lat": 0.0, "is_disabled": 0}, {"rental_uris": {"android": "https://dc.lft.to/lastmile_qr_scan", "ios": "https://dc.lft.to/lastmile_qr_scan"}, "lon": -77.0450025, "name": "64a327ccee6c74db3e6d611435b5bc8a", "fusion_lon": 0.0, "bike_id": "64a327ccee6c74db3e6d611435b5bc8a", "is_reserved": 0, "type": "electric_scooter", "lat": 38.907846, "fusion_lat": 0.0, "is_disabled": 0}, {"rental_uris": {"android": "https://dc.lft.to/lastmile_qr_scan", "ios": "https://dc.lft.to/lastmile_qr_scan"}, "lon": -77.029069, "name": "da7e4bd3f25d6438a69abf1f410a48ee", "fusion_lon": 0.0, "bike_id": "da7e4bd3f25d6438a69abf1f410a48ee", "is_reserved": 0, "type": "electric_scooter", "lat": 38.93315833333333, "fusion_lat": 0.0, "is_disabled": 0}, {"rental_uris": {"android": "https://dc.lft.to/lastmile_qr_scan", "ios": "https://dc.lft.to/lastmile_qr_scan"}, "lon": -77.02531966666666, "name": "97695e59077acbab149d21c443b5f9f7", "fusion_lon": 0.0, "bike_id": "97695e59077acbab149d21c443b5f9f7", "is_reserved": 0, "type": "electric_scooter", "lat": 38.920816333333335, "fusion_lat": 0.0, "is_disabled": 0}, {"rental_uris": {"android": "https://dc.lft.to/lastmile_qr_scan", "ios": "https://dc.lft.to/lastmile_qr_scan"}, "lon": -77.003801, "name": "55e2e54b1c78899e6b2564dda46fa9ef", "fusion_lon": 0.0, "bike_id": "55e2e54b1c78899e6b2564dda46fa9ef", "is_reserved": 0, "type": "electric_bike", "lat": 38.836121166666665, "fusion_lat": 0.0, "is_disabled": 0}, {"rental_uris": {"android": "https://dc.lft.to/lastmile_qr_scan", "ios": "https://dc.lft.to/lastmile_qr_scan"}, "lon": -77.017488, "name": "7cbe8ba5a0470d73c042c3702565cea8", "fusion_lon": 0.0, "bike_id": "7cbe8ba5a0470d73c042c3702565cea8", "is_reserved": 0, "type": "electric_scooter", "lat": 38.902320333333336, "fusion_lat": 0.0, "is_disabled": 0}, {"rental_uris": {"android": "https://dc.lft.to/lastmile_qr_scan", "ios": "https://dc.lft.to/lastmile_qr_scan"}, "lon": -77.031822, "name": "2b78b754035933bd88af7b3f49add9ac", "fusion_lon": 0.0, "bike_id": "2b78b754035933bd88af7b3f49add9ac", "is_reserved": 0, "type": "electric_scooter", "lat": 38.918225166666666, "fusion_lat": 0.0, "is_disabled": 0}, {"rental_uris": {"android": "https://dc.lft.to/lastmile_qr_scan", "ios": "https://dc.lft.to/lastmile_qr_scan"}, "lon": -76.981227, "name": "abe6d5dceaa59571eaec16e6b82a9238", "fusion_lon": 0.0, "bike_id": "abe6d5dceaa59571eaec16e6b82a9238", "is_reserved": 0, "type": "electric_scooter", "lat": 38.84626933333333, "fusion_lat": 0.0, "is_disabled": 0}, {"rental_uris": {"android": "https://dc.lft.to/lastmile_qr_scan", "ios": "https://dc.lft.to/lastmile_qr_scan"}, "lon": -76.99694633333333, "name": "bead786b465ae7202c600e0923cc5787", "fusion_lon": 0.0, "bike_id": "bead786b465ae7202c600e0923cc5787", "is_reserved": 0, "type": "electric_scooter", "lat": 38.90831033333333, "fusion_lat": 0.0, "is_disabled": 0}, {"rental_uris": {"android": "https://dc.lft.to/lastmile_qr_scan", "ios": "https://dc.lft.to/lastmile_qr_scan"}, "lon": -77.01258133333333, "name": "5910104476377cad18854826a1a59f23", "fusion_lon": 0.0, "bike_id": "5910104476377cad18854826a1a59f23", "is_reserved": 0, "type": "electric_bike", "lat": 38.97421333333333, "fusion_lat": 0.0, "is_disabled": 0}, {"rental_uris": {"android": "https://dc.lft.to/lastmile_qr_scan", "ios": "https://dc.lft.to/lastmile_qr_scan"}, "lon": -77.02709766666666, "name": "3f536aa38a491effc337485b1d93b2c6", "fusion_lon": 0.0, "bike_id": "3f536aa38a491effc337485b1d93b2c6", "is_reserved": 0, "type": "electric_scooter", "lat": 38.924879, "fusion_lat": 0.0, "is_disabled": 0}, {"rental_uris": {"android": "https://dc.lft.to/lastmile_qr_scan", "ios": "https://dc.lft.to/lastmile_qr_scan"}, "lon": -77.042591, "name": "d7f2c3a6634685205a2f607ffcd8dcc9", "fusion_lon": 0.0, "bike_id": "d7f2c3a6634685205a2f607ffcd8dcc9", "is_reserved": 0, "type": "electric_bike", "lat": 38.91632216666667, "fusion_lat": 0.0, "is_disabled": 0}, {"rental_uris": {"android": "https://dc.lft.to/lastmile_qr_scan", "ios": "https://dc.lft.to/lastmile_qr_scan"}, "lon": -77.0387005, "name": "36e39d63b1f797cce8e9cb8fa22ba50f", "fusion_lon": 0.0, "bike_id": "36e39d63b1f797cce8e9cb8fa22ba50f", "is_reserved": 0, "type": "electric_scooter", "lat": 38.90122133333333, "fusion_lat": 0.0, "is_disabled": 0}, {"rental_uris": {"android": "https://dc.lft.to/lastmile_qr_scan", "ios": "https://dc.lft.to/lastmile_qr_scan"}, "lon": -77.024333, "name": "b620b06e34e02544ba50198e5dd489f0", "fusion_lon": 0.0, "bike_id": "b620b06e34e02544ba50198e5dd489f0", "is_reserved": 0, "type": "electric_scooter", "lat": 38.9021495, "fusion_lat": 0.0, "is_disabled": 0}, {"rental_uris": {"android": "https://dc.lft.to/lastmile_qr_scan", "ios": "https://dc.lft.to/lastmile_qr_scan"}, "lon": -77.03563116666666, "name": "52797163e56114663e5bbe5360c1f9ff", "fusion_lon": 0.0, "bike_id": "52797163e56114663e5bbe5360c1f9ff", "is_reserved": 0, "type": "electric_scooter", "lat": 38.939794, "fusion_lat": 0.0, "is_disabled": 0}, {"rental_uris": {"android": "https://dc.lft.to/lastmile_qr_scan", "ios": "https://dc.lft.to/lastmile_qr_scan"}, "lon": -77.00049316666667, "name": "dec1539593ac4f5ec2d0a4971fe1dc65", "fusion_lon": 0.0, "bike_id": "dec1539593ac4f5ec2d0a4971fe1dc65", "is_reserved": 0, "type": "electric_bike", "lat": 38.7933435, "fusion_lat": 0.0, "is_disabled": 0}, {"rental_uris": {"android": "https://dc.lft.to/lastmile_qr_scan", "ios": "https://dc.lft.to/lastmile_qr_scan"}, "lon": -76.92113833333333, "name": "eb1ac00eff661ec00bfdb25e99822f1e", "fusion_lon": 0.0, "bike_id": "eb1ac00eff661ec00bfdb25e99822f1e", "is_reserved": 0, "type": "electric_scooter", "lat": 38.893055, "fusion_lat": 0.0, "is_disabled": 0}, {"rental_uris": {"android": "https://dc.lft.to/lastmile_qr_scan", "ios": "https://dc.lft.to/lastmile_qr_scan"}, "lon": -77.02936816666667, "name": "bee5e9218a4d8331c7d357128471e3d5", "fusion_lon": 0.0, "bike_id": "bee5e9218a4d8331c7d357128471e3d5", "is_reserved": 0, "type": "electric_bike", "lat": 38.89837133333333, "fusion_lat": 0.0, "is_disabled": 0}, {"rental_uris": {"android": "https://dc.lft.to/lastmile_qr_scan", "ios": "https://dc.lft.to/lastmile_qr_scan"}, "lon": -76.99046833333334, "name": "0ea64da37e9cb0a9f2a539579478a13b", "fusion_lon": 0.0, "bike_id": "0ea64da37e9cb0a9f2a539579478a13b", "is_reserved": 0, "type": "electric_scooter", "lat": 38.90584283333333, "fusion_lat": 0.0, "is_disabled": 0}, {"rental_uris": {"android": "https://dc.lft.to/lastmile_qr_scan", "ios": "https://dc.lft.to/lastmile_qr_scan"}, "lon": -76.99119366666666, "name": "fb1feab264d6e2b44ba580da26d3e380", "fusion_lon": 0.0, "bike_id": "fb1feab264d6e2b44ba580da26d3e380", "is_reserved": 0, "type": "electric_scooter", "lat": 38.897102833333335, "fusion_lat": 0.0, "is_disabled": 0}, {"rental_uris": {"android": "https://dc.lft.to/lastmile_qr_scan", "ios": "https://dc.lft.to/lastmile_qr_scan"}, "lon": -76.90855383333333, "name": "5a29cc6d585766b3425775cdbae0ae3d", "fusion_lon": 0.0, "bike_id": "5a29cc6d585766b3425775cdbae0ae3d", "is_reserved": 0, "type": "electric_bike", "lat": 38.998960833333335, "fusion_lat": 0.0, "is_disabled": 0}, {"rental_uris": {"android": "https://dc.lft.to/lastmile_qr_scan", "ios": "https://dc.lft.to/lastmile_qr_scan"}, "lon": -76.99324416666667, "name": "4a16296c793c30bfdcb21653479d456c", "fusion_lon": 0.0, "bike_id": "4a16296c793c30bfdcb21653479d456c", "is_reserved": 0, "type": "electric_bike", "lat": 38.946788, "fusion_lat": 0.0, "is_disabled": 0}, {"rental_uris": {"android": "https://dc.lft.to/lastmile_qr_scan", "ios": "https://dc.lft.to/lastmile_qr_scan"}, "lon": -77.02024483333334, "name": "8bfb5f34bd58da7583b52f70e1f88f7b", "fusion_lon": 0.0, "bike_id": "8bfb5f34bd58da7583b52f70e1f88f7b", "is_reserved": 0, "type": "electric_scooter", "lat": 38.924518, "fusion_lat": 0.0, "is_disabled": 0}, {"rental_uris": {"android": "https://dc.lft.to/lastmile_qr_scan", "ios": "https://dc.lft.to/lastmile_qr_scan"}, "lon": -77.22907216666667, "name": "0fe8506650f92b1bbb547249a40cc3be", "fusion_lon": 0.0, "bike_id": "0fe8506650f92b1bbb547249a40cc3be", "is_reserved": 0, "type": "electric_bike", "lat": 38.87036233333333, "fusion_lat": 0.0, "is_disabled": 0}, {"rental_uris": {"android": "https://dc.lft.to/lastmile_qr_scan", "ios": "https://dc.lft.to/lastmile_qr_scan"}, "lon": -77.0327505, "name": "f825e96402b786f687f833f2925f423f", "fusion_lon": 0.0, "bike_id": "f825e96402b786f687f833f2925f423f", "is_reserved": 0, "type": "electric_scooter", "lat": 38.92751533333333, "fusion_lat": 0.0, "is_disabled": 0}, {"rental_uris": {"android": "https://dc.lft.to/lastmile_qr_scan", "ios": "https://dc.lft.to/lastmile_qr_scan"}, "lon": -77.01942216666667, "name": "439b655cf4d255e89e5da1a23e5bddbf", "fusion_lon": 0.0, "bike_id": "439b655cf4d255e89e5da1a23e5bddbf", "is_reserved": 0, "type": "electric_scooter", "lat": 38.92331333333333, "fusion_lat": 0.0, "is_disabled": 0}, {"rental_uris": {"android": "https://dc.lft.to/lastmile_qr_scan", "ios": "https://dc.lft.to/lastmile_qr_scan"}, "lon": -77.02607883333333, "name": "e287f322b60d443e0e3e705cbb26c820", "fusion_lon": 0.0, "bike_id": "e287f322b60d443e0e3e705cbb26c820", "is_reserved": 0, "type": "electric_bike", "lat": 38.98090333333333, "fusion_lat": 0.0, "is_disabled": 0}, {"rental_uris": {"android": "https://dc.lft.to/lastmile_qr_scan", "ios": "https://dc.lft.to/lastmile_qr_scan"}, "lon": -77.01794166666667, "name": "e7a0b3ec4e3139cde0b8cdb7832af489", "fusion_lon": 0.0, "bike_id": "e7a0b3ec4e3139cde0b8cdb7832af489", "is_reserved": 0, "type": "electric_scooter", "lat": 38.914008833333334, "fusion_lat": 0.0, "is_disabled": 0}, {"rental_uris": {"android": "https://dc.lft.to/lastmile_qr_scan", "ios": "https://dc.lft.to/lastmile_qr_scan"}, "lon": -77.02306033333333, "name": "b4438138a7abda4d998c9e5917c5ae26", "fusion_lon": 0.0, "bike_id": "b4438138a7abda4d998c9e5917c5ae26", "is_reserved": 0, "type": "electric_scooter", "lat": 38.92066166666667, "fusion_lat": 0.0, "is_disabled": 0}, {"rental_uris": {"android": "https://dc.lft.to/lastmile_qr_scan", "ios": "https://dc.lft.to/lastmile_qr_scan"}, "lon": -77.03287666666667, "name": "16db613f811d8a3428a40f044ec8f88c", "fusion_lon": 0.0, "bike_id": "16db613f811d8a3428a40f044ec8f88c", "is_reserved": 0, "type": "electric_scooter", "lat": 38.92820783333333, "fusion_lat": 0.0, "is_disabled": 0}, {"rental_uris": {"android": "https://dc.lft.to/lastmile_qr_scan", "ios": "https://dc.lft.to/lastmile_qr_scan"}, "lon": -77.08317516666666, "name": "1b002d1ea9c69873d0b0da8cda4c5498", "fusion_lon": 0.0, "bike_id": "1b002d1ea9c69873d0b0da8cda4c5498", "is_reserved": 0, "type": "electric_bike", "lat": 38.854339333333336, "fusion_lat": 0.0, "is_disabled": 0}, {"rental_uris": {"android": "https://dc.lft.to/lastmile_qr_scan", "ios": "https://dc.lft.to/lastmile_qr_scan"}, "lon": -76.997177, "name": "fc4b00767f75d528ab32d414fd7ae2c2", "fusion_lon": 0.0, "bike_id": "fc4b00767f75d528ab32d414fd7ae2c2", "is_reserved": 0, "type": "electric_bike", "lat": 38.908173, "fusion_lat": 0.0, "is_disabled": 0}, {"rental_uris": {"android": "https://dc.lft.to/lastmile_qr_scan", "ios": "https://dc.lft.to/lastmile_qr_scan"}, "lon": -77.01217983333333, "name": "954967aab280c3c3cc84a616f979d3fb", "fusion_lon": 0.0, "bike_id": "954967aab280c3c3cc84a616f979d3fb", "is_reserved": 0, "type": "electric_scooter", "lat": 38.90111316666667, "fusion_lat": 0.0, "is_disabled": 0}, {"rental_uris": {"android": "https://dc.lft.to/lastmile_qr_scan", "ios": "https://dc.lft.to/lastmile_qr_scan"}, "lon": -76.975896, "name": "fc1812de8669420f501100a2c596ac5c", "fusion_lon": 0.0, "bike_id": "fc1812de8669420f501100a2c596ac5c", "is_reserved": 0, "type": "electric_scooter", "lat": 38.903317666666666, "fusion_lat": 0.0, "is_disabled": 0}, {"rental_uris": {"android": "https://dc.lft.to/lastmile_qr_scan", "ios": "https://dc.lft.to/lastmile_qr_scan"}, "lon": -77.05230166666666, "name": "8b3037c7d6ccec8491279084bdbbb585", "fusion_lon": 0.0, "bike_id": "8b3037c7d6ccec8491279084bdbbb585", "is_reserved": 0, "type": "electric_scooter", "lat": 38.92359533333333, "fusion_lat": 0.0, "is_disabled": 0}, {"rental_uris": {"android": "https://dc.lft.to/lastmile_qr_scan", "ios": "https://dc.lft.to/lastmile_qr_scan"}, "lon": -77.03291933333334, "name": "e7144019ec42103659ee8933db1e80ae", "fusion_lon": 0.0, "bike_id": "e7144019ec42103659ee8933db1e80ae", "is_reserved": 0, "type": "electric_scooter", "lat": 38.914916166666664, "fusion_lat": 0.0, "is_disabled": 0}, {"rental_uris": {"android": "https://dc.lft.to/lastmile_qr_scan", "ios": "https://dc.lft.to/lastmile_qr_scan"}, "lon": -77.03170716666666, "name": "516587e96fd7c35dd4b73f1424a71622", "fusion_lon": 0.0, "bike_id": "516587e96fd7c35dd4b73f1424a71622", "is_reserved": 0, "type": "electric_scooter", "lat": 38.914191333333335, "fusion_lat": 0.0, "is_disabled": 0}, {"rental_uris": {"android": "https://dc.lft.to/lastmile_qr_scan", "ios": "https://dc.lft.to/lastmile_qr_scan"}, "lon": -77.029647, "name": "27adc0b9d2396b156a9e91311ae907e4", "fusion_lon": 0.0, "bike_id": "27adc0b9d2396b156a9e91311ae907e4", "is_reserved": 0, "type": "electric_scooter", "lat": 38.94222416666667, "fusion_lat": 0.0, "is_disabled": 0}, {"rental_uris": {"android": "https://dc.lft.to/lastmile_qr_scan", "ios": "https://dc.lft.to/lastmile_qr_scan"}, "lon": -77.04414866666667, "name": "d846316feeb029e77f3ab909b0bc8cfd", "fusion_lon": 0.0, "bike_id": "d846316feeb029e77f3ab909b0bc8cfd", "is_reserved": 0, "type": "electric_scooter", "lat": 38.91131816666667, "fusion_lat": 0.0, "is_disabled": 0}, {"rental_uris": {"android": "https://dc.lft.to/lastmile_qr_scan", "ios": "https://dc.lft.to/lastmile_qr_scan"}, "lon": -77.03373066666667, "name": "5ae030506bcd35223256c413fe1ae205", "fusion_lon": 0.0, "bike_id": "5ae030506bcd35223256c413fe1ae205", "is_reserved": 0, "type": "electric_scooter", "lat": 38.921639, "fusion_lat": 0.0, "is_disabled": 0}, {"rental_uris": {"android": "https://dc.lft.to/lastmile_qr_scan", "ios": "https://dc.lft.to/lastmile_qr_scan"}, "lon": -77.05026333333333, "name": "5081e6ae5ee6cb0beefd27d3cf5dbaa6", "fusion_lon": 0.0, "bike_id": "5081e6ae5ee6cb0beefd27d3cf5dbaa6", "is_reserved": 0, "type": "electric_scooter", "lat": 38.92367733333333, "fusion_lat": 0.0, "is_disabled": 0}, {"rental_uris": {"android": "https://dc.lft.to/lastmile_qr_scan", "ios": "https://dc.lft.to/lastmile_qr_scan"}, "lon": -76.985424, "name": "3ef7182534b80e30dca5b1754ccefb97", "fusion_lon": 0.0, "bike_id": "3ef7182534b80e30dca5b1754ccefb97", "is_reserved": 0, "type": "electric_scooter", "lat": 38.9202955, "fusion_lat": 0.0, "is_disabled": 0}, {"rental_uris": {"android": "https://dc.lft.to/lastmile_qr_scan", "ios": "https://dc.lft.to/lastmile_qr_scan"}, "lon": -77.02210116666667, "name": "51830ed19c30c7f5cba96ef20a4add65", "fusion_lon": 0.0, "bike_id": "51830ed19c30c7f5cba96ef20a4add65", "is_reserved": 0, "type": "electric_scooter", "lat": 38.9125285, "fusion_lat": 0.0, "is_disabled": 0}, {"rental_uris": {"android": "https://dc.lft.to/lastmile_qr_scan", "ios": "https://dc.lft.to/lastmile_qr_scan"}, "lon": -77.01726283333333, "name": "e2a850e082a9378de16fab333af0860f", "fusion_lon": 0.0, "bike_id": "e2a850e082a9378de16fab333af0860f", "is_reserved": 0, "type": "electric_scooter", "lat": 38.907317666666664, "fusion_lat": 0.0, "is_disabled": 0}, {"rental_uris": {"android": "https://dc.lft.to/lastmile_qr_scan", "ios": "https://dc.lft.to/lastmile_qr_scan"}, "lon": -77.019099, "name": "b035a2e6e6a782877313ab48c7292c5d", "fusion_lon": 0.0, "bike_id": "b035a2e6e6a782877313ab48c7292c5d", "is_reserved": 0, "type": "electric_scooter", "lat": 38.92186866666667, "fusion_lat": 0.0, "is_disabled": 0}, {"rental_uris": {"android": "https://dc.lft.to/lastmile_qr_scan", "ios": "https://dc.lft.to/lastmile_qr_scan"}, "lon": -76.90079016666667, "name": "9e69e35bfe52cfbde87bcf9994ac4994", "fusion_lon": 0.0, "bike_id": "9e69e35bfe52cfbde87bcf9994ac4994", "is_reserved": 0, "type": "electric_bike", "lat": 38.88753533333333, "fusion_lat": 0.0, "is_disabled": 0}, {"rental_uris": {"android": "https://dc.lft.to/lastmile_qr_scan", "ios": "https://dc.lft.to/lastmile_qr_scan"}, "lon": -77.02299916666666, "name": "fba54881385eeb3f0eab3d34f712b4f1", "fusion_lon": 0.0, "bike_id": "fba54881385eeb3f0eab3d34f712b4f1", "is_reserved": 0, "type": "electric_bike", "lat": 38.966773333333336, "fusion_lat": 0.0, "is_disabled": 0}, {"rental_uris": {"android": "https://dc.lft.to/lastmile_qr_scan", "ios": "https://dc.lft.to/lastmile_qr_scan"}, "lon": -76.93260066666667, "name": "b829ee7047aca123ffdfc4063ddf8c7b", "fusion_lon": 0.0, "bike_id": "b829ee7047aca123ffdfc4063ddf8c7b", "is_reserved": 0, "type": "electric_scooter", "lat": 38.88772266666667, "fusion_lat": 0.0, "is_disabled": 0}, {"rental_uris": {"android": "https://dc.lft.to/lastmile_qr_scan", "ios": "https://dc.lft.to/lastmile_qr_scan"}, "lon": -77.01800033333333, "name": "5460dfbf40d0adc1ba8a6e9a2db77163", "fusion_lon": 0.0, "bike_id": "5460dfbf40d0adc1ba8a6e9a2db77163", "is_reserved": 0, "type": "electric_scooter", "lat": 38.92140583333333, "fusion_lat": 0.0, "is_disabled": 0}, {"rental_uris": {"android": "https://dc.lft.to/lastmile_qr_scan", "ios": "https://dc.lft.to/lastmile_qr_scan"}, "lon": -77.02188, "name": "c18cef9b254eb113f75a5c229cf3795f", "fusion_lon": 0.0, "bike_id": "c18cef9b254eb113f75a5c229cf3795f", "is_reserved": 0, "type": "electric_scooter", "lat": 38.91576033333333, "fusion_lat": 0.0, "is_disabled": 0}, {"rental_uris": {"android": "https://dc.lft.to/lastmile_qr_scan", "ios": "https://dc.lft.to/lastmile_qr_scan"}, "lon": -77.02760666666667, "name": "3ec41496db6b8fc18a22021d71c2c4aa", "fusion_lon": 0.0, "bike_id": "3ec41496db6b8fc18a22021d71c2c4aa", "is_reserved": 0, "type": "electric_scooter", "lat": 38.964032833333334, "fusion_lat": 0.0, "is_disabled": 0}, {"rental_uris": {"android": "https://dc.lft.to/lastmile_qr_scan", "ios": "https://dc.lft.to/lastmile_qr_scan"}, "lon": -76.97530416666666, "name": "ea3960cac6ce639827c2d6534f0a00ba", "fusion_lon": 0.0, "bike_id": "ea3960cac6ce639827c2d6534f0a00ba", "is_reserved": 0, "type": "electric_scooter", "lat": 38.92230566666667, "fusion_lat": 0.0, "is_disabled": 0}, {"rental_uris": {"android": "https://dc.lft.to/lastmile_qr_scan", "ios": "https://dc.lft.to/lastmile_qr_scan"}, "lon": -77.00064333333333, "name": "e56cdf9d141b80cc03cb1f20f3e04764", "fusion_lon": 0.0, "bike_id": "e56cdf9d141b80cc03cb1f20f3e04764", "is_reserved": 0, "type": "electric_scooter", "lat": 38.87961766666667, "fusion_lat": 0.0, "is_disabled": 0}, {"rental_uris": {"android": "https://dc.lft.to/lastmile_qr_scan", "ios": "https://dc.lft.to/lastmile_qr_scan"}, "lon": -77.03337916666666, "name": "a1349f438ecdf3a5ddf7d8995cdb6fee", "fusion_lon": 0.0, "bike_id": "a1349f438ecdf3a5ddf7d8995cdb6fee", "is_reserved": 0, "type": "electric_scooter", "lat": 38.8922635, "fusion_lat": 0.0, "is_disabled": 0}, {"rental_uris": {"android": "https://dc.lft.to/lastmile_qr_scan", "ios": "https://dc.lft.to/lastmile_qr_scan"}, "lon": -77.01410883333334, "name": "fea8b0775ed7d548ed7a774b94db6deb", "fusion_lon": 0.0, "bike_id": "fea8b0775ed7d548ed7a774b94db6deb", "is_reserved": 0, "type": "electric_scooter", "lat": 38.92829, "fusion_lat": 0.0, "is_disabled": 0}, {"rental_uris": {"android": "https://dc.lft.to/lastmile_qr_scan", "ios": "https://dc.lft.to/lastmile_qr_scan"}, "lon": -77.05033916666666, "name": "d0eb2624fc3b50454850ad8de2eeb19f", "fusion_lon": 0.0, "bike_id": "d0eb2624fc3b50454850ad8de2eeb19f", "is_reserved": 0, "type": "electric_bike", "lat": 38.9993895, "fusion_lat": 0.0, "is_disabled": 0}, {"rental_uris": {"android": "https://dc.lft.to/lastmile_qr_scan", "ios": "https://dc.lft.to/lastmile_qr_scan"}, "lon": -77.01902883333334, "name": "d7b76c2a6d99e55eb9b3747f0f674c76", "fusion_lon": 0.0, "bike_id": "d7b76c2a6d99e55eb9b3747f0f674c76", "is_reserved": 0, "type": "electric_scooter", "lat": 38.9233755, "fusion_lat": 0.0, "is_disabled": 0}, {"rental_uris": {"android": "https://dc.lft.to/lastmile_qr_scan", "ios": "https://dc.lft.to/lastmile_qr_scan"}, "lon": -76.91922816666667, "name": "5def95f47faf2fe7debb5cdd87f81a12", "fusion_lon": 0.0, "bike_id": "5def95f47faf2fe7debb5cdd87f81a12", "is_reserved": 0, "type": "electric_scooter", "lat": 38.89090733333333, "fusion_lat": 0.0, "is_disabled": 0}, {"rental_uris": {"android": "https://dc.lft.to/lastmile_qr_scan", "ios": "https://dc.lft.to/lastmile_qr_scan"}, "lon": -77.04382166666667, "name": "7905fdefe74b16776dab98b8570c5f30", "fusion_lon": 0.0, "bike_id": "7905fdefe74b16776dab98b8570c5f30", "is_reserved": 0, "type": "electric_scooter", "lat": 38.901150333333334, "fusion_lat": 0.0, "is_disabled": 0}, {"rental_uris": {"android": "https://dc.lft.to/lastmile_qr_scan", "ios": "https://dc.lft.to/lastmile_qr_scan"}, "lon": -77.02951583333333, "name": "11d005f09bc83d24c9dc728dabdd237b", "fusion_lon": 0.0, "bike_id": "11d005f09bc83d24c9dc728dabdd237b", "is_reserved": 0, "type": "electric_scooter", "lat": 38.916872166666664, "fusion_lat": 0.0, "is_disabled": 0}, {"rental_uris": {"android": "https://dc.lft.to/lastmile_qr_scan", "ios": "https://dc.lft.to/lastmile_qr_scan"}, "lon": -77.0327605, "name": "d04489eb0af54a1ad9435547bef9f01a", "fusion_lon": 0.0, "bike_id": "d04489eb0af54a1ad9435547bef9f01a", "is_reserved": 0, "type": "electric_scooter", "lat": 38.89880183333333, "fusion_lat": 0.0, "is_disabled": 0}, {"rental_uris": {"android": "https://dc.lft.to/lastmile_qr_scan", "ios": "https://dc.lft.to/lastmile_qr_scan"}, "lon": -76.98376783333333, "name": "86738710ad29889a2838e62214be0986", "fusion_lon": 0.0, "bike_id": "86738710ad29889a2838e62214be0986", "is_reserved": 0, "type": "electric_scooter", "lat": 38.91578766666667, "fusion_lat": 0.0, "is_disabled": 0}, {"rental_uris": {"android": "https://dc.lft.to/lastmile_qr_scan", "ios": "https://dc.lft.to/lastmile_qr_scan"}, "lon": -77.01500683333333, "name": "396f1664e78485e90bb18b2ed448d5cd", "fusion_lon": 0.0, "bike_id": "396f1664e78485e90bb18b2ed448d5cd", "is_reserved": 0, "type": "electric_scooter", "lat": 38.926689333333336, "fusion_lat": 0.0, "is_disabled": 0}, {"rental_uris": {"android": "https://dc.lft.to/lastmile_qr_scan", "ios": "https://dc.lft.to/lastmile_qr_scan"}, "lon": -77.1065035, "name": "b7fe93ca12db578a352d0777e9506f9b", "fusion_lon": 0.0, "bike_id": "b7fe93ca12db578a352d0777e9506f9b", "is_reserved": 0, "type": "electric_bike", "lat": 38.96463516666667, "fusion_lat": 0.0, "is_disabled": 0}, {"rental_uris": {"android": "https://dc.lft.to/lastmile_qr_scan", "ios": "https://dc.lft.to/lastmile_qr_scan"}, "lon": -77.05179783333334, "name": "245a2b312400b112256eb1176a249cf2", "fusion_lon": 0.0, "bike_id": "245a2b312400b112256eb1176a249cf2", "is_reserved": 0, "type": "electric_scooter", "lat": 38.92376983333333, "fusion_lat": 0.0, "is_disabled": 0}, {"rental_uris": {"android": "https://dc.lft.to/lastmile_qr_scan", "ios": "https://dc.lft.to/lastmile_qr_scan"}, "lon": -77.05018033333333, "name": "6b36cd9404972257e6030245e6f79fb4", "fusion_lon": 0.0, "bike_id": "6b36cd9404972257e6030245e6f79fb4", "is_reserved": 0, "type": "electric_scooter", "lat": 38.9066525, "fusion_lat": 0.0, "is_disabled": 0}, {"rental_uris": {"android": "https://dc.lft.to/lastmile_qr_scan", "ios": "https://dc.lft.to/lastmile_qr_scan"}, "lon": -77.02709, "name": "6a46112e0579af0a416c100e132027d4", "fusion_lon": 0.0, "bike_id": "6a46112e0579af0a416c100e132027d4", "is_reserved": 0, "type": "electric_scooter", "lat": 38.896572, "fusion_lat": 0.0, "is_disabled": 0}, {"rental_uris": {"android": "https://dc.lft.to/lastmile_qr_scan", "ios": "https://dc.lft.to/lastmile_qr_scan"}, "lon": -77.0033345, "name": "e66672761e68fe281ed40d44163fa4aa", "fusion_lon": 0.0, "bike_id": "e66672761e68fe281ed40d44163fa4aa", "is_reserved": 0, "type": "electric_scooter", "lat": 38.89357583333334, "fusion_lat": 0.0, "is_disabled": 0}, {"rental_uris": {"android": "https://dc.lft.to/lastmile_qr_scan", "ios": "https://dc.lft.to/lastmile_qr_scan"}, "lon": -77.037974, "name": "64ef9d57cad5a75bdcb92ec0b4cb9547", "fusion_lon": 0.0, "bike_id": "64ef9d57cad5a75bdcb92ec0b4cb9547", "is_reserved": 0, "type": "electric_scooter", "lat": 38.9025185, "fusion_lat": 0.0, "is_disabled": 0}, {"rental_uris": {"android": "https://dc.lft.to/lastmile_qr_scan", "ios": "https://dc.lft.to/lastmile_qr_scan"}, "lon": -77.031802, "name": "95b9a483d35ded9f88d26b2d29662198", "fusion_lon": 0.0, "bike_id": "95b9a483d35ded9f88d26b2d29662198", "is_reserved": 0, "type": "electric_scooter", "lat": 38.91825566666667, "fusion_lat": 0.0, "is_disabled": 0}, {"rental_uris": {"android": "https://dc.lft.to/lastmile_qr_scan", "ios": "https://dc.lft.to/lastmile_qr_scan"}, "lon": -76.97906516666667, "name": "0847a37008a82ed80cbeb9073f702f37", "fusion_lon": 0.0, "bike_id": "0847a37008a82ed80cbeb9073f702f37", "is_reserved": 0, "type": "electric_scooter", "lat": 38.866640333333336, "fusion_lat": 0.0, "is_disabled": 0}, {"rental_uris": {"android": "https://dc.lft.to/lastmile_qr_scan", "ios": "https://dc.lft.to/lastmile_qr_scan"}, "lon": -76.93474366666666, "name": "f42951bb7121b54728295cb180cc90df", "fusion_lon": 0.0, "bike_id": "f42951bb7121b54728295cb180cc90df", "is_reserved": 0, "type": "electric_scooter", "lat": 38.89506816666667, "fusion_lat": 0.0, "is_disabled": 0}, {"rental_uris": {"android": "https://dc.lft.to/lastmile_qr_scan", "ios": "https://dc.lft.to/lastmile_qr_scan"}, "lon": -77.04081183333334, "name": "3c67f4a913f01e40f07bed5832403c19", "fusion_lon": 0.0, "bike_id": "3c67f4a913f01e40f07bed5832403c19", "is_reserved": 0, "type": "electric_scooter", "lat": 38.89226983333333, "fusion_lat": 0.0, "is_disabled": 0}, {"rental_uris": {"android": "https://dc.lft.to/lastmile_qr_scan", "ios": "https://dc.lft.to/lastmile_qr_scan"}, "lon": -76.93593816666667, "name": "f8687e1baf4018713a1047a2eca0560e", "fusion_lon": 0.0, "bike_id": "f8687e1baf4018713a1047a2eca0560e", "is_reserved": 0, "type": "electric_scooter", "lat": 38.893667666666666, "fusion_lat": 0.0, "is_disabled": 0}, {"rental_uris": {"android": "https://dc.lft.to/lastmile_qr_scan", "ios": "https://dc.lft.to/lastmile_qr_scan"}, "lon": -77.07163583333333, "name": "9cbf75369d7688f3c34d0a3f1a00b646", "fusion_lon": 0.0, "bike_id": "9cbf75369d7688f3c34d0a3f1a00b646", "is_reserved": 0, "type": "electric_scooter", "lat": 38.9076855, "fusion_lat": 0.0, "is_disabled": 0}, {"rental_uris": {"android": "https://dc.lft.to/lastmile_qr_scan", "ios": "https://dc.lft.to/lastmile_qr_scan"}, "lon": -76.9881, "name": "a3d7704ac67dd434bc0007888b528220", "fusion_lon": 0.0, "bike_id": "a3d7704ac67dd434bc0007888b528220", "is_reserved": 0, "type": "electric_bike", "lat": 38.80385416666667, "fusion_lat": 0.0, "is_disabled": 0}, {"rental_uris": {"android": "https://dc.lft.to/lastmile_qr_scan", "ios": "https://dc.lft.to/lastmile_qr_scan"}, "lon": -77.016554, "name": "6009e1247088fcc0c28d8aaf34db6673", "fusion_lon": 0.0, "bike_id": "6009e1247088fcc0c28d8aaf34db6673", "is_reserved": 0, "type": "electric_scooter", "lat": 38.913303, "fusion_lat": 0.0, "is_disabled": 0}, {"rental_uris": {"android": "https://dc.lft.to/lastmile_qr_scan", "ios": "https://dc.lft.to/lastmile_qr_scan"}, "lon": -77.03662816666667, "name": "fb19c72af2aaaba68492da6b01be254e", "fusion_lon": 0.0, "bike_id": "fb19c72af2aaaba68492da6b01be254e", "is_reserved": 0, "type": "electric_scooter", "lat": 38.922429, "fusion_lat": 0.0, "is_disabled": 0}, {"rental_uris": {"android": "https://dc.lft.to/lastmile_qr_scan", "ios": "https://dc.lft.to/lastmile_qr_scan"}, "lon": -76.94890983333333, "name": "c03f3d12a71d62c661e9e77a9a04bde1", "fusion_lon": 0.0, "bike_id": "c03f3d12a71d62c661e9e77a9a04bde1", "is_reserved": 0, "type": "electric_scooter", "lat": 38.89535733333334, "fusion_lat": 0.0, "is_disabled": 0}, {"rental_uris": {"android": "https://dc.lft.to/lastmile_qr_scan", "ios": "https://dc.lft.to/lastmile_qr_scan"}, "lon": -77.032081, "name": "cfa61101937db2df22197189d4b54e23", "fusion_lon": 0.0, "bike_id": "cfa61101937db2df22197189d4b54e23", "is_reserved": 0, "type": "electric_scooter", "lat": 38.914734833333334, "fusion_lat": 0.0, "is_disabled": 0}, {"rental_uris": {"android": "https://dc.lft.to/lastmile_qr_scan", "ios": "https://dc.lft.to/lastmile_qr_scan"}, "lon": -77.0365295, "name": "43cb32529dc3235fad39c963162afcbc", "fusion_lon": 0.0, "bike_id": "43cb32529dc3235fad39c963162afcbc", "is_reserved": 0, "type": "electric_scooter", "lat": 38.900357166666666, "fusion_lat": 0.0, "is_disabled": 0}, {"rental_uris": {"android": "https://dc.lft.to/lastmile_qr_scan", "ios": "https://dc.lft.to/lastmile_qr_scan"}, "lon": -77.0418935, "name": "077144c8cd18a6a026b0f5d51bf1437b", "fusion_lon": 0.0, "bike_id": "077144c8cd18a6a026b0f5d51bf1437b", "is_reserved": 0, "type": "electric_scooter", "lat": 38.920516666666664, "fusion_lat": 0.0, "is_disabled": 0}, {"rental_uris": {"android": "https://dc.lft.to/lastmile_qr_scan", "ios": "https://dc.lft.to/lastmile_qr_scan"}, "lon": -77.03206383333334, "name": "3d45cdee2d946085ee3b425b0da97842", "fusion_lon": 0.0, "bike_id": "3d45cdee2d946085ee3b425b0da97842", "is_reserved": 0, "type": "electric_scooter", "lat": 38.914721, "fusion_lat": 0.0, "is_disabled": 0}, {"rental_uris": {"android": "https://dc.lft.to/lastmile_qr_scan", "ios": "https://dc.lft.to/lastmile_qr_scan"}, "lon": -77.057003, "name": "52b6da7aee3fd15df08bf8a5122b6917", "fusion_lon": 0.0, "bike_id": "52b6da7aee3fd15df08bf8a5122b6917", "is_reserved": 0, "type": "electric_scooter", "lat": 38.93356416666666, "fusion_lat": 0.0, "is_disabled": 0}, {"rental_uris": {"android": "https://dc.lft.to/lastmile_qr_scan", "ios": "https://dc.lft.to/lastmile_qr_scan"}, "lon": -77.02424566666667, "name": "9f62ef3fe40ddeb7e737cc7a8e638074", "fusion_lon": 0.0, "bike_id": "9f62ef3fe40ddeb7e737cc7a8e638074", "is_reserved": 0, "type": "electric_scooter", "lat": 38.92055083333333, "fusion_lat": 0.0, "is_disabled": 0}, {"rental_uris": {"android": "https://dc.lft.to/lastmile_qr_scan", "ios": "https://dc.lft.to/lastmile_qr_scan"}, "lon": -77.03515266666666, "name": "615cb24e58297d4b43ebbfb9beb7bcca", "fusion_lon": 0.0, "bike_id": "615cb24e58297d4b43ebbfb9beb7bcca", "is_reserved": 0, "type": "electric_scooter", "lat": 38.906691, "fusion_lat": 0.0, "is_disabled": 0}, {"rental_uris": {"android": "https://dc.lft.to/lastmile_qr_scan", "ios": "https://dc.lft.to/lastmile_qr_scan"}, "lon": -77.02783466666666, "name": "3f4242fd009b3e6e88f0ccf1b11f8f76", "fusion_lon": 0.0, "bike_id": "3f4242fd009b3e6e88f0ccf1b11f8f76", "is_reserved": 0, "type": "electric_scooter", "lat": 38.895938666666666, "fusion_lat": 0.0, "is_disabled": 0}, {"rental_uris": {"android": "https://dc.lft.to/lastmile_qr_scan", "ios": "https://dc.lft.to/lastmile_qr_scan"}, "lon": -77.095206, "name": "442fbc355182b2e7eea211d608ab90b5", "fusion_lon": 0.0, "bike_id": "442fbc355182b2e7eea211d608ab90b5", "is_reserved": 0, "type": "electric_bike", "lat": 38.838106333333336, "fusion_lat": 0.0, "is_disabled": 0}, {"rental_uris": {"android": "https://dc.lft.to/lastmile_qr_scan", "ios": "https://dc.lft.to/lastmile_qr_scan"}, "lon": -76.96541666666667, "name": "12712e75122d3dd9d92bfe3783f9ccbf", "fusion_lon": 0.0, "bike_id": "12712e75122d3dd9d92bfe3783f9ccbf", "is_reserved": 0, "type": "electric_scooter", "lat": 38.9187235, "fusion_lat": 0.0, "is_disabled": 0}, {"rental_uris": {"android": "https://dc.lft.to/lastmile_qr_scan", "ios": "https://dc.lft.to/lastmile_qr_scan"}, "lon": -77.04180066666666, "name": "687a9fc41d99e5e252467a0a985d82c8", "fusion_lon": 0.0, "bike_id": "687a9fc41d99e5e252467a0a985d82c8", "is_reserved": 0, "type": "electric_scooter", "lat": 38.905308, "fusion_lat": 0.0, "is_disabled": 0}, {"rental_uris": {"android": "https://dc.lft.to/lastmile_qr_scan", "ios": "https://dc.lft.to/lastmile_qr_scan"}, "lon": -77.02562983333333, "name": "7307b602305606a2629b0412c72d87d9", "fusion_lon": 0.0, "bike_id": "7307b602305606a2629b0412c72d87d9", "is_reserved": 0, "type": "electric_scooter", "lat": 38.93352083333333, "fusion_lat": 0.0, "is_disabled": 0}, {"rental_uris": {"android": "https://dc.lft.to/lastmile_qr_scan", "ios": "https://dc.lft.to/lastmile_qr_scan"}, "lon": -76.97611883333333, "name": "5f2422952602be51b557a7a5d24d9380", "fusion_lon": 0.0, "bike_id": "5f2422952602be51b557a7a5d24d9380", "is_reserved": 0, "type": "electric_bike", "lat": 38.84030466666667, "fusion_lat": 0.0, "is_disabled": 0}, {"rental_uris": {"android": "https://dc.lft.to/lastmile_qr_scan", "ios": "https://dc.lft.to/lastmile_qr_scan"}, "lon": -77.02005483333333, "name": "03aa4c56211935751db3a6c2d67f9d4d", "fusion_lon": 0.0, "bike_id": "03aa4c56211935751db3a6c2d67f9d4d", "is_reserved": 0, "type": "electric_scooter", "lat": 38.935038166666665, "fusion_lat": 0.0, "is_disabled": 0}, {"rental_uris": {"android": "https://dc.lft.to/lastmile_qr_scan", "ios": "https://dc.lft.to/lastmile_qr_scan"}, "lon": -77.02691366666667, "name": "f55bb8e7f09a80a389e7b854ec27535a", "fusion_lon": 0.0, "bike_id": "f55bb8e7f09a80a389e7b854ec27535a", "is_reserved": 0, "type": "electric_scooter", "lat": 38.902403166666666, "fusion_lat": 0.0, "is_disabled": 0}, {"rental_uris": {"android": "https://dc.lft.to/lastmile_qr_scan", "ios": "https://dc.lft.to/lastmile_qr_scan"}, "lon": -77.029851, "name": "6ea72968d2f10e2a09c674023e9250ba", "fusion_lon": 0.0, "bike_id": "6ea72968d2f10e2a09c674023e9250ba", "is_reserved": 0, "type": "electric_scooter", "lat": 38.920519166666665, "fusion_lat": 0.0, "is_disabled": 0}, {"rental_uris": {"android": "https://dc.lft.to/lastmile_qr_scan", "ios": "https://dc.lft.to/lastmile_qr_scan"}, "lon": -76.99196333333333, "name": "4a47417f423b842e16a26668302013a4", "fusion_lon": 0.0, "bike_id": "4a47417f423b842e16a26668302013a4", "is_reserved": 0, "type": "electric_scooter", "lat": 38.882681166666664, "fusion_lat": 0.0, "is_disabled": 0}, {"rental_uris": {"android": "https://dc.lft.to/lastmile_qr_scan", "ios": "https://dc.lft.to/lastmile_qr_scan"}, "lon": -77.01795, "name": "26f27d633a0749aea1ef5e66c26c64c1", "fusion_lon": 0.0, "bike_id": "26f27d633a0749aea1ef5e66c26c64c1", "is_reserved": 0, "type": "electric_scooter", "lat": 38.91399766666667, "fusion_lat": 0.0, "is_disabled": 0}, {"rental_uris": {"android": "https://dc.lft.to/lastmile_qr_scan", "ios": "https://dc.lft.to/lastmile_qr_scan"}, "lon": -77.02713566666667, "name": "0ba11acf116ee257ba68a17014ef29db", "fusion_lon": 0.0, "bike_id": "0ba11acf116ee257ba68a17014ef29db", "is_reserved": 0, "type": "electric_scooter", "lat": 38.92484283333334, "fusion_lat": 0.0, "is_disabled": 0}, {"rental_uris": {"android": "https://dc.lft.to/lastmile_qr_scan", "ios": "https://dc.lft.to/lastmile_qr_scan"}, "lon": -76.98823616666667, "name": "0ddcf3b80c4f9dbb6f1c3b7fbd443687", "fusion_lon": 0.0, "bike_id": "0ddcf3b80c4f9dbb6f1c3b7fbd443687", "is_reserved": 0, "type": "electric_scooter", "lat": 38.90041266666667, "fusion_lat": 0.0, "is_disabled": 0}, {"rental_uris": {"android": "https://dc.lft.to/lastmile_qr_scan", "ios": "https://dc.lft.to/lastmile_qr_scan"}, "lon": -77.0195175, "name": "dc4d9a4a2a7d182e188c0991f3047e61", "fusion_lon": 0.0, "bike_id": "dc4d9a4a2a7d182e188c0991f3047e61", "is_reserved": 0, "type": "electric_scooter", "lat": 38.922696, "fusion_lat": 0.0, "is_disabled": 0}, {"rental_uris": {"android": "https://dc.lft.to/lastmile_qr_scan", "ios": "https://dc.lft.to/lastmile_qr_scan"}, "lon": -77.01166383333333, "name": "e692574f12f1c9a16c0b0a176683ca39", "fusion_lon": 0.0, "bike_id": "e692574f12f1c9a16c0b0a176683ca39", "is_reserved": 0, "type": "electric_scooter", "lat": 38.8961895, "fusion_lat": 0.0, "is_disabled": 0}, {"rental_uris": {"android": "https://dc.lft.to/lastmile_qr_scan", "ios": "https://dc.lft.to/lastmile_qr_scan"}, "lon": -77.03336716666666, "name": "d79f1b31d192757dc96a26cfeb7c6c6c", "fusion_lon": 0.0, "bike_id": "d79f1b31d192757dc96a26cfeb7c6c6c", "is_reserved": 0, "type": "electric_scooter", "lat": 38.89281783333333, "fusion_lat": 0.0, "is_disabled": 0}, {"rental_uris": {"android": "https://dc.lft.to/lastmile_qr_scan", "ios": "https://dc.lft.to/lastmile_qr_scan"}, "lon": -77.02291866666667, "name": "fe57c7721a4356a18643ab7d9407ed06", "fusion_lon": 0.0, "bike_id": "fe57c7721a4356a18643ab7d9407ed06", "is_reserved": 0, "type": "electric_scooter", "lat": 38.92781983333333, "fusion_lat": 0.0, "is_disabled": 0}, {"rental_uris": {"android": "https://dc.lft.to/lastmile_qr_scan", "ios": "https://dc.lft.to/lastmile_qr_scan"}, "lon": -77.00359666666667, "name": "d26a47e49233ec6bf356737df111fddb", "fusion_lon": 0.0, "bike_id": "d26a47e49233ec6bf356737df111fddb", "is_reserved": 0, "type": "electric_scooter", "lat": 38.886852833333336, "fusion_lat": 0.0, "is_disabled": 0}, {"rental_uris": {"android": "https://dc.lft.to/lastmile_qr_scan", "ios": "https://dc.lft.to/lastmile_qr_scan"}, "lon": -77.0245565, "name": "02abc1ce5c8313327841c2b4f12df27d", "fusion_lon": 0.0, "bike_id": "02abc1ce5c8313327841c2b4f12df27d", "is_reserved": 0, "type": "electric_scooter", "lat": 38.94731766666666, "fusion_lat": 0.0, "is_disabled": 0}, {"rental_uris": {"android": "https://dc.lft.to/lastmile_qr_scan", "ios": "https://dc.lft.to/lastmile_qr_scan"}, "lon": -76.92743283333333, "name": "1ba541584c37284bbb1825e355a58997", "fusion_lon": 0.0, "bike_id": "1ba541584c37284bbb1825e355a58997", "is_reserved": 0, "type": "electric_scooter", "lat": 38.900670166666664, "fusion_lat": 0.0, "is_disabled": 0}, {"rental_uris": {"android": "https://dc.lft.to/lastmile_qr_scan", "ios": "https://dc.lft.to/lastmile_qr_scan"}, "lon": -77.0271765, "name": "1accefbd927f4aa0fbba3ae3b351745d", "fusion_lon": 0.0, "bike_id": "1accefbd927f4aa0fbba3ae3b351745d", "is_reserved": 0, "type": "electric_scooter", "lat": 38.913773, "fusion_lat": 0.0, "is_disabled": 0}, {"rental_uris": {"android": "https://dc.lft.to/lastmile_qr_scan", "ios": "https://dc.lft.to/lastmile_qr_scan"}, "lon": -77.02438783333334, "name": "8b297de62abc8685a3e0871f22e4f6de", "fusion_lon": 0.0, "bike_id": "8b297de62abc8685a3e0871f22e4f6de", "is_reserved": 0, "type": "electric_scooter", "lat": 38.91554, "fusion_lat": 0.0, "is_disabled": 0}, {"rental_uris": {"android": "https://dc.lft.to/lastmile_qr_scan", "ios": "https://dc.lft.to/lastmile_qr_scan"}, "lon": -77.02093666666667, "name": "ad4c6fd5f80ab94e2cbe228dbd6628d7", "fusion_lon": 0.0, "bike_id": "ad4c6fd5f80ab94e2cbe228dbd6628d7", "is_reserved": 0, "type": "electric_scooter", "lat": 38.894336, "fusion_lat": 0.0, "is_disabled": 0}, {"rental_uris": {"android": "https://dc.lft.to/lastmile_qr_scan", "ios": "https://dc.lft.to/lastmile_qr_scan"}, "lon": -77.032714, "name": "5adeca00534d363d60e1ae47f4bdd92e", "fusion_lon": 0.0, "bike_id": "5adeca00534d363d60e1ae47f4bdd92e", "is_reserved": 0, "type": "electric_scooter", "lat": 38.89884166666667, "fusion_lat": 0.0, "is_disabled": 0}, {"rental_uris": {"android": "https://dc.lft.to/lastmile_qr_scan", "ios": "https://dc.lft.to/lastmile_qr_scan"}, "lon": -76.99756683333334, "name": "85000869a2d9dc4f39c44dd5276b86f3", "fusion_lon": 0.0, "bike_id": "85000869a2d9dc4f39c44dd5276b86f3", "is_reserved": 0, "type": "electric_scooter", "lat": 38.9074735, "fusion_lat": 0.0, "is_disabled": 0}, {"rental_uris": {"android": "https://dc.lft.to/lastmile_qr_scan", "ios": "https://dc.lft.to/lastmile_qr_scan"}, "lon": -77.027432, "name": "ddef766cde53b98d6476da7ab66d7231", "fusion_lon": 0.0, "bike_id": "ddef766cde53b98d6476da7ab66d7231", "is_reserved": 0, "type": "electric_scooter", "lat": 38.89613083333333, "fusion_lat": 0.0, "is_disabled": 0}, {"rental_uris": {"android": "https://dc.lft.to/lastmile_qr_scan", "ios": "https://dc.lft.to/lastmile_qr_scan"}, "lon": -77.04199033333333, "name": "e1d07e6b4ab1664f0336ff994d03c8ee", "fusion_lon": 0.0, "bike_id": "e1d07e6b4ab1664f0336ff994d03c8ee", "is_reserved": 0, "type": "electric_scooter", "lat": 38.9245855, "fusion_lat": 0.0, "is_disabled": 0}, {"rental_uris": {"android": "https://dc.lft.to/lastmile_qr_scan", "ios": "https://dc.lft.to/lastmile_qr_scan"}, "lon": -77.042137, "name": "b0ae12567b3d1488a3611c2c491ae021", "fusion_lon": 0.0, "bike_id": "b0ae12567b3d1488a3611c2c491ae021", "is_reserved": 0, "type": "electric_scooter", "lat": 38.9211105, "fusion_lat": 0.0, "is_disabled": 0}, {"rental_uris": {"android": "https://dc.lft.to/lastmile_qr_scan", "ios": "https://dc.lft.to/lastmile_qr_scan"}, "lon": -77.0258015, "name": "2a13353a2d8c6c0273f826f214b25248", "fusion_lon": 0.0, "bike_id": "2a13353a2d8c6c0273f826f214b25248", "is_reserved": 0, "type": "electric_scooter", "lat": 38.90430416666667, "fusion_lat": 0.0, "is_disabled": 0}, {"rental_uris": {"android": "https://dc.lft.to/lastmile_qr_scan", "ios": "https://dc.lft.to/lastmile_qr_scan"}, "lon": -76.99165366666666, "name": "a6722f3001b217f0eaf553bcb8c79119", "fusion_lon": 0.0, "bike_id": "a6722f3001b217f0eaf553bcb8c79119", "is_reserved": 0, "type": "electric_scooter", "lat": 38.87340433333333, "fusion_lat": 0.0, "is_disabled": 0}, {"rental_uris": {"android": "https://dc.lft.to/lastmile_qr_scan", "ios": "https://dc.lft.to/lastmile_qr_scan"}, "lon": -77.00592833333333, "name": "55f198126cfe61f6ee5b4125f0e3c329", "fusion_lon": 0.0, "bike_id": "55f198126cfe61f6ee5b4125f0e3c329", "is_reserved": 0, "type": "electric_scooter", "lat": 38.8756295, "fusion_lat": 0.0, "is_disabled": 0}, {"rental_uris": {"android": "https://dc.lft.to/lastmile_qr_scan", "ios": "https://dc.lft.to/lastmile_qr_scan"}, "lon": -77.04520033333333, "name": "c483c00a18d3f22ec6917fad8b5bbb51", "fusion_lon": 0.0, "bike_id": "c483c00a18d3f22ec6917fad8b5bbb51", "is_reserved": 0, "type": "electric_scooter", "lat": 38.909771, "fusion_lat": 0.0, "is_disabled": 0}, {"rental_uris": {"android": "https://dc.lft.to/lastmile_qr_scan", "ios": "https://dc.lft.to/lastmile_qr_scan"}, "lon": -77.029297, "name": "a408b56c9b1225f286720d0243bbf7c8", "fusion_lon": 0.0, "bike_id": "a408b56c9b1225f286720d0243bbf7c8", "is_reserved": 0, "type": "electric_scooter", "lat": 38.951849833333334, "fusion_lat": 0.0, "is_disabled": 0}, {"rental_uris": {"android": "https://dc.lft.to/lastmile_qr_scan", "ios": "https://dc.lft.to/lastmile_qr_scan"}, "lon": -77.03213266666667, "name": "f9b0b4954b0db2327857efccb73f63d0", "fusion_lon": 0.0, "bike_id": "f9b0b4954b0db2327857efccb73f63d0", "is_reserved": 0, "type": "electric_scooter", "lat": 38.91692033333333, "fusion_lat": 0.0, "is_disabled": 0}, {"rental_uris": {"android": "https://dc.lft.to/lastmile_qr_scan", "ios": "https://dc.lft.to/lastmile_qr_scan"}, "lon": -76.9821275, "name": "39eb6d92f3006feee7faba67a6c9b524", "fusion_lon": 0.0, "bike_id": "39eb6d92f3006feee7faba67a6c9b524", "is_reserved": 0, "type": "electric_scooter", "lat": 38.857095, "fusion_lat": 0.0, "is_disabled": 0}, {"rental_uris": {"android": "https://dc.lft.to/lastmile_qr_scan", "ios": "https://dc.lft.to/lastmile_qr_scan"}, "lon": -76.99503816666666, "name": "cf01c4dfe9312783c5b7181f3aaa2d8f", "fusion_lon": 0.0, "bike_id": "cf01c4dfe9312783c5b7181f3aaa2d8f", "is_reserved": 0, "type": "electric_bike", "lat": 38.8797795, "fusion_lat": 0.0, "is_disabled": 0}, {"rental_uris": {"android": "https://dc.lft.to/lastmile_qr_scan", "ios": "https://dc.lft.to/lastmile_qr_scan"}, "lon": -77.01796216666666, "name": "2981412f5b5ef1d7189492af11f16d02", "fusion_lon": 0.0, "bike_id": "2981412f5b5ef1d7189492af11f16d02", "is_reserved": 0, "type": "electric_scooter", "lat": 38.91949233333333, "fusion_lat": 0.0, "is_disabled": 0}, {"rental_uris": {"android": "https://dc.lft.to/lastmile_qr_scan", "ios": "https://dc.lft.to/lastmile_qr_scan"}, "lon": -77.02689583333333, "name": "378dfce9465aa8cb5656e70ce2805f43", "fusion_lon": 0.0, "bike_id": "378dfce9465aa8cb5656e70ce2805f43", "is_reserved": 0, "type": "electric_scooter", "lat": 38.943328666666666, "fusion_lat": 0.0, "is_disabled": 0}, {"rental_uris": {"android": "https://dc.lft.to/lastmile_qr_scan", "ios": "https://dc.lft.to/lastmile_qr_scan"}, "lon": -77.02564083333333, "name": "096128c7ca6fefe4cd82f8e2802baeb8", "fusion_lon": 0.0, "bike_id": "096128c7ca6fefe4cd82f8e2802baeb8", "is_reserved": 0, "type": "electric_scooter", "lat": 38.92550133333334, "fusion_lat": 0.0, "is_disabled": 0}, {"rental_uris": {"android": "https://dc.lft.to/lastmile_qr_scan", "ios": "https://dc.lft.to/lastmile_qr_scan"}, "lon": -77.0237355, "name": "1fc6e8e50442f8962c832f720029c689", "fusion_lon": 0.0, "bike_id": "1fc6e8e50442f8962c832f720029c689", "is_reserved": 0, "type": "electric_scooter", "lat": 38.90200466666667, "fusion_lat": 0.0, "is_disabled": 0}, {"rental_uris": {"android": "https://dc.lft.to/lastmile_qr_scan", "ios": "https://dc.lft.to/lastmile_qr_scan"}, "lon": -77.03209533333333, "name": "4dd6438ae1d5117ccce7a687ba7845fb", "fusion_lon": 0.0, "bike_id": "4dd6438ae1d5117ccce7a687ba7845fb", "is_reserved": 0, "type": "electric_scooter", "lat": 38.91475166666667, "fusion_lat": 0.0, "is_disabled": 0}, {"rental_uris": {"android": "https://dc.lft.to/lastmile_qr_scan", "ios": "https://dc.lft.to/lastmile_qr_scan"}, "lon": -77.0241245, "name": "6438cb87d16e237cc3a3f302130ac74e", "fusion_lon": 0.0, "bike_id": "6438cb87d16e237cc3a3f302130ac74e", "is_reserved": 0, "type": "electric_scooter", "lat": 38.92606416666667, "fusion_lat": 0.0, "is_disabled": 0}, {"rental_uris": {"android": "https://dc.lft.to/lastmile_qr_scan", "ios": "https://dc.lft.to/lastmile_qr_scan"}, "lon": -76.99164666666667, "name": "466994597c47b0891bbd1176814346a0", "fusion_lon": 0.0, "bike_id": "466994597c47b0891bbd1176814346a0", "is_reserved": 0, "type": "electric_scooter", "lat": 38.88076916666667, "fusion_lat": 0.0, "is_disabled": 0}, {"rental_uris": {"android": "https://dc.lft.to/lastmile_qr_scan", "ios": "https://dc.lft.to/lastmile_qr_scan"}, "lon": -77.023945, "name": "232f01e286b95cd269a3619ddf9b0b87", "fusion_lon": 0.0, "bike_id": "232f01e286b95cd269a3619ddf9b0b87", "is_reserved": 0, "type": "electric_scooter", "lat": 38.91660566666667, "fusion_lat": 0.0, "is_disabled": 0}, {"rental_uris": {"android": "https://dc.lft.to/lastmile_qr_scan", "ios": "https://dc.lft.to/lastmile_qr_scan"}, "lon": -76.98104116666667, "name": "4411889f72e42c51b26c33f77c67fe73", "fusion_lon": 0.0, "bike_id": "4411889f72e42c51b26c33f77c67fe73", "is_reserved": 0, "type": "electric_scooter", "lat": 38.860913333333336, "fusion_lat": 0.0, "is_disabled": 0}, {"rental_uris": {"android": "https://dc.lft.to/lastmile_qr_scan", "ios": "https://dc.lft.to/lastmile_qr_scan"}, "lon": -76.968974, "name": "3ee0fc16d99f38d0c6a34b56d3a91c90", "fusion_lon": 0.0, "bike_id": "3ee0fc16d99f38d0c6a34b56d3a91c90", "is_reserved": 0, "type": "electric_scooter", "lat": 38.86507683333333, "fusion_lat": 0.0, "is_disabled": 0}, {"rental_uris": {"android": "https://dc.lft.to/lastmile_qr_scan", "ios": "https://dc.lft.to/lastmile_qr_scan"}, "lon": -77.02352183333333, "name": "dbf0ae49fae98ebd128188577caeb068", "fusion_lon": 0.0, "bike_id": "dbf0ae49fae98ebd128188577caeb068", "is_reserved": 0, "type": "electric_scooter", "lat": 38.90865266666667, "fusion_lat": 0.0, "is_disabled": 0}, {"rental_uris": {"android": "https://dc.lft.to/lastmile_qr_scan", "ios": "https://dc.lft.to/lastmile_qr_scan"}, "lon": -77.02754733333333, "name": "4bb99c73a4ad9dd13c75ba2ba8f1b72b", "fusion_lon": 0.0, "bike_id": "4bb99c73a4ad9dd13c75ba2ba8f1b72b", "is_reserved": 0, "type": "electric_scooter", "lat": 38.92670733333333, "fusion_lat": 0.0, "is_disabled": 0}, {"rental_uris": {"android": "https://dc.lft.to/lastmile_qr_scan", "ios": "https://dc.lft.to/lastmile_qr_scan"}, "lon": -77.04202966666666, "name": "77d3467c093582e3d26591081206fab9", "fusion_lon": 0.0, "bike_id": "77d3467c093582e3d26591081206fab9", "is_reserved": 0, "type": "electric_scooter", "lat": 38.90272683333333, "fusion_lat": 0.0, "is_disabled": 0}, {"rental_uris": {"android": "https://dc.lft.to/lastmile_qr_scan", "ios": "https://dc.lft.to/lastmile_qr_scan"}, "lon": -77.03187816666667, "name": "5e35f4bbb019d4790c92b35d895b372a", "fusion_lon": 0.0, "bike_id": "5e35f4bbb019d4790c92b35d895b372a", "is_reserved": 0, "type": "electric_scooter", "lat": 38.924849333333334, "fusion_lat": 0.0, "is_disabled": 0}, {"rental_uris": {"android": "https://dc.lft.to/lastmile_qr_scan", "ios": "https://dc.lft.to/lastmile_qr_scan"}, "lon": -77.00587433333334, "name": "d8c0e8710471d6129d665722644dc785", "fusion_lon": 0.0, "bike_id": "d8c0e8710471d6129d665722644dc785", "is_reserved": 0, "type": "electric_scooter", "lat": 38.875630666666666, "fusion_lat": 0.0, "is_disabled": 0}, {"rental_uris": {"android": "https://dc.lft.to/lastmile_qr_scan", "ios": "https://dc.lft.to/lastmile_qr_scan"}, "lon": -77.02317166666667, "name": "1ba3d191702f789daee387072535aed1", "fusion_lon": 0.0, "bike_id": "1ba3d191702f789daee387072535aed1", "is_reserved": 0, "type": "electric_scooter", "lat": 38.92518583333333, "fusion_lat": 0.0, "is_disabled": 0}, {"rental_uris": {"android": "https://dc.lft.to/lastmile_qr_scan", "ios": "https://dc.lft.to/lastmile_qr_scan"}, "lon": -77.022, "name": "cfb048a2b5c1c80e8db5a693350dd688", "fusion_lon": 0.0, "bike_id": "cfb048a2b5c1c80e8db5a693350dd688", "is_reserved": 0, "type": "electric_scooter", "lat": 38.91787716666666, "fusion_lat": 0.0, "is_disabled": 0}, {"rental_uris": {"android": "https://dc.lft.to/lastmile_qr_scan", "ios": "https://dc.lft.to/lastmile_qr_scan"}, "lon": -77.00709116666667, "name": "6eb4c074da9698f818f9080f440acbca", "fusion_lon": 0.0, "bike_id": "6eb4c074da9698f818f9080f440acbca", "is_reserved": 0, "type": "electric_scooter", "lat": 38.876841666666664, "fusion_lat": 0.0, "is_disabled": 0}, {"rental_uris": {"android": "https://dc.lft.to/lastmile_qr_scan", "ios": "https://dc.lft.to/lastmile_qr_scan"}, "lon": -77.0188, "name": "72a0b1e77838f082a7e46e1c2be0a5c2", "fusion_lon": 0.0, "bike_id": "72a0b1e77838f082a7e46e1c2be0a5c2", "is_reserved": 0, "type": "electric_scooter", "lat": 38.9510035, "fusion_lat": 0.0, "is_disabled": 0}, {"rental_uris": {"android": "https://dc.lft.to/lastmile_qr_scan", "ios": "https://dc.lft.to/lastmile_qr_scan"}, "lon": -77.02369866666666, "name": "3e994bdfaeb6416a7cf0e0b03d9d27c7", "fusion_lon": 0.0, "bike_id": "3e994bdfaeb6416a7cf0e0b03d9d27c7", "is_reserved": 0, "type": "electric_scooter", "lat": 38.902332333333334, "fusion_lat": 0.0, "is_disabled": 0}, {"rental_uris": {"android": "https://dc.lft.to/lastmile_qr_scan", "ios": "https://dc.lft.to/lastmile_qr_scan"}, "lon": -77.0689565, "name": "1524db6911cd90d5fce3ef1f941fd1b5", "fusion_lon": 0.0, "bike_id": "1524db6911cd90d5fce3ef1f941fd1b5", "is_reserved": 0, "type": "electric_scooter", "lat": 38.90740616666667, "fusion_lat": 0.0, "is_disabled": 0}, {"rental_uris": {"android": "https://dc.lft.to/lastmile_qr_scan", "ios": "https://dc.lft.to/lastmile_qr_scan"}, "lon": -77.0636455, "name": "d5eb33ccf771b8aee71aa46f239f9fbe", "fusion_lon": 0.0, "bike_id": "d5eb33ccf771b8aee71aa46f239f9fbe", "is_reserved": 0, "type": "electric_scooter", "lat": 38.905113, "fusion_lat": 0.0, "is_disabled": 0}, {"rental_uris": {"android": "https://dc.lft.to/lastmile_qr_scan", "ios": "https://dc.lft.to/lastmile_qr_scan"}, "lon": -76.99109766666666, "name": "73609c82f0a46c7e768cada1dee017f9", "fusion_lon": 0.0, "bike_id": "73609c82f0a46c7e768cada1dee017f9", "is_reserved": 0, "type": "electric_scooter", "lat": 38.90860583333333, "fusion_lat": 0.0, "is_disabled": 0}, {"rental_uris": {"android": "https://dc.lft.to/lastmile_qr_scan", "ios": "https://dc.lft.to/lastmile_qr_scan"}, "lon": -76.99204583333334, "name": "37936b0cb759a6a73ddabba68d394e2d", "fusion_lon": 0.0, "bike_id": "37936b0cb759a6a73ddabba68d394e2d", "is_reserved": 0, "type": "electric_scooter", "lat": 38.895223, "fusion_lat": 0.0, "is_disabled": 0}, {"rental_uris": {"android": "https://dc.lft.to/lastmile_qr_scan", "ios": "https://dc.lft.to/lastmile_qr_scan"}, "lon": -77.070104, "name": "37cf45b08ad83cbbb44a0824176c2aa0", "fusion_lon": 0.0, "bike_id": "37cf45b08ad83cbbb44a0824176c2aa0", "is_reserved": 0, "type": "electric_scooter", "lat": 38.95577016666667, "fusion_lat": 0.0, "is_disabled": 0}, {"rental_uris": {"android": "https://dc.lft.to/lastmile_qr_scan", "ios": "https://dc.lft.to/lastmile_qr_scan"}, "lon": -76.98356466666667, "name": "cc90e01bbb7b6630b6150ada99038ae5", "fusion_lon": 0.0, "bike_id": "cc90e01bbb7b6630b6150ada99038ae5", "is_reserved": 0, "type": "electric_scooter", "lat": 38.887492, "fusion_lat": 0.0, "is_disabled": 0}, {"rental_uris": {"android": "https://dc.lft.to/lastmile_qr_scan", "ios": "https://dc.lft.to/lastmile_qr_scan"}, "lon": -77.02425116666667, "name": "387b125e15b170fd23ad63dadf00e34c", "fusion_lon": 0.0, "bike_id": "387b125e15b170fd23ad63dadf00e34c", "is_reserved": 0, "type": "electric_scooter", "lat": 38.92756216666667, "fusion_lat": 0.0, "is_disabled": 0}, {"rental_uris": {"android": "https://dc.lft.to/lastmile_qr_scan", "ios": "https://dc.lft.to/lastmile_qr_scan"}, "lon": -77.03661883333334, "name": "c8042c599a0312805bf00de883878d98", "fusion_lon": 0.0, "bike_id": "c8042c599a0312805bf00de883878d98", "is_reserved": 0, "type": "electric_scooter", "lat": 38.903823833333334, "fusion_lat": 0.0, "is_disabled": 0}, {"rental_uris": {"android": "https://dc.lft.to/lastmile_qr_scan", "ios": "https://dc.lft.to/lastmile_qr_scan"}, "lon": -77.0297145, "name": "f09c751777d72bafb44d8ab5f6a4eef6", "fusion_lon": 0.0, "bike_id": "f09c751777d72bafb44d8ab5f6a4eef6", "is_reserved": 0, "type": "electric_scooter", "lat": 38.917182, "fusion_lat": 0.0, "is_disabled": 0}, {"rental_uris": {"android": "https://dc.lft.to/lastmile_qr_scan", "ios": "https://dc.lft.to/lastmile_qr_scan"}, "lon": -77.04845583333334, "name": "a952afe9caf0663b588dc60d11370f81", "fusion_lon": 0.0, "bike_id": "a952afe9caf0663b588dc60d11370f81", "is_reserved": 0, "type": "electric_scooter", "lat": 38.90473733333333, "fusion_lat": 0.0, "is_disabled": 0}, {"rental_uris": {"android": "https://dc.lft.to/lastmile_qr_scan", "ios": "https://dc.lft.to/lastmile_qr_scan"}, "lon": -77.05330916666666, "name": "f7cf20e93485657309011631e7a49f37", "fusion_lon": 0.0, "bike_id": "f7cf20e93485657309011631e7a49f37", "is_reserved": 0, "type": "electric_scooter", "lat": 38.92794283333333, "fusion_lat": 0.0, "is_disabled": 0}, {"rental_uris": {"android": "https://dc.lft.to/lastmile_qr_scan", "ios": "https://dc.lft.to/lastmile_qr_scan"}, "lon": -77.02506183333334, "name": "3b76eb8df5d3222bd9911b375b7110cb", "fusion_lon": 0.0, "bike_id": "3b76eb8df5d3222bd9911b375b7110cb", "is_reserved": 0, "type": "electric_scooter", "lat": 38.920781833333336, "fusion_lat": 0.0, "is_disabled": 0}, {"rental_uris": {"android": "https://dc.lft.to/lastmile_qr_scan", "ios": "https://dc.lft.to/lastmile_qr_scan"}, "lon": -77.02343916666666, "name": "1452805a41a9e2bcd5588eb17d9efd29", "fusion_lon": 0.0, "bike_id": "1452805a41a9e2bcd5588eb17d9efd29", "is_reserved": 0, "type": "electric_scooter", "lat": 38.931143166666665, "fusion_lat": 0.0, "is_disabled": 0}, {"rental_uris": {"android": "https://dc.lft.to/lastmile_qr_scan", "ios": "https://dc.lft.to/lastmile_qr_scan"}, "lon": -77.03249266666667, "name": "8b08b42d4c942aec408c6c91a3fb00de", "fusion_lon": 0.0, "bike_id": "8b08b42d4c942aec408c6c91a3fb00de", "is_reserved": 0, "type": "electric_scooter", "lat": 38.937575833333334, "fusion_lat": 0.0, "is_disabled": 0}, {"rental_uris": {"android": "https://dc.lft.to/lastmile_qr_scan", "ios": "https://dc.lft.to/lastmile_qr_scan"}, "lon": -77.02689466666666, "name": "7bc43997dbafa0a3668c709061aef718", "fusion_lon": 0.0, "bike_id": "7bc43997dbafa0a3668c709061aef718", "is_reserved": 0, "type": "electric_scooter", "lat": 38.90239166666667, "fusion_lat": 0.0, "is_disabled": 0}, {"rental_uris": {"android": "https://dc.lft.to/lastmile_qr_scan", "ios": "https://dc.lft.to/lastmile_qr_scan"}, "lon": -77.01948083333333, "name": "298521882907bd671500943dda9fb4ab", "fusion_lon": 0.0, "bike_id": "298521882907bd671500943dda9fb4ab", "is_reserved": 0, "type": "electric_scooter", "lat": 38.923285, "fusion_lat": 0.0, "is_disabled": 0}, {"rental_uris": {"android": "https://dc.lft.to/lastmile_qr_scan", "ios": "https://dc.lft.to/lastmile_qr_scan"}, "lon": -77.05058833333334, "name": "d682726e4fd99705df98dad52ffb12b1", "fusion_lon": 0.0, "bike_id": "d682726e4fd99705df98dad52ffb12b1", "is_reserved": 0, "type": "electric_scooter", "lat": 38.92520716666667, "fusion_lat": 0.0, "is_disabled": 0}, {"rental_uris": {"android": "https://dc.lft.to/lastmile_qr_scan", "ios": "https://dc.lft.to/lastmile_qr_scan"}, "lon": -77.0328455, "name": "8cd74770ad28a335f70277d78b889554", "fusion_lon": 0.0, "bike_id": "8cd74770ad28a335f70277d78b889554", "is_reserved": 0, "type": "electric_scooter", "lat": 38.92068033333334, "fusion_lat": 0.0, "is_disabled": 0}, {"rental_uris": {"android": "https://dc.lft.to/lastmile_qr_scan", "ios": "https://dc.lft.to/lastmile_qr_scan"}, "lon": -77.08319733333333, "name": "8324e22e96b495c4349c8a0301531542", "fusion_lon": 0.0, "bike_id": "8324e22e96b495c4349c8a0301531542", "is_reserved": 0, "type": "electric_bike", "lat": 38.85436883333333, "fusion_lat": 0.0, "is_disabled": 0}, {"rental_uris": {"android": "https://dc.lft.to/lastmile_qr_scan", "ios": "https://dc.lft.to/lastmile_qr_scan"}, "lon": -77.028269, "name": "d13a0cc39cc457e07b38deae87e9895c", "fusion_lon": 0.0, "bike_id": "d13a0cc39cc457e07b38deae87e9895c", "is_reserved": 0, "type": "electric_scooter", "lat": 38.898226, "fusion_lat": 0.0, "is_disabled": 0}, {"rental_uris": {"android": "https://dc.lft.to/lastmile_qr_scan", "ios": "https://dc.lft.to/lastmile_qr_scan"}, "lon": -77.03648033333333, "name": "014f96c18eae4866e6164f2b608a0caf", "fusion_lon": 0.0, "bike_id": "014f96c18eae4866e6164f2b608a0caf", "is_reserved": 0, "type": "electric_scooter", "lat": 38.95263416666667, "fusion_lat": 0.0, "is_disabled": 0}, {"rental_uris": {"android": "https://dc.lft.to/lastmile_qr_scan", "ios": "https://dc.lft.to/lastmile_qr_scan"}, "lon": -77.02834716666666, "name": "70ee05f06d57122270d7ab1aceb101d1", "fusion_lon": 0.0, "bike_id": "70ee05f06d57122270d7ab1aceb101d1", "is_reserved": 0, "type": "electric_scooter", "lat": 38.93274866666667, "fusion_lat": 0.0, "is_disabled": 0}, {"rental_uris": {"android": "https://dc.lft.to/lastmile_qr_scan", "ios": "https://dc.lft.to/lastmile_qr_scan"}, "lon": -76.98289966666667, "name": "b9679223998c1bc3a3173a202e9a4c3d", "fusion_lon": 0.0, "bike_id": "b9679223998c1bc3a3173a202e9a4c3d", "is_reserved": 0, "type": "electric_scooter", "lat": 38.866522333333336, "fusion_lat": 0.0, "is_disabled": 0}, {"rental_uris": {"android": "https://dc.lft.to/lastmile_qr_scan", "ios": "https://dc.lft.to/lastmile_qr_scan"}, "lon": -77.02323366666667, "name": "356636cde7b0258cc8f7621fbb19c154", "fusion_lon": 0.0, "bike_id": "356636cde7b0258cc8f7621fbb19c154", "is_reserved": 0, "type": "electric_scooter", "lat": 38.930597166666665, "fusion_lat": 0.0, "is_disabled": 0}, {"rental_uris": {"android": "https://dc.lft.to/lastmile_qr_scan", "ios": "https://dc.lft.to/lastmile_qr_scan"}, "lon": -77.05025266666667, "name": "6ee86631b81086df266fb99a7f5cc133", "fusion_lon": 0.0, "bike_id": "6ee86631b81086df266fb99a7f5cc133", "is_reserved": 0, "type": "electric_bike", "lat": 39.03895266666667, "fusion_lat": 0.0, "is_disabled": 0}, {"rental_uris": {"android": "https://dc.lft.to/lastmile_qr_scan", "ios": "https://dc.lft.to/lastmile_qr_scan"}, "lon": -77.00332116666667, "name": "27eb4c3f2fe0eacc7935db39b73590f2", "fusion_lon": 0.0, "bike_id": "27eb4c3f2fe0eacc7935db39b73590f2", "is_reserved": 0, "type": "electric_scooter", "lat": 38.893551333333335, "fusion_lat": 0.0, "is_disabled": 0}, {"rental_uris": {"android": "https://dc.lft.to/lastmile_qr_scan", "ios": "https://dc.lft.to/lastmile_qr_scan"}, "lon": -77.01426166666667, "name": "103aeedd3c51c65d95463f0ccd661a5b", "fusion_lon": 0.0, "bike_id": "103aeedd3c51c65d95463f0ccd661a5b", "is_reserved": 0, "type": "electric_scooter", "lat": 38.906459, "fusion_lat": 0.0, "is_disabled": 0}, {"rental_uris": {"android": "https://dc.lft.to/lastmile_qr_scan", "ios": "https://dc.lft.to/lastmile_qr_scan"}, "lon": -77.0259695, "name": "d47d69423047fde44b176227be209b50", "fusion_lon": 0.0, "bike_id": "d47d69423047fde44b176227be209b50", "is_reserved": 0, "type": "electric_scooter", "lat": 38.916917833333336, "fusion_lat": 0.0, "is_disabled": 0}, {"rental_uris": {"android": "https://dc.lft.to/lastmile_qr_scan", "ios": "https://dc.lft.to/lastmile_qr_scan"}, "lon": -76.99676033333333, "name": "1bc5216bafb43f91e1db045c53a7812f", "fusion_lon": 0.0, "bike_id": "1bc5216bafb43f91e1db045c53a7812f", "is_reserved": 0, "type": "electric_scooter", "lat": 38.8872595, "fusion_lat": 0.0, "is_disabled": 0}, {"rental_uris": {"android": "https://dc.lft.to/lastmile_qr_scan", "ios": "https://dc.lft.to/lastmile_qr_scan"}, "lon": -76.97692966666666, "name": "9ddcfdb18a6dfede92967d5ce5ae0de5", "fusion_lon": 0.0, "bike_id": "9ddcfdb18a6dfede92967d5ce5ae0de5", "is_reserved": 0, "type": "electric_scooter", "lat": 38.898952666666666, "fusion_lat": 0.0, "is_disabled": 0}, {"rental_uris": {"android": "https://dc.lft.to/lastmile_qr_scan", "ios": "https://dc.lft.to/lastmile_qr_scan"}, "lon": -77.01983216666666, "name": "1df82baf0582acede5bdfad036972591", "fusion_lon": 0.0, "bike_id": "1df82baf0582acede5bdfad036972591", "is_reserved": 0, "type": "electric_scooter", "lat": 38.90497583333333, "fusion_lat": 0.0, "is_disabled": 0}, {"rental_uris": {"android": "https://dc.lft.to/lastmile_qr_scan", "ios": "https://dc.lft.to/lastmile_qr_scan"}, "lon": -77.0194775, "name": "c14043dbce1347d1fad5db3f401b6601", "fusion_lon": 0.0, "bike_id": "c14043dbce1347d1fad5db3f401b6601", "is_reserved": 0, "type": "electric_scooter", "lat": 38.9236715, "fusion_lat": 0.0, "is_disabled": 0}, {"rental_uris": {"android": "https://dc.lft.to/lastmile_qr_scan", "ios": "https://dc.lft.to/lastmile_qr_scan"}, "lon": -77.05989616666666, "name": "b55f725850e82f6db937e648e5bc7539", "fusion_lon": 0.0, "bike_id": "b55f725850e82f6db937e648e5bc7539", "is_reserved": 0, "type": "electric_scooter", "lat": 38.927133, "fusion_lat": 0.0, "is_disabled": 0}, {"rental_uris": {"android": "https://dc.lft.to/lastmile_qr_scan", "ios": "https://dc.lft.to/lastmile_qr_scan"}, "lon": -76.9967485, "name": "bce0693626f5b2944989c601dc26ca8c", "fusion_lon": 0.0, "bike_id": "bce0693626f5b2944989c601dc26ca8c", "is_reserved": 0, "type": "electric_scooter", "lat": 38.887249, "fusion_lat": 0.0, "is_disabled": 0}, {"rental_uris": {"android": "https://dc.lft.to/lastmile_qr_scan", "ios": "https://dc.lft.to/lastmile_qr_scan"}, "lon": -77.03786416666667, "name": "4d8f9673551b2251f8154441c1b7d4e0", "fusion_lon": 0.0, "bike_id": "4d8f9673551b2251f8154441c1b7d4e0", "is_reserved": 0, "type": "electric_scooter", "lat": 38.933255, "fusion_lat": 0.0, "is_disabled": 0}, {"rental_uris": {"android": "https://dc.lft.to/lastmile_qr_scan", "ios": "https://dc.lft.to/lastmile_qr_scan"}, "lon": -77.04476016666666, "name": "7786578b67736ffff4bd22942f63a5d3", "fusion_lon": 0.0, "bike_id": "7786578b67736ffff4bd22942f63a5d3", "is_reserved": 0, "type": "electric_scooter", "lat": 38.901192333333334, "fusion_lat": 0.0, "is_disabled": 0}, {"rental_uris": {"android": "https://dc.lft.to/lastmile_qr_scan", "ios": "https://dc.lft.to/lastmile_qr_scan"}, "lon": -77.026924, "name": "622c3c1517dc43d4ed4b63c6cd1b1bfc", "fusion_lon": 0.0, "bike_id": "622c3c1517dc43d4ed4b63c6cd1b1bfc", "is_reserved": 0, "type": "electric_scooter", "lat": 38.9246885, "fusion_lat": 0.0, "is_disabled": 0}, {"rental_uris": {"android": "https://dc.lft.to/lastmile_qr_scan", "ios": "https://dc.lft.to/lastmile_qr_scan"}, "lon": -77.04454683333333, "name": "89e4a229862465f98e0cdded4c8e44df", "fusion_lon": 0.0, "bike_id": "89e4a229862465f98e0cdded4c8e44df", "is_reserved": 0, "type": "electric_scooter", "lat": 38.9349985, "fusion_lat": 0.0, "is_disabled": 0}, {"rental_uris": {"android": "https://dc.lft.to/lastmile_qr_scan", "ios": "https://dc.lft.to/lastmile_qr_scan"}, "lon": -77.03361433333333, "name": "b0a8878e6dddd1630976e4f5f85595f5", "fusion_lon": 0.0, "bike_id": "b0a8878e6dddd1630976e4f5f85595f5", "is_reserved": 0, "type": "electric_scooter", "lat": 38.989917166666665, "fusion_lat": 0.0, "is_disabled": 0}, {"rental_uris": {"android": "https://dc.lft.to/lastmile_qr_scan", "ios": "https://dc.lft.to/lastmile_qr_scan"}, "lon": -76.98836916666667, "name": "2e0686ba6e8be6ac0313cd73f0b6291e", "fusion_lon": 0.0, "bike_id": "2e0686ba6e8be6ac0313cd73f0b6291e", "is_reserved": 0, "type": "electric_scooter", "lat": 38.8988505, "fusion_lat": 0.0, "is_disabled": 0}, {"rental_uris": {"android": "https://dc.lft.to/lastmile_qr_scan", "ios": "https://dc.lft.to/lastmile_qr_scan"}, "lon": -77.027613, "name": "3f27dd4b908e4c9629ac61017e58f182", "fusion_lon": 0.0, "bike_id": "3f27dd4b908e4c9629ac61017e58f182", "is_reserved": 0, "type": "electric_scooter", "lat": 38.92917533333333, "fusion_lat": 0.0, "is_disabled": 0}, {"rental_uris": {"android": "https://dc.lft.to/lastmile_qr_scan", "ios": "https://dc.lft.to/lastmile_qr_scan"}, "lon": -77.0400775, "name": "a42721c59e9ea5d7f982ac62266b59a5", "fusion_lon": 0.0, "bike_id": "a42721c59e9ea5d7f982ac62266b59a5", "is_reserved": 0, "type": "electric_scooter", "lat": 38.88866133333333, "fusion_lat": 0.0, "is_disabled": 0}, {"rental_uris": {"android": "https://dc.lft.to/lastmile_qr_scan", "ios": "https://dc.lft.to/lastmile_qr_scan"}, "lon": -77.02485533333333, "name": "fb838a96ff9ec1c448f7bbe5923057c5", "fusion_lon": 0.0, "bike_id": "fb838a96ff9ec1c448f7bbe5923057c5", "is_reserved": 0, "type": "electric_scooter", "lat": 38.9284445, "fusion_lat": 0.0, "is_disabled": 0}, {"rental_uris": {"android": "https://dc.lft.to/lastmile_qr_scan", "ios": "https://dc.lft.to/lastmile_qr_scan"}, "lon": -77.02506083333333, "name": "eb6d9aedc054e9d21873814043e53677", "fusion_lon": 0.0, "bike_id": "eb6d9aedc054e9d21873814043e53677", "is_reserved": 0, "type": "electric_scooter", "lat": 38.926451166666666, "fusion_lat": 0.0, "is_disabled": 0}, {"rental_uris": {"android": "https://dc.lft.to/lastmile_qr_scan", "ios": "https://dc.lft.to/lastmile_qr_scan"}, "lon": -76.99268966666666, "name": "fa8e9158ac39027d05ed55fa254eeeb1", "fusion_lon": 0.0, "bike_id": "fa8e9158ac39027d05ed55fa254eeeb1", "is_reserved": 0, "type": "electric_scooter", "lat": 38.8977625, "fusion_lat": 0.0, "is_disabled": 0}, {"rental_uris": {"android": "https://dc.lft.to/lastmile_qr_scan", "ios": "https://dc.lft.to/lastmile_qr_scan"}, "lon": -77.01219133333333, "name": "e0e105e497a94019d7322bd9cedbea29", "fusion_lon": 0.0, "bike_id": "e0e105e497a94019d7322bd9cedbea29", "is_reserved": 0, "type": "electric_scooter", "lat": 38.9003625, "fusion_lat": 0.0, "is_disabled": 0}, {"rental_uris": {"android": "https://dc.lft.to/lastmile_qr_scan", "ios": "https://dc.lft.to/lastmile_qr_scan"}, "lon": -77.02990016666666, "name": "f3a0205a02bd8f4269560af88401bf39", "fusion_lon": 0.0, "bike_id": "f3a0205a02bd8f4269560af88401bf39", "is_reserved": 0, "type": "electric_scooter", "lat": 38.922405166666664, "fusion_lat": 0.0, "is_disabled": 0}, {"rental_uris": {"android": "https://dc.lft.to/lastmile_qr_scan", "ios": "https://dc.lft.to/lastmile_qr_scan"}, "lon": -77.03465016666667, "name": "2c79010eb10140468fe9de083956558d", "fusion_lon": 0.0, "bike_id": "2c79010eb10140468fe9de083956558d", "is_reserved": 0, "type": "electric_scooter", "lat": 38.905121333333334, "fusion_lat": 0.0, "is_disabled": 0}, {"rental_uris": {"android": "https://dc.lft.to/lastmile_qr_scan", "ios": "https://dc.lft.to/lastmile_qr_scan"}, "lon": -76.94248416666667, "name": "37fdbb5b9487388601b955bc4d78d18c", "fusion_lon": 0.0, "bike_id": "37fdbb5b9487388601b955bc4d78d18c", "is_reserved": 0, "type": "electric_bike", "lat": 38.94799066666667, "fusion_lat": 0.0, "is_disabled": 0}, {"rental_uris": {"android": "https://dc.lft.to/lastmile_qr_scan", "ios": "https://dc.lft.to/lastmile_qr_scan"}, "lon": -77.0464165, "name": "ebb692a7c937367efc53a278439adfdf", "fusion_lon": 0.0, "bike_id": "ebb692a7c937367efc53a278439adfdf", "is_reserved": 0, "type": "electric_scooter", "lat": 38.90065933333333, "fusion_lat": 0.0, "is_disabled": 0}, {"rental_uris": {"android": "https://dc.lft.to/lastmile_qr_scan", "ios": "https://dc.lft.to/lastmile_qr_scan"}, "lon": -76.92518666666666, "name": "689d9a506ad82bd0e9cc869dce02c13e", "fusion_lon": 0.0, "bike_id": "689d9a506ad82bd0e9cc869dce02c13e", "is_reserved": 0, "type": "electric_bike", "lat": 38.95912116666667, "fusion_lat": 0.0, "is_disabled": 0}, {"rental_uris": {"android": "https://dc.lft.to/lastmile_qr_scan", "ios": "https://dc.lft.to/lastmile_qr_scan"}, "lon": -77.03157783333333, "name": "0d477130e1d0a430d408f729a9b25445", "fusion_lon": 0.0, "bike_id": "0d477130e1d0a430d408f729a9b25445", "is_reserved": 0, "type": "electric_scooter", "lat": 38.918067, "fusion_lat": 0.0, "is_disabled": 0}, {"rental_uris": {"android": "https://dc.lft.to/lastmile_qr_scan", "ios": "https://dc.lft.to/lastmile_qr_scan"},