{"data": {"bikes": [{"rental_uris": {"android": "https://dc.lft.to/lastmile_qr_scan", "ios": "https://dc.lft.to/lastmile_qr_scan"}, "name": "bc86b39e565b18752dd9a98f17681778", "fusion_lat": 0.0, "lon": -77.01204233333333, "is_disabled": 0, "is_reserved": 0, "fusion_lon": 0.0, "lat": 38.87152666666667, "type": "electric_scooter", "bike_id": "bc86b39e565b18752dd9a98f17681778"}, {"rental_uris": {"android": "https://dc.lft.to/lastmile_qr_scan", "ios": "https://dc.lft.to/lastmile_qr_scan"}, "name": "23e8104b5184660ed97bdb46d83d8abb", "fusion_lat": 0.0, "lon": -77.01212233333334, "is_disabled": 0, "is_reserved": 0, "fusion_lon": 0.0, "lat": 38.893339166666664, "type": "electric_scooter", "bike_id": "23e8104b5184660ed97bdb46d83d8abb"}, {"rental_uris": {"android": "https://dc.lft.to/lastmile_qr_scan", "ios": "https://dc.lft.to/lastmile_qr_scan"}, "name": "b1a9b3744e19f93bfc068ed0dae52c81", "fusion_lat": 0.0, "lon": -77.00880466666666, "is_disabled": 0, "is_reserved": 0, "fusion_lon": 0.0, "lat": 38.876280333333334, "type": "electric_scooter", "bike_id": "b1a9b3744e19f93bfc068ed0dae52c81"}, {"rental_uris": {"android": "https://dc.lft.to/lastmile_qr_scan", "ios": "https://dc.lft.to/lastmile_qr_scan"}, "name": "5e20f4cd9a5fb724d1030777c69536ca", "fusion_lat": 0.0, "lon": -76.9915065, "is_disabled": 0, "is_reserved": 0, "fusion_lon": 0.0, "lat": 38.8790785, "type": "electric_scooter", "bike_id": "5e20f4cd9a5fb724d1030777c69536ca"}, {"rental_uris": {"android": "https://dc.lft.to/lastmile_qr_scan", "ios": "https://dc.lft.to/lastmile_qr_scan"}, "name": "a84dab955db5e2ba1f4526640dc4d3a1", "fusion_lat": 0.0, "lon": -77.03229366666666, "is_disabled": 0, "is_reserved": 0, "fusion_lon": 0.0, "lat": 38.938819, "type": "electric_scooter", "bike_id": "a84dab955db5e2ba1f4526640dc4d3a1"}, {"rental_uris": {"android": "https://dc.lft.to/lastmile_qr_scan", "ios": "https://dc.lft.to/lastmile_qr_scan"}, "name": "de1d85ed09180deb74d966ab0ba6c925", "fusion_lat": 0.0, "lon": -77.03761033333333, "is_disabled": 0, "is_reserved": 0, "fusion_lon": 0.0, "lat": 38.9246635, "type": "electric_scooter", "bike_id": "de1d85ed09180deb74d966ab0ba6c925"}, {"rental_uris": {"android": "https://dc.lft.to/lastmile_qr_scan", "ios": "https://dc.lft.to/lastmile_qr_scan"}, "name": "6d36994f29a6504b8c5f93b2ccb36286", "fusion_lat": 0.0, "lon": -77.03635566666667, "is_disabled": 0, "is_reserved": 0, "fusion_lon": 0.0, "lat": 38.912721166666664, "type": "electric_scooter", "bike_id": "6d36994f29a6504b8c5f93b2ccb36286"}, {"rental_uris": {"android": "https://dc.lft.to/lastmile_qr_scan", "ios": "https://dc.lft.to/lastmile_qr_scan"}, "name": "4d7b410f368b5d572e007cbc8fe6ee33", "fusion_lat": 0.0, "lon": -77.0341535, "is_disabled": 0, "is_reserved": 0, "fusion_lon": 0.0, "lat": 38.929409666666665, "type": "electric_scooter", "bike_id": "4d7b410f368b5d572e007cbc8fe6ee33"}, {"rental_uris": {"android": "https://dc.lft.to/lastmile_qr_scan", "ios": "https://dc.lft.to/lastmile_qr_scan"}, "name": "35a12980d20ae023aba69c6e92996f1e", "fusion_lat": 0.0, "lon": -77.02793016666666, "is_disabled": 0, "is_reserved": 0, "fusion_lon": 0.0, "lat": 38.90619516666667, "type": "electric_scooter", "bike_id": "35a12980d20ae023aba69c6e92996f1e"}, {"rental_uris": {"android": "https://dc.lft.to/lastmile_qr_scan", "ios": "https://dc.lft.to/lastmile_qr_scan"}, "name": "73c07e2b3a17394b0f9216d156f1a735", "fusion_lat": 0.0, "lon": -77.0387455, "is_disabled": 0, "is_reserved": 0, "fusion_lon": 0.0, "lat": 38.9026465, "type": "electric_scooter", "bike_id": "73c07e2b3a17394b0f9216d156f1a735"}, {"rental_uris": {"android": "https://dc.lft.to/lastmile_qr_scan", "ios": "https://dc.lft.to/lastmile_qr_scan"}, "name": "0b38343b097676123d1d988787298f26", "fusion_lat": 0.0, "lon": -77.03067483333334, "is_disabled": 0, "is_reserved": 0, "fusion_lon": 0.0, "lat": 38.88045733333333, "type": "electric_scooter", "bike_id": "0b38343b097676123d1d988787298f26"}, {"rental_uris": {"android": "https://dc.lft.to/lastmile_qr_scan", "ios": "https://dc.lft.to/lastmile_qr_scan"}, "name": "9e41c823c401419e03d9fcf9b966147a", "fusion_lat": 0.0, "lon": -77.036741, "is_disabled": 0, "is_reserved": 0, "fusion_lon": 0.0, "lat": 38.902675, "type": "electric_scooter", "bike_id": "9e41c823c401419e03d9fcf9b966147a"}, {"rental_uris": {"android": "https://dc.lft.to/lastmile_qr_scan", "ios": "https://dc.lft.to/lastmile_qr_scan"}, "name": "949d5471d0e1b6dd63f5ce5cb700ad81", "fusion_lat": 0.0, "lon": -77.02947466666667, "is_disabled": 0, "is_reserved": 0, "fusion_lon": 0.0, "lat": 38.90416616666667, "type": "electric_scooter", "bike_id": "949d5471d0e1b6dd63f5ce5cb700ad81"}, {"rental_uris": {"android": "https://dc.lft.to/lastmile_qr_scan", "ios": "https://dc.lft.to/lastmile_qr_scan"}, "name": "6fe9d8106ffbfa47dff6903300e3fadb", "fusion_lat": 0.0, "lon": -76.99761366666667, "is_disabled": 0, "is_reserved": 0, "fusion_lon": 0.0, "lat": 39.005954833333334, "type": "electric_bike", "bike_id": "6fe9d8106ffbfa47dff6903300e3fadb"}, {"rental_uris": {"android": "https://dc.lft.to/lastmile_qr_scan", "ios": "https://dc.lft.to/lastmile_qr_scan"}, "name": "f1fbe77c63cb3e9354fbf2477bddb91b", "fusion_lat": 0.0, "lon": -77.02773016666667, "is_disabled": 0, "is_reserved": 0, "fusion_lon": 0.0, "lat": 38.8815465, "type": "electric_scooter", "bike_id": "f1fbe77c63cb3e9354fbf2477bddb91b"}, {"rental_uris": {"android": "https://dc.lft.to/lastmile_qr_scan", "ios": "https://dc.lft.to/lastmile_qr_scan"}, "name": "b69aeb34c7d5857754ef82af36e79054", "fusion_lat": 0.0, "lon": -77.0466775, "is_disabled": 0, "is_reserved": 0, "fusion_lon": 0.0, "lat": 38.90315566666666, "type": "electric_scooter", "bike_id": "b69aeb34c7d5857754ef82af36e79054"}, {"rental_uris": {"android": "https://dc.lft.to/lastmile_qr_scan", "ios": "https://dc.lft.to/lastmile_qr_scan"}, "name": "5b9b2527a40a295c007a743c60ac2712", "fusion_lat": 0.0, "lon": -76.92959383333333, "is_disabled": 0, "is_reserved": 0, "fusion_lon": 0.0, "lat": 38.898767, "type": "electric_scooter", "bike_id": "5b9b2527a40a295c007a743c60ac2712"}, {"rental_uris": {"android": "https://dc.lft.to/lastmile_qr_scan", "ios": "https://dc.lft.to/lastmile_qr_scan"}, "name": "9b65e402ee6baf85f30898d363149ddc", "fusion_lat": 0.0, "lon": -77.03876583333333, "is_disabled": 0, "is_reserved": 0, "fusion_lon": 0.0, "lat": 38.919828833333334, "type": "electric_scooter", "bike_id": "9b65e402ee6baf85f30898d363149ddc"}, {"rental_uris": {"android": "https://dc.lft.to/lastmile_qr_scan", "ios": "https://dc.lft.to/lastmile_qr_scan"}, "name": "450945037a9ea203c298827f3ff10a92", "fusion_lat": 0.0, "lon": -77.0238015, "is_disabled": 0, "is_reserved": 0, "fusion_lon": 0.0, "lat": 38.907324833333334, "type": "electric_scooter", "bike_id": "450945037a9ea203c298827f3ff10a92"}, {"rental_uris": {"android": "https://dc.lft.to/lastmile_qr_scan", "ios": "https://dc.lft.to/lastmile_qr_scan"}, "name": "0618640bf55d552e0c1d9911212ad150", "fusion_lat": 0.0, "lon": -77.131864, "is_disabled": 0, "is_reserved": 0, "fusion_lon": 0.0, "lat": 38.869167, "type": "electric_bike", "bike_id": "0618640bf55d552e0c1d9911212ad150"}, {"rental_uris": {"android": "https://dc.lft.to/lastmile_qr_scan", "ios": "https://dc.lft.to/lastmile_qr_scan"}, "name": "40927631997c7cf2e9d6bae83d76c361", "fusion_lat": 0.0, "lon": -77.02605033333333, "is_disabled": 0, "is_reserved": 0, "fusion_lon": 0.0, "lat": 38.900112, "type": "electric_scooter", "bike_id": "40927631997c7cf2e9d6bae83d76c361"}, {"rental_uris": {"android": "https://dc.lft.to/lastmile_qr_scan", "ios": "https://dc.lft.to/lastmile_qr_scan"}, "name": "72ad180a7afa7dab34ed415bb979f0c5", "fusion_lat": 0.0, "lon": -77.03854533333333, "is_disabled": 0, "is_reserved": 0, "fusion_lon": 0.0, "lat": 38.9121105, "type": "electric_scooter", "bike_id": "72ad180a7afa7dab34ed415bb979f0c5"}, {"rental_uris": {"android": "https://dc.lft.to/lastmile_qr_scan", "ios": "https://dc.lft.to/lastmile_qr_scan"}, "name": "b0f2ed076552fb570cb3d865c7d5e62a", "fusion_lat": 0.0, "lon": -77.02698783333334, "is_disabled": 0, "is_reserved": 0, "fusion_lon": 0.0, "lat": 38.906670166666665, "type": "electric_scooter", "bike_id": "b0f2ed076552fb570cb3d865c7d5e62a"}, {"rental_uris": {"android": "https://dc.lft.to/lastmile_qr_scan", "ios": "https://dc.lft.to/lastmile_qr_scan"}, "name": "d1e40471f745410b66fc6ca3f76efc3b", "fusion_lat": 0.0, "lon": -77.17849916666667, "is_disabled": 0, "is_reserved": 0, "fusion_lon": 0.0, "lat": 39.089055333333334, "type": "electric_bike", "bike_id": "d1e40471f745410b66fc6ca3f76efc3b"}, {"rental_uris": {"android": "https://dc.lft.to/lastmile_qr_scan", "ios": "https://dc.lft.to/lastmile_qr_scan"}, "name": "dc2fa87f24562d7c8ca8bf29114359f0", "fusion_lat": 0.0, "lon": -77.04304033333334, "is_disabled": 0, "is_reserved": 0, "fusion_lon": 0.0, "lat": 39.054472, "type": "electric_bike", "bike_id": "dc2fa87f24562d7c8ca8bf29114359f0"}, {"rental_uris": {"android": "https://dc.lft.to/lastmile_qr_scan", "ios": "https://dc.lft.to/lastmile_qr_scan"}, "name": "017a39edab78189fff3bfafd69b41184", "fusion_lat": 0.0, "lon": -77.017578, "is_disabled": 0, "is_reserved": 0, "fusion_lon": 0.0, "lat": 38.91669533333334, "type": "electric_scooter", "bike_id": "017a39edab78189fff3bfafd69b41184"}, {"rental_uris": {"android": "https://dc.lft.to/lastmile_qr_scan", "ios": "https://dc.lft.to/lastmile_qr_scan"}, "name": "76d94e215d9515e836ef71c8c723f847", "fusion_lat": 0.0, "lon": -76.986655, "is_disabled": 0, "is_reserved": 0, "fusion_lon": 0.0, "lat": 38.9014725, "type": "electric_scooter", "bike_id": "76d94e215d9515e836ef71c8c723f847"}, {"rental_uris": {"android": "https://dc.lft.to/lastmile_qr_scan", "ios": "https://dc.lft.to/lastmile_qr_scan"}, "name": "9de04c3d86954cebf07be107fc448329", "fusion_lat": 0.0, "lon": -77.03446733333334, "is_disabled": 0, "is_reserved": 0, "fusion_lon": 0.0, "lat": 38.903061, "type": "electric_scooter", "bike_id": "9de04c3d86954cebf07be107fc448329"}, {"rental_uris": {"android": "https://dc.lft.to/lastmile_qr_scan", "ios": "https://dc.lft.to/lastmile_qr_scan"}, "name": "66e9c0b4523cb93618fbe142c64b9740", "fusion_lat": 0.0, "lon": -77.01704, "is_disabled": 0, "is_reserved": 0, "fusion_lon": 0.0, "lat": 38.920376, "type": "electric_scooter", "bike_id": "66e9c0b4523cb93618fbe142c64b9740"}, {"rental_uris": {"android": "https://dc.lft.to/lastmile_qr_scan", "ios": "https://dc.lft.to/lastmile_qr_scan"}, "name": "3842cf93ae6a18fb4553d5540a129802", "fusion_lat": 0.0, "lon": -76.9832935, "is_disabled": 0, "is_reserved": 0, "fusion_lon": 0.0, "lat": 38.88987916666667, "type": "electric_scooter", "bike_id": "3842cf93ae6a18fb4553d5540a129802"}, {"rental_uris": {"android": "https://dc.lft.to/lastmile_qr_scan", "ios": "https://dc.lft.to/lastmile_qr_scan"}, "name": "413fd5aa778d0af53f8818750be639ab", "fusion_lat": 0.0, "lon": -76.99090616666666, "is_disabled": 0, "is_reserved": 0, "fusion_lon": 0.0, "lat": 38.8634995, "type": "electric_scooter", "bike_id": "413fd5aa778d0af53f8818750be639ab"}, {"rental_uris": {"android": "https://dc.lft.to/lastmile_qr_scan", "ios": "https://dc.lft.to/lastmile_qr_scan"}, "name": "871bda6d8d0838bd8f65244c7aaff9fa", "fusion_lat": 0.0, "lon": -77.00143383333334, "is_disabled": 0, "is_reserved": 0, "fusion_lon": 0.0, "lat": 38.874015666666665, "type": "electric_scooter", "bike_id": "871bda6d8d0838bd8f65244c7aaff9fa"}, {"rental_uris": {"android": "https://dc.lft.to/lastmile_qr_scan", "ios": "https://dc.lft.to/lastmile_qr_scan"}, "name": "4b73f232c111ebff2ed34bc90e5da0b8", "fusion_lat": 0.0, "lon": -77.02443866666667, "is_disabled": 0, "is_reserved": 0, "fusion_lon": 0.0, "lat": 38.920441, "type": "electric_scooter", "bike_id": "4b73f232c111ebff2ed34bc90e5da0b8"}, {"rental_uris": {"android": "https://dc.lft.to/lastmile_qr_scan", "ios": "https://dc.lft.to/lastmile_qr_scan"}, "name": "84db916d53323766b41902d5c6be9a0a", "fusion_lat": 0.0, "lon": -76.99516583333333, "is_disabled": 0, "is_reserved": 0, "fusion_lon": 0.0, "lat": 38.86256316666667, "type": "electric_scooter", "bike_id": "84db916d53323766b41902d5c6be9a0a"}, {"rental_uris": {"android": "https://dc.lft.to/lastmile_qr_scan", "ios": "https://dc.lft.to/lastmile_qr_scan"}, "name": "adf8900404b28978c4184875cead198e", "fusion_lat": 0.0, "lon": -77.0640115, "is_disabled": 0, "is_reserved": 0, "fusion_lon": 0.0, "lat": 38.9093055, "type": "electric_scooter", "bike_id": "adf8900404b28978c4184875cead198e"}, {"rental_uris": {"android": "https://dc.lft.to/lastmile_qr_scan", "ios": "https://dc.lft.to/lastmile_qr_scan"}, "name": "abb47b2a0db2184e02412db3caf28104", "fusion_lat": 0.0, "lon": -77.005931, "is_disabled": 0, "is_reserved": 0, "fusion_lon": 0.0, "lat": 38.905527666666664, "type": "electric_scooter", "bike_id": "abb47b2a0db2184e02412db3caf28104"}, {"rental_uris": {"android": "https://dc.lft.to/lastmile_qr_scan", "ios": "https://dc.lft.to/lastmile_qr_scan"}, "name": "fa920d321e90341f79008a8725955666", "fusion_lat": 0.0, "lon": -77.034089, "is_disabled": 0, "is_reserved": 0, "fusion_lon": 0.0, "lat": 38.931745, "type": "electric_scooter", "bike_id": "fa920d321e90341f79008a8725955666"}, {"rental_uris": {"android": "https://dc.lft.to/lastmile_qr_scan", "ios": "https://dc.lft.to/lastmile_qr_scan"}, "name": "e85fddf57d20b2f5261244aa83cd52cc", "fusion_lat": 0.0, "lon": -77.04785283333334, "is_disabled": 0, "is_reserved": 0, "fusion_lon": 0.0, "lat": 38.913455166666665, "type": "electric_scooter", "bike_id": "e85fddf57d20b2f5261244aa83cd52cc"}, {"rental_uris": {"android": "https://dc.lft.to/lastmile_qr_scan", "ios": "https://dc.lft.to/lastmile_qr_scan"}, "name": "204fefe8ebead11ffe1b7f94c0e4a48c", "fusion_lat": 0.0, "lon": -77.0294625, "is_disabled": 0, "is_reserved": 0, "fusion_lon": 0.0, "lat": 38.89639433333333, "type": "electric_scooter", "bike_id": "204fefe8ebead11ffe1b7f94c0e4a48c"}, {"rental_uris": {"android": "https://dc.lft.to/lastmile_qr_scan", "ios": "https://dc.lft.to/lastmile_qr_scan"}, "name": "a0b39c57e626656aa9992da941087606", "fusion_lat": 0.0, "lon": -77.00332083333333, "is_disabled": 0, "is_reserved": 0, "fusion_lon": 0.0, "lat": 38.893671833333336, "type": "electric_scooter", "bike_id": "a0b39c57e626656aa9992da941087606"}, {"rental_uris": {"android": "https://dc.lft.to/lastmile_qr_scan", "ios": "https://dc.lft.to/lastmile_qr_scan"}, "name": "3b50ab9b601c437be5dd3e35822f0277", "fusion_lat": 0.0, "lon": -77.000271, "is_disabled": 0, "is_reserved": 0, "fusion_lon": 0.0, "lat": 38.90025083333333, "type": "electric_scooter", "bike_id": "3b50ab9b601c437be5dd3e35822f0277"}, {"rental_uris": {"android": "https://dc.lft.to/lastmile_qr_scan", "ios": "https://dc.lft.to/lastmile_qr_scan"}, "name": "9bb27d2df4717d5d56ef87969f7ac56d", "fusion_lat": 0.0, "lon": -76.99568083333334, "is_disabled": 0, "is_reserved": 0, "fusion_lon": 0.0, "lat": 38.857597166666665, "type": "electric_scooter", "bike_id": "9bb27d2df4717d5d56ef87969f7ac56d"}, {"rental_uris": {"android": "https://dc.lft.to/lastmile_qr_scan", "ios": "https://dc.lft.to/lastmile_qr_scan"}, "name": "0b49a321f9c107c964a21cc520f837bd", "fusion_lat": 0.0, "lon": -77.0316695, "is_disabled": 0, "is_reserved": 0, "fusion_lon": 0.0, "lat": 38.897694666666666, "type": "electric_scooter", "bike_id": "0b49a321f9c107c964a21cc520f837bd"}, {"rental_uris": {"android": "https://dc.lft.to/lastmile_qr_scan", "ios": "https://dc.lft.to/lastmile_qr_scan"}, "name": "dc9a12d3259cdae4fb04df93e8814cea", "fusion_lat": 0.0, "lon": -77.04513816666666, "is_disabled": 0, "is_reserved": 0, "fusion_lon": 0.0, "lat": 38.903905, "type": "electric_scooter", "bike_id": "dc9a12d3259cdae4fb04df93e8814cea"}, {"rental_uris": {"android": "https://dc.lft.to/lastmile_qr_scan", "ios": "https://dc.lft.to/lastmile_qr_scan"}, "name": "e34e06b3fd394cb241e19f1e1cef3e4a", "fusion_lat": 0.0, "lon": -77.08442116666667, "is_disabled": 0, "is_reserved": 0, "fusion_lon": 0.0, "lat": 38.91177366666667, "type": "electric_scooter", "bike_id": "e34e06b3fd394cb241e19f1e1cef3e4a"}, {"rental_uris": {"android": "https://dc.lft.to/lastmile_qr_scan", "ios": "https://dc.lft.to/lastmile_qr_scan"}, "name": "ca8eac2572e43b49352a26a3bfa8385f", "fusion_lat": 0.0, "lon": -77.040585, "is_disabled": 0, "is_reserved": 0, "fusion_lon": 0.0, "lat": 38.917670333333334, "type": "electric_scooter", "bike_id": "ca8eac2572e43b49352a26a3bfa8385f"}, {"rental_uris": {"android": "https://dc.lft.to/lastmile_qr_scan", "ios": "https://dc.lft.to/lastmile_qr_scan"}, "name": "31f7cb3b1baa0ef941116f2e896f1b4f", "fusion_lat": 0.0, "lon": -77.0021015, "is_disabled": 0, "is_reserved": 0, "fusion_lon": 0.0, "lat": 38.89386783333333, "type": "electric_scooter", "bike_id": "31f7cb3b1baa0ef941116f2e896f1b4f"}, {"rental_uris": {"android": "https://dc.lft.to/lastmile_qr_scan", "ios": "https://dc.lft.to/lastmile_qr_scan"}, "name": "56c7fe3f9c9525e367bd126bb49d00a0", "fusion_lat": 0.0, "lon": -77.04965783333333, "is_disabled": 0, "is_reserved": 0, "fusion_lon": 0.0, "lat": 38.912664666666664, "type": "electric_scooter", "bike_id": "56c7fe3f9c9525e367bd126bb49d00a0"}, {"rental_uris": {"android": "https://dc.lft.to/lastmile_qr_scan", "ios": "https://dc.lft.to/lastmile_qr_scan"}, "name": "4e518227b50086cd6108e7edc24d0f6a", "fusion_lat": 0.0, "lon": -77.01104216666667, "is_disabled": 0, "is_reserved": 0, "fusion_lon": 0.0, "lat": 38.89603433333333, "type": "electric_scooter", "bike_id": "4e518227b50086cd6108e7edc24d0f6a"}, {"rental_uris": {"android": "https://dc.lft.to/lastmile_qr_scan", "ios": "https://dc.lft.to/lastmile_qr_scan"}, "name": "3dd7821ae2c400be6d2ee9937eabfbe4", "fusion_lat": 0.0, "lon": -77.0327735, "is_disabled": 0, "is_reserved": 0, "fusion_lon": 0.0, "lat": 38.936338, "type": "electric_scooter", "bike_id": "3dd7821ae2c400be6d2ee9937eabfbe4"}, {"rental_uris": {"android": "https://dc.lft.to/lastmile_qr_scan", "ios": "https://dc.lft.to/lastmile_qr_scan"}, "name": "3423815deeb719b89317c1e2bf79a89d", "fusion_lat": 0.0, "lon": -77.00372333333334, "is_disabled": 0, "is_reserved": 0, "fusion_lon": 0.0, "lat": 38.905918666666665, "type": "electric_scooter", "bike_id": "3423815deeb719b89317c1e2bf79a89d"}, {"rental_uris": {"android": "https://dc.lft.to/lastmile_qr_scan", "ios": "https://dc.lft.to/lastmile_qr_scan"}, "name": "56e9db3a569beb69987d5fa1784b07fc", "fusion_lat": 0.0, "lon": -77.03424183333334, "is_disabled": 0, "is_reserved": 0, "fusion_lon": 0.0, "lat": 38.904835, "type": "electric_scooter", "bike_id": "56e9db3a569beb69987d5fa1784b07fc"}, {"rental_uris": {"android": "https://dc.lft.to/lastmile_qr_scan", "ios": "https://dc.lft.to/lastmile_qr_scan"}, "name": "bc7c60328aeb9b733640c9146fb76429", "fusion_lat": 0.0, "lon": -76.923437, "is_disabled": 0, "is_reserved": 0, "fusion_lon": 0.0, "lat": 38.887891833333335, "type": "electric_bike", "bike_id": "bc7c60328aeb9b733640c9146fb76429"}, {"rental_uris": {"android": "https://dc.lft.to/lastmile_qr_scan", "ios": "https://dc.lft.to/lastmile_qr_scan"}, "name": "65dec26f220c4c5a9ef4dca0c621c66d", "fusion_lat": 0.0, "lon": -76.9902875, "is_disabled": 0, "is_reserved": 0, "fusion_lon": 0.0, "lat": 38.86405366666666, "type": "electric_scooter", "bike_id": "65dec26f220c4c5a9ef4dca0c621c66d"}, {"rental_uris": {"android": "https://dc.lft.to/lastmile_qr_scan", "ios": "https://dc.lft.to/lastmile_qr_scan"}, "name": "049318e101fc1db4b698111f57a5a27e", "fusion_lat": 0.0, "lon": -77.037004, "is_disabled": 0, "is_reserved": 0, "fusion_lon": 0.0, "lat": 38.926428, "type": "electric_scooter", "bike_id": "049318e101fc1db4b698111f57a5a27e"}, {"rental_uris": {"android": "https://dc.lft.to/lastmile_qr_scan", "ios": "https://dc.lft.to/lastmile_qr_scan"}, "name": "2dbcbb9d20b7e3b21316df7ab5f463df", "fusion_lat": 0.0, "lon": -77.003372, "is_disabled": 0, "is_reserved": 0, "fusion_lon": 0.0, "lat": 38.89353833333333, "type": "electric_scooter", "bike_id": "2dbcbb9d20b7e3b21316df7ab5f463df"}, {"rental_uris": {"android": "https://dc.lft.to/lastmile_qr_scan", "ios": "https://dc.lft.to/lastmile_qr_scan"}, "name": "366b8854eebb32edbe34629394bb5d0d", "fusion_lat": 0.0, "lon": -77.08531916666666, "is_disabled": 0, "is_reserved": 0, "fusion_lon": 0.0, "lat": 38.8564875, "type": "electric_bike", "bike_id": "366b8854eebb32edbe34629394bb5d0d"}, {"rental_uris": {"android": "https://dc.lft.to/lastmile_qr_scan", "ios": "https://dc.lft.to/lastmile_qr_scan"}, "name": "1f51fa569ebf20551507255365c8bb6b", "fusion_lat": 0.0, "lon": -77.048412, "is_disabled": 0, "is_reserved": 0, "fusion_lon": 0.0, "lat": 38.91344, "type": "electric_scooter", "bike_id": "1f51fa569ebf20551507255365c8bb6b"}, {"rental_uris": {"android": "https://dc.lft.to/lastmile_qr_scan", "ios": "https://dc.lft.to/lastmile_qr_scan"}, "name": "261fd482c33ac6cfcc5d70f27d651af2", "fusion_lat": 0.0, "lon": -77.01085016666667, "is_disabled": 0, "is_reserved": 0, "fusion_lon": 0.0, "lat": 38.903406, "type": "electric_scooter", "bike_id": "261fd482c33ac6cfcc5d70f27d651af2"}, {"rental_uris": {"android": "https://dc.lft.to/lastmile_qr_scan", "ios": "https://dc.lft.to/lastmile_qr_scan"}, "name": "e084456da2e78dff4f0c354cea4104fb", "fusion_lat": 0.0, "lon": -76.948433, "is_disabled": 0, "is_reserved": 0, "fusion_lon": 0.0, "lat": 38.89485716666667, "type": "electric_scooter", "bike_id": "e084456da2e78dff4f0c354cea4104fb"}, {"rental_uris": {"android": "https://dc.lft.to/lastmile_qr_scan", "ios": "https://dc.lft.to/lastmile_qr_scan"}, "name": "8538edaa9f19283767e894de6a010d07", "fusion_lat": 0.0, "lon": -76.98847866666667, "is_disabled": 0, "is_reserved": 0, "fusion_lon": 0.0, "lat": 38.90196066666667, "type": "electric_scooter", "bike_id": "8538edaa9f19283767e894de6a010d07"}, {"rental_uris": {"android": "https://dc.lft.to/lastmile_qr_scan", "ios": "https://dc.lft.to/lastmile_qr_scan"}, "name": "89360ebef7ecc7c440e6deee41ea1fb8", "fusion_lat": 0.0, "lon": -77.0269825, "is_disabled": 0, "is_reserved": 0, "fusion_lon": 0.0, "lat": 38.908458833333334, "type": "electric_scooter", "bike_id": "89360ebef7ecc7c440e6deee41ea1fb8"}, {"rental_uris": {"android": "https://dc.lft.to/lastmile_qr_scan", "ios": "https://dc.lft.to/lastmile_qr_scan"}, "name": "4672f8a49773379ce6f7f982fc8a34a4", "fusion_lat": 0.0, "lon": -77.0477915, "is_disabled": 0, "is_reserved": 0, "fusion_lon": 0.0, "lat": 38.912184333333336, "type": "electric_scooter", "bike_id": "4672f8a49773379ce6f7f982fc8a34a4"}, {"rental_uris": {"android": "https://dc.lft.to/lastmile_qr_scan", "ios": "https://dc.lft.to/lastmile_qr_scan"}, "name": "6f53345cb3c62f67d5968bc927d97141", "fusion_lat": 0.0, "lon": -76.937446, "is_disabled": 0, "is_reserved": 0, "fusion_lon": 0.0, "lat": 38.8901835, "type": "electric_scooter", "bike_id": "6f53345cb3c62f67d5968bc927d97141"}, {"rental_uris": {"android": "https://dc.lft.to/lastmile_qr_scan", "ios": "https://dc.lft.to/lastmile_qr_scan"}, "name": "d8f3ab7c54fd0b248a1487684d3456e8", "fusion_lat": 0.0, "lon": -77.047058, "is_disabled": 0, "is_reserved": 0, "fusion_lon": 0.0, "lat": 38.91269033333333, "type": "electric_scooter", "bike_id": "d8f3ab7c54fd0b248a1487684d3456e8"}, {"rental_uris": {"android": "https://dc.lft.to/lastmile_qr_scan", "ios": "https://dc.lft.to/lastmile_qr_scan"}, "name": "e6d83f751e8c5138984b35a6b018204d", "fusion_lat": 0.0, "lon": -77.0424785, "is_disabled": 0, "is_reserved": 0, "fusion_lon": 0.0, "lat": 38.917912333333334, "type": "electric_scooter", "bike_id": "e6d83f751e8c5138984b35a6b018204d"}, {"rental_uris": {"android": "https://dc.lft.to/lastmile_qr_scan", "ios": "https://dc.lft.to/lastmile_qr_scan"}, "name": "31b594547db295037a0bb1df1bd924d1", "fusion_lat": 0.0, "lon": -76.99877383333333, "is_disabled": 0, "is_reserved": 0, "fusion_lon": 0.0, "lat": 38.92054433333333, "type": "electric_scooter", "bike_id": "31b594547db295037a0bb1df1bd924d1"}, {"rental_uris": {"android": "https://dc.lft.to/lastmile_qr_scan", "ios": "https://dc.lft.to/lastmile_qr_scan"}, "name": "ccb5ad6d41daafcf44da12f57e97a156", "fusion_lat": 0.0, "lon": -76.9488855, "is_disabled": 0, "is_reserved": 0, "fusion_lon": 0.0, "lat": 38.89509233333333, "type": "electric_scooter", "bike_id": "ccb5ad6d41daafcf44da12f57e97a156"}, {"rental_uris": {"android": "https://dc.lft.to/lastmile_qr_scan", "ios": "https://dc.lft.to/lastmile_qr_scan"}, "name": "2168f32419804bd46b7e69ee987c2fee", "fusion_lat": 0.0, "lon": -77.041793, "is_disabled": 0, "is_reserved": 0, "fusion_lon": 0.0, "lat": 38.91413883333333, "type": "electric_scooter", "bike_id": "2168f32419804bd46b7e69ee987c2fee"}, {"rental_uris": {"android": "https://dc.lft.to/lastmile_qr_scan", "ios": "https://dc.lft.to/lastmile_qr_scan"}, "name": "8a5601d9c4e13bdfe68b25e9c3364f19", "fusion_lat": 0.0, "lon": -77.04235116666666, "is_disabled": 0, "is_reserved": 0, "fusion_lon": 0.0, "lat": 38.921699, "type": "electric_scooter", "bike_id": "8a5601d9c4e13bdfe68b25e9c3364f19"}, {"rental_uris": {"android": "https://dc.lft.to/lastmile_qr_scan", "ios": "https://dc.lft.to/lastmile_qr_scan"}, "name": "ffc446e5461acbbfb35d35ad41ede580", "fusion_lat": 0.0, "lon": -77.00335666666666, "is_disabled": 0, "is_reserved": 0, "fusion_lon": 0.0, "lat": 38.8935695, "type": "electric_scooter", "bike_id": "ffc446e5461acbbfb35d35ad41ede580"}, {"rental_uris": {"android": "https://dc.lft.to/lastmile_qr_scan", "ios": "https://dc.lft.to/lastmile_qr_scan"}, "name": "ec6bfb06c93a357799426e5436754cec", "fusion_lat": 0.0, "lon": -76.99513866666666, "is_disabled": 0, "is_reserved": 0, "fusion_lon": 0.0, "lat": 38.895519, "type": "electric_scooter", "bike_id": "ec6bfb06c93a357799426e5436754cec"}, {"rental_uris": {"android": "https://dc.lft.to/lastmile_qr_scan", "ios": "https://dc.lft.to/lastmile_qr_scan"}, "name": "8d877f4a1eeef084eedb57185f2d8441", "fusion_lat": 0.0, "lon": -76.9912605, "is_disabled": 0, "is_reserved": 0, "fusion_lon": 0.0, "lat": 38.93386533333333, "type": "electric_scooter", "bike_id": "8d877f4a1eeef084eedb57185f2d8441"}, {"rental_uris": {"android": "https://dc.lft.to/lastmile_qr_scan", "ios": "https://dc.lft.to/lastmile_qr_scan"}, "name": "630fe9a5612b3c0b345e49bdb3cf10bb", "fusion_lat": 0.0, "lon": -77.04240066666667, "is_disabled": 0, "is_reserved": 0, "fusion_lon": 0.0, "lat": 38.9341045, "type": "electric_scooter", "bike_id": "630fe9a5612b3c0b345e49bdb3cf10bb"}, {"rental_uris": {"android": "https://dc.lft.to/lastmile_qr_scan", "ios": "https://dc.lft.to/lastmile_qr_scan"}, "name": "1884956ebbec44a9c918e99df0bf3062", "fusion_lat": 0.0, "lon": -77.005178, "is_disabled": 0, "is_reserved": 0, "fusion_lon": 0.0, "lat": 38.8746585, "type": "electric_scooter", "bike_id": "1884956ebbec44a9c918e99df0bf3062"}, {"rental_uris": {"android": "https://dc.lft.to/lastmile_qr_scan", "ios": "https://dc.lft.to/lastmile_qr_scan"}, "name": "6ea84a3318b21a64bdc8983b21b7d73a", "fusion_lat": 0.0, "lon": -77.01731816666667, "is_disabled": 0, "is_reserved": 0, "fusion_lon": 0.0, "lat": 38.87704383333333, "type": "electric_scooter", "bike_id": "6ea84a3318b21a64bdc8983b21b7d73a"}, {"rental_uris": {"android": "https://dc.lft.to/lastmile_qr_scan", "ios": "https://dc.lft.to/lastmile_qr_scan"}, "name": "19f45ddff7dfc77993fd36d2f6ff84eb", "fusion_lat": 0.0, "lon": -77.00279583333334, "is_disabled": 0, "is_reserved": 0, "fusion_lon": 0.0, "lat": 38.939195166666664, "type": "electric_scooter", "bike_id": "19f45ddff7dfc77993fd36d2f6ff84eb"}, {"rental_uris": {"android": "https://dc.lft.to/lastmile_qr_scan", "ios": "https://dc.lft.to/lastmile_qr_scan"}, "name": "d966420b2599c8046ae06d0733a9689a", "fusion_lat": 0.0, "lon": -77.028142, "is_disabled": 0, "is_reserved": 0, "fusion_lon": 0.0, "lat": 38.902605333333334, "type": "electric_scooter", "bike_id": "d966420b2599c8046ae06d0733a9689a"}, {"rental_uris": {"android": "https://dc.lft.to/lastmile_qr_scan", "ios": "https://dc.lft.to/lastmile_qr_scan"}, "name": "458f96f3d5a4c77b2ecf5f56a8d986df", "fusion_lat": 0.0, "lon": -77.0223015, "is_disabled": 0, "is_reserved": 0, "fusion_lon": 0.0, "lat": 38.887685, "type": "electric_scooter", "bike_id": "458f96f3d5a4c77b2ecf5f56a8d986df"}, {"rental_uris": {"android": "https://dc.lft.to/lastmile_qr_scan", "ios": "https://dc.lft.to/lastmile_qr_scan"}, "name": "d6b37ee7f55b95c264cc84b38babdd5e", "fusion_lat": 0.0, "lon": -77.00602166666667, "is_disabled": 0, "is_reserved": 0, "fusion_lon": 0.0, "lat": 38.883742833333336, "type": "electric_scooter", "bike_id": "d6b37ee7f55b95c264cc84b38babdd5e"}, {"rental_uris": {"android": "https://dc.lft.to/lastmile_qr_scan", "ios": "https://dc.lft.to/lastmile_qr_scan"}, "name": "d73663f4eb1e99dd6481c78d576be56d", "fusion_lat": 0.0, "lon": -77.00916633333334, "is_disabled": 0, "is_reserved": 0, "fusion_lon": 0.0, "lat": 38.95474083333333, "type": "electric_scooter", "bike_id": "d73663f4eb1e99dd6481c78d576be56d"}, {"rental_uris": {"android": "https://dc.lft.to/lastmile_qr_scan", "ios": "https://dc.lft.to/lastmile_qr_scan"}, "name": "7b05541e6a6d441d966597ec86232346", "fusion_lat": 0.0, "lon": -77.0210795, "is_disabled": 0, "is_reserved": 0, "fusion_lon": 0.0, "lat": 39.023005833333336, "type": "electric_bike", "bike_id": "7b05541e6a6d441d966597ec86232346"}, {"rental_uris": {"android": "https://dc.lft.to/lastmile_qr_scan", "ios": "https://dc.lft.to/lastmile_qr_scan"}, "name": "98be7f48eb604f6102f4ed986fba3743", "fusion_lat": 0.0, "lon": -77.07425033333334, "is_disabled": 0, "is_reserved": 0, "fusion_lon": 0.0, "lat": 38.910899666666666, "type": "electric_scooter", "bike_id": "98be7f48eb604f6102f4ed986fba3743"}, {"rental_uris": {"android": "https://dc.lft.to/lastmile_qr_scan", "ios": "https://dc.lft.to/lastmile_qr_scan"}, "name": "0f3a105ef0d7febd349f3636bbcff71b", "fusion_lat": 0.0, "lon": -77.04603583333333, "is_disabled": 0, "is_reserved": 0, "fusion_lon": 0.0, "lat": 38.910681333333336, "type": "electric_scooter", "bike_id": "0f3a105ef0d7febd349f3636bbcff71b"}, {"rental_uris": {"android": "https://dc.lft.to/lastmile_qr_scan", "ios": "https://dc.lft.to/lastmile_qr_scan"}, "name": "54b11ffe30d75ca63226c40fd850d1cd", "fusion_lat": 0.0, "lon": -77.03162616666667, "is_disabled": 0, "is_reserved": 0, "fusion_lon": 0.0, "lat": 38.9125785, "type": "electric_scooter", "bike_id": "54b11ffe30d75ca63226c40fd850d1cd"}, {"rental_uris": {"android": "https://dc.lft.to/lastmile_qr_scan", "ios": "https://dc.lft.to/lastmile_qr_scan"}, "name": "bba9dde60dcb0f8c586ad195c80ca3ba", "fusion_lat": 0.0, "lon": -76.99390166666667, "is_disabled": 0, "is_reserved": 0, "fusion_lon": 0.0, "lat": 38.884533, "type": "electric_scooter", "bike_id": "bba9dde60dcb0f8c586ad195c80ca3ba"}, {"rental_uris": {"android": "https://dc.lft.to/lastmile_qr_scan", "ios": "https://dc.lft.to/lastmile_qr_scan"}, "name": "d6764637568f2cd0dac381545ccfdccf", "fusion_lat": 0.0, "lon": -77.06258633333333, "is_disabled": 0, "is_reserved": 0, "fusion_lon": 0.0, "lat": 38.9052125, "type": "electric_scooter", "bike_id": "d6764637568f2cd0dac381545ccfdccf"}, {"rental_uris": {"android": "https://dc.lft.to/lastmile_qr_scan", "ios": "https://dc.lft.to/lastmile_qr_scan"}, "name": "ae99dcd5e14129cddc5681d88569bbfa", "fusion_lat": 0.0, "lon": -77.046758, "is_disabled": 0, "is_reserved": 0, "fusion_lon": 0.0, "lat": 38.895531166666665, "type": "electric_scooter", "bike_id": "ae99dcd5e14129cddc5681d88569bbfa"}, {"rental_uris": {"android": "https://dc.lft.to/lastmile_qr_scan", "ios": "https://dc.lft.to/lastmile_qr_scan"}, "name": "f561f5efdd658cd989de0844de29f572", "fusion_lat": 0.0, "lon": -77.03441183333334, "is_disabled": 0, "is_reserved": 0, "fusion_lon": 0.0, "lat": 38.928822333333336, "type": "electric_scooter", "bike_id": "f561f5efdd658cd989de0844de29f572"}, {"rental_uris": {"android": "https://dc.lft.to/lastmile_qr_scan", "ios": "https://dc.lft.to/lastmile_qr_scan"}, "name": "1d499e84ab052c41ae793a68aa026a7e", "fusion_lat": 0.0, "lon": -77.04772033333333, "is_disabled": 0, "is_reserved": 0, "fusion_lon": 0.0, "lat": 38.905158, "type": "electric_scooter", "bike_id": "1d499e84ab052c41ae793a68aa026a7e"}, {"rental_uris": {"android": "https://dc.lft.to/lastmile_qr_scan", "ios": "https://dc.lft.to/lastmile_qr_scan"}, "name": "6d6ebac3f1dd34513ee01727083d86bd", "fusion_lat": 0.0, "lon": -77.04238533333333, "is_disabled": 0, "is_reserved": 0, "fusion_lon": 0.0, "lat": 38.90978633333334, "type": "electric_scooter", "bike_id": "6d6ebac3f1dd34513ee01727083d86bd"}, {"rental_uris": {"android": "https://dc.lft.to/lastmile_qr_scan", "ios": "https://dc.lft.to/lastmile_qr_scan"}, "name": "af1731cdaffe3d051dca0b78b090f27c", "fusion_lat": 0.0, "lon": -77.03988483333333, "is_disabled": 0, "is_reserved": 0, "fusion_lon": 0.0, "lat": 38.90918766666667, "type": "electric_scooter", "bike_id": "af1731cdaffe3d051dca0b78b090f27c"}, {"rental_uris": {"android": "https://dc.lft.to/lastmile_qr_scan", "ios": "https://dc.lft.to/lastmile_qr_scan"}, "name": "3f93a5f8cdd4f1db7cfff20025dd37f2", "fusion_lat": 0.0, "lon": -77.06042566666666, "is_disabled": 0, "is_reserved": 0, "fusion_lon": 0.0, "lat": 38.9393035, "type": "electric_scooter", "bike_id": "3f93a5f8cdd4f1db7cfff20025dd37f2"}, {"rental_uris": {"android": "https://dc.lft.to/lastmile_qr_scan", "ios": "https://dc.lft.to/lastmile_qr_scan"}, "name": "2361bdec1e30901063d3115412b1e1e2", "fusion_lat": 0.0, "lon": -77.1290195, "is_disabled": 0, "is_reserved": 0, "fusion_lon": 0.0, "lat": 38.863767333333335, "type": "electric_bike", "bike_id": "2361bdec1e30901063d3115412b1e1e2"}, {"rental_uris": {"android": "https://dc.lft.to/lastmile_qr_scan", "ios": "https://dc.lft.to/lastmile_qr_scan"}, "name": "098b818044a19cfbd9de0ab4cdcdad35", "fusion_lat": 0.0, "lon": -77.005849, "is_disabled": 0, "is_reserved": 0, "fusion_lon": 0.0, "lat": 38.8853135, "type": "electric_scooter", "bike_id": "098b818044a19cfbd9de0ab4cdcdad35"}, {"rental_uris": {"android": "https://dc.lft.to/lastmile_qr_scan", "ios": "https://dc.lft.to/lastmile_qr_scan"}, "name": "2c96c1eb68866e106d7fb710667df410", "fusion_lat": 0.0, "lon": -77.091619, "is_disabled": 0, "is_reserved": 0, "fusion_lon": 0.0, "lat": 38.967599666666665, "type": "electric_bike", "bike_id": "2c96c1eb68866e106d7fb710667df410"}, {"rental_uris": {"android": "https://dc.lft.to/lastmile_qr_scan", "ios": "https://dc.lft.to/lastmile_qr_scan"}, "name": "f49b0eb9b7e59270d0bb1204e221923b", "fusion_lat": 0.0, "lon": -76.996968, "is_disabled": 0, "is_reserved": 0, "fusion_lon": 0.0, "lat": 38.8387025, "type": "electric_scooter", "bike_id": "f49b0eb9b7e59270d0bb1204e221923b"}, {"rental_uris": {"android": "https://dc.lft.to/lastmile_qr_scan", "ios": "https://dc.lft.to/lastmile_qr_scan"}, "name": "73fd4d5cbf5901231ef5a3901f589f8e", "fusion_lat": 0.0, "lon": -77.03681933333333, "is_disabled": 0, "is_reserved": 0, "fusion_lon": 0.0, "lat": 38.922637333333334, "type": "electric_scooter", "bike_id": "73fd4d5cbf5901231ef5a3901f589f8e"}, {"rental_uris": {"android": "https://dc.lft.to/lastmile_qr_scan", "ios": "https://dc.lft.to/lastmile_qr_scan"}, "name": "79e627551a79655074cec9022b9eece4", "fusion_lat": 0.0, "lon": -77.03727516666666, "is_disabled": 0, "is_reserved": 0, "fusion_lon": 0.0, "lat": 38.91813066666667, "type": "electric_scooter", "bike_id": "79e627551a79655074cec9022b9eece4"}, {"rental_uris": {"android": "https://dc.lft.to/lastmile_qr_scan", "ios": "https://dc.lft.to/lastmile_qr_scan"}, "name": "60c6434a0e1104c1b4c512d6cd9e3ac7", "fusion_lat": 0.0, "lon": -76.96695683333333, "is_disabled": 0, "is_reserved": 0, "fusion_lon": 0.0, "lat": 38.8589495, "type": "electric_scooter", "bike_id": "60c6434a0e1104c1b4c512d6cd9e3ac7"}, {"rental_uris": {"android": "https://dc.lft.to/lastmile_qr_scan", "ios": "https://dc.lft.to/lastmile_qr_scan"}, "name": "64334e70ab5d52bd43f1ea1324a3e0e6", "fusion_lat": 0.0, "lon": -77.04426533333333, "is_disabled": 0, "is_reserved": 0, "fusion_lon": 0.0, "lat": 38.874359, "type": "electric_scooter", "bike_id": "64334e70ab5d52bd43f1ea1324a3e0e6"}, {"rental_uris": {"android": "https://dc.lft.to/lastmile_qr_scan", "ios": "https://dc.lft.to/lastmile_qr_scan"}, "name": "551b29cd141819670f15003fddd71632", "fusion_lat": 0.0, "lon": -77.0466175, "is_disabled": 0, "is_reserved": 0, "fusion_lon": 0.0, "lat": 38.89300566666667, "type": "electric_scooter", "bike_id": "551b29cd141819670f15003fddd71632"}, {"rental_uris": {"android": "https://dc.lft.to/lastmile_qr_scan", "ios": "https://dc.lft.to/lastmile_qr_scan"}, "name": "9b3afb36dfb79c7da60c87c9e9820119", "fusion_lat": 0.0, "lon": -77.0051875, "is_disabled": 0, "is_reserved": 0, "fusion_lon": 0.0, "lat": 38.87467733333333, "type": "electric_scooter", "bike_id": "9b3afb36dfb79c7da60c87c9e9820119"}, {"rental_uris": {"android": "https://dc.lft.to/lastmile_qr_scan", "ios": "https://dc.lft.to/lastmile_qr_scan"}, "name": "8f9d9ce223f5584f946240f7b7cb28c4", "fusion_lat": 0.0, "lon": -77.00888616666667, "is_disabled": 0, "is_reserved": 0, "fusion_lon": 0.0, "lat": 38.9057935, "type": "electric_scooter", "bike_id": "8f9d9ce223f5584f946240f7b7cb28c4"}, {"rental_uris": {"android": "https://dc.lft.to/lastmile_qr_scan", "ios": "https://dc.lft.to/lastmile_qr_scan"}, "name": "d3faab1073dde2d325c6e664e599a4d8", "fusion_lat": 0.0, "lon": -77.029651, "is_disabled": 0, "is_reserved": 0, "fusion_lon": 0.0, "lat": 38.9214735, "type": "electric_scooter", "bike_id": "d3faab1073dde2d325c6e664e599a4d8"}, {"rental_uris": {"android": "https://dc.lft.to/lastmile_qr_scan", "ios": "https://dc.lft.to/lastmile_qr_scan"}, "name": "987550daf87a279adedb3c4d933fa5d9", "fusion_lat": 0.0, "lon": -77.0344675, "is_disabled": 0, "is_reserved": 0, "fusion_lon": 0.0, "lat": 38.918038, "type": "electric_scooter", "bike_id": "987550daf87a279adedb3c4d933fa5d9"}, {"rental_uris": {"android": "https://dc.lft.to/lastmile_qr_scan", "ios": "https://dc.lft.to/lastmile_qr_scan"}, "name": "286a9cf5f3236b79701c7c429eb9488c", "fusion_lat": 0.0, "lon": -76.99072316666667, "is_disabled": 0, "is_reserved": 0, "fusion_lon": 0.0, "lat": 38.898148666666664, "type": "electric_bike", "bike_id": "286a9cf5f3236b79701c7c429eb9488c"}, {"rental_uris": {"android": "https://dc.lft.to/lastmile_qr_scan", "ios": "https://dc.lft.to/lastmile_qr_scan"}, "name": "f07dc618c634f17a81f7ba96550d995d", "fusion_lat": 0.0, "lon": -76.99490666666667, "is_disabled": 0, "is_reserved": 0, "fusion_lon": 0.0, "lat": 38.86241, "type": "electric_scooter", "bike_id": "f07dc618c634f17a81f7ba96550d995d"}, {"rental_uris": {"android": "https://dc.lft.to/lastmile_qr_scan", "ios": "https://dc.lft.to/lastmile_qr_scan"}, "name": "865396ee7b7eff3a8a5b43f709002c75", "fusion_lat": 0.0, "lon": -77.02744483333333, "is_disabled": 0, "is_reserved": 0, "fusion_lon": 0.0, "lat": 38.95607416666667, "type": "electric_scooter", "bike_id": "865396ee7b7eff3a8a5b43f709002c75"}, {"rental_uris": {"android": "https://dc.lft.to/lastmile_qr_scan", "ios": "https://dc.lft.to/lastmile_qr_scan"}, "name": "57377fa4318a5ebe5ee36ff94c1d1cff", "fusion_lat": 0.0, "lon": -77.02494816666666, "is_disabled": 0, "is_reserved": 0, "fusion_lon": 0.0, "lat": 38.941960333333334, "type": "electric_scooter", "bike_id": "57377fa4318a5ebe5ee36ff94c1d1cff"}, {"rental_uris": {"android": "https://dc.lft.to/lastmile_qr_scan", "ios": "https://dc.lft.to/lastmile_qr_scan"}, "name": "2f953ad7ff48fb10dd6e39ba9e32ccaa", "fusion_lat": 0.0, "lon": -77.005971, "is_disabled": 0, "is_reserved": 0, "fusion_lon": 0.0, "lat": 38.9055905, "type": "electric_scooter", "bike_id": "2f953ad7ff48fb10dd6e39ba9e32ccaa"}, {"rental_uris": {"android": "https://dc.lft.to/lastmile_qr_scan", "ios": "https://dc.lft.to/lastmile_qr_scan"}, "name": "468e21e14f21d6180d6fc95ba7424c7f", "fusion_lat": 0.0, "lon": -77.02646883333334, "is_disabled": 0, "is_reserved": 0, "fusion_lon": 0.0, "lat": 38.902691, "type": "electric_scooter", "bike_id": "468e21e14f21d6180d6fc95ba7424c7f"}, {"rental_uris": {"android": "https://dc.lft.to/lastmile_qr_scan", "ios": "https://dc.lft.to/lastmile_qr_scan"}, "name": "d6508565dd3721a756b18c2c2974c128", "fusion_lat": 0.0, "lon": -77.04822416666667, "is_disabled": 0, "is_reserved": 0, "fusion_lon": 0.0, "lat": 38.91493916666667, "type": "electric_scooter", "bike_id": "d6508565dd3721a756b18c2c2974c128"}, {"rental_uris": {"android": "https://dc.lft.to/lastmile_qr_scan", "ios": "https://dc.lft.to/lastmile_qr_scan"}, "name": "20073b8b06a6211532e4d85009188b55", "fusion_lat": 0.0, "lon": -77.03479066666667, "is_disabled": 0, "is_reserved": 0, "fusion_lon": 0.0, "lat": 38.91117283333333, "type": "electric_scooter", "bike_id": "20073b8b06a6211532e4d85009188b55"}, {"rental_uris": {"android": "https://dc.lft.to/lastmile_qr_scan", "ios": "https://dc.lft.to/lastmile_qr_scan"}, "name": "3c6937a865dfb61f1163612a366bae6a", "fusion_lat": 0.0, "lon": -77.0462845, "is_disabled": 0, "is_reserved": 0, "fusion_lon": 0.0, "lat": 38.919059, "type": "electric_scooter", "bike_id": "3c6937a865dfb61f1163612a366bae6a"}, {"rental_uris": {"android": "https://dc.lft.to/lastmile_qr_scan", "ios": "https://dc.lft.to/lastmile_qr_scan"}, "name": "d3a72bf083605caf98338c44d1523a2c", "fusion_lat": 0.0, "lon": -77.00037383333333, "is_disabled": 0, "is_reserved": 0, "fusion_lon": 0.0, "lat": 38.876398, "type": "electric_scooter", "bike_id": "d3a72bf083605caf98338c44d1523a2c"}, {"rental_uris": {"android": "https://dc.lft.to/lastmile_qr_scan", "ios": "https://dc.lft.to/lastmile_qr_scan"}, "name": "3532204a50e4a150ccfe26eeb0d09f29", "fusion_lat": 0.0, "lon": -76.91658366666667, "is_disabled": 0, "is_reserved": 0, "fusion_lon": 0.0, "lat": 38.86860333333333, "type": "electric_bike", "bike_id": "3532204a50e4a150ccfe26eeb0d09f29"}, {"rental_uris": {"android": "https://dc.lft.to/lastmile_qr_scan", "ios": "https://dc.lft.to/lastmile_qr_scan"}, "name": "8f10a98f752a17441c1b5c88709d6d73", "fusion_lat": 0.0, "lon": -76.922155, "is_disabled": 0, "is_reserved": 0, "fusion_lon": 0.0, "lat": 38.89937416666667, "type": "electric_scooter", "bike_id": "8f10a98f752a17441c1b5c88709d6d73"}, {"rental_uris": {"android": "https://dc.lft.to/lastmile_qr_scan", "ios": "https://dc.lft.to/lastmile_qr_scan"}, "name": "20b67af89d3db51c63c66458ea806d00", "fusion_lat": 0.0, "lon": -77.025694, "is_disabled": 0, "is_reserved": 0, "fusion_lon": 0.0, "lat": 38.89508683333333, "type": "electric_scooter", "bike_id": "20b67af89d3db51c63c66458ea806d00"}, {"rental_uris": {"android": "https://dc.lft.to/lastmile_qr_scan", "ios": "https://dc.lft.to/lastmile_qr_scan"}, "name": "82a4d430948580af2944d32824f01af5", "fusion_lat": 0.0, "lon": -77.12266416666667, "is_disabled": 0, "is_reserved": 0, "fusion_lon": 0.0, "lat": 38.897346666666664, "type": "electric_bike", "bike_id": "82a4d430948580af2944d32824f01af5"}, {"rental_uris": {"android": "https://dc.lft.to/lastmile_qr_scan", "ios": "https://dc.lft.to/lastmile_qr_scan"}, "name": "056bb0afd52d890224b27837753bdf2e", "fusion_lat": 0.0, "lon": -76.94258183333334, "is_disabled": 0, "is_reserved": 0, "fusion_lon": 0.0, "lat": 38.896811166666666, "type": "electric_scooter", "bike_id": "056bb0afd52d890224b27837753bdf2e"}, {"rental_uris": {"android": "https://dc.lft.to/lastmile_qr_scan", "ios": "https://dc.lft.to/lastmile_qr_scan"}, "name": "69df95b5a3fc0b99117b870ca8bd4300", "fusion_lat": 0.0, "lon": -77.03256416666666, "is_disabled": 0, "is_reserved": 0, "fusion_lon": 0.0, "lat": 38.91818583333333, "type": "electric_scooter", "bike_id": "69df95b5a3fc0b99117b870ca8bd4300"}, {"rental_uris": {"android": "https://dc.lft.to/lastmile_qr_scan", "ios": "https://dc.lft.to/lastmile_qr_scan"}, "name": "032c6d14c15989ce6f0df62fd10f0b6f", "fusion_lat": 0.0, "lon": -77.04389466666667, "is_disabled": 0, "is_reserved": 0, "fusion_lon": 0.0, "lat": 38.906399, "type": "electric_scooter", "bike_id": "032c6d14c15989ce6f0df62fd10f0b6f"}, {"rental_uris": {"android": "https://dc.lft.to/lastmile_qr_scan", "ios": "https://dc.lft.to/lastmile_qr_scan"}, "name": "9342e87bc076febc735b34567d67ed9f", "fusion_lat": 0.0, "lon": -77.2340795, "is_disabled": 0, "is_reserved": 0, "fusion_lon": 0.0, "lat": 38.925211166666664, "type": "electric_bike", "bike_id": "9342e87bc076febc735b34567d67ed9f"}, {"rental_uris": {"android": "https://dc.lft.to/lastmile_qr_scan", "ios": "https://dc.lft.to/lastmile_qr_scan"}, "name": "c726ad619667574eb2f8d75735cb5695", "fusion_lat": 0.0, "lon": -77.073487, "is_disabled": 0, "is_reserved": 0, "fusion_lon": 0.0, "lat": 38.911059, "type": "electric_scooter", "bike_id": "c726ad619667574eb2f8d75735cb5695"}, {"rental_uris": {"android": "https://dc.lft.to/lastmile_qr_scan", "ios": "https://dc.lft.to/lastmile_qr_scan"}, "name": "8c53bd705c868e8c42c5162ec0bb4a48", "fusion_lat": 0.0, "lon": -77.04027266666667, "is_disabled": 0, "is_reserved": 0, "fusion_lon": 0.0, "lat": 38.91279766666667, "type": "electric_scooter", "bike_id": "8c53bd705c868e8c42c5162ec0bb4a48"}, {"rental_uris": {"android": "https://dc.lft.to/lastmile_qr_scan", "ios": "https://dc.lft.to/lastmile_qr_scan"}, "name": "5d44efae2c32353fdbee5523d780b724", "fusion_lat": 0.0, "lon": -77.03856433333333, "is_disabled": 0, "is_reserved": 0, "fusion_lon": 0.0, "lat": 38.912084166666666, "type": "electric_scooter", "bike_id": "5d44efae2c32353fdbee5523d780b724"}, {"rental_uris": {"android": "https://dc.lft.to/lastmile_qr_scan", "ios": "https://dc.lft.to/lastmile_qr_scan"}, "name": "8054946a72aac1f0fde2a444d35d49ca", "fusion_lat": 0.0, "lon": -77.0257705, "is_disabled": 0, "is_reserved": 0, "fusion_lon": 0.0, "lat": 38.92508216666667, "type": "electric_scooter", "bike_id": "8054946a72aac1f0fde2a444d35d49ca"}, {"rental_uris": {"android": "https://dc.lft.to/lastmile_qr_scan", "ios": "https://dc.lft.to/lastmile_qr_scan"}, "name": "1c4658e107ba6f4ebf0e14b69a464b0c", "fusion_lat": 0.0, "lon": -77.05320083333334, "is_disabled": 0, "is_reserved": 0, "fusion_lon": 0.0, "lat": 38.92758533333333, "type": "electric_scooter", "bike_id": "1c4658e107ba6f4ebf0e14b69a464b0c"}, {"rental_uris": {"android": "https://dc.lft.to/lastmile_qr_scan", "ios": "https://dc.lft.to/lastmile_qr_scan"}, "name": "1eacf6ddd466c09d45c6ae8a722a5a82", "fusion_lat": 0.0, "lon": -76.99004316666667, "is_disabled": 0, "is_reserved": 0, "fusion_lon": 0.0, "lat": 38.86507183333333, "type": "electric_scooter", "bike_id": "1eacf6ddd466c09d45c6ae8a722a5a82"}, {"rental_uris": {"android": "https://dc.lft.to/lastmile_qr_scan", "ios": "https://dc.lft.to/lastmile_qr_scan"}, "name": "7abfcd1d2f0df4cbfca581b90ce164c7", "fusion_lat": 0.0, "lon": -77.02231833333333, "is_disabled": 0, "is_reserved": 0, "fusion_lon": 0.0, "lat": 38.887697, "type": "electric_scooter", "bike_id": "7abfcd1d2f0df4cbfca581b90ce164c7"}, {"rental_uris": {"android": "https://dc.lft.to/lastmile_qr_scan", "ios": "https://dc.lft.to/lastmile_qr_scan"}, "name": "dbe06b34289daf3624d9a1dba9d6dbd3", "fusion_lat": 0.0, "lon": -77.02860416666667, "is_disabled": 0, "is_reserved": 0, "fusion_lon": 0.0, "lat": 38.922171, "type": "electric_scooter", "bike_id": "dbe06b34289daf3624d9a1dba9d6dbd3"}, {"rental_uris": {"android": "https://dc.lft.to/lastmile_qr_scan", "ios": "https://dc.lft.to/lastmile_qr_scan"}, "name": "36f748f36935d65592a9a88383db79cf", "fusion_lat": 0.0, "lon": -77.031967, "is_disabled": 0, "is_reserved": 0, "fusion_lon": 0.0, "lat": 38.90758866666667, "type": "electric_scooter", "bike_id": "36f748f36935d65592a9a88383db79cf"}, {"rental_uris": {"android": "https://dc.lft.to/lastmile_qr_scan", "ios": "https://dc.lft.to/lastmile_qr_scan"}, "name": "bacacf1da619793f9ded08ab4b5485cb", "fusion_lat": 0.0, "lon": -77.00592716666667, "is_disabled": 0, "is_reserved": 0, "fusion_lon": 0.0, "lat": 38.877049, "type": "electric_scooter", "bike_id": "bacacf1da619793f9ded08ab4b5485cb"}, {"rental_uris": {"android": "https://dc.lft.to/lastmile_qr_scan", "ios": "https://dc.lft.to/lastmile_qr_scan"}, "name": "3e32c63f0c5cc7ddac2d2a379ee683e2", "fusion_lat": 0.0, "lon": -77.02511683333333, "is_disabled": 0, "is_reserved": 0, "fusion_lon": 0.0, "lat": 38.93411366666667, "type": "electric_bike", "bike_id": "3e32c63f0c5cc7ddac2d2a379ee683e2"}, {"rental_uris": {"android": "https://dc.lft.to/lastmile_qr_scan", "ios": "https://dc.lft.to/lastmile_qr_scan"}, "name": "751a42f68aa36147f8c23bb9594eb973", "fusion_lat": 0.0, "lon": -76.948749, "is_disabled": 0, "is_reserved": 0, "fusion_lon": 0.0, "lat": 38.895822, "type": "electric_scooter", "bike_id": "751a42f68aa36147f8c23bb9594eb973"}, {"rental_uris": {"android": "https://dc.lft.to/lastmile_qr_scan", "ios": "https://dc.lft.to/lastmile_qr_scan"}, "name": "71cddae67033552a8ec669ae389fcfe0", "fusion_lat": 0.0, "lon": -76.9343425, "is_disabled": 0, "is_reserved": 0, "fusion_lon": 0.0, "lat": 38.8996575, "type": "electric_scooter", "bike_id": "71cddae67033552a8ec669ae389fcfe0"}, {"rental_uris": {"android": "https://dc.lft.to/lastmile_qr_scan", "ios": "https://dc.lft.to/lastmile_qr_scan"}, "name": "2d7abead319e3f3a0c5be969903f5d1d", "fusion_lat": 0.0, "lon": -77.03701816666667, "is_disabled": 0, "is_reserved": 0, "fusion_lon": 0.0, "lat": 38.92646333333333, "type": "electric_scooter", "bike_id": "2d7abead319e3f3a0c5be969903f5d1d"}, {"rental_uris": {"android": "https://dc.lft.to/lastmile_qr_scan", "ios": "https://dc.lft.to/lastmile_qr_scan"}, "name": "439ef081bf027ce9fb614cceba43febb", "fusion_lat": 0.0, "lon": -77.02282883333334, "is_disabled": 0, "is_reserved": 0, "fusion_lon": 0.0, "lat": 38.916862, "type": "electric_scooter", "bike_id": "439ef081bf027ce9fb614cceba43febb"}, {"rental_uris": {"android": "https://dc.lft.to/lastmile_qr_scan", "ios": "https://dc.lft.to/lastmile_qr_scan"}, "name": "82a6a506cd2c790322d7279b95f1a20a", "fusion_lat": 0.0, "lon": -76.99017183333333, "is_disabled": 0, "is_reserved": 0, "fusion_lon": 0.0, "lat": 38.86116066666666, "type": "electric_scooter", "bike_id": "82a6a506cd2c790322d7279b95f1a20a"}, {"rental_uris": {"android": "https://dc.lft.to/lastmile_qr_scan", "ios": "https://dc.lft.to/lastmile_qr_scan"}, "name": "7f219df978f227864d4f010138cfd944", "fusion_lat": 0.0, "lon": -77.06289233333334, "is_disabled": 0, "is_reserved": 0, "fusion_lon": 0.0, "lat": 38.904596166666664, "type": "electric_scooter", "bike_id": "7f219df978f227864d4f010138cfd944"}, {"rental_uris": {"android": "https://dc.lft.to/lastmile_qr_scan", "ios": "https://dc.lft.to/lastmile_qr_scan"}, "name": "7e8752b48737be3a5044472499274807", "fusion_lat": 0.0, "lon": -76.957564, "is_disabled": 0, "is_reserved": 0, "fusion_lon": 0.0, "lat": 38.88434016666667, "type": "electric_scooter", "bike_id": "7e8752b48737be3a5044472499274807"}, {"rental_uris": {"android": "https://dc.lft.to/lastmile_qr_scan", "ios": "https://dc.lft.to/lastmile_qr_scan"}, "name": "542a57bfa67b6c0ef23bd05fe1d75f97", "fusion_lat": 0.0, "lon": -77.02489116666666, "is_disabled": 0, "is_reserved": 0, "fusion_lon": 0.0, "lat": 38.97368133333333, "type": "electric_bike", "bike_id": "542a57bfa67b6c0ef23bd05fe1d75f97"}, {"rental_uris": {"android": "https://dc.lft.to/lastmile_qr_scan", "ios": "https://dc.lft.to/lastmile_qr_scan"}, "name": "047991a6ae72c26e4bd3b7115e1721f8", "fusion_lat": 0.0, "lon": -76.996306, "is_disabled": 0, "is_reserved": 0, "fusion_lon": 0.0, "lat": 38.84619883333333, "type": "electric_scooter", "bike_id": "047991a6ae72c26e4bd3b7115e1721f8"}, {"rental_uris": {"android": "https://dc.lft.to/lastmile_qr_scan", "ios": "https://dc.lft.to/lastmile_qr_scan"}, "name": "57e64d1efe825543cc4a36e518bbbb58", "fusion_lat": 0.0, "lon": -76.9671475, "is_disabled": 0, "is_reserved": 0, "fusion_lon": 0.0, "lat": 38.869528, "type": "electric_scooter", "bike_id": "57e64d1efe825543cc4a36e518bbbb58"}, {"rental_uris": {"android": "https://dc.lft.to/lastmile_qr_scan", "ios": "https://dc.lft.to/lastmile_qr_scan"}, "name": "645d0f7586b446d64b79a1954efb3f25", "fusion_lat": 0.0, "lon": -77.07099666666667, "is_disabled": 0, "is_reserved": 0, "fusion_lon": 0.0, "lat": 38.91965666666667, "type": "electric_scooter", "bike_id": "645d0f7586b446d64b79a1954efb3f25"}, {"rental_uris": {"android": "https://dc.lft.to/lastmile_qr_scan", "ios": "https://dc.lft.to/lastmile_qr_scan"}, "name": "c8402ccd1f2d480faa15f53265f0dcb9", "fusion_lat": 0.0, "lon": -77.02693933333333, "is_disabled": 0, "is_reserved": 0, "fusion_lon": 0.0, "lat": 38.90846366666667, "type": "electric_scooter", "bike_id": "c8402ccd1f2d480faa15f53265f0dcb9"}, {"rental_uris": {"android": "https://dc.lft.to/lastmile_qr_scan", "ios": "https://dc.lft.to/lastmile_qr_scan"}, "name": "2620b7d18016c7c4bab60911ab2232b0", "fusion_lat": 0.0, "lon": -77.112285, "is_disabled": 0, "is_reserved": 0, "fusion_lon": 0.0, "lat": 38.812281666666664, "type": "electric_bike", "bike_id": "2620b7d18016c7c4bab60911ab2232b0"}, {"rental_uris": {"android": "https://dc.lft.to/lastmile_qr_scan", "ios": "https://dc.lft.to/lastmile_qr_scan"}, "name": "c6dceff62c11719362f632f2edc96300", "fusion_lat": 0.0, "lon": -76.98335216666666, "is_disabled": 0, "is_reserved": 0, "fusion_lon": 0.0, "lat": 38.966075333333336, "type": "electric_bike", "bike_id": "c6dceff62c11719362f632f2edc96300"}, {"rental_uris": {"android": "https://dc.lft.to/lastmile_qr_scan", "ios": "https://dc.lft.to/lastmile_qr_scan"}, "name": "bd1e9cf62a969aba1e164fce6e8e399b", "fusion_lat": 0.0, "lon": -77.0222595, "is_disabled": 0, "is_reserved": 0, "fusion_lon": 0.0, "lat": 38.912738833333336, "type": "electric_scooter", "bike_id": "bd1e9cf62a969aba1e164fce6e8e399b"}, {"rental_uris": {"android": "https://dc.lft.to/lastmile_qr_scan", "ios": "https://dc.lft.to/lastmile_qr_scan"}, "name": "1c16a8d1bcd4905bbc40bb04517368cb", "fusion_lat": 0.0, "lon": -77.00356966666666, "is_disabled": 0, "is_reserved": 0, "fusion_lon": 0.0, "lat": 38.893465, "type": "electric_scooter", "bike_id": "1c16a8d1bcd4905bbc40bb04517368cb"}, {"rental_uris": {"android": "https://dc.lft.to/lastmile_qr_scan", "ios": "https://dc.lft.to/lastmile_qr_scan"}, "name": "3b0672cb62aee211feca80f449f1df7a", "fusion_lat": 0.0, "lon": -76.98272433333334, "is_disabled": 0, "is_reserved": 0, "fusion_lon": 0.0, "lat": 38.9155775, "type": "electric_scooter", "bike_id": "3b0672cb62aee211feca80f449f1df7a"}, {"rental_uris": {"android": "https://dc.lft.to/lastmile_qr_scan", "ios": "https://dc.lft.to/lastmile_qr_scan"}, "name": "efc38956fe74845bdb9719d154aa103c", "fusion_lat": 0.0, "lon": -77.035028, "is_disabled": 0, "is_reserved": 0, "fusion_lon": 0.0, "lat": 38.932766666666666, "type": "electric_scooter", "bike_id": "efc38956fe74845bdb9719d154aa103c"}, {"rental_uris": {"android": "https://dc.lft.to/lastmile_qr_scan", "ios": "https://dc.lft.to/lastmile_qr_scan"}, "name": "47dc2ea038cfa2fd5da77c3a466246c9", "fusion_lat": 0.0, "lon": -77.02586916666667, "is_disabled": 0, "is_reserved": 0, "fusion_lon": 0.0, "lat": 38.91274533333333, "type": "electric_scooter", "bike_id": "47dc2ea038cfa2fd5da77c3a466246c9"}, {"rental_uris": {"android": "https://dc.lft.to/lastmile_qr_scan", "ios": "https://dc.lft.to/lastmile_qr_scan"}, "name": "93759e9f3664f99dfa6ca9b508254558", "fusion_lat": 0.0, "lon": -77.02163566666667, "is_disabled": 0, "is_reserved": 0, "fusion_lon": 0.0, "lat": 38.92608166666667, "type": "electric_scooter", "bike_id": "93759e9f3664f99dfa6ca9b508254558"}, {"rental_uris": {"android": "https://dc.lft.to/lastmile_qr_scan", "ios": "https://dc.lft.to/lastmile_qr_scan"}, "name": "2afd029f0d9b158c179c121bdec52d0a", "fusion_lat": 0.0, "lon": -77.06814983333334, "is_disabled": 0, "is_reserved": 0, "fusion_lon": 0.0, "lat": 38.94472583333334, "type": "electric_scooter", "bike_id": "2afd029f0d9b158c179c121bdec52d0a"}, {"rental_uris": {"android": "https://dc.lft.to/lastmile_qr_scan", "ios": "https://dc.lft.to/lastmile_qr_scan"}, "name": "889d9d71262c00e04eaf40a8b4926d9e", "fusion_lat": 0.0, "lon": -77.10185933333334, "is_disabled": 0, "is_reserved": 0, "fusion_lon": 0.0, "lat": 38.91809116666667, "type": "electric_bike", "bike_id": "889d9d71262c00e04eaf40a8b4926d9e"}, {"rental_uris": {"android": "https://dc.lft.to/lastmile_qr_scan", "ios": "https://dc.lft.to/lastmile_qr_scan"}, "name": "8cff7fe1d249e1339fc6483952f95be0", "fusion_lat": 0.0, "lon": -76.98124283333334, "is_disabled": 0, "is_reserved": 0, "fusion_lon": 0.0, "lat": 38.896724166666665, "type": "electric_bike", "bike_id": "8cff7fe1d249e1339fc6483952f95be0"}, {"rental_uris": {"android": "https://dc.lft.to/lastmile_qr_scan", "ios": "https://dc.lft.to/lastmile_qr_scan"}, "name": "6a7ec1cf952d4ac4f9e1a665e1a45f9b", "fusion_lat": 0.0, "lon": -77.052321, "is_disabled": 0, "is_reserved": 0, "fusion_lon": 0.0, "lat": 38.92466483333333, "type": "electric_scooter", "bike_id": "6a7ec1cf952d4ac4f9e1a665e1a45f9b"}, {"rental_uris": {"android": "https://dc.lft.to/lastmile_qr_scan", "ios": "https://dc.lft.to/lastmile_qr_scan"}, "name": "b3f31dd048f2bff95a0416cc4edc7620", "fusion_lat": 0.0, "lon": -77.02795733333333, "is_disabled": 0, "is_reserved": 0, "fusion_lon": 0.0, "lat": 38.93084283333334, "type": "electric_scooter", "bike_id": "b3f31dd048f2bff95a0416cc4edc7620"}, {"rental_uris": {"android": "https://dc.lft.to/lastmile_qr_scan", "ios": "https://dc.lft.to/lastmile_qr_scan"}, "name": "bc0e042617f8efa5bc0c9ba89f0394d0", "fusion_lat": 0.0, "lon": -77.0398775, "is_disabled": 0, "is_reserved": 0, "fusion_lon": 0.0, "lat": 38.905872333333335, "type": "electric_scooter", "bike_id": "bc0e042617f8efa5bc0c9ba89f0394d0"}, {"rental_uris": {"android": "https://dc.lft.to/lastmile_qr_scan", "ios": "https://dc.lft.to/lastmile_qr_scan"}, "name": "c145d9c4d29113f59e800c1036a504ff", "fusion_lat": 0.0, "lon": -76.937257, "is_disabled": 0, "is_reserved": 0, "fusion_lon": 0.0, "lat": 38.89102333333334, "type": "electric_scooter", "bike_id": "c145d9c4d29113f59e800c1036a504ff"}, {"rental_uris": {"android": "https://dc.lft.to/lastmile_qr_scan", "ios": "https://dc.lft.to/lastmile_qr_scan"}, "name": "4e00d14d9e74acdab5f34cdd89e42825", "fusion_lat": 0.0, "lon": -76.9961155, "is_disabled": 0, "is_reserved": 0, "fusion_lon": 0.0, "lat": 38.88613183333333, "type": "electric_scooter", "bike_id": "4e00d14d9e74acdab5f34cdd89e42825"}, {"rental_uris": {"android": "https://dc.lft.to/lastmile_qr_scan", "ios": "https://dc.lft.to/lastmile_qr_scan"}, "name": "c3a87142505c169fceeb448232508fb3", "fusion_lat": 0.0, "lon": -77.02679716666667, "is_disabled": 0, "is_reserved": 0, "fusion_lon": 0.0, "lat": 38.90355566666667, "type": "electric_scooter", "bike_id": "c3a87142505c169fceeb448232508fb3"}, {"rental_uris": {"android": "https://dc.lft.to/lastmile_qr_scan", "ios": "https://dc.lft.to/lastmile_qr_scan"}, "name": "1fc3b68905b07e38442e77f627951ccd", "fusion_lat": 0.0, "lon": -77.0173575, "is_disabled": 0, "is_reserved": 0, "fusion_lon": 0.0, "lat": 38.87781283333333, "type": "electric_scooter", "bike_id": "1fc3b68905b07e38442e77f627951ccd"}, {"rental_uris": {"android": "https://dc.lft.to/lastmile_qr_scan", "ios": "https://dc.lft.to/lastmile_qr_scan"}, "name": "9f6b7a31de9d69345047f9815baf99d3", "fusion_lat": 0.0, "lon": -76.97617183333334, "is_disabled": 0, "is_reserved": 0, "fusion_lon": 0.0, "lat": 38.93145716666667, "type": "electric_scooter", "bike_id": "9f6b7a31de9d69345047f9815baf99d3"}, {"rental_uris": {"android": "https://dc.lft.to/lastmile_qr_scan", "ios": "https://dc.lft.to/lastmile_qr_scan"}, "name": "12dacd9612098a2d1d9e70f3d4a50c52", "fusion_lat": 0.0, "lon": -76.99058616666667, "is_disabled": 0, "is_reserved": 0, "fusion_lon": 0.0, "lat": 38.858994333333335, "type": "electric_scooter", "bike_id": "12dacd9612098a2d1d9e70f3d4a50c52"}, {"rental_uris": {"android": "https://dc.lft.to/lastmile_qr_scan", "ios": "https://dc.lft.to/lastmile_qr_scan"}, "name": "905d0d17218e4c8de0efba6fae3db3fa", "fusion_lat": 0.0, "lon": -76.95476033333334, "is_disabled": 0, "is_reserved": 0, "fusion_lon": 0.0, "lat": 38.935683, "type": "electric_bike", "bike_id": "905d0d17218e4c8de0efba6fae3db3fa"}, {"rental_uris": {"android": "https://dc.lft.to/lastmile_qr_scan", "ios": "https://dc.lft.to/lastmile_qr_scan"}, "name": "a5a67fb655a046eb40a7026a14c68766", "fusion_lat": 0.0, "lon": -77.01996616666666, "is_disabled": 0, "is_reserved": 0, "fusion_lon": 0.0, "lat": 38.88354566666667, "type": "electric_scooter", "bike_id": "a5a67fb655a046eb40a7026a14c68766"}, {"rental_uris": {"android": "https://dc.lft.to/lastmile_qr_scan", "ios": "https://dc.lft.to/lastmile_qr_scan"}, "name": "1c66a6651beab104aa91102416846433", "fusion_lat": 0.0, "lon": -77.02342883333333, "is_disabled": 0, "is_reserved": 0, "fusion_lon": 0.0, "lat": 38.91562416666667, "type": "electric_scooter", "bike_id": "1c66a6651beab104aa91102416846433"}, {"rental_uris": {"android": "https://dc.lft.to/lastmile_qr_scan", "ios": "https://dc.lft.to/lastmile_qr_scan"}, "name": "3c305a27ec48f69227ff9e72f7fe3eb8", "fusion_lat": 0.0, "lon": -76.97731716666667, "is_disabled": 0, "is_reserved": 0, "fusion_lon": 0.0, "lat": 38.872926, "type": "electric_scooter", "bike_id": "3c305a27ec48f69227ff9e72f7fe3eb8"}, {"rental_uris": {"android": "https://dc.lft.to/lastmile_qr_scan", "ios": "https://dc.lft.to/lastmile_qr_scan"}, "name": "435963ea38a5f1b3ab486e8c4cd6ca6e", "fusion_lat": 0.0, "lon": -76.99483033333334, "is_disabled": 0, "is_reserved": 0, "fusion_lon": 0.0, "lat": 38.862186, "type": "electric_scooter", "bike_id": "435963ea38a5f1b3ab486e8c4cd6ca6e"}, {"rental_uris": {"android": "https://dc.lft.to/lastmile_qr_scan", "ios": "https://dc.lft.to/lastmile_qr_scan"}, "name": "03cf977cdac35c5b6e2452bf81c058b0", "fusion_lat": 0.0, "lon": -77.07226466666667, "is_disabled": 0, "is_reserved": 0, "fusion_lon": 0.0, "lat": 38.9345235, "type": "electric_scooter", "bike_id": "03cf977cdac35c5b6e2452bf81c058b0"}, {"rental_uris": {"android": "https://dc.lft.to/lastmile_qr_scan", "ios": "https://dc.lft.to/lastmile_qr_scan"}, "name": "1448e8908cfa2a5e68bdc691496b55ef", "fusion_lat": 0.0, "lon": -77.05211833333334, "is_disabled": 0, "is_reserved": 0, "fusion_lon": 0.0, "lat": 38.924722833333334, "type": "electric_scooter", "bike_id": "1448e8908cfa2a5e68bdc691496b55ef"}, {"rental_uris": {"android": "https://dc.lft.to/lastmile_qr_scan", "ios": "https://dc.lft.to/lastmile_qr_scan"}, "name": "7e0a5a407bb232c9049d27ec71759b19", "fusion_lat": 0.0, "lon": -77.04891883333333, "is_disabled": 0, "is_reserved": 0, "fusion_lon": 0.0, "lat": 38.896582, "type": "electric_scooter", "bike_id": "7e0a5a407bb232c9049d27ec71759b19"}, {"rental_uris": {"android": "https://dc.lft.to/lastmile_qr_scan", "ios": "https://dc.lft.to/lastmile_qr_scan"}, "name": "e2fb9f2319ccdc1b0ccfc38e9f6549ab", "fusion_lat": 0.0, "lon": -77.02266216666666, "is_disabled": 0, "is_reserved": 0, "fusion_lon": 0.0, "lat": 38.90081283333333, "type": "electric_scooter", "bike_id": "e2fb9f2319ccdc1b0ccfc38e9f6549ab"}, {"rental_uris": {"android": "https://dc.lft.to/lastmile_qr_scan", "ios": "https://dc.lft.to/lastmile_qr_scan"}, "name": "bf58b52b764c25c15c347655eda5b590", "fusion_lat": 0.0, "lon": -77.03772033333334, "is_disabled": 0, "is_reserved": 0, "fusion_lon": 0.0, "lat": 38.925596166666665, "type": "electric_scooter", "bike_id": "bf58b52b764c25c15c347655eda5b590"}, {"rental_uris": {"android": "https://dc.lft.to/lastmile_qr_scan", "ios": "https://dc.lft.to/lastmile_qr_scan"}, "name": "f63d2dfc4e768813af6b1d6e8877f25a", "fusion_lat": 0.0, "lon": -77.04096916666667, "is_disabled": 0, "is_reserved": 0, "fusion_lon": 0.0, "lat": 38.907869, "type": "electric_scooter", "bike_id": "f63d2dfc4e768813af6b1d6e8877f25a"}, {"rental_uris": {"android": "https://dc.lft.to/lastmile_qr_scan", "ios": "https://dc.lft.to/lastmile_qr_scan"}, "name": "fa88fb778fccebf311aa2f3dfc6cb2ae", "fusion_lat": 0.0, "lon": -77.04897016666666, "is_disabled": 0, "is_reserved": 0, "fusion_lon": 0.0, "lat": 38.892287333333336, "type": "electric_scooter", "bike_id": "fa88fb778fccebf311aa2f3dfc6cb2ae"}, {"rental_uris": {"android": "https://dc.lft.to/lastmile_qr_scan", "ios": "https://dc.lft.to/lastmile_qr_scan"}, "name": "f19c39f134eba494c506350560a8d376", "fusion_lat": 0.0, "lon": -76.965582, "is_disabled": 0, "is_reserved": 0, "fusion_lon": 0.0, "lat": 38.950873666666666, "type": "electric_bike", "bike_id": "f19c39f134eba494c506350560a8d376"}, {"rental_uris": {"android": "https://dc.lft.to/lastmile_qr_scan", "ios": "https://dc.lft.to/lastmile_qr_scan"}, "name": "83d980f54613cee1dbc70eb3025122e9", "fusion_lat": 0.0, "lon": -77.0490535, "is_disabled": 0, "is_reserved": 0, "fusion_lon": 0.0, "lat": 38.902150166666665, "type": "electric_scooter", "bike_id": "83d980f54613cee1dbc70eb3025122e9"}, {"rental_uris": {"android": "https://dc.lft.to/lastmile_qr_scan", "ios": "https://dc.lft.to/lastmile_qr_scan"}, "name": "f590ad6ba34640d06f769e663ba600bd", "fusion_lat": 0.0, "lon": -77.03838166666667, "is_disabled": 0, "is_reserved": 0, "fusion_lon": 0.0, "lat": 38.91118383333333, "type": "electric_scooter", "bike_id": "f590ad6ba34640d06f769e663ba600bd"}, {"rental_uris": {"android": "https://dc.lft.to/lastmile_qr_scan", "ios": "https://dc.lft.to/lastmile_qr_scan"}, "name": "b28bc8d4e6187bb0b341c148e14c03fa", "fusion_lat": 0.0, "lon": -76.98825083333334, "is_disabled": 0, "is_reserved": 0, "fusion_lon": 0.0, "lat": 38.900360166666665, "type": "electric_scooter", "bike_id": "b28bc8d4e6187bb0b341c148e14c03fa"}, {"rental_uris": {"android": "https://dc.lft.to/lastmile_qr_scan", "ios": "https://dc.lft.to/lastmile_qr_scan"}, "name": "834699c7d0fc26ae935617e83e52e121", "fusion_lat": 0.0, "lon": -77.05792166666667, "is_disabled": 0, "is_reserved": 0, "fusion_lon": 0.0, "lat": 38.93480133333333, "type": "electric_scooter", "bike_id": "834699c7d0fc26ae935617e83e52e121"}, {"rental_uris": {"android": "https://dc.lft.to/lastmile_qr_scan", "ios": "https://dc.lft.to/lastmile_qr_scan"}, "name": "35b1a3a0aaad5fba8d4a58aa84aeb90f", "fusion_lat": 0.0, "lon": -77.02229216666667, "is_disabled": 0, "is_reserved": 0, "fusion_lon": 0.0, "lat": 38.91271033333334, "type": "electric_scooter", "bike_id": "35b1a3a0aaad5fba8d4a58aa84aeb90f"}, {"rental_uris": {"android": "https://dc.lft.to/lastmile_qr_scan", "ios": "https://dc.lft.to/lastmile_qr_scan"}, "name": "29d65c20f11b5736bf096f91db107fec", "fusion_lat": 0.0, "lon": -77.03119716666667, "is_disabled": 0, "is_reserved": 0, "fusion_lon": 0.0, "lat": 38.91924316666667, "type": "electric_scooter", "bike_id": "29d65c20f11b5736bf096f91db107fec"}, {"rental_uris": {"android": "https://dc.lft.to/lastmile_qr_scan", "ios": "https://dc.lft.to/lastmile_qr_scan"}, "name": "34b4e81a776c22efcce0f293f4d3a488", "fusion_lat": 0.0, "lon": -77.02324283333333, "is_disabled": 0, "is_reserved": 0, "fusion_lon": 0.0, "lat": 38.91696833333334, "type": "electric_scooter", "bike_id": "34b4e81a776c22efcce0f293f4d3a488"}, {"rental_uris": {"android": "https://dc.lft.to/lastmile_qr_scan", "ios": "https://dc.lft.to/lastmile_qr_scan"}, "name": "0f7d790aef2610222514b76a356042da", "fusion_lat": 0.0, "lon": -76.96520216666667, "is_disabled": 0, "is_reserved": 0, "fusion_lon": 0.0, "lat": 38.87482133333334, "type": "electric_scooter", "bike_id": "0f7d790aef2610222514b76a356042da"}, {"rental_uris": {"android": "https://dc.lft.to/lastmile_qr_scan", "ios": "https://dc.lft.to/lastmile_qr_scan"}, "name": "3d4ad62ef3a17a8d55d2db90839cb68f", "fusion_lat": 0.0, "lon": -77.03191216666667, "is_disabled": 0, "is_reserved": 0, "fusion_lon": 0.0, "lat": 38.903589, "type": "electric_scooter", "bike_id": "3d4ad62ef3a17a8d55d2db90839cb68f"}, {"rental_uris": {"android": "https://dc.lft.to/lastmile_qr_scan", "ios": "https://dc.lft.to/lastmile_qr_scan"}, "name": "af0bff57b598f459884e3ada4c03877d", "fusion_lat": 0.0, "lon": -77.03403316666666, "is_disabled": 0, "is_reserved": 0, "fusion_lon": 0.0, "lat": 38.91917983333333, "type": "electric_scooter", "bike_id": "af0bff57b598f459884e3ada4c03877d"}, {"rental_uris": {"android": "https://dc.lft.to/lastmile_qr_scan", "ios": "https://dc.lft.to/lastmile_qr_scan"}, "name": "01d42b2cc64782a99efc361fd0f512a9", "fusion_lat": 0.0, "lon": -77.04323266666667, "is_disabled": 0, "is_reserved": 0, "fusion_lon": 0.0, "lat": 38.91106833333333, "type": "electric_scooter", "bike_id": "01d42b2cc64782a99efc361fd0f512a9"}, {"rental_uris": {"android": "https://dc.lft.to/lastmile_qr_scan", "ios": "https://dc.lft.to/lastmile_qr_scan"}, "name": "a595c58e8b47dbf091c9d35b5e3154e0", "fusion_lat": 0.0, "lon": -77.045212, "is_disabled": 0, "is_reserved": 0, "fusion_lon": 0.0, "lat": 38.90373966666667, "type": "electric_scooter", "bike_id": "a595c58e8b47dbf091c9d35b5e3154e0"}, {"rental_uris": {"android": "https://dc.lft.to/lastmile_qr_scan", "ios": "https://dc.lft.to/lastmile_qr_scan"}, "name": "6a102cb7598ee6522bb4f0ad13f32ca1", "fusion_lat": 0.0, "lon": -77.03825233333333, "is_disabled": 0, "is_reserved": 0, "fusion_lon": 0.0, "lat": 38.90416466666667, "type": "electric_scooter", "bike_id": "6a102cb7598ee6522bb4f0ad13f32ca1"}, {"rental_uris": {"android": "https://dc.lft.to/lastmile_qr_scan", "ios": "https://dc.lft.to/lastmile_qr_scan"}, "name": "540709da60dee2b3102aa15b5294910e", "fusion_lat": 0.0, "lon": -77.02745566666667, "is_disabled": 0, "is_reserved": 0, "fusion_lon": 0.0, "lat": 38.92398583333333, "type": "electric_bike", "bike_id": "540709da60dee2b3102aa15b5294910e"}, {"rental_uris": {"android": "https://dc.lft.to/lastmile_qr_scan", "ios": "https://dc.lft.to/lastmile_qr_scan"}, "name": "e4a27291fbe0c5246fcd568749e99f0c", "fusion_lat": 0.0, "lon": -77.1250565, "is_disabled": 0, "is_reserved": 0, "fusion_lon": 0.0, "lat": 39.02421533333333, "type": "electric_bike", "bike_id": "e4a27291fbe0c5246fcd568749e99f0c"}, {"rental_uris": {"android": "https://dc.lft.to/lastmile_qr_scan", "ios": "https://dc.lft.to/lastmile_qr_scan"}, "name": "41e6792c324b2718d0c323bdd54b825a", "fusion_lat": 0.0, "lon": -77.0634925, "is_disabled": 0, "is_reserved": 0, "fusion_lon": 0.0, "lat": 38.944472166666664, "type": "electric_scooter", "bike_id": "41e6792c324b2718d0c323bdd54b825a"}, {"rental_uris": {"android": "https://dc.lft.to/lastmile_qr_scan", "ios": "https://dc.lft.to/lastmile_qr_scan"}, "name": "b6c808b9506f2b4ff1de3e4d5f2f17b7", "fusion_lat": 0.0, "lon": -77.03540916666667, "is_disabled": 0, "is_reserved": 0, "fusion_lon": 0.0, "lat": 38.924699333333336, "type": "electric_scooter", "bike_id": "b6c808b9506f2b4ff1de3e4d5f2f17b7"}, {"rental_uris": {"android": "https://dc.lft.to/lastmile_qr_scan", "ios": "https://dc.lft.to/lastmile_qr_scan"}, "name": "36644d4fa5c82e26bef1529afd405354", "fusion_lat": 0.0, "lon": -77.04682683333333, "is_disabled": 0, "is_reserved": 0, "fusion_lon": 0.0, "lat": 38.895028333333336, "type": "electric_scooter", "bike_id": "36644d4fa5c82e26bef1529afd405354"}, {"rental_uris": {"android": "https://dc.lft.to/lastmile_qr_scan", "ios": "https://dc.lft.to/lastmile_qr_scan"}, "name": "14c1e599e0ce008ae8c11c0b853fe6a7", "fusion_lat": 0.0, "lon": -77.02933433333334, "is_disabled": 0, "is_reserved": 0, "fusion_lon": 0.0, "lat": 38.89861833333333, "type": "electric_scooter", "bike_id": "14c1e599e0ce008ae8c11c0b853fe6a7"}, {"rental_uris": {"android": "https://dc.lft.to/lastmile_qr_scan", "ios": "https://dc.lft.to/lastmile_qr_scan"}, "name": "6486c66d40a93d7c876e0e4db710bb76", "fusion_lat": 0.0, "lon": -76.98712683333333, "is_disabled": 0, "is_reserved": 0, "fusion_lon": 0.0, "lat": 38.867002666666664, "type": "electric_scooter", "bike_id": "6486c66d40a93d7c876e0e4db710bb76"}, {"rental_uris": {"android": "https://dc.lft.to/lastmile_qr_scan", "ios": "https://dc.lft.to/lastmile_qr_scan"}, "name": "7a056923e79c9f9c60ff5196fc9e0275", "fusion_lat": 0.0, "lon": -76.995693, "is_disabled": 0, "is_reserved": 0, "fusion_lon": 0.0, "lat": 39.00785783333333, "type": "electric_bike", "bike_id": "7a056923e79c9f9c60ff5196fc9e0275"}, {"rental_uris": {"android": "https://dc.lft.to/lastmile_qr_scan", "ios": "https://dc.lft.to/lastmile_qr_scan"}, "name": "7ac46ca453af74a3bd185651c4f9535f", "fusion_lat": 0.0, "lon": -77.09565116666667, "is_disabled": 0, "is_reserved": 0, "fusion_lon": 0.0, "lat": 38.91708966666667, "type": "electric_bike", "bike_id": "7ac46ca453af74a3bd185651c4f9535f"}, {"rental_uris": {"android": "https://dc.lft.to/lastmile_qr_scan", "ios": "https://dc.lft.to/lastmile_qr_scan"}, "name": "fa7d9ec548c9a4a662495ddc8452a067", "fusion_lat": 0.0, "lon": -77.01826933333334, "is_disabled": 0, "is_reserved": 0, "fusion_lon": 0.0, "lat": 38.92170733333333, "type": "electric_scooter", "bike_id": "fa7d9ec548c9a4a662495ddc8452a067"}, {"rental_uris": {"android": "https://dc.lft.to/lastmile_qr_scan", "ios": "https://dc.lft.to/lastmile_qr_scan"}, "name": "31c72c1a71285b98a9ac5c5336be8054", "fusion_lat": 0.0, "lon": -77.00857133333334, "is_disabled": 0, "is_reserved": 0, "fusion_lon": 0.0, "lat": 38.873152833333336, "type": "electric_scooter", "bike_id": "31c72c1a71285b98a9ac5c5336be8054"}, {"rental_uris": {"android": "https://dc.lft.to/lastmile_qr_scan", "ios": "https://dc.lft.to/lastmile_qr_scan"}, "name": "9793a288c7b3cfdea8a7056101904780", "fusion_lat": 0.0, "lon": -77.029815, "is_disabled": 0, "is_reserved": 0, "fusion_lon": 0.0, "lat": 38.942643833333335, "type": "electric_bike", "bike_id": "9793a288c7b3cfdea8a7056101904780"}, {"rental_uris": {"android": "https://dc.lft.to/lastmile_qr_scan", "ios": "https://dc.lft.to/lastmile_qr_scan"}, "name": "e1a74a96237a1d9679e5e74ff803b481", "fusion_lat": 0.0, "lon": -76.98137766666666, "is_disabled": 0, "is_reserved": 0, "fusion_lon": 0.0, "lat": 38.90146516666667, "type": "electric_scooter", "bike_id": "e1a74a96237a1d9679e5e74ff803b481"}, {"rental_uris": {"android": "https://dc.lft.to/lastmile_qr_scan", "ios": "https://dc.lft.to/lastmile_qr_scan"}, "name": "e5ac5397abdf64dbaf831c37514849c7", "fusion_lat": 0.0, "lon": -77.03041116666667, "is_disabled": 0, "is_reserved": 0, "fusion_lon": 0.0, "lat": 38.9226685, "type": "electric_scooter", "bike_id": "e5ac5397abdf64dbaf831c37514849c7"}, {"rental_uris": {"android": "https://dc.lft.to/lastmile_qr_scan", "ios": "https://dc.lft.to/lastmile_qr_scan"}, "name": "ca7d0794243e09c3ded79908a1369e60", "fusion_lat": 0.0, "lon": -77.0271805, "is_disabled": 0, "is_reserved": 0, "fusion_lon": 0.0, "lat": 38.90750883333333, "type": "electric_scooter", "bike_id": "ca7d0794243e09c3ded79908a1369e60"}, {"rental_uris": {"android": "https://dc.lft.to/lastmile_qr_scan", "ios": "https://dc.lft.to/lastmile_qr_scan"}, "name": "9cb48951438c2c0961396783896651b1", "fusion_lat": 0.0, "lon": -76.9081565, "is_disabled": 0, "is_reserved": 0, "fusion_lon": 0.0, "lat": 38.99458633333333, "type": "electric_bike", "bike_id": "9cb48951438c2c0961396783896651b1"}, {"rental_uris": {"android": "https://dc.lft.to/lastmile_qr_scan", "ios": "https://dc.lft.to/lastmile_qr_scan"}, "name": "3bd1d05f9b977215d5a1e27d240168bf", "fusion_lat": 0.0, "lon": -76.97902166666667, "is_disabled": 0, "is_reserved": 0, "fusion_lon": 0.0, "lat": 38.854909666666664, "type": "electric_bike", "bike_id": "3bd1d05f9b977215d5a1e27d240168bf"}, {"rental_uris": {"android": "https://dc.lft.to/lastmile_qr_scan", "ios": "https://dc.lft.to/lastmile_qr_scan"}, "name": "48d4dc2b9bdbe731ec4a409b0633d232", "fusion_lat": 0.0, "lon": -77.0623845, "is_disabled": 0, "is_reserved": 0, "fusion_lon": 0.0, "lat": 38.905265, "type": "electric_scooter", "bike_id": "48d4dc2b9bdbe731ec4a409b0633d232"}, {"rental_uris": {"android": "https://dc.lft.to/lastmile_qr_scan", "ios": "https://dc.lft.to/lastmile_qr_scan"}, "name": "112684fa72af8ea82eb4347b937419c5", "fusion_lat": 0.0, "lon": -77.03625333333333, "is_disabled": 0, "is_reserved": 0, "fusion_lon": 0.0, "lat": 38.952884166666664, "type": "electric_scooter", "bike_id": "112684fa72af8ea82eb4347b937419c5"}, {"rental_uris": {"android": "https://dc.lft.to/lastmile_qr_scan", "ios": "https://dc.lft.to/lastmile_qr_scan"}, "name": "68f2733a8f4a676b9a3437b78378931d", "fusion_lat": 0.0, "lon": -77.0054335, "is_disabled": 0, "is_reserved": 0, "fusion_lon": 0.0, "lat": 38.89615666666667, "type": "electric_scooter", "bike_id": "68f2733a8f4a676b9a3437b78378931d"}, {"rental_uris": {"android": "https://dc.lft.to/lastmile_qr_scan", "ios": "https://dc.lft.to/lastmile_qr_scan"}, "name": "f877c134e8702c02a4db61a55debc974", "fusion_lat": 0.0, "lon": -77.1017625, "is_disabled": 0, "is_reserved": 0, "fusion_lon": 0.0, "lat": 38.9254475, "type": "electric_scooter", "bike_id": "f877c134e8702c02a4db61a55debc974"}, {"rental_uris": {"android": "https://dc.lft.to/lastmile_qr_scan", "ios": "https://dc.lft.to/lastmile_qr_scan"}, "name": "372fe7bb5deacb2942856c30b81b944c", "fusion_lat": 0.0, "lon": -76.99463216666666, "is_disabled": 0, "is_reserved": 0, "fusion_lon": 0.0, "lat": 38.8622435, "type": "electric_scooter", "bike_id": "372fe7bb5deacb2942856c30b81b944c"}, {"rental_uris": {"android": "https://dc.lft.to/lastmile_qr_scan", "ios": "https://dc.lft.to/lastmile_qr_scan"}, "name": "f67619e775c0d9b12412f7253762eb58", "fusion_lat": 0.0, "lon": -77.03294533333333, "is_disabled": 0, "is_reserved": 0, "fusion_lon": 0.0, "lat": 38.9564545, "type": "electric_scooter", "bike_id": "f67619e775c0d9b12412f7253762eb58"}, {"rental_uris": {"android": "https://dc.lft.to/lastmile_qr_scan", "ios": "https://dc.lft.to/lastmile_qr_scan"}, "name": "cc9342599d71a9d70d3c18fe661b8cfc", "fusion_lat": 0.0, "lon": -77.02476433333334, "is_disabled": 0, "is_reserved": 0, "fusion_lon": 0.0, "lat": 38.938824333333336, "type": "electric_scooter", "bike_id": "cc9342599d71a9d70d3c18fe661b8cfc"}, {"rental_uris": {"android": "https://dc.lft.to/lastmile_qr_scan", "ios": "https://dc.lft.to/lastmile_qr_scan"}, "name": "5a53def6212bc2ffcdab7f5ba46be085", "fusion_lat": 0.0, "lon": -76.955356, "is_disabled": 0, "is_reserved": 0, "fusion_lon": 0.0, "lat": 38.887635, "type": "electric_scooter", "bike_id": "5a53def6212bc2ffcdab7f5ba46be085"}, {"rental_uris": {"android": "https://dc.lft.to/lastmile_qr_scan", "ios": "https://dc.lft.to/lastmile_qr_scan"}, "name": "39e72430fa764b5589a5e4505c5643d6", "fusion_lat": 0.0, "lon": -77.03305566666667, "is_disabled": 0, "is_reserved": 0, "fusion_lon": 0.0, "lat": 38.89643066666667, "type": "electric_scooter", "bike_id": "39e72430fa764b5589a5e4505c5643d6"}, {"rental_uris": {"android": "https://dc.lft.to/lastmile_qr_scan", "ios": "https://dc.lft.to/lastmile_qr_scan"}, "name": "2053fbee24ce682586cc2b58cf2428a8", "fusion_lat": 0.0, "lon": -76.98526533333333, "is_disabled": 0, "is_reserved": 0, "fusion_lon": 0.0, "lat": 38.92003066666667, "type": "electric_bike", "bike_id": "2053fbee24ce682586cc2b58cf2428a8"}, {"rental_uris": {"android": "https://dc.lft.to/lastmile_qr_scan", "ios": "https://dc.lft.to/lastmile_qr_scan"}, "name": "fc64444891fe4020108b12d681cfd461", "fusion_lat": 0.0, "lon": -77.10707033333334, "is_disabled": 0, "is_reserved": 0, "fusion_lon": 0.0, "lat": 38.855525166666666, "type": "electric_bike", "bike_id": "fc64444891fe4020108b12d681cfd461"}, {"rental_uris": {"android": "https://dc.lft.to/lastmile_qr_scan", "ios": "https://dc.lft.to/lastmile_qr_scan"}, "name": "32194aae9aa92868dbca509ab3a1c3ec", "fusion_lat": 0.0, "lon": -77.03304633333333, "is_disabled": 0, "is_reserved": 0, "fusion_lon": 0.0, "lat": 38.899142166666664, "type": "electric_scooter", "bike_id": "32194aae9aa92868dbca509ab3a1c3ec"}, {"rental_uris": {"android": "https://dc.lft.to/lastmile_qr_scan", "ios": "https://dc.lft.to/lastmile_qr_scan"}, "name": "3362cb22e69c7d73f9cb3d622eafbb98", "fusion_lat": 0.0, "lon": -76.87779916666666, "is_disabled": 0, "is_reserved": 0, "fusion_lon": 0.0, "lat": 38.99233566666667, "type": "electric_bike", "bike_id": "3362cb22e69c7d73f9cb3d622eafbb98"}, {"rental_uris": {"android": "https://dc.lft.to/lastmile_qr_scan", "ios": "https://dc.lft.to/lastmile_qr_scan"}, "name": "c136e27b2a90d954d4f3138f06b61db6", "fusion_lat": 0.0, "lon": -76.96389883333333, "is_disabled": 0, "is_reserved": 0, "fusion_lon": 0.0, "lat": 38.975778166666665, "type": "electric_bike", "bike_id": "c136e27b2a90d954d4f3138f06b61db6"}, {"rental_uris": {"android": "https://dc.lft.to/lastmile_qr_scan", "ios": "https://dc.lft.to/lastmile_qr_scan"}, "name": "df93103ad40274c0657b927b7c5a95be", "fusion_lat": 0.0, "lon": -77.04173616666667, "is_disabled": 0, "is_reserved": 0, "fusion_lon": 0.0, "lat": 38.914608666666666, "type": "electric_scooter", "bike_id": "df93103ad40274c0657b927b7c5a95be"}, {"rental_uris": {"android": "https://dc.lft.to/lastmile_qr_scan", "ios": "https://dc.lft.to/lastmile_qr_scan"}, "name": "efdc6b0a4b4a9b32bcb37fcf05bbe871", "fusion_lat": 0.0, "lon": -77.0236435, "is_disabled": 0, "is_reserved": 0, "fusion_lon": 0.0, "lat": 38.904089, "type": "electric_scooter", "bike_id": "efdc6b0a4b4a9b32bcb37fcf05bbe871"}, {"rental_uris": {"android": "https://dc.lft.to/lastmile_qr_scan", "ios": "https://dc.lft.to/lastmile_qr_scan"}, "name": "26c6a465ee26f3652a8da162ef85aabc", "fusion_lat": 0.0, "lon": -76.94868, "is_disabled": 0, "is_reserved": 0, "fusion_lon": 0.0, "lat": 38.889643166666666, "type": "electric_bike", "bike_id": "26c6a465ee26f3652a8da162ef85aabc"}, {"rental_uris": {"android": "https://dc.lft.to/lastmile_qr_scan", "ios": "https://dc.lft.to/lastmile_qr_scan"}, "name": "7ebcc2e2ce16a35a7401474473055425", "fusion_lat": 0.0, "lon": -77.04356383333334, "is_disabled": 0, "is_reserved": 0, "fusion_lon": 0.0, "lat": 38.90372433333334, "type": "electric_scooter", "bike_id": "7ebcc2e2ce16a35a7401474473055425"}, {"rental_uris": {"android": "https://dc.lft.to/lastmile_qr_scan", "ios": "https://dc.lft.to/lastmile_qr_scan"}, "name": "b4089e2116026a6286c61682369e8961", "fusion_lat": 0.0, "lon": -77.04065816666666, "is_disabled": 0, "is_reserved": 0, "fusion_lon": 0.0, "lat": 38.898502666666666, "type": "electric_scooter", "bike_id": "b4089e2116026a6286c61682369e8961"}, {"rental_uris": {"android": "https://dc.lft.to/lastmile_qr_scan", "ios": "https://dc.lft.to/lastmile_qr_scan"}, "name": "145f4b07a192f1eb3dfc9ab12134b8c2", "fusion_lat": 0.0, "lon": -77.05437916666666, "is_disabled": 0, "is_reserved": 0, "fusion_lon": 0.0, "lat": 38.89605683333333, "type": "electric_scooter", "bike_id": "145f4b07a192f1eb3dfc9ab12134b8c2"}, {"rental_uris": {"android": "https://dc.lft.to/lastmile_qr_scan", "ios": "https://dc.lft.to/lastmile_qr_scan"}, "name": "272da0bdd8764014e27217c9a4d42bdb", "fusion_lat": 0.0, "lon": -76.9959075, "is_disabled": 0, "is_reserved": 0, "fusion_lon": 0.0, "lat": 38.900163666666664, "type": "electric_scooter", "bike_id": "272da0bdd8764014e27217c9a4d42bdb"}, {"rental_uris": {"android": "https://dc.lft.to/lastmile_qr_scan", "ios": "https://dc.lft.to/lastmile_qr_scan"}, "name": "974324ae64b8b5422fe956453c9040e8", "fusion_lat": 0.0, "lon": -76.9482545, "is_disabled": 0, "is_reserved": 0, "fusion_lon": 0.0, "lat": 38.88517216666666, "type": "electric_scooter", "bike_id": "974324ae64b8b5422fe956453c9040e8"}, {"rental_uris": {"android": "https://dc.lft.to/lastmile_qr_scan", "ios": "https://dc.lft.to/lastmile_qr_scan"}, "name": "1754fc582802afb8a32da0f1b0d7504d", "fusion_lat": 0.0, "lon": -77.03845183333334, "is_disabled": 0, "is_reserved": 0, "fusion_lon": 0.0, "lat": 38.902824, "type": "electric_scooter", "bike_id": "1754fc582802afb8a32da0f1b0d7504d"}, {"rental_uris": {"android": "https://dc.lft.to/lastmile_qr_scan", "ios": "https://dc.lft.to/lastmile_qr_scan"}, "name": "06a499c0a86fd398a0cdb4898c13571d", "fusion_lat": 0.0, "lon": -77.0228195, "is_disabled": 0, "is_reserved": 0, "fusion_lon": 0.0, "lat": 38.916532833333335, "type": "electric_scooter", "bike_id": "06a499c0a86fd398a0cdb4898c13571d"}, {"rental_uris": {"android": "https://dc.lft.to/lastmile_qr_scan", "ios": "https://dc.lft.to/lastmile_qr_scan"}, "name": "bf6283ab54cf56ef613b779a074faca8", "fusion_lat": 0.0, "lon": -77.0029645, "is_disabled": 0, "is_reserved": 0, "fusion_lon": 0.0, "lat": 38.89362283333333, "type": "electric_scooter", "bike_id": "bf6283ab54cf56ef613b779a074faca8"}, {"rental_uris": {"android": "https://dc.lft.to/lastmile_qr_scan", "ios": "https://dc.lft.to/lastmile_qr_scan"}, "name": "d9b5c0e656da6290c3d022be8ac454f2", "fusion_lat": 0.0, "lon": -77.019509, "is_disabled": 0, "is_reserved": 0, "fusion_lon": 0.0, "lat": 38.92254283333333, "type": "electric_scooter", "bike_id": "d9b5c0e656da6290c3d022be8ac454f2"}, {"rental_uris": {"android": "https://dc.lft.to/lastmile_qr_scan", "ios": "https://dc.lft.to/lastmile_qr_scan"}, "name": "5771991fcaf35fb58343c868cc067c67", "fusion_lat": 0.0, "lon": -77.02943533333334, "is_disabled": 0, "is_reserved": 0, "fusion_lon": 0.0, "lat": 38.90399816666667, "type": "electric_scooter", "bike_id": "5771991fcaf35fb58343c868cc067c67"}, {"rental_uris": {"android": "https://dc.lft.to/lastmile_qr_scan", "ios": "https://dc.lft.to/lastmile_qr_scan"}, "name": "4ba7c598368e2cd88e957ee0ee784114", "fusion_lat": 0.0, "lon": -77.02945433333333, "is_disabled": 0, "is_reserved": 0, "fusion_lon": 0.0, "lat": 38.89834533333333, "type": "electric_scooter", "bike_id": "4ba7c598368e2cd88e957ee0ee784114"}, {"rental_uris": {"android": "https://dc.lft.to/lastmile_qr_scan", "ios": "https://dc.lft.to/lastmile_qr_scan"}, "name": "a3a6be3cf49a176b54efa581e7bc8929", "fusion_lat": 0.0, "lon": -77.06288966666666, "is_disabled": 0, "is_reserved": 0, "fusion_lon": 0.0, "lat": 38.90619933333333, "type": "electric_scooter", "bike_id": "a3a6be3cf49a176b54efa581e7bc8929"}, {"rental_uris": {"android": "https://dc.lft.to/lastmile_qr_scan", "ios": "https://dc.lft.to/lastmile_qr_scan"}, "name": "e44370e145757a725ffaf2c8c082d4b3", "fusion_lat": 0.0, "lon": -77.044426, "is_disabled": 0, "is_reserved": 0, "fusion_lon": 0.0, "lat": 38.91267833333333, "type": "electric_scooter", "bike_id": "e44370e145757a725ffaf2c8c082d4b3"}, {"rental_uris": {"android": "https://dc.lft.to/lastmile_qr_scan", "ios": "https://dc.lft.to/lastmile_qr_scan"}, "name": "74cc76ee420c928105af091710272074", "fusion_lat": 0.0, "lon": -77.0384855, "is_disabled": 0, "is_reserved": 0, "fusion_lon": 0.0, "lat": 38.912116, "type": "electric_scooter", "bike_id": "74cc76ee420c928105af091710272074"}, {"rental_uris": {"android": "https://dc.lft.to/lastmile_qr_scan", "ios": "https://dc.lft.to/lastmile_qr_scan"}, "name": "a1f213626362ff165839ee9fbf6e5aa1", "fusion_lat": 0.0, "lon": -77.00338983333333, "is_disabled": 0, "is_reserved": 0, "fusion_lon": 0.0, "lat": 38.8950725, "type": "electric_scooter", "bike_id": "a1f213626362ff165839ee9fbf6e5aa1"}, {"rental_uris": {"android": "https://dc.lft.to/lastmile_qr_scan", "ios": "https://dc.lft.to/lastmile_qr_scan"}, "name": "9da06a820fb8f5fa0b787ab161c56940", "fusion_lat": 0.0, "lon": -76.87496083333333, "is_disabled": 0, "is_reserved": 0, "fusion_lon": 0.0, "lat": 38.990901666666666, "type": "electric_bike", "bike_id": "9da06a820fb8f5fa0b787ab161c56940"}, {"rental_uris": {"android": "https://dc.lft.to/lastmile_qr_scan", "ios": "https://dc.lft.to/lastmile_qr_scan"}, "name": "720bb2e31f50eebaa982d2aa72cc7948", "fusion_lat": 0.0, "lon": -77.05267083333334, "is_disabled": 0, "is_reserved": 0, "fusion_lon": 0.0, "lat": 38.89839816666667, "type": "electric_scooter", "bike_id": "720bb2e31f50eebaa982d2aa72cc7948"}, {"rental_uris": {"android": "https://dc.lft.to/lastmile_qr_scan", "ios": "https://dc.lft.to/lastmile_qr_scan"}, "name": "15fb3a0e93171ad9eca48f3daaa731d4", "fusion_lat": 0.0, "lon": -77.0021835, "is_disabled": 0, "is_reserved": 0, "fusion_lon": 0.0, "lat": 38.902648166666665, "type": "electric_scooter", "bike_id": "15fb3a0e93171ad9eca48f3daaa731d4"}, {"rental_uris": {"android": "https://dc.lft.to/lastmile_qr_scan", "ios": "https://dc.lft.to/lastmile_qr_scan"}, "name": "a48c7d88d4d555fa1dd5051ac9ef2b5a", "fusion_lat": 0.0, "lon": -77.11226583333334, "is_disabled": 0, "is_reserved": 0, "fusion_lon": 0.0, "lat": 38.82874366666667, "type": "electric_bike", "bike_id": "a48c7d88d4d555fa1dd5051ac9ef2b5a"}, {"rental_uris": {"android": "https://dc.lft.to/lastmile_qr_scan", "ios": "https://dc.lft.to/lastmile_qr_scan"}, "name": "fd4576ab4dd67e3aa223e68c1384c9ea", "fusion_lat": 0.0, "lon": -77.01493883333333, "is_disabled": 0, "is_reserved": 0, "fusion_lon": 0.0, "lat": 38.899367166666664, "type": "electric_scooter", "bike_id": "fd4576ab4dd67e3aa223e68c1384c9ea"}, {"rental_uris": {"android": "https://dc.lft.to/lastmile_qr_scan", "ios": "https://dc.lft.to/lastmile_qr_scan"}, "name": "05e98b952024ee184f121614aba9cf95", "fusion_lat": 0.0, "lon": -76.99957516666667, "is_disabled": 0, "is_reserved": 0, "fusion_lon": 0.0, "lat": 38.908648166666666, "type": "electric_scooter", "bike_id": "05e98b952024ee184f121614aba9cf95"}, {"rental_uris": {"android": "https://dc.lft.to/lastmile_qr_scan", "ios": "https://dc.lft.to/lastmile_qr_scan"}, "name": "305461d3d7b269b46f4459a3d56eb3fb", "fusion_lat": 0.0, "lon": -76.93161533333334, "is_disabled": 0, "is_reserved": 0, "fusion_lon": 0.0, "lat": 38.89880316666667, "type": "electric_scooter", "bike_id": "305461d3d7b269b46f4459a3d56eb3fb"}, {"rental_uris": {"android": "https://dc.lft.to/lastmile_qr_scan", "ios": "https://dc.lft.to/lastmile_qr_scan"}, "name": "11429c4cb3b5a986a58b6ed85ccbb0ef", "fusion_lat": 0.0, "lon": -77.02533583333333, "is_disabled": 0, "is_reserved": 0, "fusion_lon": 0.0, "lat": 38.90570833333334, "type": "electric_scooter", "bike_id": "11429c4cb3b5a986a58b6ed85ccbb0ef"}, {"rental_uris": {"android": "https://dc.lft.to/lastmile_qr_scan", "ios": "https://dc.lft.to/lastmile_qr_scan"}, "name": "a4db6765ead881f01b859cb894da8c1a", "fusion_lat": 0.0, "lon": -77.002449, "is_disabled": 0, "is_reserved": 0, "fusion_lon": 0.0, "lat": 38.88027366666667, "type": "electric_scooter", "bike_id": "a4db6765ead881f01b859cb894da8c1a"}, {"rental_uris": {"android": "https://dc.lft.to/lastmile_qr_scan", "ios": "https://dc.lft.to/lastmile_qr_scan"}, "name": "11932bbcbf333cddd8dfd5d918770193", "fusion_lat": 0.0, "lon": -77.02027933333333, "is_disabled": 0, "is_reserved": 0, "fusion_lon": 0.0, "lat": 38.924296166666664, "type": "electric_scooter", "bike_id": "11932bbcbf333cddd8dfd5d918770193"}, {"rental_uris": {"android": "https://dc.lft.to/lastmile_qr_scan", "ios": "https://dc.lft.to/lastmile_qr_scan"}, "name": "ceb9abb876674160a4a33dced8a71791", "fusion_lat": 0.0, "lon": -77.06105133333334, "is_disabled": 0, "is_reserved": 0, "fusion_lon": 0.0, "lat": 38.94367616666667, "type": "electric_scooter", "bike_id": "ceb9abb876674160a4a33dced8a71791"}, {"rental_uris": {"android": "https://dc.lft.to/lastmile_qr_scan", "ios": "https://dc.lft.to/lastmile_qr_scan"}, "name": "0a836172fe8f2c620df4483e6f78435d", "fusion_lat": 0.0, "lon": -77.04679266666666, "is_disabled": 0, "is_reserved": 0, "fusion_lon": 0.0, "lat": 38.89504766666667, "type": "electric_scooter", "bike_id": "0a836172fe8f2c620df4483e6f78435d"}, {"rental_uris": {"android": "https://dc.lft.to/lastmile_qr_scan", "ios": "https://dc.lft.to/lastmile_qr_scan"}, "name": "af9ba08f0b2b3e21de99dc13b0e9f390", "fusion_lat": 0.0, "lon": -77.0268425, "is_disabled": 0, "is_reserved": 0, "fusion_lon": 0.0, "lat": 38.909732166666664, "type": "electric_scooter", "bike_id": "af9ba08f0b2b3e21de99dc13b0e9f390"}, {"rental_uris": {"android": "https://dc.lft.to/lastmile_qr_scan", "ios": "https://dc.lft.to/lastmile_qr_scan"}, "name": "29bfd112a82ceae1eef9874663793204", "fusion_lat": 0.0, "lon": -77.0386125, "is_disabled": 0, "is_reserved": 0, "fusion_lon": 0.0, "lat": 38.902734333333335, "type": "electric_scooter", "bike_id": "29bfd112a82ceae1eef9874663793204"}, {"rental_uris": {"android": "https://dc.lft.to/lastmile_qr_scan", "ios": "https://dc.lft.to/lastmile_qr_scan"}, "name": "df2fe62d268b8f9dddac0da880da8381", "fusion_lat": 0.0, "lon": -77.04159566666667, "is_disabled": 0, "is_reserved": 0, "fusion_lon": 0.0, "lat": 38.9136135, "type": "electric_scooter", "bike_id": "df2fe62d268b8f9dddac0da880da8381"}, {"rental_uris": {"android": "https://dc.lft.to/lastmile_qr_scan", "ios": "https://dc.lft.to/lastmile_qr_scan"}, "name": "dffe26bbc5c3f35cd68c294845aa1301", "fusion_lat": 0.0, "lon": -77.00820366666666, "is_disabled": 0, "is_reserved": 0, "fusion_lon": 0.0, "lat": 38.915723166666666, "type": "electric_scooter", "bike_id": "dffe26bbc5c3f35cd68c294845aa1301"}, {"rental_uris": {"android": "https://dc.lft.to/lastmile_qr_scan", "ios": "https://dc.lft.to/lastmile_qr_scan"}, "name": "dde10641af44bb8293d8c109987e495c", "fusion_lat": 0.0, "lon": -77.0318575, "is_disabled": 0, "is_reserved": 0, "fusion_lon": 0.0, "lat": 38.9117465, "type": "electric_scooter", "bike_id": "dde10641af44bb8293d8c109987e495c"}, {"rental_uris": {"android": "https://dc.lft.to/lastmile_qr_scan", "ios": "https://dc.lft.to/lastmile_qr_scan"}, "name": "4ef8cb935b1d1a0c81b18b4117df2eaf", "fusion_lat": 0.0, "lon": -76.99032416666667, "is_disabled": 0, "is_reserved": 0, "fusion_lon": 0.0, "lat": 38.86407966666667, "type": "electric_scooter", "bike_id": "4ef8cb935b1d1a0c81b18b4117df2eaf"}, {"rental_uris": {"android": "https://dc.lft.to/lastmile_qr_scan", "ios": "https://dc.lft.to/lastmile_qr_scan"}, "name": "a0270be1ef6a39bc4d0ef2868c1209d4", "fusion_lat": 0.0, "lon": -77.0111665, "is_disabled": 0, "is_reserved": 0, "fusion_lon": 0.0, "lat": 38.89476283333333, "type": "electric_scooter", "bike_id": "a0270be1ef6a39bc4d0ef2868c1209d4"}, {"rental_uris": {"android": "https://dc.lft.to/lastmile_qr_scan", "ios": "https://dc.lft.to/lastmile_qr_scan"}, "name": "1f1561bd3f3b9658dc22c1dccc35bad5", "fusion_lat": 0.0, "lon": -77.04499683333333, "is_disabled": 0, "is_reserved": 0, "fusion_lon": 0.0, "lat": 38.909115166666666, "type": "electric_scooter", "bike_id": "1f1561bd3f3b9658dc22c1dccc35bad5"}, {"rental_uris": {"android": "https://dc.lft.to/lastmile_qr_scan", "ios": "https://dc.lft.to/lastmile_qr_scan"}, "name": "c40fa968576f70259033d27d26d491bb", "fusion_lat": 0.0, "lon": -77.03058866666667, "is_disabled": 0, "is_reserved": 0, "fusion_lon": 0.0, "lat": 38.884143, "type": "electric_scooter", "bike_id": "c40fa968576f70259033d27d26d491bb"}, {"rental_uris": {"android": "https://dc.lft.to/lastmile_qr_scan", "ios": "https://dc.lft.to/lastmile_qr_scan"}, "name": "6a1663a3168bce6d8d9466f73e24868f", "fusion_lat": 0.0, "lon": -77.03397633333333, "is_disabled": 0, "is_reserved": 0, "fusion_lon": 0.0, "lat": 38.92440533333333, "type": "electric_scooter", "bike_id": "6a1663a3168bce6d8d9466f73e24868f"}, {"rental_uris": {"android": "https://dc.lft.to/lastmile_qr_scan", "ios": "https://dc.lft.to/lastmile_qr_scan"}, "name": "85909a9f6b9ba8ccb3b83d23a523535b", "fusion_lat": 0.0, "lon": -77.00341066666667, "is_disabled": 0, "is_reserved": 0, "fusion_lon": 0.0, "lat": 38.8950875, "type": "electric_scooter", "bike_id": "85909a9f6b9ba8ccb3b83d23a523535b"}, {"rental_uris": {"android": "https://dc.lft.to/lastmile_qr_scan", "ios": "https://dc.lft.to/lastmile_qr_scan"}, "name": "409f280f05d09fba233b3fc962d0bbef", "fusion_lat": 0.0, "lon": -77.04564216666667, "is_disabled": 0, "is_reserved": 0, "fusion_lon": 0.0, "lat": 38.907502666666666, "type": "electric_scooter", "bike_id": "409f280f05d09fba233b3fc962d0bbef"}, {"rental_uris": {"android": "https://dc.lft.to/lastmile_qr_scan", "ios": "https://dc.lft.to/lastmile_qr_scan"}, "name": "08e56a47394e632e82b927c11c4b738c", "fusion_lat": 0.0, "lon": -77.03151416666667, "is_disabled": 0, "is_reserved": 0, "fusion_lon": 0.0, "lat": 38.897212833333334, "type": "electric_scooter", "bike_id": "08e56a47394e632e82b927c11c4b738c"}, {"rental_uris": {"android": "https://dc.lft.to/lastmile_qr_scan", "ios": "https://dc.lft.to/lastmile_qr_scan"}, "name": "e2281fb3b8a08a586775aa33116723fb", "fusion_lat": 0.0, "lon": -77.00728083333334, "is_disabled": 0, "is_reserved": 0, "fusion_lon": 0.0, "lat": 38.87686133333333, "type": "electric_scooter", "bike_id": "e2281fb3b8a08a586775aa33116723fb"}, {"rental_uris": {"android": "https://dc.lft.to/lastmile_qr_scan", "ios": "https://dc.lft.to/lastmile_qr_scan"}, "name": "c41b54efc2cfb3ffb72cb53ead6c8154", "fusion_lat": 0.0, "lon": -77.00451783333334, "is_disabled": 0, "is_reserved": 0, "fusion_lon": 0.0, "lat": 38.88975466666667, "type": "electric_scooter", "bike_id": "c41b54efc2cfb3ffb72cb53ead6c8154"}, {"rental_uris": {"android": "https://dc.lft.to/lastmile_qr_scan", "ios": "https://dc.lft.to/lastmile_qr_scan"}, "name": "4c1373bc1dc1927879f0a48eccf26218", "fusion_lat": 0.0, "lon": -77.03852433333333, "is_disabled": 0, "is_reserved": 0, "fusion_lon": 0.0, "lat": 38.9093795, "type": "electric_scooter", "bike_id": "4c1373bc1dc1927879f0a48eccf26218"}, {"rental_uris": {"android": "https://dc.lft.to/lastmile_qr_scan", "ios": "https://dc.lft.to/lastmile_qr_scan"}, "name": "b6d523add555222df35e635e946a558c", "fusion_lat": 0.0, "lon": -76.99053533333333, "is_disabled": 0, "is_reserved": 0, "fusion_lon": 0.0, "lat": 38.8635855, "type": "electric_scooter", "bike_id": "b6d523add555222df35e635e946a558c"}, {"rental_uris": {"android": "https://dc.lft.to/lastmile_qr_scan", "ios": "https://dc.lft.to/lastmile_qr_scan"}, "name": "1d21675e993fac8d2cf2a4383074fd41", "fusion_lat": 0.0, "lon": -77.043399, "is_disabled": 0, "is_reserved": 0, "fusion_lon": 0.0, "lat": 38.9088645, "type": "electric_scooter", "bike_id": "1d21675e993fac8d2cf2a4383074fd41"}, {"rental_uris": {"android": "https://dc.lft.to/lastmile_qr_scan", "ios": "https://dc.lft.to/lastmile_qr_scan"}, "name": "38e28b7b2b386b26c2e6898836fce772", "fusion_lat": 0.0, "lon": -77.03961916666667, "is_disabled": 0, "is_reserved": 0, "fusion_lon": 0.0, "lat": 38.901989666666665, "type": "electric_scooter", "bike_id": "38e28b7b2b386b26c2e6898836fce772"}, {"rental_uris": {"android": "https://dc.lft.to/lastmile_qr_scan", "ios": "https://dc.lft.to/lastmile_qr_scan"}, "name": "6c2cf0c8105c4b056ba43c737fcb8851", "fusion_lat": 0.0, "lon": -77.02748566666666, "is_disabled": 0, "is_reserved": 0, "fusion_lon": 0.0, "lat": 38.93200133333333, "type": "electric_scooter", "bike_id": "6c2cf0c8105c4b056ba43c737fcb8851"}, {"rental_uris": {"android": "https://dc.lft.to/lastmile_qr_scan", "ios": "https://dc.lft.to/lastmile_qr_scan"}, "name": "992e9c7b07e5525b322a5e4e732b3072", "fusion_lat": 0.0, "lon": -77.03323583333334, "is_disabled": 0, "is_reserved": 0, "fusion_lon": 0.0, "lat": 38.916213166666665, "type": "electric_scooter", "bike_id": "992e9c7b07e5525b322a5e4e732b3072"}, {"rental_uris": {"android": "https://dc.lft.to/lastmile_qr_scan", "ios": "https://dc.lft.to/lastmile_qr_scan"}, "name": "d3a73f09e4f070e9304863afadf59f53", "fusion_lat": 0.0, "lon": -77.0230355, "is_disabled": 0, "is_reserved": 0, "fusion_lon": 0.0, "lat": 38.916132, "type": "electric_scooter", "bike_id": "d3a73f09e4f070e9304863afadf59f53"}, {"rental_uris": {"android": "https://dc.lft.to/lastmile_qr_scan", "ios": "https://dc.lft.to/lastmile_qr_scan"}, "name": "14137320ff5f2a7bdeb2b85f844a20d1", "fusion_lat": 0.0, "lon": -77.02713433333334, "is_disabled": 0, "is_reserved": 0, "fusion_lon": 0.0, "lat": 38.917588, "type": "electric_scooter", "bike_id": "14137320ff5f2a7bdeb2b85f844a20d1"}, {"rental_uris": {"android": "https://dc.lft.to/lastmile_qr_scan", "ios": "https://dc.lft.to/lastmile_qr_scan"}, "name": "a04a862d6a02a88446e33a84a8c9b4d0", "fusion_lat": 0.0, "lon": -77.036448, "is_disabled": 0, "is_reserved": 0, "fusion_lon": 0.0, "lat": 38.9127615, "type": "electric_scooter", "bike_id": "a04a862d6a02a88446e33a84a8c9b4d0"}, {"rental_uris": {"android": "https://dc.lft.to/lastmile_qr_scan", "ios": "https://dc.lft.to/lastmile_qr_scan"}, "name": "04c43682d84600f7996d94fb87ce9276", "fusion_lat": 0.0, "lon": -77.060327, "is_disabled": 0, "is_reserved": 0, "fusion_lon": 0.0, "lat": 38.9393805, "type": "electric_scooter", "bike_id": "04c43682d84600f7996d94fb87ce9276"}, {"rental_uris": {"android": "https://dc.lft.to/lastmile_qr_scan", "ios": "https://dc.lft.to/lastmile_qr_scan"}, "name": "bb9fffbd4e9cfdcc578c726004dea1e7", "fusion_lat": 0.0, "lon": -76.9411885, "is_disabled": 0, "is_reserved": 0, "fusion_lon": 0.0, "lat": 38.90796266666667, "type": "electric_scooter", "bike_id": "bb9fffbd4e9cfdcc578c726004dea1e7"}, {"rental_uris": {"android": "https://dc.lft.to/lastmile_qr_scan", "ios": "https://dc.lft.to/lastmile_qr_scan"}, "name": "2a07a5a66ff78d38d314d896d111a464", "fusion_lat": 0.0, "lon": -77.0275505, "is_disabled": 0, "is_reserved": 0, "fusion_lon": 0.0, "lat": 38.954152666666666, "type": "electric_scooter", "bike_id": "2a07a5a66ff78d38d314d896d111a464"}, {"rental_uris": {"android": "https://dc.lft.to/lastmile_qr_scan", "ios": "https://dc.lft.to/lastmile_qr_scan"}, "name": "cfdf9571d2a1b088e5411e349f3babfa", "fusion_lat": 0.0, "lon": -77.05151966666666, "is_disabled": 0, "is_reserved": 0, "fusion_lon": 0.0, "lat": 38.90443483333333, "type": "electric_scooter", "bike_id": "cfdf9571d2a1b088e5411e349f3babfa"}, {"rental_uris": {"android": "https://dc.lft.to/lastmile_qr_scan", "ios": "https://dc.lft.to/lastmile_qr_scan"},