{"data": {"bikes": [{"lon": -77.03334233333334, "bike_id": "c7d06fc0439478f85b623b468429f038", "lat": 38.93899616666667, "fusion_lon": 0.0, "fusion_lat": 0.0, "type": "electric_scooter", "name": "c7d06fc0439478f85b623b468429f038", "is_disabled": 0, "rental_uris": {"ios": "https://dc.lft.to/lastmile_qr_scan", "android": "https://dc.lft.to/lastmile_qr_scan"}, "is_reserved": 0}, {"lon": -77.02128266666666, "bike_id": "4a7f19b99182c1675d7418f8a4b92585", "lat": 38.924763, "fusion_lon": 0.0, "fusion_lat": 0.0, "type": "electric_scooter", "name": "4a7f19b99182c1675d7418f8a4b92585", "is_disabled": 0, "rental_uris": {"ios": "https://dc.lft.to/lastmile_qr_scan", "android": "https://dc.lft.to/lastmile_qr_scan"}, "is_reserved": 0}, {"lon": -77.0454565, "bike_id": "05075f74655cdf654d3c9925ff3d9abd", "lat": 38.93410333333333, "fusion_lon": 0.0, "fusion_lat": 0.0, "type": "electric_scooter", "name": "05075f74655cdf654d3c9925ff3d9abd", "is_disabled": 0, "rental_uris": {"ios": "https://dc.lft.to/lastmile_qr_scan", "android": "https://dc.lft.to/lastmile_qr_scan"}, "is_reserved": 0}, {"lon": -77.039305, "bike_id": "ea33fde598c2826c930a2498dbc6659c", "lat": 38.917547, "fusion_lon": 0.0, "fusion_lat": 0.0, "type": "electric_scooter", "name": "ea33fde598c2826c930a2498dbc6659c", "is_disabled": 0, "rental_uris": {"ios": "https://dc.lft.to/lastmile_qr_scan", "android": "https://dc.lft.to/lastmile_qr_scan"}, "is_reserved": 0}, {"lon": -76.96218116666667, "bike_id": "bd41faaf6bb2a22eb326a2d89619b779", "lat": 38.87782966666666, "fusion_lon": 0.0, "fusion_lat": 0.0, "type": "electric_scooter", "name": "bd41faaf6bb2a22eb326a2d89619b779", "is_disabled": 0, "rental_uris": {"ios": "https://dc.lft.to/lastmile_qr_scan", "android": "https://dc.lft.to/lastmile_qr_scan"}, "is_reserved": 0}, {"lon": -77.07329233333333, "bike_id": "ba814f56a22aef7f46f12116c672ab9d", "lat": 38.91400566666667, "fusion_lon": 0.0, "fusion_lat": 0.0, "type": "electric_scooter", "name": "ba814f56a22aef7f46f12116c672ab9d", "is_disabled": 0, "rental_uris": {"ios": "https://dc.lft.to/lastmile_qr_scan", "android": "https://dc.lft.to/lastmile_qr_scan"}, "is_reserved": 0}, {"lon": -77.04476133333333, "bike_id": "63b90fd28863d87bfa4e6e1572a1761f", "lat": 38.918933333333335, "fusion_lon": 0.0, "fusion_lat": 0.0, "type": "electric_scooter", "name": "63b90fd28863d87bfa4e6e1572a1761f", "is_disabled": 0, "rental_uris": {"ios": "https://dc.lft.to/lastmile_qr_scan", "android": "https://dc.lft.to/lastmile_qr_scan"}, "is_reserved": 0}, {"lon": -77.03872633333333, "bike_id": "7a3b9b5873632f94147978f0e7c8ae2c", "lat": 38.903615, "fusion_lon": 0.0, "fusion_lat": 0.0, "type": "electric_scooter", "name": "7a3b9b5873632f94147978f0e7c8ae2c", "is_disabled": 0, "rental_uris": {"ios": "https://dc.lft.to/lastmile_qr_scan", "android": "https://dc.lft.to/lastmile_qr_scan"}, "is_reserved": 0}, {"lon": -77.03188933333334, "bike_id": "a4d5b38d077a69117516660e87671220", "lat": 38.93611383333333, "fusion_lon": 0.0, "fusion_lat": 0.0, "type": "electric_scooter", "name": "a4d5b38d077a69117516660e87671220", "is_disabled": 0, "rental_uris": {"ios": "https://dc.lft.to/lastmile_qr_scan", "android": "https://dc.lft.to/lastmile_qr_scan"}, "is_reserved": 0}, {"lon": -77.04483916666666, "bike_id": "cbd261fcda250b4dcee03aca3f36415a", "lat": 38.9154295, "fusion_lon": 0.0, "fusion_lat": 0.0, "type": "electric_scooter", "name": "cbd261fcda250b4dcee03aca3f36415a", "is_disabled": 0, "rental_uris": {"ios": "https://dc.lft.to/lastmile_qr_scan", "android": "https://dc.lft.to/lastmile_qr_scan"}, "is_reserved": 0}, {"lon": -76.98570533333333, "bike_id": "8a87b1c508aac20504dee0fa300f044f", "lat": 38.896186166666666, "fusion_lon": 0.0, "fusion_lat": 0.0, "type": "electric_scooter", "name": "8a87b1c508aac20504dee0fa300f044f", "is_disabled": 0, "rental_uris": {"ios": "https://dc.lft.to/lastmile_qr_scan", "android": "https://dc.lft.to/lastmile_qr_scan"}, "is_reserved": 0}, {"lon": -77.0267625, "bike_id": "bd163929108c3211d182e65e62e344ef", "lat": 38.91804966666667, "fusion_lon": 0.0, "fusion_lat": 0.0, "type": "electric_scooter", "name": "bd163929108c3211d182e65e62e344ef", "is_disabled": 0, "rental_uris": {"ios": "https://dc.lft.to/lastmile_qr_scan", "android": "https://dc.lft.to/lastmile_qr_scan"}, "is_reserved": 0}, {"lon": -77.04501466666666, "bike_id": "55ec1067c28828f08c8ffd03b849f9a9", "lat": 38.9071965, "fusion_lon": 0.0, "fusion_lat": 0.0, "type": "electric_scooter", "name": "55ec1067c28828f08c8ffd03b849f9a9", "is_disabled": 0, "rental_uris": {"ios": "https://dc.lft.to/lastmile_qr_scan", "android": "https://dc.lft.to/lastmile_qr_scan"}, "is_reserved": 0}, {"lon": -77.03442533333333, "bike_id": "9b1622a755777b07532ba95964f48043", "lat": 38.92872, "fusion_lon": 0.0, "fusion_lat": 0.0, "type": "electric_scooter", "name": "9b1622a755777b07532ba95964f48043", "is_disabled": 0, "rental_uris": {"ios": "https://dc.lft.to/lastmile_qr_scan", "android": "https://dc.lft.to/lastmile_qr_scan"}, "is_reserved": 0}, {"lon": -77.06102683333333, "bike_id": "4ae26ce2e7c962f5b3cf8ba272d14af0", "lat": 38.9436885, "fusion_lon": 0.0, "fusion_lat": 0.0, "type": "electric_scooter", "name": "4ae26ce2e7c962f5b3cf8ba272d14af0", "is_disabled": 0, "rental_uris": {"ios": "https://dc.lft.to/lastmile_qr_scan", "android": "https://dc.lft.to/lastmile_qr_scan"}, "is_reserved": 0}, {"lon": -77.044735, "bike_id": "137af7c9cb65d46bb3181e2856f8eff6", "lat": 38.91881466666667, "fusion_lon": 0.0, "fusion_lat": 0.0, "type": "electric_scooter", "name": "137af7c9cb65d46bb3181e2856f8eff6", "is_disabled": 0, "rental_uris": {"ios": "https://dc.lft.to/lastmile_qr_scan", "android": "https://dc.lft.to/lastmile_qr_scan"}, "is_reserved": 0}, {"lon": -77.02096566666667, "bike_id": "7228ad07542d88a8d3a775af87166b06", "lat": 38.9271355, "fusion_lon": 0.0, "fusion_lat": 0.0, "type": "electric_scooter", "name": "7228ad07542d88a8d3a775af87166b06", "is_disabled": 0, "rental_uris": {"ios": "https://dc.lft.to/lastmile_qr_scan", "android": "https://dc.lft.to/lastmile_qr_scan"}, "is_reserved": 0}, {"lon": -77.01442966666667, "bike_id": "377a323c483e0bd737f93ce1719b9cac", "lat": 38.90959133333333, "fusion_lon": 0.0, "fusion_lat": 0.0, "type": "electric_scooter", "name": "377a323c483e0bd737f93ce1719b9cac", "is_disabled": 0, "rental_uris": {"ios": "https://dc.lft.to/lastmile_qr_scan", "android": "https://dc.lft.to/lastmile_qr_scan"}, "is_reserved": 0}, {"lon": -77.03178733333333, "bike_id": "2e9413cf0d42f8374715bb5b4992bf56", "lat": 38.89957233333333, "fusion_lon": 0.0, "fusion_lat": 0.0, "type": "electric_scooter", "name": "2e9413cf0d42f8374715bb5b4992bf56", "is_disabled": 0, "rental_uris": {"ios": "https://dc.lft.to/lastmile_qr_scan", "android": "https://dc.lft.to/lastmile_qr_scan"}, "is_reserved": 0}, {"lon": -77.02969933333334, "bike_id": "006f264fab347aa9ab55fc91c359aaaf", "lat": 38.897008166666666, "fusion_lon": 0.0, "fusion_lat": 0.0, "type": "electric_scooter", "name": "006f264fab347aa9ab55fc91c359aaaf", "is_disabled": 0, "rental_uris": {"ios": "https://dc.lft.to/lastmile_qr_scan", "android": "https://dc.lft.to/lastmile_qr_scan"}, "is_reserved": 0}, {"lon": -77.05042583333334, "bike_id": "ac660879b1b133c74ae50f4456c985a1", "lat": 38.923674, "fusion_lon": 0.0, "fusion_lat": 0.0, "type": "electric_scooter", "name": "ac660879b1b133c74ae50f4456c985a1", "is_disabled": 0, "rental_uris": {"ios": "https://dc.lft.to/lastmile_qr_scan", "android": "https://dc.lft.to/lastmile_qr_scan"}, "is_reserved": 0}, {"lon": -77.00744266666666, "bike_id": "4c1747975484f4e3c4d452cb3128cc5e", "lat": 38.89820066666667, "fusion_lon": 0.0, "fusion_lat": 0.0, "type": "electric_scooter", "name": "4c1747975484f4e3c4d452cb3128cc5e", "is_disabled": 0, "rental_uris": {"ios": "https://dc.lft.to/lastmile_qr_scan", "android": "https://dc.lft.to/lastmile_qr_scan"}, "is_reserved": 0}, {"lon": -77.01999016666667, "bike_id": "c65d2a6cb9aacace0331c54c2c113777", "lat": 38.902082666666665, "fusion_lon": 0.0, "fusion_lat": 0.0, "type": "electric_scooter", "name": "c65d2a6cb9aacace0331c54c2c113777", "is_disabled": 0, "rental_uris": {"ios": "https://dc.lft.to/lastmile_qr_scan", "android": "https://dc.lft.to/lastmile_qr_scan"}, "is_reserved": 0}, {"lon": -77.02723, "bike_id": "4e02c1396afad8addb682a5d8333fdbb", "lat": 38.906658666666665, "fusion_lon": 0.0, "fusion_lat": 0.0, "type": "electric_scooter", "name": "4e02c1396afad8addb682a5d8333fdbb", "is_disabled": 0, "rental_uris": {"ios": "https://dc.lft.to/lastmile_qr_scan", "android": "https://dc.lft.to/lastmile_qr_scan"}, "is_reserved": 0}, {"lon": -77.02021933333333, "bike_id": "5a9d687e5f089c521bb9bdbfe177ac21", "lat": 38.894317666666666, "fusion_lon": 0.0, "fusion_lat": 0.0, "type": "electric_scooter", "name": "5a9d687e5f089c521bb9bdbfe177ac21", "is_disabled": 0, "rental_uris": {"ios": "https://dc.lft.to/lastmile_qr_scan", "android": "https://dc.lft.to/lastmile_qr_scan"}, "is_reserved": 0}, {"lon": -77.02319266666667, "bike_id": "3bd318b2b16b4a97f8efc4908c68228f", "lat": 38.896026666666664, "fusion_lon": 0.0, "fusion_lat": 0.0, "type": "electric_scooter", "name": "3bd318b2b16b4a97f8efc4908c68228f", "is_disabled": 0, "rental_uris": {"ios": "https://dc.lft.to/lastmile_qr_scan", "android": "https://dc.lft.to/lastmile_qr_scan"}, "is_reserved": 0}, {"lon": -77.1170975, "bike_id": "3cc7a325d03c8bc74ef46e3d18fe7593", "lat": 38.86745483333333, "fusion_lon": 0.0, "fusion_lat": 0.0, "type": "electric_bike", "name": "3cc7a325d03c8bc74ef46e3d18fe7593", "is_disabled": 0, "rental_uris": {"ios": "https://dc.lft.to/lastmile_qr_scan", "android": "https://dc.lft.to/lastmile_qr_scan"}, "is_reserved": 0}, {"lon": -77.00121466666667, "bike_id": "7e46c67edaa024ef7b392395293e9579", "lat": 38.87490616666667, "fusion_lon": 0.0, "fusion_lat": 0.0, "type": "electric_scooter", "name": "7e46c67edaa024ef7b392395293e9579", "is_disabled": 0, "rental_uris": {"ios": "https://dc.lft.to/lastmile_qr_scan", "android": "https://dc.lft.to/lastmile_qr_scan"}, "is_reserved": 0}, {"lon": -77.06169916666667, "bike_id": "ce157c48b937c64e34defcd2de8a02ef", "lat": 38.902682, "fusion_lon": 0.0, "fusion_lat": 0.0, "type": "electric_scooter", "name": "ce157c48b937c64e34defcd2de8a02ef", "is_disabled": 0, "rental_uris": {"ios": "https://dc.lft.to/lastmile_qr_scan", "android": "https://dc.lft.to/lastmile_qr_scan"}, "is_reserved": 0}, {"lon": -77.038782, "bike_id": "d83ed9f01a123acd8c62656fabb15162", "lat": 38.903602166666666, "fusion_lon": 0.0, "fusion_lat": 0.0, "type": "electric_scooter", "name": "d83ed9f01a123acd8c62656fabb15162", "is_disabled": 0, "rental_uris": {"ios": "https://dc.lft.to/lastmile_qr_scan", "android": "https://dc.lft.to/lastmile_qr_scan"}, "is_reserved": 0}, {"lon": -76.98532033333333, "bike_id": "f44fcfd9bb1b8c45fa232250649233a5", "lat": 38.904597833333334, "fusion_lon": 0.0, "fusion_lat": 0.0, "type": "electric_scooter", "name": "f44fcfd9bb1b8c45fa232250649233a5", "is_disabled": 0, "rental_uris": {"ios": "https://dc.lft.to/lastmile_qr_scan", "android": "https://dc.lft.to/lastmile_qr_scan"}, "is_reserved": 0}, {"lon": -77.03275716666667, "bike_id": "5cd9275bd28b4c8ba982bb861b901fc2", "lat": 38.928499333333335, "fusion_lon": 0.0, "fusion_lat": 0.0, "type": "electric_scooter", "name": "5cd9275bd28b4c8ba982bb861b901fc2", "is_disabled": 0, "rental_uris": {"ios": "https://dc.lft.to/lastmile_qr_scan", "android": "https://dc.lft.to/lastmile_qr_scan"}, "is_reserved": 0}, {"lon": -77.032731, "bike_id": "56b0d56173fc31e2f91791d849a7d074", "lat": 38.928515833333336, "fusion_lon": 0.0, "fusion_lat": 0.0, "type": "electric_scooter", "name": "56b0d56173fc31e2f91791d849a7d074", "is_disabled": 0, "rental_uris": {"ios": "https://dc.lft.to/lastmile_qr_scan", "android": "https://dc.lft.to/lastmile_qr_scan"}, "is_reserved": 0}, {"lon": -77.02411383333333, "bike_id": "3ae80d6dbedfaa4b1b1710f953b513af", "lat": 38.920403, "fusion_lon": 0.0, "fusion_lat": 0.0, "type": "electric_scooter", "name": "3ae80d6dbedfaa4b1b1710f953b513af", "is_disabled": 0, "rental_uris": {"ios": "https://dc.lft.to/lastmile_qr_scan", "android": "https://dc.lft.to/lastmile_qr_scan"}, "is_reserved": 0}, {"lon": -77.08983533333334, "bike_id": "1fd54ad11eac086749c82a00274f52b3", "lat": 38.87477333333333, "fusion_lon": 0.0, "fusion_lat": 0.0, "type": "electric_bike", "name": "1fd54ad11eac086749c82a00274f52b3", "is_disabled": 0, "rental_uris": {"ios": "https://dc.lft.to/lastmile_qr_scan", "android": "https://dc.lft.to/lastmile_qr_scan"}, "is_reserved": 0}, {"lon": -77.061837, "bike_id": "ea029bbc1c63d3cbbdeb1ea93fd5755c", "lat": 38.943118166666665, "fusion_lon": 0.0, "fusion_lat": 0.0, "type": "electric_scooter", "name": "ea029bbc1c63d3cbbdeb1ea93fd5755c", "is_disabled": 0, "rental_uris": {"ios": "https://dc.lft.to/lastmile_qr_scan", "android": "https://dc.lft.to/lastmile_qr_scan"}, "is_reserved": 0}, {"lon": -77.0243165, "bike_id": "15893af9f54a90f841acdc1e804baee0", "lat": 38.93711666666667, "fusion_lon": 0.0, "fusion_lat": 0.0, "type": "electric_scooter", "name": "15893af9f54a90f841acdc1e804baee0", "is_disabled": 0, "rental_uris": {"ios": "https://dc.lft.to/lastmile_qr_scan", "android": "https://dc.lft.to/lastmile_qr_scan"}, "is_reserved": 0}, {"lon": -77.01360166666667, "bike_id": "6335fb4824152f8a4d9f2af12161483e", "lat": 38.89242016666667, "fusion_lon": 0.0, "fusion_lat": 0.0, "type": "electric_scooter", "name": "6335fb4824152f8a4d9f2af12161483e", "is_disabled": 0, "rental_uris": {"ios": "https://dc.lft.to/lastmile_qr_scan", "android": "https://dc.lft.to/lastmile_qr_scan"}, "is_reserved": 0}, {"lon": -76.98748633333334, "bike_id": "b85fc00aeb014441efd860fafebed927", "lat": 38.886128666666664, "fusion_lon": 0.0, "fusion_lat": 0.0, "type": "electric_scooter", "name": "b85fc00aeb014441efd860fafebed927", "is_disabled": 0, "rental_uris": {"ios": "https://dc.lft.to/lastmile_qr_scan", "android": "https://dc.lft.to/lastmile_qr_scan"}, "is_reserved": 0}, {"lon": -77.0298215, "bike_id": "61d15cc31ae1e262ea5591dad6243097", "lat": 38.93064916666667, "fusion_lon": 0.0, "fusion_lat": 0.0, "type": "electric_scooter", "name": "61d15cc31ae1e262ea5591dad6243097", "is_disabled": 0, "rental_uris": {"ios": "https://dc.lft.to/lastmile_qr_scan", "android": "https://dc.lft.to/lastmile_qr_scan"}, "is_reserved": 0}, {"lon": -77.0004195, "bike_id": "fe2de3c15d4548621249f7886de03335", "lat": 38.968066666666665, "fusion_lon": 0.0, "fusion_lat": 0.0, "type": "electric_bike", "name": "fe2de3c15d4548621249f7886de03335", "is_disabled": 0, "rental_uris": {"ios": "https://dc.lft.to/lastmile_qr_scan", "android": "https://dc.lft.to/lastmile_qr_scan"}, "is_reserved": 0}, {"lon": -77.02220883333334, "bike_id": "d43c44c7fd3d3932b907cdd2150b5f50", "lat": 38.8921985, "fusion_lon": 0.0, "fusion_lat": 0.0, "type": "electric_scooter", "name": "d43c44c7fd3d3932b907cdd2150b5f50", "is_disabled": 0, "rental_uris": {"ios": "https://dc.lft.to/lastmile_qr_scan", "android": "https://dc.lft.to/lastmile_qr_scan"}, "is_reserved": 0}, {"lon": -77.0382825, "bike_id": "dacb9d740e9977aeffe8408870e58e8c", "lat": 38.9169055, "fusion_lon": 0.0, "fusion_lat": 0.0, "type": "electric_scooter", "name": "dacb9d740e9977aeffe8408870e58e8c", "is_disabled": 0, "rental_uris": {"ios": "https://dc.lft.to/lastmile_qr_scan", "android": "https://dc.lft.to/lastmile_qr_scan"}, "is_reserved": 0}, {"lon": -76.9888755, "bike_id": "aec77a7b4b8a1c6dde7884da239f475d", "lat": 38.86655566666667, "fusion_lon": 0.0, "fusion_lat": 0.0, "type": "electric_scooter", "name": "aec77a7b4b8a1c6dde7884da239f475d", "is_disabled": 0, "rental_uris": {"ios": "https://dc.lft.to/lastmile_qr_scan", "android": "https://dc.lft.to/lastmile_qr_scan"}, "is_reserved": 0}, {"lon": -77.03211516666667, "bike_id": "cb1b56685892b4c0d6848c9c82f630e0", "lat": 38.914936833333336, "fusion_lon": 0.0, "fusion_lat": 0.0, "type": "electric_scooter", "name": "cb1b56685892b4c0d6848c9c82f630e0", "is_disabled": 0, "rental_uris": {"ios": "https://dc.lft.to/lastmile_qr_scan", "android": "https://dc.lft.to/lastmile_qr_scan"}, "is_reserved": 0}, {"lon": -77.02405166666667, "bike_id": "c873bff98a63daf59d277fc325956c24", "lat": 38.90953233333333, "fusion_lon": 0.0, "fusion_lat": 0.0, "type": "electric_scooter", "name": "c873bff98a63daf59d277fc325956c24", "is_disabled": 0, "rental_uris": {"ios": "https://dc.lft.to/lastmile_qr_scan", "android": "https://dc.lft.to/lastmile_qr_scan"}, "is_reserved": 0}, {"lon": -77.0541275, "bike_id": "45e4d24cc1a90886e923e3de22e217f7", "lat": 38.90134883333333, "fusion_lon": 0.0, "fusion_lat": 0.0, "type": "electric_scooter", "name": "45e4d24cc1a90886e923e3de22e217f7", "is_disabled": 0, "rental_uris": {"ios": "https://dc.lft.to/lastmile_qr_scan", "android": "https://dc.lft.to/lastmile_qr_scan"}, "is_reserved": 0}, {"lon": -77.034293, "bike_id": "7205bf0b08d46e0639bfed75041755c2", "lat": 38.902715666666666, "fusion_lon": 0.0, "fusion_lat": 0.0, "type": "electric_scooter", "name": "7205bf0b08d46e0639bfed75041755c2", "is_disabled": 0, "rental_uris": {"ios": "https://dc.lft.to/lastmile_qr_scan", "android": "https://dc.lft.to/lastmile_qr_scan"}, "is_reserved": 0}, {"lon": -77.02917483333333, "bike_id": "d228d0f00f5dbc78bf2e317e068db5e4", "lat": 38.89610733333333, "fusion_lon": 0.0, "fusion_lat": 0.0, "type": "electric_scooter", "name": "d228d0f00f5dbc78bf2e317e068db5e4", "is_disabled": 0, "rental_uris": {"ios": "https://dc.lft.to/lastmile_qr_scan", "android": "https://dc.lft.to/lastmile_qr_scan"}, "is_reserved": 0}, {"lon": -77.0199985, "bike_id": "45eec3452c4cb7d0a7488fd5f15bfb7b", "lat": 38.8759195, "fusion_lon": 0.0, "fusion_lat": 0.0, "type": "electric_scooter", "name": "45eec3452c4cb7d0a7488fd5f15bfb7b", "is_disabled": 0, "rental_uris": {"ios": "https://dc.lft.to/lastmile_qr_scan", "android": "https://dc.lft.to/lastmile_qr_scan"}, "is_reserved": 0}, {"lon": -77.03459933333333, "bike_id": "07c9d170c77db90dd402273ab1ea6efe", "lat": 38.916946333333335, "fusion_lon": 0.0, "fusion_lat": 0.0, "type": "electric_scooter", "name": "07c9d170c77db90dd402273ab1ea6efe", "is_disabled": 0, "rental_uris": {"ios": "https://dc.lft.to/lastmile_qr_scan", "android": "https://dc.lft.to/lastmile_qr_scan"}, "is_reserved": 0}, {"lon": -77.01299716666666, "bike_id": "3a4e824c401cbb3a21600e07ff195cfc", "lat": 38.8946845, "fusion_lon": 0.0, "fusion_lat": 0.0, "type": "electric_scooter", "name": "3a4e824c401cbb3a21600e07ff195cfc", "is_disabled": 0, "rental_uris": {"ios": "https://dc.lft.to/lastmile_qr_scan", "android": "https://dc.lft.to/lastmile_qr_scan"}, "is_reserved": 0}, {"lon": -76.97142683333334, "bike_id": "e5284fa0a583b5c13c38dc92dbda4bc3", "lat": 38.92355216666667, "fusion_lon": 0.0, "fusion_lat": 0.0, "type": "electric_bike", "name": "e5284fa0a583b5c13c38dc92dbda4bc3", "is_disabled": 0, "rental_uris": {"ios": "https://dc.lft.to/lastmile_qr_scan", "android": "https://dc.lft.to/lastmile_qr_scan"}, "is_reserved": 0}, {"lon": -77.1157885, "bike_id": "a083586cd48e0fed99599b09793af5da", "lat": 38.9934495, "fusion_lon": 0.0, "fusion_lat": 0.0, "type": "electric_bike", "name": "a083586cd48e0fed99599b09793af5da", "is_disabled": 0, "rental_uris": {"ios": "https://dc.lft.to/lastmile_qr_scan", "android": "https://dc.lft.to/lastmile_qr_scan"}, "is_reserved": 0}, {"lon": -77.01964883333333, "bike_id": "7a4afb3264fa085d6ba7f1897c91bbd2", "lat": 38.956535333333335, "fusion_lon": 0.0, "fusion_lat": 0.0, "type": "electric_scooter", "name": "7a4afb3264fa085d6ba7f1897c91bbd2", "is_disabled": 0, "rental_uris": {"ios": "https://dc.lft.to/lastmile_qr_scan", "android": "https://dc.lft.to/lastmile_qr_scan"}, "is_reserved": 0}, {"lon": -77.00893166666667, "bike_id": "9ecf2d27a4b293a317b28bf67d75984d", "lat": 38.96817433333333, "fusion_lon": 0.0, "fusion_lat": 0.0, "type": "electric_scooter", "name": "9ecf2d27a4b293a317b28bf67d75984d", "is_disabled": 0, "rental_uris": {"ios": "https://dc.lft.to/lastmile_qr_scan", "android": "https://dc.lft.to/lastmile_qr_scan"}, "is_reserved": 0}, {"lon": -77.04184316666667, "bike_id": "31d5a25b69e5c4b9addfb4a61e148349", "lat": 38.914045333333334, "fusion_lon": 0.0, "fusion_lat": 0.0, "type": "electric_scooter", "name": "31d5a25b69e5c4b9addfb4a61e148349", "is_disabled": 0, "rental_uris": {"ios": "https://dc.lft.to/lastmile_qr_scan", "android": "https://dc.lft.to/lastmile_qr_scan"}, "is_reserved": 0}, {"lon": -77.02404433333334, "bike_id": "e44c2dff6ceb574ec13b8b3ac435e036", "lat": 38.89987033333333, "fusion_lon": 0.0, "fusion_lat": 0.0, "type": "electric_scooter", "name": "e44c2dff6ceb574ec13b8b3ac435e036", "is_disabled": 0, "rental_uris": {"ios": "https://dc.lft.to/lastmile_qr_scan", "android": "https://dc.lft.to/lastmile_qr_scan"}, "is_reserved": 0}, {"lon": -77.038777, "bike_id": "2d028325c76f328c251d18062c329ef3", "lat": 38.9318955, "fusion_lon": 0.0, "fusion_lat": 0.0, "type": "electric_scooter", "name": "2d028325c76f328c251d18062c329ef3", "is_disabled": 0, "rental_uris": {"ios": "https://dc.lft.to/lastmile_qr_scan", "android": "https://dc.lft.to/lastmile_qr_scan"}, "is_reserved": 0}, {"lon": -77.05917466666666, "bike_id": "ee4e88fbe0662f645dd3c0cd2b75e621", "lat": 38.903870833333336, "fusion_lon": 0.0, "fusion_lat": 0.0, "type": "electric_scooter", "name": "ee4e88fbe0662f645dd3c0cd2b75e621", "is_disabled": 0, "rental_uris": {"ios": "https://dc.lft.to/lastmile_qr_scan", "android": "https://dc.lft.to/lastmile_qr_scan"}, "is_reserved": 0}, {"lon": -76.98026316666666, "bike_id": "d989384ff7dd0be0aea89784f18594d4", "lat": 38.888653, "fusion_lon": 0.0, "fusion_lat": 0.0, "type": "electric_scooter", "name": "d989384ff7dd0be0aea89784f18594d4", "is_disabled": 0, "rental_uris": {"ios": "https://dc.lft.to/lastmile_qr_scan", "android": "https://dc.lft.to/lastmile_qr_scan"}, "is_reserved": 0}, {"lon": -77.04405366666667, "bike_id": "9e627f82b8917317ba7074a4561847fd", "lat": 38.921309, "fusion_lon": 0.0, "fusion_lat": 0.0, "type": "electric_scooter", "name": "9e627f82b8917317ba7074a4561847fd", "is_disabled": 0, "rental_uris": {"ios": "https://dc.lft.to/lastmile_qr_scan", "android": "https://dc.lft.to/lastmile_qr_scan"}, "is_reserved": 0}, {"lon": -77.03553533333333, "bike_id": "bf196001366c3e93672d7cd636d88cc4", "lat": 38.91709433333333, "fusion_lon": 0.0, "fusion_lat": 0.0, "type": "electric_scooter", "name": "bf196001366c3e93672d7cd636d88cc4", "is_disabled": 0, "rental_uris": {"ios": "https://dc.lft.to/lastmile_qr_scan", "android": "https://dc.lft.to/lastmile_qr_scan"}, "is_reserved": 0}, {"lon": -77.050256, "bike_id": "8c1494f5e273fbec82b529ac0f149ed7", "lat": 38.896735, "fusion_lon": 0.0, "fusion_lat": 0.0, "type": "electric_scooter", "name": "8c1494f5e273fbec82b529ac0f149ed7", "is_disabled": 0, "rental_uris": {"ios": "https://dc.lft.to/lastmile_qr_scan", "android": "https://dc.lft.to/lastmile_qr_scan"}, "is_reserved": 0}, {"lon": -77.00867133333334, "bike_id": "0b400dba340ceb09331b9e6750ffe2c1", "lat": 38.90660666666667, "fusion_lon": 0.0, "fusion_lat": 0.0, "type": "electric_scooter", "name": "0b400dba340ceb09331b9e6750ffe2c1", "is_disabled": 0, "rental_uris": {"ios": "https://dc.lft.to/lastmile_qr_scan", "android": "https://dc.lft.to/lastmile_qr_scan"}, "is_reserved": 0}, {"lon": -77.00373, "bike_id": "027ba7dda20ea74002e444aea2aac822", "lat": 38.89727083333333, "fusion_lon": 0.0, "fusion_lat": 0.0, "type": "electric_scooter", "name": "027ba7dda20ea74002e444aea2aac822", "is_disabled": 0, "rental_uris": {"ios": "https://dc.lft.to/lastmile_qr_scan", "android": "https://dc.lft.to/lastmile_qr_scan"}, "is_reserved": 0}, {"lon": -77.017486, "bike_id": "941aae21ed650953bc93a462e8f08f86", "lat": 38.883262, "fusion_lon": 0.0, "fusion_lat": 0.0, "type": "electric_scooter", "name": "941aae21ed650953bc93a462e8f08f86", "is_disabled": 0, "rental_uris": {"ios": "https://dc.lft.to/lastmile_qr_scan", "android": "https://dc.lft.to/lastmile_qr_scan"}, "is_reserved": 0}, {"lon": -77.03081533333334, "bike_id": "88a9c34cfa4ca9bf400c6949a933ebd8", "lat": 38.923799, "fusion_lon": 0.0, "fusion_lat": 0.0, "type": "electric_scooter", "name": "88a9c34cfa4ca9bf400c6949a933ebd8", "is_disabled": 0, "rental_uris": {"ios": "https://dc.lft.to/lastmile_qr_scan", "android": "https://dc.lft.to/lastmile_qr_scan"}, "is_reserved": 0}, {"lon": -77.04156933333333, "bike_id": "0b1ee6a070555b0a600a6fd3a3047c73", "lat": 38.91865083333333, "fusion_lon": 0.0, "fusion_lat": 0.0, "type": "electric_scooter", "name": "0b1ee6a070555b0a600a6fd3a3047c73", "is_disabled": 0, "rental_uris": {"ios": "https://dc.lft.to/lastmile_qr_scan", "android": "https://dc.lft.to/lastmile_qr_scan"}, "is_reserved": 0}, {"lon": -77.01321683333333, "bike_id": "c22a045d0ce07847ab1d3effd0adb84e", "lat": 38.871568333333336, "fusion_lon": 0.0, "fusion_lat": 0.0, "type": "electric_scooter", "name": "c22a045d0ce07847ab1d3effd0adb84e", "is_disabled": 0, "rental_uris": {"ios": "https://dc.lft.to/lastmile_qr_scan", "android": "https://dc.lft.to/lastmile_qr_scan"}, "is_reserved": 0}, {"lon": -76.99459216666666, "bike_id": "6ff088636923f41ee233993a1dacf9d3", "lat": 38.966213, "fusion_lon": 0.0, "fusion_lat": 0.0, "type": "electric_bike", "name": "6ff088636923f41ee233993a1dacf9d3", "is_disabled": 0, "rental_uris": {"ios": "https://dc.lft.to/lastmile_qr_scan", "android": "https://dc.lft.to/lastmile_qr_scan"}, "is_reserved": 0}, {"lon": -77.0196705, "bike_id": "989f22ae73ea518cc9d26d94b45f57a0", "lat": 38.876348166666666, "fusion_lon": 0.0, "fusion_lat": 0.0, "type": "electric_scooter", "name": "989f22ae73ea518cc9d26d94b45f57a0", "is_disabled": 0, "rental_uris": {"ios": "https://dc.lft.to/lastmile_qr_scan", "android": "https://dc.lft.to/lastmile_qr_scan"}, "is_reserved": 0}, {"lon": -77.02199416666667, "bike_id": "2988375db45154676fecc49e1550a4e2", "lat": 38.921272333333334, "fusion_lon": 0.0, "fusion_lat": 0.0, "type": "electric_scooter", "name": "2988375db45154676fecc49e1550a4e2", "is_disabled": 0, "rental_uris": {"ios": "https://dc.lft.to/lastmile_qr_scan", "android": "https://dc.lft.to/lastmile_qr_scan"}, "is_reserved": 0}, {"lon": -77.04584366666667, "bike_id": "2b7e183c3757d265251585974eded634", "lat": 38.92129, "fusion_lon": 0.0, "fusion_lat": 0.0, "type": "electric_scooter", "name": "2b7e183c3757d265251585974eded634", "is_disabled": 0, "rental_uris": {"ios": "https://dc.lft.to/lastmile_qr_scan", "android": "https://dc.lft.to/lastmile_qr_scan"}, "is_reserved": 0}, {"lon": -77.00061066666666, "bike_id": "2de9581885cf8ab3aad34ba48d91cb80", "lat": 38.89640833333333, "fusion_lon": 0.0, "fusion_lat": 0.0, "type": "electric_scooter", "name": "2de9581885cf8ab3aad34ba48d91cb80", "is_disabled": 0, "rental_uris": {"ios": "https://dc.lft.to/lastmile_qr_scan", "android": "https://dc.lft.to/lastmile_qr_scan"}, "is_reserved": 0}, {"lon": -77.04176633333333, "bike_id": "3f5f3d15e81440cc94ebbd62cc70ad63", "lat": 38.91653983333333, "fusion_lon": 0.0, "fusion_lat": 0.0, "type": "electric_scooter", "name": "3f5f3d15e81440cc94ebbd62cc70ad63", "is_disabled": 0, "rental_uris": {"ios": "https://dc.lft.to/lastmile_qr_scan", "android": "https://dc.lft.to/lastmile_qr_scan"}, "is_reserved": 0}, {"lon": -76.99547966666667, "bike_id": "abeae4e415e52067c98f9b21ba6c8e6f", "lat": 38.862575, "fusion_lon": 0.0, "fusion_lat": 0.0, "type": "electric_scooter", "name": "abeae4e415e52067c98f9b21ba6c8e6f", "is_disabled": 0, "rental_uris": {"ios": "https://dc.lft.to/lastmile_qr_scan", "android": "https://dc.lft.to/lastmile_qr_scan"}, "is_reserved": 0}, {"lon": -77.080868, "bike_id": "4c8f5a1c0354cdd36a427c99aecb8f34", "lat": 38.947998, "fusion_lon": 0.0, "fusion_lat": 0.0, "type": "electric_scooter", "name": "4c8f5a1c0354cdd36a427c99aecb8f34", "is_disabled": 0, "rental_uris": {"ios": "https://dc.lft.to/lastmile_qr_scan", "android": "https://dc.lft.to/lastmile_qr_scan"}, "is_reserved": 0}, {"lon": -77.03945333333333, "bike_id": "2e85c5bb05755bfd3a5b8ae35974613e", "lat": 38.9306025, "fusion_lon": 0.0, "fusion_lat": 0.0, "type": "electric_scooter", "name": "2e85c5bb05755bfd3a5b8ae35974613e", "is_disabled": 0, "rental_uris": {"ios": "https://dc.lft.to/lastmile_qr_scan", "android": "https://dc.lft.to/lastmile_qr_scan"}, "is_reserved": 0}, {"lon": -77.02562566666667, "bike_id": "f88f15bdf864580a3069d78805d36f16", "lat": 38.907250833333336, "fusion_lon": 0.0, "fusion_lat": 0.0, "type": "electric_scooter", "name": "f88f15bdf864580a3069d78805d36f16", "is_disabled": 0, "rental_uris": {"ios": "https://dc.lft.to/lastmile_qr_scan", "android": "https://dc.lft.to/lastmile_qr_scan"}, "is_reserved": 0}, {"lon": -77.03147866666667, "bike_id": "b846a5ee43222fc8835be021f559bdae", "lat": 38.920217666666666, "fusion_lon": 0.0, "fusion_lat": 0.0, "type": "electric_scooter", "name": "b846a5ee43222fc8835be021f559bdae", "is_disabled": 0, "rental_uris": {"ios": "https://dc.lft.to/lastmile_qr_scan", "android": "https://dc.lft.to/lastmile_qr_scan"}, "is_reserved": 0}, {"lon": -77.00745316666666, "bike_id": "a0854836381e394096c43e379c1f0618", "lat": 38.89835166666667, "fusion_lon": 0.0, "fusion_lat": 0.0, "type": "electric_scooter", "name": "a0854836381e394096c43e379c1f0618", "is_disabled": 0, "rental_uris": {"ios": "https://dc.lft.to/lastmile_qr_scan", "android": "https://dc.lft.to/lastmile_qr_scan"}, "is_reserved": 0}, {"lon": -76.976194, "bike_id": "f8106a403e40a34195db134c69d293b9", "lat": 38.9038395, "fusion_lon": 0.0, "fusion_lat": 0.0, "type": "electric_scooter", "name": "f8106a403e40a34195db134c69d293b9", "is_disabled": 0, "rental_uris": {"ios": "https://dc.lft.to/lastmile_qr_scan", "android": "https://dc.lft.to/lastmile_qr_scan"}, "is_reserved": 0}, {"lon": -77.07710666666667, "bike_id": "9df656d4e32f558e6b201538771faea9", "lat": 38.956991333333335, "fusion_lon": 0.0, "fusion_lat": 0.0, "type": "electric_bike", "name": "9df656d4e32f558e6b201538771faea9", "is_disabled": 0, "rental_uris": {"ios": "https://dc.lft.to/lastmile_qr_scan", "android": "https://dc.lft.to/lastmile_qr_scan"}, "is_reserved": 0}, {"lon": -77.04498816666667, "bike_id": "6a4c8ca2e38c6ed20900ef1c0a8a7f9d", "lat": 38.908489833333334, "fusion_lon": 0.0, "fusion_lat": 0.0, "type": "electric_scooter", "name": "6a4c8ca2e38c6ed20900ef1c0a8a7f9d", "is_disabled": 0, "rental_uris": {"ios": "https://dc.lft.to/lastmile_qr_scan", "android": "https://dc.lft.to/lastmile_qr_scan"}, "is_reserved": 0}, {"lon": -77.04821966666667, "bike_id": "f27c4c3d32e5dcf35a27c0cd232b466b", "lat": 38.91101316666666, "fusion_lon": 0.0, "fusion_lat": 0.0, "type": "electric_scooter", "name": "f27c4c3d32e5dcf35a27c0cd232b466b", "is_disabled": 0, "rental_uris": {"ios": "https://dc.lft.to/lastmile_qr_scan", "android": "https://dc.lft.to/lastmile_qr_scan"}, "is_reserved": 0}, {"lon": -76.9990435, "bike_id": "fa17fb6e651c9b3be5b881dd7e75cc91", "lat": 38.90952633333333, "fusion_lon": 0.0, "fusion_lat": 0.0, "type": "electric_scooter", "name": "fa17fb6e651c9b3be5b881dd7e75cc91", "is_disabled": 0, "rental_uris": {"ios": "https://dc.lft.to/lastmile_qr_scan", "android": "https://dc.lft.to/lastmile_qr_scan"}, "is_reserved": 0}, {"lon": -77.044604, "bike_id": "fa124632730e47be1d3993a7d586e3a7", "lat": 38.918512, "fusion_lon": 0.0, "fusion_lat": 0.0, "type": "electric_scooter", "name": "fa124632730e47be1d3993a7d586e3a7", "is_disabled": 0, "rental_uris": {"ios": "https://dc.lft.to/lastmile_qr_scan", "android": "https://dc.lft.to/lastmile_qr_scan"}, "is_reserved": 0}, {"lon": -77.019976, "bike_id": "64b287c56dc3cc113ed0fb3104c49d44", "lat": 38.9157705, "fusion_lon": 0.0, "fusion_lat": 0.0, "type": "electric_scooter", "name": "64b287c56dc3cc113ed0fb3104c49d44", "is_disabled": 0, "rental_uris": {"ios": "https://dc.lft.to/lastmile_qr_scan", "android": "https://dc.lft.to/lastmile_qr_scan"}, "is_reserved": 0}, {"lon": -76.93610433333333, "bike_id": "1d3e10a5c23d73bbfb388c31cb514c02", "lat": 38.896814, "fusion_lon": 0.0, "fusion_lat": 0.0, "type": "electric_scooter", "name": "1d3e10a5c23d73bbfb388c31cb514c02", "is_disabled": 0, "rental_uris": {"ios": "https://dc.lft.to/lastmile_qr_scan", "android": "https://dc.lft.to/lastmile_qr_scan"}, "is_reserved": 0}, {"lon": -77.04151283333333, "bike_id": "4cd6abe0f97b9eeecf2966aeec017c3c", "lat": 38.91265283333333, "fusion_lon": 0.0, "fusion_lat": 0.0, "type": "electric_scooter", "name": "4cd6abe0f97b9eeecf2966aeec017c3c", "is_disabled": 0, "rental_uris": {"ios": "https://dc.lft.to/lastmile_qr_scan", "android": "https://dc.lft.to/lastmile_qr_scan"}, "is_reserved": 0}, {"lon": -77.02231933333333, "bike_id": "017a2fe27cb2932a248d016232b3efff", "lat": 38.887463, "fusion_lon": 0.0, "fusion_lat": 0.0, "type": "electric_scooter", "name": "017a2fe27cb2932a248d016232b3efff", "is_disabled": 0, "rental_uris": {"ios": "https://dc.lft.to/lastmile_qr_scan", "android": "https://dc.lft.to/lastmile_qr_scan"}, "is_reserved": 0}, {"lon": -77.059428, "bike_id": "23d194c7cb5afb948ec82bf343d549ac", "lat": 38.911907666666664, "fusion_lon": 0.0, "fusion_lat": 0.0, "type": "electric_bike", "name": "23d194c7cb5afb948ec82bf343d549ac", "is_disabled": 0, "rental_uris": {"ios": "https://dc.lft.to/lastmile_qr_scan", "android": "https://dc.lft.to/lastmile_qr_scan"}, "is_reserved": 0}, {"lon": -76.95655166666667, "bike_id": "2e3bf7f1d99e1bf184836498044ba25a", "lat": 38.895542666666664, "fusion_lon": 0.0, "fusion_lat": 0.0, "type": "electric_scooter", "name": "2e3bf7f1d99e1bf184836498044ba25a", "is_disabled": 0, "rental_uris": {"ios": "https://dc.lft.to/lastmile_qr_scan", "android": "https://dc.lft.to/lastmile_qr_scan"}, "is_reserved": 0}, {"lon": -77.02635583333333, "bike_id": "6bbfa3ef1ed150ce1f15ab6277e48b28", "lat": 38.90243483333333, "fusion_lon": 0.0, "fusion_lat": 0.0, "type": "electric_scooter", "name": "6bbfa3ef1ed150ce1f15ab6277e48b28", "is_disabled": 0, "rental_uris": {"ios": "https://dc.lft.to/lastmile_qr_scan", "android": "https://dc.lft.to/lastmile_qr_scan"}, "is_reserved": 0}, {"lon": -77.178447, "bike_id": "57f262ba1731d5db8230a6bea5afa8fd", "lat": 39.0885735, "fusion_lon": 0.0, "fusion_lat": 0.0, "type": "electric_bike", "name": "57f262ba1731d5db8230a6bea5afa8fd", "is_disabled": 0, "rental_uris": {"ios": "https://dc.lft.to/lastmile_qr_scan", "android": "https://dc.lft.to/lastmile_qr_scan"}, "is_reserved": 0}, {"lon": -76.99012566666667, "bike_id": "358ace9c60afa2b0f4dcc92066105dd4", "lat": 38.90392583333333, "fusion_lon": 0.0, "fusion_lat": 0.0, "type": "electric_scooter", "name": "358ace9c60afa2b0f4dcc92066105dd4", "is_disabled": 0, "rental_uris": {"ios": "https://dc.lft.to/lastmile_qr_scan", "android": "https://dc.lft.to/lastmile_qr_scan"}, "is_reserved": 0}, {"lon": -76.99175166666667, "bike_id": "72e794726add4cd1522f7065b7b0afce", "lat": 38.90965333333333, "fusion_lon": 0.0, "fusion_lat": 0.0, "type": "electric_scooter", "name": "72e794726add4cd1522f7065b7b0afce", "is_disabled": 0, "rental_uris": {"ios": "https://dc.lft.to/lastmile_qr_scan", "android": "https://dc.lft.to/lastmile_qr_scan"}, "is_reserved": 0}, {"lon": -77.04228583333334, "bike_id": "e87cdd40c69cc2d5a2ff864b310064b1", "lat": 38.923218, "fusion_lon": 0.0, "fusion_lat": 0.0, "type": "electric_scooter", "name": "e87cdd40c69cc2d5a2ff864b310064b1", "is_disabled": 0, "rental_uris": {"ios": "https://dc.lft.to/lastmile_qr_scan", "android": "https://dc.lft.to/lastmile_qr_scan"}, "is_reserved": 0}, {"lon": -77.03286933333334, "bike_id": "3af4d3f56053f7844e4f948bd5d5baf2", "lat": 38.936455333333335, "fusion_lon": 0.0, "fusion_lat": 0.0, "type": "electric_scooter", "name": "3af4d3f56053f7844e4f948bd5d5baf2", "is_disabled": 0, "rental_uris": {"ios": "https://dc.lft.to/lastmile_qr_scan", "android": "https://dc.lft.to/lastmile_qr_scan"}, "is_reserved": 0}, {"lon": -77.02625916666666, "bike_id": "f4544c6844a5b11610b9065afaaa2449", "lat": 38.9282215, "fusion_lon": 0.0, "fusion_lat": 0.0, "type": "electric_scooter", "name": "f4544c6844a5b11610b9065afaaa2449", "is_disabled": 0, "rental_uris": {"ios": "https://dc.lft.to/lastmile_qr_scan", "android": "https://dc.lft.to/lastmile_qr_scan"}, "is_reserved": 0}, {"lon": -76.9770685, "bike_id": "c046cecd30a57aa2207664464d50f951", "lat": 38.888424666666666, "fusion_lon": 0.0, "fusion_lat": 0.0, "type": "electric_bike", "name": "c046cecd30a57aa2207664464d50f951", "is_disabled": 0, "rental_uris": {"ios": "https://dc.lft.to/lastmile_qr_scan", "android": "https://dc.lft.to/lastmile_qr_scan"}, "is_reserved": 0}, {"lon": -77.0363435, "bike_id": "daf328926692ee4feac183e2e031a6f9", "lat": 38.918092, "fusion_lon": 0.0, "fusion_lat": 0.0, "type": "electric_scooter", "name": "daf328926692ee4feac183e2e031a6f9", "is_disabled": 0, "rental_uris": {"ios": "https://dc.lft.to/lastmile_qr_scan", "android": "https://dc.lft.to/lastmile_qr_scan"}, "is_reserved": 0}, {"lon": -77.0612255, "bike_id": "b65018bd708eb9edfdb273cb49a9ee8f", "lat": 38.902385333333335, "fusion_lon": 0.0, "fusion_lat": 0.0, "type": "electric_scooter", "name": "b65018bd708eb9edfdb273cb49a9ee8f", "is_disabled": 0, "rental_uris": {"ios": "https://dc.lft.to/lastmile_qr_scan", "android": "https://dc.lft.to/lastmile_qr_scan"}, "is_reserved": 0}, {"lon": -77.02953116666667, "bike_id": "d332d496f075bf4f174c7c8f8c201183", "lat": 38.921742, "fusion_lon": 0.0, "fusion_lat": 0.0, "type": "electric_scooter", "name": "d332d496f075bf4f174c7c8f8c201183", "is_disabled": 0, "rental_uris": {"ios": "https://dc.lft.to/lastmile_qr_scan", "android": "https://dc.lft.to/lastmile_qr_scan"}, "is_reserved": 0}, {"lon": -77.02150216666666, "bike_id": "6c5691d587f5625a6a00a0e3ab714454", "lat": 38.92497916666667, "fusion_lon": 0.0, "fusion_lat": 0.0, "type": "electric_scooter", "name": "6c5691d587f5625a6a00a0e3ab714454", "is_disabled": 0, "rental_uris": {"ios": "https://dc.lft.to/lastmile_qr_scan", "android": "https://dc.lft.to/lastmile_qr_scan"}, "is_reserved": 0}, {"lon": -76.98571683333333, "bike_id": "53fdf5492a0d2593126411672a49bf72", "lat": 38.90638233333333, "fusion_lon": 0.0, "fusion_lat": 0.0, "type": "electric_scooter", "name": "53fdf5492a0d2593126411672a49bf72", "is_disabled": 0, "rental_uris": {"ios": "https://dc.lft.to/lastmile_qr_scan", "android": "https://dc.lft.to/lastmile_qr_scan"}, "is_reserved": 0}, {"lon": -77.04404533333333, "bike_id": "499e9288e78ff45df57218be643e08ea", "lat": 38.91565683333334, "fusion_lon": 0.0, "fusion_lat": 0.0, "type": "electric_scooter", "name": "499e9288e78ff45df57218be643e08ea", "is_disabled": 0, "rental_uris": {"ios": "https://dc.lft.to/lastmile_qr_scan", "android": "https://dc.lft.to/lastmile_qr_scan"}, "is_reserved": 0}, {"lon": -77.06407716666666, "bike_id": "c2b2b0be24d2ac4b6848f76c83d42742", "lat": 38.84060683333333, "fusion_lon": 0.0, "fusion_lat": 0.0, "type": "electric_bike", "name": "c2b2b0be24d2ac4b6848f76c83d42742", "is_disabled": 0, "rental_uris": {"ios": "https://dc.lft.to/lastmile_qr_scan", "android": "https://dc.lft.to/lastmile_qr_scan"}, "is_reserved": 0}, {"lon": -77.04363366666666, "bike_id": "720627ba50e731bdd080cf9bf2200145", "lat": 38.90759766666667, "fusion_lon": 0.0, "fusion_lat": 0.0, "type": "electric_scooter", "name": "720627ba50e731bdd080cf9bf2200145", "is_disabled": 0, "rental_uris": {"ios": "https://dc.lft.to/lastmile_qr_scan", "android": "https://dc.lft.to/lastmile_qr_scan"}, "is_reserved": 0}, {"lon": -77.02900016666666, "bike_id": "dbcb64f3538b1ebcea93534903e47461", "lat": 38.940435, "fusion_lon": 0.0, "fusion_lat": 0.0, "type": "electric_scooter", "name": "dbcb64f3538b1ebcea93534903e47461", "is_disabled": 0, "rental_uris": {"ios": "https://dc.lft.to/lastmile_qr_scan", "android": "https://dc.lft.to/lastmile_qr_scan"}, "is_reserved": 0}, {"lon": -76.97860366666667, "bike_id": "eb0326480cc9c84e308fe2f6026957eb", "lat": 38.87070333333333, "fusion_lon": 0.0, "fusion_lat": 0.0, "type": "electric_scooter", "name": "eb0326480cc9c84e308fe2f6026957eb", "is_disabled": 0, "rental_uris": {"ios": "https://dc.lft.to/lastmile_qr_scan", "android": "https://dc.lft.to/lastmile_qr_scan"}, "is_reserved": 0}, {"lon": -77.034713, "bike_id": "4be09f85ef5f1b521871ca13511b0c53", "lat": 38.9187055, "fusion_lon": 0.0, "fusion_lat": 0.0, "type": "electric_scooter", "name": "4be09f85ef5f1b521871ca13511b0c53", "is_disabled": 0, "rental_uris": {"ios": "https://dc.lft.to/lastmile_qr_scan", "android": "https://dc.lft.to/lastmile_qr_scan"}, "is_reserved": 0}, {"lon": -77.03507566666667, "bike_id": "ae2e167ece8d1d300a7d1e857248cf26", "lat": 38.918770333333335, "fusion_lon": 0.0, "fusion_lat": 0.0, "type": "electric_scooter", "name": "ae2e167ece8d1d300a7d1e857248cf26", "is_disabled": 0, "rental_uris": {"ios": "https://dc.lft.to/lastmile_qr_scan", "android": "https://dc.lft.to/lastmile_qr_scan"}, "is_reserved": 0}, {"lon": -77.03261233333333, "bike_id": "46ccf0f53d5d1884941648cdac57ce47", "lat": 38.90456016666667, "fusion_lon": 0.0, "fusion_lat": 0.0, "type": "electric_scooter", "name": "46ccf0f53d5d1884941648cdac57ce47", "is_disabled": 0, "rental_uris": {"ios": "https://dc.lft.to/lastmile_qr_scan", "android": "https://dc.lft.to/lastmile_qr_scan"}, "is_reserved": 0}, {"lon": -77.01582266666666, "bike_id": "9e448c3af53276ed673c35314113bd8d", "lat": 38.8917975, "fusion_lon": 0.0, "fusion_lat": 0.0, "type": "electric_scooter", "name": "9e448c3af53276ed673c35314113bd8d", "is_disabled": 0, "rental_uris": {"ios": "https://dc.lft.to/lastmile_qr_scan", "android": "https://dc.lft.to/lastmile_qr_scan"}, "is_reserved": 0}, {"lon": -77.05307016666667, "bike_id": "8217cc1afde34fd1e72bde96c39dafc2", "lat": 38.898487833333334, "fusion_lon": 0.0, "fusion_lat": 0.0, "type": "electric_scooter", "name": "8217cc1afde34fd1e72bde96c39dafc2", "is_disabled": 0, "rental_uris": {"ios": "https://dc.lft.to/lastmile_qr_scan", "android": "https://dc.lft.to/lastmile_qr_scan"}, "is_reserved": 0}, {"lon": -76.97305066666667, "bike_id": "edfb449de6593fe020bb5e701bd98bcd", "lat": 38.9198845, "fusion_lon": 0.0, "fusion_lat": 0.0, "type": "electric_scooter", "name": "edfb449de6593fe020bb5e701bd98bcd", "is_disabled": 0, "rental_uris": {"ios": "https://dc.lft.to/lastmile_qr_scan", "android": "https://dc.lft.to/lastmile_qr_scan"}, "is_reserved": 0}, {"lon": -77.0222275, "bike_id": "73ea9c9415ceeff3401b95bd712911f6", "lat": 38.8922005, "fusion_lon": 0.0, "fusion_lat": 0.0, "type": "electric_scooter", "name": "73ea9c9415ceeff3401b95bd712911f6", "is_disabled": 0, "rental_uris": {"ios": "https://dc.lft.to/lastmile_qr_scan", "android": "https://dc.lft.to/lastmile_qr_scan"}, "is_reserved": 0}, {"lon": -77.04738716666667, "bike_id": "b87cfb0f553159899a16338c995fb718", "lat": 38.90972933333333, "fusion_lon": 0.0, "fusion_lat": 0.0, "type": "electric_scooter", "name": "b87cfb0f553159899a16338c995fb718", "is_disabled": 0, "rental_uris": {"ios": "https://dc.lft.to/lastmile_qr_scan", "android": "https://dc.lft.to/lastmile_qr_scan"}, "is_reserved": 0}, {"lon": -77.059592, "bike_id": "f77d70d89e1b6a460692cfb2b0b2ec00", "lat": 38.901048833333334, "fusion_lon": 0.0, "fusion_lat": 0.0, "type": "electric_scooter", "name": "f77d70d89e1b6a460692cfb2b0b2ec00", "is_disabled": 0, "rental_uris": {"ios": "https://dc.lft.to/lastmile_qr_scan", "android": "https://dc.lft.to/lastmile_qr_scan"}, "is_reserved": 0}, {"lon": -77.06122666666667, "bike_id": "933a2ec640dcee376154a36770795e71", "lat": 38.90446433333334, "fusion_lon": 0.0, "fusion_lat": 0.0, "type": "electric_scooter", "name": "933a2ec640dcee376154a36770795e71", "is_disabled": 0, "rental_uris": {"ios": "https://dc.lft.to/lastmile_qr_scan", "android": "https://dc.lft.to/lastmile_qr_scan"}, "is_reserved": 0}, {"lon": -76.997672, "bike_id": "2b400e65c2d5792f852c44b11a452553", "lat": 38.9244795, "fusion_lon": 0.0, "fusion_lat": 0.0, "type": "electric_scooter", "name": "2b400e65c2d5792f852c44b11a452553", "is_disabled": 0, "rental_uris": {"ios": "https://dc.lft.to/lastmile_qr_scan", "android": "https://dc.lft.to/lastmile_qr_scan"}, "is_reserved": 0}, {"lon": -77.03213883333333, "bike_id": "003d6aa82b49fe49a0e9e36e99457f5f", "lat": 38.90783916666667, "fusion_lon": 0.0, "fusion_lat": 0.0, "type": "electric_scooter", "name": "003d6aa82b49fe49a0e9e36e99457f5f", "is_disabled": 0, "rental_uris": {"ios": "https://dc.lft.to/lastmile_qr_scan", "android": "https://dc.lft.to/lastmile_qr_scan"}, "is_reserved": 0}, {"lon": -77.02991416666667, "bike_id": "3208ebad64c45af27feaced0ed08c046", "lat": 38.974400333333335, "fusion_lon": 0.0, "fusion_lat": 0.0, "type": "electric_bike", "name": "3208ebad64c45af27feaced0ed08c046", "is_disabled": 0, "rental_uris": {"ios": "https://dc.lft.to/lastmile_qr_scan", "android": "https://dc.lft.to/lastmile_qr_scan"}, "is_reserved": 0}, {"lon": -77.03078383333333, "bike_id": "dbaad29e25cc04db056fbef8ca9b8833", "lat": 38.885896333333335, "fusion_lon": 0.0, "fusion_lat": 0.0, "type": "electric_scooter", "name": "dbaad29e25cc04db056fbef8ca9b8833", "is_disabled": 0, "rental_uris": {"ios": "https://dc.lft.to/lastmile_qr_scan", "android": "https://dc.lft.to/lastmile_qr_scan"}, "is_reserved": 0}, {"lon": -77.03273383333334, "bike_id": "d3c409de436a0e1ed99eb21f67ef2935", "lat": 38.938891, "fusion_lon": 0.0, "fusion_lat": 0.0, "type": "electric_scooter", "name": "d3c409de436a0e1ed99eb21f67ef2935", "is_disabled": 0, "rental_uris": {"ios": "https://dc.lft.to/lastmile_qr_scan", "android": "https://dc.lft.to/lastmile_qr_scan"}, "is_reserved": 0}, {"lon": -77.03716666666666, "bike_id": "c420f55306ad1eca1b4d7fd6ddd24a70", "lat": 38.9263485, "fusion_lon": 0.0, "fusion_lat": 0.0, "type": "electric_scooter", "name": "c420f55306ad1eca1b4d7fd6ddd24a70", "is_disabled": 0, "rental_uris": {"ios": "https://dc.lft.to/lastmile_qr_scan", "android": "https://dc.lft.to/lastmile_qr_scan"}, "is_reserved": 0}, {"lon": -77.00349, "bike_id": "6215c7d297352a22cfbf28fdf25b9d78", "lat": 38.895180833333335, "fusion_lon": 0.0, "fusion_lat": 0.0, "type": "electric_scooter", "name": "6215c7d297352a22cfbf28fdf25b9d78", "is_disabled": 0, "rental_uris": {"ios": "https://dc.lft.to/lastmile_qr_scan", "android": "https://dc.lft.to/lastmile_qr_scan"}, "is_reserved": 0}, {"lon": -77.03777033333333, "bike_id": "8daae65e26765eaec6704caa9daad766", "lat": 38.91695516666667, "fusion_lon": 0.0, "fusion_lat": 0.0, "type": "electric_scooter", "name": "8daae65e26765eaec6704caa9daad766", "is_disabled": 0, "rental_uris": {"ios": "https://dc.lft.to/lastmile_qr_scan", "android": "https://dc.lft.to/lastmile_qr_scan"}, "is_reserved": 0}, {"lon": -77.04109716666666, "bike_id": "3d46f14079b4440f0826482972e8e5fc", "lat": 38.917866333333336, "fusion_lon": 0.0, "fusion_lat": 0.0, "type": "electric_scooter", "name": "3d46f14079b4440f0826482972e8e5fc", "is_disabled": 0, "rental_uris": {"ios": "https://dc.lft.to/lastmile_qr_scan", "android": "https://dc.lft.to/lastmile_qr_scan"}, "is_reserved": 0}, {"lon": -76.97747266666667, "bike_id": "d0e042c106bd2528419affc6d7d372cc", "lat": 38.864579666666664, "fusion_lon": 0.0, "fusion_lat": 0.0, "type": "electric_bike", "name": "d0e042c106bd2528419affc6d7d372cc", "is_disabled": 0, "rental_uris": {"ios": "https://dc.lft.to/lastmile_qr_scan", "android": "https://dc.lft.to/lastmile_qr_scan"}, "is_reserved": 0}, {"lon": -76.99166766666667, "bike_id": "7028ba475e8b4b0da28be5b2fe9b54ba", "lat": 38.90034633333333, "fusion_lon": 0.0, "fusion_lat": 0.0, "type": "electric_scooter", "name": "7028ba475e8b4b0da28be5b2fe9b54ba", "is_disabled": 0, "rental_uris": {"ios": "https://dc.lft.to/lastmile_qr_scan", "android": "https://dc.lft.to/lastmile_qr_scan"}, "is_reserved": 0}, {"lon": -77.04471683333334, "bike_id": "d8b70c927014310348d4765091db3785", "lat": 38.915329666666665, "fusion_lon": 0.0, "fusion_lat": 0.0, "type": "electric_scooter", "name": "d8b70c927014310348d4765091db3785", "is_disabled": 0, "rental_uris": {"ios": "https://dc.lft.to/lastmile_qr_scan", "android": "https://dc.lft.to/lastmile_qr_scan"}, "is_reserved": 0}, {"lon": -77.04307583333333, "bike_id": "2a945146fc5cb4263a9b66ebc2a5f491", "lat": 38.910226333333334, "fusion_lon": 0.0, "fusion_lat": 0.0, "type": "electric_scooter", "name": "2a945146fc5cb4263a9b66ebc2a5f491", "is_disabled": 0, "rental_uris": {"ios": "https://dc.lft.to/lastmile_qr_scan", "android": "https://dc.lft.to/lastmile_qr_scan"}, "is_reserved": 0}, {"lon": -77.01237383333333, "bike_id": "564a963004bce8213fae5ce8e345dc9e", "lat": 38.83048266666667, "fusion_lon": 0.0, "fusion_lat": 0.0, "type": "electric_scooter", "name": "564a963004bce8213fae5ce8e345dc9e", "is_disabled": 0, "rental_uris": {"ios": "https://dc.lft.to/lastmile_qr_scan", "android": "https://dc.lft.to/lastmile_qr_scan"}, "is_reserved": 0}, {"lon": -77.0036885, "bike_id": "252a187f9749644b80372943807bcf11", "lat": 38.8987905, "fusion_lon": 0.0, "fusion_lat": 0.0, "type": "electric_scooter", "name": "252a187f9749644b80372943807bcf11", "is_disabled": 0, "rental_uris": {"ios": "https://dc.lft.to/lastmile_qr_scan", "android": "https://dc.lft.to/lastmile_qr_scan"}, "is_reserved": 0}, {"lon": -77.03185216666667, "bike_id": "8759f10bae226096638a470b77ee3337", "lat": 38.909139833333334, "fusion_lon": 0.0, "fusion_lat": 0.0, "type": "electric_scooter", "name": "8759f10bae226096638a470b77ee3337", "is_disabled": 0, "rental_uris": {"ios": "https://dc.lft.to/lastmile_qr_scan", "android": "https://dc.lft.to/lastmile_qr_scan"}, "is_reserved": 0}, {"lon": -77.04604433333333, "bike_id": "513dbec45c9ace8a3ff2921c57ba16d8", "lat": 38.916059, "fusion_lon": 0.0, "fusion_lat": 0.0, "type": "electric_scooter", "name": "513dbec45c9ace8a3ff2921c57ba16d8", "is_disabled": 0, "rental_uris": {"ios": "https://dc.lft.to/lastmile_qr_scan", "android": "https://dc.lft.to/lastmile_qr_scan"}, "is_reserved": 0}, {"lon": -77.03473033333333, "bike_id": "6cf241c00962032e14cc5ecd56ac7a87", "lat": 38.920611666666666, "fusion_lon": 0.0, "fusion_lat": 0.0, "type": "electric_scooter", "name": "6cf241c00962032e14cc5ecd56ac7a87", "is_disabled": 0, "rental_uris": {"ios": "https://dc.lft.to/lastmile_qr_scan", "android": "https://dc.lft.to/lastmile_qr_scan"}, "is_reserved": 0}, {"lon": -77.01944133333333, "bike_id": "f31b4af9a43da950202546e0405ea5e4", "lat": 38.924163166666666, "fusion_lon": 0.0, "fusion_lat": 0.0, "type": "electric_scooter", "name": "f31b4af9a43da950202546e0405ea5e4", "is_disabled": 0, "rental_uris": {"ios": "https://dc.lft.to/lastmile_qr_scan", "android": "https://dc.lft.to/lastmile_qr_scan"}, "is_reserved": 0}, {"lon": -76.994571, "bike_id": "d37e493fc6e7607d2123bfb4107267a3", "lat": 38.86220083333333, "fusion_lon": 0.0, "fusion_lat": 0.0, "type": "electric_scooter", "name": "d37e493fc6e7607d2123bfb4107267a3", "is_disabled": 0, "rental_uris": {"ios": "https://dc.lft.to/lastmile_qr_scan", "android": "https://dc.lft.to/lastmile_qr_scan"}, "is_reserved": 0}, {"lon": -77.03214216666667, "bike_id": "ec13e8b1ad325b25c797d01b4993859e", "lat": 38.91716066666667, "fusion_lon": 0.0, "fusion_lat": 0.0, "type": "electric_scooter", "name": "ec13e8b1ad325b25c797d01b4993859e", "is_disabled": 0, "rental_uris": {"ios": "https://dc.lft.to/lastmile_qr_scan", "android": "https://dc.lft.to/lastmile_qr_scan"}, "is_reserved": 0}, {"lon": -77.04160166666666, "bike_id": "10ad583ddaa1a19d6c85f6b277412439", "lat": 38.91867166666667, "fusion_lon": 0.0, "fusion_lat": 0.0, "type": "electric_scooter", "name": "10ad583ddaa1a19d6c85f6b277412439", "is_disabled": 0, "rental_uris": {"ios": "https://dc.lft.to/lastmile_qr_scan", "android": "https://dc.lft.to/lastmile_qr_scan"}, "is_reserved": 0}, {"lon": -77.02881266666667, "bike_id": "2e4a8100d4a5b0a588074dbb82c560ad", "lat": 38.928177833333336, "fusion_lon": 0.0, "fusion_lat": 0.0, "type": "electric_scooter", "name": "2e4a8100d4a5b0a588074dbb82c560ad", "is_disabled": 0, "rental_uris": {"ios": "https://dc.lft.to/lastmile_qr_scan", "android": "https://dc.lft.to/lastmile_qr_scan"}, "is_reserved": 0}, {"lon": -77.0079565, "bike_id": "3d93642aa42ead66464cd15cee88d3e1", "lat": 38.9838655, "fusion_lon": 0.0, "fusion_lat": 0.0, "type": "electric_bike", "name": "3d93642aa42ead66464cd15cee88d3e1", "is_disabled": 0, "rental_uris": {"ios": "https://dc.lft.to/lastmile_qr_scan", "android": "https://dc.lft.to/lastmile_qr_scan"}, "is_reserved": 0}, {"lon": -77.06271466666666, "bike_id": "80800027d4404eff2810d625b46f6998", "lat": 38.9059475, "fusion_lon": 0.0, "fusion_lat": 0.0, "type": "electric_scooter", "name": "80800027d4404eff2810d625b46f6998", "is_disabled": 0, "rental_uris": {"ios": "https://dc.lft.to/lastmile_qr_scan", "android": "https://dc.lft.to/lastmile_qr_scan"}, "is_reserved": 0}, {"lon": -77.04252683333333, "bike_id": "9679c6b520d50aa7fc69bf5dee8842ed", "lat": 38.92291816666667, "fusion_lon": 0.0, "fusion_lat": 0.0, "type": "electric_scooter", "name": "9679c6b520d50aa7fc69bf5dee8842ed", "is_disabled": 0, "rental_uris": {"ios": "https://dc.lft.to/lastmile_qr_scan", "android": "https://dc.lft.to/lastmile_qr_scan"}, "is_reserved": 0}, {"lon": -77.00929983333333, "bike_id": "2570d180a3775a1e3cf3bcb061cc1fe8", "lat": 38.89605983333333, "fusion_lon": 0.0, "fusion_lat": 0.0, "type": "electric_scooter", "name": "2570d180a3775a1e3cf3bcb061cc1fe8", "is_disabled": 0, "rental_uris": {"ios": "https://dc.lft.to/lastmile_qr_scan", "android": "https://dc.lft.to/lastmile_qr_scan"}, "is_reserved": 0}, {"lon": -77.0218885, "bike_id": "ec114750a6383cbc0870d8552fba55bc", "lat": 38.912178, "fusion_lon": 0.0, "fusion_lat": 0.0, "type": "electric_scooter", "name": "ec114750a6383cbc0870d8552fba55bc", "is_disabled": 0, "rental_uris": {"ios": "https://dc.lft.to/lastmile_qr_scan", "android": "https://dc.lft.to/lastmile_qr_scan"}, "is_reserved": 0}, {"lon": -77.032825, "bike_id": "fb0c35b2ddd3f72a6189367c202bf0f6", "lat": 38.936427333333334, "fusion_lon": 0.0, "fusion_lat": 0.0, "type": "electric_scooter", "name": "fb0c35b2ddd3f72a6189367c202bf0f6", "is_disabled": 0, "rental_uris": {"ios": "https://dc.lft.to/lastmile_qr_scan", "android": "https://dc.lft.to/lastmile_qr_scan"}, "is_reserved": 0}, {"lon": -76.98559816666666, "bike_id": "914680e2f44539af536c2a70156ecf6a", "lat": 38.91035883333333, "fusion_lon": 0.0, "fusion_lat": 0.0, "type": "electric_scooter", "name": "914680e2f44539af536c2a70156ecf6a", "is_disabled": 0, "rental_uris": {"ios": "https://dc.lft.to/lastmile_qr_scan", "android": "https://dc.lft.to/lastmile_qr_scan"}, "is_reserved": 0}, {"lon": -77.016498, "bike_id": "eec6a5b96d3fa331e97d21ed904fef12", "lat": 38.872778833333335, "fusion_lon": 0.0, "fusion_lat": 0.0, "type": "electric_scooter", "name": "eec6a5b96d3fa331e97d21ed904fef12", "is_disabled": 0, "rental_uris": {"ios": "https://dc.lft.to/lastmile_qr_scan", "android": "https://dc.lft.to/lastmile_qr_scan"}, "is_reserved": 0}, {"lon": -77.038038, "bike_id": "a74863d28dd722e1ba7870d630b879c0", "lat": 38.9206155, "fusion_lon": 0.0, "fusion_lat": 0.0, "type": "electric_scooter", "name": "a74863d28dd722e1ba7870d630b879c0", "is_disabled": 0, "rental_uris": {"ios": "https://dc.lft.to/lastmile_qr_scan", "android": "https://dc.lft.to/lastmile_qr_scan"}, "is_reserved": 0}, {"lon": -77.05046033333333, "bike_id": "180776a54ce77ee18962670ac8ea5a2f", "lat": 38.92377583333333, "fusion_lon": 0.0, "fusion_lat": 0.0, "type": "electric_scooter", "name": "180776a54ce77ee18962670ac8ea5a2f", "is_disabled": 0, "rental_uris": {"ios": "https://dc.lft.to/lastmile_qr_scan", "android": "https://dc.lft.to/lastmile_qr_scan"}, "is_reserved": 0}, {"lon": -77.02352933333333, "bike_id": "bc12aa18c219079eaccad933b1cc80f7", "lat": 38.931166, "fusion_lon": 0.0, "fusion_lat": 0.0, "type": "electric_scooter", "name": "bc12aa18c219079eaccad933b1cc80f7", "is_disabled": 0, "rental_uris": {"ios": "https://dc.lft.to/lastmile_qr_scan", "android": "https://dc.lft.to/lastmile_qr_scan"}, "is_reserved": 0}, {"lon": -76.93544283333334, "bike_id": "211705c1696f1c6aaa628ac1ec712253", "lat": 38.95551183333333, "fusion_lon": 0.0, "fusion_lat": 0.0, "type": "electric_bike", "name": "211705c1696f1c6aaa628ac1ec712253", "is_disabled": 0, "rental_uris": {"ios": "https://dc.lft.to/lastmile_qr_scan", "android": "https://dc.lft.to/lastmile_qr_scan"}, "is_reserved": 0}, {"lon": -76.98530716666667, "bike_id": "33b31c77b8e8b62a620e04a624e3c59a", "lat": 38.86653616666667, "fusion_lon": 0.0, "fusion_lat": 0.0, "type": "electric_scooter", "name": "33b31c77b8e8b62a620e04a624e3c59a", "is_disabled": 0, "rental_uris": {"ios": "https://dc.lft.to/lastmile_qr_scan", "android": "https://dc.lft.to/lastmile_qr_scan"}, "is_reserved": 0}, {"lon": -77.03935983333334, "bike_id": "ff460bc1f20185af05094b68627a192e", "lat": 38.899647, "fusion_lon": 0.0, "fusion_lat": 0.0, "type": "electric_scooter", "name": "ff460bc1f20185af05094b68627a192e", "is_disabled": 0, "rental_uris": {"ios": "https://dc.lft.to/lastmile_qr_scan", "android": "https://dc.lft.to/lastmile_qr_scan"}, "is_reserved": 0}, {"lon": -77.02262516666667, "bike_id": "b14a699ff501283a6f2ae24e28f97cc0", "lat": 38.92527183333333, "fusion_lon": 0.0, "fusion_lat": 0.0, "type": "electric_scooter", "name": "b14a699ff501283a6f2ae24e28f97cc0", "is_disabled": 0, "rental_uris": {"ios": "https://dc.lft.to/lastmile_qr_scan", "android": "https://dc.lft.to/lastmile_qr_scan"}, "is_reserved": 0}, {"lon": -77.03175266666666, "bike_id": "55fe4eed12177b13d6969485161705c1", "lat": 38.91257133333333, "fusion_lon": 0.0, "fusion_lat": 0.0, "type": "electric_scooter", "name": "55fe4eed12177b13d6969485161705c1", "is_disabled": 0, "rental_uris": {"ios": "https://dc.lft.to/lastmile_qr_scan", "android": "https://dc.lft.to/lastmile_qr_scan"}, "is_reserved": 0}, {"lon": -77.02124683333334, "bike_id": "38fdd6a9e2b5f0e036d80fd0539046f8", "lat": 38.92472683333333, "fusion_lon": 0.0, "fusion_lat": 0.0, "type": "electric_scooter", "name": "38fdd6a9e2b5f0e036d80fd0539046f8", "is_disabled": 0, "rental_uris": {"ios": "https://dc.lft.to/lastmile_qr_scan", "android": "https://dc.lft.to/lastmile_qr_scan"}, "is_reserved": 0}, {"lon": -77.03212016666667, "bike_id": "5315e3851d4ff56ef63d78268502aa45", "lat": 38.91497783333333, "fusion_lon": 0.0, "fusion_lat": 0.0, "type": "electric_scooter", "name": "5315e3851d4ff56ef63d78268502aa45", "is_disabled": 0, "rental_uris": {"ios": "https://dc.lft.to/lastmile_qr_scan", "android": "https://dc.lft.to/lastmile_qr_scan"}, "is_reserved": 0}, {"lon": -77.05048183333334, "bike_id": "101d964d81a79ad5ef863bcdfeed0bad", "lat": 38.9237685, "fusion_lon": 0.0, "fusion_lat": 0.0, "type": "electric_scooter", "name": "101d964d81a79ad5ef863bcdfeed0bad", "is_disabled": 0, "rental_uris": {"ios": "https://dc.lft.to/lastmile_qr_scan", "android": "https://dc.lft.to/lastmile_qr_scan"}, "is_reserved": 0}, {"lon": -77.02764633333334, "bike_id": "5776fab35976279ce9998c963cf42c6d", "lat": 38.954256, "fusion_lon": 0.0, "fusion_lat": 0.0, "type": "electric_scooter", "name": "5776fab35976279ce9998c963cf42c6d", "is_disabled": 0, "rental_uris": {"ios": "https://dc.lft.to/lastmile_qr_scan", "android": "https://dc.lft.to/lastmile_qr_scan"}, "is_reserved": 0}, {"lon": -77.13241966666666, "bike_id": "0df49049fdfa4dc6d153744dc39b987f", "lat": 38.805763166666665, "fusion_lon": 0.0, "fusion_lat": 0.0, "type": "electric_bike", "name": "0df49049fdfa4dc6d153744dc39b987f", "is_disabled": 0, "rental_uris": {"ios": "https://dc.lft.to/lastmile_qr_scan", "android": "https://dc.lft.to/lastmile_qr_scan"}, "is_reserved": 0}, {"lon": -77.0535355, "bike_id": "3270a72026af3640b68f8da4564fb597", "lat": 38.9235175, "fusion_lon": 0.0, "fusion_lat": 0.0, "type": "electric_scooter", "name": "3270a72026af3640b68f8da4564fb597", "is_disabled": 0, "rental_uris": {"ios": "https://dc.lft.to/lastmile_qr_scan", "android": "https://dc.lft.to/lastmile_qr_scan"}, "is_reserved": 0}, {"lon": -76.9869455, "bike_id": "cee8ced18d409139c870ffc47254b694", "lat": 38.86252183333333, "fusion_lon": 0.0, "fusion_lat": 0.0, "type": "electric_scooter", "name": "cee8ced18d409139c870ffc47254b694", "is_disabled": 0, "rental_uris": {"ios": "https://dc.lft.to/lastmile_qr_scan", "android": "https://dc.lft.to/lastmile_qr_scan"}, "is_reserved": 0}, {"lon": -77.023197, "bike_id": "077fdf0152626ee13d9da5695b287443", "lat": 38.91787683333333, "fusion_lon": 0.0, "fusion_lat": 0.0, "type": "electric_scooter", "name": "077fdf0152626ee13d9da5695b287443", "is_disabled": 0, "rental_uris": {"ios": "https://dc.lft.to/lastmile_qr_scan", "android": "https://dc.lft.to/lastmile_qr_scan"}, "is_reserved": 0}, {"lon": -77.02964433333334, "bike_id": "39ec81a1abeae0d7981d992b4f8ae32f", "lat": 38.89837216666667, "fusion_lon": 0.0, "fusion_lat": 0.0, "type": "electric_scooter", "name": "39ec81a1abeae0d7981d992b4f8ae32f", "is_disabled": 0, "rental_uris": {"ios": "https://dc.lft.to/lastmile_qr_scan", "android": "https://dc.lft.to/lastmile_qr_scan"}, "is_reserved": 0}, {"lon": -77.02668966666667, "bike_id": "379a7ebc43a36800b9e506e35e998045", "lat": 38.90728216666667, "fusion_lon": 0.0, "fusion_lat": 0.0, "type": "electric_scooter", "name": "379a7ebc43a36800b9e506e35e998045", "is_disabled": 0, "rental_uris": {"ios": "https://dc.lft.to/lastmile_qr_scan", "android": "https://dc.lft.to/lastmile_qr_scan"}, "is_reserved": 0}, {"lon": -77.00926216666667, "bike_id": "acedf5280cb72cc96e1bc0a53ec5026b", "lat": 38.91066266666667, "fusion_lon": 0.0, "fusion_lat": 0.0, "type": "electric_scooter", "name": "acedf5280cb72cc96e1bc0a53ec5026b", "is_disabled": 0, "rental_uris": {"ios": "https://dc.lft.to/lastmile_qr_scan", "android": "https://dc.lft.to/lastmile_qr_scan"}, "is_reserved": 0}, {"lon": -77.000065, "bike_id": "6da15577185109fb5b7017669fd55712", "lat": 38.90780016666667, "fusion_lon": 0.0, "fusion_lat": 0.0, "type": "electric_scooter", "name": "6da15577185109fb5b7017669fd55712", "is_disabled": 0, "rental_uris": {"ios": "https://dc.lft.to/lastmile_qr_scan", "android": "https://dc.lft.to/lastmile_qr_scan"}, "is_reserved": 0}, {"lon": -77.01516466666666, "bike_id": "6f1ebc56fd4483bc783dfdbced5b8d0e", "lat": 38.89245783333333, "fusion_lon": 0.0, "fusion_lat": 0.0, "type": "electric_scooter", "name": "6f1ebc56fd4483bc783dfdbced5b8d0e", "is_disabled": 0, "rental_uris": {"ios": "https://dc.lft.to/lastmile_qr_scan", "android": "https://dc.lft.to/lastmile_qr_scan"}, "is_reserved": 0}, {"lon": -77.0424295, "bike_id": "e05afcc225acee4147d9181a0e98ec2b", "lat": 38.92158933333333, "fusion_lon": 0.0, "fusion_lat": 0.0, "type": "electric_scooter", "name": "e05afcc225acee4147d9181a0e98ec2b", "is_disabled": 0, "rental_uris": {"ios": "https://dc.lft.to/lastmile_qr_scan", "android": "https://dc.lft.to/lastmile_qr_scan"}, "is_reserved": 0}, {"lon": -77.03861533333334, "bike_id": "ea7e817438c028514a1b451b900f79f1", "lat": 38.923213, "fusion_lon": 0.0, "fusion_lat": 0.0, "type": "electric_scooter", "name": "ea7e817438c028514a1b451b900f79f1", "is_disabled": 0, "rental_uris": {"ios": "https://dc.lft.to/lastmile_qr_scan", "android": "https://dc.lft.to/lastmile_qr_scan"}, "is_reserved": 0}, {"lon": -76.99507416666667, "bike_id": "bfbc3d0c2558984f39ad8039cc6a44a8", "lat": 38.879173333333334, "fusion_lon": 0.0, "fusion_lat": 0.0, "type": "electric_scooter", "name": "bfbc3d0c2558984f39ad8039cc6a44a8", "is_disabled": 0, "rental_uris": {"ios": "https://dc.lft.to/lastmile_qr_scan", "android": "https://dc.lft.to/lastmile_qr_scan"}, "is_reserved": 0}, {"lon": -77.03204333333333, "bike_id": "e18fb0a2f95cdb30842eeaebeb76508a", "lat": 38.903206, "fusion_lon": 0.0, "fusion_lat": 0.0, "type": "electric_scooter", "name": "e18fb0a2f95cdb30842eeaebeb76508a", "is_disabled": 0, "rental_uris": {"ios": "https://dc.lft.to/lastmile_qr_scan", "android": "https://dc.lft.to/lastmile_qr_scan"}, "is_reserved": 0}, {"lon": -77.0252535, "bike_id": "b74863df996c79be7c8f83bef33cf8ba", "lat": 38.898449166666666, "fusion_lon": 0.0, "fusion_lat": 0.0, "type": "electric_scooter", "name": "b74863df996c79be7c8f83bef33cf8ba", "is_disabled": 0, "rental_uris": {"ios": "https://dc.lft.to/lastmile_qr_scan", "android": "https://dc.lft.to/lastmile_qr_scan"}, "is_reserved": 0}, {"lon": -77.06732783333334, "bike_id": "1fbbba547aec88011551bfcbcf67d253", "lat": 38.9034755, "fusion_lon": 0.0, "fusion_lat": 0.0, "type": "electric_scooter", "name": "1fbbba547aec88011551bfcbcf67d253", "is_disabled": 0, "rental_uris": {"ios": "https://dc.lft.to/lastmile_qr_scan", "android": "https://dc.lft.to/lastmile_qr_scan"}, "is_reserved": 0}, {"lon": -76.99795666666667, "bike_id": "ac936d42107c815bffe607116210108c", "lat": 38.95089983333333, "fusion_lon": 0.0, "fusion_lat": 0.0, "type": "electric_bike", "name": "ac936d42107c815bffe607116210108c", "is_disabled": 0, "rental_uris": {"ios": "https://dc.lft.to/lastmile_qr_scan", "android": "https://dc.lft.to/lastmile_qr_scan"}, "is_reserved": 0}, {"lon": -77.04383333333334, "bike_id": "b766ccb1d963046ff0532277659d1356", "lat": 38.92112133333333, "fusion_lon": 0.0, "fusion_lat": 0.0, "type": "electric_scooter", "name": "b766ccb1d963046ff0532277659d1356", "is_disabled": 0, "rental_uris": {"ios": "https://dc.lft.to/lastmile_qr_scan", "android": "https://dc.lft.to/lastmile_qr_scan"}, "is_reserved": 0}, {"lon": -77.02211733333333, "bike_id": "5aace107cf4d02e6d453c70e60ed406f", "lat": 38.9028585, "fusion_lon": 0.0, "fusion_lat": 0.0, "type": "electric_scooter", "name": "5aace107cf4d02e6d453c70e60ed406f", "is_disabled": 0, "rental_uris": {"ios": "https://dc.lft.to/lastmile_qr_scan", "android": "https://dc.lft.to/lastmile_qr_scan"}, "is_reserved": 0}, {"lon": -77.0177045, "bike_id": "6e48567ccf3fb20343239b601dd155ce", "lat": 38.8858755, "fusion_lon": 0.0, "fusion_lat": 0.0, "type": "electric_scooter", "name": "6e48567ccf3fb20343239b601dd155ce", "is_disabled": 0, "rental_uris": {"ios": "https://dc.lft.to/lastmile_qr_scan", "android": "https://dc.lft.to/lastmile_qr_scan"}, "is_reserved": 0}, {"lon": -76.99776216666666, "bike_id": "671c4c3ea75504a392586219f3c5d857", "lat": 38.84431716666667, "fusion_lon": 0.0, "fusion_lat": 0.0, "type": "electric_scooter", "name": "671c4c3ea75504a392586219f3c5d857", "is_disabled": 0, "rental_uris": {"ios": "https://dc.lft.to/lastmile_qr_scan", "android": "https://dc.lft.to/lastmile_qr_scan"}, "is_reserved": 0}, {"lon": -77.06331116666667, "bike_id": "869b7c4968a7b598f1a17a44137c6936", "lat": 38.90769183333333, "fusion_lon": 0.0, "fusion_lat": 0.0, "type": "electric_scooter", "name": "869b7c4968a7b598f1a17a44137c6936", "is_disabled": 0, "rental_uris": {"ios": "https://dc.lft.to/lastmile_qr_scan", "android": "https://dc.lft.to/lastmile_qr_scan"}, "is_reserved": 0}, {"lon": -76.99887433333333, "bike_id": "742ca8bf0196e1daf4c8e0ef89d353b4", "lat": 38.92055216666667, "fusion_lon": 0.0, "fusion_lat": 0.0, "type": "electric_scooter", "name": "742ca8bf0196e1daf4c8e0ef89d353b4", "is_disabled": 0, "rental_uris": {"ios": "https://dc.lft.to/lastmile_qr_scan", "android": "https://dc.lft.to/lastmile_qr_scan"}, "is_reserved": 0}, {"lon": -77.027435, "bike_id": "befa6eb24b4b0026ac533bb8f5d500e2", "lat": 38.89991883333333, "fusion_lon": 0.0, "fusion_lat": 0.0, "type": "electric_scooter", "name": "befa6eb24b4b0026ac533bb8f5d500e2", "is_disabled": 0, "rental_uris": {"ios": "https://dc.lft.to/lastmile_qr_scan", "android": "https://dc.lft.to/lastmile_qr_scan"}, "is_reserved": 0}, {"lon": -77.04335733333333, "bike_id": "6dd57a1cce74917110f29a3d2b94b9cd", "lat": 38.922202666666664, "fusion_lon": 0.0, "fusion_lat": 0.0, "type": "electric_scooter", "name": "6dd57a1cce74917110f29a3d2b94b9cd", "is_disabled": 0, "rental_uris": {"ios": "https://dc.lft.to/lastmile_qr_scan", "android": "https://dc.lft.to/lastmile_qr_scan"}, "is_reserved": 0}, {"lon": -77.052581, "bike_id": "3557752b76065e2fcbfacc4bddf0b8cc", "lat": 38.900119, "fusion_lon": 0.0, "fusion_lat": 0.0, "type": "electric_scooter", "name": "3557752b76065e2fcbfacc4bddf0b8cc", "is_disabled": 0, "rental_uris": {"ios": "https://dc.lft.to/lastmile_qr_scan", "android": "https://dc.lft.to/lastmile_qr_scan"}, "is_reserved": 0}, {"lon": -77.02432066666667, "bike_id": "14794ead2fe166c02c2bb21077f4e74a", "lat": 38.897191, "fusion_lon": 0.0, "fusion_lat": 0.0, "type": "electric_scooter", "name": "14794ead2fe166c02c2bb21077f4e74a", "is_disabled": 0, "rental_uris": {"ios": "https://dc.lft.to/lastmile_qr_scan", "android": "https://dc.lft.to/lastmile_qr_scan"}, "is_reserved": 0}, {"lon": -77.00951266666667, "bike_id": "6ca3a3237533d9221b8760ea62c35422", "lat": 38.8973915, "fusion_lon": 0.0, "fusion_lat": 0.0, "type": "electric_scooter", "name": "6ca3a3237533d9221b8760ea62c35422", "is_disabled": 0, "rental_uris": {"ios": "https://dc.lft.to/lastmile_qr_scan", "android": "https://dc.lft.to/lastmile_qr_scan"}, "is_reserved": 0}, {"lon": -76.99522083333333, "bike_id": "34380252167a0cd50e290325fb1742c4", "lat": 38.877607833333336, "fusion_lon": 0.0, "fusion_lat": 0.0, "type": "electric_scooter", "name": "34380252167a0cd50e290325fb1742c4", "is_disabled": 0, "rental_uris": {"ios": "https://dc.lft.to/lastmile_qr_scan", "android": "https://dc.lft.to/lastmile_qr_scan"}, "is_reserved": 0}, {"lon": -77.002875, "bike_id": "a2a669ef799ee04a89c88ed5c7bdc1fa", "lat": 38.9570455, "fusion_lon": 0.0, "fusion_lat": 0.0, "type": "electric_bike", "name": "a2a669ef799ee04a89c88ed5c7bdc1fa", "is_disabled": 0, "rental_uris": {"ios": "https://dc.lft.to/lastmile_qr_scan", "android": "https://dc.lft.to/lastmile_qr_scan"}, "is_reserved": 0}, {"lon": -77.06525916666666, "bike_id": "a28709c858b61a5a8d0a6d251ddaaf0d", "lat": 38.947437, "fusion_lon": 0.0, "fusion_lat": 0.0, "type": "electric_scooter", "name": "a28709c858b61a5a8d0a6d251ddaaf0d", "is_disabled": 0, "rental_uris": {"ios": "https://dc.lft.to/lastmile_qr_scan", "android": "https://dc.lft.to/lastmile_qr_scan"}, "is_reserved": 0}, {"lon": -77.025284, "bike_id": "031736efcd4ba7584111497502429278", "lat": 38.9168115, "fusion_lon": 0.0, "fusion_lat": 0.0, "type": "electric_scooter", "name": "031736efcd4ba7584111497502429278", "is_disabled": 0, "rental_uris": {"ios": "https://dc.lft.to/lastmile_qr_scan", "android": "https://dc.lft.to/lastmile_qr_scan"}, "is_reserved": 0}, {"lon": -77.00922033333333, "bike_id": "deeea1348e43f267f8b7f612643ffa08", "lat": 38.89553383333333, "fusion_lon": 0.0, "fusion_lat": 0.0, "type": "electric_scooter", "name": "deeea1348e43f267f8b7f612643ffa08", "is_disabled": 0, "rental_uris": {"ios": "https://dc.lft.to/lastmile_qr_scan", "android": "https://dc.lft.to/lastmile_qr_scan"}, "is_reserved": 0}, {"lon": -77.06111816666666, "bike_id": "bfd333b8f3bd503ba37e27debf367e4b", "lat": 38.9024475, "fusion_lon": 0.0, "fusion_lat": 0.0, "type": "electric_scooter", "name": "bfd333b8f3bd503ba37e27debf367e4b", "is_disabled": 0, "rental_uris": {"ios": "https://dc.lft.to/lastmile_qr_scan", "android": "https://dc.lft.to/lastmile_qr_scan"}, "is_reserved": 0}, {"lon": -77.002167, "bike_id": "e27a93c6ab37ea2dc0d616324491ff9c", "lat": 38.91103833333333, "fusion_lon": 0.0, "fusion_lat": 0.0, "type": "electric_scooter", "name": "e27a93c6ab37ea2dc0d616324491ff9c", "is_disabled": 0, "rental_uris": {"ios": "https://dc.lft.to/lastmile_qr_scan", "android": "https://dc.lft.to/lastmile_qr_scan"}, "is_reserved": 0}, {"lon": -77.04641516666666, "bike_id": "8b2b88f7cadf3a318834560b0488730a", "lat": 38.9157775, "fusion_lon": 0.0, "fusion_lat": 0.0, "type": "electric_scooter", "name": "8b2b88f7cadf3a318834560b0488730a", "is_disabled": 0, "rental_uris": {"ios": "https://dc.lft.to/lastmile_qr_scan", "android": "https://dc.lft.to/lastmile_qr_scan"}, "is_reserved": 0}, {"lon": -76.97528666666666, "bike_id": "141587f9fe22a063412ca0c20e349dfb", "lat": 38.90331183333333, "fusion_lon": 0.0, "fusion_lat": 0.0, "type": "electric_bike", "name": "141587f9fe22a063412ca0c20e349dfb", "is_disabled": 0, "rental_uris": {"ios": "https://dc.lft.to/lastmile_qr_scan", "android": "https://dc.lft.to/lastmile_qr_scan"}, "is_reserved": 0}, {"lon": -77.01973366666667, "bike_id": "f4c4a0244253842b474440e9dcba51db", "lat": 38.904275, "fusion_lon": 0.0, "fusion_lat": 0.0, "type": "electric_scooter", "name": "f4c4a0244253842b474440e9dcba51db", "is_disabled": 0, "rental_uris": {"ios": "https://dc.lft.to/lastmile_qr_scan", "android": "https://dc.lft.to/lastmile_qr_scan"}, "is_reserved": 0}, {"lon": -76.99194866666667, "bike_id": "8464fb33ae105d48d44719699b399213", "lat": 38.88267166666667, "fusion_lon": 0.0, "fusion_lat": 0.0, "type": "electric_scooter", "name": "8464fb33ae105d48d44719699b399213", "is_disabled": 0, "rental_uris": {"ios": "https://dc.lft.to/lastmile_qr_scan", "android": "https://dc.lft.to/lastmile_qr_scan"}, "is_reserved": 0}, {"lon": -77.0299775, "bike_id": "c297958700627577b33ce633661a3b70", "lat": 38.89404, "fusion_lon": 0.0, "fusion_lat": 0.0, "type": "electric_scooter", "name": "c297958700627577b33ce633661a3b70", "is_disabled": 0, "rental_uris": {"ios": "https://dc.lft.to/lastmile_qr_scan", "android": "https://dc.lft.to/lastmile_qr_scan"}, "is_reserved": 0}, {"lon": -77.03266033333334, "bike_id": "d04c958573c39823b27bb2a1f6849309", "lat": 38.929151, "fusion_lon": 0.0, "fusion_lat": 0.0, "type": "electric_scooter", "name": "d04c958573c39823b27bb2a1f6849309", "is_disabled": 0, "rental_uris": {"ios": "https://dc.lft.to/lastmile_qr_scan", "android": "https://dc.lft.to/lastmile_qr_scan"}, "is_reserved": 0}, {"lon": -77.044608, "bike_id": "d8d89ff0631013831f3056f06db75c8f", "lat": 38.9083325, "fusion_lon": 0.0, "fusion_lat": 0.0, "type": "electric_scooter", "name": "d8d89ff0631013831f3056f06db75c8f", "is_disabled": 0, "rental_uris": {"ios": "https://dc.lft.to/lastmile_qr_scan", "android": "https://dc.lft.to/lastmile_qr_scan"}, "is_reserved": 0}, {"lon": -77.02011316666666, "bike_id": "cca125dd907f7d310ef4ad3284a4d761", "lat": 38.902676, "fusion_lon": 0.0, "fusion_lat": 0.0, "type": "electric_scooter", "name": "cca125dd907f7d310ef4ad3284a4d761", "is_disabled": 0, "rental_uris": {"ios": "https://dc.lft.to/lastmile_qr_scan", "android": "https://dc.lft.to/lastmile_qr_scan"}, "is_reserved": 0}, {"lon": -77.03772966666666, "bike_id": "32f0c2075f0367506fcc9b290f5ae1d8", "lat": 38.922267833333336, "fusion_lon": 0.0, "fusion_lat": 0.0, "type": "electric_scooter", "name": "32f0c2075f0367506fcc9b290f5ae1d8", "is_disabled": 0, "rental_uris": {"ios": "https://dc.lft.to/lastmile_qr_scan", "android": "https://dc.lft.to/lastmile_qr_scan"}, "is_reserved": 0}, {"lon": -77.02552533333333, "bike_id": "9a2a29e2d27982922a27dabacbf3bbfd", "lat": 38.9141115, "fusion_lon": 0.0, "fusion_lat": 0.0, "type": "electric_scooter", "name": "9a2a29e2d27982922a27dabacbf3bbfd", "is_disabled": 0, "rental_uris": {"ios": "https://dc.lft.to/lastmile_qr_scan", "android": "https://dc.lft.to/lastmile_qr_scan"}, "is_reserved": 0}, {"lon": -76.98271633333333, "bike_id": "6ea9b35b57053c151d4d7d957d3b03b5", "lat": 38.88530866666667, "fusion_lon": 0.0, "fusion_lat": 0.0, "type": "electric_scooter", "name": "6ea9b35b57053c151d4d7d957d3b03b5", "is_disabled": 0, "rental_uris": {"ios": "https://dc.lft.to/lastmile_qr_scan", "android": "https://dc.lft.to/lastmile_qr_scan"}, "is_reserved": 0}, {"lon": -77.03263433333333, "bike_id": "dbb7ee953d9dc28b16e571050e6e00e9", "lat": 38.9397095, "fusion_lon": 0.0, "fusion_lat": 0.0, "type": "electric_scooter", "name": "dbb7ee953d9dc28b16e571050e6e00e9", "is_disabled": 0, "rental_uris": {"ios": "https://dc.lft.to/lastmile_qr_scan", "android": "https://dc.lft.to/lastmile_qr_scan"}, "is_reserved": 0}, {"lon": -77.02197233333334, "bike_id": "86dc94c2025dc3bcf92e3eb9c6fbb0c3", "lat": 38.90116, "fusion_lon": 0.0, "fusion_lat": 0.0, "type": "electric_scooter", "name": "86dc94c2025dc3bcf92e3eb9c6fbb0c3", "is_disabled": 0, "rental_uris": {"ios": "https://dc.lft.to/lastmile_qr_scan", "android": "https://dc.lft.to/lastmile_qr_scan"}, "is_reserved": 0}, {"lon": -77.0606765, "bike_id": "682b47d0a29848556410c5bc0798703b", "lat": 38.905198166666665, "fusion_lon": 0.0, "fusion_lat": 0.0, "type": "electric_scooter", "name": "682b47d0a29848556410c5bc0798703b", "is_disabled": 0, "rental_uris": {"ios": "https://dc.lft.to/lastmile_qr_scan", "android": "https://dc.lft.to/lastmile_qr_scan"}, "is_reserved": 0}, {"lon": -77.05888266666666, "bike_id": "8a6992715875a411d6332284b280b243", "lat": 38.936428666666664, "fusion_lon": 0.0, "fusion_lat": 0.0, "type": "electric_scooter", "name": "8a6992715875a411d6332284b280b243", "is_disabled": 0, "rental_uris": {"ios": "https://dc.lft.to/lastmile_qr_scan", "android": "https://dc.lft.to/lastmile_qr_scan"}, "is_reserved": 0}, {"lon": -76.9810765, "bike_id": "14e26b75d3862c1ffdf97e291dc3c03e", "lat": 38.9038985, "fusion_lon": 0.0, "fusion_lat": 0.0, "type": "electric_scooter", "name": "14e26b75d3862c1ffdf97e291dc3c03e", "is_disabled": 0, "rental_uris": {"ios": "https://dc.lft.to/lastmile_qr_scan", "android": "https://dc.lft.to/lastmile_qr_scan"}, "is_reserved": 0}, {"lon": -77.051307, "bike_id": "317d824f86b65325e03f94eeb3f00462", "lat": 38.92364233333333, "fusion_lon": 0.0, "fusion_lat": 0.0, "type": "electric_scooter", "name": "317d824f86b65325e03f94eeb3f00462", "is_disabled": 0, "rental_uris": {"ios": "https://dc.lft.to/lastmile_qr_scan", "android": "https://dc.lft.to/lastmile_qr_scan"}, "is_reserved": 0}, {"lon": -76.9978025, "bike_id": "72542d8fcfe51c2e6400bdf03ebb3468", "lat": 38.84431083333333, "fusion_lon": 0.0, "fusion_lat": 0.0, "type": "electric_scooter", "name": "72542d8fcfe51c2e6400bdf03ebb3468", "is_disabled": 0, "rental_uris": {"ios": "https://dc.lft.to/lastmile_qr_scan", "android": "https://dc.lft.to/lastmile_qr_scan"}, "is_reserved": 0}, {"lon": -77.03161416666667, "bike_id": "f8f8cae658ebf397ea42fa2e43e0b77b", "lat": 38.915614, "fusion_lon": 0.0, "fusion_lat": 0.0, "type": "electric_scooter", "name": "f8f8cae658ebf397ea42fa2e43e0b77b", "is_disabled": 0, "rental_uris": {"ios": "https://dc.lft.to/lastmile_qr_scan", "android": "https://dc.lft.to/lastmile_qr_scan"}, "is_reserved": 0}, {"lon": -77.0220355, "bike_id": "0ad3807f07e1097c8d3b8d418ad9dd17", "lat": 38.9053415, "fusion_lon": 0.0, "fusion_lat": 0.0, "type": "electric_scooter", "name": "0ad3807f07e1097c8d3b8d418ad9dd17", "is_disabled": 0, "rental_uris": {"ios": "https://dc.lft.to/lastmile_qr_scan", "android": "https://dc.lft.to/lastmile_qr_scan"}, "is_reserved": 0}, {"lon": -77.02529816666667, "bike_id": "e79ff07647e6924fb567a4e1fcbf978f", "lat": 38.9328605, "fusion_lon": 0.0, "fusion_lat": 0.0, "type": "electric_scooter", "name": "e79ff07647e6924fb567a4e1fcbf978f", "is_disabled": 0, "rental_uris": {"ios": "https://dc.lft.to/lastmile_qr_scan", "android": "https://dc.lft.to/lastmile_qr_scan"}, "is_reserved": 0}, {"lon": -77.01808616666666, "bike_id": "e8e38ecfc4599bcebae9c658decbabd2", "lat": 38.876814, "fusion_lon": 0.0, "fusion_lat": 0.0, "type": "electric_scooter", "name": "e8e38ecfc4599bcebae9c658decbabd2", "is_disabled": 0, "rental_uris": {"ios": "https://dc.lft.to/lastmile_qr_scan", "android": "https://dc.lft.to/lastmile_qr_scan"}, "is_reserved": 0}, {"lon": -77.11084983333333, "bike_id": "0f0688a049259ff2dcf3e56e901f458e", "lat": 38.811790333333335, "fusion_lon": 0.0, "fusion_lat": 0.0, "type": "electric_bike", "name": "0f0688a049259ff2dcf3e56e901f458e", "is_disabled": 0, "rental_uris": {"ios": "https://dc.lft.to/lastmile_qr_scan", "android": "https://dc.lft.to/lastmile_qr_scan"}, "is_reserved": 0}, {"lon": -77.06578433333334, "bike_id": "c93b835e38abb1fe61fc12e4ef93a783", "lat": 38.91131133333333, "fusion_lon": 0.0, "fusion_lat": 0.0, "type": "electric_bike", "name": "c93b835e38abb1fe61fc12e4ef93a783", "is_disabled": 0, "rental_uris": {"ios": "https://dc.lft.to/lastmile_qr_scan", "android": "https://dc.lft.to/lastmile_qr_scan"}, "is_reserved": 0}, {"lon": -77.02283316666667, "bike_id": "5bfb4ab35eacdce8037745b6df372a3e", "lat": 38.878407333333335, "fusion_lon": 0.0, "fusion_lat": 0.0, "type": "electric_scooter", "name": "5bfb4ab35eacdce8037745b6df372a3e", "is_disabled": 0, "rental_uris": {"ios": "https://dc.lft.to/lastmile_qr_scan", "android": "https://dc.lft.to/lastmile_qr_scan"}, "is_reserved": 0}, {"lon": -76.9881625, "bike_id": "9bd6ee9bd46a4122a2755c438fee7db0", "lat": 38.900161833333335, "fusion_lon": 0.0, "fusion_lat": 0.0, "type": "electric_scooter", "name": "9bd6ee9bd46a4122a2755c438fee7db0", "is_disabled": 0, "rental_uris": {"ios": "https://dc.lft.to/lastmile_qr_scan", "android": "https://dc.lft.to/lastmile_qr_scan"}, "is_reserved": 0}, {"lon": -77.0468805, "bike_id": "d5b2bfc4a2d17e0bbec7b8d1c37597c9", "lat": 38.892228833333334, "fusion_lon": 0.0, "fusion_lat": 0.0, "type": "electric_scooter", "name": "d5b2bfc4a2d17e0bbec7b8d1c37597c9", "is_disabled": 0, "rental_uris": {"ios": "https://dc.lft.to/lastmile_qr_scan", "android": "https://dc.lft.to/lastmile_qr_scan"}, "is_reserved": 0}, {"lon": -76.94200666666667, "bike_id": "9b7f321ecc0a4764eafeb6a74c45ed23", "lat": 38.893747833333336, "fusion_lon": 0.0, "fusion_lat": 0.0, "type": "electric_scooter", "name": "9b7f321ecc0a4764eafeb6a74c45ed23", "is_disabled": 0, "rental_uris": {"ios": "https://dc.lft.to/lastmile_qr_scan", "android": "https://dc.lft.to/lastmile_qr_scan"}, "is_reserved": 0}, {"lon": -77.04341266666667, "bike_id": "5d04b4e92b356acecdb7cf77395d10d7", "lat": 38.922174166666665, "fusion_lon": 0.0, "fusion_lat": 0.0, "type": "electric_scooter", "name": "5d04b4e92b356acecdb7cf77395d10d7", "is_disabled": 0, "rental_uris": {"ios": "https://dc.lft.to/lastmile_qr_scan", "android": "https://dc.lft.to/lastmile_qr_scan"}, "is_reserved": 0}, {"lon": -77.03483866666667, "bike_id": "18abb3f3d58e305835363c49ca1b9f41", "lat": 38.91885383333333, "fusion_lon": 0.0, "fusion_lat": 0.0, "type": "electric_scooter", "name": "18abb3f3d58e305835363c49ca1b9f41", "is_disabled": 0, "rental_uris": {"ios": "https://dc.lft.to/lastmile_qr_scan", "android": "https://dc.lft.to/lastmile_qr_scan"}, "is_reserved": 0}, {"lon": -77.04498216666667, "bike_id": "61554d402e3676995c542a18f269cf32", "lat": 38.90512316666667, "fusion_lon": 0.0, "fusion_lat": 0.0, "type": "electric_scooter", "name": "61554d402e3676995c542a18f269cf32", "is_disabled": 0, "rental_uris": {"ios": "https://dc.lft.to/lastmile_qr_scan", "android": "https://dc.lft.to/lastmile_qr_scan"}, "is_reserved": 0}, {"lon": -76.98841466666667, "bike_id": "5781fea75e3e60dacb60cf1a345a2f0a", "lat": 38.896687666666665, "fusion_lon": 0.0, "fusion_lat": 0.0, "type": "electric_scooter", "name": "5781fea75e3e60dacb60cf1a345a2f0a", "is_disabled": 0, "rental_uris": {"ios": "https://dc.lft.to/lastmile_qr_scan", "android": "https://dc.lft.to/lastmile_qr_scan"}, "is_reserved": 0}, {"lon": -76.94687966666666, "bike_id": "bb737b9a69e91d56254a45f09c5eaef0", "lat": 38.886304833333334, "fusion_lon": 0.0, "fusion_lat": 0.0, "type": "electric_scooter", "name": "bb737b9a69e91d56254a45f09c5eaef0", "is_disabled": 0, "rental_uris": {"ios": "https://dc.lft.to/lastmile_qr_scan", "android": "https://dc.lft.to/lastmile_qr_scan"}, "is_reserved": 0}, {"lon": -77.031881, "bike_id": "c9048e6129d0e8a80a8374ea92538250", "lat": 38.915224, "fusion_lon": 0.0, "fusion_lat": 0.0, "type": "electric_scooter", "name": "c9048e6129d0e8a80a8374ea92538250", "is_disabled": 0, "rental_uris": {"ios": "https://dc.lft.to/lastmile_qr_scan", "android": "https://dc.lft.to/lastmile_qr_scan"}, "is_reserved": 0}, {"lon": -77.03805316666667, "bike_id": "f8e1bb768c8963ffc93ab997de9c9b25", "lat": 38.93069166666667, "fusion_lon": 0.0, "fusion_lat": 0.0, "type": "electric_scooter", "name": "f8e1bb768c8963ffc93ab997de9c9b25", "is_disabled": 0, "rental_uris": {"ios": "https://dc.lft.to/lastmile_qr_scan", "android": "https://dc.lft.to/lastmile_qr_scan"}, "is_reserved": 0}, {"lon": -76.997603, "bike_id": "b32451d87cc1e7e5580ed4641b4c1b56", "lat": 38.887737666666666, "fusion_lon": 0.0, "fusion_lat": 0.0, "type": "electric_scooter", "name": "b32451d87cc1e7e5580ed4641b4c1b56", "is_disabled": 0, "rental_uris": {"ios": "https://dc.lft.to/lastmile_qr_scan", "android": "https://dc.lft.to/lastmile_qr_scan"}, "is_reserved": 0}, {"lon": -77.05758233333333, "bike_id": "621cf34ad8b821d84caa6d3c59bc778b", "lat": 38.92498233333333, "fusion_lon": 0.0, "fusion_lat": 0.0, "type": "electric_bike", "name": "621cf34ad8b821d84caa6d3c59bc778b", "is_disabled": 0, "rental_uris": {"ios": "https://dc.lft.to/lastmile_qr_scan", "android": "https://dc.lft.to/lastmile_qr_scan"}, "is_reserved": 0}, {"lon": -77.017714, "bike_id": "817629389318cf47005d81ce2e26819b", "lat": 38.975964833333336, "fusion_lon": 0.0, "fusion_lat": 0.0, "type": "electric_scooter", "name": "817629389318cf47005d81ce2e26819b", "is_disabled": 0, "rental_uris": {"ios": "https://dc.lft.to/lastmile_qr_scan", "android": "https://dc.lft.to/lastmile_qr_scan"}, "is_reserved": 0}, {"lon": -77.02655616666667, "bike_id": "9fdc8bc04ed603e24b2daa6b82ac5ff1", "lat": 38.938604833333336, "fusion_lon": 0.0, "fusion_lat": 0.0, "type": "electric_scooter", "name": "9fdc8bc04ed603e24b2daa6b82ac5ff1", "is_disabled": 0, "rental_uris": {"ios": "https://dc.lft.to/lastmile_qr_scan", "android": "https://dc.lft.to/lastmile_qr_scan"}, "is_reserved": 0}, {"lon": -77.04508183333333, "bike_id": "1bd530494e37b4528f2f08f5d4f4e894", "lat": 38.8923855, "fusion_lon": 0.0, "fusion_lat": 0.0, "type": "electric_scooter", "name": "1bd530494e37b4528f2f08f5d4f4e894", "is_disabled": 0, "rental_uris": {"ios": "https://dc.lft.to/lastmile_qr_scan", "android": "https://dc.lft.to/lastmile_qr_scan"}, "is_reserved": 0}, {"lon": -77.04944083333334, "bike_id": "f311e80c7a3a8366e4be4798e8ac0921", "lat": 38.90849216666667, "fusion_lon": 0.0, "fusion_lat": 0.0, "type": "electric_scooter", "name": "f311e80c7a3a8366e4be4798e8ac0921", "is_disabled": 0, "rental_uris": {"ios": "https://dc.lft.to/lastmile_qr_scan", "android": "https://dc.lft.to/lastmile_qr_scan"}, "is_reserved": 0}, {"lon": -77.07102783333333, "bike_id": "4c4aebac196937d19b7ff81a0284f8b6", "lat": 38.92252333333333, "fusion_lon": 0.0, "fusion_lat": 0.0, "type": "electric_scooter", "name": "4c4aebac196937d19b7ff81a0284f8b6", "is_disabled": 0, "rental_uris": {"ios": "https://dc.lft.to/lastmile_qr_scan", "android": "https://dc.lft.to/lastmile_qr_scan"}, "is_reserved": 0}, {"lon": -76.98496216666666, "bike_id": "59a718115f07e236acb8acfdc9fa4e51", "lat": 38.87834683333333, "fusion_lon": 0.0, "fusion_lat": 0.0, "type": "electric_scooter", "name": "59a718115f07e236acb8acfdc9fa4e51", "is_disabled": 0, "rental_uris": {"ios": "https://dc.lft.to/lastmile_qr_scan", "android": "https://dc.lft.to/lastmile_qr_scan"}, "is_reserved": 0}, {"lon": -77.02536283333333, "bike_id": "6174a9b7792169f8259b6e4153d1c67c", "lat": 38.91815616666667, "fusion_lon": 0.0, "fusion_lat": 0.0, "type": "electric_scooter", "name": "6174a9b7792169f8259b6e4153d1c67c", "is_disabled": 0, "rental_uris": {"ios": "https://dc.lft.to/lastmile_qr_scan", "android": "https://dc.lft.to/lastmile_qr_scan"}, "is_reserved": 0}, {"lon": -77.052231, "bike_id": "70f06bb671fe9acb4cd6c654bb97be81", "lat": 38.92495516666666, "fusion_lon": 0.0, "fusion_lat": 0.0, "type": "electric_scooter", "name": "70f06bb671fe9acb4cd6c654bb97be81", "is_disabled": 0, "rental_uris": {"ios": "https://dc.lft.to/lastmile_qr_scan", "android": "https://dc.lft.to/lastmile_qr_scan"}, "is_reserved": 0}, {"lon": -76.93718966666667, "bike_id": "f64444621500e3167aff3ecd02111f2a", "lat": 38.88660683333333, "fusion_lon": 0.0, "fusion_lat": 0.0, "type": "electric_scooter", "name": "f64444621500e3167aff3ecd02111f2a", "is_disabled": 0, "rental_uris": {"ios": "https://dc.lft.to/lastmile_qr_scan", "android": "https://dc.lft.to/lastmile_qr_scan"}, "is_reserved": 0}, {"lon": -77.04133916666666, "bike_id": "0e3b0f8b66e19599b5d3064ed8a77007", "lat": 38.90621466666666, "fusion_lon": 0.0, "fusion_lat": 0.0, "type": "electric_scooter", "name": "0e3b0f8b66e19599b5d3064ed8a77007", "is_disabled": 0, "rental_uris": {"ios": "https://dc.lft.to/lastmile_qr_scan", "android": "https://dc.lft.to/lastmile_qr_scan"}, "is_reserved": 0}, {"lon": -77.05211666666666, "bike_id": "d75552d4c4642f399e7d00f50b4305df", "lat": 38.91565683333334, "fusion_lon": 0.0, "fusion_lat": 0.0, "type": "electric_scooter", "name": "d75552d4c4642f399e7d00f50b4305df", "is_disabled": 0, "rental_uris": {"ios": "https://dc.lft.to/lastmile_qr_scan", "android": "https://dc.lft.to/lastmile_qr_scan"}, "is_reserved": 0}, {"lon": -77.03343833333334, "bike_id": "bdac98931d9a1ee7f4d9ac4e30347e68", "lat": 38.928847166666664, "fusion_lon": 0.0, "fusion_lat": 0.0, "type": "electric_scooter", "name": "bdac98931d9a1ee7f4d9ac4e30347e68", "is_disabled": 0, "rental_uris": {"ios": "https://dc.lft.to/lastmile_qr_scan", "android": "https://dc.lft.to/lastmile_qr_scan"}, "is_reserved": 0}, {"lon": -77.04474883333333, "bike_id": "a2e452ad2d84098869fead29945fe462", "lat": 38.91537566666667, "fusion_lon": 0.0, "fusion_lat": 0.0, "type": "electric_scooter", "name": "a2e452ad2d84098869fead29945fe462", "is_disabled": 0, "rental_uris": {"ios": "https://dc.lft.to/lastmile_qr_scan", "android": "https://dc.lft.to/lastmile_qr_scan"}, "is_reserved": 0}, {"lon": -77.03283483333334, "bike_id": "d6f6d4361272cb05a4222f944667f491", "lat": 38.93644466666667, "fusion_lon": 0.0, "fusion_lat": 0.0, "type": "electric_scooter", "name": "d6f6d4361272cb05a4222f944667f491", "is_disabled": 0, "rental_uris": {"ios": "https://dc.lft.to/lastmile_qr_scan", "android": "https://dc.lft.to/lastmile_qr_scan"}, "is_reserved": 0}, {"lon": -77.00438583333333, "bike_id": "a1ef5eb4775a19ded7bf694c5a33e700", "lat": 38.913317166666666, "fusion_lon": 0.0, "fusion_lat": 0.0, "type": "electric_scooter", "name": "a1ef5eb4775a19ded7bf694c5a33e700", "is_disabled": 0, "rental_uris": {"ios": "https://dc.lft.to/lastmile_qr_scan", "android": "https://dc.lft.to/lastmile_qr_scan"}, "is_reserved": 0}, {"lon": -77.044675, "bike_id": "382db3c28e77452db919259f1f8fa60d", "lat": 38.918505, "fusion_lon": 0.0, "fusion_lat": 0.0, "type": "electric_scooter", "name": "382db3c28e77452db919259f1f8fa60d", "is_disabled": 0, "rental_uris": {"ios": "https://dc.lft.to/lastmile_qr_scan", "android": "https://dc.lft.to/lastmile_qr_scan"}, "is_reserved": 0}, {"lon": -77.0437285, "bike_id": "8936c2492ade9a0cc5edf6c2d1558a33", "lat": 38.898605333333336, "fusion_lon": 0.0, "fusion_lat": 0.0, "type": "electric_scooter", "name": "8936c2492ade9a0cc5edf6c2d1558a33", "is_disabled": 0, "rental_uris": {"ios": "https://dc.lft.to/lastmile_qr_scan", "android": "https://dc.lft.to/lastmile_qr_scan"}, "is_reserved": 0}, {"lon": -77.0212585, "bike_id": "979d1ad6eae67247a933bc54a8764b36", "lat": 38.9160985, "fusion_lon": 0.0, "fusion_lat": 0.0, "type": "electric_scooter", "name": "979d1ad6eae67247a933bc54a8764b36", "is_disabled": 0, "rental_uris": {"ios": "https://dc.lft.to/lastmile_qr_scan", "android": "https://dc.lft.to/lastmile_qr_scan"}, "is_reserved": 0}, {"lon": -77.02457666666666, "bike_id": "56bbefddae77ee9bbf590439c590e10a", "lat": 38.91695816666667, "fusion_lon": 0.0, "fusion_lat": 0.0, "type": "electric_scooter", "name": "56bbefddae77ee9bbf590439c590e10a", "is_disabled": 0, "rental_uris": {"ios": "https://dc.lft.to/lastmile_qr_scan", "android": "https://dc.lft.to/lastmile_qr_scan"}, "is_reserved": 0}, {"lon": -77.0092665, "bike_id": "e6022c1e9300a289ea0b78b37de6ca4b", "lat": 38.896031, "fusion_lon": 0.0, "fusion_lat": 0.0, "type": "electric_scooter", "name": "e6022c1e9300a289ea0b78b37de6ca4b", "is_disabled": 0, "rental_uris": {"ios": "https://dc.lft.to/lastmile_qr_scan", "android": "https://dc.lft.to/lastmile_qr_scan"}, "is_reserved": 0}, {"lon": -77.00042933333333, "bike_id": "316fe21c51e72d8a2520cc4478346661", "lat": 38.89632, "fusion_lon": 0.0, "fusion_lat": 0.0, "type": "electric_scooter", "name": "316fe21c51e72d8a2520cc4478346661", "is_disabled": 0, "rental_uris": {"ios": "https://dc.lft.to/lastmile_qr_scan", "android": "https://dc.lft.to/lastmile_qr_scan"}, "is_reserved": 0}, {"lon": -77.037134, "bike_id": "c0981923ce98ed8ba6d78196f081a209", "lat": 38.926353, "fusion_lon": 0.0, "fusion_lat": 0.0, "type": "electric_scooter", "name": "c0981923ce98ed8ba6d78196f081a209", "is_disabled": 0, "rental_uris": {"ios": "https://dc.lft.to/lastmile_qr_scan", "android": "https://dc.lft.to/lastmile_qr_scan"}, "is_reserved": 0}, {"lon": -77.043344, "bike_id": "d1e77b173ec48482625e715934810cbc", "lat": 38.90574016666667, "fusion_lon": 0.0, "fusion_lat": 0.0, "type": "electric_scooter", "name": "d1e77b173ec48482625e715934810cbc", "is_disabled": 0, "rental_uris": {"ios": "https://dc.lft.to/lastmile_qr_scan", "android": "https://dc.lft.to/lastmile_qr_scan"}, "is_reserved": 0}, {"lon": -77.031737, "bike_id": "dfc1be4b5f60245db1f6a9fa0e12e0ce", "lat": 38.915539333333335, "fusion_lon": 0.0, "fusion_lat": 0.0, "type": "electric_scooter", "name": "dfc1be4b5f60245db1f6a9fa0e12e0ce", "is_disabled": 0, "rental_uris": {"ios": "https://dc.lft.to/lastmile_qr_scan", "android": "https://dc.lft.to/lastmile_qr_scan"}, "is_reserved": 0}, {"lon": -77.03257433333333, "bike_id": "30ecb493ada246f383f806bd9ff33e0d", "lat": 38.90966516666667, "fusion_lon": 0.0, "fusion_lat": 0.0, "type": "electric_scooter", "name": "30ecb493ada246f383f806bd9ff33e0d", "is_disabled": 0, "rental_uris": {"ios": "https://dc.lft.to/lastmile_qr_scan", "android": "https://dc.lft.to/lastmile_qr_scan"}, "is_reserved": 0}, {"lon": -77.03266733333334, "bike_id": "7d8caba1d89a2537d651ebcf9d08dbe5", "lat": 38.92884083333333, "fusion_lon": 0.0, "fusion_lat": 0.0, "type": "electric_scooter", "name": "7d8caba1d89a2537d651ebcf9d08dbe5", "is_disabled": 0, "rental_uris": {"ios": "https://dc.lft.to/lastmile_qr_scan", "android": "https://dc.lft.to/lastmile_qr_scan"}, "is_reserved": 0}, {"lon": -76.95472533333333, "bike_id": "946f22043ad4248f11e1a89f3f1ad32f", "lat": 38.88660433333333, "fusion_lon": 0.0, "fusion_lat": 0.0, "type": "electric_scooter", "name": "946f22043ad4248f11e1a89f3f1ad32f", "is_disabled": 0, "rental_uris": {"ios": "https://dc.lft.to/lastmile_qr_scan", "android": "https://dc.lft.to/lastmile_qr_scan"}, "is_reserved": 0}, {"lon": -77.04595716666667, "bike_id": "bdff30b5d8795978c5de0ca70f6db849", "lat": 38.90768633333333, "fusion_lon": 0.0, "fusion_lat": 0.0, "type": "electric_scooter", "name": "bdff30b5d8795978c5de0ca70f6db849", "is_disabled": 0, "rental_uris": {"ios": "https://dc.lft.to/lastmile_qr_scan", "android": "https://dc.lft.to/lastmile_qr_scan"}, "is_reserved": 0}, {"lon": -76.9866135, "bike_id": "22ab8d31a00f8cb183c2a450ef8259c5", "lat": 38.867237333333335, "fusion_lon": 0.0, "fusion_lat": 0.0, "type": "electric_scooter", "name": "22ab8d31a00f8cb183c2a450ef8259c5", "is_disabled": 0, "rental_uris": {"ios": "https://dc.lft.to/lastmile_qr_scan", "android": "https://dc.lft.to/lastmile_qr_scan"}, "is_reserved": 0}, {"lon": -77.02158733333333, "bike_id": "1d58cc9c1ccc5e55945bd3242c96118b", "lat": 38.92482566666666, "fusion_lon": 0.0, "fusion_lat": 0.0, "type": "electric_scooter", "name": "1d58cc9c1ccc5e55945bd3242c96118b", "is_disabled": 0, "rental_uris": {"ios": "https://dc.lft.to/lastmile_qr_scan", "android": "https://dc.lft.to/lastmile_qr_scan"}, "is_reserved": 0}, {"lon": -77.001983, "bike_id": "1a07bab00f94a331226a44f16545789f", "lat": 38.90236616666667, "fusion_lon": 0.0, "fusion_lat": 0.0, "type": "electric_scooter", "name": "1a07bab00f94a331226a44f16545789f", "is_disabled": 0, "rental_uris": {"ios": "https://dc.lft.to/lastmile_qr_scan", "android": "https://dc.lft.to/lastmile_qr_scan"}, "is_reserved": 0}, {"lon": -77.03491633333333, "bike_id": "96ee2ff45dc311096482adcbeca227d0", "lat": 38.93536916666667, "fusion_lon": 0.0, "fusion_lat": 0.0, "type": "electric_scooter", "name": "96ee2ff45dc311096482adcbeca227d0", "is_disabled": 0, "rental_uris": {"ios": "https://dc.lft.to/lastmile_qr_scan", "android": "https://dc.lft.to/lastmile_qr_scan"}, "is_reserved": 0}, {"lon": -77.023017, "bike_id": "b055e100e399b673cb329baaff3d0e57", "lat": 38.9266845, "fusion_lon": 0.0, "fusion_lat": 0.0, "type": "electric_scooter", "name": "b055e100e399b673cb329baaff3d0e57", "is_disabled": 0, "rental_uris": {"ios": "https://dc.lft.to/lastmile_qr_scan", "android": "https://dc.lft.to/lastmile_qr_scan"}, "is_reserved": 0}, {"lon": -77.0261635, "bike_id": "6affa4557b7ef6dfd10bb6610b5fe847", "lat": 38.914152, "fusion_lon": 0.0, "fusion_lat": 0.0, "type": "electric_scooter", "name": "6affa4557b7ef6dfd10bb6610b5fe847", "is_disabled": 0, "rental_uris": {"ios": "https://dc.lft.to/lastmile_qr_scan", "android": "https://dc.lft.to/lastmile_qr_scan"}, "is_reserved": 0}, {"lon": -77.05475633333333, "bike_id": "676561eb502962294d6483645c5482bf", "lat": 38.90216983333333, "fusion_lon": 0.0, "fusion_lat": 0.0, "type": "electric_bike", "name": "676561eb502962294d6483645c5482bf", "is_disabled": 0, "rental_uris": {"ios": "https://dc.lft.to/lastmile_qr_scan", "android": "https://dc.lft.to/lastmile_qr_scan"}, "is_reserved": 0}, {"lon": -77.03308716666666, "bike_id": "411cf7c03c21e1d82dbdc7d5b7d9d6b3", "lat": 38.9073665, "fusion_lon": 0.0, "fusion_lat": 0.0, "type": "electric_scooter", "name": "411cf7c03c21e1d82dbdc7d5b7d9d6b3", "is_disabled": 0, "rental_uris": {"ios": "https://dc.lft.to/lastmile_qr_scan", "android": "https://dc.lft.to/lastmile_qr_scan"}, "is_reserved": 0}, {"lon": -77.0267695, "bike_id": "cf05ff2a2c0665905c36708749023e60", "lat": 38.918049, "fusion_lon": 0.0, "fusion_lat": 0.0, "type": "electric_scooter", "name": "cf05ff2a2c0665905c36708749023e60", "is_disabled": 0, "rental_uris": {"ios": "https://dc.lft.to/lastmile_qr_scan", "android": "https://dc.lft.to/lastmile_qr_scan"}, "is_reserved": 0}, {"lon": -77.0215055, "bike_id": "c6c9bd546cb4ae2c5201ed517faf0b34", "lat": 38.92444533333333, "fusion_lon": 0.0, "fusion_lat": 0.0, "type": "electric_scooter", "name": "c6c9bd546cb4ae2c5201ed517faf0b34", "is_disabled": 0, "rental_uris": {"ios": "https://dc.lft.to/lastmile_qr_scan", "android": "https://dc.lft.to/lastmile_qr_scan"}, "is_reserved": 0}, {"lon": -77.0803955, "bike_id": "51817628a5ce9933cfd44e6c93b242fe", "lat": 38.92385266666667, "fusion_lon": 0.0, "fusion_lat": 0.0, "type": "electric_scooter", "name": "51817628a5ce9933cfd44e6c93b242fe", "is_disabled": 0, "rental_uris": {"ios": "https://dc.lft.to/lastmile_qr_scan", "android": "https://dc.lft.to/lastmile_qr_scan"}, "is_reserved": 0}, {"lon": -77.02900883333334, "bike_id": "3ada38c75ff98a380d8e8780882ce611", "lat": 38.92815133333333, "fusion_lon": 0.0, "fusion_lat": 0.0, "type": "electric_scooter", "name": "3ada38c75ff98a380d8e8780882ce611", "is_disabled": 0, "rental_uris": {"ios": "https://dc.lft.to/lastmile_qr_scan", "android": "https://dc.lft.to/lastmile_qr_scan"}, "is_reserved": 0}, {"lon": -76.998802, "bike_id": "028081ed61e2bc6356096ce8e6041f5b", "lat": 38.901284, "fusion_lon": 0.0, "fusion_lat": 0.0, "type": "electric_scooter", "name": "028081ed61e2bc6356096ce8e6041f5b", "is_disabled": 0, "rental_uris": {"ios": "https://dc.lft.to/lastmile_qr_scan", "android": "https://dc.lft.to/lastmile_qr_scan"}, "is_reserved": 0}, {"lon": -77.0435945, "bike_id": "58ffcacea0a386f2ba8a7194236f3cea", "lat": 38.921645166666664, "fusion_lon": 0.0, "fusion_lat": 0.0, "type": "electric_scooter", "name": "58ffcacea0a386f2ba8a7194236f3cea", "is_disabled": 0, "rental_uris": {"ios": "https://dc.lft.to/lastmile_qr_scan", "android": "https://dc.lft.to/lastmile_qr_scan"}, "is_reserved": 0}, {"lon": -76.98017816666666, "bike_id": "9cc6768a2b09be24be7448f670deb983", "lat": 38.902864666666666, "fusion_lon": 0.0, "fusion_lat": 0.0, "type": "electric_scooter", "name": "9cc6768a2b09be24be7448f670deb983", "is_disabled": 0, "rental_uris": {"ios": "https://dc.lft.to/lastmile_qr_scan", "android": "https://dc.lft.to/lastmile_qr_scan"}, "is_reserved": 0}, {"lon": -77.0077855, "bike_id": "bdc8e898b037fd80b7b597c18a9dc616", "lat": 38.981323, "fusion_lon": 0.0, "fusion_lat": 0.0, "type": "electric_bike", "name": "bdc8e898b037fd80b7b597c18a9dc616", "is_disabled": 0, "rental_uris": {"ios": "https://dc.lft.to/lastmile_qr_scan", "android": "https://dc.lft.to/lastmile_qr_scan"}, "is_reserved": 0}, {"lon": -77.00756583333333, "bike_id": "806f3ce98375409a0396b6dce7199c48", "lat": 38.900634333333336, "fusion_lon": 0.0, "fusion_lat": 0.0, "type": "electric_scooter", "name": "806f3ce98375409a0396b6dce7199c48", "is_disabled": 0, "rental_uris": {"ios": "https://dc.lft.to/lastmile_qr_scan", "android": "https://dc.lft.to/lastmile_qr_scan"}, "is_reserved": 0}, {"lon": -77.0216995, "bike_id": "ac1ddaa6c4e05e6c24fbf34e995cd03d", "lat": 38.9249905, "fusion_lon": 0.0, "fusion_lat": 0.0, "type": "electric_scooter", "name": "ac1ddaa6c4e05e6c24fbf34e995cd03d", "is_disabled": 0, "rental_uris": {"ios": "https://dc.lft.to/lastmile_qr_scan", "android": "https://dc.lft.to/lastmile_qr_scan"}, "is_reserved": 0},