{"data": {"bikes": [{"is_disabled": 0, "fusion_lon": 0.0, "fusion_lat": 0.0, "lat": 38.94280833333333, "type": "electric_scooter", "lon": -77.03632083333333, "bike_id": "5fbab6c8a4f404f50583cfcaf7e0560e", "rental_uris": {"android": "https://dc.lft.to/lastmile_qr_scan", "ios": "https://dc.lft.to/lastmile_qr_scan"}, "name": "5fbab6c8a4f404f50583cfcaf7e0560e", "is_reserved": 0}, {"is_disabled": 0, "fusion_lon": 0.0, "fusion_lat": 0.0, "lat": 38.86510066666666, "type": "electric_scooter", "lon": -76.973257, "bike_id": "e74e9ce643ae387a584fc8786ccfdb6d", "rental_uris": {"android": "https://dc.lft.to/lastmile_qr_scan", "ios": "https://dc.lft.to/lastmile_qr_scan"}, "name": "e74e9ce643ae387a584fc8786ccfdb6d", "is_reserved": 0}, {"is_disabled": 0, "fusion_lon": 0.0, "fusion_lat": 0.0, "lat": 38.8948085, "type": "electric_scooter", "lon": -76.99520383333333, "bike_id": "df487863cdb87ada0abac14c841b3127", "rental_uris": {"android": "https://dc.lft.to/lastmile_qr_scan", "ios": "https://dc.lft.to/lastmile_qr_scan"}, "name": "df487863cdb87ada0abac14c841b3127", "is_reserved": 0}, {"is_disabled": 0, "fusion_lon": 0.0, "fusion_lat": 0.0, "lat": 38.96140533333333, "type": "electric_scooter", "lon": -77.02779716666667, "bike_id": "8122bcfc2ee8bc6b2923ad015b30e3e9", "rental_uris": {"android": "https://dc.lft.to/lastmile_qr_scan", "ios": "https://dc.lft.to/lastmile_qr_scan"}, "name": "8122bcfc2ee8bc6b2923ad015b30e3e9", "is_reserved": 0}, {"is_disabled": 0, "fusion_lon": 0.0, "fusion_lat": 0.0, "lat": 38.90534983333333, "type": "electric_scooter", "lon": -77.0503745, "bike_id": "3760dfa2c4502154fc6a8e938fc78c39", "rental_uris": {"android": "https://dc.lft.to/lastmile_qr_scan", "ios": "https://dc.lft.to/lastmile_qr_scan"}, "name": "3760dfa2c4502154fc6a8e938fc78c39", "is_reserved": 0}, {"is_disabled": 0, "fusion_lon": 0.0, "fusion_lat": 0.0, "lat": 38.926749666666666, "type": "electric_scooter", "lon": -77.02688616666667, "bike_id": "2b1842301d550452b16f3f3d90351c65", "rental_uris": {"android": "https://dc.lft.to/lastmile_qr_scan", "ios": "https://dc.lft.to/lastmile_qr_scan"}, "name": "2b1842301d550452b16f3f3d90351c65", "is_reserved": 0}, {"is_disabled": 0, "fusion_lon": 0.0, "fusion_lat": 0.0, "lat": 38.921251833333336, "type": "electric_scooter", "lon": -77.017561, "bike_id": "8ead590492f27b06255a5ca6e09320b1", "rental_uris": {"android": "https://dc.lft.to/lastmile_qr_scan", "ios": "https://dc.lft.to/lastmile_qr_scan"}, "name": "8ead590492f27b06255a5ca6e09320b1", "is_reserved": 0}, {"is_disabled": 0, "fusion_lon": 0.0, "fusion_lat": 0.0, "lat": 38.91269283333333, "type": "electric_scooter", "lon": -77.02228316666667, "bike_id": "e8a7a1ea8c251e66e5d7a9b92c27f65f", "rental_uris": {"android": "https://dc.lft.to/lastmile_qr_scan", "ios": "https://dc.lft.to/lastmile_qr_scan"}, "name": "e8a7a1ea8c251e66e5d7a9b92c27f65f", "is_reserved": 0}, {"is_disabled": 0, "fusion_lon": 0.0, "fusion_lat": 0.0, "lat": 38.893201833333336, "type": "electric_scooter", "lon": -77.02120316666667, "bike_id": "506d4bb7e4716a5b8570bfa2b76ab817", "rental_uris": {"android": "https://dc.lft.to/lastmile_qr_scan", "ios": "https://dc.lft.to/lastmile_qr_scan"}, "name": "506d4bb7e4716a5b8570bfa2b76ab817", "is_reserved": 0}, {"is_disabled": 0, "fusion_lon": 0.0, "fusion_lat": 0.0, "lat": 38.949838, "type": "electric_scooter", "lon": -77.027031, "bike_id": "52a9781b1313da0d8174ebf7e01dfaa8", "rental_uris": {"android": "https://dc.lft.to/lastmile_qr_scan", "ios": "https://dc.lft.to/lastmile_qr_scan"}, "name": "52a9781b1313da0d8174ebf7e01dfaa8", "is_reserved": 0}, {"is_disabled": 0, "fusion_lon": 0.0, "fusion_lat": 0.0, "lat": 38.85809866666666, "type": "electric_scooter", "lon": -76.98964283333333, "bike_id": "6840ba34d3981a8bdbadefa0f5a767d5", "rental_uris": {"android": "https://dc.lft.to/lastmile_qr_scan", "ios": "https://dc.lft.to/lastmile_qr_scan"}, "name": "6840ba34d3981a8bdbadefa0f5a767d5", "is_reserved": 0}, {"is_disabled": 0, "fusion_lon": 0.0, "fusion_lat": 0.0, "lat": 38.918019, "type": "electric_scooter", "lon": -77.0403055, "bike_id": "93593b491d7a357b2e2932de7cbba40b", "rental_uris": {"android": "https://dc.lft.to/lastmile_qr_scan", "ios": "https://dc.lft.to/lastmile_qr_scan"}, "name": "93593b491d7a357b2e2932de7cbba40b", "is_reserved": 0}, {"is_disabled": 0, "fusion_lon": 0.0, "fusion_lat": 0.0, "lat": 38.96214883333333, "type": "electric_scooter", "lon": -77.02797533333333, "bike_id": "8859b4390b33927bc774fb81af417f06", "rental_uris": {"android": "https://dc.lft.to/lastmile_qr_scan", "ios": "https://dc.lft.to/lastmile_qr_scan"}, "name": "8859b4390b33927bc774fb81af417f06", "is_reserved": 0}, {"is_disabled": 0, "fusion_lon": 0.0, "fusion_lat": 0.0, "lat": 38.9169185, "type": "electric_scooter", "lon": -77.02852733333333, "bike_id": "8f0aebc7a3c676ba84eae690d74c3111", "rental_uris": {"android": "https://dc.lft.to/lastmile_qr_scan", "ios": "https://dc.lft.to/lastmile_qr_scan"}, "name": "8f0aebc7a3c676ba84eae690d74c3111", "is_reserved": 0}, {"is_disabled": 0, "fusion_lon": 0.0, "fusion_lat": 0.0, "lat": 38.92118416666667, "type": "electric_scooter", "lon": -77.01213366666667, "bike_id": "473227493f6aa55ad099d5c5b2a0027f", "rental_uris": {"android": "https://dc.lft.to/lastmile_qr_scan", "ios": "https://dc.lft.to/lastmile_qr_scan"}, "name": "473227493f6aa55ad099d5c5b2a0027f", "is_reserved": 0}, {"is_disabled": 0, "fusion_lon": 0.0, "fusion_lat": 0.0, "lat": 38.907511166666666, "type": "electric_scooter", "lon": -77.03583683333333, "bike_id": "a60df2855fe45b80e49e93da9cde7984", "rental_uris": {"android": "https://dc.lft.to/lastmile_qr_scan", "ios": "https://dc.lft.to/lastmile_qr_scan"}, "name": "a60df2855fe45b80e49e93da9cde7984", "is_reserved": 0}, {"is_disabled": 0, "fusion_lon": 0.0, "fusion_lat": 0.0, "lat": 38.956320833333336, "type": "electric_scooter", "lon": -77.0297935, "bike_id": "efe55ef92e902002e72fd6ffecb46c45", "rental_uris": {"android": "https://dc.lft.to/lastmile_qr_scan", "ios": "https://dc.lft.to/lastmile_qr_scan"}, "name": "efe55ef92e902002e72fd6ffecb46c45", "is_reserved": 0}, {"is_disabled": 0, "fusion_lon": 0.0, "fusion_lat": 0.0, "lat": 38.88386, "type": "electric_bike", "lon": -77.03086416666666, "bike_id": "385b15866afbd9d1b2fb58f315996383", "rental_uris": {"android": "https://dc.lft.to/lastmile_qr_scan", "ios": "https://dc.lft.to/lastmile_qr_scan"}, "name": "385b15866afbd9d1b2fb58f315996383", "is_reserved": 0}, {"is_disabled": 0, "fusion_lon": 0.0, "fusion_lat": 0.0, "lat": 38.93565683333333, "type": "electric_scooter", "lon": -77.0819805, "bike_id": "2a73d2f38d4b3a1aef66fae458ee593c", "rental_uris": {"android": "https://dc.lft.to/lastmile_qr_scan", "ios": "https://dc.lft.to/lastmile_qr_scan"}, "name": "2a73d2f38d4b3a1aef66fae458ee593c", "is_reserved": 0}, {"is_disabled": 0, "fusion_lon": 0.0, "fusion_lat": 0.0, "lat": 38.895065, "type": "electric_scooter", "lon": -77.0161365, "bike_id": "44a2f9508f21c8c1a4789f25567fad26", "rental_uris": {"android": "https://dc.lft.to/lastmile_qr_scan", "ios": "https://dc.lft.to/lastmile_qr_scan"}, "name": "44a2f9508f21c8c1a4789f25567fad26", "is_reserved": 0}, {"is_disabled": 0, "fusion_lon": 0.0, "fusion_lat": 0.0, "lat": 38.845985, "type": "electric_bike", "lon": -76.96882333333333, "bike_id": "e6f268bbbd85919f3559ab35a3ba4fbc", "rental_uris": {"android": "https://dc.lft.to/lastmile_qr_scan", "ios": "https://dc.lft.to/lastmile_qr_scan"}, "name": "e6f268bbbd85919f3559ab35a3ba4fbc", "is_reserved": 0}, {"is_disabled": 0, "fusion_lon": 0.0, "fusion_lat": 0.0, "lat": 38.899081, "type": "electric_scooter", "lon": -76.93392083333333, "bike_id": "a77155030cd7c411f6e3b199a740ebc6", "rental_uris": {"android": "https://dc.lft.to/lastmile_qr_scan", "ios": "https://dc.lft.to/lastmile_qr_scan"}, "name": "a77155030cd7c411f6e3b199a740ebc6", "is_reserved": 0}, {"is_disabled": 0, "fusion_lon": 0.0, "fusion_lat": 0.0, "lat": 38.911111, "type": "electric_scooter", "lon": -77.03833633333333, "bike_id": "38989afbd2e80ee4625021d5792d189b", "rental_uris": {"android": "https://dc.lft.to/lastmile_qr_scan", "ios": "https://dc.lft.to/lastmile_qr_scan"}, "name": "38989afbd2e80ee4625021d5792d189b", "is_reserved": 0}, {"is_disabled": 0, "fusion_lon": 0.0, "fusion_lat": 0.0, "lat": 38.927476666666664, "type": "electric_scooter", "lon": -77.07592216666667, "bike_id": "696b5524421bac92359ecdcdcc978cc9", "rental_uris": {"android": "https://dc.lft.to/lastmile_qr_scan", "ios": "https://dc.lft.to/lastmile_qr_scan"}, "name": "696b5524421bac92359ecdcdcc978cc9", "is_reserved": 0}, {"is_disabled": 0, "fusion_lon": 0.0, "fusion_lat": 0.0, "lat": 38.959641, "type": "electric_scooter", "lon": -77.021138, "bike_id": "9f27193ff2babe078bead81c6a3c6197", "rental_uris": {"android": "https://dc.lft.to/lastmile_qr_scan", "ios": "https://dc.lft.to/lastmile_qr_scan"}, "name": "9f27193ff2babe078bead81c6a3c6197", "is_reserved": 0}, {"is_disabled": 0, "fusion_lon": 0.0, "fusion_lat": 0.0, "lat": 38.922430166666665, "type": "electric_scooter", "lon": -77.03086633333334, "bike_id": "d48ae24a032dd3cda87fddb9b50a0aac", "rental_uris": {"android": "https://dc.lft.to/lastmile_qr_scan", "ios": "https://dc.lft.to/lastmile_qr_scan"}, "name": "d48ae24a032dd3cda87fddb9b50a0aac", "is_reserved": 0}, {"is_disabled": 0, "fusion_lon": 0.0, "fusion_lat": 0.0, "lat": 38.903629333333335, "type": "electric_scooter", "lon": -77.03197166666666, "bike_id": "7c1b4d1ecfe1778bc7e7692d631ec4f7", "rental_uris": {"android": "https://dc.lft.to/lastmile_qr_scan", "ios": "https://dc.lft.to/lastmile_qr_scan"}, "name": "7c1b4d1ecfe1778bc7e7692d631ec4f7", "is_reserved": 0}, {"is_disabled": 0, "fusion_lon": 0.0, "fusion_lat": 0.0, "lat": 38.9539665, "type": "electric_scooter", "lon": -77.027577, "bike_id": "7fac8f6ffc96521f03119c5e1d2a91b3", "rental_uris": {"android": "https://dc.lft.to/lastmile_qr_scan", "ios": "https://dc.lft.to/lastmile_qr_scan"}, "name": "7fac8f6ffc96521f03119c5e1d2a91b3", "is_reserved": 0}, {"is_disabled": 0, "fusion_lon": 0.0, "fusion_lat": 0.0, "lat": 38.858447166666664, "type": "electric_bike", "lon": -76.99285116666667, "bike_id": "1d3190e8f0b6fb015cc0d593b56b0fce", "rental_uris": {"android": "https://dc.lft.to/lastmile_qr_scan", "ios": "https://dc.lft.to/lastmile_qr_scan"}, "name": "1d3190e8f0b6fb015cc0d593b56b0fce", "is_reserved": 0}, {"is_disabled": 0, "fusion_lon": 0.0, "fusion_lat": 0.0, "lat": 38.965014333333336, "type": "electric_scooter", "lon": -77.02479383333333, "bike_id": "5148e448d859ab448bb69b42211ffa33", "rental_uris": {"android": "https://dc.lft.to/lastmile_qr_scan", "ios": "https://dc.lft.to/lastmile_qr_scan"}, "name": "5148e448d859ab448bb69b42211ffa33", "is_reserved": 0}, {"is_disabled": 0, "fusion_lon": 0.0, "fusion_lat": 0.0, "lat": 38.9181695, "type": "electric_scooter", "lon": -77.03270633333334, "bike_id": "b2c66df375dcac1687e9dc4558a54b9c", "rental_uris": {"android": "https://dc.lft.to/lastmile_qr_scan", "ios": "https://dc.lft.to/lastmile_qr_scan"}, "name": "b2c66df375dcac1687e9dc4558a54b9c", "is_reserved": 0}, {"is_disabled": 0, "fusion_lon": 0.0, "fusion_lat": 0.0, "lat": 38.892207, "type": "electric_scooter", "lon": -77.03340133333333, "bike_id": "ce0eb4dfd66ab570c8654b2ab48414ee", "rental_uris": {"android": "https://dc.lft.to/lastmile_qr_scan", "ios": "https://dc.lft.to/lastmile_qr_scan"}, "name": "ce0eb4dfd66ab570c8654b2ab48414ee", "is_reserved": 0}, {"is_disabled": 0, "fusion_lon": 0.0, "fusion_lat": 0.0, "lat": 38.93763083333333, "type": "electric_scooter", "lon": -77.03085983333334, "bike_id": "836625a394a499d1ab608b7732c6b413", "rental_uris": {"android": "https://dc.lft.to/lastmile_qr_scan", "ios": "https://dc.lft.to/lastmile_qr_scan"}, "name": "836625a394a499d1ab608b7732c6b413", "is_reserved": 0}, {"is_disabled": 0, "fusion_lon": 0.0, "fusion_lat": 0.0, "lat": 38.924184333333336, "type": "electric_scooter", "lon": -77.04171616666666, "bike_id": "870fa2df9cdf6e4ce28d60e66da448f3", "rental_uris": {"android": "https://dc.lft.to/lastmile_qr_scan", "ios": "https://dc.lft.to/lastmile_qr_scan"}, "name": "870fa2df9cdf6e4ce28d60e66da448f3", "is_reserved": 0}, {"is_disabled": 0, "fusion_lon": 0.0, "fusion_lat": 0.0, "lat": 38.93010566666667, "type": "electric_scooter", "lon": -77.07847416666667, "bike_id": "6ae78b79c11cb34326fba4fd86e5cd08", "rental_uris": {"android": "https://dc.lft.to/lastmile_qr_scan", "ios": "https://dc.lft.to/lastmile_qr_scan"}, "name": "6ae78b79c11cb34326fba4fd86e5cd08", "is_reserved": 0}, {"is_disabled": 0, "fusion_lon": 0.0, "fusion_lat": 0.0, "lat": 38.907235166666666, "type": "electric_scooter", "lon": -77.03839683333334, "bike_id": "128bad15d6eb349828f9cefa1cd9506f", "rental_uris": {"android": "https://dc.lft.to/lastmile_qr_scan", "ios": "https://dc.lft.to/lastmile_qr_scan"}, "name": "128bad15d6eb349828f9cefa1cd9506f", "is_reserved": 0}, {"is_disabled": 0, "fusion_lon": 0.0, "fusion_lat": 0.0, "lat": 38.87310316666667, "type": "electric_bike", "lon": -76.97107066666666, "bike_id": "c40073f132e479ac7a9e28b1e058f0cf", "rental_uris": {"android": "https://dc.lft.to/lastmile_qr_scan", "ios": "https://dc.lft.to/lastmile_qr_scan"}, "name": "c40073f132e479ac7a9e28b1e058f0cf", "is_reserved": 0}, {"is_disabled": 0, "fusion_lon": 0.0, "fusion_lat": 0.0, "lat": 38.90834916666667, "type": "electric_scooter", "lon": -77.002426, "bike_id": "8c970e7d9ac91b5ef6eae1b2016ce506", "rental_uris": {"android": "https://dc.lft.to/lastmile_qr_scan", "ios": "https://dc.lft.to/lastmile_qr_scan"}, "name": "8c970e7d9ac91b5ef6eae1b2016ce506", "is_reserved": 0}, {"is_disabled": 0, "fusion_lon": 0.0, "fusion_lat": 0.0, "lat": 38.9037905, "type": "electric_scooter", "lon": -77.05026366666667, "bike_id": "08227654d434843f3481a36b0ec21243", "rental_uris": {"android": "https://dc.lft.to/lastmile_qr_scan", "ios": "https://dc.lft.to/lastmile_qr_scan"}, "name": "08227654d434843f3481a36b0ec21243", "is_reserved": 0}, {"is_disabled": 0, "fusion_lon": 0.0, "fusion_lat": 0.0, "lat": 38.879824166666666, "type": "electric_bike", "lon": -76.9160095, "bike_id": "d5b9666239123be0815d268fe47b49c1", "rental_uris": {"android": "https://dc.lft.to/lastmile_qr_scan", "ios": "https://dc.lft.to/lastmile_qr_scan"}, "name": "d5b9666239123be0815d268fe47b49c1", "is_reserved": 0}, {"is_disabled": 0, "fusion_lon": 0.0, "fusion_lat": 0.0, "lat": 38.911749, "type": "electric_scooter", "lon": -77.0043545, "bike_id": "56d7f9bd66dce99f6c4d348bddf8be7d", "rental_uris": {"android": "https://dc.lft.to/lastmile_qr_scan", "ios": "https://dc.lft.to/lastmile_qr_scan"}, "name": "56d7f9bd66dce99f6c4d348bddf8be7d", "is_reserved": 0}, {"is_disabled": 0, "fusion_lon": 0.0, "fusion_lat": 0.0, "lat": 38.96649566666667, "type": "electric_bike", "lon": -76.93028083333333, "bike_id": "4226ca273d8c54aa863bfeb9c7690a90", "rental_uris": {"android": "https://dc.lft.to/lastmile_qr_scan", "ios": "https://dc.lft.to/lastmile_qr_scan"}, "name": "4226ca273d8c54aa863bfeb9c7690a90", "is_reserved": 0}, {"is_disabled": 0, "fusion_lon": 0.0, "fusion_lat": 0.0, "lat": 38.89739383333333, "type": "electric_scooter", "lon": -77.0480875, "bike_id": "56dd63a32e59a4853273a969ec5ffe20", "rental_uris": {"android": "https://dc.lft.to/lastmile_qr_scan", "ios": "https://dc.lft.to/lastmile_qr_scan"}, "name": "56dd63a32e59a4853273a969ec5ffe20", "is_reserved": 0}, {"is_disabled": 0, "fusion_lon": 0.0, "fusion_lat": 0.0, "lat": 38.90266283333333, "type": "electric_scooter", "lon": -77.03444266666666, "bike_id": "22b234b1b8c05c7558aa876001ee3f7c", "rental_uris": {"android": "https://dc.lft.to/lastmile_qr_scan", "ios": "https://dc.lft.to/lastmile_qr_scan"}, "name": "22b234b1b8c05c7558aa876001ee3f7c", "is_reserved": 0}, {"is_disabled": 0, "fusion_lon": 0.0, "fusion_lat": 0.0, "lat": 38.91897183333333, "type": "electric_scooter", "lon": -77.023884, "bike_id": "79b47e04ffd64b43424a87db25a6ee7a", "rental_uris": {"android": "https://dc.lft.to/lastmile_qr_scan", "ios": "https://dc.lft.to/lastmile_qr_scan"}, "name": "79b47e04ffd64b43424a87db25a6ee7a", "is_reserved": 0}, {"is_disabled": 0, "fusion_lon": 0.0, "fusion_lat": 0.0, "lat": 38.91617933333333, "type": "electric_scooter", "lon": -77.04598833333333, "bike_id": "4ca7cad6c24f3654a87d9c3cb8c43baf", "rental_uris": {"android": "https://dc.lft.to/lastmile_qr_scan", "ios": "https://dc.lft.to/lastmile_qr_scan"}, "name": "4ca7cad6c24f3654a87d9c3cb8c43baf", "is_reserved": 0}, {"is_disabled": 0, "fusion_lon": 0.0, "fusion_lat": 0.0, "lat": 38.9162625, "type": "electric_bike", "lon": -77.01353066666667, "bike_id": "37719fc7ae79c103fc4d75da8156daa3", "rental_uris": {"android": "https://dc.lft.to/lastmile_qr_scan", "ios": "https://dc.lft.to/lastmile_qr_scan"}, "name": "37719fc7ae79c103fc4d75da8156daa3", "is_reserved": 0}, {"is_disabled": 0, "fusion_lon": 0.0, "fusion_lat": 0.0, "lat": 38.88062683333333, "type": "electric_scooter", "lon": -77.01659916666667, "bike_id": "18f425e66a744254f854042a8ee2f4a5", "rental_uris": {"android": "https://dc.lft.to/lastmile_qr_scan", "ios": "https://dc.lft.to/lastmile_qr_scan"}, "name": "18f425e66a744254f854042a8ee2f4a5", "is_reserved": 0}, {"is_disabled": 0, "fusion_lon": 0.0, "fusion_lat": 0.0, "lat": 38.953744666666665, "type": "electric_scooter", "lon": -77.02563933333333, "bike_id": "085fab41c10548e0201df735667aafd3", "rental_uris": {"android": "https://dc.lft.to/lastmile_qr_scan", "ios": "https://dc.lft.to/lastmile_qr_scan"}, "name": "085fab41c10548e0201df735667aafd3", "is_reserved": 0}, {"is_disabled": 0, "fusion_lon": 0.0, "fusion_lat": 0.0, "lat": 38.879665333333335, "type": "electric_scooter", "lon": -77.005764, "bike_id": "7973e81aa59099aa9ff410ca2d2f58be", "rental_uris": {"android": "https://dc.lft.to/lastmile_qr_scan", "ios": "https://dc.lft.to/lastmile_qr_scan"}, "name": "7973e81aa59099aa9ff410ca2d2f58be", "is_reserved": 0}, {"is_disabled": 0, "fusion_lon": 0.0, "fusion_lat": 0.0, "lat": 38.89256666666667, "type": "electric_scooter", "lon": -76.94159316666666, "bike_id": "4473574134ba59c4aea0631c2ba2514b", "rental_uris": {"android": "https://dc.lft.to/lastmile_qr_scan", "ios": "https://dc.lft.to/lastmile_qr_scan"}, "name": "4473574134ba59c4aea0631c2ba2514b", "is_reserved": 0}, {"is_disabled": 0, "fusion_lon": 0.0, "fusion_lat": 0.0, "lat": 38.89851483333333, "type": "electric_bike", "lon": -76.9318895, "bike_id": "e34ebabf25038a10d5e689c186add5b5", "rental_uris": {"android": "https://dc.lft.to/lastmile_qr_scan", "ios": "https://dc.lft.to/lastmile_qr_scan"}, "name": "e34ebabf25038a10d5e689c186add5b5", "is_reserved": 0}, {"is_disabled": 0, "fusion_lon": 0.0, "fusion_lat": 0.0, "lat": 38.908213, "type": "electric_scooter", "lon": -77.033433, "bike_id": "6a02a238088a88e2b8de715efb100a96", "rental_uris": {"android": "https://dc.lft.to/lastmile_qr_scan", "ios": "https://dc.lft.to/lastmile_qr_scan"}, "name": "6a02a238088a88e2b8de715efb100a96", "is_reserved": 0}, {"is_disabled": 0, "fusion_lon": 0.0, "fusion_lat": 0.0, "lat": 38.9094475, "type": "electric_scooter", "lon": -77.01530066666666, "bike_id": "df230787965e8921866f146a14204ec9", "rental_uris": {"android": "https://dc.lft.to/lastmile_qr_scan", "ios": "https://dc.lft.to/lastmile_qr_scan"}, "name": "df230787965e8921866f146a14204ec9", "is_reserved": 0}, {"is_disabled": 0, "fusion_lon": 0.0, "fusion_lat": 0.0, "lat": 38.9065675, "type": "electric_scooter", "lon": -77.02524, "bike_id": "886dd777007b676263b514d14f0175e3", "rental_uris": {"android": "https://dc.lft.to/lastmile_qr_scan", "ios": "https://dc.lft.to/lastmile_qr_scan"}, "name": "886dd777007b676263b514d14f0175e3", "is_reserved": 0}, {"is_disabled": 0, "fusion_lon": 0.0, "fusion_lat": 0.0, "lat": 38.913799833333336, "type": "electric_scooter", "lon": -77.02971016666666, "bike_id": "3b04d8d63d9e95daabd00fe12b0006d1", "rental_uris": {"android": "https://dc.lft.to/lastmile_qr_scan", "ios": "https://dc.lft.to/lastmile_qr_scan"}, "name": "3b04d8d63d9e95daabd00fe12b0006d1", "is_reserved": 0}, {"is_disabled": 0, "fusion_lon": 0.0, "fusion_lat": 0.0, "lat": 38.92378266666667, "type": "electric_scooter", "lon": -77.02757133333333, "bike_id": "017aa08e654968ea619e97f4f21d54d3", "rental_uris": {"android": "https://dc.lft.to/lastmile_qr_scan", "ios": "https://dc.lft.to/lastmile_qr_scan"}, "name": "017aa08e654968ea619e97f4f21d54d3", "is_reserved": 0}, {"is_disabled": 0, "fusion_lon": 0.0, "fusion_lat": 0.0, "lat": 38.883467333333336, "type": "electric_scooter", "lon": -76.92788483333334, "bike_id": "ccc9817d0bbb681c16aaea7efa3999fb", "rental_uris": {"android": "https://dc.lft.to/lastmile_qr_scan", "ios": "https://dc.lft.to/lastmile_qr_scan"}, "name": "ccc9817d0bbb681c16aaea7efa3999fb", "is_reserved": 0}, {"is_disabled": 0, "fusion_lon": 0.0, "fusion_lat": 0.0, "lat": 38.937097666666666, "type": "electric_scooter", "lon": -77.06106, "bike_id": "4390a2a0a847f2df33f67ab9b776e7fb", "rental_uris": {"android": "https://dc.lft.to/lastmile_qr_scan", "ios": "https://dc.lft.to/lastmile_qr_scan"}, "name": "4390a2a0a847f2df33f67ab9b776e7fb", "is_reserved": 0}, {"is_disabled": 0, "fusion_lon": 0.0, "fusion_lat": 0.0, "lat": 38.8983035, "type": "electric_scooter", "lon": -77.043462, "bike_id": "74d8130c2355a98b25a9dd417edfd965", "rental_uris": {"android": "https://dc.lft.to/lastmile_qr_scan", "ios": "https://dc.lft.to/lastmile_qr_scan"}, "name": "74d8130c2355a98b25a9dd417edfd965", "is_reserved": 0}, {"is_disabled": 0, "fusion_lon": 0.0, "fusion_lat": 0.0, "lat": 38.923404166666664, "type": "electric_scooter", "lon": -77.05469316666667, "bike_id": "21be55c4c49ec241d9e501b3fa115eb8", "rental_uris": {"android": "https://dc.lft.to/lastmile_qr_scan", "ios": "https://dc.lft.to/lastmile_qr_scan"}, "name": "21be55c4c49ec241d9e501b3fa115eb8", "is_reserved": 0}, {"is_disabled": 0, "fusion_lon": 0.0, "fusion_lat": 0.0, "lat": 38.8635365, "type": "electric_scooter", "lon": -76.99067666666667, "bike_id": "ac090bc6fbc9f04c0db63432fb19f727", "rental_uris": {"android": "https://dc.lft.to/lastmile_qr_scan", "ios": "https://dc.lft.to/lastmile_qr_scan"}, "name": "ac090bc6fbc9f04c0db63432fb19f727", "is_reserved": 0}, {"is_disabled": 0, "fusion_lon": 0.0, "fusion_lat": 0.0, "lat": 38.9202465, "type": "electric_scooter", "lon": -77.01875266666667, "bike_id": "f55b351f77a0e04856ff20d7f82e16d9", "rental_uris": {"android": "https://dc.lft.to/lastmile_qr_scan", "ios": "https://dc.lft.to/lastmile_qr_scan"}, "name": "f55b351f77a0e04856ff20d7f82e16d9", "is_reserved": 0}, {"is_disabled": 0, "fusion_lon": 0.0, "fusion_lat": 0.0, "lat": 38.90183066666667, "type": "electric_scooter", "lon": -77.0500665, "bike_id": "a38f16087e0f9965ccef876406e1d99d", "rental_uris": {"android": "https://dc.lft.to/lastmile_qr_scan", "ios": "https://dc.lft.to/lastmile_qr_scan"}, "name": "a38f16087e0f9965ccef876406e1d99d", "is_reserved": 0}, {"is_disabled": 0, "fusion_lon": 0.0, "fusion_lat": 0.0, "lat": 38.9057725, "type": "electric_scooter", "lon": -77.04869066666667, "bike_id": "b94e008febaa77a3b82ffd7818aa78ba", "rental_uris": {"android": "https://dc.lft.to/lastmile_qr_scan", "ios": "https://dc.lft.to/lastmile_qr_scan"}, "name": "b94e008febaa77a3b82ffd7818aa78ba", "is_reserved": 0}, {"is_disabled": 0, "fusion_lon": 0.0, "fusion_lat": 0.0, "lat": 38.8766975, "type": "electric_bike", "lon": -77.0144635, "bike_id": "32457c1383703a42c35c3cc28f9c5453", "rental_uris": {"android": "https://dc.lft.to/lastmile_qr_scan", "ios": "https://dc.lft.to/lastmile_qr_scan"}, "name": "32457c1383703a42c35c3cc28f9c5453", "is_reserved": 0}, {"is_disabled": 0, "fusion_lon": 0.0, "fusion_lat": 0.0, "lat": 39.058113666666664, "type": "electric_bike", "lon": -77.12625966666667, "bike_id": "c4b46c81d3d79412896dada767982ffc", "rental_uris": {"android": "https://dc.lft.to/lastmile_qr_scan", "ios": "https://dc.lft.to/lastmile_qr_scan"}, "name": "c4b46c81d3d79412896dada767982ffc", "is_reserved": 0}, {"is_disabled": 0, "fusion_lon": 0.0, "fusion_lat": 0.0, "lat": 38.903714, "type": "electric_scooter", "lon": -77.02524916666667, "bike_id": "23e045700f3af30a44dfdb8b32484884", "rental_uris": {"android": "https://dc.lft.to/lastmile_qr_scan", "ios": "https://dc.lft.to/lastmile_qr_scan"}, "name": "23e045700f3af30a44dfdb8b32484884", "is_reserved": 0}, {"is_disabled": 0, "fusion_lon": 0.0, "fusion_lat": 0.0, "lat": 38.904983333333334, "type": "electric_scooter", "lon": -77.02607566666667, "bike_id": "0b56302f439be77ad8dfd375cc6c2870", "rental_uris": {"android": "https://dc.lft.to/lastmile_qr_scan", "ios": "https://dc.lft.to/lastmile_qr_scan"}, "name": "0b56302f439be77ad8dfd375cc6c2870", "is_reserved": 0}, {"is_disabled": 0, "fusion_lon": 0.0, "fusion_lat": 0.0, "lat": 38.922877, "type": "electric_scooter", "lon": -77.04031916666666, "bike_id": "8bf29ea530f7895160953e01bf3da12c", "rental_uris": {"android": "https://dc.lft.to/lastmile_qr_scan", "ios": "https://dc.lft.to/lastmile_qr_scan"}, "name": "8bf29ea530f7895160953e01bf3da12c", "is_reserved": 0}, {"is_disabled": 0, "fusion_lon": 0.0, "fusion_lat": 0.0, "lat": 38.887565333333335, "type": "electric_scooter", "lon": -77.03383733333334, "bike_id": "19a73e15615073c20cbd9d7e48f4031d", "rental_uris": {"android": "https://dc.lft.to/lastmile_qr_scan", "ios": "https://dc.lft.to/lastmile_qr_scan"}, "name": "19a73e15615073c20cbd9d7e48f4031d", "is_reserved": 0}, {"is_disabled": 0, "fusion_lon": 0.0, "fusion_lat": 0.0, "lat": 38.91869166666667, "type": "electric_scooter", "lon": -77.03516683333334, "bike_id": "4e1a44d68d77e0ccaa5f511d70690ee5", "rental_uris": {"android": "https://dc.lft.to/lastmile_qr_scan", "ios": "https://dc.lft.to/lastmile_qr_scan"}, "name": "4e1a44d68d77e0ccaa5f511d70690ee5", "is_reserved": 0}, {"is_disabled": 0, "fusion_lon": 0.0, "fusion_lat": 0.0, "lat": 38.94148966666667, "type": "electric_bike", "lon": -77.00193466666667, "bike_id": "88605b038ca5a644f39fa0e9301325fd", "rental_uris": {"android": "https://dc.lft.to/lastmile_qr_scan", "ios": "https://dc.lft.to/lastmile_qr_scan"}, "name": "88605b038ca5a644f39fa0e9301325fd", "is_reserved": 0}, {"is_disabled": 0, "fusion_lon": 0.0, "fusion_lat": 0.0, "lat": 38.907533, "type": "electric_scooter", "lon": -77.0358625, "bike_id": "093a9d887673523445614449a8aa53a9", "rental_uris": {"android": "https://dc.lft.to/lastmile_qr_scan", "ios": "https://dc.lft.to/lastmile_qr_scan"}, "name": "093a9d887673523445614449a8aa53a9", "is_reserved": 0}, {"is_disabled": 0, "fusion_lon": 0.0, "fusion_lat": 0.0, "lat": 38.924805, "type": "electric_scooter", "lon": -77.027127, "bike_id": "7fceed3405c6d5d0496f785a2f08aa05", "rental_uris": {"android": "https://dc.lft.to/lastmile_qr_scan", "ios": "https://dc.lft.to/lastmile_qr_scan"}, "name": "7fceed3405c6d5d0496f785a2f08aa05", "is_reserved": 0}, {"is_disabled": 0, "fusion_lon": 0.0, "fusion_lat": 0.0, "lat": 38.9085305, "type": "electric_scooter", "lon": -77.00373316666666, "bike_id": "1bd41ea251b37cabf76e2f6067991ed2", "rental_uris": {"android": "https://dc.lft.to/lastmile_qr_scan", "ios": "https://dc.lft.to/lastmile_qr_scan"}, "name": "1bd41ea251b37cabf76e2f6067991ed2", "is_reserved": 0}, {"is_disabled": 0, "fusion_lon": 0.0, "fusion_lat": 0.0, "lat": 38.905932166666666, "type": "electric_scooter", "lon": -77.073194, "bike_id": "fceeaeaf308e6a14fb419866e13b41bc", "rental_uris": {"android": "https://dc.lft.to/lastmile_qr_scan", "ios": "https://dc.lft.to/lastmile_qr_scan"}, "name": "fceeaeaf308e6a14fb419866e13b41bc", "is_reserved": 0}, {"is_disabled": 0, "fusion_lon": 0.0, "fusion_lat": 0.0, "lat": 38.9199975, "type": "electric_scooter", "lon": -77.03286616666666, "bike_id": "f0c447cb8dd798e21b0462cd868790e3", "rental_uris": {"android": "https://dc.lft.to/lastmile_qr_scan", "ios": "https://dc.lft.to/lastmile_qr_scan"}, "name": "f0c447cb8dd798e21b0462cd868790e3", "is_reserved": 0}, {"is_disabled": 0, "fusion_lon": 0.0, "fusion_lat": 0.0, "lat": 39.00015766666667, "type": "electric_bike", "lon": -76.87285033333333, "bike_id": "5a8ac84630820dab87e4cda990c7e5b0", "rental_uris": {"android": "https://dc.lft.to/lastmile_qr_scan", "ios": "https://dc.lft.to/lastmile_qr_scan"}, "name": "5a8ac84630820dab87e4cda990c7e5b0", "is_reserved": 0}, {"is_disabled": 0, "fusion_lon": 0.0, "fusion_lat": 0.0, "lat": 38.9057705, "type": "electric_scooter", "lon": -77.02201616666666, "bike_id": "af2b6147112900dfb8ba6f66de9220ee", "rental_uris": {"android": "https://dc.lft.to/lastmile_qr_scan", "ios": "https://dc.lft.to/lastmile_qr_scan"}, "name": "af2b6147112900dfb8ba6f66de9220ee", "is_reserved": 0}, {"is_disabled": 0, "fusion_lon": 0.0, "fusion_lat": 0.0, "lat": 38.912890166666664, "type": "electric_scooter", "lon": -77.0207855, "bike_id": "091855dc8554af040f4300f438656aaf", "rental_uris": {"android": "https://dc.lft.to/lastmile_qr_scan", "ios": "https://dc.lft.to/lastmile_qr_scan"}, "name": "091855dc8554af040f4300f438656aaf", "is_reserved": 0}, {"is_disabled": 0, "fusion_lon": 0.0, "fusion_lat": 0.0, "lat": 38.9083225, "type": "electric_scooter", "lon": -77.04362683333333, "bike_id": "dc2ea57f42f2cdc2e07ba1e81318237a", "rental_uris": {"android": "https://dc.lft.to/lastmile_qr_scan", "ios": "https://dc.lft.to/lastmile_qr_scan"}, "name": "dc2ea57f42f2cdc2e07ba1e81318237a", "is_reserved": 0}, {"is_disabled": 0, "fusion_lon": 0.0, "fusion_lat": 0.0, "lat": 38.828681833333334, "type": "electric_bike", "lon": -77.11223983333333, "bike_id": "b3c6f73252c46803ee91ec24d6cf81e9", "rental_uris": {"android": "https://dc.lft.to/lastmile_qr_scan", "ios": "https://dc.lft.to/lastmile_qr_scan"}, "name": "b3c6f73252c46803ee91ec24d6cf81e9", "is_reserved": 0}, {"is_disabled": 0, "fusion_lon": 0.0, "fusion_lat": 0.0, "lat": 38.914792166666665, "type": "electric_scooter", "lon": -77.0346705, "bike_id": "eb045ccaadfdbeed4540dafae589ea20", "rental_uris": {"android": "https://dc.lft.to/lastmile_qr_scan", "ios": "https://dc.lft.to/lastmile_qr_scan"}, "name": "eb045ccaadfdbeed4540dafae589ea20", "is_reserved": 0}, {"is_disabled": 0, "fusion_lon": 0.0, "fusion_lat": 0.0, "lat": 38.91104266666667, "type": "electric_scooter", "lon": -77.06611466666666, "bike_id": "5a0ab0c4b40f53606646b2766f969fbd", "rental_uris": {"android": "https://dc.lft.to/lastmile_qr_scan", "ios": "https://dc.lft.to/lastmile_qr_scan"}, "name": "5a0ab0c4b40f53606646b2766f969fbd", "is_reserved": 0}, {"is_disabled": 0, "fusion_lon": 0.0, "fusion_lat": 0.0, "lat": 38.923682166666666, "type": "electric_scooter", "lon": -77.0280925, "bike_id": "b24115762beddcf679886522756abb53", "rental_uris": {"android": "https://dc.lft.to/lastmile_qr_scan", "ios": "https://dc.lft.to/lastmile_qr_scan"}, "name": "b24115762beddcf679886522756abb53", "is_reserved": 0}, {"is_disabled": 0, "fusion_lon": 0.0, "fusion_lat": 0.0, "lat": 39.088451166666665, "type": "electric_bike", "lon": -77.178057, "bike_id": "4c3d8be70556bf4385bedbb5e48357ba", "rental_uris": {"android": "https://dc.lft.to/lastmile_qr_scan", "ios": "https://dc.lft.to/lastmile_qr_scan"}, "name": "4c3d8be70556bf4385bedbb5e48357ba", "is_reserved": 0}, {"is_disabled": 0, "fusion_lon": 0.0, "fusion_lat": 0.0, "lat": 38.923868166666665, "type": "electric_scooter", "lon": -77.03137016666666, "bike_id": "5c12090c8909e012deac4965bbcd3b43", "rental_uris": {"android": "https://dc.lft.to/lastmile_qr_scan", "ios": "https://dc.lft.to/lastmile_qr_scan"}, "name": "5c12090c8909e012deac4965bbcd3b43", "is_reserved": 0}, {"is_disabled": 0, "fusion_lon": 0.0, "fusion_lat": 0.0, "lat": 38.916953, "type": "electric_scooter", "lon": -77.03122466666666, "bike_id": "b415beae48e8c20d38a7dce9be9a665a", "rental_uris": {"android": "https://dc.lft.to/lastmile_qr_scan", "ios": "https://dc.lft.to/lastmile_qr_scan"}, "name": "b415beae48e8c20d38a7dce9be9a665a", "is_reserved": 0}, {"is_disabled": 0, "fusion_lon": 0.0, "fusion_lat": 0.0, "lat": 38.884212, "type": "electric_scooter", "lon": -76.95415416666667, "bike_id": "3eb0f2148ba25fb352b6835463930cf2", "rental_uris": {"android": "https://dc.lft.to/lastmile_qr_scan", "ios": "https://dc.lft.to/lastmile_qr_scan"}, "name": "3eb0f2148ba25fb352b6835463930cf2", "is_reserved": 0}, {"is_disabled": 0, "fusion_lon": 0.0, "fusion_lat": 0.0, "lat": 38.8920795, "type": "electric_scooter", "lon": -76.98809666666666, "bike_id": "ccb8020d2a85a8a4f2a07e82aab67cff", "rental_uris": {"android": "https://dc.lft.to/lastmile_qr_scan", "ios": "https://dc.lft.to/lastmile_qr_scan"}, "name": "ccb8020d2a85a8a4f2a07e82aab67cff", "is_reserved": 0}, {"is_disabled": 0, "fusion_lon": 0.0, "fusion_lat": 0.0, "lat": 38.908673666666665, "type": "electric_scooter", "lon": -77.03556066666667, "bike_id": "0a94babab9f6c7bc0316c9896a5cecf4", "rental_uris": {"android": "https://dc.lft.to/lastmile_qr_scan", "ios": "https://dc.lft.to/lastmile_qr_scan"}, "name": "0a94babab9f6c7bc0316c9896a5cecf4", "is_reserved": 0}, {"is_disabled": 0, "fusion_lon": 0.0, "fusion_lat": 0.0, "lat": 38.920055833333336, "type": "electric_scooter", "lon": -76.9849455, "bike_id": "2722f81a4d5728eb0ba50cb7ca2c4fa9", "rental_uris": {"android": "https://dc.lft.to/lastmile_qr_scan", "ios": "https://dc.lft.to/lastmile_qr_scan"}, "name": "2722f81a4d5728eb0ba50cb7ca2c4fa9", "is_reserved": 0}, {"is_disabled": 0, "fusion_lon": 0.0, "fusion_lat": 0.0, "lat": 38.852085333333335, "type": "electric_bike", "lon": -77.10133666666667, "bike_id": "70551382e12e60ad4bca5de9c63c5414", "rental_uris": {"android": "https://dc.lft.to/lastmile_qr_scan", "ios": "https://dc.lft.to/lastmile_qr_scan"}, "name": "70551382e12e60ad4bca5de9c63c5414", "is_reserved": 0}, {"is_disabled": 0, "fusion_lon": 0.0, "fusion_lat": 0.0, "lat": 38.87622316666667, "type": "electric_scooter", "lon": -76.96542566666666, "bike_id": "b3917cd41ee2ea1362457778ea9fdeaa", "rental_uris": {"android": "https://dc.lft.to/lastmile_qr_scan", "ios": "https://dc.lft.to/lastmile_qr_scan"}, "name": "b3917cd41ee2ea1362457778ea9fdeaa", "is_reserved": 0}, {"is_disabled": 0, "fusion_lon": 0.0, "fusion_lat": 0.0, "lat": 38.917157833333334, "type": "electric_scooter", "lon": -77.029899, "bike_id": "45bbfc24e47096ee91e57ce0db1d6e6e", "rental_uris": {"android": "https://dc.lft.to/lastmile_qr_scan", "ios": "https://dc.lft.to/lastmile_qr_scan"}, "name": "45bbfc24e47096ee91e57ce0db1d6e6e", "is_reserved": 0}, {"is_disabled": 0, "fusion_lon": 0.0, "fusion_lat": 0.0, "lat": 38.919127, "type": "electric_scooter", "lon": -77.04809816666666, "bike_id": "36cbc4a40908624c3579bf4da29ed907", "rental_uris": {"android": "https://dc.lft.to/lastmile_qr_scan", "ios": "https://dc.lft.to/lastmile_qr_scan"}, "name": "36cbc4a40908624c3579bf4da29ed907", "is_reserved": 0}, {"is_disabled": 0, "fusion_lon": 0.0, "fusion_lat": 0.0, "lat": 38.917075, "type": "electric_scooter", "lon": -77.0345785, "bike_id": "036eb01bdd60e82e3744a33d024e374f", "rental_uris": {"android": "https://dc.lft.to/lastmile_qr_scan", "ios": "https://dc.lft.to/lastmile_qr_scan"}, "name": "036eb01bdd60e82e3744a33d024e374f", "is_reserved": 0}, {"is_disabled": 0, "fusion_lon": 0.0, "fusion_lat": 0.0, "lat": 38.89736516666667, "type": "electric_scooter", "lon": -77.04687616666666, "bike_id": "5844c002223b2cb8197fb1216750ad34", "rental_uris": {"android": "https://dc.lft.to/lastmile_qr_scan", "ios": "https://dc.lft.to/lastmile_qr_scan"}, "name": "5844c002223b2cb8197fb1216750ad34", "is_reserved": 0}, {"is_disabled": 0, "fusion_lon": 0.0, "fusion_lat": 0.0, "lat": 38.831215, "type": "electric_bike", "lon": -77.04329283333334, "bike_id": "d0adb4ed5c32b7c71ea8236449ac2205", "rental_uris": {"android": "https://dc.lft.to/lastmile_qr_scan", "ios": "https://dc.lft.to/lastmile_qr_scan"}, "name": "d0adb4ed5c32b7c71ea8236449ac2205", "is_reserved": 0}, {"is_disabled": 0, "fusion_lon": 0.0, "fusion_lat": 0.0, "lat": 38.911190166666664, "type": "electric_scooter", "lon": -77.04405466666667, "bike_id": "909d6b0d72ecd2bc1444048069c4964a", "rental_uris": {"android": "https://dc.lft.to/lastmile_qr_scan", "ios": "https://dc.lft.to/lastmile_qr_scan"}, "name": "909d6b0d72ecd2bc1444048069c4964a", "is_reserved": 0}, {"is_disabled": 0, "fusion_lon": 0.0, "fusion_lat": 0.0, "lat": 38.918175833333336, "type": "electric_scooter", "lon": -77.01214466666667, "bike_id": "dd07dfb7e56da7887930c36cc3c32a36", "rental_uris": {"android": "https://dc.lft.to/lastmile_qr_scan", "ios": "https://dc.lft.to/lastmile_qr_scan"}, "name": "dd07dfb7e56da7887930c36cc3c32a36", "is_reserved": 0}, {"is_disabled": 0, "fusion_lon": 0.0, "fusion_lat": 0.0, "lat": 38.948934333333334, "type": "electric_bike", "lon": -76.96375, "bike_id": "f9fb5e24337c825cf6943e6eba2f492c", "rental_uris": {"android": "https://dc.lft.to/lastmile_qr_scan", "ios": "https://dc.lft.to/lastmile_qr_scan"}, "name": "f9fb5e24337c825cf6943e6eba2f492c", "is_reserved": 0}, {"is_disabled": 0, "fusion_lon": 0.0, "fusion_lat": 0.0, "lat": 38.939271833333336, "type": "electric_bike", "lon": -76.99516333333334, "bike_id": "0ccea22e2fe47123eec7acfcfa9645c8", "rental_uris": {"android": "https://dc.lft.to/lastmile_qr_scan", "ios": "https://dc.lft.to/lastmile_qr_scan"}, "name": "0ccea22e2fe47123eec7acfcfa9645c8", "is_reserved": 0}, {"is_disabled": 0, "fusion_lon": 0.0, "fusion_lat": 0.0, "lat": 38.932308666666664, "type": "electric_scooter", "lon": -76.99936583333333, "bike_id": "658a27473ba02fde7c7651d77ac298d7", "rental_uris": {"android": "https://dc.lft.to/lastmile_qr_scan", "ios": "https://dc.lft.to/lastmile_qr_scan"}, "name": "658a27473ba02fde7c7651d77ac298d7", "is_reserved": 0}, {"is_disabled": 0, "fusion_lon": 0.0, "fusion_lat": 0.0, "lat": 38.89966966666667, "type": "electric_scooter", "lon": -77.01601766666667, "bike_id": "e5e04ae69a2484588017603c514b3f4e", "rental_uris": {"android": "https://dc.lft.to/lastmile_qr_scan", "ios": "https://dc.lft.to/lastmile_qr_scan"}, "name": "e5e04ae69a2484588017603c514b3f4e", "is_reserved": 0}, {"is_disabled": 0, "fusion_lon": 0.0, "fusion_lat": 0.0, "lat": 38.91821566666667, "type": "electric_scooter", "lon": -77.045286, "bike_id": "530493acf582d535ee9977ed37efd3bd", "rental_uris": {"android": "https://dc.lft.to/lastmile_qr_scan", "ios": "https://dc.lft.to/lastmile_qr_scan"}, "name": "530493acf582d535ee9977ed37efd3bd", "is_reserved": 0}, {"is_disabled": 0, "fusion_lon": 0.0, "fusion_lat": 0.0, "lat": 38.8883515, "type": "electric_scooter", "lon": -76.91779633333333, "bike_id": "d23e0c04d061ca21a93e2d6912eb1ca8", "rental_uris": {"android": "https://dc.lft.to/lastmile_qr_scan", "ios": "https://dc.lft.to/lastmile_qr_scan"}, "name": "d23e0c04d061ca21a93e2d6912eb1ca8", "is_reserved": 0}, {"is_disabled": 0, "fusion_lon": 0.0, "fusion_lat": 0.0, "lat": 38.905985333333334, "type": "electric_scooter", "lon": -77.04671116666667, "bike_id": "537ca9af547a0fa0dcf503982dc93e70", "rental_uris": {"android": "https://dc.lft.to/lastmile_qr_scan", "ios": "https://dc.lft.to/lastmile_qr_scan"}, "name": "537ca9af547a0fa0dcf503982dc93e70", "is_reserved": 0}, {"is_disabled": 0, "fusion_lon": 0.0, "fusion_lat": 0.0, "lat": 38.93669083333333, "type": "electric_scooter", "lon": -77.0364065, "bike_id": "f6082671cecb49c33c7cabeba65b1fab", "rental_uris": {"android": "https://dc.lft.to/lastmile_qr_scan", "ios": "https://dc.lft.to/lastmile_qr_scan"}, "name": "f6082671cecb49c33c7cabeba65b1fab", "is_reserved": 0}, {"is_disabled": 0, "fusion_lon": 0.0, "fusion_lat": 0.0, "lat": 38.903581333333335, "type": "electric_scooter", "lon": -77.03192566666667, "bike_id": "39fa84fe1195785d000f9456ff16abd0", "rental_uris": {"android": "https://dc.lft.to/lastmile_qr_scan", "ios": "https://dc.lft.to/lastmile_qr_scan"}, "name": "39fa84fe1195785d000f9456ff16abd0", "is_reserved": 0}, {"is_disabled": 0, "fusion_lon": 0.0, "fusion_lat": 0.0, "lat": 38.90514016666667, "type": "electric_scooter", "lon": -77.02556533333333, "bike_id": "32cdb2fb8fa1e2b8ddeef4cce15870d7", "rental_uris": {"android": "https://dc.lft.to/lastmile_qr_scan", "ios": "https://dc.lft.to/lastmile_qr_scan"}, "name": "32cdb2fb8fa1e2b8ddeef4cce15870d7", "is_reserved": 0}, {"is_disabled": 0, "fusion_lon": 0.0, "fusion_lat": 0.0, "lat": 38.90479533333333, "type": "electric_scooter", "lon": -76.973258, "bike_id": "78a80cfec8a6b3cfa608d0eae3b2abca", "rental_uris": {"android": "https://dc.lft.to/lastmile_qr_scan", "ios": "https://dc.lft.to/lastmile_qr_scan"}, "name": "78a80cfec8a6b3cfa608d0eae3b2abca", "is_reserved": 0}, {"is_disabled": 0, "fusion_lon": 0.0, "fusion_lat": 0.0, "lat": 38.91808966666667, "type": "electric_scooter", "lon": -77.0322035, "bike_id": "8d39503bf0ab2ca879780a688f4757cf", "rental_uris": {"android": "https://dc.lft.to/lastmile_qr_scan", "ios": "https://dc.lft.to/lastmile_qr_scan"}, "name": "8d39503bf0ab2ca879780a688f4757cf", "is_reserved": 0}, {"is_disabled": 0, "fusion_lon": 0.0, "fusion_lat": 0.0, "lat": 38.9156395, "type": "electric_scooter", "lon": -77.01028083333334, "bike_id": "ed3aa85276be60db8f9feda4b984978a", "rental_uris": {"android": "https://dc.lft.to/lastmile_qr_scan", "ios": "https://dc.lft.to/lastmile_qr_scan"}, "name": "ed3aa85276be60db8f9feda4b984978a", "is_reserved": 0}, {"is_disabled": 0, "fusion_lon": 0.0, "fusion_lat": 0.0, "lat": 38.91700383333333, "type": "electric_scooter", "lon": -77.0011725, "bike_id": "06345a5865dac47fd431ceb2a6b5f562", "rental_uris": {"android": "https://dc.lft.to/lastmile_qr_scan", "ios": "https://dc.lft.to/lastmile_qr_scan"}, "name": "06345a5865dac47fd431ceb2a6b5f562", "is_reserved": 0}, {"is_disabled": 0, "fusion_lon": 0.0, "fusion_lat": 0.0, "lat": 38.909214666666664, "type": "electric_scooter", "lon": -77.023118, "bike_id": "a9bfceb66ba9e44a0f7a627efb36b19d", "rental_uris": {"android": "https://dc.lft.to/lastmile_qr_scan", "ios": "https://dc.lft.to/lastmile_qr_scan"}, "name": "a9bfceb66ba9e44a0f7a627efb36b19d", "is_reserved": 0}, {"is_disabled": 0, "fusion_lon": 0.0, "fusion_lat": 0.0, "lat": 38.917988333333334, "type": "electric_scooter", "lon": -77.02398833333334, "bike_id": "930f4397505859933688e76eb9fd9b19", "rental_uris": {"android": "https://dc.lft.to/lastmile_qr_scan", "ios": "https://dc.lft.to/lastmile_qr_scan"}, "name": "930f4397505859933688e76eb9fd9b19", "is_reserved": 0}, {"is_disabled": 0, "fusion_lon": 0.0, "fusion_lat": 0.0, "lat": 38.98500816666667, "type": "electric_bike", "lon": -76.98206983333333, "bike_id": "f8a7f7c563b8bd5351b434d254c54da8", "rental_uris": {"android": "https://dc.lft.to/lastmile_qr_scan", "ios": "https://dc.lft.to/lastmile_qr_scan"}, "name": "f8a7f7c563b8bd5351b434d254c54da8", "is_reserved": 0}, {"is_disabled": 0, "fusion_lon": 0.0, "fusion_lat": 0.0, "lat": 38.97675566666667, "type": "electric_bike", "lon": -76.97167783333333, "bike_id": "80d34c326be60dc7c835244e02ca1e41", "rental_uris": {"android": "https://dc.lft.to/lastmile_qr_scan", "ios": "https://dc.lft.to/lastmile_qr_scan"}, "name": "80d34c326be60dc7c835244e02ca1e41", "is_reserved": 0}, {"is_disabled": 0, "fusion_lon": 0.0, "fusion_lat": 0.0, "lat": 38.8923255, "type": "electric_bike", "lon": -76.95221866666667, "bike_id": "5cdd5bdbfc27c2f14a26df0c3496a08f", "rental_uris": {"android": "https://dc.lft.to/lastmile_qr_scan", "ios": "https://dc.lft.to/lastmile_qr_scan"}, "name": "5cdd5bdbfc27c2f14a26df0c3496a08f", "is_reserved": 0}, {"is_disabled": 0, "fusion_lon": 0.0, "fusion_lat": 0.0, "lat": 38.9085425, "type": "electric_scooter", "lon": -77.07159266666666, "bike_id": "b6c91efbfd296452e509651e88f4230e", "rental_uris": {"android": "https://dc.lft.to/lastmile_qr_scan", "ios": "https://dc.lft.to/lastmile_qr_scan"}, "name": "b6c91efbfd296452e509651e88f4230e", "is_reserved": 0}, {"is_disabled": 0, "fusion_lon": 0.0, "fusion_lat": 0.0, "lat": 38.9179405, "type": "electric_scooter", "lon": -77.04009516666666, "bike_id": "1e4b845528fd15ab9350b7d6f0e7da1a", "rental_uris": {"android": "https://dc.lft.to/lastmile_qr_scan", "ios": "https://dc.lft.to/lastmile_qr_scan"}, "name": "1e4b845528fd15ab9350b7d6f0e7da1a", "is_reserved": 0}, {"is_disabled": 0, "fusion_lon": 0.0, "fusion_lat": 0.0, "lat": 38.9259175, "type": "electric_bike", "lon": -76.8890725, "bike_id": "53465a1ff2fb5ed91100ff71d16b18c2", "rental_uris": {"android": "https://dc.lft.to/lastmile_qr_scan", "ios": "https://dc.lft.to/lastmile_qr_scan"}, "name": "53465a1ff2fb5ed91100ff71d16b18c2", "is_reserved": 0}, {"is_disabled": 0, "fusion_lon": 0.0, "fusion_lat": 0.0, "lat": 38.872824, "type": "electric_scooter", "lon": -76.977296, "bike_id": "b45a47472302cec1befac48f12b9d810", "rental_uris": {"android": "https://dc.lft.to/lastmile_qr_scan", "ios": "https://dc.lft.to/lastmile_qr_scan"}, "name": "b45a47472302cec1befac48f12b9d810", "is_reserved": 0}, {"is_disabled": 0, "fusion_lon": 0.0, "fusion_lat": 0.0, "lat": 38.95414133333333, "type": "electric_scooter", "lon": -77.028462, "bike_id": "1440dac8f5c4cc79d3e3d992348d7e49", "rental_uris": {"android": "https://dc.lft.to/lastmile_qr_scan", "ios": "https://dc.lft.to/lastmile_qr_scan"}, "name": "1440dac8f5c4cc79d3e3d992348d7e49", "is_reserved": 0}, {"is_disabled": 0, "fusion_lon": 0.0, "fusion_lat": 0.0, "lat": 38.8950935, "type": "electric_bike", "lon": -76.94945316666667, "bike_id": "518bf8bfc9cd7a4433a564ed89224dc8", "rental_uris": {"android": "https://dc.lft.to/lastmile_qr_scan", "ios": "https://dc.lft.to/lastmile_qr_scan"}, "name": "518bf8bfc9cd7a4433a564ed89224dc8", "is_reserved": 0}, {"is_disabled": 0, "fusion_lon": 0.0, "fusion_lat": 0.0, "lat": 38.932309000000004, "type": "electric_scooter", "lon": -77.02031216666667, "bike_id": "54a5b09527dfc49ecb81fe5bd81e1452", "rental_uris": {"android": "https://dc.lft.to/lastmile_qr_scan", "ios": "https://dc.lft.to/lastmile_qr_scan"}, "name": "54a5b09527dfc49ecb81fe5bd81e1452", "is_reserved": 0}, {"is_disabled": 0, "fusion_lon": 0.0, "fusion_lat": 0.0, "lat": 38.8858115, "type": "electric_scooter", "lon": -77.03110333333333, "bike_id": "eb0dbacaa4db381f2a95627589a5681f", "rental_uris": {"android": "https://dc.lft.to/lastmile_qr_scan", "ios": "https://dc.lft.to/lastmile_qr_scan"}, "name": "eb0dbacaa4db381f2a95627589a5681f", "is_reserved": 0}, {"is_disabled": 0, "fusion_lon": 0.0, "fusion_lat": 0.0, "lat": 38.898445833333334, "type": "electric_scooter", "lon": -77.0395405, "bike_id": "0f998b191d32d820632639c774e601b5", "rental_uris": {"android": "https://dc.lft.to/lastmile_qr_scan", "ios": "https://dc.lft.to/lastmile_qr_scan"}, "name": "0f998b191d32d820632639c774e601b5", "is_reserved": 0}, {"is_disabled": 0, "fusion_lon": 0.0, "fusion_lat": 0.0, "lat": 38.863366, "type": "electric_bike", "lon": -76.98721616666667, "bike_id": "563d67c94267914630be13437ed41c28", "rental_uris": {"android": "https://dc.lft.to/lastmile_qr_scan", "ios": "https://dc.lft.to/lastmile_qr_scan"}, "name": "563d67c94267914630be13437ed41c28", "is_reserved": 0}, {"is_disabled": 0, "fusion_lon": 0.0, "fusion_lat": 0.0, "lat": 38.91955633333333, "type": "electric_scooter", "lon": -77.00073083333334, "bike_id": "d55a7e206c0967251d09d72ee549b76e", "rental_uris": {"android": "https://dc.lft.to/lastmile_qr_scan", "ios": "https://dc.lft.to/lastmile_qr_scan"}, "name": "d55a7e206c0967251d09d72ee549b76e", "is_reserved": 0}, {"is_disabled": 0, "fusion_lon": 0.0, "fusion_lat": 0.0, "lat": 38.900584, "type": "electric_scooter", "lon": -76.93471483333333, "bike_id": "31758b60d0f506b4cf7c7fb1cac95c79", "rental_uris": {"android": "https://dc.lft.to/lastmile_qr_scan", "ios": "https://dc.lft.to/lastmile_qr_scan"}, "name": "31758b60d0f506b4cf7c7fb1cac95c79", "is_reserved": 0}, {"is_disabled": 0, "fusion_lon": 0.0, "fusion_lat": 0.0, "lat": 38.90685166666667, "type": "electric_bike", "lon": -76.95193816666666, "bike_id": "1b7c3a56f6b541cd4cf69119a57f9096", "rental_uris": {"android": "https://dc.lft.to/lastmile_qr_scan", "ios": "https://dc.lft.to/lastmile_qr_scan"}, "name": "1b7c3a56f6b541cd4cf69119a57f9096", "is_reserved": 0}, {"is_disabled": 0, "fusion_lon": 0.0, "fusion_lat": 0.0, "lat": 38.907371166666664, "type": "electric_scooter", "lon": -77.029675, "bike_id": "574664d45bff4fca2737f93b2bf376fb", "rental_uris": {"android": "https://dc.lft.to/lastmile_qr_scan", "ios": "https://dc.lft.to/lastmile_qr_scan"}, "name": "574664d45bff4fca2737f93b2bf376fb", "is_reserved": 0}, {"is_disabled": 0, "fusion_lon": 0.0, "fusion_lat": 0.0, "lat": 38.9302945, "type": "electric_scooter", "lon": -77.019505, "bike_id": "9768859c283af31db90578076885ebf7", "rental_uris": {"android": "https://dc.lft.to/lastmile_qr_scan", "ios": "https://dc.lft.to/lastmile_qr_scan"}, "name": "9768859c283af31db90578076885ebf7", "is_reserved": 0}, {"is_disabled": 0, "fusion_lon": 0.0, "fusion_lat": 0.0, "lat": 38.9195385, "type": "electric_scooter", "lon": -77.01655233333334, "bike_id": "ca94dfb822f76a6269e999304c6c2075", "rental_uris": {"android": "https://dc.lft.to/lastmile_qr_scan", "ios": "https://dc.lft.to/lastmile_qr_scan"}, "name": "ca94dfb822f76a6269e999304c6c2075", "is_reserved": 0}, {"is_disabled": 0, "fusion_lon": 0.0, "fusion_lat": 0.0, "lat": 38.909744833333335, "type": "electric_scooter", "lon": -77.03866783333334, "bike_id": "bcbc4b0abbc07839751e0ca8970fc507", "rental_uris": {"android": "https://dc.lft.to/lastmile_qr_scan", "ios": "https://dc.lft.to/lastmile_qr_scan"}, "name": "bcbc4b0abbc07839751e0ca8970fc507", "is_reserved": 0}, {"is_disabled": 0, "fusion_lon": 0.0, "fusion_lat": 0.0, "lat": 38.919343833333336, "type": "electric_bike", "lon": -76.9750415, "bike_id": "153eb3bd972e462d7401c20231fd3188", "rental_uris": {"android": "https://dc.lft.to/lastmile_qr_scan", "ios": "https://dc.lft.to/lastmile_qr_scan"}, "name": "153eb3bd972e462d7401c20231fd3188", "is_reserved": 0}, {"is_disabled": 0, "fusion_lon": 0.0, "fusion_lat": 0.0, "lat": 38.923357333333335, "type": "electric_scooter", "lon": -77.0418705, "bike_id": "3c0a51e3c26934d34937dd03121090fe", "rental_uris": {"android": "https://dc.lft.to/lastmile_qr_scan", "ios": "https://dc.lft.to/lastmile_qr_scan"}, "name": "3c0a51e3c26934d34937dd03121090fe", "is_reserved": 0}, {"is_disabled": 0, "fusion_lon": 0.0, "fusion_lat": 0.0, "lat": 38.8695715, "type": "electric_scooter", "lon": -76.96031416666666, "bike_id": "bc575d1c9b45237de3427b89616cbf91", "rental_uris": {"android": "https://dc.lft.to/lastmile_qr_scan", "ios": "https://dc.lft.to/lastmile_qr_scan"}, "name": "bc575d1c9b45237de3427b89616cbf91", "is_reserved": 0}, {"is_disabled": 0, "fusion_lon": 0.0, "fusion_lat": 0.0, "lat": 38.900144833333336, "type": "electric_scooter", "lon": -77.03340366666667, "bike_id": "eb9e85f27f693a6a0b213e8a93beb39a", "rental_uris": {"android": "https://dc.lft.to/lastmile_qr_scan", "ios": "https://dc.lft.to/lastmile_qr_scan"}, "name": "eb9e85f27f693a6a0b213e8a93beb39a", "is_reserved": 0}, {"is_disabled": 0, "fusion_lon": 0.0, "fusion_lat": 0.0, "lat": 38.909574166666665, "type": "electric_scooter", "lon": -77.02378766666666, "bike_id": "ece5e150f0b58e8228e3ec29e43582a6", "rental_uris": {"android": "https://dc.lft.to/lastmile_qr_scan", "ios": "https://dc.lft.to/lastmile_qr_scan"}, "name": "ece5e150f0b58e8228e3ec29e43582a6", "is_reserved": 0}, {"is_disabled": 0, "fusion_lon": 0.0, "fusion_lat": 0.0, "lat": 38.905316666666664, "type": "electric_scooter", "lon": -77.0652595, "bike_id": "84c5137c33e7e9823b4fca08493e6f65", "rental_uris": {"android": "https://dc.lft.to/lastmile_qr_scan", "ios": "https://dc.lft.to/lastmile_qr_scan"}, "name": "84c5137c33e7e9823b4fca08493e6f65", "is_reserved": 0}, {"is_disabled": 0, "fusion_lon": 0.0, "fusion_lat": 0.0, "lat": 38.91900783333333, "type": "electric_scooter", "lon": -77.07116016666667, "bike_id": "a6f026a00738a272b6068eadfc74633d", "rental_uris": {"android": "https://dc.lft.to/lastmile_qr_scan", "ios": "https://dc.lft.to/lastmile_qr_scan"}, "name": "a6f026a00738a272b6068eadfc74633d", "is_reserved": 0}, {"is_disabled": 0, "fusion_lon": 0.0, "fusion_lat": 0.0, "lat": 38.81024983333333, "type": "electric_bike", "lon": -77.08435066666667, "bike_id": "fe15eda980c24ac47212de92f0949e17", "rental_uris": {"android": "https://dc.lft.to/lastmile_qr_scan", "ios": "https://dc.lft.to/lastmile_qr_scan"}, "name": "fe15eda980c24ac47212de92f0949e17", "is_reserved": 0}, {"is_disabled": 0, "fusion_lon": 0.0, "fusion_lat": 0.0, "lat": 38.94303566666667, "type": "electric_scooter", "lon": -77.02762516666667, "bike_id": "4f41a087d8bec1cc1ea726bb13fda3a1", "rental_uris": {"android": "https://dc.lft.to/lastmile_qr_scan", "ios": "https://dc.lft.to/lastmile_qr_scan"}, "name": "4f41a087d8bec1cc1ea726bb13fda3a1", "is_reserved": 0}, {"is_disabled": 0, "fusion_lon": 0.0, "fusion_lat": 0.0, "lat": 38.92583883333333, "type": "electric_scooter", "lon": -77.03210683333333, "bike_id": "1cf4646b436926193e421f8f0c80e58e", "rental_uris": {"android": "https://dc.lft.to/lastmile_qr_scan", "ios": "https://dc.lft.to/lastmile_qr_scan"}, "name": "1cf4646b436926193e421f8f0c80e58e", "is_reserved": 0}, {"is_disabled": 0, "fusion_lon": 0.0, "fusion_lat": 0.0, "lat": 38.894091833333334, "type": "electric_scooter", "lon": -77.01085633333334, "bike_id": "144286eb5f4fe20c4e5444801cb3ac08", "rental_uris": {"android": "https://dc.lft.to/lastmile_qr_scan", "ios": "https://dc.lft.to/lastmile_qr_scan"}, "name": "144286eb5f4fe20c4e5444801cb3ac08", "is_reserved": 0}, {"is_disabled": 0, "fusion_lon": 0.0, "fusion_lat": 0.0, "lat": 38.920702, "type": "electric_scooter", "lon": -77.0437845, "bike_id": "c5750f6cf39994c8320322d380ca45e3", "rental_uris": {"android": "https://dc.lft.to/lastmile_qr_scan", "ios": "https://dc.lft.to/lastmile_qr_scan"}, "name": "c5750f6cf39994c8320322d380ca45e3", "is_reserved": 0}, {"is_disabled": 0, "fusion_lon": 0.0, "fusion_lat": 0.0, "lat": 38.8948695, "type": "electric_bike", "lon": -76.99527583333334, "bike_id": "4b15a2dadd84448034751cafff8146a3", "rental_uris": {"android": "https://dc.lft.to/lastmile_qr_scan", "ios": "https://dc.lft.to/lastmile_qr_scan"}, "name": "4b15a2dadd84448034751cafff8146a3", "is_reserved": 0}, {"is_disabled": 0, "fusion_lon": 0.0, "fusion_lat": 0.0, "lat": 38.937852166666666, "type": "electric_scooter", "lon": -77.01877416666666, "bike_id": "6621974a6af5bf0882276534f8069765", "rental_uris": {"android": "https://dc.lft.to/lastmile_qr_scan", "ios": "https://dc.lft.to/lastmile_qr_scan"}, "name": "6621974a6af5bf0882276534f8069765", "is_reserved": 0}, {"is_disabled": 0, "fusion_lon": 0.0, "fusion_lat": 0.0, "lat": 38.961146166666666, "type": "electric_scooter", "lon": -77.0852535, "bike_id": "b9d1ee00af76b483312580662b4b0337", "rental_uris": {"android": "https://dc.lft.to/lastmile_qr_scan", "ios": "https://dc.lft.to/lastmile_qr_scan"}, "name": "b9d1ee00af76b483312580662b4b0337", "is_reserved": 0}, {"is_disabled": 0, "fusion_lon": 0.0, "fusion_lat": 0.0, "lat": 38.9221065, "type": "electric_scooter", "lon": -77.032915, "bike_id": "88ad693be30773f16549c6c8d61e3be0", "rental_uris": {"android": "https://dc.lft.to/lastmile_qr_scan", "ios": "https://dc.lft.to/lastmile_qr_scan"}, "name": "88ad693be30773f16549c6c8d61e3be0", "is_reserved": 0}, {"is_disabled": 0, "fusion_lon": 0.0, "fusion_lat": 0.0, "lat": 38.88751116666667, "type": "electric_scooter", "lon": -77.01537166666667, "bike_id": "015f597b9ad48541dea6e0a393edf6a5", "rental_uris": {"android": "https://dc.lft.to/lastmile_qr_scan", "ios": "https://dc.lft.to/lastmile_qr_scan"}, "name": "015f597b9ad48541dea6e0a393edf6a5", "is_reserved": 0}, {"is_disabled": 0, "fusion_lon": 0.0, "fusion_lat": 0.0, "lat": 38.9162285, "type": "electric_scooter", "lon": -77.04869516666666, "bike_id": "a66b45291f955e5bc0df2cd68c2ca5fb", "rental_uris": {"android": "https://dc.lft.to/lastmile_qr_scan", "ios": "https://dc.lft.to/lastmile_qr_scan"}, "name": "a66b45291f955e5bc0df2cd68c2ca5fb", "is_reserved": 0}, {"is_disabled": 0, "fusion_lon": 0.0, "fusion_lat": 0.0, "lat": 38.895657, "type": "electric_bike", "lon": -77.12742316666667, "bike_id": "2d871acc7fde2d9222f2129f83713da3", "rental_uris": {"android": "https://dc.lft.to/lastmile_qr_scan", "ios": "https://dc.lft.to/lastmile_qr_scan"}, "name": "2d871acc7fde2d9222f2129f83713da3", "is_reserved": 0}, {"is_disabled": 0, "fusion_lon": 0.0, "fusion_lat": 0.0, "lat": 38.905582333333335, "type": "electric_scooter", "lon": -77.03472566666667, "bike_id": "4cdc9400198c52efa86f7865b2b25b79", "rental_uris": {"android": "https://dc.lft.to/lastmile_qr_scan", "ios": "https://dc.lft.to/lastmile_qr_scan"}, "name": "4cdc9400198c52efa86f7865b2b25b79", "is_reserved": 0}, {"is_disabled": 0, "fusion_lon": 0.0, "fusion_lat": 0.0, "lat": 38.922477666666666, "type": "electric_scooter", "lon": -77.04146833333333, "bike_id": "c48fe6c2ae638c46e19b6efdcad71ca8", "rental_uris": {"android": "https://dc.lft.to/lastmile_qr_scan", "ios": "https://dc.lft.to/lastmile_qr_scan"}, "name": "c48fe6c2ae638c46e19b6efdcad71ca8", "is_reserved": 0}, {"is_disabled": 0, "fusion_lon": 0.0, "fusion_lat": 0.0, "lat": 38.92574466666667, "type": "electric_scooter", "lon": -76.99498283333334, "bike_id": "361dbd3c906491f85c6a72abc2341457", "rental_uris": {"android": "https://dc.lft.to/lastmile_qr_scan", "ios": "https://dc.lft.to/lastmile_qr_scan"}, "name": "361dbd3c906491f85c6a72abc2341457", "is_reserved": 0}, {"is_disabled": 0, "fusion_lon": 0.0, "fusion_lat": 0.0, "lat": 38.924089, "type": "electric_scooter", "lon": -77.05170766666667, "bike_id": "f08b194a0587ad4a89819cf25c805715", "rental_uris": {"android": "https://dc.lft.to/lastmile_qr_scan", "ios": "https://dc.lft.to/lastmile_qr_scan"}, "name": "f08b194a0587ad4a89819cf25c805715", "is_reserved": 0}, {"is_disabled": 0, "fusion_lon": 0.0, "fusion_lat": 0.0, "lat": 38.905735166666666, "type": "electric_scooter", "lon": -77.02414016666667, "bike_id": "557290451d03353e42aa329de0800364", "rental_uris": {"android": "https://dc.lft.to/lastmile_qr_scan", "ios": "https://dc.lft.to/lastmile_qr_scan"}, "name": "557290451d03353e42aa329de0800364", "is_reserved": 0}, {"is_disabled": 0, "fusion_lon": 0.0, "fusion_lat": 0.0, "lat": 38.93529516666667, "type": "electric_scooter", "lon": -77.02070566666667, "bike_id": "28fa945c54503c358935907d63b8aeba", "rental_uris": {"android": "https://dc.lft.to/lastmile_qr_scan", "ios": "https://dc.lft.to/lastmile_qr_scan"}, "name": "28fa945c54503c358935907d63b8aeba", "is_reserved": 0}, {"is_disabled": 0, "fusion_lon": 0.0, "fusion_lat": 0.0, "lat": 38.919072666666665, "type": "electric_scooter", "lon": -77.02386283333334, "bike_id": "5374cf8a9d78fe0178086fe5b74a791f", "rental_uris": {"android": "https://dc.lft.to/lastmile_qr_scan", "ios": "https://dc.lft.to/lastmile_qr_scan"}, "name": "5374cf8a9d78fe0178086fe5b74a791f", "is_reserved": 0}, {"is_disabled": 0, "fusion_lon": 0.0, "fusion_lat": 0.0, "lat": 38.999971333333335, "type": "electric_bike", "lon": -76.91807566666667, "bike_id": "6fe042cbaee4813013111f55092ecbe7", "rental_uris": {"android": "https://dc.lft.to/lastmile_qr_scan", "ios": "https://dc.lft.to/lastmile_qr_scan"}, "name": "6fe042cbaee4813013111f55092ecbe7", "is_reserved": 0}, {"is_disabled": 0, "fusion_lon": 0.0, "fusion_lat": 0.0, "lat": 38.924581333333336, "type": "electric_scooter", "lon": -76.99904966666666, "bike_id": "56aa29b4210831f22edc38e24c251ea6", "rental_uris": {"android": "https://dc.lft.to/lastmile_qr_scan", "ios": "https://dc.lft.to/lastmile_qr_scan"}, "name": "56aa29b4210831f22edc38e24c251ea6", "is_reserved": 0}, {"is_disabled": 0, "fusion_lon": 0.0, "fusion_lat": 0.0, "lat": 38.91414433333333, "type": "electric_scooter", "lon": -77.04328666666666, "bike_id": "3d6e38afac3a02d5fd8bb355ce6f5711", "rental_uris": {"android": "https://dc.lft.to/lastmile_qr_scan", "ios": "https://dc.lft.to/lastmile_qr_scan"}, "name": "3d6e38afac3a02d5fd8bb355ce6f5711", "is_reserved": 0}, {"is_disabled": 0, "fusion_lon": 0.0, "fusion_lat": 0.0, "lat": 38.94199, "type": "electric_scooter", "lon": -77.0257925, "bike_id": "d4c660fb7aaeda429ef5e3fcca0c555f", "rental_uris": {"android": "https://dc.lft.to/lastmile_qr_scan", "ios": "https://dc.lft.to/lastmile_qr_scan"}, "name": "d4c660fb7aaeda429ef5e3fcca0c555f", "is_reserved": 0}, {"is_disabled": 0, "fusion_lon": 0.0, "fusion_lat": 0.0, "lat": 38.94973733333333, "type": "electric_scooter", "lon": -77.067633, "bike_id": "2d119a4447c020ba7a635de92a46ae80", "rental_uris": {"android": "https://dc.lft.to/lastmile_qr_scan", "ios": "https://dc.lft.to/lastmile_qr_scan"}, "name": "2d119a4447c020ba7a635de92a46ae80", "is_reserved": 0}, {"is_disabled": 0, "fusion_lon": 0.0, "fusion_lat": 0.0, "lat": 38.933176, "type": "electric_scooter", "lon": -77.029318, "bike_id": "80ebab44ed805244495c8b9149e24bcc", "rental_uris": {"android": "https://dc.lft.to/lastmile_qr_scan", "ios": "https://dc.lft.to/lastmile_qr_scan"}, "name": "80ebab44ed805244495c8b9149e24bcc", "is_reserved": 0}, {"is_disabled": 0, "fusion_lon": 0.0, "fusion_lat": 0.0, "lat": 38.968292166666664, "type": "electric_scooter", "lon": -77.01512266666667, "bike_id": "96e81dadd6e4f0312fed0b385fd04c49", "rental_uris": {"android": "https://dc.lft.to/lastmile_qr_scan", "ios": "https://dc.lft.to/lastmile_qr_scan"}, "name": "96e81dadd6e4f0312fed0b385fd04c49", "is_reserved": 0}, {"is_disabled": 0, "fusion_lon": 0.0, "fusion_lat": 0.0, "lat": 38.930926166666666, "type": "electric_scooter", "lon": -77.0255295, "bike_id": "25c099b59ada771951401ce527c22979", "rental_uris": {"android": "https://dc.lft.to/lastmile_qr_scan", "ios": "https://dc.lft.to/lastmile_qr_scan"}, "name": "25c099b59ada771951401ce527c22979", "is_reserved": 0}, {"is_disabled": 0, "fusion_lon": 0.0, "fusion_lat": 0.0, "lat": 38.890479166666665, "type": "electric_scooter", "lon": -77.00143116666666, "bike_id": "3db19dcd529c2e8fcc109a4c105dba06", "rental_uris": {"android": "https://dc.lft.to/lastmile_qr_scan", "ios": "https://dc.lft.to/lastmile_qr_scan"}, "name": "3db19dcd529c2e8fcc109a4c105dba06", "is_reserved": 0}, {"is_disabled": 0, "fusion_lon": 0.0, "fusion_lat": 0.0, "lat": 38.90251, "type": "electric_scooter", "lon": -77.03058816666666, "bike_id": "5743f58e4dbbe26b5e2021bf441bf912", "rental_uris": {"android": "https://dc.lft.to/lastmile_qr_scan", "ios": "https://dc.lft.to/lastmile_qr_scan"}, "name": "5743f58e4dbbe26b5e2021bf441bf912", "is_reserved": 0}, {"is_disabled": 0, "fusion_lon": 0.0, "fusion_lat": 0.0, "lat": 38.916379166666665, "type": "electric_scooter", "lon": -77.03466016666667, "bike_id": "95d3ea30ae7063fab37c4d617ae8f9fe", "rental_uris": {"android": "https://dc.lft.to/lastmile_qr_scan", "ios": "https://dc.lft.to/lastmile_qr_scan"}, "name": "95d3ea30ae7063fab37c4d617ae8f9fe", "is_reserved": 0}, {"is_disabled": 0, "fusion_lon": 0.0, "fusion_lat": 0.0, "lat": 38.904671666666665, "type": "electric_scooter", "lon": -77.037848, "bike_id": "4e29c28fe45a6c07e43ae761e350994d", "rental_uris": {"android": "https://dc.lft.to/lastmile_qr_scan", "ios": "https://dc.lft.to/lastmile_qr_scan"}, "name": "4e29c28fe45a6c07e43ae761e350994d", "is_reserved": 0}, {"is_disabled": 0, "fusion_lon": 0.0, "fusion_lat": 0.0, "lat": 38.86842583333333, "type": "electric_bike", "lon": -77.0973545, "bike_id": "5628acba9f2190a2d1264ff36e6889d5", "rental_uris": {"android": "https://dc.lft.to/lastmile_qr_scan", "ios": "https://dc.lft.to/lastmile_qr_scan"}, "name": "5628acba9f2190a2d1264ff36e6889d5", "is_reserved": 0}, {"is_disabled": 0, "fusion_lon": 0.0, "fusion_lat": 0.0, "lat": 38.88247283333333, "type": "electric_scooter", "lon": -77.00354416666667, "bike_id": "01a2274fe9d90b8f61963cbe5c7433f7", "rental_uris": {"android": "https://dc.lft.to/lastmile_qr_scan", "ios": "https://dc.lft.to/lastmile_qr_scan"}, "name": "01a2274fe9d90b8f61963cbe5c7433f7", "is_reserved": 0}, {"is_disabled": 0, "fusion_lon": 0.0, "fusion_lat": 0.0, "lat": 38.895440666666666, "type": "electric_scooter", "lon": -77.01097816666666, "bike_id": "3369f32f2eab5d34bad2cd87a9157ed4", "rental_uris": {"android": "https://dc.lft.to/lastmile_qr_scan", "ios": "https://dc.lft.to/lastmile_qr_scan"}, "name": "3369f32f2eab5d34bad2cd87a9157ed4", "is_reserved": 0}, {"is_disabled": 0, "fusion_lon": 0.0, "fusion_lat": 0.0, "lat": 38.91852433333333, "type": "electric_bike", "lon": -76.960896, "bike_id": "353662718cde3931958fd00a292ef881", "rental_uris": {"android": "https://dc.lft.to/lastmile_qr_scan", "ios": "https://dc.lft.to/lastmile_qr_scan"}, "name": "353662718cde3931958fd00a292ef881", "is_reserved": 0}, {"is_disabled": 0, "fusion_lon": 0.0, "fusion_lat": 0.0, "lat": 38.833512, "type": "electric_bike", "lon": -76.96559583333334, "bike_id": "7b3bc9ebe76940830b348c2cd9b93f96", "rental_uris": {"android": "https://dc.lft.to/lastmile_qr_scan", "ios": "https://dc.lft.to/lastmile_qr_scan"}, "name": "7b3bc9ebe76940830b348c2cd9b93f96", "is_reserved": 0}, {"is_disabled": 0, "fusion_lon": 0.0, "fusion_lat": 0.0, "lat": 38.918015, "type": "electric_scooter", "lon": -77.02693616666667, "bike_id": "b022564856e3b7343d5248e041d36a46", "rental_uris": {"android": "https://dc.lft.to/lastmile_qr_scan", "ios": "https://dc.lft.to/lastmile_qr_scan"}, "name": "b022564856e3b7343d5248e041d36a46", "is_reserved": 0}, {"is_disabled": 0, "fusion_lon": 0.0, "fusion_lat": 0.0, "lat": 38.95629733333333, "type": "electric_scooter", "lon": -77.02459483333334, "bike_id": "59eb2d5718995bef5736411315298c1a", "rental_uris": {"android": "https://dc.lft.to/lastmile_qr_scan", "ios": "https://dc.lft.to/lastmile_qr_scan"}, "name": "59eb2d5718995bef5736411315298c1a", "is_reserved": 0}, {"is_disabled": 0, "fusion_lon": 0.0, "fusion_lat": 0.0, "lat": 38.924406833333336, "type": "electric_scooter", "lon": -77.04034066666667, "bike_id": "67b1a02d97879654ab51a07e0688b250", "rental_uris": {"android": "https://dc.lft.to/lastmile_qr_scan", "ios": "https://dc.lft.to/lastmile_qr_scan"}, "name": "67b1a02d97879654ab51a07e0688b250", "is_reserved": 0}, {"is_disabled": 0, "fusion_lon": 0.0, "fusion_lat": 0.0, "lat": 38.91598783333333, "type": "electric_scooter", "lon": -77.02349766666667, "bike_id": "f7cf58294d11cc0fbb0c50e2d15ffaf2", "rental_uris": {"android": "https://dc.lft.to/lastmile_qr_scan", "ios": "https://dc.lft.to/lastmile_qr_scan"}, "name": "f7cf58294d11cc0fbb0c50e2d15ffaf2", "is_reserved": 0}, {"is_disabled": 0, "fusion_lon": 0.0, "fusion_lat": 0.0, "lat": 38.9161805, "type": "electric_scooter", "lon": -77.04641383333333, "bike_id": "4f35f6021b2ef2a3907545c8d3cdf15e", "rental_uris": {"android": "https://dc.lft.to/lastmile_qr_scan", "ios": "https://dc.lft.to/lastmile_qr_scan"}, "name": "4f35f6021b2ef2a3907545c8d3cdf15e", "is_reserved": 0}, {"is_disabled": 0, "fusion_lon": 0.0, "fusion_lat": 0.0, "lat": 38.91807266666667, "type": "electric_scooter", "lon": -77.02447183333334, "bike_id": "f3c2949a85a7776214bbc9bb4da7657f", "rental_uris": {"android": "https://dc.lft.to/lastmile_qr_scan", "ios": "https://dc.lft.to/lastmile_qr_scan"}, "name": "f3c2949a85a7776214bbc9bb4da7657f", "is_reserved": 0}, {"is_disabled": 0, "fusion_lon": 0.0, "fusion_lat": 0.0, "lat": 38.90897666666667, "type": "electric_scooter", "lon": -77.00283483333334, "bike_id": "555c06f39a6bbfcccb42c4c609dff78b", "rental_uris": {"android": "https://dc.lft.to/lastmile_qr_scan", "ios": "https://dc.lft.to/lastmile_qr_scan"}, "name": "555c06f39a6bbfcccb42c4c609dff78b", "is_reserved": 0}, {"is_disabled": 0, "fusion_lon": 0.0, "fusion_lat": 0.0, "lat": 38.86345766666667, "type": "electric_scooter", "lon": -76.98254466666667, "bike_id": "adc43a18ae6379dfe4283476d8e63cd4", "rental_uris": {"android": "https://dc.lft.to/lastmile_qr_scan", "ios": "https://dc.lft.to/lastmile_qr_scan"}, "name": "adc43a18ae6379dfe4283476d8e63cd4", "is_reserved": 0}, {"is_disabled": 0, "fusion_lon": 0.0, "fusion_lat": 0.0, "lat": 38.88718166666666, "type": "electric_scooter", "lon": -77.021996, "bike_id": "e3c5075fbb23e9f2d75b6d8cc3238e28", "rental_uris": {"android": "https://dc.lft.to/lastmile_qr_scan", "ios": "https://dc.lft.to/lastmile_qr_scan"}, "name": "e3c5075fbb23e9f2d75b6d8cc3238e28", "is_reserved": 0}, {"is_disabled": 0, "fusion_lon": 0.0, "fusion_lat": 0.0, "lat": 38.92031166666666, "type": "electric_scooter", "lon": -77.025861, "bike_id": "dd2cb0786b0565d7af67a56ef470c746", "rental_uris": {"android": "https://dc.lft.to/lastmile_qr_scan", "ios": "https://dc.lft.to/lastmile_qr_scan"}, "name": "dd2cb0786b0565d7af67a56ef470c746", "is_reserved": 0}, {"is_disabled": 0, "fusion_lon": 0.0, "fusion_lat": 0.0, "lat": 38.914215666666664, "type": "electric_scooter", "lon": -77.01424033333333, "bike_id": "47477e6e028915fb60831dcfd246b634", "rental_uris": {"android": "https://dc.lft.to/lastmile_qr_scan", "ios": "https://dc.lft.to/lastmile_qr_scan"}, "name": "47477e6e028915fb60831dcfd246b634", "is_reserved": 0}, {"is_disabled": 0, "fusion_lon": 0.0, "fusion_lat": 0.0, "lat": 38.916956666666664, "type": "electric_scooter", "lon": -77.00648033333333, "bike_id": "ff3b05567715616babd28c53db4a34c1", "rental_uris": {"android": "https://dc.lft.to/lastmile_qr_scan", "ios": "https://dc.lft.to/lastmile_qr_scan"}, "name": "ff3b05567715616babd28c53db4a34c1", "is_reserved": 0}, {"is_disabled": 0, "fusion_lon": 0.0, "fusion_lat": 0.0, "lat": 38.905821833333334, "type": "electric_scooter", "lon": -77.02604066666666, "bike_id": "759e77673af2db561d6a2538bee7a0dd", "rental_uris": {"android": "https://dc.lft.to/lastmile_qr_scan", "ios": "https://dc.lft.to/lastmile_qr_scan"}, "name": "759e77673af2db561d6a2538bee7a0dd", "is_reserved": 0}, {"is_disabled": 0, "fusion_lon": 0.0, "fusion_lat": 0.0, "lat": 38.91105616666667, "type": "electric_scooter", "lon": -77.04506566666667, "bike_id": "d3df4337992443db89633157232f388b", "rental_uris": {"android": "https://dc.lft.to/lastmile_qr_scan", "ios": "https://dc.lft.to/lastmile_qr_scan"}, "name": "d3df4337992443db89633157232f388b", "is_reserved": 0}, {"is_disabled": 0, "fusion_lon": 0.0, "fusion_lat": 0.0, "lat": 38.852062833333335, "type": "electric_bike", "lon": -77.12766766666667, "bike_id": "e9e597eba234a54f741dbb95886a5b19", "rental_uris": {"android": "https://dc.lft.to/lastmile_qr_scan", "ios": "https://dc.lft.to/lastmile_qr_scan"}, "name": "e9e597eba234a54f741dbb95886a5b19", "is_reserved": 0}, {"is_disabled": 0, "fusion_lon": 0.0, "fusion_lat": 0.0, "lat": 38.892507, "type": "electric_scooter", "lon": -76.998511, "bike_id": "7008a142c51fb6b82cc031884bf727b5", "rental_uris": {"android": "https://dc.lft.to/lastmile_qr_scan", "ios": "https://dc.lft.to/lastmile_qr_scan"}, "name": "7008a142c51fb6b82cc031884bf727b5", "is_reserved": 0}, {"is_disabled": 0, "fusion_lon": 0.0, "fusion_lat": 0.0, "lat": 38.865939833333336, "type": "electric_bike", "lon": -76.93217033333333, "bike_id": "3220677c053c44513b1da8966f5df1e1", "rental_uris": {"android": "https://dc.lft.to/lastmile_qr_scan", "ios": "https://dc.lft.to/lastmile_qr_scan"}, "name": "3220677c053c44513b1da8966f5df1e1", "is_reserved": 0}, {"is_disabled": 0, "fusion_lon": 0.0, "fusion_lat": 0.0, "lat": 38.90295316666667, "type": "electric_scooter", "lon": -77.0507065, "bike_id": "00a268a0d3566499e7a4d21395dc6736", "rental_uris": {"android": "https://dc.lft.to/lastmile_qr_scan", "ios": "https://dc.lft.to/lastmile_qr_scan"}, "name": "00a268a0d3566499e7a4d21395dc6736", "is_reserved": 0}, {"is_disabled": 0, "fusion_lon": 0.0, "fusion_lat": 0.0, "lat": 38.9269175, "type": "electric_scooter", "lon": -77.03774166666666, "bike_id": "b35311fbba892f6b6550a2ce729721a0", "rental_uris": {"android": "https://dc.lft.to/lastmile_qr_scan", "ios": "https://dc.lft.to/lastmile_qr_scan"}, "name": "b35311fbba892f6b6550a2ce729721a0", "is_reserved": 0}, {"is_disabled": 0, "fusion_lon": 0.0, "fusion_lat": 0.0, "lat": 38.936027, "type": "electric_scooter", "lon": -77.058613, "bike_id": "0991d24e78f76431945f5b4f444c1c30", "rental_uris": {"android": "https://dc.lft.to/lastmile_qr_scan", "ios": "https://dc.lft.to/lastmile_qr_scan"}, "name": "0991d24e78f76431945f5b4f444c1c30", "is_reserved": 0}, {"is_disabled": 0, "fusion_lon": 0.0, "fusion_lat": 0.0, "lat": 38.916911166666665, "type": "electric_scooter", "lon": -77.025978, "bike_id": "81ac3035bc137487ef0a8de1c432b94f", "rental_uris": {"android": "https://dc.lft.to/lastmile_qr_scan", "ios": "https://dc.lft.to/lastmile_qr_scan"}, "name": "81ac3035bc137487ef0a8de1c432b94f", "is_reserved": 0}, {"is_disabled": 0, "fusion_lon": 0.0, "fusion_lat": 0.0, "lat": 38.897693833333335, "type": "electric_scooter", "lon": -77.0509515, "bike_id": "d358eca2f27fb792ae24b44a904b9943", "rental_uris": {"android": "https://dc.lft.to/lastmile_qr_scan", "ios": "https://dc.lft.to/lastmile_qr_scan"}, "name": "d358eca2f27fb792ae24b44a904b9943", "is_reserved": 0}, {"is_disabled": 0, "fusion_lon": 0.0, "fusion_lat": 0.0, "lat": 38.907086666666665, "type": "electric_scooter", "lon": -77.027166, "bike_id": "06a3acb61349499e6b167433d0c98141", "rental_uris": {"android": "https://dc.lft.to/lastmile_qr_scan", "ios": "https://dc.lft.to/lastmile_qr_scan"}, "name": "06a3acb61349499e6b167433d0c98141", "is_reserved": 0}, {"is_disabled": 0, "fusion_lon": 0.0, "fusion_lat": 0.0, "lat": 38.845095666666666, "type": "electric_bike", "lon": -76.97211533333333, "bike_id": "23193cd431be520b5702470b4834c545", "rental_uris": {"android": "https://dc.lft.to/lastmile_qr_scan", "ios": "https://dc.lft.to/lastmile_qr_scan"}, "name": "23193cd431be520b5702470b4834c545", "is_reserved": 0}, {"is_disabled": 0, "fusion_lon": 0.0, "fusion_lat": 0.0, "lat": 38.93632366666667, "type": "electric_scooter", "lon": -77.02463766666666, "bike_id": "765ae7cdaa23233a3ab39f726c1633ab", "rental_uris": {"android": "https://dc.lft.to/lastmile_qr_scan", "ios": "https://dc.lft.to/lastmile_qr_scan"}, "name": "765ae7cdaa23233a3ab39f726c1633ab", "is_reserved": 0}, {"is_disabled": 0, "fusion_lon": 0.0, "fusion_lat": 0.0, "lat": 38.91659083333333, "type": "electric_scooter", "lon": -77.02798766666666, "bike_id": "848603fc91262915e75e38da9376495d", "rental_uris": {"android": "https://dc.lft.to/lastmile_qr_scan", "ios": "https://dc.lft.to/lastmile_qr_scan"}, "name": "848603fc91262915e75e38da9376495d", "is_reserved": 0}, {"is_disabled": 0, "fusion_lon": 0.0, "fusion_lat": 0.0, "lat": 38.90580716666667, "type": "electric_scooter", "lon": -77.05602666666667, "bike_id": "961789b01c210290f2fcf059130fbb04", "rental_uris": {"android": "https://dc.lft.to/lastmile_qr_scan", "ios": "https://dc.lft.to/lastmile_qr_scan"}, "name": "961789b01c210290f2fcf059130fbb04", "is_reserved": 0}, {"is_disabled": 0, "fusion_lon": 0.0, "fusion_lat": 0.0, "lat": 38.9043855, "type": "electric_scooter", "lon": -77.02413983333334, "bike_id": "d169f72eb3678f7e2fbfec59309ccf66", "rental_uris": {"android": "https://dc.lft.to/lastmile_qr_scan", "ios": "https://dc.lft.to/lastmile_qr_scan"}, "name": "d169f72eb3678f7e2fbfec59309ccf66", "is_reserved": 0}, {"is_disabled": 0, "fusion_lon": 0.0, "fusion_lat": 0.0, "lat": 38.85781683333333, "type": "electric_bike", "lon": -76.98759, "bike_id": "a86ddb4d1acbc3bb9d9ed2120a72d047", "rental_uris": {"android": "https://dc.lft.to/lastmile_qr_scan", "ios": "https://dc.lft.to/lastmile_qr_scan"}, "name": "a86ddb4d1acbc3bb9d9ed2120a72d047", "is_reserved": 0}, {"is_disabled": 0, "fusion_lon": 0.0, "fusion_lat": 0.0, "lat": 38.90472033333333, "type": "electric_bike", "lon": -76.92951183333334, "bike_id": "0577b4effdc1924ac17d8afdb5ba9353", "rental_uris": {"android": "https://dc.lft.to/lastmile_qr_scan", "ios": "https://dc.lft.to/lastmile_qr_scan"}, "name": "0577b4effdc1924ac17d8afdb5ba9353", "is_reserved": 0}, {"is_disabled": 0, "fusion_lon": 0.0, "fusion_lat": 0.0, "lat": 38.94330883333333, "type": "electric_bike", "lon": -77.01478516666667, "bike_id": "0593df89c1cf6dae7630d2f5848e6bde", "rental_uris": {"android": "https://dc.lft.to/lastmile_qr_scan", "ios": "https://dc.lft.to/lastmile_qr_scan"}, "name": "0593df89c1cf6dae7630d2f5848e6bde", "is_reserved": 0}, {"is_disabled": 0, "fusion_lon": 0.0, "fusion_lat": 0.0, "lat": 38.911237, "type": "electric_scooter", "lon": -77.04211983333333, "bike_id": "a2261751fc6b71d53b3e539b98bc7136", "rental_uris": {"android": "https://dc.lft.to/lastmile_qr_scan", "ios": "https://dc.lft.to/lastmile_qr_scan"}, "name": "a2261751fc6b71d53b3e539b98bc7136", "is_reserved": 0}, {"is_disabled": 0, "fusion_lon": 0.0, "fusion_lat": 0.0, "lat": 38.917775166666665, "type": "electric_scooter", "lon": -77.0415135, "bike_id": "db04a62c3411cc8f1ba4fa86fbe5e98a", "rental_uris": {"android": "https://dc.lft.to/lastmile_qr_scan", "ios": "https://dc.lft.to/lastmile_qr_scan"}, "name": "db04a62c3411cc8f1ba4fa86fbe5e98a", "is_reserved": 0}, {"is_disabled": 0, "fusion_lon": 0.0, "fusion_lat": 0.0, "lat": 38.899954666666666, "type": "electric_scooter", "lon": -77.0337685, "bike_id": "7ddbc924c8ac2a809e2019fbc21c8b99", "rental_uris": {"android": "https://dc.lft.to/lastmile_qr_scan", "ios": "https://dc.lft.to/lastmile_qr_scan"}, "name": "7ddbc924c8ac2a809e2019fbc21c8b99", "is_reserved": 0}, {"is_disabled": 0, "fusion_lon": 0.0, "fusion_lat": 0.0, "lat": 38.92133583333333, "type": "electric_scooter", "lon": -77.04433183333333, "bike_id": "0ee3c19e15aadc0e11ac29b3f9301c93", "rental_uris": {"android": "https://dc.lft.to/lastmile_qr_scan", "ios": "https://dc.lft.to/lastmile_qr_scan"}, "name": "0ee3c19e15aadc0e11ac29b3f9301c93", "is_reserved": 0}, {"is_disabled": 0, "fusion_lon": 0.0, "fusion_lat": 0.0, "lat": 38.9211125, "type": "electric_scooter", "lon": -77.04391316666667, "bike_id": "a9cf2cbb1188678fdbb7f87c7d10bd40", "rental_uris": {"android": "https://dc.lft.to/lastmile_qr_scan", "ios": "https://dc.lft.to/lastmile_qr_scan"}, "name": "a9cf2cbb1188678fdbb7f87c7d10bd40", "is_reserved": 0}, {"is_disabled": 0, "fusion_lon": 0.0, "fusion_lat": 0.0, "lat": 38.89228766666667, "type": "electric_scooter", "lon": -77.0436155, "bike_id": "630faad7d7a3ad55819ddadf528d7552", "rental_uris": {"android": "https://dc.lft.to/lastmile_qr_scan", "ios": "https://dc.lft.to/lastmile_qr_scan"}, "name": "630faad7d7a3ad55819ddadf528d7552", "is_reserved": 0}, {"is_disabled": 0, "fusion_lon": 0.0, "fusion_lat": 0.0, "lat": 38.8528305, "type": "electric_bike", "lon": -76.98157766666667, "bike_id": "5539ddb99ab04a3231704610fe80cfc2", "rental_uris": {"android": "https://dc.lft.to/lastmile_qr_scan", "ios": "https://dc.lft.to/lastmile_qr_scan"}, "name": "5539ddb99ab04a3231704610fe80cfc2", "is_reserved": 0}, {"is_disabled": 0, "fusion_lon": 0.0, "fusion_lat": 0.0, "lat": 38.872072, "type": "electric_bike", "lon": -77.016302, "bike_id": "4fc1b3e636be30d4492c0becbcd2d37b", "rental_uris": {"android": "https://dc.lft.to/lastmile_qr_scan", "ios": "https://dc.lft.to/lastmile_qr_scan"}, "name": "4fc1b3e636be30d4492c0becbcd2d37b", "is_reserved": 0}, {"is_disabled": 0, "fusion_lon": 0.0, "fusion_lat": 0.0, "lat": 38.905319666666664, "type": "electric_scooter", "lon": -77.04997133333333, "bike_id": "2c584af95570b8d9e03308aba61a6525", "rental_uris": {"android": "https://dc.lft.to/lastmile_qr_scan", "ios": "https://dc.lft.to/lastmile_qr_scan"}, "name": "2c584af95570b8d9e03308aba61a6525", "is_reserved": 0}, {"is_disabled": 0, "fusion_lon": 0.0, "fusion_lat": 0.0, "lat": 38.9370105, "type": "electric_scooter", "lon": -77.056007, "bike_id": "13f51c61aa035741f0b8830ae54a6f3d", "rental_uris": {"android": "https://dc.lft.to/lastmile_qr_scan", "ios": "https://dc.lft.to/lastmile_qr_scan"}, "name": "13f51c61aa035741f0b8830ae54a6f3d", "is_reserved": 0}, {"is_disabled": 0, "fusion_lon": 0.0, "fusion_lat": 0.0, "lat": 38.87849466666667, "type": "electric_bike", "lon": -77.01744466666666, "bike_id": "6e656c2e2a2bb74fd43a6187c5674e60", "rental_uris": {"android": "https://dc.lft.to/lastmile_qr_scan", "ios": "https://dc.lft.to/lastmile_qr_scan"}, "name": "6e656c2e2a2bb74fd43a6187c5674e60", "is_reserved": 0}, {"is_disabled": 0, "fusion_lon": 0.0, "fusion_lat": 0.0, "lat": 38.91705866666667, "type": "electric_scooter", "lon": -77.00117116666667, "bike_id": "e16e69a523b50b94aeaebd2cba9dd4d6", "rental_uris": {"android": "https://dc.lft.to/lastmile_qr_scan", "ios": "https://dc.lft.to/lastmile_qr_scan"}, "name": "e16e69a523b50b94aeaebd2cba9dd4d6", "is_reserved": 0}, {"is_disabled": 0, "fusion_lon": 0.0, "fusion_lat": 0.0, "lat": 38.89735833333334, "type": "electric_scooter", "lon": -77.02194566666667, "bike_id": "5289a7e90a37864809c404fe2f8a3db8", "rental_uris": {"android": "https://dc.lft.to/lastmile_qr_scan", "ios": "https://dc.lft.to/lastmile_qr_scan"}, "name": "5289a7e90a37864809c404fe2f8a3db8", "is_reserved": 0}, {"is_disabled": 0, "fusion_lon": 0.0, "fusion_lat": 0.0, "lat": 38.884535166666666, "type": "electric_bike", "lon": -76.91637383333334, "bike_id": "a2a70f17afab291f3c975cb4e303b018", "rental_uris": {"android": "https://dc.lft.to/lastmile_qr_scan", "ios": "https://dc.lft.to/lastmile_qr_scan"}, "name": "a2a70f17afab291f3c975cb4e303b018", "is_reserved": 0}, {"is_disabled": 0, "fusion_lon": 0.0, "fusion_lat": 0.0, "lat": 38.91636416666667, "type": "electric_scooter", "lon": -77.02282616666666, "bike_id": "3549b10233cab695773589f61e77bf04", "rental_uris": {"android": "https://dc.lft.to/lastmile_qr_scan", "ios": "https://dc.lft.to/lastmile_qr_scan"}, "name": "3549b10233cab695773589f61e77bf04", "is_reserved": 0}, {"is_disabled": 0, "fusion_lon": 0.0, "fusion_lat": 0.0, "lat": 38.91593483333333, "type": "electric_scooter", "lon": -77.07278433333333, "bike_id": "6b3a6a5b1746e9d0cfea42a45edb06e3", "rental_uris": {"android": "https://dc.lft.to/lastmile_qr_scan", "ios": "https://dc.lft.to/lastmile_qr_scan"}, "name": "6b3a6a5b1746e9d0cfea42a45edb06e3", "is_reserved": 0}, {"is_disabled": 0, "fusion_lon": 0.0, "fusion_lat": 0.0, "lat": 39.052673166666665, "type": "electric_bike", "lon": -77.04388183333333, "bike_id": "e41571c3f8eaf1bdbd8686ae6ee4dce0", "rental_uris": {"android": "https://dc.lft.to/lastmile_qr_scan", "ios": "https://dc.lft.to/lastmile_qr_scan"}, "name": "e41571c3f8eaf1bdbd8686ae6ee4dce0", "is_reserved": 0}, {"is_disabled": 0, "fusion_lon": 0.0, "fusion_lat": 0.0, "lat": 38.948937, "type": "electric_bike", "lon": -76.96371283333333, "bike_id": "b2f7b7c1a0a9dfd1e3785893cd75e24c", "rental_uris": {"android": "https://dc.lft.to/lastmile_qr_scan", "ios": "https://dc.lft.to/lastmile_qr_scan"}, "name": "b2f7b7c1a0a9dfd1e3785893cd75e24c", "is_reserved": 0}, {"is_disabled": 0, "fusion_lon": 0.0, "fusion_lat": 0.0, "lat": 38.90855283333333, "type": "electric_scooter", "lon": -77.03843983333333, "bike_id": "fd3b4778dfdaacb5f60d21a2a5cfc3cc", "rental_uris": {"android": "https://dc.lft.to/lastmile_qr_scan", "ios": "https://dc.lft.to/lastmile_qr_scan"}, "name": "fd3b4778dfdaacb5f60d21a2a5cfc3cc", "is_reserved": 0}, {"is_disabled": 0, "fusion_lon": 0.0, "fusion_lat": 0.0, "lat": 38.90867433333333, "type": "electric_scooter", "lon": -77.046184, "bike_id": "c5bc0fe1a3fd6b019c8e0c70734be3ea", "rental_uris": {"android": "https://dc.lft.to/lastmile_qr_scan", "ios": "https://dc.lft.to/lastmile_qr_scan"}, "name": "c5bc0fe1a3fd6b019c8e0c70734be3ea", "is_reserved": 0}, {"is_disabled": 0, "fusion_lon": 0.0, "fusion_lat": 0.0, "lat": 38.918007, "type": "electric_scooter", "lon": -77.03445833333333, "bike_id": "f5cc61bec1690279c51086ed81e95744", "rental_uris": {"android": "https://dc.lft.to/lastmile_qr_scan", "ios": "https://dc.lft.to/lastmile_qr_scan"}, "name": "f5cc61bec1690279c51086ed81e95744", "is_reserved": 0}, {"is_disabled": 0, "fusion_lon": 0.0, "fusion_lat": 0.0, "lat": 38.913412, "type": "electric_scooter", "lon": -77.0423815, "bike_id": "f249b06b74ce1a269475d2013dc12930", "rental_uris": {"android": "https://dc.lft.to/lastmile_qr_scan", "ios": "https://dc.lft.to/lastmile_qr_scan"}, "name": "f249b06b74ce1a269475d2013dc12930", "is_reserved": 0}, {"is_disabled": 0, "fusion_lon": 0.0, "fusion_lat": 0.0, "lat": 38.88867183333333, "type": "electric_scooter", "lon": -77.04004283333333, "bike_id": "9bc4fee9f81be8d6d0c55aecd089a839", "rental_uris": {"android": "https://dc.lft.to/lastmile_qr_scan", "ios": "https://dc.lft.to/lastmile_qr_scan"}, "name": "9bc4fee9f81be8d6d0c55aecd089a839", "is_reserved": 0}, {"is_disabled": 0, "fusion_lon": 0.0, "fusion_lat": 0.0, "lat": 38.92857816666667, "type": "electric_scooter", "lon": -77.01419016666667, "bike_id": "7004b303dd31d13e9f87ea827351864f", "rental_uris": {"android": "https://dc.lft.to/lastmile_qr_scan", "ios": "https://dc.lft.to/lastmile_qr_scan"}, "name": "7004b303dd31d13e9f87ea827351864f", "is_reserved": 0}, {"is_disabled": 0, "fusion_lon": 0.0, "fusion_lat": 0.0, "lat": 38.91838633333333, "type": "electric_scooter", "lon": -77.07215366666667, "bike_id": "304f1088f8a1e11f933c132018218843", "rental_uris": {"android": "https://dc.lft.to/lastmile_qr_scan", "ios": "https://dc.lft.to/lastmile_qr_scan"}, "name": "304f1088f8a1e11f933c132018218843", "is_reserved": 0}, {"is_disabled": 0, "fusion_lon": 0.0, "fusion_lat": 0.0, "lat": 38.91267366666667, "type": "electric_scooter", "lon": -77.0222675, "bike_id": "7e4d89debc9c7b6722ff5abd243a5a40", "rental_uris": {"android": "https://dc.lft.to/lastmile_qr_scan", "ios": "https://dc.lft.to/lastmile_qr_scan"}, "name": "7e4d89debc9c7b6722ff5abd243a5a40", "is_reserved": 0}, {"is_disabled": 0, "fusion_lon": 0.0, "fusion_lat": 0.0, "lat": 38.905994, "type": "electric_scooter", "lon": -77.0571015, "bike_id": "34b2887fa51fda9fc00294bf69d184fe", "rental_uris": {"android": "https://dc.lft.to/lastmile_qr_scan", "ios": "https://dc.lft.to/lastmile_qr_scan"}, "name": "34b2887fa51fda9fc00294bf69d184fe", "is_reserved": 0}, {"is_disabled": 0, "fusion_lon": 0.0, "fusion_lat": 0.0, "lat": 38.925270166666664, "type": "electric_scooter", "lon": -77.07662933333333, "bike_id": "a18fc2f617115a478409c388ea199aaa", "rental_uris": {"android": "https://dc.lft.to/lastmile_qr_scan", "ios": "https://dc.lft.to/lastmile_qr_scan"}, "name": "a18fc2f617115a478409c388ea199aaa", "is_reserved": 0}, {"is_disabled": 0, "fusion_lon": 0.0, "fusion_lat": 0.0, "lat": 38.924527499999996, "type": "electric_scooter", "lon": -77.05086116666666, "bike_id": "a802ac428f61697f3453d65e84eae9da", "rental_uris": {"android": "https://dc.lft.to/lastmile_qr_scan", "ios": "https://dc.lft.to/lastmile_qr_scan"}, "name": "a802ac428f61697f3453d65e84eae9da", "is_reserved": 0}, {"is_disabled": 0, "fusion_lon": 0.0, "fusion_lat": 0.0, "lat": 38.88353016666667, "type": "electric_scooter", "lon": -76.9855925, "bike_id": "6ca6f624922620629f72a4ea9fe72a26", "rental_uris": {"android": "https://dc.lft.to/lastmile_qr_scan", "ios": "https://dc.lft.to/lastmile_qr_scan"}, "name": "6ca6f624922620629f72a4ea9fe72a26", "is_reserved": 0}, {"is_disabled": 0, "fusion_lon": 0.0, "fusion_lat": 0.0, "lat": 38.9171265, "type": "electric_scooter", "lon": -77.02989033333333, "bike_id": "b5f4d19952294559c2f8815ea7ab3f21", "rental_uris": {"android": "https://dc.lft.to/lastmile_qr_scan", "ios": "https://dc.lft.to/lastmile_qr_scan"}, "name": "b5f4d19952294559c2f8815ea7ab3f21", "is_reserved": 0}, {"is_disabled": 0, "fusion_lon": 0.0, "fusion_lat": 0.0, "lat": 38.834327, "type": "electric_bike", "lon": -77.1035825, "bike_id": "50350e45e199badd25269caa27fbf587", "rental_uris": {"android": "https://dc.lft.to/lastmile_qr_scan", "ios": "https://dc.lft.to/lastmile_qr_scan"}, "name": "50350e45e199badd25269caa27fbf587", "is_reserved": 0}, {"is_disabled": 0, "fusion_lon": 0.0, "fusion_lat": 0.0, "lat": 38.906478166666666, "type": "electric_scooter", "lon": -77.04522516666667, "bike_id": "d6fd04fe649e27aa7533c5ab272e1403", "rental_uris": {"android": "https://dc.lft.to/lastmile_qr_scan", "ios": "https://dc.lft.to/lastmile_qr_scan"}, "name": "d6fd04fe649e27aa7533c5ab272e1403", "is_reserved": 0}, {"is_disabled": 0, "fusion_lon": 0.0, "fusion_lat": 0.0, "lat": 38.90079033333333, "type": "electric_scooter", "lon": -77.049262, "bike_id": "4295ef723d297f2b2042689114b16a0b", "rental_uris": {"android": "https://dc.lft.to/lastmile_qr_scan", "ios": "https://dc.lft.to/lastmile_qr_scan"}, "name": "4295ef723d297f2b2042689114b16a0b", "is_reserved": 0}, {"is_disabled": 0, "fusion_lon": 0.0, "fusion_lat": 0.0, "lat": 38.905155, "type": "electric_scooter", "lon": -76.98253283333334, "bike_id": "584efa52a93aabbbf9cb5c794b6dcbec", "rental_uris": {"android": "https://dc.lft.to/lastmile_qr_scan", "ios": "https://dc.lft.to/lastmile_qr_scan"}, "name": "584efa52a93aabbbf9cb5c794b6dcbec", "is_reserved": 0}, {"is_disabled": 0, "fusion_lon": 0.0, "fusion_lat": 0.0, "lat": 38.9111185, "type": "electric_scooter", "lon": -77.03555433333334, "bike_id": "326cc2159d4222bede7cec517bc7d53b", "rental_uris": {"android": "https://dc.lft.to/lastmile_qr_scan", "ios": "https://dc.lft.to/lastmile_qr_scan"}, "name": "326cc2159d4222bede7cec517bc7d53b", "is_reserved": 0}, {"is_disabled": 0, "fusion_lon": 0.0, "fusion_lat": 0.0, "lat": 38.9169215, "type": "electric_scooter", "lon": -77.02598833333333, "bike_id": "95a3a407cfad221d968d9821ce1d6095", "rental_uris": {"android": "https://dc.lft.to/lastmile_qr_scan", "ios": "https://dc.lft.to/lastmile_qr_scan"}, "name": "95a3a407cfad221d968d9821ce1d6095", "is_reserved": 0}, {"is_disabled": 0, "fusion_lon": 0.0, "fusion_lat": 0.0, "lat": 39.00786866666667, "type": "electric_bike", "lon": -76.995753, "bike_id": "ed92cf7b3ceb2e2c8bedc14030c049e0", "rental_uris": {"android": "https://dc.lft.to/lastmile_qr_scan", "ios": "https://dc.lft.to/lastmile_qr_scan"}, "name": "ed92cf7b3ceb2e2c8bedc14030c049e0", "is_reserved": 0}, {"is_disabled": 0, "fusion_lon": 0.0, "fusion_lat": 0.0, "lat": 38.923275833333335, "type": "electric_scooter", "lon": -77.03583783333333, "bike_id": "131b85ab7fe7b2c9e12a207b063efb18", "rental_uris": {"android": "https://dc.lft.to/lastmile_qr_scan", "ios": "https://dc.lft.to/lastmile_qr_scan"}, "name": "131b85ab7fe7b2c9e12a207b063efb18", "is_reserved": 0}, {"is_disabled": 0, "fusion_lon": 0.0, "fusion_lat": 0.0, "lat": 38.896375666666664, "type": "electric_scooter", "lon": -77.009188, "bike_id": "2f3cd99f4be73a0567cc79e90b538051", "rental_uris": {"android": "https://dc.lft.to/lastmile_qr_scan", "ios": "https://dc.lft.to/lastmile_qr_scan"}, "name": "2f3cd99f4be73a0567cc79e90b538051", "is_reserved": 0}, {"is_disabled": 0, "fusion_lon": 0.0, "fusion_lat": 0.0, "lat": 38.9290925, "type": "electric_scooter", "lon": -77.0226605, "bike_id": "407a299017863a8fe9705473f95d161d", "rental_uris": {"android": "https://dc.lft.to/lastmile_qr_scan", "ios": "https://dc.lft.to/lastmile_qr_scan"}, "name": "407a299017863a8fe9705473f95d161d", "is_reserved": 0}, {"is_disabled": 0, "fusion_lon": 0.0, "fusion_lat": 0.0, "lat": 38.904183, "type": "electric_scooter", "lon": -76.98547433333333, "bike_id": "3e202090a4f09cd01e09d455dd76aa42", "rental_uris": {"android": "https://dc.lft.to/lastmile_qr_scan", "ios": "https://dc.lft.to/lastmile_qr_scan"}, "name": "3e202090a4f09cd01e09d455dd76aa42", "is_reserved": 0}, {"is_disabled": 0, "fusion_lon": 0.0, "fusion_lat": 0.0, "lat": 38.9370475, "type": "electric_scooter", "lon": -77.06108533333334, "bike_id": "c623c141621e4096a41a76622371c874", "rental_uris": {"android": "https://dc.lft.to/lastmile_qr_scan", "ios": "https://dc.lft.to/lastmile_qr_scan"}, "name": "c623c141621e4096a41a76622371c874", "is_reserved": 0}, {"is_disabled": 0, "fusion_lon": 0.0, "fusion_lat": 0.0, "lat": 38.918546666666664, "type": "electric_bike", "lon": -76.96089433333333, "bike_id": "19d0f7094276b430287eb6e744bd5346", "rental_uris": {"android": "https://dc.lft.to/lastmile_qr_scan", "ios": "https://dc.lft.to/lastmile_qr_scan"}, "name": "19d0f7094276b430287eb6e744bd5346", "is_reserved": 0}, {"is_disabled": 0, "fusion_lon": 0.0, "fusion_lat": 0.0, "lat": 38.906870833333336, "type": "electric_scooter", "lon": -77.06288016666667, "bike_id": "e93d9504d3b50fc2cb2e716e3be58715", "rental_uris": {"android": "https://dc.lft.to/lastmile_qr_scan", "ios": "https://dc.lft.to/lastmile_qr_scan"}, "name": "e93d9504d3b50fc2cb2e716e3be58715", "is_reserved": 0}, {"is_disabled": 0, "fusion_lon": 0.0, "fusion_lat": 0.0, "lat": 38.938272166666664, "type": "electric_scooter", "lon": -77.02797866666667, "bike_id": "c85c1bad24bef34cb428b83eb0552a57", "rental_uris": {"android": "https://dc.lft.to/lastmile_qr_scan", "ios": "https://dc.lft.to/lastmile_qr_scan"}, "name": "c85c1bad24bef34cb428b83eb0552a57", "is_reserved": 0}, {"is_disabled": 0, "fusion_lon": 0.0, "fusion_lat": 0.0, "lat": 38.86356083333333, "type": "electric_scooter", "lon": -76.990782, "bike_id": "4321a966ddb537b1a85484ec6247706c", "rental_uris": {"android": "https://dc.lft.to/lastmile_qr_scan", "ios": "https://dc.lft.to/lastmile_qr_scan"}, "name": "4321a966ddb537b1a85484ec6247706c", "is_reserved": 0}, {"is_disabled": 0, "fusion_lon": 0.0, "fusion_lat": 0.0, "lat": 38.9277565, "type": "electric_scooter", "lon": -77.0146635, "bike_id": "521c505e8c9b7ddd382b68873c0602ef", "rental_uris": {"android": "https://dc.lft.to/lastmile_qr_scan", "ios": "https://dc.lft.to/lastmile_qr_scan"}, "name": "521c505e8c9b7ddd382b68873c0602ef", "is_reserved": 0}, {"is_disabled": 0, "fusion_lon": 0.0, "fusion_lat": 0.0, "lat": 38.91125383333333, "type": "electric_scooter", "lon": -77.04208433333334, "bike_id": "81116509b419b8f3b61799152bfb886c", "rental_uris": {"android": "https://dc.lft.to/lastmile_qr_scan", "ios": "https://dc.lft.to/lastmile_qr_scan"}, "name": "81116509b419b8f3b61799152bfb886c", "is_reserved": 0}, {"is_disabled": 0, "fusion_lon": 0.0, "fusion_lat": 0.0, "lat": 38.90520016666667, "type": "electric_scooter", "lon": -77.04998416666666, "bike_id": "a37d392cb46b4f8d11bace70198e2ab3", "rental_uris": {"android": "https://dc.lft.to/lastmile_qr_scan", "ios": "https://dc.lft.to/lastmile_qr_scan"}, "name": "a37d392cb46b4f8d11bace70198e2ab3", "is_reserved": 0}, {"is_disabled": 0, "fusion_lon": 0.0, "fusion_lat": 0.0, "lat": 38.885835666666665, "type": "electric_scooter", "lon": -77.01977216666667, "bike_id": "3aa5316fa03557e6d5c13bfb0805d854", "rental_uris": {"android": "https://dc.lft.to/lastmile_qr_scan", "ios": "https://dc.lft.to/lastmile_qr_scan"}, "name": "3aa5316fa03557e6d5c13bfb0805d854", "is_reserved": 0}, {"is_disabled": 0, "fusion_lon": 0.0, "fusion_lat": 0.0, "lat": 38.990604833333336, "type": "electric_bike", "lon": -77.10026433333333, "bike_id": "0faff807e39729d481cc32b3cf1e1d45", "rental_uris": {"android": "https://dc.lft.to/lastmile_qr_scan", "ios": "https://dc.lft.to/lastmile_qr_scan"}, "name": "0faff807e39729d481cc32b3cf1e1d45", "is_reserved": 0}, {"is_disabled": 0, "fusion_lon": 0.0, "fusion_lat": 0.0, "lat": 38.926862166666666, "type": "electric_scooter", "lon": -77.03741983333333, "bike_id": "f0d80b4324e9aaf51f704fb812fa74c6", "rental_uris": {"android": "https://dc.lft.to/lastmile_qr_scan", "ios": "https://dc.lft.to/lastmile_qr_scan"}, "name": "f0d80b4324e9aaf51f704fb812fa74c6", "is_reserved": 0}, {"is_disabled": 0, "fusion_lon": 0.0, "fusion_lat": 0.0, "lat": 38.90788833333333, "type": "electric_scooter", "lon": -77.031994, "bike_id": "66c8ba155d5cf7cfe004bf9698437384", "rental_uris": {"android": "https://dc.lft.to/lastmile_qr_scan", "ios": "https://dc.lft.to/lastmile_qr_scan"}, "name": "66c8ba155d5cf7cfe004bf9698437384", "is_reserved": 0}, {"is_disabled": 0, "fusion_lon": 0.0, "fusion_lat": 0.0, "lat": 38.9909015, "type": "electric_bike", "lon": -76.87494383333333, "bike_id": "53060cd947370f92b19a82466fc2d920", "rental_uris": {"android": "https://dc.lft.to/lastmile_qr_scan", "ios": "https://dc.lft.to/lastmile_qr_scan"}, "name": "53060cd947370f92b19a82466fc2d920", "is_reserved": 0}, {"is_disabled": 0, "fusion_lon": 0.0, "fusion_lat": 0.0, "lat": 38.903664166666665, "type": "electric_scooter", "lon": -77.02920566666667, "bike_id": "522b2c2f120d9503c49a6ccaaaf09c99", "rental_uris": {"android": "https://dc.lft.to/lastmile_qr_scan", "ios": "https://dc.lft.to/lastmile_qr_scan"}, "name": "522b2c2f120d9503c49a6ccaaaf09c99", "is_reserved": 0}, {"is_disabled": 0, "fusion_lon": 0.0, "fusion_lat": 0.0, "lat": 38.92483266666667, "type": "electric_scooter", "lon": -77.02714116666667, "bike_id": "1c4ad089dbdeb5cebf6e18929c759100", "rental_uris": {"android": "https://dc.lft.to/lastmile_qr_scan", "ios": "https://dc.lft.to/lastmile_qr_scan"}, "name": "1c4ad089dbdeb5cebf6e18929c759100", "is_reserved": 0}, {"is_disabled": 0, "fusion_lon": 0.0, "fusion_lat": 0.0, "lat": 38.91803633333333, "type": "electric_scooter", "lon": -77.03554916666667, "bike_id": "674d4eb1937b06b6e1692c011ffbeb04", "rental_uris": {"android": "https://dc.lft.to/lastmile_qr_scan", "ios": "https://dc.lft.to/lastmile_qr_scan"}, "name": "674d4eb1937b06b6e1692c011ffbeb04", "is_reserved": 0}, {"is_disabled": 0, "fusion_lon": 0.0, "fusion_lat": 0.0, "lat": 38.90500883333333, "type": "electric_scooter", "lon": -77.02949783333334, "bike_id": "9958b1a2a97a1a295acdce800cfda1bf", "rental_uris": {"android": "https://dc.lft.to/lastmile_qr_scan", "ios": "https://dc.lft.to/lastmile_qr_scan"}, "name": "9958b1a2a97a1a295acdce800cfda1bf", "is_reserved": 0}, {"is_disabled": 0, "fusion_lon": 0.0, "fusion_lat": 0.0, "lat": 38.92795366666667, "type": "electric_scooter", "lon": -77.02297866666666, "bike_id": "94fb404fe04ebf47c1e435f4e0c874f4", "rental_uris": {"android": "https://dc.lft.to/lastmile_qr_scan", "ios": "https://dc.lft.to/lastmile_qr_scan"}, "name": "94fb404fe04ebf47c1e435f4e0c874f4", "is_reserved": 0}, {"is_disabled": 0, "fusion_lon": 0.0, "fusion_lat": 0.0, "lat": 38.905193, "type": "electric_scooter", "lon": -77.05152216666667, "bike_id": "d29572bac9a1de744cde980c7057fd06", "rental_uris": {"android": "https://dc.lft.to/lastmile_qr_scan", "ios": "https://dc.lft.to/lastmile_qr_scan"}, "name": "d29572bac9a1de744cde980c7057fd06", "is_reserved": 0}, {"is_disabled": 0, "fusion_lon": 0.0, "fusion_lat": 0.0, "lat": 38.956349, "type": "electric_scooter", "lon": -77.02982433333334, "bike_id": "d2417c603b06f829ac406e3b640fc236", "rental_uris": {"android": "https://dc.lft.to/lastmile_qr_scan", "ios": "https://dc.lft.to/lastmile_qr_scan"}, "name": "d2417c603b06f829ac406e3b640fc236", "is_reserved": 0}, {"is_disabled": 0, "fusion_lon": 0.0, "fusion_lat": 0.0, "lat": 38.881548333333335, "type": "electric_scooter", "lon": -77.00889633333334, "bike_id": "9131f5d6b346d62464e5b0eb61f0c4ca", "rental_uris": {"android": "https://dc.lft.to/lastmile_qr_scan", "ios": "https://dc.lft.to/lastmile_qr_scan"}, "name": "9131f5d6b346d62464e5b0eb61f0c4ca", "is_reserved": 0}, {"is_disabled": 0, "fusion_lon": 0.0, "fusion_lat": 0.0, "lat": 38.8597455, "type": "electric_scooter", "lon": -76.98414566666666, "bike_id": "465d594d74f951d63387a03b93e2f8fe", "rental_uris": {"android": "https://dc.lft.to/lastmile_qr_scan", "ios": "https://dc.lft.to/lastmile_qr_scan"}, "name": "465d594d74f951d63387a03b93e2f8fe", "is_reserved": 0}, {"is_disabled": 0, "fusion_lon": 0.0, "fusion_lat": 0.0, "lat": 38.85062666666666, "type": "electric_bike", "lon": -76.97332983333334, "bike_id": "f3843a74a8e06f2ce508969416e7de10", "rental_uris": {"android": "https://dc.lft.to/lastmile_qr_scan", "ios": "https://dc.lft.to/lastmile_qr_scan"}, "name": "f3843a74a8e06f2ce508969416e7de10", "is_reserved": 0}, {"is_disabled": 0, "fusion_lon": 0.0, "fusion_lat": 0.0, "lat": 38.927382, "type": "electric_bike", "lon": -76.99366783333333, "bike_id": "da332da3fd4dcf0894b4be3e7194d46b", "rental_uris": {"android": "https://dc.lft.to/lastmile_qr_scan", "ios": "https://dc.lft.to/lastmile_qr_scan"}, "name": "da332da3fd4dcf0894b4be3e7194d46b", "is_reserved": 0}, {"is_disabled": 0, "fusion_lon": 0.0, "fusion_lat": 0.0, "lat": 38.919058666666665, "type": "electric_scooter", "lon": -77.02760233333333, "bike_id": "52df5a6da4bd826513968903c4e8a253", "rental_uris": {"android": "https://dc.lft.to/lastmile_qr_scan", "ios": "https://dc.lft.to/lastmile_qr_scan"}, "name": "52df5a6da4bd826513968903c4e8a253", "is_reserved": 0}, {"is_disabled": 0, "fusion_lon": 0.0, "fusion_lat": 0.0, "lat": 38.87824416666667, "type": "electric_scooter", "lon": -76.96318483333333, "bike_id": "f24fd35bec445164c77eaa0349ab6973", "rental_uris": {"android": "https://dc.lft.to/lastmile_qr_scan", "ios": "https://dc.lft.to/lastmile_qr_scan"}, "name": "f24fd35bec445164c77eaa0349ab6973", "is_reserved": 0}, {"is_disabled": 0, "fusion_lon": 0.0, "fusion_lat": 0.0, "lat": 38.8766885, "type": "electric_scooter", "lon": -76.93185883333334, "bike_id": "01f749399d043350fbe54c30c706aad6", "rental_uris": {"android": "https://dc.lft.to/lastmile_qr_scan", "ios": "https://dc.lft.to/lastmile_qr_scan"}, "name": "01f749399d043350fbe54c30c706aad6", "is_reserved": 0}, {"is_disabled": 0, "fusion_lon": 0.0, "fusion_lat": 0.0, "lat": 38.950004666666665, "type": "electric_bike", "lon": -77.3531035, "bike_id": "a76b1d373fb3c3c1914d5bc164448c8e", "rental_uris": {"android": "https://dc.lft.to/lastmile_qr_scan", "ios": "https://dc.lft.to/lastmile_qr_scan"}, "name": "a76b1d373fb3c3c1914d5bc164448c8e", "is_reserved": 0},