{"data": {"bikes": [{"bike_id": "34341c04591f19bed5be40d5aa0a5d03", "lat": 38.93624883333333, "is_reserved": 0, "fusion_lat": 0.0, "rental_uris": {"android": "https://dc.lft.to/lastmile_qr_scan", "ios": "https://dc.lft.to/lastmile_qr_scan"}, "fusion_lon": 0.0, "name": "34341c04591f19bed5be40d5aa0a5d03", "lon": -77.0245735, "is_disabled": 0, "type": "electric_scooter"}, {"bike_id": "faebafa7fa268416853c2d4a365849b1", "lat": 38.9322775, "is_reserved": 0, "fusion_lat": 0.0, "rental_uris": {"android": "https://dc.lft.to/lastmile_qr_scan", "ios": "https://dc.lft.to/lastmile_qr_scan"}, "fusion_lon": 0.0, "name": "faebafa7fa268416853c2d4a365849b1", "lon": -77.038554, "is_disabled": 0, "type": "electric_scooter"}, {"bike_id": "293e334133f7502ed199ad5f96998c29", "lat": 38.907912333333336, "is_reserved": 0, "fusion_lat": 0.0, "rental_uris": {"android": "https://dc.lft.to/lastmile_qr_scan", "ios": "https://dc.lft.to/lastmile_qr_scan"}, "fusion_lon": 0.0, "name": "293e334133f7502ed199ad5f96998c29", "lon": -77.0306015, "is_disabled": 0, "type": "electric_scooter"}, {"bike_id": "86b595fe1aa2182dd902d76cb2db27ba", "lat": 38.905390833333335, "is_reserved": 0, "fusion_lat": 0.0, "rental_uris": {"android": "https://dc.lft.to/lastmile_qr_scan", "ios": "https://dc.lft.to/lastmile_qr_scan"}, "fusion_lon": 0.0, "name": "86b595fe1aa2182dd902d76cb2db27ba", "lon": -77.04176333333334, "is_disabled": 0, "type": "electric_scooter"}, {"bike_id": "0b1ad3bc4958aee739c5933e25ee53e9", "lat": 38.898637666666666, "is_reserved": 0, "fusion_lat": 0.0, "rental_uris": {"android": "https://dc.lft.to/lastmile_qr_scan", "ios": "https://dc.lft.to/lastmile_qr_scan"}, "fusion_lon": 0.0, "name": "0b1ad3bc4958aee739c5933e25ee53e9", "lon": -76.94635366666667, "is_disabled": 0, "type": "electric_scooter"}, {"bike_id": "7f4c577925e20749df201d6ee8a7cb59", "lat": 38.933856666666664, "is_reserved": 0, "fusion_lat": 0.0, "rental_uris": {"android": "https://dc.lft.to/lastmile_qr_scan", "ios": "https://dc.lft.to/lastmile_qr_scan"}, "fusion_lon": 0.0, "name": "7f4c577925e20749df201d6ee8a7cb59", "lon": -77.05740266666666, "is_disabled": 0, "type": "electric_scooter"}, {"bike_id": "7d258119965c79609ec92ec3e4b30535", "lat": 38.907316333333334, "is_reserved": 0, "fusion_lat": 0.0, "rental_uris": {"android": "https://dc.lft.to/lastmile_qr_scan", "ios": "https://dc.lft.to/lastmile_qr_scan"}, "fusion_lon": 0.0, "name": "7d258119965c79609ec92ec3e4b30535", "lon": -77.023795, "is_disabled": 0, "type": "electric_scooter"}, {"bike_id": "0436cb2419dafe294a912a434b12e3de", "lat": 38.90271883333333, "is_reserved": 0, "fusion_lat": 0.0, "rental_uris": {"android": "https://dc.lft.to/lastmile_qr_scan", "ios": "https://dc.lft.to/lastmile_qr_scan"}, "fusion_lon": 0.0, "name": "0436cb2419dafe294a912a434b12e3de", "lon": -77.05823233333334, "is_disabled": 0, "type": "electric_scooter"}, {"bike_id": "fa7d68fdae17a52db1d4610196d15e02", "lat": 38.9296735, "is_reserved": 0, "fusion_lat": 0.0, "rental_uris": {"android": "https://dc.lft.to/lastmile_qr_scan", "ios": "https://dc.lft.to/lastmile_qr_scan"}, "fusion_lon": 0.0, "name": "fa7d68fdae17a52db1d4610196d15e02", "lon": -77.1856305, "is_disabled": 0, "type": "electric_bike"}, {"bike_id": "40279f6c6f3d1372af0a424ee747c04e", "lat": 38.861523, "is_reserved": 0, "fusion_lat": 0.0, "rental_uris": {"android": "https://dc.lft.to/lastmile_qr_scan", "ios": "https://dc.lft.to/lastmile_qr_scan"}, "fusion_lon": 0.0, "name": "40279f6c6f3d1372af0a424ee747c04e", "lon": -77.09144216666667, "is_disabled": 0, "type": "electric_bike"}, {"bike_id": "56f7c811b65e7aea99f6ee36f70d4920", "lat": 38.8899945, "is_reserved": 0, "fusion_lat": 0.0, "rental_uris": {"android": "https://dc.lft.to/lastmile_qr_scan", "ios": "https://dc.lft.to/lastmile_qr_scan"}, "fusion_lon": 0.0, "name": "56f7c811b65e7aea99f6ee36f70d4920", "lon": -77.00208066666667, "is_disabled": 0, "type": "electric_scooter"}, {"bike_id": "fc51782b321c6eddb661a7c02e2f4f77", "lat": 38.893287, "is_reserved": 0, "fusion_lat": 0.0, "rental_uris": {"android": "https://dc.lft.to/lastmile_qr_scan", "ios": "https://dc.lft.to/lastmile_qr_scan"}, "fusion_lon": 0.0, "name": "fc51782b321c6eddb661a7c02e2f4f77", "lon": -77.04676866666667, "is_disabled": 0, "type": "electric_scooter"}, {"bike_id": "09cbf9c31e60ee198032af5b6ab3d6c0", "lat": 38.89241966666667, "is_reserved": 0, "fusion_lat": 0.0, "rental_uris": {"android": "https://dc.lft.to/lastmile_qr_scan", "ios": "https://dc.lft.to/lastmile_qr_scan"}, "fusion_lon": 0.0, "name": "09cbf9c31e60ee198032af5b6ab3d6c0", "lon": -77.039591, "is_disabled": 0, "type": "electric_scooter"}, {"bike_id": "92ab3575b87cb5335ccabefcbcd77cd1", "lat": 38.915302, "is_reserved": 0, "fusion_lat": 0.0, "rental_uris": {"android": "https://dc.lft.to/lastmile_qr_scan", "ios": "https://dc.lft.to/lastmile_qr_scan"}, "fusion_lon": 0.0, "name": "92ab3575b87cb5335ccabefcbcd77cd1", "lon": -77.01976883333333, "is_disabled": 0, "type": "electric_scooter"}, {"bike_id": "bd916f39da9f51681e49fbfe509d345f", "lat": 38.90210966666667, "is_reserved": 0, "fusion_lat": 0.0, "rental_uris": {"android": "https://dc.lft.to/lastmile_qr_scan", "ios": "https://dc.lft.to/lastmile_qr_scan"}, "fusion_lon": 0.0, "name": "bd916f39da9f51681e49fbfe509d345f", "lon": -77.02371983333333, "is_disabled": 0, "type": "electric_scooter"}, {"bike_id": "3e38cffd62b6ddbcc2e41f4021aaf2ad", "lat": 38.9025105, "is_reserved": 0, "fusion_lat": 0.0, "rental_uris": {"android": "https://dc.lft.to/lastmile_qr_scan", "ios": "https://dc.lft.to/lastmile_qr_scan"}, "fusion_lon": 0.0, "name": "3e38cffd62b6ddbcc2e41f4021aaf2ad", "lon": -77.040599, "is_disabled": 0, "type": "electric_scooter"}, {"bike_id": "f65ca1e05650888c59632891b3105948", "lat": 38.914152, "is_reserved": 0, "fusion_lat": 0.0, "rental_uris": {"android": "https://dc.lft.to/lastmile_qr_scan", "ios": "https://dc.lft.to/lastmile_qr_scan"}, "fusion_lon": 0.0, "name": "f65ca1e05650888c59632891b3105948", "lon": -77.025926, "is_disabled": 0, "type": "electric_scooter"}, {"bike_id": "17338dcf3dd687ab32d7a778cf5eea40", "lat": 38.901575666666666, "is_reserved": 0, "fusion_lat": 0.0, "rental_uris": {"android": "https://dc.lft.to/lastmile_qr_scan", "ios": "https://dc.lft.to/lastmile_qr_scan"}, "fusion_lon": 0.0, "name": "17338dcf3dd687ab32d7a778cf5eea40", "lon": -77.0249165, "is_disabled": 0, "type": "electric_scooter"}, {"bike_id": "48d5da6e02db765b0d17b173c0620e87", "lat": 38.921587833333334, "is_reserved": 0, "fusion_lat": 0.0, "rental_uris": {"android": "https://dc.lft.to/lastmile_qr_scan", "ios": "https://dc.lft.to/lastmile_qr_scan"}, "fusion_lon": 0.0, "name": "48d5da6e02db765b0d17b173c0620e87", "lon": -77.03383216666667, "is_disabled": 0, "type": "electric_scooter"}, {"bike_id": "03d864f4fed90d6f1c23f6c9e670aa60", "lat": 38.87388516666667, "is_reserved": 0, "fusion_lat": 0.0, "rental_uris": {"android": "https://dc.lft.to/lastmile_qr_scan", "ios": "https://dc.lft.to/lastmile_qr_scan"}, "fusion_lon": 0.0, "name": "03d864f4fed90d6f1c23f6c9e670aa60", "lon": -77.00042233333333, "is_disabled": 0, "type": "electric_scooter"}, {"bike_id": "09e7308b6388a1ed35b009d9713ef74b", "lat": 38.897512, "is_reserved": 0, "fusion_lat": 0.0, "rental_uris": {"android": "https://dc.lft.to/lastmile_qr_scan", "ios": "https://dc.lft.to/lastmile_qr_scan"}, "fusion_lon": 0.0, "name": "09e7308b6388a1ed35b009d9713ef74b", "lon": -77.02980483333333, "is_disabled": 0, "type": "electric_scooter"}, {"bike_id": "c14ead3aba2463706c131dbd79e80d9c", "lat": 38.905266166666664, "is_reserved": 0, "fusion_lat": 0.0, "rental_uris": {"android": "https://dc.lft.to/lastmile_qr_scan", "ios": "https://dc.lft.to/lastmile_qr_scan"}, "fusion_lon": 0.0, "name": "c14ead3aba2463706c131dbd79e80d9c", "lon": -77.05986366666667, "is_disabled": 0, "type": "electric_scooter"}, {"bike_id": "c51cd714c45b369f4be53cbc64a148e8", "lat": 38.921628, "is_reserved": 0, "fusion_lat": 0.0, "rental_uris": {"android": "https://dc.lft.to/lastmile_qr_scan", "ios": "https://dc.lft.to/lastmile_qr_scan"}, "fusion_lon": 0.0, "name": "c51cd714c45b369f4be53cbc64a148e8", "lon": -77.02090883333334, "is_disabled": 0, "type": "electric_scooter"}, {"bike_id": "b983e27735be35edc88631f940e074e6", "lat": 38.9066465, "is_reserved": 0, "fusion_lat": 0.0, "rental_uris": {"android": "https://dc.lft.to/lastmile_qr_scan", "ios": "https://dc.lft.to/lastmile_qr_scan"}, "fusion_lon": 0.0, "name": "b983e27735be35edc88631f940e074e6", "lon": -77.02692, "is_disabled": 0, "type": "electric_scooter"}, {"bike_id": "b7b68c3b869f7c4acbe822cf511ad161", "lat": 38.901722, "is_reserved": 0, "fusion_lat": 0.0, "rental_uris": {"android": "https://dc.lft.to/lastmile_qr_scan", "ios": "https://dc.lft.to/lastmile_qr_scan"}, "fusion_lon": 0.0, "name": "b7b68c3b869f7c4acbe822cf511ad161", "lon": -76.92657383333334, "is_disabled": 0, "type": "electric_scooter"}, {"bike_id": "c0eb04529656be33d26e78d8af9397a4", "lat": 38.88185166666667, "is_reserved": 0, "fusion_lat": 0.0, "rental_uris": {"android": "https://dc.lft.to/lastmile_qr_scan", "ios": "https://dc.lft.to/lastmile_qr_scan"}, "fusion_lon": 0.0, "name": "c0eb04529656be33d26e78d8af9397a4", "lon": -77.02082533333333, "is_disabled": 0, "type": "electric_scooter"}, {"bike_id": "b2f96592f14e4c4a9ceebc3360fd5a37", "lat": 38.9156495, "is_reserved": 0, "fusion_lat": 0.0, "rental_uris": {"android": "https://dc.lft.to/lastmile_qr_scan", "ios": "https://dc.lft.to/lastmile_qr_scan"}, "fusion_lon": 0.0, "name": "b2f96592f14e4c4a9ceebc3360fd5a37", "lon": -77.038326, "is_disabled": 0, "type": "electric_scooter"}, {"bike_id": "72297e41967dc78b12bec2b3d1adcf5e", "lat": 38.910982, "is_reserved": 0, "fusion_lat": 0.0, "rental_uris": {"android": "https://dc.lft.to/lastmile_qr_scan", "ios": "https://dc.lft.to/lastmile_qr_scan"}, "fusion_lon": 0.0, "name": "72297e41967dc78b12bec2b3d1adcf5e", "lon": -77.0319295, "is_disabled": 0, "type": "electric_scooter"}, {"bike_id": "682514cf644e5cb09e35710346bfccad", "lat": 38.8999575, "is_reserved": 0, "fusion_lat": 0.0, "rental_uris": {"android": "https://dc.lft.to/lastmile_qr_scan", "ios": "https://dc.lft.to/lastmile_qr_scan"}, "fusion_lon": 0.0, "name": "682514cf644e5cb09e35710346bfccad", "lon": -77.0119985, "is_disabled": 0, "type": "electric_scooter"}, {"bike_id": "4927f1ecdd3066c15a006db48d2a1d53", "lat": 38.891921833333335, "is_reserved": 0, "fusion_lat": 0.0, "rental_uris": {"android": "https://dc.lft.to/lastmile_qr_scan", "ios": "https://dc.lft.to/lastmile_qr_scan"}, "fusion_lon": 0.0, "name": "4927f1ecdd3066c15a006db48d2a1d53", "lon": -77.0240405, "is_disabled": 0, "type": "electric_scooter"}, {"bike_id": "8e149d22a8b6c618e72217cca5316d84", "lat": 38.90137683333333, "is_reserved": 0, "fusion_lat": 0.0, "rental_uris": {"android": "https://dc.lft.to/lastmile_qr_scan", "ios": "https://dc.lft.to/lastmile_qr_scan"}, "fusion_lon": 0.0, "name": "8e149d22a8b6c618e72217cca5316d84", "lon": -77.04199, "is_disabled": 0, "type": "electric_scooter"}, {"bike_id": "c2c9cf576fd6c2804998c8649365a937", "lat": 38.92230266666667, "is_reserved": 0, "fusion_lat": 0.0, "rental_uris": {"android": "https://dc.lft.to/lastmile_qr_scan", "ios": "https://dc.lft.to/lastmile_qr_scan"}, "fusion_lon": 0.0, "name": "c2c9cf576fd6c2804998c8649365a937", "lon": -77.042667, "is_disabled": 0, "type": "electric_scooter"}, {"bike_id": "11346dc2802e9c518e7b8f49fdb99f6e", "lat": 38.9333615, "is_reserved": 0, "fusion_lat": 0.0, "rental_uris": {"android": "https://dc.lft.to/lastmile_qr_scan", "ios": "https://dc.lft.to/lastmile_qr_scan"}, "fusion_lon": 0.0, "name": "11346dc2802e9c518e7b8f49fdb99f6e", "lon": -77.0398775, "is_disabled": 0, "type": "electric_scooter"}, {"bike_id": "39b29a6303585219bc07356c36160b0a", "lat": 38.915531, "is_reserved": 0, "fusion_lat": 0.0, "rental_uris": {"android": "https://dc.lft.to/lastmile_qr_scan", "ios": "https://dc.lft.to/lastmile_qr_scan"}, "fusion_lon": 0.0, "name": "39b29a6303585219bc07356c36160b0a", "lon": -77.04455216666666, "is_disabled": 0, "type": "electric_scooter"}, {"bike_id": "3b2af99edeb7d5fce6b9ac9d328ce10b", "lat": 38.919005166666665, "is_reserved": 0, "fusion_lat": 0.0, "rental_uris": {"android": "https://dc.lft.to/lastmile_qr_scan", "ios": "https://dc.lft.to/lastmile_qr_scan"}, "fusion_lon": 0.0, "name": "3b2af99edeb7d5fce6b9ac9d328ce10b", "lon": -77.01685483333333, "is_disabled": 0, "type": "electric_scooter"}, {"bike_id": "e633735efc33d8a4511e076f727993b2", "lat": 38.89736583333333, "is_reserved": 0, "fusion_lat": 0.0, "rental_uris": {"android": "https://dc.lft.to/lastmile_qr_scan", "ios": "https://dc.lft.to/lastmile_qr_scan"}, "fusion_lon": 0.0, "name": "e633735efc33d8a4511e076f727993b2", "lon": -77.02455733333333, "is_disabled": 0, "type": "electric_scooter"}, {"bike_id": "c271964f720e9ab501259b1c1592523b", "lat": 38.873699333333334, "is_reserved": 0, "fusion_lat": 0.0, "rental_uris": {"android": "https://dc.lft.to/lastmile_qr_scan", "ios": "https://dc.lft.to/lastmile_qr_scan"}, "fusion_lon": 0.0, "name": "c271964f720e9ab501259b1c1592523b", "lon": -77.001041, "is_disabled": 0, "type": "electric_scooter"}, {"bike_id": "667bc67f5937fd8203d522ce9d46c884", "lat": 38.892878833333334, "is_reserved": 0, "fusion_lat": 0.0, "rental_uris": {"android": "https://dc.lft.to/lastmile_qr_scan", "ios": "https://dc.lft.to/lastmile_qr_scan"}, "fusion_lon": 0.0, "name": "667bc67f5937fd8203d522ce9d46c884", "lon": -77.04485616666666, "is_disabled": 0, "type": "electric_scooter"}, {"bike_id": "a9d052d253ca11d3cb208d3abcf87902", "lat": 38.90135983333333, "is_reserved": 0, "fusion_lat": 0.0, "rental_uris": {"android": "https://dc.lft.to/lastmile_qr_scan", "ios": "https://dc.lft.to/lastmile_qr_scan"}, "fusion_lon": 0.0, "name": "a9d052d253ca11d3cb208d3abcf87902", "lon": -77.04466366666666, "is_disabled": 0, "type": "electric_scooter"}, {"bike_id": "de7065a97a0fbb1b185a4e948a6474d0", "lat": 38.920075833333335, "is_reserved": 0, "fusion_lat": 0.0, "rental_uris": {"android": "https://dc.lft.to/lastmile_qr_scan", "ios": "https://dc.lft.to/lastmile_qr_scan"}, "fusion_lon": 0.0, "name": "de7065a97a0fbb1b185a4e948a6474d0", "lon": -77.03213633333333, "is_disabled": 0, "type": "electric_scooter"}, {"bike_id": "0cd45c023c32eea011a6919b9cb99121", "lat": 38.942948666666666, "is_reserved": 0, "fusion_lat": 0.0, "rental_uris": {"android": "https://dc.lft.to/lastmile_qr_scan", "ios": "https://dc.lft.to/lastmile_qr_scan"}, "fusion_lon": 0.0, "name": "0cd45c023c32eea011a6919b9cb99121", "lon": -77.02174083333334, "is_disabled": 0, "type": "electric_scooter"}, {"bike_id": "377a01a380e0cf852b76311847416aaf", "lat": 38.89723816666667, "is_reserved": 0, "fusion_lat": 0.0, "rental_uris": {"android": "https://dc.lft.to/lastmile_qr_scan", "ios": "https://dc.lft.to/lastmile_qr_scan"}, "fusion_lon": 0.0, "name": "377a01a380e0cf852b76311847416aaf", "lon": -77.021665, "is_disabled": 0, "type": "electric_scooter"}, {"bike_id": "12863da31ed091362f9f88e10b9356a1", "lat": 38.91705366666667, "is_reserved": 0, "fusion_lat": 0.0, "rental_uris": {"android": "https://dc.lft.to/lastmile_qr_scan", "ios": "https://dc.lft.to/lastmile_qr_scan"}, "fusion_lon": 0.0, "name": "12863da31ed091362f9f88e10b9356a1", "lon": -77.03474733333333, "is_disabled": 0, "type": "electric_scooter"}, {"bike_id": "57fe619097950e5baf37b0a57427af7e", "lat": 38.9419785, "is_reserved": 0, "fusion_lat": 0.0, "rental_uris": {"android": "https://dc.lft.to/lastmile_qr_scan", "ios": "https://dc.lft.to/lastmile_qr_scan"}, "fusion_lon": 0.0, "name": "57fe619097950e5baf37b0a57427af7e", "lon": -77.02433916666666, "is_disabled": 0, "type": "electric_scooter"}, {"bike_id": "69a13992f9623c870da0a31eedf60d3e", "lat": 38.90531816666667, "is_reserved": 0, "fusion_lat": 0.0, "rental_uris": {"android": "https://dc.lft.to/lastmile_qr_scan", "ios": "https://dc.lft.to/lastmile_qr_scan"}, "fusion_lon": 0.0, "name": "69a13992f9623c870da0a31eedf60d3e", "lon": -77.041657, "is_disabled": 0, "type": "electric_scooter"}, {"bike_id": "b7cdd17b3042780fa35638bf639bb36b", "lat": 38.902081, "is_reserved": 0, "fusion_lat": 0.0, "rental_uris": {"android": "https://dc.lft.to/lastmile_qr_scan", "ios": "https://dc.lft.to/lastmile_qr_scan"}, "fusion_lon": 0.0, "name": "b7cdd17b3042780fa35638bf639bb36b", "lon": -76.97411316666667, "is_disabled": 0, "type": "electric_bike"}, {"bike_id": "25587f10c38608dd6f3d44f92288e80a", "lat": 38.9245785, "is_reserved": 0, "fusion_lat": 0.0, "rental_uris": {"android": "https://dc.lft.to/lastmile_qr_scan", "ios": "https://dc.lft.to/lastmile_qr_scan"}, "fusion_lon": 0.0, "name": "25587f10c38608dd6f3d44f92288e80a", "lon": -77.22569016666667, "is_disabled": 0, "type": "electric_bike"}, {"bike_id": "3d19874877da16d68c0d51fd38d75cfe", "lat": 38.9068845, "is_reserved": 0, "fusion_lat": 0.0, "rental_uris": {"android": "https://dc.lft.to/lastmile_qr_scan", "ios": "https://dc.lft.to/lastmile_qr_scan"}, "fusion_lon": 0.0, "name": "3d19874877da16d68c0d51fd38d75cfe", "lon": -77.02380483333333, "is_disabled": 0, "type": "electric_scooter"}, {"bike_id": "85c4b3093daf377db0838a82341bccaf", "lat": 38.906513833333335, "is_reserved": 0, "fusion_lat": 0.0, "rental_uris": {"android": "https://dc.lft.to/lastmile_qr_scan", "ios": "https://dc.lft.to/lastmile_qr_scan"}, "fusion_lon": 0.0, "name": "85c4b3093daf377db0838a82341bccaf", "lon": -77.009749, "is_disabled": 0, "type": "electric_scooter"}, {"bike_id": "d121bc2ac2be4d058b585d7e701a104a", "lat": 38.936722, "is_reserved": 0, "fusion_lat": 0.0, "rental_uris": {"android": "https://dc.lft.to/lastmile_qr_scan", "ios": "https://dc.lft.to/lastmile_qr_scan"}, "fusion_lon": 0.0, "name": "d121bc2ac2be4d058b585d7e701a104a", "lon": -76.95208266666667, "is_disabled": 0, "type": "electric_bike"}, {"bike_id": "9b3c2d709a3f0bb65d701361ca3951a3", "lat": 38.9272655, "is_reserved": 0, "fusion_lat": 0.0, "rental_uris": {"android": "https://dc.lft.to/lastmile_qr_scan", "ios": "https://dc.lft.to/lastmile_qr_scan"}, "fusion_lon": 0.0, "name": "9b3c2d709a3f0bb65d701361ca3951a3", "lon": -77.0056335, "is_disabled": 0, "type": "electric_scooter"}, {"bike_id": "255d5dfae5362e0bbb48c5ecb07aebcb", "lat": 38.91686216666667, "is_reserved": 0, "fusion_lat": 0.0, "rental_uris": {"android": "https://dc.lft.to/lastmile_qr_scan", "ios": "https://dc.lft.to/lastmile_qr_scan"}, "fusion_lon": 0.0, "name": "255d5dfae5362e0bbb48c5ecb07aebcb", "lon": -77.0295815, "is_disabled": 0, "type": "electric_scooter"}, {"bike_id": "6ddb38725e572318a7798fe51ec66b9e", "lat": 38.903741, "is_reserved": 0, "fusion_lat": 0.0, "rental_uris": {"android": "https://dc.lft.to/lastmile_qr_scan", "ios": "https://dc.lft.to/lastmile_qr_scan"}, "fusion_lon": 0.0, "name": "6ddb38725e572318a7798fe51ec66b9e", "lon": -77.02941916666667, "is_disabled": 0, "type": "electric_scooter"}, {"bike_id": "6c5fd25a0b7b73073dde87cfa956cd2c", "lat": 38.926458333333336, "is_reserved": 0, "fusion_lat": 0.0, "rental_uris": {"android": "https://dc.lft.to/lastmile_qr_scan", "ios": "https://dc.lft.to/lastmile_qr_scan"}, "fusion_lon": 0.0, "name": "6c5fd25a0b7b73073dde87cfa956cd2c", "lon": -76.98423616666666, "is_disabled": 0, "type": "electric_bike"}, {"bike_id": "09548a01476a935ec035581bb871fe50", "lat": 38.87647616666667, "is_reserved": 0, "fusion_lat": 0.0, "rental_uris": {"android": "https://dc.lft.to/lastmile_qr_scan", "ios": "https://dc.lft.to/lastmile_qr_scan"}, "fusion_lon": 0.0, "name": "09548a01476a935ec035581bb871fe50", "lon": -76.96505016666667, "is_disabled": 0, "type": "electric_scooter"}, {"bike_id": "b60a3063e04a1d4eeeea8c829d9a5933", "lat": 38.861983, "is_reserved": 0, "fusion_lat": 0.0, "rental_uris": {"android": "https://dc.lft.to/lastmile_qr_scan", "ios": "https://dc.lft.to/lastmile_qr_scan"}, "fusion_lon": 0.0, "name": "b60a3063e04a1d4eeeea8c829d9a5933", "lon": -76.95953933333334, "is_disabled": 0, "type": "electric_scooter"}, {"bike_id": "e7ba098fa474228d0186181a8e7a56e1", "lat": 38.90025333333333, "is_reserved": 0, "fusion_lat": 0.0, "rental_uris": {"android": "https://dc.lft.to/lastmile_qr_scan", "ios": "https://dc.lft.to/lastmile_qr_scan"}, "fusion_lon": 0.0, "name": "e7ba098fa474228d0186181a8e7a56e1", "lon": -76.99869533333333, "is_disabled": 0, "type": "electric_scooter"}, {"bike_id": "06f0855d95d7c8071b247fe7d21bdb7d", "lat": 38.86242766666667, "is_reserved": 0, "fusion_lat": 0.0, "rental_uris": {"android": "https://dc.lft.to/lastmile_qr_scan", "ios": "https://dc.lft.to/lastmile_qr_scan"}, "fusion_lon": 0.0, "name": "06f0855d95d7c8071b247fe7d21bdb7d", "lon": -76.99499333333333, "is_disabled": 0, "type": "electric_scooter"}, {"bike_id": "22da8ac85ef841e20484febec7392b65", "lat": 38.928838999999996, "is_reserved": 0, "fusion_lat": 0.0, "rental_uris": {"android": "https://dc.lft.to/lastmile_qr_scan", "ios": "https://dc.lft.to/lastmile_qr_scan"}, "fusion_lon": 0.0, "name": "22da8ac85ef841e20484febec7392b65", "lon": -77.03340316666667, "is_disabled": 0, "type": "electric_scooter"}, {"bike_id": "1ca29e7faf6ebbac039b9792ab02083f", "lat": 38.902685166666664, "is_reserved": 0, "fusion_lat": 0.0, "rental_uris": {"android": "https://dc.lft.to/lastmile_qr_scan", "ios": "https://dc.lft.to/lastmile_qr_scan"}, "fusion_lon": 0.0, "name": "1ca29e7faf6ebbac039b9792ab02083f", "lon": -77.0336045, "is_disabled": 0, "type": "electric_scooter"}, {"bike_id": "e425647cc1c14a8c836e50968cbfc0fe", "lat": 38.9003505, "is_reserved": 0, "fusion_lat": 0.0, "rental_uris": {"android": "https://dc.lft.to/lastmile_qr_scan", "ios": "https://dc.lft.to/lastmile_qr_scan"}, "fusion_lon": 0.0, "name": "e425647cc1c14a8c836e50968cbfc0fe", "lon": -77.00217916666666, "is_disabled": 0, "type": "electric_scooter"}, {"bike_id": "75a4edd9633033eafd0cb86abdd2688c", "lat": 38.8962825, "is_reserved": 0, "fusion_lat": 0.0, "rental_uris": {"android": "https://dc.lft.to/lastmile_qr_scan", "ios": "https://dc.lft.to/lastmile_qr_scan"}, "fusion_lon": 0.0, "name": "75a4edd9633033eafd0cb86abdd2688c", "lon": -77.02205066666667, "is_disabled": 0, "type": "electric_scooter"}, {"bike_id": "51256d7b62c95d5931b0725ffddbcc13", "lat": 38.96849483333333, "is_reserved": 0, "fusion_lat": 0.0, "rental_uris": {"android": "https://dc.lft.to/lastmile_qr_scan", "ios": "https://dc.lft.to/lastmile_qr_scan"}, "fusion_lon": 0.0, "name": "51256d7b62c95d5931b0725ffddbcc13", "lon": -77.02721966666667, "is_disabled": 0, "type": "electric_scooter"}, {"bike_id": "e4ea78c040bec8afe5f44c3eb9a88c6d", "lat": 38.91341233333333, "is_reserved": 0, "fusion_lat": 0.0, "rental_uris": {"android": "https://dc.lft.to/lastmile_qr_scan", "ios": "https://dc.lft.to/lastmile_qr_scan"}, "fusion_lon": 0.0, "name": "e4ea78c040bec8afe5f44c3eb9a88c6d", "lon": -77.07108516666666, "is_disabled": 0, "type": "electric_scooter"}, {"bike_id": "2fed98cbe4a358c4618ff550fb759e6b", "lat": 38.89964533333333, "is_reserved": 0, "fusion_lat": 0.0, "rental_uris": {"android": "https://dc.lft.to/lastmile_qr_scan", "ios": "https://dc.lft.to/lastmile_qr_scan"}, "fusion_lon": 0.0, "name": "2fed98cbe4a358c4618ff550fb759e6b", "lon": -77.04718416666667, "is_disabled": 0, "type": "electric_scooter"}, {"bike_id": "c9a95c70a71732bf84719ea12a9a88b6", "lat": 38.92217466666666, "is_reserved": 0, "fusion_lat": 0.0, "rental_uris": {"android": "https://dc.lft.to/lastmile_qr_scan", "ios": "https://dc.lft.to/lastmile_qr_scan"}, "fusion_lon": 0.0, "name": "c9a95c70a71732bf84719ea12a9a88b6", "lon": -77.042467, "is_disabled": 0, "type": "electric_scooter"}, {"bike_id": "1ddf8d9b14e198711652a8e6c3ae9684", "lat": 38.8324315, "is_reserved": 0, "fusion_lat": 0.0, "rental_uris": {"android": "https://dc.lft.to/lastmile_qr_scan", "ios": "https://dc.lft.to/lastmile_qr_scan"}, "fusion_lon": 0.0, "name": "1ddf8d9b14e198711652a8e6c3ae9684", "lon": -76.9462705, "is_disabled": 0, "type": "electric_bike"}, {"bike_id": "79d171b5c72294fac5810bb20e543531", "lat": 39.03428366666667, "is_reserved": 0, "fusion_lat": 0.0, "rental_uris": {"android": "https://dc.lft.to/lastmile_qr_scan", "ios": "https://dc.lft.to/lastmile_qr_scan"}, "fusion_lon": 0.0, "name": "79d171b5c72294fac5810bb20e543531", "lon": -77.04314183333334, "is_disabled": 0, "type": "electric_bike"}, {"bike_id": "83ef973e1fbca6a741ec72890b6d94ff", "lat": 38.90569966666666, "is_reserved": 0, "fusion_lat": 0.0, "rental_uris": {"android": "https://dc.lft.to/lastmile_qr_scan", "ios": "https://dc.lft.to/lastmile_qr_scan"}, "fusion_lon": 0.0, "name": "83ef973e1fbca6a741ec72890b6d94ff", "lon": -76.97784033333333, "is_disabled": 0, "type": "electric_scooter"}, {"bike_id": "aec3b52d001f2183521ac1552c00ad16", "lat": 38.9211405, "is_reserved": 0, "fusion_lat": 0.0, "rental_uris": {"android": "https://dc.lft.to/lastmile_qr_scan", "ios": "https://dc.lft.to/lastmile_qr_scan"}, "fusion_lon": 0.0, "name": "aec3b52d001f2183521ac1552c00ad16", "lon": -77.01774033333334, "is_disabled": 0, "type": "electric_scooter"}, {"bike_id": "df8b5873bc2a8f5edaada7dbe3609dc9", "lat": 38.87755816666667, "is_reserved": 0, "fusion_lat": 0.0, "rental_uris": {"android": "https://dc.lft.to/lastmile_qr_scan", "ios": "https://dc.lft.to/lastmile_qr_scan"}, "fusion_lon": 0.0, "name": "df8b5873bc2a8f5edaada7dbe3609dc9", "lon": -76.98683916666667, "is_disabled": 0, "type": "electric_scooter"}, {"bike_id": "3098b858510b98a0ee982e038d2c9432", "lat": 38.91920616666667, "is_reserved": 0, "fusion_lat": 0.0, "rental_uris": {"android": "https://dc.lft.to/lastmile_qr_scan", "ios": "https://dc.lft.to/lastmile_qr_scan"}, "fusion_lon": 0.0, "name": "3098b858510b98a0ee982e038d2c9432", "lon": -77.02395883333334, "is_disabled": 0, "type": "electric_scooter"}, {"bike_id": "77c12f6f8f6fe49731109dc164d15a06", "lat": 38.89568766666667, "is_reserved": 0, "fusion_lat": 0.0, "rental_uris": {"android": "https://dc.lft.to/lastmile_qr_scan", "ios": "https://dc.lft.to/lastmile_qr_scan"}, "fusion_lon": 0.0, "name": "77c12f6f8f6fe49731109dc164d15a06", "lon": -76.93028366666667, "is_disabled": 0, "type": "electric_scooter"}, {"bike_id": "04b564c10a7faca5161dc5c4383fd7e3", "lat": 38.921784333333335, "is_reserved": 0, "fusion_lat": 0.0, "rental_uris": {"android": "https://dc.lft.to/lastmile_qr_scan", "ios": "https://dc.lft.to/lastmile_qr_scan"}, "fusion_lon": 0.0, "name": "04b564c10a7faca5161dc5c4383fd7e3", "lon": -77.02655933333334, "is_disabled": 0, "type": "electric_scooter"}, {"bike_id": "a1ad4fabf9c8e3b584789b0ded415800", "lat": 38.914168833333335, "is_reserved": 0, "fusion_lat": 0.0, "rental_uris": {"android": "https://dc.lft.to/lastmile_qr_scan", "ios": "https://dc.lft.to/lastmile_qr_scan"}, "fusion_lon": 0.0, "name": "a1ad4fabf9c8e3b584789b0ded415800", "lon": -77.02409516666667, "is_disabled": 0, "type": "electric_scooter"}, {"bike_id": "e8097256ba3dc071024f83363f776c86", "lat": 38.90023583333333, "is_reserved": 0, "fusion_lat": 0.0, "rental_uris": {"android": "https://dc.lft.to/lastmile_qr_scan", "ios": "https://dc.lft.to/lastmile_qr_scan"}, "fusion_lon": 0.0, "name": "e8097256ba3dc071024f83363f776c86", "lon": -77.038095, "is_disabled": 0, "type": "electric_scooter"}, {"bike_id": "943424195e758cdd98d884897b0297a3", "lat": 38.900409, "is_reserved": 0, "fusion_lat": 0.0, "rental_uris": {"android": "https://dc.lft.to/lastmile_qr_scan", "ios": "https://dc.lft.to/lastmile_qr_scan"}, "fusion_lon": 0.0, "name": "943424195e758cdd98d884897b0297a3", "lon": -77.00189983333334, "is_disabled": 0, "type": "electric_scooter"}, {"bike_id": "64cea8ee4ba921688c505a70f6c5b009", "lat": 38.898331666666664, "is_reserved": 0, "fusion_lat": 0.0, "rental_uris": {"android": "https://dc.lft.to/lastmile_qr_scan", "ios": "https://dc.lft.to/lastmile_qr_scan"}, "fusion_lon": 0.0, "name": "64cea8ee4ba921688c505a70f6c5b009", "lon": -77.03045466666667, "is_disabled": 0, "type": "electric_scooter"}, {"bike_id": "9bbd288964224721e93b7c68e2819558", "lat": 38.903901166666664, "is_reserved": 0, "fusion_lat": 0.0, "rental_uris": {"android": "https://dc.lft.to/lastmile_qr_scan", "ios": "https://dc.lft.to/lastmile_qr_scan"}, "fusion_lon": 0.0, "name": "9bbd288964224721e93b7c68e2819558", "lon": -77.04851333333333, "is_disabled": 0, "type": "electric_scooter"}, {"bike_id": "5d5b30b43adfa4b6244cdc57dd700cf3", "lat": 38.912641666666666, "is_reserved": 0, "fusion_lat": 0.0, "rental_uris": {"android": "https://dc.lft.to/lastmile_qr_scan", "ios": "https://dc.lft.to/lastmile_qr_scan"}, "fusion_lon": 0.0, "name": "5d5b30b43adfa4b6244cdc57dd700cf3", "lon": -77.03240016666666, "is_disabled": 0, "type": "electric_scooter"}, {"bike_id": "42719982d87e312f1b6c6bf08e07f5aa", "lat": 38.919981666666665, "is_reserved": 0, "fusion_lat": 0.0, "rental_uris": {"android": "https://dc.lft.to/lastmile_qr_scan", "ios": "https://dc.lft.to/lastmile_qr_scan"}, "fusion_lon": 0.0, "name": "42719982d87e312f1b6c6bf08e07f5aa", "lon": -77.0318775, "is_disabled": 0, "type": "electric_scooter"}, {"bike_id": "6dece7a4583b5ae9ff9d317bd9bfc63b", "lat": 38.94941383333333, "is_reserved": 0, "fusion_lat": 0.0, "rental_uris": {"android": "https://dc.lft.to/lastmile_qr_scan", "ios": "https://dc.lft.to/lastmile_qr_scan"}, "fusion_lon": 0.0, "name": "6dece7a4583b5ae9ff9d317bd9bfc63b", "lon": -77.0202865, "is_disabled": 0, "type": "electric_scooter"}, {"bike_id": "cf7f1ef20017f67b82160c75e1f08880", "lat": 38.90853883333333, "is_reserved": 0, "fusion_lat": 0.0, "rental_uris": {"android": "https://dc.lft.to/lastmile_qr_scan", "ios": "https://dc.lft.to/lastmile_qr_scan"}, "fusion_lon": 0.0, "name": "cf7f1ef20017f67b82160c75e1f08880", "lon": -76.997999, "is_disabled": 0, "type": "electric_scooter"}, {"bike_id": "e58a3b1dc16853460a9b2dee5206dcff", "lat": 38.90729866666667, "is_reserved": 0, "fusion_lat": 0.0, "rental_uris": {"android": "https://dc.lft.to/lastmile_qr_scan", "ios": "https://dc.lft.to/lastmile_qr_scan"}, "fusion_lon": 0.0, "name": "e58a3b1dc16853460a9b2dee5206dcff", "lon": -76.99814233333333, "is_disabled": 0, "type": "electric_scooter"}, {"bike_id": "248381cf51a5163d4a99b60c39867d6e", "lat": 38.92864133333333, "is_reserved": 0, "fusion_lat": 0.0, "rental_uris": {"android": "https://dc.lft.to/lastmile_qr_scan", "ios": "https://dc.lft.to/lastmile_qr_scan"}, "fusion_lon": 0.0, "name": "248381cf51a5163d4a99b60c39867d6e", "lon": -77.00556066666667, "is_disabled": 0, "type": "electric_scooter"}, {"bike_id": "7069dc28317cf0693294a33fbd4f8fa8", "lat": 38.94197116666667, "is_reserved": 0, "fusion_lat": 0.0, "rental_uris": {"android": "https://dc.lft.to/lastmile_qr_scan", "ios": "https://dc.lft.to/lastmile_qr_scan"}, "fusion_lon": 0.0, "name": "7069dc28317cf0693294a33fbd4f8fa8", "lon": -77.036569, "is_disabled": 0, "type": "electric_scooter"}, {"bike_id": "8aac7a72217253a6909e56e28fc7b425", "lat": 38.915674, "is_reserved": 0, "fusion_lat": 0.0, "rental_uris": {"android": "https://dc.lft.to/lastmile_qr_scan", "ios": "https://dc.lft.to/lastmile_qr_scan"}, "fusion_lon": 0.0, "name": "8aac7a72217253a6909e56e28fc7b425", "lon": -77.0259395, "is_disabled": 0, "type": "electric_scooter"}, {"bike_id": "ec5ef346044c60ba16370eb7c118b081", "lat": 38.915709666666665, "is_reserved": 0, "fusion_lat": 0.0, "rental_uris": {"android": "https://dc.lft.to/lastmile_qr_scan", "ios": "https://dc.lft.to/lastmile_qr_scan"}, "fusion_lon": 0.0, "name": "ec5ef346044c60ba16370eb7c118b081", "lon": -77.01254483333334, "is_disabled": 0, "type": "electric_scooter"}, {"bike_id": "c7d62d63aa03499291b603935200147c", "lat": 38.868699166666666, "is_reserved": 0, "fusion_lat": 0.0, "rental_uris": {"android": "https://dc.lft.to/lastmile_qr_scan", "ios": "https://dc.lft.to/lastmile_qr_scan"}, "fusion_lon": 0.0, "name": "c7d62d63aa03499291b603935200147c", "lon": -76.97084333333333, "is_disabled": 0, "type": "electric_bike"}, {"bike_id": "2b18ce1f8eeb08e7b7918404f6fa0b35", "lat": 38.905546333333334, "is_reserved": 0, "fusion_lat": 0.0, "rental_uris": {"android": "https://dc.lft.to/lastmile_qr_scan", "ios": "https://dc.lft.to/lastmile_qr_scan"}, "fusion_lon": 0.0, "name": "2b18ce1f8eeb08e7b7918404f6fa0b35", "lon": -77.040932, "is_disabled": 0, "type": "electric_scooter"}, {"bike_id": "6fbc20af2f2027aed90f20b75ba0242f", "lat": 38.900338166666664, "is_reserved": 0, "fusion_lat": 0.0, "rental_uris": {"android": "https://dc.lft.to/lastmile_qr_scan", "ios": "https://dc.lft.to/lastmile_qr_scan"}, "fusion_lon": 0.0, "name": "6fbc20af2f2027aed90f20b75ba0242f", "lon": -77.03806833333333, "is_disabled": 0, "type": "electric_scooter"}, {"bike_id": "2a0a3bcba2b4bb1f93886f249a7caa84", "lat": 38.93888716666667, "is_reserved": 0, "fusion_lat": 0.0, "rental_uris": {"android": "https://dc.lft.to/lastmile_qr_scan", "ios": "https://dc.lft.to/lastmile_qr_scan"}, "fusion_lon": 0.0, "name": "2a0a3bcba2b4bb1f93886f249a7caa84", "lon": -77.024822, "is_disabled": 0, "type": "electric_scooter"}, {"bike_id": "522aa8c7704e514efe5a8b7ed1d053a7", "lat": 38.90549266666667, "is_reserved": 0, "fusion_lat": 0.0, "rental_uris": {"android": "https://dc.lft.to/lastmile_qr_scan", "ios": "https://dc.lft.to/lastmile_qr_scan"}, "fusion_lon": 0.0, "name": "522aa8c7704e514efe5a8b7ed1d053a7", "lon": -77.046929, "is_disabled": 0, "type": "electric_scooter"}, {"bike_id": "30d8c218da46c131e6ae35640c630fb0", "lat": 38.84319266666667, "is_reserved": 0, "fusion_lat": 0.0, "rental_uris": {"android": "https://dc.lft.to/lastmile_qr_scan", "ios": "https://dc.lft.to/lastmile_qr_scan"}, "fusion_lon": 0.0, "name": "30d8c218da46c131e6ae35640c630fb0", "lon": -76.99912933333333, "is_disabled": 0, "type": "electric_scooter"}, {"bike_id": "b68c82f98f731a5c348fb8a63eefdcab", "lat": 38.899479, "is_reserved": 0, "fusion_lat": 0.0, "rental_uris": {"android": "https://dc.lft.to/lastmile_qr_scan", "ios": "https://dc.lft.to/lastmile_qr_scan"}, "fusion_lon": 0.0, "name": "b68c82f98f731a5c348fb8a63eefdcab", "lon": -77.04536466666667, "is_disabled": 0, "type": "electric_scooter"}, {"bike_id": "43e41b31224869558fd5d65403884a24", "lat": 38.90284716666667, "is_reserved": 0, "fusion_lat": 0.0, "rental_uris": {"android": "https://dc.lft.to/lastmile_qr_scan", "ios": "https://dc.lft.to/lastmile_qr_scan"}, "fusion_lon": 0.0, "name": "43e41b31224869558fd5d65403884a24", "lon": -77.00613933333334, "is_disabled": 0, "type": "electric_scooter"}, {"bike_id": "d8bf6127ffe2d838426bc5d8d7646798", "lat": 38.89399733333333, "is_reserved": 0, "fusion_lat": 0.0, "rental_uris": {"android": "https://dc.lft.to/lastmile_qr_scan", "ios": "https://dc.lft.to/lastmile_qr_scan"}, "fusion_lon": 0.0, "name": "d8bf6127ffe2d838426bc5d8d7646798", "lon": -77.02120333333333, "is_disabled": 0, "type": "electric_scooter"}, {"bike_id": "da9c28864f8db661e3c638ef9123187a", "lat": 38.94800733333334, "is_reserved": 0, "fusion_lat": 0.0, "rental_uris": {"android": "https://dc.lft.to/lastmile_qr_scan", "ios": "https://dc.lft.to/lastmile_qr_scan"}, "fusion_lon": 0.0, "name": "da9c28864f8db661e3c638ef9123187a", "lon": -76.95542716666667, "is_disabled": 0, "type": "electric_bike"}, {"bike_id": "65fefb77ce6cb99c576ae0829da48442", "lat": 38.9246755, "is_reserved": 0, "fusion_lat": 0.0, "rental_uris": {"android": "https://dc.lft.to/lastmile_qr_scan", "ios": "https://dc.lft.to/lastmile_qr_scan"}, "fusion_lon": 0.0, "name": "65fefb77ce6cb99c576ae0829da48442", "lon": -77.03913516666667, "is_disabled": 0, "type": "electric_scooter"}, {"bike_id": "3d74540730a6d0cc78a5c7462dcc3779", "lat": 38.8512695, "is_reserved": 0, "fusion_lat": 0.0, "rental_uris": {"android": "https://dc.lft.to/lastmile_qr_scan", "ios": "https://dc.lft.to/lastmile_qr_scan"}, "fusion_lon": 0.0, "name": "3d74540730a6d0cc78a5c7462dcc3779", "lon": -76.97121866666667, "is_disabled": 0, "type": "electric_scooter"}, {"bike_id": "5c93ebd7208f1c879d6b3baa4127b873", "lat": 38.923192666666665, "is_reserved": 0, "fusion_lat": 0.0, "rental_uris": {"android": "https://dc.lft.to/lastmile_qr_scan", "ios": "https://dc.lft.to/lastmile_qr_scan"}, "fusion_lon": 0.0, "name": "5c93ebd7208f1c879d6b3baa4127b873", "lon": -77.04643016666667, "is_disabled": 0, "type": "electric_scooter"}, {"bike_id": "9f72cd2fc082ca0f1dc82c254854e413", "lat": 38.932493, "is_reserved": 0, "fusion_lat": 0.0, "rental_uris": {"android": "https://dc.lft.to/lastmile_qr_scan", "ios": "https://dc.lft.to/lastmile_qr_scan"}, "fusion_lon": 0.0, "name": "9f72cd2fc082ca0f1dc82c254854e413", "lon": -76.99513683333333, "is_disabled": 0, "type": "electric_scooter"}, {"bike_id": "db073734a0948b44bf3f305075dd9e2e", "lat": 38.90722566666667, "is_reserved": 0, "fusion_lat": 0.0, "rental_uris": {"android": "https://dc.lft.to/lastmile_qr_scan", "ios": "https://dc.lft.to/lastmile_qr_scan"}, "fusion_lon": 0.0, "name": "db073734a0948b44bf3f305075dd9e2e", "lon": -77.0225395, "is_disabled": 0, "type": "electric_scooter"}, {"bike_id": "b07c43f6038f6a30edb55d9df6a13d52", "lat": 38.892244833333336, "is_reserved": 0, "fusion_lat": 0.0, "rental_uris": {"android": "https://dc.lft.to/lastmile_qr_scan", "ios": "https://dc.lft.to/lastmile_qr_scan"}, "fusion_lon": 0.0, "name": "b07c43f6038f6a30edb55d9df6a13d52", "lon": -77.031743, "is_disabled": 0, "type": "electric_scooter"}, {"bike_id": "8e678a794f08aed48fea4dd9118dc459", "lat": 38.91719483333333, "is_reserved": 0, "fusion_lat": 0.0, "rental_uris": {"android": "https://dc.lft.to/lastmile_qr_scan", "ios": "https://dc.lft.to/lastmile_qr_scan"}, "fusion_lon": 0.0, "name": "8e678a794f08aed48fea4dd9118dc459", "lon": -77.0324185, "is_disabled": 0, "type": "electric_scooter"}, {"bike_id": "8351c5e24930a252d2b8a66b579ab796", "lat": 38.888178333333336, "is_reserved": 0, "fusion_lat": 0.0, "rental_uris": {"android": "https://dc.lft.to/lastmile_qr_scan", "ios": "https://dc.lft.to/lastmile_qr_scan"}, "fusion_lon": 0.0, "name": "8351c5e24930a252d2b8a66b579ab796", "lon": -76.93009683333334, "is_disabled": 0, "type": "electric_scooter"}, {"bike_id": "d81fcd8259fdd21e92fb95a0241cbf61", "lat": 38.9224075, "is_reserved": 0, "fusion_lat": 0.0, "rental_uris": {"android": "https://dc.lft.to/lastmile_qr_scan", "ios": "https://dc.lft.to/lastmile_qr_scan"}, "fusion_lon": 0.0, "name": "d81fcd8259fdd21e92fb95a0241cbf61", "lon": -77.03660716666667, "is_disabled": 0, "type": "electric_scooter"}, {"bike_id": "c78e4246ee49a334b2e1dfc759f0bf51", "lat": 38.92220566666667, "is_reserved": 0, "fusion_lat": 0.0, "rental_uris": {"android": "https://dc.lft.to/lastmile_qr_scan", "ios": "https://dc.lft.to/lastmile_qr_scan"}, "fusion_lon": 0.0, "name": "c78e4246ee49a334b2e1dfc759f0bf51", "lon": -77.03467116666667, "is_disabled": 0, "type": "electric_scooter"}, {"bike_id": "5a19fc4a1c68dca5e914ab7255130f65", "lat": 39.0398805, "is_reserved": 0, "fusion_lat": 0.0, "rental_uris": {"android": "https://dc.lft.to/lastmile_qr_scan", "ios": "https://dc.lft.to/lastmile_qr_scan"}, "fusion_lon": 0.0, "name": "5a19fc4a1c68dca5e914ab7255130f65", "lon": -76.99926916666666, "is_disabled": 0, "type": "electric_bike"}, {"bike_id": "488f52104123a615e46e9b6d3713a4d3", "lat": 38.90289966666667, "is_reserved": 0, "fusion_lat": 0.0, "rental_uris": {"android": "https://dc.lft.to/lastmile_qr_scan", "ios": "https://dc.lft.to/lastmile_qr_scan"}, "fusion_lon": 0.0, "name": "488f52104123a615e46e9b6d3713a4d3", "lon": -76.97638, "is_disabled": 0, "type": "electric_scooter"}, {"bike_id": "b1807a0fe0e3cd6ee12883a20168e454", "lat": 38.90064666666667, "is_reserved": 0, "fusion_lat": 0.0, "rental_uris": {"android": "https://dc.lft.to/lastmile_qr_scan", "ios": "https://dc.lft.to/lastmile_qr_scan"}, "fusion_lon": 0.0, "name": "b1807a0fe0e3cd6ee12883a20168e454", "lon": -77.0363395, "is_disabled": 0, "type": "electric_scooter"}, {"bike_id": "acc1a7262913985ff66371c567ca9852", "lat": 38.90740483333333, "is_reserved": 0, "fusion_lat": 0.0, "rental_uris": {"android": "https://dc.lft.to/lastmile_qr_scan", "ios": "https://dc.lft.to/lastmile_qr_scan"}, "fusion_lon": 0.0, "name": "acc1a7262913985ff66371c567ca9852", "lon": -77.04211533333333, "is_disabled": 0, "type": "electric_scooter"}, {"bike_id": "66adcfbe5129f36ec1059017263743cd", "lat": 38.915532, "is_reserved": 0, "fusion_lat": 0.0, "rental_uris": {"android": "https://dc.lft.to/lastmile_qr_scan", "ios": "https://dc.lft.to/lastmile_qr_scan"}, "fusion_lon": 0.0, "name": "66adcfbe5129f36ec1059017263743cd", "lon": -77.0220955, "is_disabled": 0, "type": "electric_scooter"}, {"bike_id": "6af2ddb2530aa6809be3175ee6db2547", "lat": 38.90564833333333, "is_reserved": 0, "fusion_lat": 0.0, "rental_uris": {"android": "https://dc.lft.to/lastmile_qr_scan", "ios": "https://dc.lft.to/lastmile_qr_scan"}, "fusion_lon": 0.0, "name": "6af2ddb2530aa6809be3175ee6db2547", "lon": -77.03472766666667, "is_disabled": 0, "type": "electric_scooter"}, {"bike_id": "6caf8357bf070b87e91b1c16f7f0b173", "lat": 38.87371616666667, "is_reserved": 0, "fusion_lat": 0.0, "rental_uris": {"android": "https://dc.lft.to/lastmile_qr_scan", "ios": "https://dc.lft.to/lastmile_qr_scan"}, "fusion_lon": 0.0, "name": "6caf8357bf070b87e91b1c16f7f0b173", "lon": -77.00112216666666, "is_disabled": 0, "type": "electric_scooter"}, {"bike_id": "ba19b7be89ea49a2753caca9ff790aca", "lat": 38.9243725, "is_reserved": 0, "fusion_lat": 0.0, "rental_uris": {"android": "https://dc.lft.to/lastmile_qr_scan", "ios": "https://dc.lft.to/lastmile_qr_scan"}, "fusion_lon": 0.0, "name": "ba19b7be89ea49a2753caca9ff790aca", "lon": -77.05212616666667, "is_disabled": 0, "type": "electric_scooter"}, {"bike_id": "41f3041eb8e5ab5f9d98a3de8d129499", "lat": 38.907364666666666, "is_reserved": 0, "fusion_lat": 0.0, "rental_uris": {"android": "https://dc.lft.to/lastmile_qr_scan", "ios": "https://dc.lft.to/lastmile_qr_scan"}, "fusion_lon": 0.0, "name": "41f3041eb8e5ab5f9d98a3de8d129499", "lon": -77.02392033333334, "is_disabled": 0, "type": "electric_scooter"}, {"bike_id": "8b0b24d51319fb3d53821b1847904642", "lat": 38.86744266666667, "is_reserved": 0, "fusion_lat": 0.0, "rental_uris": {"android": "https://dc.lft.to/lastmile_qr_scan", "ios": "https://dc.lft.to/lastmile_qr_scan"}, "fusion_lon": 0.0, "name": "8b0b24d51319fb3d53821b1847904642", "lon": -76.978591, "is_disabled": 0, "type": "electric_scooter"}, {"bike_id": "37c7ec744be30501c102a2b4e6dd35a5", "lat": 38.92595766666667, "is_reserved": 0, "fusion_lat": 0.0, "rental_uris": {"android": "https://dc.lft.to/lastmile_qr_scan", "ios": "https://dc.lft.to/lastmile_qr_scan"}, "fusion_lon": 0.0, "name": "37c7ec744be30501c102a2b4e6dd35a5", "lon": -77.02382233333333, "is_disabled": 0, "type": "electric_scooter"}, {"bike_id": "ac707ed04984cb57f3cd5d7c1762f649", "lat": 38.91423483333333, "is_reserved": 0, "fusion_lat": 0.0, "rental_uris": {"android": "https://dc.lft.to/lastmile_qr_scan", "ios": "https://dc.lft.to/lastmile_qr_scan"}, "fusion_lon": 0.0, "name": "ac707ed04984cb57f3cd5d7c1762f649", "lon": -77.01803116666666, "is_disabled": 0, "type": "electric_scooter"}, {"bike_id": "0ca913db561659388b428997ed0a3710", "lat": 38.84859183333333, "is_reserved": 0, "fusion_lat": 0.0, "rental_uris": {"android": "https://dc.lft.to/lastmile_qr_scan", "ios": "https://dc.lft.to/lastmile_qr_scan"}, "fusion_lon": 0.0, "name": "0ca913db561659388b428997ed0a3710", "lon": -77.11197583333333, "is_disabled": 0, "type": "electric_bike"}, {"bike_id": "321f85d0a2168a21ff8385ea783fe37e", "lat": 38.923183333333334, "is_reserved": 0, "fusion_lat": 0.0, "rental_uris": {"android": "https://dc.lft.to/lastmile_qr_scan", "ios": "https://dc.lft.to/lastmile_qr_scan"}, "fusion_lon": 0.0, "name": "321f85d0a2168a21ff8385ea783fe37e", "lon": -77.0381045, "is_disabled": 0, "type": "electric_scooter"}, {"bike_id": "591f7fdcbc131bfdeecc2421ae0cb8c9", "lat": 38.934642333333336, "is_reserved": 0, "fusion_lat": 0.0, "rental_uris": {"android": "https://dc.lft.to/lastmile_qr_scan", "ios": "https://dc.lft.to/lastmile_qr_scan"}, "fusion_lon": 0.0, "name": "591f7fdcbc131bfdeecc2421ae0cb8c9", "lon": -77.02774483333333, "is_disabled": 0, "type": "electric_scooter"}, {"bike_id": "59f91499c7b990d6ba87a2f871d7ef73", "lat": 38.9223435, "is_reserved": 0, "fusion_lat": 0.0, "rental_uris": {"android": "https://dc.lft.to/lastmile_qr_scan", "ios": "https://dc.lft.to/lastmile_qr_scan"}, "fusion_lon": 0.0, "name": "59f91499c7b990d6ba87a2f871d7ef73", "lon": -77.03516216666667, "is_disabled": 0, "type": "electric_scooter"}, {"bike_id": "c291e0feb66963c863dcff0fd726c687", "lat": 38.92403, "is_reserved": 0, "fusion_lat": 0.0, "rental_uris": {"android": "https://dc.lft.to/lastmile_qr_scan", "ios": "https://dc.lft.to/lastmile_qr_scan"}, "fusion_lon": 0.0, "name": "c291e0feb66963c863dcff0fd726c687", "lon": -77.01223533333334, "is_disabled": 0, "type": "electric_scooter"}, {"bike_id": "cb4f7317b0e59be88cd7c4f4841527de", "lat": 38.90111366666667, "is_reserved": 0, "fusion_lat": 0.0, "rental_uris": {"android": "https://dc.lft.to/lastmile_qr_scan", "ios": "https://dc.lft.to/lastmile_qr_scan"}, "fusion_lon": 0.0, "name": "cb4f7317b0e59be88cd7c4f4841527de", "lon": -77.03000566666667, "is_disabled": 0, "type": "electric_scooter"}, {"bike_id": "c0ad049436b2a147d2e4f2314ab24942", "lat": 38.917258, "is_reserved": 0, "fusion_lat": 0.0, "rental_uris": {"android": "https://dc.lft.to/lastmile_qr_scan", "ios": "https://dc.lft.to/lastmile_qr_scan"}, "fusion_lon": 0.0, "name": "c0ad049436b2a147d2e4f2314ab24942", "lon": -77.03188866666666, "is_disabled": 0, "type": "electric_scooter"}, {"bike_id": "60280972fe187f5f44fd3d9033452d56", "lat": 38.878825666666664, "is_reserved": 0, "fusion_lat": 0.0, "rental_uris": {"android": "https://dc.lft.to/lastmile_qr_scan", "ios": "https://dc.lft.to/lastmile_qr_scan"}, "fusion_lon": 0.0, "name": "60280972fe187f5f44fd3d9033452d56", "lon": -77.02232166666667, "is_disabled": 0, "type": "electric_scooter"}, {"bike_id": "31693c2c36d35936e3c0f9c847145a37", "lat": 38.88750566666667, "is_reserved": 0, "fusion_lat": 0.0, "rental_uris": {"android": "https://dc.lft.to/lastmile_qr_scan", "ios": "https://dc.lft.to/lastmile_qr_scan"}, "fusion_lon": 0.0, "name": "31693c2c36d35936e3c0f9c847145a37", "lon": -77.017275, "is_disabled": 0, "type": "electric_scooter"}, {"bike_id": "b0d555a744b9b61f4efdb55d9809a950", "lat": 38.928736666666666, "is_reserved": 0, "fusion_lat": 0.0, "rental_uris": {"android": "https://dc.lft.to/lastmile_qr_scan", "ios": "https://dc.lft.to/lastmile_qr_scan"}, "fusion_lon": 0.0, "name": "b0d555a744b9b61f4efdb55d9809a950", "lon": -77.03326866666667, "is_disabled": 0, "type": "electric_scooter"}, {"bike_id": "f42a15209313f4cecf4009635ee257c1", "lat": 38.90285883333333, "is_reserved": 0, "fusion_lat": 0.0, "rental_uris": {"android": "https://dc.lft.to/lastmile_qr_scan", "ios": "https://dc.lft.to/lastmile_qr_scan"}, "fusion_lon": 0.0, "name": "f42a15209313f4cecf4009635ee257c1", "lon": -77.0386775, "is_disabled": 0, "type": "electric_scooter"}, {"bike_id": "d85fed7d19ba335849143f3e92de7d96", "lat": 38.86531133333333, "is_reserved": 0, "fusion_lat": 0.0, "rental_uris": {"android": "https://dc.lft.to/lastmile_qr_scan", "ios": "https://dc.lft.to/lastmile_qr_scan"}, "fusion_lon": 0.0, "name": "d85fed7d19ba335849143f3e92de7d96", "lon": -76.97325283333333, "is_disabled": 0, "type": "electric_scooter"}, {"bike_id": "a7370d1c40a0e1c6165a90e4442e3ff1", "lat": 38.899151833333335, "is_reserved": 0, "fusion_lat": 0.0, "rental_uris": {"android": "https://dc.lft.to/lastmile_qr_scan", "ios": "https://dc.lft.to/lastmile_qr_scan"}, "fusion_lon": 0.0, "name": "a7370d1c40a0e1c6165a90e4442e3ff1", "lon": -77.04494133333333, "is_disabled": 0, "type": "electric_scooter"}, {"bike_id": "d610cbf35d52239053f9a399e99af255", "lat": 38.925359666666665, "is_reserved": 0, "fusion_lat": 0.0, "rental_uris": {"android": "https://dc.lft.to/lastmile_qr_scan", "ios": "https://dc.lft.to/lastmile_qr_scan"}, "fusion_lon": 0.0, "name": "d610cbf35d52239053f9a399e99af255", "lon": -77.03468433333333, "is_disabled": 0, "type": "electric_scooter"}, {"bike_id": "4efe2546722880f1131524df62440430", "lat": 38.923289, "is_reserved": 0, "fusion_lat": 0.0, "rental_uris": {"android": "https://dc.lft.to/lastmile_qr_scan", "ios": "https://dc.lft.to/lastmile_qr_scan"}, "fusion_lon": 0.0, "name": "4efe2546722880f1131524df62440430", "lon": -77.0195665, "is_disabled": 0, "type": "electric_scooter"}, {"bike_id": "ed3cbb0131e23e6021715049201694d5", "lat": 38.90602633333334, "is_reserved": 0, "fusion_lat": 0.0, "rental_uris": {"android": "https://dc.lft.to/lastmile_qr_scan", "ios": "https://dc.lft.to/lastmile_qr_scan"}, "fusion_lon": 0.0, "name": "ed3cbb0131e23e6021715049201694d5", "lon": -77.0472345, "is_disabled": 0, "type": "electric_scooter"}, {"bike_id": "24e74fdb7f575c535d02c2de2a4d2b17", "lat": 38.89221033333333, "is_reserved": 0, "fusion_lat": 0.0, "rental_uris": {"android": "https://dc.lft.to/lastmile_qr_scan", "ios": "https://dc.lft.to/lastmile_qr_scan"}, "fusion_lon": 0.0, "name": "24e74fdb7f575c535d02c2de2a4d2b17", "lon": -77.03215966666667, "is_disabled": 0, "type": "electric_scooter"}, {"bike_id": "9d3a9d4ee07fd1ad10be90cba9a391d9", "lat": 38.89977666666667, "is_reserved": 0, "fusion_lat": 0.0, "rental_uris": {"android": "https://dc.lft.to/lastmile_qr_scan", "ios": "https://dc.lft.to/lastmile_qr_scan"}, "fusion_lon": 0.0, "name": "9d3a9d4ee07fd1ad10be90cba9a391d9", "lon": -76.99614016666666, "is_disabled": 0, "type": "electric_scooter"}, {"bike_id": "45e66cca9f8ce3c9d983322f79006522", "lat": 38.96546016666667, "is_reserved": 0, "fusion_lat": 0.0, "rental_uris": {"android": "https://dc.lft.to/lastmile_qr_scan", "ios": "https://dc.lft.to/lastmile_qr_scan"}, "fusion_lon": 0.0, "name": "45e66cca9f8ce3c9d983322f79006522", "lon": -77.03625, "is_disabled": 0, "type": "electric_scooter"}, {"bike_id": "39d48fe66e1fb658b57d4f06e4550645", "lat": 38.91736, "is_reserved": 0, "fusion_lat": 0.0, "rental_uris": {"android": "https://dc.lft.to/lastmile_qr_scan", "ios": "https://dc.lft.to/lastmile_qr_scan"}, "fusion_lon": 0.0, "name": "39d48fe66e1fb658b57d4f06e4550645", "lon": -77.04585516666667, "is_disabled": 0, "type": "electric_scooter"}, {"bike_id": "e42f4c9d4bc77079fdd4954d7f5b1f7c", "lat": 38.905371, "is_reserved": 0, "fusion_lat": 0.0, "rental_uris": {"android": "https://dc.lft.to/lastmile_qr_scan", "ios": "https://dc.lft.to/lastmile_qr_scan"}, "fusion_lon": 0.0, "name": "e42f4c9d4bc77079fdd4954d7f5b1f7c", "lon": -77.04499616666666, "is_disabled": 0, "type": "electric_scooter"}, {"bike_id": "324732c9b4bfb0780fbd6b6d6b95ca04", "lat": 38.88519266666667, "is_reserved": 0, "fusion_lat": 0.0, "rental_uris": {"android": "https://dc.lft.to/lastmile_qr_scan", "ios": "https://dc.lft.to/lastmile_qr_scan"}, "fusion_lon": 0.0, "name": "324732c9b4bfb0780fbd6b6d6b95ca04", "lon": -76.99094866666667, "is_disabled": 0, "type": "electric_scooter"}, {"bike_id": "d1c925334a5a5df6858856cad0449757", "lat": 38.90368933333333, "is_reserved": 0, "fusion_lat": 0.0, "rental_uris": {"android": "https://dc.lft.to/lastmile_qr_scan", "ios": "https://dc.lft.to/lastmile_qr_scan"}, "fusion_lon": 0.0, "name": "d1c925334a5a5df6858856cad0449757", "lon": -77.01902183333333, "is_disabled": 0, "type": "electric_scooter"}, {"bike_id": "f17afdb8bbee3f3793eafeb3d72a05b3", "lat": 38.91540033333333, "is_reserved": 0, "fusion_lat": 0.0, "rental_uris": {"android": "https://dc.lft.to/lastmile_qr_scan", "ios": "https://dc.lft.to/lastmile_qr_scan"}, "fusion_lon": 0.0, "name": "f17afdb8bbee3f3793eafeb3d72a05b3", "lon": -77.022033, "is_disabled": 0, "type": "electric_scooter"}, {"bike_id": "0ccdd11432bfd38b355aaa2f781f0d08", "lat": 38.91681533333333, "is_reserved": 0, "fusion_lat": 0.0, "rental_uris": {"android": "https://dc.lft.to/lastmile_qr_scan", "ios": "https://dc.lft.to/lastmile_qr_scan"}, "fusion_lon": 0.0, "name": "0ccdd11432bfd38b355aaa2f781f0d08", "lon": -77.02976966666667, "is_disabled": 0, "type": "electric_scooter"}, {"bike_id": "d32bdfe8fef18d83d3eeb8d72feffbeb", "lat": 38.899068666666665, "is_reserved": 0, "fusion_lat": 0.0, "rental_uris": {"android": "https://dc.lft.to/lastmile_qr_scan", "ios": "https://dc.lft.to/lastmile_qr_scan"}, "fusion_lon": 0.0, "name": "d32bdfe8fef18d83d3eeb8d72feffbeb", "lon": -77.03295933333334, "is_disabled": 0, "type": "electric_scooter"}, {"bike_id": "a622e28d2e587400976ef3b1e56277b3", "lat": 38.92153583333333, "is_reserved": 0, "fusion_lat": 0.0, "rental_uris": {"android": "https://dc.lft.to/lastmile_qr_scan", "ios": "https://dc.lft.to/lastmile_qr_scan"}, "fusion_lon": 0.0, "name": "a622e28d2e587400976ef3b1e56277b3", "lon": -77.03362433333334, "is_disabled": 0, "type": "electric_scooter"}, {"bike_id": "8f481aa741551f78ec136dfc508d3403", "lat": 38.902525, "is_reserved": 0, "fusion_lat": 0.0, "rental_uris": {"android": "https://dc.lft.to/lastmile_qr_scan", "ios": "https://dc.lft.to/lastmile_qr_scan"}, "fusion_lon": 0.0, "name": "8f481aa741551f78ec136dfc508d3403", "lon": -77.039637, "is_disabled": 0, "type": "electric_scooter"}, {"bike_id": "1e240869fbcf6bf0fb010fbae446e4dd", "lat": 38.90870816666666, "is_reserved": 0, "fusion_lat": 0.0, "rental_uris": {"android": "https://dc.lft.to/lastmile_qr_scan", "ios": "https://dc.lft.to/lastmile_qr_scan"}, "fusion_lon": 0.0, "name": "1e240869fbcf6bf0fb010fbae446e4dd", "lon": -76.99786533333334, "is_disabled": 0, "type": "electric_scooter"}, {"bike_id": "89c669ebcc4f5badbc51a1d1ed859d11", "lat": 38.987692333333335, "is_reserved": 0, "fusion_lat": 0.0, "rental_uris": {"android": "https://dc.lft.to/lastmile_qr_scan", "ios": "https://dc.lft.to/lastmile_qr_scan"}, "fusion_lon": 0.0, "name": "89c669ebcc4f5badbc51a1d1ed859d11", "lon": -77.14058766666666, "is_disabled": 0, "type": "electric_bike"}, {"bike_id": "819a57edddad7ba2e453e46bfc1a2a85", "lat": 38.92485766666667, "is_reserved": 0, "fusion_lat": 0.0, "rental_uris": {"android": "https://dc.lft.to/lastmile_qr_scan", "ios": "https://dc.lft.to/lastmile_qr_scan"}, "fusion_lon": 0.0, "name": "819a57edddad7ba2e453e46bfc1a2a85", "lon": -77.031789, "is_disabled": 0, "type": "electric_scooter"}, {"bike_id": "4659e70f5ea64d14abdabdfd50990450", "lat": 38.9232915, "is_reserved": 0, "fusion_lat": 0.0, "rental_uris": {"android": "https://dc.lft.to/lastmile_qr_scan", "ios": "https://dc.lft.to/lastmile_qr_scan"}, "fusion_lon": 0.0, "name": "4659e70f5ea64d14abdabdfd50990450", "lon": -77.00892, "is_disabled": 0, "type": "electric_scooter"}, {"bike_id": "4598a4c1205cd572d0a8ce18e4e3a9bc", "lat": 38.91653866666667, "is_reserved": 0, "fusion_lat": 0.0, "rental_uris": {"android": "https://dc.lft.to/lastmile_qr_scan", "ios": "https://dc.lft.to/lastmile_qr_scan"}, "fusion_lon": 0.0, "name": "4598a4c1205cd572d0a8ce18e4e3a9bc", "lon": -76.9791645, "is_disabled": 0, "type": "electric_scooter"}, {"bike_id": "ed68516a3f61f6cf9e7f2db8151d72a6", "lat": 38.91846983333333, "is_reserved": 0, "fusion_lat": 0.0, "rental_uris": {"android": "https://dc.lft.to/lastmile_qr_scan", "ios": "https://dc.lft.to/lastmile_qr_scan"}, "fusion_lon": 0.0, "name": "ed68516a3f61f6cf9e7f2db8151d72a6", "lon": -77.03224983333334, "is_disabled": 0, "type": "electric_scooter"}, {"bike_id": "dcda0a0f905774266a28c7f418c89a16", "lat": 38.92419316666667, "is_reserved": 0, "fusion_lat": 0.0, "rental_uris": {"android": "https://dc.lft.to/lastmile_qr_scan", "ios": "https://dc.lft.to/lastmile_qr_scan"}, "fusion_lon": 0.0, "name": "dcda0a0f905774266a28c7f418c89a16", "lon": -77.02034166666667, "is_disabled": 0, "type": "electric_scooter"}, {"bike_id": "d401d38ccb8e3f45850256d85d5c668c", "lat": 38.92668166666667, "is_reserved": 0, "fusion_lat": 0.0, "rental_uris": {"android": "https://dc.lft.to/lastmile_qr_scan", "ios": "https://dc.lft.to/lastmile_qr_scan"}, "fusion_lon": 0.0, "name": "d401d38ccb8e3f45850256d85d5c668c", "lon": -77.01504533333333, "is_disabled": 0, "type": "electric_scooter"}, {"bike_id": "565f61d3dcfa5e160ae155b126d3ed1d", "lat": 38.920274666666664, "is_reserved": 0, "fusion_lat": 0.0, "rental_uris": {"android": "https://dc.lft.to/lastmile_qr_scan", "ios": "https://dc.lft.to/lastmile_qr_scan"}, "fusion_lon": 0.0, "name": "565f61d3dcfa5e160ae155b126d3ed1d", "lon": -77.00304033333333, "is_disabled": 0, "type": "electric_scooter"}, {"bike_id": "76753b8a9d1f909e408b52984503f1a4", "lat": 38.892215666666665, "is_reserved": 0, "fusion_lat": 0.0, "rental_uris": {"android": "https://dc.lft.to/lastmile_qr_scan", "ios": "https://dc.lft.to/lastmile_qr_scan"}, "fusion_lon": 0.0, "name": "76753b8a9d1f909e408b52984503f1a4", "lon": -77.0245325, "is_disabled": 0, "type": "electric_scooter"}, {"bike_id": "df22b0b1afd68503613cb704e016c840", "lat": 38.884949666666664, "is_reserved": 0, "fusion_lat": 0.0, "rental_uris": {"android": "https://dc.lft.to/lastmile_qr_scan", "ios": "https://dc.lft.to/lastmile_qr_scan"}, "fusion_lon": 0.0, "name": "df22b0b1afd68503613cb704e016c840", "lon": -77.00726866666666, "is_disabled": 0, "type": "electric_scooter"}, {"bike_id": "faf82e39fe7ce7ebc59b7aff90a1af81", "lat": 38.9106205, "is_reserved": 0, "fusion_lat": 0.0, "rental_uris": {"android": "https://dc.lft.to/lastmile_qr_scan", "ios": "https://dc.lft.to/lastmile_qr_scan"}, "fusion_lon": 0.0, "name": "faf82e39fe7ce7ebc59b7aff90a1af81", "lon": -77.0219165, "is_disabled": 0, "type": "electric_scooter"}, {"bike_id": "f9ae4c692fce7c17f49fbd70dc11f775", "lat": 38.844319666666664, "is_reserved": 0, "fusion_lat": 0.0, "rental_uris": {"android": "https://dc.lft.to/lastmile_qr_scan", "ios": "https://dc.lft.to/lastmile_qr_scan"}, "fusion_lon": 0.0, "name": "f9ae4c692fce7c17f49fbd70dc11f775", "lon": -76.99870883333334, "is_disabled": 0, "type": "electric_scooter"}, {"bike_id": "b731e6a4778c3be0d4d6d18cf05acc6f", "lat": 38.902894833333335, "is_reserved": 0, "fusion_lat": 0.0, "rental_uris": {"android": "https://dc.lft.to/lastmile_qr_scan", "ios": "https://dc.lft.to/lastmile_qr_scan"}, "fusion_lon": 0.0, "name": "b731e6a4778c3be0d4d6d18cf05acc6f", "lon": -77.03659583333334, "is_disabled": 0, "type": "electric_scooter"}, {"bike_id": "d0b13f9ba08391d2cad568a4c04bec60", "lat": 38.91713933333333, "is_reserved": 0, "fusion_lat": 0.0, "rental_uris": {"android": "https://dc.lft.to/lastmile_qr_scan", "ios": "https://dc.lft.to/lastmile_qr_scan"}, "fusion_lon": 0.0, "name": "d0b13f9ba08391d2cad568a4c04bec60", "lon": -77.046829, "is_disabled": 0, "type": "electric_scooter"}, {"bike_id": "c858a5fa68968f4d1edf98d86911c497", "lat": 38.91476333333333, "is_reserved": 0, "fusion_lat": 0.0, "rental_uris": {"android": "https://dc.lft.to/lastmile_qr_scan", "ios": "https://dc.lft.to/lastmile_qr_scan"}, "fusion_lon": 0.0, "name": "c858a5fa68968f4d1edf98d86911c497", "lon": -77.04562283333334, "is_disabled": 0, "type": "electric_scooter"}, {"bike_id": "c03e7ea5d8559a9526d2aaf497d4ef2a", "lat": 38.96505716666667, "is_reserved": 0, "fusion_lat": 0.0, "rental_uris": {"android": "https://dc.lft.to/lastmile_qr_scan", "ios": "https://dc.lft.to/lastmile_qr_scan"}, "fusion_lon": 0.0, "name": "c03e7ea5d8559a9526d2aaf497d4ef2a", "lon": -77.00199166666667, "is_disabled": 0, "type": "electric_scooter"}, {"bike_id": "a8fb05dcb04a19d1a1922b4dcfcdd40e", "lat": 38.902635333333336, "is_reserved": 0, "fusion_lat": 0.0, "rental_uris": {"android": "https://dc.lft.to/lastmile_qr_scan", "ios": "https://dc.lft.to/lastmile_qr_scan"}, "fusion_lon": 0.0, "name": "a8fb05dcb04a19d1a1922b4dcfcdd40e", "lon": -77.03975133333333, "is_disabled": 0, "type": "electric_scooter"}, {"bike_id": "9e75923bcccea26e434003408cb7df03", "lat": 38.93902666666666, "is_reserved": 0, "fusion_lat": 0.0, "rental_uris": {"android": "https://dc.lft.to/lastmile_qr_scan", "ios": "https://dc.lft.to/lastmile_qr_scan"}, "fusion_lon": 0.0, "name": "9e75923bcccea26e434003408cb7df03", "lon": -77.06349283333333, "is_disabled": 0, "type": "electric_bike"}, {"bike_id": "3718ce6951c7a77f0810e9c21f1a0b6c", "lat": 38.89253983333333, "is_reserved": 0, "fusion_lat": 0.0, "rental_uris": {"android": "https://dc.lft.to/lastmile_qr_scan", "ios": "https://dc.lft.to/lastmile_qr_scan"}, "fusion_lon": 0.0, "name": "3718ce6951c7a77f0810e9c21f1a0b6c", "lon": -77.01271733333333, "is_disabled": 0, "type": "electric_scooter"}, {"bike_id": "2700366d017ed7545fcba53a9dc5f108", "lat": 38.911185, "is_reserved": 0, "fusion_lat": 0.0, "rental_uris": {"android": "https://dc.lft.to/lastmile_qr_scan", "ios": "https://dc.lft.to/lastmile_qr_scan"}, "fusion_lon": 0.0, "name": "2700366d017ed7545fcba53a9dc5f108", "lon": -77.0422535, "is_disabled": 0, "type": "electric_scooter"}, {"bike_id": "f0825a315f558c76e1926679dec4ecb0", "lat": 38.902395, "is_reserved": 0, "fusion_lat": 0.0, "rental_uris": {"android": "https://dc.lft.to/lastmile_qr_scan", "ios": "https://dc.lft.to/lastmile_qr_scan"}, "fusion_lon": 0.0, "name": "f0825a315f558c76e1926679dec4ecb0", "lon": -77.02691766666666, "is_disabled": 0, "type": "electric_scooter"}, {"bike_id": "15b43f95b798508ae7e97b5c1b477dbd", "lat": 38.90394466666667, "is_reserved": 0, "fusion_lat": 0.0, "rental_uris": {"android": "https://dc.lft.to/lastmile_qr_scan", "ios": "https://dc.lft.to/lastmile_qr_scan"}, "fusion_lon": 0.0, "name": "15b43f95b798508ae7e97b5c1b477dbd", "lon": -77.02187816666667, "is_disabled": 0, "type": "electric_scooter"}, {"bike_id": "7888fad574414187e990de340d40f59c", "lat": 38.96606516666667, "is_reserved": 0, "fusion_lat": 0.0, "rental_uris": {"android": "https://dc.lft.to/lastmile_qr_scan", "ios": "https://dc.lft.to/lastmile_qr_scan"}, "fusion_lon": 0.0, "name": "7888fad574414187e990de340d40f59c", "lon": -77.019778, "is_disabled": 0, "type": "electric_scooter"}, {"bike_id": "eb48aaf08da81255c14d8935c4fb5c3d", "lat": 38.89963016666667, "is_reserved": 0, "fusion_lat": 0.0, "rental_uris": {"android": "https://dc.lft.to/lastmile_qr_scan", "ios": "https://dc.lft.to/lastmile_qr_scan"}, "fusion_lon": 0.0, "name": "eb48aaf08da81255c14d8935c4fb5c3d", "lon": -77.01993083333333, "is_disabled": 0, "type": "electric_scooter"}, {"bike_id": "5cfb76669803e4271ee174dc237df59e", "lat": 38.923906, "is_reserved": 0, "fusion_lat": 0.0, "rental_uris": {"android": "https://dc.lft.to/lastmile_qr_scan", "ios": "https://dc.lft.to/lastmile_qr_scan"}, "fusion_lon": 0.0, "name": "5cfb76669803e4271ee174dc237df59e", "lon": -77.00065766666667, "is_disabled": 0, "type": "electric_scooter"}, {"bike_id": "444987e3e34e5586843e71d10b1b6fff", "lat": 38.9142265, "is_reserved": 0, "fusion_lat": 0.0, "rental_uris": {"android": "https://dc.lft.to/lastmile_qr_scan", "ios": "https://dc.lft.to/lastmile_qr_scan"}, "fusion_lon": 0.0, "name": "444987e3e34e5586843e71d10b1b6fff", "lon": -77.02228866666667, "is_disabled": 0, "type": "electric_scooter"}, {"bike_id": "13ecb510d523da0aa14788ac622f435b", "lat": 38.921186666666664, "is_reserved": 0, "fusion_lat": 0.0, "rental_uris": {"android": "https://dc.lft.to/lastmile_qr_scan", "ios": "https://dc.lft.to/lastmile_qr_scan"}, "fusion_lon": 0.0, "name": "13ecb510d523da0aa14788ac622f435b", "lon": -77.036575, "is_disabled": 0, "type": "electric_scooter"}, {"bike_id": "90a223ba99d8a4c3f4802db0a64c981c", "lat": 38.911932666666665, "is_reserved": 0, "fusion_lat": 0.0, "rental_uris": {"android": "https://dc.lft.to/lastmile_qr_scan", "ios": "https://dc.lft.to/lastmile_qr_scan"}, "fusion_lon": 0.0, "name": "90a223ba99d8a4c3f4802db0a64c981c", "lon": -77.038332, "is_disabled": 0, "type": "electric_scooter"}, {"bike_id": "bfe632152beaa275735f954b2cdb69ce", "lat": 38.880139666666665, "is_reserved": 0, "fusion_lat": 0.0, "rental_uris": {"android": "https://dc.lft.to/lastmile_qr_scan", "ios": "https://dc.lft.to/lastmile_qr_scan"}, "fusion_lon": 0.0, "name": "bfe632152beaa275735f954b2cdb69ce", "lon": -77.00241366666667, "is_disabled": 0, "type": "electric_scooter"}, {"bike_id": "31027aa03ba76a76b67e4064e6f68072", "lat": 38.9333555, "is_reserved": 0, "fusion_lat": 0.0, "rental_uris": {"android": "https://dc.lft.to/lastmile_qr_scan", "ios": "https://dc.lft.to/lastmile_qr_scan"}, "fusion_lon": 0.0, "name": "31027aa03ba76a76b67e4064e6f68072", "lon": -77.02858366666666, "is_disabled": 0, "type": "electric_scooter"}, {"bike_id": "156c83d871bb65739dcffb3717be4115", "lat": 38.873638666666665, "is_reserved": 0, "fusion_lat": 0.0, "rental_uris": {"android": "https://dc.lft.to/lastmile_qr_scan", "ios": "https://dc.lft.to/lastmile_qr_scan"}, "fusion_lon": 0.0, "name": "156c83d871bb65739dcffb3717be4115", "lon": -76.970295, "is_disabled": 0, "type": "electric_scooter"}, {"bike_id": "6005cf2c7f6dd9cdfd267a2fc7662cba", "lat": 38.884482166666665, "is_reserved": 0, "fusion_lat": 0.0, "rental_uris": {"android": "https://dc.lft.to/lastmile_qr_scan", "ios": "https://dc.lft.to/lastmile_qr_scan"}, "fusion_lon": 0.0, "name": "6005cf2c7f6dd9cdfd267a2fc7662cba", "lon": -77.02451816666667, "is_disabled": 0, "type": "electric_bike"}, {"bike_id": "987a00f1734aa5ac1a42ef1d28b3aadd", "lat": 38.89887133333333, "is_reserved": 0, "fusion_lat": 0.0, "rental_uris": {"android": "https://dc.lft.to/lastmile_qr_scan", "ios": "https://dc.lft.to/lastmile_qr_scan"}, "fusion_lon": 0.0, "name": "987a00f1734aa5ac1a42ef1d28b3aadd", "lon": -76.93178616666667, "is_disabled": 0, "type": "electric_scooter"}, {"bike_id": "e619ab9f4fa17962f6eac67c68d54210", "lat": 38.887505833333336, "is_reserved": 0, "fusion_lat": 0.0, "rental_uris": {"android": "https://dc.lft.to/lastmile_qr_scan", "ios": "https://dc.lft.to/lastmile_qr_scan"}, "fusion_lon": 0.0, "name": "e619ab9f4fa17962f6eac67c68d54210", "lon": -77.03159583333333, "is_disabled": 0, "type": "electric_scooter"}, {"bike_id": "504992cbf6b3d77f2dd35677d0085f8e", "lat": 38.89242466666666, "is_reserved": 0, "fusion_lat": 0.0, "rental_uris": {"android": "https://dc.lft.to/lastmile_qr_scan", "ios": "https://dc.lft.to/lastmile_qr_scan"}, "fusion_lon": 0.0, "name": "504992cbf6b3d77f2dd35677d0085f8e", "lon": -77.04499483333333, "is_disabled": 0, "type": "electric_scooter"}, {"bike_id": "67694234f5be880a51dde06fdfb70d49", "lat": 38.895252, "is_reserved": 0, "fusion_lat": 0.0, "rental_uris": {"android": "https://dc.lft.to/lastmile_qr_scan", "ios": "https://dc.lft.to/lastmile_qr_scan"}, "fusion_lon": 0.0, "name": "67694234f5be880a51dde06fdfb70d49", "lon": -77.02285233333333, "is_disabled": 0, "type": "electric_scooter"}, {"bike_id": "234fc542f1135ef4f81ab1d87c8aa2cd", "lat": 38.928701833333335, "is_reserved": 0, "fusion_lat": 0.0, "rental_uris": {"android": "https://dc.lft.to/lastmile_qr_scan", "ios": "https://dc.lft.to/lastmile_qr_scan"}, "fusion_lon": 0.0, "name": "234fc542f1135ef4f81ab1d87c8aa2cd", "lon": -77.03366116666666, "is_disabled": 0, "type": "electric_scooter"}, {"bike_id": "02773f744bf4befde77096655287bdeb", "lat": 38.909560666666664, "is_reserved": 0, "fusion_lat": 0.0, "rental_uris": {"android": "https://dc.lft.to/lastmile_qr_scan", "ios": "https://dc.lft.to/lastmile_qr_scan"}, "fusion_lon": 0.0, "name": "02773f744bf4befde77096655287bdeb", "lon": -77.03282416666667, "is_disabled": 0, "type": "electric_scooter"}, {"bike_id": "447bd5f3105d9b29c4993f2d8221195a", "lat": 38.88491466666667, "is_reserved": 0, "fusion_lat": 0.0, "rental_uris": {"android": "https://dc.lft.to/lastmile_qr_scan", "ios": "https://dc.lft.to/lastmile_qr_scan"}, "fusion_lon": 0.0, "name": "447bd5f3105d9b29c4993f2d8221195a", "lon": -77.0072345, "is_disabled": 0, "type": "electric_scooter"}, {"bike_id": "a405e1625841ec1b793254a494b1a3cb", "lat": 38.900439666666664, "is_reserved": 0, "fusion_lat": 0.0, "rental_uris": {"android": "https://dc.lft.to/lastmile_qr_scan", "ios": "https://dc.lft.to/lastmile_qr_scan"}, "fusion_lon": 0.0, "name": "a405e1625841ec1b793254a494b1a3cb", "lon": -76.99156216666667, "is_disabled": 0, "type": "electric_scooter"}, {"bike_id": "1d65bba8e9e21302d0c1337239f10ed6", "lat": 38.89622283333333, "is_reserved": 0, "fusion_lat": 0.0, "rental_uris": {"android": "https://dc.lft.to/lastmile_qr_scan", "ios": "https://dc.lft.to/lastmile_qr_scan"}, "fusion_lon": 0.0, "name": "1d65bba8e9e21302d0c1337239f10ed6", "lon": -77.04489983333333, "is_disabled": 0, "type": "electric_scooter"}, {"bike_id": "5055ca4712ded65e612c5f0e7ad0fe65", "lat": 38.902588333333334, "is_reserved": 0, "fusion_lat": 0.0, "rental_uris": {"android": "https://dc.lft.to/lastmile_qr_scan", "ios": "https://dc.lft.to/lastmile_qr_scan"}, "fusion_lon": 0.0, "name": "5055ca4712ded65e612c5f0e7ad0fe65", "lon": -77.03250433333334, "is_disabled": 0, "type": "electric_scooter"}, {"bike_id": "0d9474fa03d57340f17d0be4e06947db", "lat": 38.89384966666667, "is_reserved": 0, "fusion_lat": 0.0, "rental_uris": {"android": "https://dc.lft.to/lastmile_qr_scan", "ios": "https://dc.lft.to/lastmile_qr_scan"}, "fusion_lon": 0.0, "name": "0d9474fa03d57340f17d0be4e06947db", "lon": -77.01560116666667, "is_disabled": 0, "type": "electric_scooter"}, {"bike_id": "43e20cf021347d19d1af3b63c610aa41", "lat": 38.902556, "is_reserved": 0, "fusion_lat": 0.0, "rental_uris": {"android": "https://dc.lft.to/lastmile_qr_scan", "ios": "https://dc.lft.to/lastmile_qr_scan"}, "fusion_lon": 0.0, "name": "43e20cf021347d19d1af3b63c610aa41", "lon": -77.03962933333334, "is_disabled": 0, "type": "electric_scooter"}, {"bike_id": "2a4acfd8906088642384c906266a2dee", "lat": 38.91264416666667, "is_reserved": 0, "fusion_lat": 0.0, "rental_uris": {"android": "https://dc.lft.to/lastmile_qr_scan", "ios": "https://dc.lft.to/lastmile_qr_scan"}, "fusion_lon": 0.0, "name": "2a4acfd8906088642384c906266a2dee", "lon": -77.03144533333334, "is_disabled": 0, "type": "electric_scooter"}, {"bike_id": "ed72f8f3a7f1f994a39af50a491d7180", "lat": 38.915447, "is_reserved": 0, "fusion_lat": 0.0, "rental_uris": {"android": "https://dc.lft.to/lastmile_qr_scan", "ios": "https://dc.lft.to/lastmile_qr_scan"}, "fusion_lon": 0.0, "name": "ed72f8f3a7f1f994a39af50a491d7180", "lon": -77.0445835, "is_disabled": 0, "type": "electric_scooter"}, {"bike_id": "8cfaa4cd1f5cc8ec282c976a235f6574", "lat": 38.923995166666664, "is_reserved": 0, "fusion_lat": 0.0, "rental_uris": {"android": "https://dc.lft.to/lastmile_qr_scan", "ios": "https://dc.lft.to/lastmile_qr_scan"}, "fusion_lon": 0.0, "name": "8cfaa4cd1f5cc8ec282c976a235f6574", "lon": -77.02558133333334, "is_disabled": 0, "type": "electric_scooter"}, {"bike_id": "9508b60fc82a008fcddf90aa7bc2bfb3", "lat": 38.90955683333333, "is_reserved": 0, "fusion_lat": 0.0, "rental_uris": {"android": "https://dc.lft.to/lastmile_qr_scan", "ios": "https://dc.lft.to/lastmile_qr_scan"}, "fusion_lon": 0.0, "name": "9508b60fc82a008fcddf90aa7bc2bfb3", "lon": -77.04872816666666, "is_disabled": 0, "type": "electric_scooter"}, {"bike_id": "9dd97f1de5bc9a1ef263a27dce5c7780", "lat": 38.9155355, "is_reserved": 0, "fusion_lat": 0.0, "rental_uris": {"android": "https://dc.lft.to/lastmile_qr_scan", "ios": "https://dc.lft.to/lastmile_qr_scan"}, "fusion_lon": 0.0, "name": "9dd97f1de5bc9a1ef263a27dce5c7780", "lon": -77.06674716666667, "is_disabled": 0, "type": "electric_bike"}, {"bike_id": "00d9a78961c2c7edd7735ee9301f5b93", "lat": 38.892433833333335, "is_reserved": 0, "fusion_lat": 0.0, "rental_uris": {"android": "https://dc.lft.to/lastmile_qr_scan", "ios": "https://dc.lft.to/lastmile_qr_scan"}, "fusion_lon": 0.0, "name": "00d9a78961c2c7edd7735ee9301f5b93", "lon": -77.04501066666667, "is_disabled": 0, "type": "electric_scooter"}, {"bike_id": "99bd3d049c6f82e9c15073b575e800b2", "lat": 38.94921983333333, "is_reserved": 0, "fusion_lat": 0.0, "rental_uris": {"android": "https://dc.lft.to/lastmile_qr_scan", "ios": "https://dc.lft.to/lastmile_qr_scan"}, "fusion_lon": 0.0, "name": "99bd3d049c6f82e9c15073b575e800b2", "lon": -77.01859866666666, "is_disabled": 0, "type": "electric_scooter"}, {"bike_id": "70a3978de6330f14a1e961560228fa36", "lat": 38.9153785, "is_reserved": 0, "fusion_lat": 0.0, "rental_uris": {"android": "https://dc.lft.to/lastmile_qr_scan", "ios": "https://dc.lft.to/lastmile_qr_scan"}, "fusion_lon": 0.0, "name": "70a3978de6330f14a1e961560228fa36", "lon": -77.03212483333333, "is_disabled": 0, "type": "electric_scooter"}, {"bike_id": "e0987532316904b12b0b76c6d01c147a", "lat": 38.90760816666667, "is_reserved": 0, "fusion_lat": 0.0, "rental_uris": {"android": "https://dc.lft.to/lastmile_qr_scan", "ios": "https://dc.lft.to/lastmile_qr_scan"}, "fusion_lon": 0.0, "name": "e0987532316904b12b0b76c6d01c147a", "lon": -77.003229, "is_disabled": 0, "type": "electric_scooter"}, {"bike_id": "4d3a023398ed8ad620fbb018235ad258", "lat": 38.923202833333335, "is_reserved": 0, "fusion_lat": 0.0, "rental_uris": {"android": "https://dc.lft.to/lastmile_qr_scan", "ios": "https://dc.lft.to/lastmile_qr_scan"}, "fusion_lon": 0.0, "name": "4d3a023398ed8ad620fbb018235ad258", "lon": -77.03763733333334, "is_disabled": 0, "type": "electric_scooter"}, {"bike_id": "469f2c180ab1ce7e683abf651b8ca1ea", "lat": 38.91564183333333, "is_reserved": 0, "fusion_lat": 0.0, "rental_uris": {"android": "https://dc.lft.to/lastmile_qr_scan", "ios": "https://dc.lft.to/lastmile_qr_scan"}, "fusion_lon": 0.0, "name": "469f2c180ab1ce7e683abf651b8ca1ea", "lon": -77.01040783333333, "is_disabled": 0, "type": "electric_scooter"}, {"bike_id": "193f3e2aa6b7d6258afd874ef818549f", "lat": 38.93081133333333, "is_reserved": 0, "fusion_lat": 0.0, "rental_uris": {"android": "https://dc.lft.to/lastmile_qr_scan", "ios": "https://dc.lft.to/lastmile_qr_scan"}, "fusion_lon": 0.0, "name": "193f3e2aa6b7d6258afd874ef818549f", "lon": -77.02794516666667, "is_disabled": 0, "type": "electric_scooter"}, {"bike_id": "21ce9ec39cccbb6472214573707d0276", "lat": 38.911103, "is_reserved": 0, "fusion_lat": 0.0, "rental_uris": {"android": "https://dc.lft.to/lastmile_qr_scan", "ios": "https://dc.lft.to/lastmile_qr_scan"}, "fusion_lon": 0.0, "name": "21ce9ec39cccbb6472214573707d0276", "lon": -77.03864016666667, "is_disabled": 0, "type": "electric_scooter"}, {"bike_id": "450c642b0daac4439ff0e2872f865407", "lat": 38.92329183333333, "is_reserved": 0, "fusion_lat": 0.0, "rental_uris": {"android": "https://dc.lft.to/lastmile_qr_scan", "ios": "https://dc.lft.to/lastmile_qr_scan"}, "fusion_lon": 0.0, "name": "450c642b0daac4439ff0e2872f865407", "lon": -77.04619433333333, "is_disabled": 0, "type": "electric_scooter"}, {"bike_id": "7fed9d598c950cc9e88284575fe7752b", "lat": 38.90883516666667, "is_reserved": 0, "fusion_lat": 0.0, "rental_uris": {"android": "https://dc.lft.to/lastmile_qr_scan", "ios": "https://dc.lft.to/lastmile_qr_scan"}, "fusion_lon": 0.0, "name": "7fed9d598c950cc9e88284575fe7752b", "lon": -77.0465745, "is_disabled": 0, "type": "electric_scooter"}, {"bike_id": "2173243bde451daf82cdc1d811160525", "lat": 38.891324, "is_reserved": 0, "fusion_lat": 0.0, "rental_uris": {"android": "https://dc.lft.to/lastmile_qr_scan", "ios": "https://dc.lft.to/lastmile_qr_scan"}, "fusion_lon": 0.0, "name": "2173243bde451daf82cdc1d811160525", "lon": -76.95190833333334, "is_disabled": 0, "type": "electric_scooter"}, {"bike_id": "61458ee24dc5939ac4f8178004b80d8e", "lat": 38.87172433333333, "is_reserved": 0, "fusion_lat": 0.0, "rental_uris": {"android": "https://dc.lft.to/lastmile_qr_scan", "ios": "https://dc.lft.to/lastmile_qr_scan"}, "fusion_lon": 0.0, "name": "61458ee24dc5939ac4f8178004b80d8e", "lon": -77.00621566666666, "is_disabled": 0, "type": "electric_scooter"}, {"bike_id": "949b0db28e9329a4a6b55b26231469c4", "lat": 38.9263575, "is_reserved": 0, "fusion_lat": 0.0, "rental_uris": {"android": "https://dc.lft.to/lastmile_qr_scan", "ios": "https://dc.lft.to/lastmile_qr_scan"}, "fusion_lon": 0.0, "name": "949b0db28e9329a4a6b55b26231469c4", "lon": -77.03427833333333, "is_disabled": 0, "type": "electric_scooter"}, {"bike_id": "f30c1d6e3e047d6c87529d3ad99de5d3", "lat": 38.89729166666667, "is_reserved": 0, "fusion_lat": 0.0, "rental_uris": {"android": "https://dc.lft.to/lastmile_qr_scan", "ios": "https://dc.lft.to/lastmile_qr_scan"}, "fusion_lon": 0.0, "name": "f30c1d6e3e047d6c87529d3ad99de5d3", "lon": -77.04453633333334, "is_disabled": 0, "type": "electric_scooter"}, {"bike_id": "ee3bb28496ac83b4f6f6f27ff68b8994", "lat": 38.936229833333336, "is_reserved": 0, "fusion_lat": 0.0, "rental_uris": {"android": "https://dc.lft.to/lastmile_qr_scan", "ios": "https://dc.lft.to/lastmile_qr_scan"}, "fusion_lon": 0.0, "name": "ee3bb28496ac83b4f6f6f27ff68b8994", "lon": -76.97973416666666, "is_disabled": 0, "type": "electric_scooter"}, {"bike_id": "4e394b1d93bf3955fbae866332f4e3c1", "lat": 38.91576033333333, "is_reserved": 0, "fusion_lat": 0.0, "rental_uris": {"android": "https://dc.lft.to/lastmile_qr_scan", "ios": "https://dc.lft.to/lastmile_qr_scan"}, "fusion_lon": 0.0, "name": "4e394b1d93bf3955fbae866332f4e3c1", "lon": -77.01875, "is_disabled": 0, "type": "electric_scooter"}, {"bike_id": "558f38a5cb397a121a9e2bcdbf38745a", "lat": 38.905398166666664, "is_reserved": 0, "fusion_lat": 0.0, "rental_uris": {"android": "https://dc.lft.to/lastmile_qr_scan", "ios": "https://dc.lft.to/lastmile_qr_scan"}, "fusion_lon": 0.0, "name": "558f38a5cb397a121a9e2bcdbf38745a", "lon": -77.03453716666667, "is_disabled": 0, "type": "electric_scooter"}, {"bike_id": "bb31daf3bffb0e0f11f2b332fc6d16a2", "lat": 38.90381416666666, "is_reserved": 0, "fusion_lat": 0.0, "rental_uris": {"android": "https://dc.lft.to/lastmile_qr_scan", "ios": "https://dc.lft.to/lastmile_qr_scan"}, "fusion_lon": 0.0, "name": "bb31daf3bffb0e0f11f2b332fc6d16a2", "lon": -76.9820975, "is_disabled": 0, "type": "electric_scooter"}, {"bike_id": "e5aab0ec54c98599ffb2e3e28ab70ea2", "lat": 38.918191666666665, "is_reserved": 0, "fusion_lat": 0.0, "rental_uris": {"android": "https://dc.lft.to/lastmile_qr_scan", "ios": "https://dc.lft.to/lastmile_qr_scan"}, "fusion_lon": 0.0, "name": "e5aab0ec54c98599ffb2e3e28ab70ea2", "lon": -77.0401, "is_disabled": 0, "type": "electric_scooter"}, {"bike_id": "33bb9f4d8a78f5307425098537254a78", "lat": 38.914959333333336, "is_reserved": 0, "fusion_lat": 0.0, "rental_uris": {"android": "https://dc.lft.to/lastmile_qr_scan", "ios": "https://dc.lft.to/lastmile_qr_scan"}, "fusion_lon": 0.0, "name": "33bb9f4d8a78f5307425098537254a78", "lon": -77.01858933333334, "is_disabled": 0, "type": "electric_scooter"}, {"bike_id": "b50f346a54e33755caae3b61fb64dad6", "lat": 38.9065925, "is_reserved": 0, "fusion_lat": 0.0, "rental_uris": {"android": "https://dc.lft.to/lastmile_qr_scan", "ios": "https://dc.lft.to/lastmile_qr_scan"}, "fusion_lon": 0.0, "name": "b50f346a54e33755caae3b61fb64dad6", "lon": -77.04289366666667, "is_disabled": 0, "type": "electric_scooter"}, {"bike_id": "b24d41111dc8fe0474a6ebc8c1b9de26", "lat": 38.922509, "is_reserved": 0, "fusion_lat": 0.0, "rental_uris": {"android": "https://dc.lft.to/lastmile_qr_scan", "ios": "https://dc.lft.to/lastmile_qr_scan"}, "fusion_lon": 0.0, "name": "b24d41111dc8fe0474a6ebc8c1b9de26", "lon": -77.04013583333334, "is_disabled": 0, "type": "electric_scooter"}, {"bike_id": "9fcc8de85b28c276959bb5354ad632cc", "lat": 38.91426116666667, "is_reserved": 0, "fusion_lat": 0.0, "rental_uris": {"android": "https://dc.lft.to/lastmile_qr_scan", "ios": "https://dc.lft.to/lastmile_qr_scan"}, "fusion_lon": 0.0, "name": "9fcc8de85b28c276959bb5354ad632cc", "lon": -77.03184116666667, "is_disabled": 0, "type": "electric_scooter"}, {"bike_id": "9eacc7150a8dd9065de8be1d31c65d77", "lat": 38.90573533333333, "is_reserved": 0, "fusion_lat": 0.0, "rental_uris": {"android": "https://dc.lft.to/lastmile_qr_scan", "ios": "https://dc.lft.to/lastmile_qr_scan"}, "fusion_lon": 0.0, "name": "9eacc7150a8dd9065de8be1d31c65d77", "lon": -77.02216766666666, "is_disabled": 0, "type": "electric_scooter"}, {"bike_id": "4d3034ac5d01300d12373075944f10ae", "lat": 38.910333666666666, "is_reserved": 0, "fusion_lat": 0.0, "rental_uris": {"android": "https://dc.lft.to/lastmile_qr_scan", "ios": "https://dc.lft.to/lastmile_qr_scan"}, "fusion_lon": 0.0, "name": "4d3034ac5d01300d12373075944f10ae", "lon": -76.98555433333334, "is_disabled": 0, "type": "electric_scooter"}, {"bike_id": "f4b9b0a7fc018fc5504b08024042ec6e", "lat": 38.92766533333333, "is_reserved": 0, "fusion_lat": 0.0, "rental_uris": {"android": "https://dc.lft.to/lastmile_qr_scan", "ios": "https://dc.lft.to/lastmile_qr_scan"}, "fusion_lon": 0.0, "name": "f4b9b0a7fc018fc5504b08024042ec6e", "lon": -77.05645433333333, "is_disabled": 0, "type": "electric_scooter"}, {"bike_id": "0f685f2c90e09d87b03ea1566f6477fc", "lat": 38.922308666666666, "is_reserved": 0, "fusion_lat": 0.0, "rental_uris": {"android": "https://dc.lft.to/lastmile_qr_scan", "ios": "https://dc.lft.to/lastmile_qr_scan"}, "fusion_lon": 0.0, "name": "0f685f2c90e09d87b03ea1566f6477fc", "lon": -77.04378266666667, "is_disabled": 0, "type": "electric_scooter"}, {"bike_id": "c33622e04683dba27d11460ea5be5522", "lat": 38.895098833333336, "is_reserved": 0, "fusion_lat": 0.0, "rental_uris": {"android": "https://dc.lft.to/lastmile_qr_scan", "ios": "https://dc.lft.to/lastmile_qr_scan"}, "fusion_lon": 0.0, "name": "c33622e04683dba27d11460ea5be5522", "lon": -77.0033985, "is_disabled": 0, "type": "electric_scooter"}, {"bike_id": "57255985a148199cd43a077f6681692c", "lat": 38.9000425, "is_reserved": 0, "fusion_lat": 0.0, "rental_uris": {"android": "https://dc.lft.to/lastmile_qr_scan", "ios": "https://dc.lft.to/lastmile_qr_scan"}, "fusion_lon": 0.0, "name": "57255985a148199cd43a077f6681692c", "lon": -77.02704016666667, "is_disabled": 0, "type": "electric_scooter"}, {"bike_id": "881532a9125af734db28494b8b2199dd", "lat": 38.89657316666667, "is_reserved": 0, "fusion_lat": 0.0, "rental_uris": {"android": "https://dc.lft.to/lastmile_qr_scan", "ios": "https://dc.lft.to/lastmile_qr_scan"}, "fusion_lon": 0.0, "name": "881532a9125af734db28494b8b2199dd", "lon": -77.02705766666666, "is_disabled": 0, "type": "electric_scooter"}, {"bike_id": "eab9d32d2a61134a27c86e926a0863de", "lat": 38.900504833333336, "is_reserved": 0, "fusion_lat": 0.0, "rental_uris": {"android": "https://dc.lft.to/lastmile_qr_scan", "ios": "https://dc.lft.to/lastmile_qr_scan"}, "fusion_lon": 0.0, "name": "eab9d32d2a61134a27c86e926a0863de", "lon": -77.04340866666666, "is_disabled": 0, "type": "electric_bike"}, {"bike_id": "78ff0d57d3a1f12d2a21b36dbd2f8406", "lat": 38.914022333333335, "is_reserved": 0, "fusion_lat": 0.0, "rental_uris": {"android": "https://dc.lft.to/lastmile_qr_scan", "ios": "https://dc.lft.to/lastmile_qr_scan"}, "fusion_lon": 0.0, "name": "78ff0d57d3a1f12d2a21b36dbd2f8406", "lon": -77.0164835, "is_disabled": 0, "type": "electric_scooter"}, {"bike_id": "d5a06d023487c8cad59da8a7a0550fab", "lat": 38.884669333333335, "is_reserved": 0, "fusion_lat": 0.0, "rental_uris": {"android": "https://dc.lft.to/lastmile_qr_scan", "ios": "https://dc.lft.to/lastmile_qr_scan"}, "fusion_lon": 0.0, "name": "d5a06d023487c8cad59da8a7a0550fab", "lon": -77.000503, "is_disabled": 0, "type": "electric_scooter"}, {"bike_id": "05402fffdaa76a6c7c30726574ecf772", "lat": 38.918061333333334, "is_reserved": 0, "fusion_lat": 0.0, "rental_uris": {"android": "https://dc.lft.to/lastmile_qr_scan", "ios": "https://dc.lft.to/lastmile_qr_scan"}, "fusion_lon": 0.0, "name": "05402fffdaa76a6c7c30726574ecf772", "lon": -77.030766, "is_disabled": 0, "type": "electric_scooter"}, {"bike_id": "1f86e0248d744cadb03a41f1d00a3fc6", "lat": 38.902859666666664, "is_reserved": 0, "fusion_lat": 0.0, "rental_uris": {"android": "https://dc.lft.to/lastmile_qr_scan", "ios": "https://dc.lft.to/lastmile_qr_scan"}, "fusion_lon": 0.0, "name": "1f86e0248d744cadb03a41f1d00a3fc6", "lon": -77.0469405, "is_disabled": 0, "type": "electric_scooter"}, {"bike_id": "c53aa146e1a2e6fb65abab903c019c4b", "lat": 38.8919105, "is_reserved": 0, "fusion_lat": 0.0, "rental_uris": {"android": "https://dc.lft.to/lastmile_qr_scan", "ios": "https://dc.lft.to/lastmile_qr_scan"}, "fusion_lon": 0.0, "name": "c53aa146e1a2e6fb65abab903c019c4b", "lon": -77.02405766666666, "is_disabled": 0, "type": "electric_scooter"}, {"bike_id": "655bcaeb44cf88af4d407c8d9dc9626b", "lat": 38.896528333333336, "is_reserved": 0, "fusion_lat": 0.0, "rental_uris": {"android": "https://dc.lft.to/lastmile_qr_scan", "ios": "https://dc.lft.to/lastmile_qr_scan"}, "fusion_lon": 0.0, "name": "655bcaeb44cf88af4d407c8d9dc9626b", "lon": -77.05023366666667, "is_disabled": 0, "type": "electric_scooter"}, {"bike_id": "01be73e480873ff6991f4aa1cb709ef9", "lat": 38.940015333333335, "is_reserved": 0, "fusion_lat": 0.0, "rental_uris": {"android": "https://dc.lft.to/lastmile_qr_scan", "ios": "https://dc.lft.to/lastmile_qr_scan"}, "fusion_lon": 0.0, "name": "01be73e480873ff6991f4aa1cb709ef9", "lon": -77.03804416666667, "is_disabled": 0, "type": "electric_scooter"}, {"bike_id": "367b194b566d4f5933976948c772b6b7", "lat": 38.898651, "is_reserved": 0, "fusion_lat": 0.0, "rental_uris": {"android": "https://dc.lft.to/lastmile_qr_scan", "ios": "https://dc.lft.to/lastmile_qr_scan"}, "fusion_lon": 0.0, "name": "367b194b566d4f5933976948c772b6b7", "lon": -77.01243, "is_disabled": 0, "type": "electric_scooter"}, {"bike_id": "2ef855ce61b7dfaf977680ce720afffa", "lat": 38.90589883333333, "is_reserved": 0, "fusion_lat": 0.0, "rental_uris": {"android": "https://dc.lft.to/lastmile_qr_scan", "ios": "https://dc.lft.to/lastmile_qr_scan"}, "fusion_lon": 0.0, "name": "2ef855ce61b7dfaf977680ce720afffa", "lon": -77.0411835, "is_disabled": 0, "type": "electric_scooter"}, {"bike_id": "7a627dfe00265991bc47a2c36af7da8d", "lat": 38.91275683333333, "is_reserved": 0, "fusion_lat": 0.0, "rental_uris": {"android": "https://dc.lft.to/lastmile_qr_scan", "ios": "https://dc.lft.to/lastmile_qr_scan"}, "fusion_lon": 0.0, "name": "7a627dfe00265991bc47a2c36af7da8d", "lon": -77.02952316666666, "is_disabled": 0, "type": "electric_scooter"}, {"bike_id": "e6a2d56a496bf442d7ef89f6f111902e", "lat": 38.915522, "is_reserved": 0, "fusion_lat": 0.0, "rental_uris": {"android": "https://dc.lft.to/lastmile_qr_scan", "ios": "https://dc.lft.to/lastmile_qr_scan"}, "fusion_lon": 0.0, "name": "e6a2d56a496bf442d7ef89f6f111902e", "lon": -77.02208266666666, "is_disabled": 0, "type": "electric_scooter"}, {"bike_id": "0a4d3c396d69b4c03c5de29271a6986a", "lat": 38.87099216666667, "is_reserved": 0, "fusion_lat": 0.0, "rental_uris": {"android": "https://dc.lft.to/lastmile_qr_scan", "ios": "https://dc.lft.to/lastmile_qr_scan"}, "fusion_lon": 0.0, "name": "0a4d3c396d69b4c03c5de29271a6986a", "lon": -77.0120555, "is_disabled": 0, "type": "electric_scooter"}, {"bike_id": "111030801ee786d2f581e1ca416b6c7a", "lat": 38.917148833333336, "is_reserved": 0, "fusion_lat": 0.0, "rental_uris": {"android": "https://dc.lft.to/lastmile_qr_scan", "ios": "https://dc.lft.to/lastmile_qr_scan"}, "fusion_lon": 0.0, "name": "111030801ee786d2f581e1ca416b6c7a", "lon": -77.03239116666667, "is_disabled": 0, "type": "electric_scooter"}, {"bike_id": "48099b511b680bf87a9a4cb22e50a2b2", "lat": 38.956386333333334, "is_reserved": 0, "fusion_lat": 0.0, "rental_uris": {"android": "https://dc.lft.to/lastmile_qr_scan", "ios": "https://dc.lft.to/lastmile_qr_scan"}, "fusion_lon": 0.0, "name": "48099b511b680bf87a9a4cb22e50a2b2", "lon": -76.93864966666666, "is_disabled": 0, "type": "electric_bike"}, {"bike_id": "49421ffcd4919134a28ce128de4bce43", "lat": 38.905738166666666, "is_reserved": 0, "fusion_lat": 0.0, "rental_uris": {"android": "https://dc.lft.to/lastmile_qr_scan", "ios": "https://dc.lft.to/lastmile_qr_scan"}, "fusion_lon": 0.0, "name": "49421ffcd4919134a28ce128de4bce43", "lon": -76.97628216666666, "is_disabled": 0, "type": "electric_scooter"}, {"bike_id": "59a67dfbd8d86d892f30098379bc0534", "lat": 38.91468233333333, "is_reserved": 0, "fusion_lat": 0.0, "rental_uris": {"android": "https://dc.lft.to/lastmile_qr_scan", "ios": "https://dc.lft.to/lastmile_qr_scan"}, "fusion_lon": 0.0, "name": "59a67dfbd8d86d892f30098379bc0534", "lon": -77.04554333333333, "is_disabled": 0, "type": "electric_scooter"}, {"bike_id": "ec1472d630b3cc8347a77dd141bc4479", "lat": 38.91697416666667, "is_reserved": 0, "fusion_lat": 0.0, "rental_uris": {"android": "https://dc.lft.to/lastmile_qr_scan", "ios": "https://dc.lft.to/lastmile_qr_scan"}, "fusion_lon": 0.0, "name": "ec1472d630b3cc8347a77dd141bc4479", "lon": -77.023725, "is_disabled": 0, "type": "electric_scooter"}, {"bike_id": "a16288a70525c4a57efe291f88205771", "lat": 38.92854883333333, "is_reserved": 0, "fusion_lat": 0.0, "rental_uris": {"android": "https://dc.lft.to/lastmile_qr_scan", "ios": "https://dc.lft.to/lastmile_qr_scan"}, "fusion_lon": 0.0, "name": "a16288a70525c4a57efe291f88205771", "lon": -77.03617516666667, "is_disabled": 0, "type": "electric_scooter"}, {"bike_id": "4e752cdd058043f4c92557c9f9d12308", "lat": 38.92344716666667, "is_reserved": 0, "fusion_lat": 0.0, "rental_uris": {"android": "https://dc.lft.to/lastmile_qr_scan", "ios": "https://dc.lft.to/lastmile_qr_scan"}, "fusion_lon": 0.0, "name": "4e752cdd058043f4c92557c9f9d12308", "lon": -77.01906833333334, "is_disabled": 0, "type": "electric_scooter"}, {"bike_id": "b849a4b7f40274f2cf500669987944fe", "lat": 38.900613, "is_reserved": 0, "fusion_lat": 0.0, "rental_uris": {"android": "https://dc.lft.to/lastmile_qr_scan", "ios": "https://dc.lft.to/lastmile_qr_scan"}, "fusion_lon": 0.0, "name": "b849a4b7f40274f2cf500669987944fe", "lon": -76.93386816666667, "is_disabled": 0, "type": "electric_scooter"}, {"bike_id": "1729592e34e0d642023d3c87a9c88a19", "lat": 38.9047445, "is_reserved": 0, "fusion_lat": 0.0, "rental_uris": {"android": "https://dc.lft.to/lastmile_qr_scan", "ios": "https://dc.lft.to/lastmile_qr_scan"}, "fusion_lon": 0.0, "name": "1729592e34e0d642023d3c87a9c88a19", "lon": -77.04350316666667, "is_disabled": 0, "type": "electric_scooter"}, {"bike_id": "854f95d1c7b9db78b9a5cc4ef36b37ae", "lat": 38.924760166666665, "is_reserved": 0, "fusion_lat": 0.0, "rental_uris": {"android": "https://dc.lft.to/lastmile_qr_scan", "ios": "https://dc.lft.to/lastmile_qr_scan"}, "fusion_lon": 0.0, "name": "854f95d1c7b9db78b9a5cc4ef36b37ae", "lon": -77.03109833333333, "is_disabled": 0, "type": "electric_scooter"}, {"bike_id": "0b90585ff048677d5e0e5bbde40f6426", "lat": 38.90137883333333, "is_reserved": 0, "fusion_lat": 0.0, "rental_uris": {"android": "https://dc.lft.to/lastmile_qr_scan", "ios": "https://dc.lft.to/lastmile_qr_scan"}, "fusion_lon": 0.0, "name": "0b90585ff048677d5e0e5bbde40f6426", "lon": -77.01514366666666, "is_disabled": 0, "type": "electric_scooter"}, {"bike_id": "591bf7bf41eeba257dec659785a62e13", "lat": 38.91500383333333, "is_reserved": 0, "fusion_lat": 0.0, "rental_uris": {"android": "https://dc.lft.to/lastmile_qr_scan", "ios": "https://dc.lft.to/lastmile_qr_scan"}, "fusion_lon": 0.0, "name": "591bf7bf41eeba257dec659785a62e13", "lon": -77.01772666666666, "is_disabled": 0, "type": "electric_scooter"}, {"bike_id": "25856d1a13e02f9c8084506371a113a6", "lat": 38.90066066666667, "is_reserved": 0, "fusion_lat": 0.0, "rental_uris": {"android": "https://dc.lft.to/lastmile_qr_scan", "ios": "https://dc.lft.to/lastmile_qr_scan"}, "fusion_lon": 0.0, "name": "25856d1a13e02f9c8084506371a113a6", "lon": -77.04881966666666, "is_disabled": 0, "type": "electric_scooter"}, {"bike_id": "77380ddc63f9bf323458fe0b5d230f71", "lat": 38.9055215, "is_reserved": 0, "fusion_lat": 0.0, "rental_uris": {"android": "https://dc.lft.to/lastmile_qr_scan", "ios": "https://dc.lft.to/lastmile_qr_scan"}, "fusion_lon": 0.0, "name": "77380ddc63f9bf323458fe0b5d230f71", "lon": -77.02825516666667, "is_disabled": 0, "type": "electric_scooter"}, {"bike_id": "5a23ec2c181272d2bba80c61e2c21008", "lat": 38.910328, "is_reserved": 0, "fusion_lat": 0.0, "rental_uris": {"android": "https://dc.lft.to/lastmile_qr_scan", "ios": "https://dc.lft.to/lastmile_qr_scan"}, "fusion_lon": 0.0, "name": "5a23ec2c181272d2bba80c61e2c21008", "lon": -76.98556083333334, "is_disabled": 0, "type": "electric_scooter"}, {"bike_id": "d093e52bc0224ca4d6d825a493091782", "lat": 38.921674333333335, "is_reserved": 0, "fusion_lat": 0.0, "rental_uris": {"android": "https://dc.lft.to/lastmile_qr_scan", "ios": "https://dc.lft.to/lastmile_qr_scan"}, "fusion_lon": 0.0, "name": "d093e52bc0224ca4d6d825a493091782", "lon": -77.03338283333333, "is_disabled": 0, "type": "electric_scooter"}, {"bike_id": "57e950691ea00b10cdaeba09d21da6eb", "lat": 38.914173166666664, "is_reserved": 0, "fusion_lat": 0.0, "rental_uris": {"android": "https://dc.lft.to/lastmile_qr_scan", "ios": "https://dc.lft.to/lastmile_qr_scan"}, "fusion_lon": 0.0, "name": "57e950691ea00b10cdaeba09d21da6eb", "lon": -77.024096, "is_disabled": 0, "type": "electric_scooter"}, {"bike_id": "1f321d76e60d2ea5b2c4a6c8b07bddf8", "lat": 38.9022345, "is_reserved": 0, "fusion_lat": 0.0, "rental_uris": {"android": "https://dc.lft.to/lastmile_qr_scan", "ios": "https://dc.lft.to/lastmile_qr_scan"}, "fusion_lon": 0.0, "name": "1f321d76e60d2ea5b2c4a6c8b07bddf8", "lon": -77.03205033333333, "is_disabled": 0, "type": "electric_scooter"}, {"bike_id": "6860a85aec405ef7b66fdb04483a2ff5", "lat": 38.9126955, "is_reserved": 0, "fusion_lat": 0.0, "rental_uris": {"android": "https://dc.lft.to/lastmile_qr_scan", "ios": "https://dc.lft.to/lastmile_qr_scan"}, "fusion_lon": 0.0, "name": "6860a85aec405ef7b66fdb04483a2ff5", "lon": -77.02213816666666, "is_disabled": 0, "type": "electric_scooter"}, {"bike_id": "867cddebb8b199d28d7acb347c9e0b13", "lat": 38.90409966666667, "is_reserved": 0, "fusion_lat": 0.0, "rental_uris": {"android": "https://dc.lft.to/lastmile_qr_scan", "ios": "https://dc.lft.to/lastmile_qr_scan"}, "fusion_lon": 0.0, "name": "867cddebb8b199d28d7acb347c9e0b13", "lon": -76.9733545, "is_disabled": 0, "type": "electric_scooter"}, {"bike_id": "17a74a7ed67219dd8c09ee80bcdb8a85", "lat": 38.899853666666665, "is_reserved": 0, "fusion_lat": 0.0, "rental_uris": {"android": "https://dc.lft.to/lastmile_qr_scan", "ios": "https://dc.lft.to/lastmile_qr_scan"}, "fusion_lon": 0.0, "name": "17a74a7ed67219dd8c09ee80bcdb8a85", "lon": -77.02250366666667, "is_disabled": 0, "type": "electric_scooter"}, {"bike_id": "2f0c9984c37f2995a48925d04e68b90b", "lat": 38.92605966666667, "is_reserved": 0, "fusion_lat": 0.0, "rental_uris": {"android": "https://dc.lft.to/lastmile_qr_scan", "ios": "https://dc.lft.to/lastmile_qr_scan"}, "fusion_lon": 0.0, "name": "2f0c9984c37f2995a48925d04e68b90b", "lon": -77.021698, "is_disabled": 0, "type": "electric_scooter"}, {"bike_id": "246c1809105060e7eba5ab88fc0b903b", "lat": 38.94735633333333, "is_reserved": 0, "fusion_lat": 0.0, "rental_uris": {"android": "https://dc.lft.to/lastmile_qr_scan", "ios": "https://dc.lft.to/lastmile_qr_scan"}, "fusion_lon": 0.0, "name": "246c1809105060e7eba5ab88fc0b903b", "lon": -76.99582166666667, "is_disabled": 0, "type": "electric_bike"}, {"bike_id": "9fed176b629b0de713d34fa72732a203", "lat": 38.9051705, "is_reserved": 0, "fusion_lat": 0.0, "rental_uris": {"android": "https://dc.lft.to/lastmile_qr_scan", "ios": "https://dc.lft.to/lastmile_qr_scan"}, "fusion_lon": 0.0, "name": "9fed176b629b0de713d34fa72732a203", "lon": -77.04894566666667, "is_disabled": 0, "type": "electric_scooter"}, {"bike_id": "6109da2b06b6586adbb4df033797667c", "lat": 38.866533833333335, "is_reserved": 0, "fusion_lat": 0.0, "rental_uris": {"android": "https://dc.lft.to/lastmile_qr_scan", "ios": "https://dc.lft.to/lastmile_qr_scan"}, "fusion_lon": 0.0, "name": "6109da2b06b6586adbb4df033797667c", "lon": -76.98867733333333, "is_disabled": 0, "type": "electric_scooter"}, {"bike_id": "ff7a8b70f243a28f2c5e128e9dc6d07f", "lat": 38.92744783333333, "is_reserved": 0, "fusion_lat": 0.0, "rental_uris": {"android": "https://dc.lft.to/lastmile_qr_scan", "ios": "https://dc.lft.to/lastmile_qr_scan"}, "fusion_lon": 0.0, "name": "ff7a8b70f243a28f2c5e128e9dc6d07f", "lon": -77.0252885, "is_disabled": 0, "type": "electric_scooter"}, {"bike_id": "da755d66915c05965118cefa1b19d756", "lat": 38.91269283333333, "is_reserved": 0, "fusion_lat": 0.0, "rental_uris": {"android": "https://dc.lft.to/lastmile_qr_scan", "ios": "https://dc.lft.to/lastmile_qr_scan"}, "fusion_lon": 0.0, "name": "da755d66915c05965118cefa1b19d756", "lon": -77.02222866666666, "is_disabled": 0, "type": "electric_scooter"}, {"bike_id": "e9d9cb71aa4250fb64e4a11509bf0fa6", "lat": 38.90489933333333, "is_reserved": 0, "fusion_lat": 0.0, "rental_uris": {"android": "https://dc.lft.to/lastmile_qr_scan", "ios": "https://dc.lft.to/lastmile_qr_scan"}, "fusion_lon": 0.0, "name": "e9d9cb71aa4250fb64e4a11509bf0fa6", "lon": -77.01699366666666, "is_disabled": 0, "type": "electric_scooter"}, {"bike_id": "e2b5050d01ac4407658eb5b81f95e8c0", "lat": 38.90156616666667, "is_reserved": 0, "fusion_lat": 0.0, "rental_uris": {"android": "https://dc.lft.to/lastmile_qr_scan", "ios": "https://dc.lft.to/lastmile_qr_scan"}, "fusion_lon": 0.0, "name": "e2b5050d01ac4407658eb5b81f95e8c0", "lon": -77.02286333333333, "is_disabled": 0, "type": "electric_scooter"}, {"bike_id": "d0ba553950120e4d1fe6e75223cd3858", "lat": 38.87419283333333, "is_reserved": 0, "fusion_lat": 0.0, "rental_uris": {"android": "https://dc.lft.to/lastmile_qr_scan", "ios": "https://dc.lft.to/lastmile_qr_scan"}, "fusion_lon": 0.0, "name": "d0ba553950120e4d1fe6e75223cd3858", "lon": -76.9690825, "is_disabled": 0, "type": "electric_scooter"}, {"bike_id": "2ee8cb7cf53291440dbef94cb1f27aee", "lat": 38.86684233333333, "is_reserved": 0, "fusion_lat": 0.0, "rental_uris": {"android": "https://dc.lft.to/lastmile_qr_scan", "ios": "https://dc.lft.to/lastmile_qr_scan"}, "fusion_lon": 0.0, "name": "2ee8cb7cf53291440dbef94cb1f27aee", "lon": -76.98576283333334, "is_disabled": 0, "type": "electric_scooter"}, {"bike_id": "105041c40be42d3a0ce7d52dc612a969", "lat": 38.88746016666666, "is_reserved": 0, "fusion_lat": 0.0, "rental_uris": {"android": "https://dc.lft.to/lastmile_qr_scan", "ios": "https://dc.lft.to/lastmile_qr_scan"}, "fusion_lon": 0.0, "name": "105041c40be42d3a0ce7d52dc612a969", "lon": -77.02569666666666, "is_disabled": 0, "type": "electric_scooter"}, {"bike_id": "e0f2f7004c3999bfa88b32ae0239c5c1", "lat": 38.92891, "is_reserved": 0, "fusion_lat": 0.0, "rental_uris": {"android": "https://dc.lft.to/lastmile_qr_scan", "ios": "https://dc.lft.to/lastmile_qr_scan"}, "fusion_lon": 0.0, "name": "e0f2f7004c3999bfa88b32ae0239c5c1", "lon": -77.02310366666667, "is_disabled": 0, "type": "electric_scooter"}, {"bike_id": "6dd77e29ea51e4e8c94c867fc6dd782e", "lat": 38.829236333333334, "is_reserved": 0, "fusion_lat": 0.0, "rental_uris": {"android": "https://dc.lft.to/lastmile_qr_scan", "ios": "https://dc.lft.to/lastmile_qr_scan"}, "fusion_lon": 0.0, "name": "6dd77e29ea51e4e8c94c867fc6dd782e", "lon": -76.99201583333334, "is_disabled": 0, "type": "electric_scooter"}, {"bike_id": "c5ebc485ec1c6558633abdcbcc447f70", "lat": 38.922463666666665, "is_reserved": 0, "fusion_lat": 0.0, "rental_uris": {"android": "https://dc.lft.to/lastmile_qr_scan", "ios": "https://dc.lft.to/lastmile_qr_scan"}, "fusion_lon": 0.0, "name": "c5ebc485ec1c6558633abdcbcc447f70", "lon": -77.02148916666667, "is_disabled": 0, "type": "electric_scooter"}, {"bike_id": "31367955b3270c6540c94cab124f20d6", "lat": 38.888473833333336, "is_reserved": 0, "fusion_lat": 0.0, "rental_uris": {"android": "https://dc.lft.to/lastmile_qr_scan", "ios": "https://dc.lft.to/lastmile_qr_scan"}, "fusion_lon": 0.0, "name": "31367955b3270c6540c94cab124f20d6", "lon": -76.9268055, "is_disabled": 0, "type": "electric_scooter"}, {"bike_id": "e020dfb74e0bb044a8c0fff38dad67bf", "lat": 38.892208833333335, "is_reserved": 0, "fusion_lat": 0.0, "rental_uris": {"android": "https://dc.lft.to/lastmile_qr_scan", "ios": "https://dc.lft.to/lastmile_qr_scan"}, "fusion_lon": 0.0, "name": "e020dfb74e0bb044a8c0fff38dad67bf", "lon": -77.0223295, "is_disabled": 0, "type": "electric_scooter"}, {"bike_id": "fc7f2e3ba304282917d557157bea2ba3", "lat": 38.87866666666667, "is_reserved": 0, "fusion_lat": 0.0, "rental_uris": {"android": "https://dc.lft.to/lastmile_qr_scan", "ios": "https://dc.lft.to/lastmile_qr_scan"}, "fusion_lon": 0.0, "name": "fc7f2e3ba304282917d557157bea2ba3", "lon": -76.96984, "is_disabled": 0, "type": "electric_scooter"}, {"bike_id": "0e14f6cfd866056fdf9c5cdb5020db55", "lat": 38.91927733333333, "is_reserved": 0, "fusion_lat": 0.0, "rental_uris": {"android": "https://dc.lft.to/lastmile_qr_scan", "ios": "https://dc.lft.to/lastmile_qr_scan"}, "fusion_lon": 0.0, "name": "0e14f6cfd866056fdf9c5cdb5020db55", "lon": -77.03182416666667, "is_disabled": 0, "type": "electric_scooter"}, {"bike_id": "9e302fdd2d2f7e2ab1c16c7647003549", "lat": 38.90181716666667, "is_reserved": 0, "fusion_lat": 0.0, "rental_uris": {"android": "https://dc.lft.to/lastmile_qr_scan", "ios": "https://dc.lft.to/lastmile_qr_scan"}, "fusion_lon": 0.0, "name": "9e302fdd2d2f7e2ab1c16c7647003549", "lon": -77.02181016666667, "is_disabled": 0, "type": "electric_scooter"}, {"bike_id": "ba73095d8cf250ea0946d3a4bdf924c1", "lat": 38.92417366666667, "is_reserved": 0, "fusion_lat": 0.0, "rental_uris": {"android": "https://dc.lft.to/lastmile_qr_scan", "ios": "https://dc.lft.to/lastmile_qr_scan"},