{"data": {"bikes": [{"lat": 38.9200145, "fusion_lat": 0.0, "type": "electric_scooter", "bike_id": "1225f97abf8a55f4770e6a9ecbbf6689", "rental_uris": {"ios": "https://dc.lft.to/lastmile_qr_scan", "android": "https://dc.lft.to/lastmile_qr_scan"}, "fusion_lon": 0.0, "lon": -77.03223666666666, "name": "1225f97abf8a55f4770e6a9ecbbf6689", "is_reserved": 0, "is_disabled": 0}, {"lat": 38.892171166666664, "fusion_lat": 0.0, "type": "electric_scooter", "bike_id": "bbcd0014bd581b8592183aecf57d7a85", "rental_uris": {"ios": "https://dc.lft.to/lastmile_qr_scan", "android": "https://dc.lft.to/lastmile_qr_scan"}, "fusion_lon": 0.0, "lon": -77.02657083333334, "name": "bbcd0014bd581b8592183aecf57d7a85", "is_reserved": 0, "is_disabled": 0}, {"lat": 38.884973333333335, "fusion_lat": 0.0, "type": "electric_scooter", "bike_id": "7b1a9b7fe7a76ffe4cbb1e507fe025c1", "rental_uris": {"ios": "https://dc.lft.to/lastmile_qr_scan", "android": "https://dc.lft.to/lastmile_qr_scan"}, "fusion_lon": 0.0, "lon": -76.98068666666667, "name": "7b1a9b7fe7a76ffe4cbb1e507fe025c1", "is_reserved": 0, "is_disabled": 0}, {"lat": 38.91472183333333, "fusion_lat": 0.0, "type": "electric_scooter", "bike_id": "e37b0a349e4e7cf30b85ff4ef1324c60", "rental_uris": {"ios": "https://dc.lft.to/lastmile_qr_scan", "android": "https://dc.lft.to/lastmile_qr_scan"}, "fusion_lon": 0.0, "lon": -77.0245465, "name": "e37b0a349e4e7cf30b85ff4ef1324c60", "is_reserved": 0, "is_disabled": 0}, {"lat": 38.9209185, "fusion_lat": 0.0, "type": "electric_scooter", "bike_id": "a788090c817e2da35ebcbff353604b1d", "rental_uris": {"ios": "https://dc.lft.to/lastmile_qr_scan", "android": "https://dc.lft.to/lastmile_qr_scan"}, "fusion_lon": 0.0, "lon": -77.075572, "name": "a788090c817e2da35ebcbff353604b1d", "is_reserved": 0, "is_disabled": 0}, {"lat": 38.90552016666667, "fusion_lat": 0.0, "type": "electric_scooter", "bike_id": "5db2dd996c2b24bdf2ff6b168a4dd0a6", "rental_uris": {"ios": "https://dc.lft.to/lastmile_qr_scan", "android": "https://dc.lft.to/lastmile_qr_scan"}, "fusion_lon": 0.0, "lon": -76.99475033333333, "name": "5db2dd996c2b24bdf2ff6b168a4dd0a6", "is_reserved": 0, "is_disabled": 0}, {"lat": 38.88607616666667, "fusion_lat": 0.0, "type": "electric_scooter", "bike_id": "b123e0468eced306274c3ce90ce37b78", "rental_uris": {"ios": "https://dc.lft.to/lastmile_qr_scan", "android": "https://dc.lft.to/lastmile_qr_scan"}, "fusion_lon": 0.0, "lon": -77.0219895, "name": "b123e0468eced306274c3ce90ce37b78", "is_reserved": 0, "is_disabled": 0}, {"lat": 38.902206166666666, "fusion_lat": 0.0, "type": "electric_scooter", "bike_id": "82380fd7048a4cf301817d8d2d0705fa", "rental_uris": {"ios": "https://dc.lft.to/lastmile_qr_scan", "android": "https://dc.lft.to/lastmile_qr_scan"}, "fusion_lon": 0.0, "lon": -76.94200083333334, "name": "82380fd7048a4cf301817d8d2d0705fa", "is_reserved": 0, "is_disabled": 0}, {"lat": 38.907032666666666, "fusion_lat": 0.0, "type": "electric_scooter", "bike_id": "9ba337954bc9ba8ea6ecbde33eb04e7d", "rental_uris": {"ios": "https://dc.lft.to/lastmile_qr_scan", "android": "https://dc.lft.to/lastmile_qr_scan"}, "fusion_lon": 0.0, "lon": -76.98701816666667, "name": "9ba337954bc9ba8ea6ecbde33eb04e7d", "is_reserved": 0, "is_disabled": 0}, {"lat": 38.9244075, "fusion_lat": 0.0, "type": "electric_scooter", "bike_id": "c411db5b7e6c4ada4cb83d19a1936ff2", "rental_uris": {"ios": "https://dc.lft.to/lastmile_qr_scan", "android": "https://dc.lft.to/lastmile_qr_scan"}, "fusion_lon": 0.0, "lon": -77.0202375, "name": "c411db5b7e6c4ada4cb83d19a1936ff2", "is_reserved": 0, "is_disabled": 0}, {"lat": 38.8971525, "fusion_lat": 0.0, "type": "electric_scooter", "bike_id": "e0b4958329a27b1647e178f052767cd0", "rental_uris": {"ios": "https://dc.lft.to/lastmile_qr_scan", "android": "https://dc.lft.to/lastmile_qr_scan"}, "fusion_lon": 0.0, "lon": -77.0079915, "name": "e0b4958329a27b1647e178f052767cd0", "is_reserved": 0, "is_disabled": 0}, {"lat": 38.89685, "fusion_lat": 0.0, "type": "electric_scooter", "bike_id": "8366f9e5d9acceedf8441fddca5a6dfc", "rental_uris": {"ios": "https://dc.lft.to/lastmile_qr_scan", "android": "https://dc.lft.to/lastmile_qr_scan"}, "fusion_lon": 0.0, "lon": -76.93715966666667, "name": "8366f9e5d9acceedf8441fddca5a6dfc", "is_reserved": 0, "is_disabled": 0}, {"lat": 38.8812185, "fusion_lat": 0.0, "type": "electric_bike", "bike_id": "ae050c1e636c3d01f659b08a28be6fe8", "rental_uris": {"ios": "https://dc.lft.to/lastmile_qr_scan", "android": "https://dc.lft.to/lastmile_qr_scan"}, "fusion_lon": 0.0, "lon": -77.01678483333333, "name": "ae050c1e636c3d01f659b08a28be6fe8", "is_reserved": 0, "is_disabled": 0}, {"lat": 38.91799616666667, "fusion_lat": 0.0, "type": "electric_scooter", "bike_id": "80f0d08107dcedd9c0b7333aa9bfd351", "rental_uris": {"ios": "https://dc.lft.to/lastmile_qr_scan", "android": "https://dc.lft.to/lastmile_qr_scan"}, "fusion_lon": 0.0, "lon": -77.02488166666667, "name": "80f0d08107dcedd9c0b7333aa9bfd351", "is_reserved": 0, "is_disabled": 0}, {"lat": 38.899324, "fusion_lat": 0.0, "type": "electric_scooter", "bike_id": "6d73cabb4d0c36066ba00ee5062f3105", "rental_uris": {"ios": "https://dc.lft.to/lastmile_qr_scan", "android": "https://dc.lft.to/lastmile_qr_scan"}, "fusion_lon": 0.0, "lon": -77.04134133333334, "name": "6d73cabb4d0c36066ba00ee5062f3105", "is_reserved": 0, "is_disabled": 0}, {"lat": 38.8922465, "fusion_lat": 0.0, "type": "electric_scooter", "bike_id": "68a7dabf9c79c30424c9cb72c49d74d5", "rental_uris": {"ios": "https://dc.lft.to/lastmile_qr_scan", "android": "https://dc.lft.to/lastmile_qr_scan"}, "fusion_lon": 0.0, "lon": -77.02798733333333, "name": "68a7dabf9c79c30424c9cb72c49d74d5", "is_reserved": 0, "is_disabled": 0}, {"lat": 38.9258785, "fusion_lat": 0.0, "type": "electric_scooter", "bike_id": "cc25ce80c20eb95d52621bb21446b3e9", "rental_uris": {"ios": "https://dc.lft.to/lastmile_qr_scan", "android": "https://dc.lft.to/lastmile_qr_scan"}, "fusion_lon": 0.0, "lon": -77.096866, "name": "cc25ce80c20eb95d52621bb21446b3e9", "is_reserved": 0, "is_disabled": 0}, {"lat": 38.91712283333333, "fusion_lat": 0.0, "type": "electric_scooter", "bike_id": "5745b9d069a511107fb4ece02c1ba405", "rental_uris": {"ios": "https://dc.lft.to/lastmile_qr_scan", "android": "https://dc.lft.to/lastmile_qr_scan"}, "fusion_lon": 0.0, "lon": -77.03628466666666, "name": "5745b9d069a511107fb4ece02c1ba405", "is_reserved": 0, "is_disabled": 0}, {"lat": 38.91065416666667, "fusion_lat": 0.0, "type": "electric_scooter", "bike_id": "314d5aa25b90448531d2bbcc71df79ef", "rental_uris": {"ios": "https://dc.lft.to/lastmile_qr_scan", "android": "https://dc.lft.to/lastmile_qr_scan"}, "fusion_lon": 0.0, "lon": -77.05387083333333, "name": "314d5aa25b90448531d2bbcc71df79ef", "is_reserved": 0, "is_disabled": 0}, {"lat": 38.91329483333333, "fusion_lat": 0.0, "type": "electric_scooter", "bike_id": "442edec8137128f02094d05be6f04f8c", "rental_uris": {"ios": "https://dc.lft.to/lastmile_qr_scan", "android": "https://dc.lft.to/lastmile_qr_scan"}, "fusion_lon": 0.0, "lon": -77.03186616666666, "name": "442edec8137128f02094d05be6f04f8c", "is_reserved": 0, "is_disabled": 0}, {"lat": 38.90063416666667, "fusion_lat": 0.0, "type": "electric_scooter", "bike_id": "53f46af06809a18fe66a20b53a7fa56d", "rental_uris": {"ios": "https://dc.lft.to/lastmile_qr_scan", "android": "https://dc.lft.to/lastmile_qr_scan"}, "fusion_lon": 0.0, "lon": -77.05052966666666, "name": "53f46af06809a18fe66a20b53a7fa56d", "is_reserved": 0, "is_disabled": 0}, {"lat": 38.923512833333334, "fusion_lat": 0.0, "type": "electric_scooter", "bike_id": "4901b3965ef45d8107ba3a7c754cd4f6", "rental_uris": {"ios": "https://dc.lft.to/lastmile_qr_scan", "android": "https://dc.lft.to/lastmile_qr_scan"}, "fusion_lon": 0.0, "lon": -77.0033035, "name": "4901b3965ef45d8107ba3a7c754cd4f6", "is_reserved": 0, "is_disabled": 0}, {"lat": 38.89241116666667, "fusion_lat": 0.0, "type": "electric_scooter", "bike_id": "1f5e70879d801ed659a4a2ce05e61d45", "rental_uris": {"ios": "https://dc.lft.to/lastmile_qr_scan", "android": "https://dc.lft.to/lastmile_qr_scan"}, "fusion_lon": 0.0, "lon": -77.05029533333334, "name": "1f5e70879d801ed659a4a2ce05e61d45", "is_reserved": 0, "is_disabled": 0}, {"lat": 38.9152355, "fusion_lat": 0.0, "type": "electric_scooter", "bike_id": "3f0aef343541d8800206b5d4008f6e8e", "rental_uris": {"ios": "https://dc.lft.to/lastmile_qr_scan", "android": "https://dc.lft.to/lastmile_qr_scan"}, "fusion_lon": 0.0, "lon": -77.0486005, "name": "3f0aef343541d8800206b5d4008f6e8e", "is_reserved": 0, "is_disabled": 0}, {"lat": 38.9171435, "fusion_lat": 0.0, "type": "electric_scooter", "bike_id": "19f83e554e03773261444135b575ee83", "rental_uris": {"ios": "https://dc.lft.to/lastmile_qr_scan", "android": "https://dc.lft.to/lastmile_qr_scan"}, "fusion_lon": 0.0, "lon": -77.02591333333334, "name": "19f83e554e03773261444135b575ee83", "is_reserved": 0, "is_disabled": 0}, {"lat": 38.899039333333334, "fusion_lat": 0.0, "type": "electric_scooter", "bike_id": "ffd0cb673fce81fef8acbef121797e23", "rental_uris": {"ios": "https://dc.lft.to/lastmile_qr_scan", "android": "https://dc.lft.to/lastmile_qr_scan"}, "fusion_lon": 0.0, "lon": -76.9996255, "name": "ffd0cb673fce81fef8acbef121797e23", "is_reserved": 0, "is_disabled": 0}, {"lat": 38.87579266666667, "fusion_lat": 0.0, "type": "electric_bike", "bike_id": "d97a074a32e2b13152ced080a232114e", "rental_uris": {"ios": "https://dc.lft.to/lastmile_qr_scan", "android": "https://dc.lft.to/lastmile_qr_scan"}, "fusion_lon": 0.0, "lon": -77.23413666666667, "name": "d97a074a32e2b13152ced080a232114e", "is_reserved": 0, "is_disabled": 0}, {"lat": 38.961686, "fusion_lat": 0.0, "type": "electric_scooter", "bike_id": "1c3a7ea1da8b2b02fd2b0c562ad27202", "rental_uris": {"ios": "https://dc.lft.to/lastmile_qr_scan", "android": "https://dc.lft.to/lastmile_qr_scan"}, "fusion_lon": 0.0, "lon": -77.073651, "name": "1c3a7ea1da8b2b02fd2b0c562ad27202", "is_reserved": 0, "is_disabled": 0}, {"lat": 38.934421666666665, "fusion_lat": 0.0, "type": "electric_scooter", "bike_id": "364046ac6fc0acea9077f78e291808df", "rental_uris": {"ios": "https://dc.lft.to/lastmile_qr_scan", "android": "https://dc.lft.to/lastmile_qr_scan"}, "fusion_lon": 0.0, "lon": -77.09059783333333, "name": "364046ac6fc0acea9077f78e291808df", "is_reserved": 0, "is_disabled": 0}, {"lat": 38.932626, "fusion_lat": 0.0, "type": "electric_scooter", "bike_id": "c721fff725e813740b0e980c4fd4d1f2", "rental_uris": {"ios": "https://dc.lft.to/lastmile_qr_scan", "android": "https://dc.lft.to/lastmile_qr_scan"}, "fusion_lon": 0.0, "lon": -77.02095483333333, "name": "c721fff725e813740b0e980c4fd4d1f2", "is_reserved": 0, "is_disabled": 0}, {"lat": 38.926968, "fusion_lat": 0.0, "type": "electric_scooter", "bike_id": "1f5a945180ad6c36a6aa3d66c05d4cbf", "rental_uris": {"ios": "https://dc.lft.to/lastmile_qr_scan", "android": "https://dc.lft.to/lastmile_qr_scan"}, "fusion_lon": 0.0, "lon": -76.99764183333333, "name": "1f5a945180ad6c36a6aa3d66c05d4cbf", "is_reserved": 0, "is_disabled": 0}, {"lat": 38.899927, "fusion_lat": 0.0, "type": "electric_scooter", "bike_id": "50346698a92106b31c0f3d5e46458c68", "rental_uris": {"ios": "https://dc.lft.to/lastmile_qr_scan", "android": "https://dc.lft.to/lastmile_qr_scan"}, "fusion_lon": 0.0, "lon": -77.01585016666667, "name": "50346698a92106b31c0f3d5e46458c68", "is_reserved": 0, "is_disabled": 0}, {"lat": 38.89229916666667, "fusion_lat": 0.0, "type": "electric_scooter", "bike_id": "84e8ea7de2e9862f8f7bceb88f7eebb1", "rental_uris": {"ios": "https://dc.lft.to/lastmile_qr_scan", "android": "https://dc.lft.to/lastmile_qr_scan"}, "fusion_lon": 0.0, "lon": -77.04877516666667, "name": "84e8ea7de2e9862f8f7bceb88f7eebb1", "is_reserved": 0, "is_disabled": 0}, {"lat": 38.92739433333333, "fusion_lat": 0.0, "type": "electric_scooter", "bike_id": "9a969e38fafc2f409b6d7b9c8235b674", "rental_uris": {"ios": "https://dc.lft.to/lastmile_qr_scan", "android": "https://dc.lft.to/lastmile_qr_scan"}, "fusion_lon": 0.0, "lon": -77.0334855, "name": "9a969e38fafc2f409b6d7b9c8235b674", "is_reserved": 0, "is_disabled": 0}, {"lat": 38.97199583333333, "fusion_lat": 0.0, "type": "electric_bike", "bike_id": "e0d010780fb2eaccbe82f7da0701eb64", "rental_uris": {"ios": "https://dc.lft.to/lastmile_qr_scan", "android": "https://dc.lft.to/lastmile_qr_scan"}, "fusion_lon": 0.0, "lon": -77.03329633333334, "name": "e0d010780fb2eaccbe82f7da0701eb64", "is_reserved": 0, "is_disabled": 0}, {"lat": 38.911362, "fusion_lat": 0.0, "type": "electric_scooter", "bike_id": "5517299435276c1b32d3099ff0a8e87e", "rental_uris": {"ios": "https://dc.lft.to/lastmile_qr_scan", "android": "https://dc.lft.to/lastmile_qr_scan"}, "fusion_lon": 0.0, "lon": -77.02818483333333, "name": "5517299435276c1b32d3099ff0a8e87e", "is_reserved": 0, "is_disabled": 0}, {"lat": 38.888615, "fusion_lat": 0.0, "type": "electric_bike", "bike_id": "75000702984ee4da2071bf4b1cb5bee4", "rental_uris": {"ios": "https://dc.lft.to/lastmile_qr_scan", "android": "https://dc.lft.to/lastmile_qr_scan"}, "fusion_lon": 0.0, "lon": -77.08175666666666, "name": "75000702984ee4da2071bf4b1cb5bee4", "is_reserved": 0, "is_disabled": 0}, {"lat": 38.909790666666666, "fusion_lat": 0.0, "type": "electric_scooter", "bike_id": "9668f1dfcf2b1273be4c3a68b77e7c10", "rental_uris": {"ios": "https://dc.lft.to/lastmile_qr_scan", "android": "https://dc.lft.to/lastmile_qr_scan"}, "fusion_lon": 0.0, "lon": -77.020054, "name": "9668f1dfcf2b1273be4c3a68b77e7c10", "is_reserved": 0, "is_disabled": 0}, {"lat": 38.88245933333334, "fusion_lat": 0.0, "type": "electric_bike", "bike_id": "90337bb11a680224fac34c2227f9ee68", "rental_uris": {"ios": "https://dc.lft.to/lastmile_qr_scan", "android": "https://dc.lft.to/lastmile_qr_scan"}, "fusion_lon": 0.0, "lon": -76.9626455, "name": "90337bb11a680224fac34c2227f9ee68", "is_reserved": 0, "is_disabled": 0}, {"lat": 38.905088666666664, "fusion_lat": 0.0, "type": "electric_scooter", "bike_id": "e0377bb791b63913e6579176ef3c97a4", "rental_uris": {"ios": "https://dc.lft.to/lastmile_qr_scan", "android": "https://dc.lft.to/lastmile_qr_scan"}, "fusion_lon": 0.0, "lon": -77.06383933333333, "name": "e0377bb791b63913e6579176ef3c97a4", "is_reserved": 0, "is_disabled": 0}, {"lat": 38.90652683333333, "fusion_lat": 0.0, "type": "electric_scooter", "bike_id": "3ed5b55562b27cef70b62682ccd4dc23", "rental_uris": {"ios": "https://dc.lft.to/lastmile_qr_scan", "android": "https://dc.lft.to/lastmile_qr_scan"}, "fusion_lon": 0.0, "lon": -77.01146333333334, "name": "3ed5b55562b27cef70b62682ccd4dc23", "is_reserved": 0, "is_disabled": 0}, {"lat": 38.9107595, "fusion_lat": 0.0, "type": "electric_scooter", "bike_id": "485d8a41a14fce905853bab408ad9b6a", "rental_uris": {"ios": "https://dc.lft.to/lastmile_qr_scan", "android": "https://dc.lft.to/lastmile_qr_scan"}, "fusion_lon": 0.0, "lon": -77.0014905, "name": "485d8a41a14fce905853bab408ad9b6a", "is_reserved": 0, "is_disabled": 0}, {"lat": 38.915596, "fusion_lat": 0.0, "type": "electric_bike", "bike_id": "7cc41abab146a3d2c0c9a64f971bdd48", "rental_uris": {"ios": "https://dc.lft.to/lastmile_qr_scan", "android": "https://dc.lft.to/lastmile_qr_scan"}, "fusion_lon": 0.0, "lon": -77.040304, "name": "7cc41abab146a3d2c0c9a64f971bdd48", "is_reserved": 0, "is_disabled": 0}, {"lat": 38.928817333333335, "fusion_lat": 0.0, "type": "electric_scooter", "bike_id": "75a1e808ad4a326ea23975e5a6fa814e", "rental_uris": {"ios": "https://dc.lft.to/lastmile_qr_scan", "android": "https://dc.lft.to/lastmile_qr_scan"}, "fusion_lon": 0.0, "lon": -77.01365483333333, "name": "75a1e808ad4a326ea23975e5a6fa814e", "is_reserved": 0, "is_disabled": 0}, {"lat": 38.89977416666667, "fusion_lat": 0.0, "type": "electric_scooter", "bike_id": "471d331b2c3cbb1ce3fc271fd09a8e0c", "rental_uris": {"ios": "https://dc.lft.to/lastmile_qr_scan", "android": "https://dc.lft.to/lastmile_qr_scan"}, "fusion_lon": 0.0, "lon": -77.02480016666667, "name": "471d331b2c3cbb1ce3fc271fd09a8e0c", "is_reserved": 0, "is_disabled": 0}, {"lat": 38.908475833333334, "fusion_lat": 0.0, "type": "electric_scooter", "bike_id": "8e8245d93bb57c1a9f36a2810b4d23d6", "rental_uris": {"ios": "https://dc.lft.to/lastmile_qr_scan", "android": "https://dc.lft.to/lastmile_qr_scan"}, "fusion_lon": 0.0, "lon": -77.03833366666667, "name": "8e8245d93bb57c1a9f36a2810b4d23d6", "is_reserved": 0, "is_disabled": 0}, {"lat": 38.905422, "fusion_lat": 0.0, "type": "electric_scooter", "bike_id": "880823f87a9b7ab7cf6fb3fa1796e694", "rental_uris": {"ios": "https://dc.lft.to/lastmile_qr_scan", "android": "https://dc.lft.to/lastmile_qr_scan"}, "fusion_lon": 0.0, "lon": -77.05043683333334, "name": "880823f87a9b7ab7cf6fb3fa1796e694", "is_reserved": 0, "is_disabled": 0}, {"lat": 38.899127166666666, "fusion_lat": 0.0, "type": "electric_scooter", "bike_id": "03a38633d65c37e1adadfc161e48a6e2", "rental_uris": {"ios": "https://dc.lft.to/lastmile_qr_scan", "android": "https://dc.lft.to/lastmile_qr_scan"}, "fusion_lon": 0.0, "lon": -77.04493666666667, "name": "03a38633d65c37e1adadfc161e48a6e2", "is_reserved": 0, "is_disabled": 0}, {"lat": 38.9102505, "fusion_lat": 0.0, "type": "electric_scooter", "bike_id": "f3f175e8d162b14e48df4262168a7ad2", "rental_uris": {"ios": "https://dc.lft.to/lastmile_qr_scan", "android": "https://dc.lft.to/lastmile_qr_scan"}, "fusion_lon": 0.0, "lon": -77.02936, "name": "f3f175e8d162b14e48df4262168a7ad2", "is_reserved": 0, "is_disabled": 0}, {"lat": 38.9408245, "fusion_lat": 0.0, "type": "electric_scooter", "bike_id": "e0d6497b9ffe1fe04f8bd46fff4cbecf", "rental_uris": {"ios": "https://dc.lft.to/lastmile_qr_scan", "android": "https://dc.lft.to/lastmile_qr_scan"}, "fusion_lon": 0.0, "lon": -77.027261, "name": "e0d6497b9ffe1fe04f8bd46fff4cbecf", "is_reserved": 0, "is_disabled": 0}, {"lat": 38.92084033333333, "fusion_lat": 0.0, "type": "electric_scooter", "bike_id": "a8bb19bb367f0940dcdf89f059d5fb9b", "rental_uris": {"ios": "https://dc.lft.to/lastmile_qr_scan", "android": "https://dc.lft.to/lastmile_qr_scan"}, "fusion_lon": 0.0, "lon": -77.0819325, "name": "a8bb19bb367f0940dcdf89f059d5fb9b", "is_reserved": 0, "is_disabled": 0}, {"lat": 38.953961166666666, "fusion_lat": 0.0, "type": "electric_scooter", "bike_id": "498473113bc4af5b9641dd4b67fcc48f", "rental_uris": {"ios": "https://dc.lft.to/lastmile_qr_scan", "android": "https://dc.lft.to/lastmile_qr_scan"}, "fusion_lon": 0.0, "lon": -77.027961, "name": "498473113bc4af5b9641dd4b67fcc48f", "is_reserved": 0, "is_disabled": 0}, {"lat": 38.88746316666667, "fusion_lat": 0.0, "type": "electric_scooter", "bike_id": "33c3753e06d4f75d53a734d8d826b7ee", "rental_uris": {"ios": "https://dc.lft.to/lastmile_qr_scan", "android": "https://dc.lft.to/lastmile_qr_scan"}, "fusion_lon": 0.0, "lon": -77.0277565, "name": "33c3753e06d4f75d53a734d8d826b7ee", "is_reserved": 0, "is_disabled": 0}, {"lat": 38.865042333333335, "fusion_lat": 0.0, "type": "electric_bike", "bike_id": "3e7d443327a744ac49e194942c42d75e", "rental_uris": {"ios": "https://dc.lft.to/lastmile_qr_scan", "android": "https://dc.lft.to/lastmile_qr_scan"}, "fusion_lon": 0.0, "lon": -76.97744433333334, "name": "3e7d443327a744ac49e194942c42d75e", "is_reserved": 0, "is_disabled": 0}, {"lat": 38.8842765, "fusion_lat": 0.0, "type": "electric_scooter", "bike_id": "fac52e7d7ec156b50c994d0bb48666f9", "rental_uris": {"ios": "https://dc.lft.to/lastmile_qr_scan", "android": "https://dc.lft.to/lastmile_qr_scan"}, "fusion_lon": 0.0, "lon": -76.95759616666666, "name": "fac52e7d7ec156b50c994d0bb48666f9", "is_reserved": 0, "is_disabled": 0}, {"lat": 38.907781666666665, "fusion_lat": 0.0, "type": "electric_scooter", "bike_id": "7d720eac296aab4f250339d43ab6ecd2", "rental_uris": {"ios": "https://dc.lft.to/lastmile_qr_scan", "android": "https://dc.lft.to/lastmile_qr_scan"}, "fusion_lon": 0.0, "lon": -77.04324916666667, "name": "7d720eac296aab4f250339d43ab6ecd2", "is_reserved": 0, "is_disabled": 0}, {"lat": 38.92102916666666, "fusion_lat": 0.0, "type": "electric_scooter", "bike_id": "8e1d7a6ca3d182b22682c6ba5c3d8d99", "rental_uris": {"ios": "https://dc.lft.to/lastmile_qr_scan", "android": "https://dc.lft.to/lastmile_qr_scan"}, "fusion_lon": 0.0, "lon": -77.04220333333333, "name": "8e1d7a6ca3d182b22682c6ba5c3d8d99", "is_reserved": 0, "is_disabled": 0}, {"lat": 38.91632716666667, "fusion_lat": 0.0, "type": "electric_scooter", "bike_id": "f0f3f2aebc24b8f8e7e5df3126bb77fe", "rental_uris": {"ios": "https://dc.lft.to/lastmile_qr_scan", "android": "https://dc.lft.to/lastmile_qr_scan"}, "fusion_lon": 0.0, "lon": -77.05071733333334, "name": "f0f3f2aebc24b8f8e7e5df3126bb77fe", "is_reserved": 0, "is_disabled": 0}, {"lat": 38.93283316666667, "fusion_lat": 0.0, "type": "electric_scooter", "bike_id": "74ed92c14788cc93465b76213c00941e", "rental_uris": {"ios": "https://dc.lft.to/lastmile_qr_scan", "android": "https://dc.lft.to/lastmile_qr_scan"}, "fusion_lon": 0.0, "lon": -77.03552783333333, "name": "74ed92c14788cc93465b76213c00941e", "is_reserved": 0, "is_disabled": 0}, {"lat": 38.9210675, "fusion_lat": 0.0, "type": "electric_scooter", "bike_id": "2f3a6184c0a35a714c680bc5f5db6963", "rental_uris": {"ios": "https://dc.lft.to/lastmile_qr_scan", "android": "https://dc.lft.to/lastmile_qr_scan"}, "fusion_lon": 0.0, "lon": -77.021883, "name": "2f3a6184c0a35a714c680bc5f5db6963", "is_reserved": 0, "is_disabled": 0}, {"lat": 38.970695166666665, "fusion_lat": 0.0, "type": "electric_bike", "bike_id": "351eb2aa14af6c20737260a36baca0bf", "rental_uris": {"ios": "https://dc.lft.to/lastmile_qr_scan", "android": "https://dc.lft.to/lastmile_qr_scan"}, "fusion_lon": 0.0, "lon": -76.93618716666667, "name": "351eb2aa14af6c20737260a36baca0bf", "is_reserved": 0, "is_disabled": 0}, {"lat": 38.90227316666667, "fusion_lat": 0.0, "type": "electric_scooter", "bike_id": "0f98fbaf6ee3bc6fc2b020e7bb36d5f6", "rental_uris": {"ios": "https://dc.lft.to/lastmile_qr_scan", "android": "https://dc.lft.to/lastmile_qr_scan"}, "fusion_lon": 0.0, "lon": -77.02370733333333, "name": "0f98fbaf6ee3bc6fc2b020e7bb36d5f6", "is_reserved": 0, "is_disabled": 0}, {"lat": 38.90516683333333, "fusion_lat": 0.0, "type": "electric_scooter", "bike_id": "5709b5dfd6cbd19a3ea0556cc379cb56", "rental_uris": {"ios": "https://dc.lft.to/lastmile_qr_scan", "android": "https://dc.lft.to/lastmile_qr_scan"}, "fusion_lon": 0.0, "lon": -77.06474516666667, "name": "5709b5dfd6cbd19a3ea0556cc379cb56", "is_reserved": 0, "is_disabled": 0}, {"lat": 38.908523, "fusion_lat": 0.0, "type": "electric_scooter", "bike_id": "394dd73f2dfe1b9cd356299f9942a499", "rental_uris": {"ios": "https://dc.lft.to/lastmile_qr_scan", "android": "https://dc.lft.to/lastmile_qr_scan"}, "fusion_lon": 0.0, "lon": -77.02694583333333, "name": "394dd73f2dfe1b9cd356299f9942a499", "is_reserved": 0, "is_disabled": 0}, {"lat": 38.92120216666667, "fusion_lat": 0.0, "type": "electric_bike", "bike_id": "1c2c45b9fbc76738d2c731722eed80df", "rental_uris": {"ios": "https://dc.lft.to/lastmile_qr_scan", "android": "https://dc.lft.to/lastmile_qr_scan"}, "fusion_lon": 0.0, "lon": -77.012135, "name": "1c2c45b9fbc76738d2c731722eed80df", "is_reserved": 0, "is_disabled": 0}, {"lat": 38.90845316666667, "fusion_lat": 0.0, "type": "electric_scooter", "bike_id": "5dc969a72da50f0b8138d8dcaee06cb4", "rental_uris": {"ios": "https://dc.lft.to/lastmile_qr_scan", "android": "https://dc.lft.to/lastmile_qr_scan"}, "fusion_lon": 0.0, "lon": -77.00178683333333, "name": "5dc969a72da50f0b8138d8dcaee06cb4", "is_reserved": 0, "is_disabled": 0}, {"lat": 38.89769783333333, "fusion_lat": 0.0, "type": "electric_scooter", "bike_id": "a2274f24339ed56befbbcfdd7185ca3b", "rental_uris": {"ios": "https://dc.lft.to/lastmile_qr_scan", "android": "https://dc.lft.to/lastmile_qr_scan"}, "fusion_lon": 0.0, "lon": -77.04789416666667, "name": "a2274f24339ed56befbbcfdd7185ca3b", "is_reserved": 0, "is_disabled": 0}, {"lat": 38.91931866666667, "fusion_lat": 0.0, "type": "electric_scooter", "bike_id": "5af10fd4620b23ea1fcf59b2244d8580", "rental_uris": {"ios": "https://dc.lft.to/lastmile_qr_scan", "android": "https://dc.lft.to/lastmile_qr_scan"}, "fusion_lon": 0.0, "lon": -77.0318115, "name": "5af10fd4620b23ea1fcf59b2244d8580", "is_reserved": 0, "is_disabled": 0}, {"lat": 38.89228716666667, "fusion_lat": 0.0, "type": "electric_scooter", "bike_id": "e2f7de00904af2dc822cc670c3288d8a", "rental_uris": {"ios": "https://dc.lft.to/lastmile_qr_scan", "android": "https://dc.lft.to/lastmile_qr_scan"}, "fusion_lon": 0.0, "lon": -77.05006416666667, "name": "e2f7de00904af2dc822cc670c3288d8a", "is_reserved": 0, "is_disabled": 0}, {"lat": 38.90272016666667, "fusion_lat": 0.0, "type": "electric_scooter", "bike_id": "30cae7d3a875d362ce6d4eabe073c463", "rental_uris": {"ios": "https://dc.lft.to/lastmile_qr_scan", "android": "https://dc.lft.to/lastmile_qr_scan"}, "fusion_lon": 0.0, "lon": -77.0358245, "name": "30cae7d3a875d362ce6d4eabe073c463", "is_reserved": 0, "is_disabled": 0}, {"lat": 38.927913, "fusion_lat": 0.0, "type": "electric_scooter", "bike_id": "b89662a15e8fb31123e497104d3d3b46", "rental_uris": {"ios": "https://dc.lft.to/lastmile_qr_scan", "android": "https://dc.lft.to/lastmile_qr_scan"}, "fusion_lon": 0.0, "lon": -77.01555083333334, "name": "b89662a15e8fb31123e497104d3d3b46", "is_reserved": 0, "is_disabled": 0}, {"lat": 38.910971, "fusion_lat": 0.0, "type": "electric_scooter", "bike_id": "ec19122cb8d9ce08f89daf01bb9bfbd8", "rental_uris": {"ios": "https://dc.lft.to/lastmile_qr_scan", "android": "https://dc.lft.to/lastmile_qr_scan"}, "fusion_lon": 0.0, "lon": -77.0449645, "name": "ec19122cb8d9ce08f89daf01bb9bfbd8", "is_reserved": 0, "is_disabled": 0}, {"lat": 38.93588916666667, "fusion_lat": 0.0, "type": "electric_scooter", "bike_id": "ff11379a9b289c6b2520ae58afa72f48", "rental_uris": {"ios": "https://dc.lft.to/lastmile_qr_scan", "android": "https://dc.lft.to/lastmile_qr_scan"}, "fusion_lon": 0.0, "lon": -77.02850366666667, "name": "ff11379a9b289c6b2520ae58afa72f48", "is_reserved": 0, "is_disabled": 0}, {"lat": 38.90114283333333, "fusion_lat": 0.0, "type": "electric_scooter", "bike_id": "583dae4a43ae3ee1d270c44aaf95f01d", "rental_uris": {"ios": "https://dc.lft.to/lastmile_qr_scan", "android": "https://dc.lft.to/lastmile_qr_scan"}, "fusion_lon": 0.0, "lon": -77.049961, "name": "583dae4a43ae3ee1d270c44aaf95f01d", "is_reserved": 0, "is_disabled": 0}, {"lat": 38.884506333333334, "fusion_lat": 0.0, "type": "electric_scooter", "bike_id": "6ccf13bfd4e75524d6a802d8166546f6", "rental_uris": {"ios": "https://dc.lft.to/lastmile_qr_scan", "android": "https://dc.lft.to/lastmile_qr_scan"}, "fusion_lon": 0.0, "lon": -76.950982, "name": "6ccf13bfd4e75524d6a802d8166546f6", "is_reserved": 0, "is_disabled": 0}, {"lat": 38.90450366666666, "fusion_lat": 0.0, "type": "electric_scooter", "bike_id": "3c4e15738d018f191c13e7e3870dbe06", "rental_uris": {"ios": "https://dc.lft.to/lastmile_qr_scan", "android": "https://dc.lft.to/lastmile_qr_scan"}, "fusion_lon": 0.0, "lon": -77.0270815, "name": "3c4e15738d018f191c13e7e3870dbe06", "is_reserved": 0, "is_disabled": 0}, {"lat": 38.91715116666666, "fusion_lat": 0.0, "type": "electric_scooter", "bike_id": "5718635f6ef82e5b5afb531913d59401", "rental_uris": {"ios": "https://dc.lft.to/lastmile_qr_scan", "android": "https://dc.lft.to/lastmile_qr_scan"}, "fusion_lon": 0.0, "lon": -77.02779016666666, "name": "5718635f6ef82e5b5afb531913d59401", "is_reserved": 0, "is_disabled": 0}, {"lat": 38.916910333333334, "fusion_lat": 0.0, "type": "electric_scooter", "bike_id": "5c3299a577c76e8197444ebad6f9f8d4", "rental_uris": {"ios": "https://dc.lft.to/lastmile_qr_scan", "android": "https://dc.lft.to/lastmile_qr_scan"}, "fusion_lon": 0.0, "lon": -77.0260135, "name": "5c3299a577c76e8197444ebad6f9f8d4", "is_reserved": 0, "is_disabled": 0}, {"lat": 38.90783016666666, "fusion_lat": 0.0, "type": "electric_scooter", "bike_id": "c2f33c0796b4a591bac65b393f2ec67c", "rental_uris": {"ios": "https://dc.lft.to/lastmile_qr_scan", "android": "https://dc.lft.to/lastmile_qr_scan"}, "fusion_lon": 0.0, "lon": -77.03834916666666, "name": "c2f33c0796b4a591bac65b393f2ec67c", "is_reserved": 0, "is_disabled": 0}, {"lat": 38.909937, "fusion_lat": 0.0, "type": "electric_scooter", "bike_id": "bacf2553c1e5040b7818318319632d76", "rental_uris": {"ios": "https://dc.lft.to/lastmile_qr_scan", "android": "https://dc.lft.to/lastmile_qr_scan"}, "fusion_lon": 0.0, "lon": -77.03197416666667, "name": "bacf2553c1e5040b7818318319632d76", "is_reserved": 0, "is_disabled": 0}, {"lat": 38.91704633333333, "fusion_lat": 0.0, "type": "electric_scooter", "bike_id": "814031eff7f6503f98a0dcea11190a20", "rental_uris": {"ios": "https://dc.lft.to/lastmile_qr_scan", "android": "https://dc.lft.to/lastmile_qr_scan"}, "fusion_lon": 0.0, "lon": -77.02911983333334, "name": "814031eff7f6503f98a0dcea11190a20", "is_reserved": 0, "is_disabled": 0}, {"lat": 38.923395166666666, "fusion_lat": 0.0, "type": "electric_scooter", "bike_id": "bf69ffd421cc10a6ab3728f990cdb1c3", "rental_uris": {"ios": "https://dc.lft.to/lastmile_qr_scan", "android": "https://dc.lft.to/lastmile_qr_scan"}, "fusion_lon": 0.0, "lon": -77.04149666666666, "name": "bf69ffd421cc10a6ab3728f990cdb1c3", "is_reserved": 0, "is_disabled": 0}, {"lat": 38.9055475, "fusion_lat": 0.0, "type": "electric_scooter", "bike_id": "21624e336eb15df42eaa39f7d90d8a62", "rental_uris": {"ios": "https://dc.lft.to/lastmile_qr_scan", "android": "https://dc.lft.to/lastmile_qr_scan"}, "fusion_lon": 0.0, "lon": -77.00595733333333, "name": "21624e336eb15df42eaa39f7d90d8a62", "is_reserved": 0, "is_disabled": 0}, {"lat": 38.8800835, "fusion_lat": 0.0, "type": "electric_scooter", "bike_id": "df993d96963a4523243b95445efbf9d1", "rental_uris": {"ios": "https://dc.lft.to/lastmile_qr_scan", "android": "https://dc.lft.to/lastmile_qr_scan"}, "fusion_lon": 0.0, "lon": -77.02478833333333, "name": "df993d96963a4523243b95445efbf9d1", "is_reserved": 0, "is_disabled": 0}, {"lat": 38.9279285, "fusion_lat": 0.0, "type": "electric_scooter", "bike_id": "742d128146598ee890a7263be411acca", "rental_uris": {"ios": "https://dc.lft.to/lastmile_qr_scan", "android": "https://dc.lft.to/lastmile_qr_scan"}, "fusion_lon": 0.0, "lon": -77.0222, "name": "742d128146598ee890a7263be411acca", "is_reserved": 0, "is_disabled": 0}, {"lat": 38.898703166666664, "fusion_lat": 0.0, "type": "electric_scooter", "bike_id": "b38f97958efc498b6b33163658421a3c", "rental_uris": {"ios": "https://dc.lft.to/lastmile_qr_scan", "android": "https://dc.lft.to/lastmile_qr_scan"}, "fusion_lon": 0.0, "lon": -77.04866833333334, "name": "b38f97958efc498b6b33163658421a3c", "is_reserved": 0, "is_disabled": 0}, {"lat": 38.912275666666666, "fusion_lat": 0.0, "type": "electric_scooter", "bike_id": "0e127f7be08090fca372f6e9351a9c4a", "rental_uris": {"ios": "https://dc.lft.to/lastmile_qr_scan", "android": "https://dc.lft.to/lastmile_qr_scan"}, "fusion_lon": 0.0, "lon": -77.04877833333333, "name": "0e127f7be08090fca372f6e9351a9c4a", "is_reserved": 0, "is_disabled": 0}, {"lat": 38.957033, "fusion_lat": 0.0, "type": "electric_scooter", "bike_id": "afbc035ab619c1785ad4095f18b9ff48", "rental_uris": {"ios": "https://dc.lft.to/lastmile_qr_scan", "android": "https://dc.lft.to/lastmile_qr_scan"}, "fusion_lon": 0.0, "lon": -77.0240485, "name": "afbc035ab619c1785ad4095f18b9ff48", "is_reserved": 0, "is_disabled": 0}, {"lat": 38.918875, "fusion_lat": 0.0, "type": "electric_scooter", "bike_id": "4b630dabc3c635f424887fad8e31424c", "rental_uris": {"ios": "https://dc.lft.to/lastmile_qr_scan", "android": "https://dc.lft.to/lastmile_qr_scan"}, "fusion_lon": 0.0, "lon": -77.0471885, "name": "4b630dabc3c635f424887fad8e31424c", "is_reserved": 0, "is_disabled": 0}, {"lat": 38.91258366666667, "fusion_lat": 0.0, "type": "electric_scooter", "bike_id": "b0154047d8b21e0d7137f21e33026380", "rental_uris": {"ios": "https://dc.lft.to/lastmile_qr_scan", "android": "https://dc.lft.to/lastmile_qr_scan"}, "fusion_lon": 0.0, "lon": -77.03262616666666, "name": "b0154047d8b21e0d7137f21e33026380", "is_reserved": 0, "is_disabled": 0}, {"lat": 38.904098833333336, "fusion_lat": 0.0, "type": "electric_scooter", "bike_id": "038b78785345aa4e170aeec6ca17fa3b", "rental_uris": {"ios": "https://dc.lft.to/lastmile_qr_scan", "android": "https://dc.lft.to/lastmile_qr_scan"}, "fusion_lon": 0.0, "lon": -76.97335433333333, "name": "038b78785345aa4e170aeec6ca17fa3b", "is_reserved": 0, "is_disabled": 0}, {"lat": 38.8204405, "fusion_lat": 0.0, "type": "electric_bike", "bike_id": "aea51e66547c3a902d4ad6ea1a65df31", "rental_uris": {"ios": "https://dc.lft.to/lastmile_qr_scan", "android": "https://dc.lft.to/lastmile_qr_scan"}, "fusion_lon": 0.0, "lon": -77.05360766666666, "name": "aea51e66547c3a902d4ad6ea1a65df31", "is_reserved": 0, "is_disabled": 0}, {"lat": 38.938932333333334, "fusion_lat": 0.0, "type": "electric_scooter", "bike_id": "bb040769aa5baa2af3f4bd2d6082f73a", "rental_uris": {"ios": "https://dc.lft.to/lastmile_qr_scan", "android": "https://dc.lft.to/lastmile_qr_scan"}, "fusion_lon": 0.0, "lon": -77.01766116666667, "name": "bb040769aa5baa2af3f4bd2d6082f73a", "is_reserved": 0, "is_disabled": 0}, {"lat": 38.89224633333333, "fusion_lat": 0.0, "type": "electric_scooter", "bike_id": "6f397052759784ec3a1decb105da8d60", "rental_uris": {"ios": "https://dc.lft.to/lastmile_qr_scan", "android": "https://dc.lft.to/lastmile_qr_scan"}, "fusion_lon": 0.0, "lon": -77.043389, "name": "6f397052759784ec3a1decb105da8d60", "is_reserved": 0, "is_disabled": 0}, {"lat": 38.8623195, "fusion_lat": 0.0, "type": "electric_scooter", "bike_id": "9809560e7b32a1d442707b4afcdb3ce7", "rental_uris": {"ios": "https://dc.lft.to/lastmile_qr_scan", "android": "https://dc.lft.to/lastmile_qr_scan"}, "fusion_lon": 0.0, "lon": -76.99555283333333, "name": "9809560e7b32a1d442707b4afcdb3ce7", "is_reserved": 0, "is_disabled": 0}, {"lat": 39.070495, "fusion_lat": 0.0, "type": "electric_bike", "bike_id": "9efa4ed0c14a1d63536bbc4f06c2814c", "rental_uris": {"ios": "https://dc.lft.to/lastmile_qr_scan", "android": "https://dc.lft.to/lastmile_qr_scan"}, "fusion_lon": 0.0, "lon": -77.11513716666667, "name": "9efa4ed0c14a1d63536bbc4f06c2814c", "is_reserved": 0, "is_disabled": 0}, {"lat": 38.784511, "fusion_lat": 0.0, "type": "electric_bike", "bike_id": "48a4cef6108087cae220e21455ab1ced", "rental_uris": {"ios": "https://dc.lft.to/lastmile_qr_scan", "android": "https://dc.lft.to/lastmile_qr_scan"}, "fusion_lon": 0.0, "lon": -77.0163665, "name": "48a4cef6108087cae220e21455ab1ced", "is_reserved": 0, "is_disabled": 0}, {"lat": 38.919287833333335, "fusion_lat": 0.0, "type": "electric_scooter", "bike_id": "849bfa4da208a1ef6cb02fdc85e1c547", "rental_uris": {"ios": "https://dc.lft.to/lastmile_qr_scan", "android": "https://dc.lft.to/lastmile_qr_scan"}, "fusion_lon": 0.0, "lon": -77.04479616666667, "name": "849bfa4da208a1ef6cb02fdc85e1c547", "is_reserved": 0, "is_disabled": 0}, {"lat": 38.92353333333333, "fusion_lat": 0.0, "type": "electric_scooter", "bike_id": "696741b89f485f3e09a5265c54d81910", "rental_uris": {"ios": "https://dc.lft.to/lastmile_qr_scan", "android": "https://dc.lft.to/lastmile_qr_scan"}, "fusion_lon": 0.0, "lon": -77.05424416666666, "name": "696741b89f485f3e09a5265c54d81910", "is_reserved": 0, "is_disabled": 0}, {"lat": 38.89182133333333, "fusion_lat": 0.0, "type": "electric_scooter", "bike_id": "39a21710740f79f86876d2f42f20c4a1", "rental_uris": {"ios": "https://dc.lft.to/lastmile_qr_scan", "android": "https://dc.lft.to/lastmile_qr_scan"}, "fusion_lon": 0.0, "lon": -77.0034205, "name": "39a21710740f79f86876d2f42f20c4a1", "is_reserved": 0, "is_disabled": 0}, {"lat": 38.9149065, "fusion_lat": 0.0, "type": "electric_scooter", "bike_id": "53cc26d7e7cb390bd21b628f43d98543", "rental_uris": {"ios": "https://dc.lft.to/lastmile_qr_scan", "android": "https://dc.lft.to/lastmile_qr_scan"}, "fusion_lon": 0.0, "lon": -77.042607, "name": "53cc26d7e7cb390bd21b628f43d98543", "is_reserved": 0, "is_disabled": 0}, {"lat": 38.91806966666667, "fusion_lat": 0.0, "type": "electric_scooter", "bike_id": "0d9654b1c6b1b91196dd2753794f429f", "rental_uris": {"ios": "https://dc.lft.to/lastmile_qr_scan", "android": "https://dc.lft.to/lastmile_qr_scan"}, "fusion_lon": 0.0, "lon": -77.04020866666667, "name": "0d9654b1c6b1b91196dd2753794f429f", "is_reserved": 0, "is_disabled": 0}, {"lat": 38.940221, "fusion_lat": 0.0, "type": "electric_bike", "bike_id": "23ce1c339e7f262e40c2430a5bc71573", "rental_uris": {"ios": "https://dc.lft.to/lastmile_qr_scan", "android": "https://dc.lft.to/lastmile_qr_scan"}, "fusion_lon": 0.0, "lon": -76.976113, "name": "23ce1c339e7f262e40c2430a5bc71573", "is_reserved": 0, "is_disabled": 0}, {"lat": 38.92336433333333, "fusion_lat": 0.0, "type": "electric_scooter", "bike_id": "f9c83982b267268a2c10415a6d447bf6", "rental_uris": {"ios": "https://dc.lft.to/lastmile_qr_scan", "android": "https://dc.lft.to/lastmile_qr_scan"}, "fusion_lon": 0.0, "lon": -77.04740483333333, "name": "f9c83982b267268a2c10415a6d447bf6", "is_reserved": 0, "is_disabled": 0}, {"lat": 38.92744183333333, "fusion_lat": 0.0, "type": "electric_scooter", "bike_id": "4bba2d6da2d309f639efe1f211f2f371", "rental_uris": {"ios": "https://dc.lft.to/lastmile_qr_scan", "android": "https://dc.lft.to/lastmile_qr_scan"}, "fusion_lon": 0.0, "lon": -76.99565266666667, "name": "4bba2d6da2d309f639efe1f211f2f371", "is_reserved": 0, "is_disabled": 0}, {"lat": 38.942994166666665, "fusion_lat": 0.0, "type": "electric_scooter", "bike_id": "d9da3a9a5e67d059ed330e43035cbe4d", "rental_uris": {"ios": "https://dc.lft.to/lastmile_qr_scan", "android": "https://dc.lft.to/lastmile_qr_scan"}, "fusion_lon": 0.0, "lon": -77.05953116666667, "name": "d9da3a9a5e67d059ed330e43035cbe4d", "is_reserved": 0, "is_disabled": 0}, {"lat": 38.924061, "fusion_lat": 0.0, "type": "electric_bike", "bike_id": "096b3bad2c66d5ea1197cc977fec34d7", "rental_uris": {"ios": "https://dc.lft.to/lastmile_qr_scan", "android": "https://dc.lft.to/lastmile_qr_scan"}, "fusion_lon": 0.0, "lon": -77.0353625, "name": "096b3bad2c66d5ea1197cc977fec34d7", "is_reserved": 0, "is_disabled": 0}, {"lat": 38.91834733333334, "fusion_lat": 0.0, "type": "electric_scooter", "bike_id": "8ba20322e4a5fa3d42e44e24bc644ce2", "rental_uris": {"ios": "https://dc.lft.to/lastmile_qr_scan", "android": "https://dc.lft.to/lastmile_qr_scan"}, "fusion_lon": 0.0, "lon": -77.05882916666667, "name": "8ba20322e4a5fa3d42e44e24bc644ce2", "is_reserved": 0, "is_disabled": 0}, {"lat": 38.905053833333334, "fusion_lat": 0.0, "type": "electric_bike", "bike_id": "9aead80b746fcc6359657a92f9048e33", "rental_uris": {"ios": "https://dc.lft.to/lastmile_qr_scan", "android": "https://dc.lft.to/lastmile_qr_scan"}, "fusion_lon": 0.0, "lon": -76.974473, "name": "9aead80b746fcc6359657a92f9048e33", "is_reserved": 0, "is_disabled": 0}, {"lat": 38.909968, "fusion_lat": 0.0, "type": "electric_scooter", "bike_id": "237e5677a3574724bea19dd590b58bb9", "rental_uris": {"ios": "https://dc.lft.to/lastmile_qr_scan", "android": "https://dc.lft.to/lastmile_qr_scan"}, "fusion_lon": 0.0, "lon": -76.98625866666667, "name": "237e5677a3574724bea19dd590b58bb9", "is_reserved": 0, "is_disabled": 0}, {"lat": 38.956299, "fusion_lat": 0.0, "type": "electric_scooter", "bike_id": "e106571354e11c080a2f5378aef7dad7", "rental_uris": {"ios": "https://dc.lft.to/lastmile_qr_scan", "android": "https://dc.lft.to/lastmile_qr_scan"}, "fusion_lon": 0.0, "lon": -77.02840333333333, "name": "e106571354e11c080a2f5378aef7dad7", "is_reserved": 0, "is_disabled": 0}, {"lat": 38.904641833333336, "fusion_lat": 0.0, "type": "electric_scooter", "bike_id": "a3fd9a388b8cf16238666caff56dba63", "rental_uris": {"ios": "https://dc.lft.to/lastmile_qr_scan", "android": "https://dc.lft.to/lastmile_qr_scan"}, "fusion_lon": 0.0, "lon": -77.02938966666666, "name": "a3fd9a388b8cf16238666caff56dba63", "is_reserved": 0, "is_disabled": 0}, {"lat": 38.908614166666666, "fusion_lat": 0.0, "type": "electric_scooter", "bike_id": "3243bf198c366cb330aa3ab1f6bb155b", "rental_uris": {"ios": "https://dc.lft.to/lastmile_qr_scan", "android": "https://dc.lft.to/lastmile_qr_scan"}, "fusion_lon": 0.0, "lon": -77.01872366666667, "name": "3243bf198c366cb330aa3ab1f6bb155b", "is_reserved": 0, "is_disabled": 0}, {"lat": 38.88367616666667, "fusion_lat": 0.0, "type": "electric_scooter", "bike_id": "6221ad59e5c79728d25b1c0ee563d5a5", "rental_uris": {"ios": "https://dc.lft.to/lastmile_qr_scan", "android": "https://dc.lft.to/lastmile_qr_scan"}, "fusion_lon": 0.0, "lon": -76.99510166666667, "name": "6221ad59e5c79728d25b1c0ee563d5a5", "is_reserved": 0, "is_disabled": 0}, {"lat": 38.96442583333334, "fusion_lat": 0.0, "type": "electric_scooter", "bike_id": "c82a88ed0586bc69f570d2ab58bc76ad", "rental_uris": {"ios": "https://dc.lft.to/lastmile_qr_scan", "android": "https://dc.lft.to/lastmile_qr_scan"}, "fusion_lon": 0.0, "lon": -77.0200505, "name": "c82a88ed0586bc69f570d2ab58bc76ad", "is_reserved": 0, "is_disabled": 0}, {"lat": 38.905705833333336, "fusion_lat": 0.0, "type": "electric_scooter", "bike_id": "80ca4efcaba22aa26befcdd11b6bc464", "rental_uris": {"ios": "https://dc.lft.to/lastmile_qr_scan", "android": "https://dc.lft.to/lastmile_qr_scan"}, "fusion_lon": 0.0, "lon": -77.02755933333333, "name": "80ca4efcaba22aa26befcdd11b6bc464", "is_reserved": 0, "is_disabled": 0}, {"lat": 38.921632, "fusion_lat": 0.0, "type": "electric_scooter", "bike_id": "f1ec1a939869aeb56eb926799ea6fee7", "rental_uris": {"ios": "https://dc.lft.to/lastmile_qr_scan", "android": "https://dc.lft.to/lastmile_qr_scan"}, "fusion_lon": 0.0, "lon": -77.0346205, "name": "f1ec1a939869aeb56eb926799ea6fee7", "is_reserved": 0, "is_disabled": 0}, {"lat": 38.923089, "fusion_lat": 0.0, "type": "electric_scooter", "bike_id": "43b34a2653f8554f7f18e32b67830e0f", "rental_uris": {"ios": "https://dc.lft.to/lastmile_qr_scan", "android": "https://dc.lft.to/lastmile_qr_scan"}, "fusion_lon": 0.0, "lon": -77.02913066666666, "name": "43b34a2653f8554f7f18e32b67830e0f", "is_reserved": 0, "is_disabled": 0}, {"lat": 38.8427855, "fusion_lat": 0.0, "type": "electric_bike", "bike_id": "eacb1ccbaa6dd37e8ad1e1aca11f6512", "rental_uris": {"ios": "https://dc.lft.to/lastmile_qr_scan", "android": "https://dc.lft.to/lastmile_qr_scan"}, "fusion_lon": 0.0, "lon": -76.98843883333333, "name": "eacb1ccbaa6dd37e8ad1e1aca11f6512", "is_reserved": 0, "is_disabled": 0}, {"lat": 38.914665, "fusion_lat": 0.0, "type": "electric_scooter", "bike_id": "5012b599014cd03c38fcf5b857a5beb9", "rental_uris": {"ios": "https://dc.lft.to/lastmile_qr_scan", "android": "https://dc.lft.to/lastmile_qr_scan"}, "fusion_lon": 0.0, "lon": -77.01556666666667, "name": "5012b599014cd03c38fcf5b857a5beb9", "is_reserved": 0, "is_disabled": 0}, {"lat": 38.90855033333333, "fusion_lat": 0.0, "type": "electric_scooter", "bike_id": "c578440f48dcb4af531b802eaab64622", "rental_uris": {"ios": "https://dc.lft.to/lastmile_qr_scan", "android": "https://dc.lft.to/lastmile_qr_scan"}, "fusion_lon": 0.0, "lon": -77.02695733333333, "name": "c578440f48dcb4af531b802eaab64622", "is_reserved": 0, "is_disabled": 0}, {"lat": 38.935253833333334, "fusion_lat": 0.0, "type": "electric_scooter", "bike_id": "b21ca4d1691bafb3d45c76f7f0d887b5", "rental_uris": {"ios": "https://dc.lft.to/lastmile_qr_scan", "android": "https://dc.lft.to/lastmile_qr_scan"}, "fusion_lon": 0.0, "lon": -77.03257816666667, "name": "b21ca4d1691bafb3d45c76f7f0d887b5", "is_reserved": 0, "is_disabled": 0}, {"lat": 38.9574515, "fusion_lat": 0.0, "type": "electric_scooter", "bike_id": "892d4d89221ef6428a81418ffc2be310", "rental_uris": {"ios": "https://dc.lft.to/lastmile_qr_scan", "android": "https://dc.lft.to/lastmile_qr_scan"}, "fusion_lon": 0.0, "lon": -77.00236383333333, "name": "892d4d89221ef6428a81418ffc2be310", "is_reserved": 0, "is_disabled": 0}, {"lat": 38.8508975, "fusion_lat": 0.0, "type": "electric_bike", "bike_id": "09493a96f733a6ea749131fbcd290bd6", "rental_uris": {"ios": "https://dc.lft.to/lastmile_qr_scan", "android": "https://dc.lft.to/lastmile_qr_scan"}, "fusion_lon": 0.0, "lon": -76.956996, "name": "09493a96f733a6ea749131fbcd290bd6", "is_reserved": 0, "is_disabled": 0}, {"lat": 38.8738675, "fusion_lat": 0.0, "type": "electric_scooter", "bike_id": "34f260ada6880e525ee40b5da05fb6d4", "rental_uris": {"ios": "https://dc.lft.to/lastmile_qr_scan", "android": "https://dc.lft.to/lastmile_qr_scan"}, "fusion_lon": 0.0, "lon": -77.00179916666667, "name": "34f260ada6880e525ee40b5da05fb6d4", "is_reserved": 0, "is_disabled": 0}, {"lat": 38.92366216666667, "fusion_lat": 0.0, "type": "electric_scooter", "bike_id": "7f435d9f6d5dfdcaaadd9464cdc7b7c0", "rental_uris": {"ios": "https://dc.lft.to/lastmile_qr_scan", "android": "https://dc.lft.to/lastmile_qr_scan"}, "fusion_lon": 0.0, "lon": -77.04389016666667, "name": "7f435d9f6d5dfdcaaadd9464cdc7b7c0", "is_reserved": 0, "is_disabled": 0}, {"lat": 38.92077533333333, "fusion_lat": 0.0, "type": "electric_scooter", "bike_id": "fc458246167f87efd76095dd8a5918ca", "rental_uris": {"ios": "https://dc.lft.to/lastmile_qr_scan", "android": "https://dc.lft.to/lastmile_qr_scan"}, "fusion_lon": 0.0, "lon": -77.02397533333334, "name": "fc458246167f87efd76095dd8a5918ca", "is_reserved": 0, "is_disabled": 0}, {"lat": 38.92447516666667, "fusion_lat": 0.0, "type": "electric_bike", "bike_id": "0d808d5ae08b504cd9c16effaf9c6aac", "rental_uris": {"ios": "https://dc.lft.to/lastmile_qr_scan", "android": "https://dc.lft.to/lastmile_qr_scan"}, "fusion_lon": 0.0, "lon": -77.002147, "name": "0d808d5ae08b504cd9c16effaf9c6aac", "is_reserved": 0, "is_disabled": 0}, {"lat": 38.94310483333334, "fusion_lat": 0.0, "type": "electric_scooter", "bike_id": "b7a02d01e2f6e4db9726f874f4d3d0c6", "rental_uris": {"ios": "https://dc.lft.to/lastmile_qr_scan", "android": "https://dc.lft.to/lastmile_qr_scan"}, "fusion_lon": 0.0, "lon": -77.01732, "name": "b7a02d01e2f6e4db9726f874f4d3d0c6", "is_reserved": 0, "is_disabled": 0}, {"lat": 38.893484666666666, "fusion_lat": 0.0, "type": "electric_scooter", "bike_id": "95861b98cdc7f36c79dea075d6294781", "rental_uris": {"ios": "https://dc.lft.to/lastmile_qr_scan", "android": "https://dc.lft.to/lastmile_qr_scan"}, "fusion_lon": 0.0, "lon": -77.01224883333333, "name": "95861b98cdc7f36c79dea075d6294781", "is_reserved": 0, "is_disabled": 0}, {"lat": 38.9022525, "fusion_lat": 0.0, "type": "electric_scooter", "bike_id": "a0fd6ed16996107de427d3cf1b115e9e", "rental_uris": {"ios": "https://dc.lft.to/lastmile_qr_scan", "android": "https://dc.lft.to/lastmile_qr_scan"}, "fusion_lon": 0.0, "lon": -77.00565633333333, "name": "a0fd6ed16996107de427d3cf1b115e9e", "is_reserved": 0, "is_disabled": 0}, {"lat": 38.899669, "fusion_lat": 0.0, "type": "electric_scooter", "bike_id": "7d5dbe48e5038b80c7be87211197e3ac", "rental_uris": {"ios": "https://dc.lft.to/lastmile_qr_scan", "android": "https://dc.lft.to/lastmile_qr_scan"}, "fusion_lon": 0.0, "lon": -77.01622083333334, "name": "7d5dbe48e5038b80c7be87211197e3ac", "is_reserved": 0, "is_disabled": 0}, {"lat": 38.906205, "fusion_lat": 0.0, "type": "electric_scooter", "bike_id": "7e6504ed60586abbbd9a41f6a244d64f", "rental_uris": {"ios": "https://dc.lft.to/lastmile_qr_scan", "android": "https://dc.lft.to/lastmile_qr_scan"}, "fusion_lon": 0.0, "lon": -77.051419, "name": "7e6504ed60586abbbd9a41f6a244d64f", "is_reserved": 0, "is_disabled": 0}, {"lat": 38.9077165, "fusion_lat": 0.0, "type": "electric_scooter", "bike_id": "deaef7862e97a1a3e1589334913bd85c", "rental_uris": {"ios": "https://dc.lft.to/lastmile_qr_scan", "android": "https://dc.lft.to/lastmile_qr_scan"}, "fusion_lon": 0.0, "lon": -77.03858733333334, "name": "deaef7862e97a1a3e1589334913bd85c", "is_reserved": 0, "is_disabled": 0}, {"lat": 38.92329016666667, "fusion_lat": 0.0, "type": "electric_scooter", "bike_id": "8af2d2b874bab1573de1e5b7257709bc", "rental_uris": {"ios": "https://dc.lft.to/lastmile_qr_scan", "android": "https://dc.lft.to/lastmile_qr_scan"}, "fusion_lon": 0.0, "lon": -77.03531933333333, "name": "8af2d2b874bab1573de1e5b7257709bc", "is_reserved": 0, "is_disabled": 0}, {"lat": 38.917899, "fusion_lat": 0.0, "type": "electric_scooter", "bike_id": "7b619a4d6abfc8f99ee112c2983e1732", "rental_uris": {"ios": "https://dc.lft.to/lastmile_qr_scan", "android": "https://dc.lft.to/lastmile_qr_scan"}, "fusion_lon": 0.0, "lon": -77.03443216666666, "name": "7b619a4d6abfc8f99ee112c2983e1732", "is_reserved": 0, "is_disabled": 0}, {"lat": 38.907396, "fusion_lat": 0.0, "type": "electric_scooter", "bike_id": "df4a515ef2314ca1e0bd3c21667e48d5", "rental_uris": {"ios": "https://dc.lft.to/lastmile_qr_scan", "android": "https://dc.lft.to/lastmile_qr_scan"}, "fusion_lon": 0.0, "lon": -77.04476, "name": "df4a515ef2314ca1e0bd3c21667e48d5", "is_reserved": 0, "is_disabled": 0}, {"lat": 38.919929833333335, "fusion_lat": 0.0, "type": "electric_scooter", "bike_id": "4ba1a8775c04f34cec997bc3fbdc8d1a", "rental_uris": {"ios": "https://dc.lft.to/lastmile_qr_scan", "android": "https://dc.lft.to/lastmile_qr_scan"}, "fusion_lon": 0.0, "lon": -77.04759083333333, "name": "4ba1a8775c04f34cec997bc3fbdc8d1a", "is_reserved": 0, "is_disabled": 0}, {"lat": 38.91707783333333, "fusion_lat": 0.0, "type": "electric_scooter", "bike_id": "2442e28e956942c8cbe5f0a10424954e", "rental_uris": {"ios": "https://dc.lft.to/lastmile_qr_scan", "android": "https://dc.lft.to/lastmile_qr_scan"}, "fusion_lon": 0.0, "lon": -77.02439366666667, "name": "2442e28e956942c8cbe5f0a10424954e", "is_reserved": 0, "is_disabled": 0}, {"lat": 38.86379383333333, "fusion_lat": 0.0, "type": "electric_scooter", "bike_id": "32ae3133edb9eec58f183a901c70dab6", "rental_uris": {"ios": "https://dc.lft.to/lastmile_qr_scan", "android": "https://dc.lft.to/lastmile_qr_scan"}, "fusion_lon": 0.0, "lon": -76.99125083333334, "name": "32ae3133edb9eec58f183a901c70dab6", "is_reserved": 0, "is_disabled": 0}, {"lat": 38.93964783333333, "fusion_lat": 0.0, "type": "electric_scooter", "bike_id": "c4cab86801231f53a8ce6e522c787428", "rental_uris": {"ios": "https://dc.lft.to/lastmile_qr_scan", "android": "https://dc.lft.to/lastmile_qr_scan"}, "fusion_lon": 0.0, "lon": -77.03287, "name": "c4cab86801231f53a8ce6e522c787428", "is_reserved": 0, "is_disabled": 0}, {"lat": 38.87737383333333, "fusion_lat": 0.0, "type": "electric_scooter", "bike_id": "057d5159856f5c13c01956174b68acf2", "rental_uris": {"ios": "https://dc.lft.to/lastmile_qr_scan", "android": "https://dc.lft.to/lastmile_qr_scan"}, "fusion_lon": 0.0, "lon": -76.99488516666666, "name": "057d5159856f5c13c01956174b68acf2", "is_reserved": 0, "is_disabled": 0}, {"lat": 38.914009666666665, "fusion_lat": 0.0, "type": "electric_scooter", "bike_id": "82de3f685aa7d3c31ac7c0de2d5146e5", "rental_uris": {"ios": "https://dc.lft.to/lastmile_qr_scan", "android": "https://dc.lft.to/lastmile_qr_scan"}, "fusion_lon": 0.0, "lon": -77.032212, "name": "82de3f685aa7d3c31ac7c0de2d5146e5", "is_reserved": 0, "is_disabled": 0}, {"lat": 38.92468216666666, "fusion_lat": 0.0, "type": "electric_scooter", "bike_id": "c479a65abff225e9e91214aaba6e6c86", "rental_uris": {"ios": "https://dc.lft.to/lastmile_qr_scan", "android": "https://dc.lft.to/lastmile_qr_scan"}, "fusion_lon": 0.0, "lon": -77.0391055, "name": "c479a65abff225e9e91214aaba6e6c86", "is_reserved": 0, "is_disabled": 0}, {"lat": 38.9034755, "fusion_lat": 0.0, "type": "electric_scooter", "bike_id": "8e0e396117f745caeda10306604977d0", "rental_uris": {"ios": "https://dc.lft.to/lastmile_qr_scan", "android": "https://dc.lft.to/lastmile_qr_scan"}, "fusion_lon": 0.0, "lon": -77.02200183333333, "name": "8e0e396117f745caeda10306604977d0", "is_reserved": 0, "is_disabled": 0}, {"lat": 38.941934833333335, "fusion_lat": 0.0, "type": "electric_scooter", "bike_id": "7e7bb90ddcb2c19fc1e71cf559ba5288", "rental_uris": {"ios": "https://dc.lft.to/lastmile_qr_scan", "android": "https://dc.lft.to/lastmile_qr_scan"}, "fusion_lon": 0.0, "lon": -77.02477183333333, "name": "7e7bb90ddcb2c19fc1e71cf559ba5288", "is_reserved": 0, "is_disabled": 0}, {"lat": 38.9185175, "fusion_lat": 0.0, "type": "electric_scooter", "bike_id": "aeb27b3fc00d7529d90185e6686e23b0", "rental_uris": {"ios": "https://dc.lft.to/lastmile_qr_scan", "android": "https://dc.lft.to/lastmile_qr_scan"}, "fusion_lon": 0.0, "lon": -77.01355466666666, "name": "aeb27b3fc00d7529d90185e6686e23b0", "is_reserved": 0, "is_disabled": 0}, {"lat": 38.989982499999996, "fusion_lat": 0.0, "type": "electric_bike", "bike_id": "6ca543350c577b7006b5e1d51aa6e953", "rental_uris": {"ios": "https://dc.lft.to/lastmile_qr_scan", "android": "https://dc.lft.to/lastmile_qr_scan"}, "fusion_lon": 0.0, "lon": -77.00436033333334, "name": "6ca543350c577b7006b5e1d51aa6e953", "is_reserved": 0, "is_disabled": 0}, {"lat": 38.924884666666664, "fusion_lat": 0.0, "type": "electric_scooter", "bike_id": "4170b599f0e7acdb6c3ca2765349cc90", "rental_uris": {"ios": "https://dc.lft.to/lastmile_qr_scan", "android": "https://dc.lft.to/lastmile_qr_scan"}, "fusion_lon": 0.0, "lon": -77.03914716666667, "name": "4170b599f0e7acdb6c3ca2765349cc90", "is_reserved": 0, "is_disabled": 0}, {"lat": 38.90249333333333, "fusion_lat": 0.0, "type": "electric_scooter", "bike_id": "b7aab26b1bdfdb6903d4d69c3cac7a71", "rental_uris": {"ios": "https://dc.lft.to/lastmile_qr_scan", "android": "https://dc.lft.to/lastmile_qr_scan"}, "fusion_lon": 0.0, "lon": -77.0366325, "name": "b7aab26b1bdfdb6903d4d69c3cac7a71", "is_reserved": 0, "is_disabled": 0}, {"lat": 38.901536166666666, "fusion_lat": 0.0, "type": "electric_scooter", "bike_id": "d872e3ab9fb89d8f856c56c95c4f7b2d", "rental_uris": {"ios": "https://dc.lft.to/lastmile_qr_scan", "android": "https://dc.lft.to/lastmile_qr_scan"}, "fusion_lon": 0.0, "lon": -77.03987866666667, "name": "d872e3ab9fb89d8f856c56c95c4f7b2d", "is_reserved": 0, "is_disabled": 0}, {"lat": 38.88336183333333, "fusion_lat": 0.0, "type": "electric_scooter", "bike_id": "a26a21daf324ca731988820ec1dbe169", "rental_uris": {"ios": "https://dc.lft.to/lastmile_qr_scan", "android": "https://dc.lft.to/lastmile_qr_scan"}, "fusion_lon": 0.0, "lon": -77.011543, "name": "a26a21daf324ca731988820ec1dbe169", "is_reserved": 0, "is_disabled": 0}, {"lat": 38.90950633333333, "fusion_lat": 0.0, "type": "electric_scooter", "bike_id": "706250cd7c37959ca3e1176916525ab4", "rental_uris": {"ios": "https://dc.lft.to/lastmile_qr_scan", "android": "https://dc.lft.to/lastmile_qr_scan"}, "fusion_lon": 0.0, "lon": -77.02296433333333, "name": "706250cd7c37959ca3e1176916525ab4", "is_reserved": 0, "is_disabled": 0}, {"lat": 38.87655516666667, "fusion_lat": 0.0, "type": "electric_scooter", "bike_id": "776563e843df13732cb78c0d83b61971", "rental_uris": {"ios": "https://dc.lft.to/lastmile_qr_scan", "android": "https://dc.lft.to/lastmile_qr_scan"}, "fusion_lon": 0.0, "lon": -77.01591, "name": "776563e843df13732cb78c0d83b61971", "is_reserved": 0, "is_disabled": 0}, {"lat": 38.91689266666667, "fusion_lat": 0.0, "type": "electric_scooter", "bike_id": "24d3afddf17e0a66dca1e34edc22a58a", "rental_uris": {"ios": "https://dc.lft.to/lastmile_qr_scan", "android": "https://dc.lft.to/lastmile_qr_scan"}, "fusion_lon": 0.0, "lon": -77.03912133333333, "name": "24d3afddf17e0a66dca1e34edc22a58a", "is_reserved": 0, "is_disabled": 0}, {"lat": 39.01415866666667, "fusion_lat": 0.0, "type": "electric_bike", "bike_id": "a054f45be4c0892d448ffa006a5b7a1f", "rental_uris": {"ios": "https://dc.lft.to/lastmile_qr_scan", "android": "https://dc.lft.to/lastmile_qr_scan"}, "fusion_lon": 0.0, "lon": -77.04499966666667, "name": "a054f45be4c0892d448ffa006a5b7a1f", "is_reserved": 0, "is_disabled": 0}, {"lat": 38.898660166666666, "fusion_lat": 0.0, "type": "electric_scooter", "bike_id": "240bb1f67dbac5d1a7c6fa7632945b99", "rental_uris": {"ios": "https://dc.lft.to/lastmile_qr_scan", "android": "https://dc.lft.to/lastmile_qr_scan"}, "fusion_lon": 0.0, "lon": -77.02294883333333, "name": "240bb1f67dbac5d1a7c6fa7632945b99", "is_reserved": 0, "is_disabled": 0}, {"lat": 38.9079805, "fusion_lat": 0.0, "type": "electric_scooter", "bike_id": "a9c83bd36623267becfb85a9b077af54", "rental_uris": {"ios": "https://dc.lft.to/lastmile_qr_scan", "android": "https://dc.lft.to/lastmile_qr_scan"}, "fusion_lon": 0.0, "lon": -77.04327233333333, "name": "a9c83bd36623267becfb85a9b077af54", "is_reserved": 0, "is_disabled": 0}, {"lat": 38.94519616666667, "fusion_lat": 0.0, "type": "electric_bike", "bike_id": "3a094aa916de1bb75165bd1a2b9453d2", "rental_uris": {"ios": "https://dc.lft.to/lastmile_qr_scan", "android": "https://dc.lft.to/lastmile_qr_scan"}, "fusion_lon": 0.0, "lon": -77.00679816666667, "name": "3a094aa916de1bb75165bd1a2b9453d2", "is_reserved": 0, "is_disabled": 0}, {"lat": 38.91686166666667, "fusion_lat": 0.0, "type": "electric_scooter", "bike_id": "ca84a8409e40798debf833489658f001", "rental_uris": {"ios": "https://dc.lft.to/lastmile_qr_scan", "android": "https://dc.lft.to/lastmile_qr_scan"}, "fusion_lon": 0.0, "lon": -76.9803695, "name": "ca84a8409e40798debf833489658f001", "is_reserved": 0, "is_disabled": 0}, {"lat": 38.915605166666666, "fusion_lat": 0.0, "type": "electric_scooter", "bike_id": "a49cc14b8b7f86d1dfe748629b6490f0", "rental_uris": {"ios": "https://dc.lft.to/lastmile_qr_scan", "android": "https://dc.lft.to/lastmile_qr_scan"}, "fusion_lon": 0.0, "lon": -77.03154133333334, "name": "a49cc14b8b7f86d1dfe748629b6490f0", "is_reserved": 0, "is_disabled": 0}, {"lat": 38.897332, "fusion_lat": 0.0, "type": "electric_scooter", "bike_id": "1300c5d26547cf57adc97123cdd79e56", "rental_uris": {"ios": "https://dc.lft.to/lastmile_qr_scan", "android": "https://dc.lft.to/lastmile_qr_scan"}, "fusion_lon": 0.0, "lon": -77.03356133333334, "name": "1300c5d26547cf57adc97123cdd79e56", "is_reserved": 0, "is_disabled": 0}, {"lat": 38.90565216666667, "fusion_lat": 0.0, "type": "electric_scooter", "bike_id": "702251b4b6c676a395d17decbea80144", "rental_uris": {"ios": "https://dc.lft.to/lastmile_qr_scan", "android": "https://dc.lft.to/lastmile_qr_scan"}, "fusion_lon": 0.0, "lon": -77.04681483333333, "name": "702251b4b6c676a395d17decbea80144", "is_reserved": 0, "is_disabled": 0}, {"lat": 38.91257316666667, "fusion_lat": 0.0, "type": "electric_scooter", "bike_id": "259f1febe06fa44e98700633087bef53", "rental_uris": {"ios": "https://dc.lft.to/lastmile_qr_scan", "android": "https://dc.lft.to/lastmile_qr_scan"}, "fusion_lon": 0.0, "lon": -77.044701, "name": "259f1febe06fa44e98700633087bef53", "is_reserved": 0, "is_disabled": 0}, {"lat": 38.910835, "fusion_lat": 0.0, "type": "electric_scooter", "bike_id": "d26b266fd28e4f96abe848db4a1855fc", "rental_uris": {"ios": "https://dc.lft.to/lastmile_qr_scan", "android": "https://dc.lft.to/lastmile_qr_scan"}, "fusion_lon": 0.0, "lon": -77.03829633333334, "name": "d26b266fd28e4f96abe848db4a1855fc", "is_reserved": 0, "is_disabled": 0}, {"lat": 38.93161216666667, "fusion_lat": 0.0, "type": "electric_scooter", "bike_id": "ec709e4e73f161521d4e78eb154f67f4", "rental_uris": {"ios": "https://dc.lft.to/lastmile_qr_scan", "android": "https://dc.lft.to/lastmile_qr_scan"}, "fusion_lon": 0.0, "lon": -77.0350035, "name": "ec709e4e73f161521d4e78eb154f67f4", "is_reserved": 0, "is_disabled": 0}, {"lat": 38.84859483333334, "fusion_lat": 0.0, "type": "electric_bike", "bike_id": "b5125d260c60c3234223667c53f46a7e", "rental_uris": {"ios": "https://dc.lft.to/lastmile_qr_scan", "android": "https://dc.lft.to/lastmile_qr_scan"}, "fusion_lon": 0.0, "lon": -77.09902416666667, "name": "b5125d260c60c3234223667c53f46a7e", "is_reserved": 0, "is_disabled": 0}, {"lat": 38.79990333333333, "fusion_lat": 0.0, "type": "electric_bike", "bike_id": "00e01c10a4f084f24d21a4b8ba6bdc11", "rental_uris": {"ios": "https://dc.lft.to/lastmile_qr_scan", "android": "https://dc.lft.to/lastmile_qr_scan"}, "fusion_lon": 0.0, "lon": -77.1297625, "name": "00e01c10a4f084f24d21a4b8ba6bdc11", "is_reserved": 0, "is_disabled": 0}, {"lat": 38.929862666666665, "fusion_lat": 0.0, "type": "electric_scooter", "bike_id": "fd2075f5514a6a57e37d16745319c281", "rental_uris": {"ios": "https://dc.lft.to/lastmile_qr_scan", "android": "https://dc.lft.to/lastmile_qr_scan"}, "fusion_lon": 0.0, "lon": -77.07947866666666, "name": "fd2075f5514a6a57e37d16745319c281", "is_reserved": 0, "is_disabled": 0}, {"lat": 38.9420085, "fusion_lat": 0.0, "type": "electric_scooter", "bike_id": "eeb0098fb6433e7c39e9fabaffbfe48e", "rental_uris": {"ios": "https://dc.lft.to/lastmile_qr_scan", "android": "https://dc.lft.to/lastmile_qr_scan"}, "fusion_lon": 0.0, "lon": -77.02589883333333, "name": "eeb0098fb6433e7c39e9fabaffbfe48e", "is_reserved": 0, "is_disabled": 0}, {"lat": 38.88654316666667, "fusion_lat": 0.0, "type": "electric_scooter", "bike_id": "ec1fe41db9991e627ffaeb6aec2bb10a", "rental_uris": {"ios": "https://dc.lft.to/lastmile_qr_scan", "android": "https://dc.lft.to/lastmile_qr_scan"}, "fusion_lon": 0.0, "lon": -77.0198485, "name": "ec1fe41db9991e627ffaeb6aec2bb10a", "is_reserved": 0, "is_disabled": 0}, {"lat": 38.9341505, "fusion_lat": 0.0, "type": "electric_scooter", "bike_id": "928c861cd080286c658da2f968de3877", "rental_uris": {"ios": "https://dc.lft.to/lastmile_qr_scan", "android": "https://dc.lft.to/lastmile_qr_scan"}, "fusion_lon": 0.0, "lon": -77.04164683333333, "name": "928c861cd080286c658da2f968de3877", "is_reserved": 0, "is_disabled": 0}, {"lat": 38.9218425, "fusion_lat": 0.0, "type": "electric_scooter", "bike_id": "d1806f3c2fa36ed60eb3c2e530dce6ca", "rental_uris": {"ios": "https://dc.lft.to/lastmile_qr_scan", "android": "https://dc.lft.to/lastmile_qr_scan"}, "fusion_lon": 0.0, "lon": -77.04181866666667, "name": "d1806f3c2fa36ed60eb3c2e530dce6ca", "is_reserved": 0, "is_disabled": 0}, {"lat": 38.9241565, "fusion_lat": 0.0, "type": "electric_scooter", "bike_id": "87ea8fbd67a4beb33cec637493e2b110", "rental_uris": {"ios": "https://dc.lft.to/lastmile_qr_scan", "android": "https://dc.lft.to/lastmile_qr_scan"}, "fusion_lon": 0.0, "lon": -77.05757483333333, "name": "87ea8fbd67a4beb33cec637493e2b110", "is_reserved": 0, "is_disabled": 0}, {"lat": 38.86325716666666, "fusion_lat": 0.0, "type": "electric_bike", "bike_id": "bb72d8d6738c055d5c571128fe53b9c4", "rental_uris": {"ios": "https://dc.lft.to/lastmile_qr_scan", "android": "https://dc.lft.to/lastmile_qr_scan"}, "fusion_lon": 0.0, "lon": -76.98719483333333, "name": "bb72d8d6738c055d5c571128fe53b9c4", "is_reserved": 0, "is_disabled": 0}, {"lat": 38.921785166666666, "fusion_lat": 0.0, "type": "electric_scooter", "bike_id": "2f936ec47265925c5cbf03f50a6e784a", "rental_uris": {"ios": "https://dc.lft.to/lastmile_qr_scan", "android": "https://dc.lft.to/lastmile_qr_scan"}, "fusion_lon": 0.0, "lon": -77.02664633333333, "name": "2f936ec47265925c5cbf03f50a6e784a", "is_reserved": 0, "is_disabled": 0}, {"lat": 38.8867815, "fusion_lat": 0.0, "type": "electric_scooter", "bike_id": "ceecbff4aff10da6b6baf64052c66a8e", "rental_uris": {"ios": "https://dc.lft.to/lastmile_qr_scan", "android": "https://dc.lft.to/lastmile_qr_scan"}, "fusion_lon": 0.0, "lon": -77.00201483333333, "name": "ceecbff4aff10da6b6baf64052c66a8e", "is_reserved": 0, "is_disabled": 0}, {"lat": 38.8998655, "fusion_lat": 0.0, "type": "electric_scooter", "bike_id": "98986a7da730f1beadf52c0f4762816b", "rental_uris": {"ios": "https://dc.lft.to/lastmile_qr_scan", "android": "https://dc.lft.to/lastmile_qr_scan"}, "fusion_lon": 0.0, "lon": -77.0224785, "name": "98986a7da730f1beadf52c0f4762816b", "is_reserved": 0, "is_disabled": 0}, {"lat": 38.934928666666664, "fusion_lat": 0.0, "type": "electric_scooter", "bike_id": "04f18f647baaab54dc8e7eea4c6bdd0a", "rental_uris": {"ios": "https://dc.lft.to/lastmile_qr_scan", "android": "https://dc.lft.to/lastmile_qr_scan"}, "fusion_lon": 0.0, "lon": -77.073401, "name": "04f18f647baaab54dc8e7eea4c6bdd0a", "is_reserved": 0, "is_disabled": 0}, {"lat": 38.92722966666667, "fusion_lat": 0.0, "type": "electric_scooter", "bike_id": "8cec5457171f9d12cc77672ecc9f348a", "rental_uris": {"ios": "https://dc.lft.to/lastmile_qr_scan", "android": "https://dc.lft.to/lastmile_qr_scan"}, "fusion_lon": 0.0, "lon": -77.0419825, "name": "8cec5457171f9d12cc77672ecc9f348a", "is_reserved": 0, "is_disabled": 0}, {"lat": 38.92599633333333, "fusion_lat": 0.0, "type": "electric_scooter", "bike_id": "d372ec51342acfab8c42dbac14be9373", "rental_uris": {"ios": "https://dc.lft.to/lastmile_qr_scan", "android": "https://dc.lft.to/lastmile_qr_scan"}, "fusion_lon": 0.0, "lon": -77.02155533333334, "name": "d372ec51342acfab8c42dbac14be9373", "is_reserved": 0, "is_disabled": 0}, {"lat": 38.9245895, "fusion_lat": 0.0, "type": "electric_scooter", "bike_id": "1411909b64607a35900ac1dbfefbf66a", "rental_uris": {"ios": "https://dc.lft.to/lastmile_qr_scan", "android": "https://dc.lft.to/lastmile_qr_scan"}, "fusion_lon": 0.0, "lon": -77.02159166666667, "name": "1411909b64607a35900ac1dbfefbf66a", "is_reserved": 0, "is_disabled": 0}, {"lat": 38.94911916666667, "fusion_lat": 0.0, "type": "electric_bike", "bike_id": "8c59556fb69fb433c0485fd294b0075c", "rental_uris": {"ios": "https://dc.lft.to/lastmile_qr_scan", "android": "https://dc.lft.to/lastmile_qr_scan"}, "fusion_lon": 0.0, "lon": -77.0079555, "name": "8c59556fb69fb433c0485fd294b0075c", "is_reserved": 0, "is_disabled": 0}, {"lat": 38.921653666666664, "fusion_lat": 0.0, "type": "electric_scooter", "bike_id": "1c13ce7aff8be90e0790a1d64528383f", "rental_uris": {"ios": "https://dc.lft.to/lastmile_qr_scan", "android": "https://dc.lft.to/lastmile_qr_scan"}, "fusion_lon": 0.0, "lon": -77.081968, "name": "1c13ce7aff8be90e0790a1d64528383f", "is_reserved": 0, "is_disabled": 0}, {"lat": 38.9288235, "fusion_lat": 0.0, "type": "electric_scooter", "bike_id": "f1251daa9c93b5e8d1897513368940e7", "rental_uris": {"ios": "https://dc.lft.to/lastmile_qr_scan", "android": "https://dc.lft.to/lastmile_qr_scan"}, "fusion_lon": 0.0, "lon": -77.03921683333333, "name": "f1251daa9c93b5e8d1897513368940e7", "is_reserved": 0, "is_disabled": 0}, {"lat": 38.916748166666665, "fusion_lat": 0.0, "type": "electric_scooter", "bike_id": "12954cf210887711925f48e727493ce2", "rental_uris": {"ios": "https://dc.lft.to/lastmile_qr_scan", "android": "https://dc.lft.to/lastmile_qr_scan"}, "fusion_lon": 0.0, "lon": -77.02965766666667, "name": "12954cf210887711925f48e727493ce2", "is_reserved": 0, "is_disabled": 0}, {"lat": 38.887224, "fusion_lat": 0.0, "type": "electric_scooter", "bike_id": "25681cf014e3700b3c11ab8d43852808", "rental_uris": {"ios": "https://dc.lft.to/lastmile_qr_scan", "android": "https://dc.lft.to/lastmile_qr_scan"}, "fusion_lon": 0.0, "lon": -77.02827416666666, "name": "25681cf014e3700b3c11ab8d43852808", "is_reserved": 0, "is_disabled": 0}, {"lat": 38.90508283333333, "fusion_lat": 0.0, "type": "electric_scooter", "bike_id": "f9ddc27db0dc22ed6c786b764191c1d4", "rental_uris": {"ios": "https://dc.lft.to/lastmile_qr_scan", "android": "https://dc.lft.to/lastmile_qr_scan"}, "fusion_lon": 0.0, "lon": -77.06383583333333, "name": "f9ddc27db0dc22ed6c786b764191c1d4", "is_reserved": 0, "is_disabled": 0}, {"lat": 38.911190833333336, "fusion_lat": 0.0, "type": "electric_scooter", "bike_id": "af3bde3e47000e4e27e157b1a4dfc127", "rental_uris": {"ios": "https://dc.lft.to/lastmile_qr_scan", "android": "https://dc.lft.to/lastmile_qr_scan"}, "fusion_lon": 0.0, "lon": -77.04497116666667, "name": "af3bde3e47000e4e27e157b1a4dfc127", "is_reserved": 0, "is_disabled": 0}, {"lat": 38.9180455, "fusion_lat": 0.0, "type": "electric_scooter", "bike_id": "1d7781d098c423a572cc06f92029ac96", "rental_uris": {"ios": "https://dc.lft.to/lastmile_qr_scan", "android": "https://dc.lft.to/lastmile_qr_scan"}, "fusion_lon": 0.0, "lon": -77.04022033333334, "name": "1d7781d098c423a572cc06f92029ac96", "is_reserved": 0, "is_disabled": 0}, {"lat": 38.88111416666667, "fusion_lat": 0.0, "type": "electric_scooter", "bike_id": "e45ef22325b6d7ac825c682de7af5f1c", "rental_uris": {"ios": "https://dc.lft.to/lastmile_qr_scan", "android": "https://dc.lft.to/lastmile_qr_scan"}, "fusion_lon": 0.0, "lon": -77.02654733333334, "name": "e45ef22325b6d7ac825c682de7af5f1c", "is_reserved": 0, "is_disabled": 0}, {"lat": 38.96131, "fusion_lat": 0.0, "type": "electric_bike", "bike_id": "01681c4b6f230b421eab2d4e1fdb1919", "rental_uris": {"ios": "https://dc.lft.to/lastmile_qr_scan", "android": "https://dc.lft.to/lastmile_qr_scan"}, "fusion_lon": 0.0, "lon": -77.0333495, "name": "01681c4b6f230b421eab2d4e1fdb1919", "is_reserved": 0, "is_disabled": 0}, {"lat": 38.930303, "fusion_lat": 0.0, "type": "electric_scooter", "bike_id": "04c656b67f84f0521b0eae150187ec26", "rental_uris": {"ios": "https://dc.lft.to/lastmile_qr_scan", "android": "https://dc.lft.to/lastmile_qr_scan"}, "fusion_lon": 0.0, "lon": -77.055633, "name": "04c656b67f84f0521b0eae150187ec26", "is_reserved": 0, "is_disabled": 0}, {"lat": 38.881109, "fusion_lat": 0.0, "type": "electric_bike", "bike_id": "073c28ed10224fc03308c550a4b58b10", "rental_uris": {"ios": "https://dc.lft.to/lastmile_qr_scan", "android": "https://dc.lft.to/lastmile_qr_scan"}, "fusion_lon": 0.0, "lon": -77.01649983333333, "name": "073c28ed10224fc03308c550a4b58b10", "is_reserved": 0, "is_disabled": 0}, {"lat": 38.91488283333333, "fusion_lat": 0.0, "type": "electric_scooter", "bike_id": "d75f93984513ffa672559fa6e2352739", "rental_uris": {"ios": "https://dc.lft.to/lastmile_qr_scan", "android": "https://dc.lft.to/lastmile_qr_scan"}, "fusion_lon": 0.0, "lon": -76.98344633333333, "name": "d75f93984513ffa672559fa6e2352739", "is_reserved": 0, "is_disabled": 0}, {"lat": 38.88766583333334, "fusion_lat": 0.0, "type": "electric_scooter", "bike_id": "cd4eb6dc6bd49c9f33a69ad03a3feb8e", "rental_uris": {"ios": "https://dc.lft.to/lastmile_qr_scan", "android": "https://dc.lft.to/lastmile_qr_scan"}, "fusion_lon": 0.0, "lon": -77.02239783333333, "name": "cd4eb6dc6bd49c9f33a69ad03a3feb8e", "is_reserved": 0, "is_disabled": 0}, {"lat": 38.905734333333335, "fusion_lat": 0.0, "type": "electric_scooter", "bike_id": "cb5982a25572906ed433f85e75f9f44f", "rental_uris": {"ios": "https://dc.lft.to/lastmile_qr_scan", "android": "https://dc.lft.to/lastmile_qr_scan"}, "fusion_lon": 0.0, "lon": -77.04904933333333, "name": "cb5982a25572906ed433f85e75f9f44f", "is_reserved": 0, "is_disabled": 0}, {"lat": 38.89336633333333, "fusion_lat": 0.0, "type": "electric_scooter", "bike_id": "bff8904f467e3d92b62ecdae64052bf1", "rental_uris": {"ios": "https://dc.lft.to/lastmile_qr_scan", "android": "https://dc.lft.to/lastmile_qr_scan"}, "fusion_lon": 0.0, "lon": -76.99380116666667, "name": "bff8904f467e3d92b62ecdae64052bf1", "is_reserved": 0, "is_disabled": 0}, {"lat": 38.907785833333335, "fusion_lat": 0.0, "type": "electric_scooter", "bike_id": "3dffe1a4a9f3c84888b8de9dd33256a5", "rental_uris": {"ios": "https://dc.lft.to/lastmile_qr_scan", "android": "https://dc.lft.to/lastmile_qr_scan"}, "fusion_lon": 0.0, "lon": -77.0383245, "name": "3dffe1a4a9f3c84888b8de9dd33256a5", "is_reserved": 0, "is_disabled": 0}, {"lat": 38.9055385, "fusion_lat": 0.0, "type": "electric_scooter", "bike_id": "512a1760b50a34b229d78b83a86d241d", "rental_uris": {"ios": "https://dc.lft.to/lastmile_qr_scan", "android": "https://dc.lft.to/lastmile_qr_scan"}, "fusion_lon": 0.0, "lon": -77.00608066666666, "name": "512a1760b50a34b229d78b83a86d241d", "is_reserved": 0, "is_disabled": 0}, {"lat": 38.876915333333336, "fusion_lat": 0.0, "type": "electric_scooter", "bike_id": "6956c9cc3d173a0ad6dd2d2b8ea5e9c2", "rental_uris": {"ios": "https://dc.lft.to/lastmile_qr_scan", "android": "https://dc.lft.to/lastmile_qr_scan"}, "fusion_lon": 0.0, "lon": -77.00667933333334, "name": "6956c9cc3d173a0ad6dd2d2b8ea5e9c2", "is_reserved": 0, "is_disabled": 0}, {"lat": 38.92280083333333, "fusion_lat": 0.0, "type": "electric_scooter", "bike_id": "1ed33c54acd6dca0dac2956a898fc1a6", "rental_uris": {"ios": "https://dc.lft.to/lastmile_qr_scan", "android": "https://dc.lft.to/lastmile_qr_scan"}, "fusion_lon": 0.0, "lon": -77.02966216666667, "name": "1ed33c54acd6dca0dac2956a898fc1a6", "is_reserved": 0, "is_disabled": 0}, {"lat": 38.877579833333336, "fusion_lat": 0.0, "type": "electric_scooter", "bike_id": "b16dfd4611919f7b31e104b202da5c04", "rental_uris": {"ios": "https://dc.lft.to/lastmile_qr_scan", "android": "https://dc.lft.to/lastmile_qr_scan"}, "fusion_lon": 0.0, "lon": -77.01740583333333, "name": "b16dfd4611919f7b31e104b202da5c04", "is_reserved": 0, "is_disabled": 0}, {"lat": 38.86062283333333, "fusion_lat": 0.0, "type": "electric_scooter", "bike_id": "69255590fc8748d2e375d57b90d083e4", "rental_uris": {"ios": "https://dc.lft.to/lastmile_qr_scan", "android": "https://dc.lft.to/lastmile_qr_scan"}, "fusion_lon": 0.0, "lon": -76.96718516666667, "name": "69255590fc8748d2e375d57b90d083e4", "is_reserved": 0, "is_disabled": 0}, {"lat": 38.92130433333333, "fusion_lat": 0.0, "type": "electric_scooter", "bike_id": "ef839b910a9ce05f90dcd3a97861b4e8", "rental_uris": {"ios": "https://dc.lft.to/lastmile_qr_scan", "android": "https://dc.lft.to/lastmile_qr_scan"}, "fusion_lon": 0.0, "lon": -77.01829966666666, "name": "ef839b910a9ce05f90dcd3a97861b4e8", "is_reserved": 0, "is_disabled": 0}, {"lat": 38.905315333333334, "fusion_lat": 0.0, "type": "electric_scooter", "bike_id": "05379923594668eea8f3e12d67fa1ff4", "rental_uris": {"ios": "https://dc.lft.to/lastmile_qr_scan", "android": "https://dc.lft.to/lastmile_qr_scan"}, "fusion_lon": 0.0, "lon": -77.04844083333333, "name": "05379923594668eea8f3e12d67fa1ff4", "is_reserved": 0, "is_disabled": 0}, {"lat": 39.03429216666667, "fusion_lat": 0.0, "type": "electric_bike", "bike_id": "9e5b8dc42edf5f262cbf6e6d85e56c7e", "rental_uris": {"ios": "https://dc.lft.to/lastmile_qr_scan", "android": "https://dc.lft.to/lastmile_qr_scan"}, "fusion_lon": 0.0, "lon": -77.043032, "name": "9e5b8dc42edf5f262cbf6e6d85e56c7e", "is_reserved": 0, "is_disabled": 0}, {"lat": 38.923235166666664, "fusion_lat": 0.0, "type": "electric_scooter", "bike_id": "da140be77af1cb0ac5ec284e0f37e118", "rental_uris": {"ios": "https://dc.lft.to/lastmile_qr_scan", "android": "https://dc.lft.to/lastmile_qr_scan"}, "fusion_lon": 0.0, "lon": -77.03534666666667, "name": "da140be77af1cb0ac5ec284e0f37e118", "is_reserved": 0, "is_disabled": 0}, {"lat": 38.9160105, "fusion_lat": 0.0, "type": "electric_scooter", "bike_id": "cfb4acf80bf3296c19c47ea79123a0c2", "rental_uris": {"ios": "https://dc.lft.to/lastmile_qr_scan", "android": "https://dc.lft.to/lastmile_qr_scan"}, "fusion_lon": 0.0, "lon": -77.01152816666666, "name": "cfb4acf80bf3296c19c47ea79123a0c2", "is_reserved": 0, "is_disabled": 0}, {"lat": 38.90376416666667, "fusion_lat": 0.0, "type": "electric_scooter", "bike_id": "67c702f046e6524a93275f823fab7a24", "rental_uris": {"ios": "https://dc.lft.to/lastmile_qr_scan", "android": "https://dc.lft.to/lastmile_qr_scan"}, "fusion_lon": 0.0, "lon": -77.0488105, "name": "67c702f046e6524a93275f823fab7a24", "is_reserved": 0, "is_disabled": 0}, {"lat": 38.907258166666665, "fusion_lat": 0.0, "type": "electric_scooter", "bike_id": "441d5c55edab046fb3d3fc73f37c8412", "rental_uris": {"ios": "https://dc.lft.to/lastmile_qr_scan", "android": "https://dc.lft.to/lastmile_qr_scan"}, "fusion_lon": 0.0, "lon": -77.0279595, "name": "441d5c55edab046fb3d3fc73f37c8412", "is_reserved": 0, "is_disabled": 0}, {"lat": 38.877216833333335, "fusion_lat": 0.0, "type": "electric_scooter", "bike_id": "e3ca1a4053610cbebfadade98a37c82e", "rental_uris": {"ios": "https://dc.lft.to/lastmile_qr_scan", "android": "https://dc.lft.to/lastmile_qr_scan"}, "fusion_lon": 0.0, "lon": -77.017547, "name": "e3ca1a4053610cbebfadade98a37c82e", "is_reserved": 0, "is_disabled": 0}, {"lat": 38.9178515, "fusion_lat": 0.0, "type": "electric_scooter", "bike_id": "430ef8ac3eb290f13d8549d33496cb0c", "rental_uris": {"ios": "https://dc.lft.to/lastmile_qr_scan", "android": "https://dc.lft.to/lastmile_qr_scan"}, "fusion_lon": 0.0, "lon": -77.02282133333334, "name": "430ef8ac3eb290f13d8549d33496cb0c", "is_reserved": 0, "is_disabled": 0}, {"lat": 38.92049383333333, "fusion_lat": 0.0, "type": "electric_scooter", "bike_id": "ba955dc064c49961adfe861a8e99b203", "rental_uris": {"ios": "https://dc.lft.to/lastmile_qr_scan", "android": "https://dc.lft.to/lastmile_qr_scan"}, "fusion_lon": 0.0, "lon": -77.01708616666667, "name": "ba955dc064c49961adfe861a8e99b203", "is_reserved": 0, "is_disabled": 0}, {"lat": 38.9152855, "fusion_lat": 0.0, "type": "electric_scooter", "bike_id": "a5d035f2ce822fae56bdfb89f08d81ae", "rental_uris": {"ios": "https://dc.lft.to/lastmile_qr_scan", "android": "https://dc.lft.to/lastmile_qr_scan"}, "fusion_lon": 0.0, "lon": -77.03195316666667, "name": "a5d035f2ce822fae56bdfb89f08d81ae", "is_reserved": 0, "is_disabled": 0}, {"lat": 38.926557833333334, "fusion_lat": 0.0, "type": "electric_scooter", "bike_id": "f308d0db2049268e128896e6d14e3134", "rental_uris": {"ios": "https://dc.lft.to/lastmile_qr_scan", "android": "https://dc.lft.to/lastmile_qr_scan"}, "fusion_lon": 0.0, "lon": -77.03412083333333, "name": "f308d0db2049268e128896e6d14e3134", "is_reserved": 0, "is_disabled": 0}, {"lat": 38.89769833333333, "fusion_lat": 0.0, "type": "electric_scooter", "bike_id": "664197895d3186e13f0e87be184c397c", "rental_uris": {"ios": "https://dc.lft.to/lastmile_qr_scan", "android": "https://dc.lft.to/lastmile_qr_scan"}, "fusion_lon": 0.0, "lon": -76.98463516666666, "name": "664197895d3186e13f0e87be184c397c", "is_reserved": 0, "is_disabled": 0}, {"lat": 38.902605666666666, "fusion_lat": 0.0, "type": "electric_scooter", "bike_id": "6751453ea526087307ff5721c11b94b6", "rental_uris": {"ios": "https://dc.lft.to/lastmile_qr_scan", "android": "https://dc.lft.to/lastmile_qr_scan"}, "fusion_lon": 0.0, "lon": -77.0531535, "name": "6751453ea526087307ff5721c11b94b6", "is_reserved": 0, "is_disabled": 0}, {"lat": 38.93115916666667, "fusion_lat": 0.0, "type": "electric_scooter", "bike_id": "cd6241f51ac2e47201d94cb06f11ec7f", "rental_uris": {"ios": "https://dc.lft.to/lastmile_qr_scan", "android": "https://dc.lft.to/lastmile_qr_scan"}, "fusion_lon": 0.0, "lon": -77.021298, "name": "cd6241f51ac2e47201d94cb06f11ec7f", "is_reserved": 0, "is_disabled": 0}, {"lat": 38.92181983333333, "fusion_lat": 0.0, "type": "electric_scooter", "bike_id": "d55ad27ede657f5886b5844bb236abf8", "rental_uris": {"ios": "https://dc.lft.to/lastmile_qr_scan", "android": "https://dc.lft.to/lastmile_qr_scan"}, "fusion_lon": 0.0, "lon": -77.0378275, "name": "d55ad27ede657f5886b5844bb236abf8", "is_reserved": 0, "is_disabled": 0}, {"lat": 38.909108333333336, "fusion_lat": 0.0, "type": "electric_scooter", "bike_id": "ffa460ff5751f9c96116fe3d47caadbc", "rental_uris": {"ios": "https://dc.lft.to/lastmile_qr_scan", "android": "https://dc.lft.to/lastmile_qr_scan"}, "fusion_lon": 0.0, "lon": -76.99965466666667, "name": "ffa460ff5751f9c96116fe3d47caadbc", "is_reserved": 0, "is_disabled": 0}, {"lat": 38.900828833333335, "fusion_lat": 0.0, "type": "electric_bike", "bike_id": "e6954166b890f65ec0ba4e940ba9f105", "rental_uris": {"ios": "https://dc.lft.to/lastmile_qr_scan", "android": "https://dc.lft.to/lastmile_qr_scan"}, "fusion_lon": 0.0, "lon": -77.05907416666666, "name": "e6954166b890f65ec0ba4e940ba9f105", "is_reserved": 0, "is_disabled": 0}, {"lat": 38.911292, "fusion_lat": 0.0, "type": "electric_scooter", "bike_id": "b6c81bf83bf239ad1721d39356662d6b", "rental_uris": {"ios": "https://dc.lft.to/lastmile_qr_scan", "android": "https://dc.lft.to/lastmile_qr_scan"}, "fusion_lon": 0.0, "lon": -77.02183966666666, "name": "b6c81bf83bf239ad1721d39356662d6b", "is_reserved": 0, "is_disabled": 0}, {"lat": 38.903019666666665, "fusion_lat": 0.0, "type": "electric_scooter", "bike_id": "c97920177ffdc28c67159d2f93a5100f", "rental_uris": {"ios": "https://dc.lft.to/lastmile_qr_scan", "android": "https://dc.lft.to/lastmile_qr_scan"}, "fusion_lon": 0.0, "lon": -77.054687, "name": "c97920177ffdc28c67159d2f93a5100f", "is_reserved": 0, "is_disabled": 0}, {"lat": 38.87184466666667, "fusion_lat": 0.0, "type": "electric_scooter", "bike_id": "1c1feee7d9d6a918990c36408ca24cfd", "rental_uris": {"ios": "https://dc.lft.to/lastmile_qr_scan", "android": "https://dc.lft.to/lastmile_qr_scan"}, "fusion_lon": 0.0, "lon": -77.00643866666667, "name": "1c1feee7d9d6a918990c36408ca24cfd", "is_reserved": 0, "is_disabled": 0}, {"lat": 38.922243333333334, "fusion_lat": 0.0, "type": "electric_scooter", "bike_id": "47addf633feadc8d612fa42b9388e9e5", "rental_uris": {"ios": "https://dc.lft.to/lastmile_qr_scan", "android": "https://dc.lft.to/lastmile_qr_scan"}, "fusion_lon": 0.0, "lon": -77.07287766666667, "name": "47addf633feadc8d612fa42b9388e9e5", "is_reserved": 0, "is_disabled": 0}, {"lat": 38.914478333333335, "fusion_lat": 0.0, "type": "electric_scooter", "bike_id": "7bc33822067ced18bed6c4c312a2a014", "rental_uris": {"ios": "https://dc.lft.to/lastmile_qr_scan", "android": "https://dc.lft.to/lastmile_qr_scan"}, "fusion_lon": 0.0, "lon": -77.02288866666666, "name": "7bc33822067ced18bed6c4c312a2a014", "is_reserved": 0, "is_disabled": 0}, {"lat": 38.893558666666664, "fusion_lat": 0.0, "type": "electric_scooter", "bike_id": "3e4d8a15d0984e156a89b01f3d0db942", "rental_uris": {"ios": "https://dc.lft.to/lastmile_qr_scan", "android": "https://dc.lft.to/lastmile_qr_scan"}, "fusion_lon": 0.0, "lon": -77.00339633333333, "name": "3e4d8a15d0984e156a89b01f3d0db942", "is_reserved": 0, "is_disabled": 0}, {"lat": 38.8934305, "fusion_lat": 0.0, "type": "electric_scooter", "bike_id": "1448d023eb2c787446d54cd3f34a18f7", "rental_uris": {"ios": "https://dc.lft.to/lastmile_qr_scan", "android": "https://dc.lft.to/lastmile_qr_scan"}, "fusion_lon": 0.0, "lon": -76.95228116666667, "name": "1448d023eb2c787446d54cd3f34a18f7", "is_reserved": 0, "is_disabled": 0}, {"lat": 38.972138666666666, "fusion_lat": 0.0, "type": "electric_scooter", "bike_id": "a8844981065fb9fd304914936e265fbc", "rental_uris": {"ios": "https://dc.lft.to/lastmile_qr_scan", "android": "https://dc.lft.to/lastmile_qr_scan"}, "fusion_lon": 0.0, "lon": -77.03337466666666, "name": "a8844981065fb9fd304914936e265fbc", "is_reserved": 0, "is_disabled": 0}, {"lat": 38.918171666666666, "fusion_lat": 0.0, "type": "electric_scooter", "bike_id": "1dca5031c401a5a8fb59d5651ec315ec", "rental_uris": {"ios": "https://dc.lft.to/lastmile_qr_scan", "android": "https://dc.lft.to/lastmile_qr_scan"}, "fusion_lon": 0.0, "lon": -77.03785966666666, "name": "1dca5031c401a5a8fb59d5651ec315ec", "is_reserved": 0, "is_disabled": 0}, {"lat": 38.8991775, "fusion_lat": 0.0, "type": "electric_scooter", "bike_id": "95e62c70cf1967beeaa82f044099916f", "rental_uris": {"ios": "https://dc.lft.to/lastmile_qr_scan", "android": "https://dc.lft.to/lastmile_qr_scan"}, "fusion_lon": 0.0, "lon": -77.01927033333334, "name": "95e62c70cf1967beeaa82f044099916f", "is_reserved": 0, "is_disabled": 0}, {"lat": 38.93564, "fusion_lat": 0.0, "type": "electric_bike", "bike_id": "234ec40a1bfc23c76f84dc4d955a64db", "rental_uris": {"ios": "https://dc.lft.to/lastmile_qr_scan", "android": "https://dc.lft.to/lastmile_qr_scan"}, "fusion_lon": 0.0, "lon": -77.10621383333333, "name": "234ec40a1bfc23c76f84dc4d955a64db", "is_reserved": 0, "is_disabled": 0}, {"lat": 38.90295316666667, "fusion_lat": 0.0, "type": "electric_scooter", "bike_id": "37331566c871d0d9efc332362b9d63a0", "rental_uris": {"ios": "https://dc.lft.to/lastmile_qr_scan", "android": "https://dc.lft.to/lastmile_qr_scan"}, "fusion_lon": 0.0, "lon": -76.99263966666666, "name": "37331566c871d0d9efc332362b9d63a0", "is_reserved": 0, "is_disabled": 0}, {"lat": 38.922553, "fusion_lat": 0.0, "type": "electric_scooter", "bike_id": "bdab3c6dbbccdfa0501209b3a9684723", "rental_uris": {"ios": "https://dc.lft.to/lastmile_qr_scan", "android": "https://dc.lft.to/lastmile_qr_scan"}, "fusion_lon": 0.0, "lon": -77.01959366666667, "name": "bdab3c6dbbccdfa0501209b3a9684723", "is_reserved": 0, "is_disabled": 0}, {"lat": 38.93278083333333, "fusion_lat": 0.0, "type": "electric_scooter", "bike_id": "54eeeb150930978375c8be25de828358", "rental_uris": {"ios": "https://dc.lft.to/lastmile_qr_scan", "android": "https://dc.lft.to/lastmile_qr_scan"}, "fusion_lon": 0.0, "lon": -76.9843625, "name": "54eeeb150930978375c8be25de828358", "is_reserved": 0, "is_disabled": 0}, {"lat": 38.932495833333334, "fusion_lat": 0.0, "type": "electric_scooter", "bike_id": "c7e76c02ff747fc30c059547660115e7", "rental_uris": {"ios": "https://dc.lft.to/lastmile_qr_scan", "android": "https://dc.lft.to/lastmile_qr_scan"}, "fusion_lon": 0.0, "lon": -77.0328085, "name": "c7e76c02ff747fc30c059547660115e7", "is_reserved": 0, "is_disabled": 0}, {"lat": 38.92760666666667, "fusion_lat": 0.0, "type": "electric_scooter", "bike_id": "e0b8b2ad690029b80bcee196d9a63494", "rental_uris": {"ios": "https://dc.lft.to/lastmile_qr_scan", "android": "https://dc.lft.to/lastmile_qr_scan"}, "fusion_lon": 0.0, "lon": -77.0527075, "name": "e0b8b2ad690029b80bcee196d9a63494", "is_reserved": 0, "is_disabled": 0}, {"lat": 38.9470345, "fusion_lat": 0.0, "type": "electric_scooter", "bike_id": "d13fe832d3f333a9f60b5b601d433e5b", "rental_uris": {"ios": "https://dc.lft.to/lastmile_qr_scan", "android": "https://dc.lft.to/lastmile_qr_scan"}, "fusion_lon": 0.0, "lon": -77.01940433333333, "name": "d13fe832d3f333a9f60b5b601d433e5b", "is_reserved": 0, "is_disabled": 0}, {"lat": 38.914005, "fusion_lat": 0.0, "type": "electric_scooter", "bike_id": "1b855f0135d77b433aaaedc2881998de", "rental_uris": {"ios": "https://dc.lft.to/lastmile_qr_scan", "android": "https://dc.lft.to/lastmile_qr_scan"}, "fusion_lon": 0.0, "lon": -77.01017883333333, "name": "1b855f0135d77b433aaaedc2881998de", "is_reserved": 0, "is_disabled": 0}, {"lat": 38.911293, "fusion_lat": 0.0, "type": "electric_scooter", "bike_id": "c9ad43bf2f393f821f7b37b744f6a6e3", "rental_uris": {"ios": "https://dc.lft.to/lastmile_qr_scan", "android": "https://dc.lft.to/lastmile_qr_scan"}, "fusion_lon": 0.0, "lon": -77.05276966666666, "name": "c9ad43bf2f393f821f7b37b744f6a6e3", "is_reserved": 0, "is_disabled": 0}, {"lat": 38.899984333333336, "fusion_lat": 0.0, "type": "electric_scooter", "bike_id": "e282428a1a8af50959eb062daa40fac5", "rental_uris": {"ios": "https://dc.lft.to/lastmile_qr_scan", "android": "https://dc.lft.to/lastmile_qr_scan"}, "fusion_lon": 0.0, "lon": -77.0236585, "name": "e282428a1a8af50959eb062daa40fac5", "is_reserved": 0, "is_disabled": 0}, {"lat": 38.89199133333334, "fusion_lat": 0.0, "type": "electric_scooter", "bike_id": "e1a72630c9ade2b0742693aa5b271db4", "rental_uris": {"ios": "https://dc.lft.to/lastmile_qr_scan", "android": "https://dc.lft.to/lastmile_qr_scan"}, "fusion_lon": 0.0, "lon": -77.0238245, "name": "e1a72630c9ade2b0742693aa5b271db4", "is_reserved": 0, "is_disabled": 0}, {"lat": 38.898862666666666, "fusion_lat": 0.0, "type": "electric_scooter", "bike_id": "987fab5d99625170ca6ab4a94b45bdf5", "rental_uris": {"ios": "https://dc.lft.to/lastmile_qr_scan", "android": "https://dc.lft.to/lastmile_qr_scan"}, "fusion_lon": 0.0, "lon": -76.93176983333333, "name": "987fab5d99625170ca6ab4a94b45bdf5", "is_reserved": 0, "is_disabled": 0}, {"lat": 38.93074133333333, "fusion_lat": 0.0, "type": "electric_scooter", "bike_id": "29382f5a1a0d39fea3d51b9e19c74f06", "rental_uris": {"ios": "https://dc.lft.to/lastmile_qr_scan", "android": "https://dc.lft.to/lastmile_qr_scan"}, "fusion_lon": 0.0, "lon": -76.99610166666666, "name": "29382f5a1a0d39fea3d51b9e19c74f06", "is_reserved": 0, "is_disabled": 0}, {"lat": 38.92190016666667, "fusion_lat": 0.0, "type": "electric_scooter", "bike_id": "f97d3e5dbc51779579a3019877fafea5", "rental_uris": {"ios": "https://dc.lft.to/lastmile_qr_scan", "android": "https://dc.lft.to/lastmile_qr_scan"}, "fusion_lon": 0.0, "lon": -77.04249466666667, "name": "f97d3e5dbc51779579a3019877fafea5", "is_reserved": 0, "is_disabled": 0}, {"lat": 38.91493633333333, "fusion_lat": 0.0, "type": "electric_scooter", "bike_id": "eb05e15e7516dd78e55e3d49ee3fd748", "rental_uris": {"ios": "https://dc.lft.to/lastmile_qr_scan", "android": "https://dc.lft.to/lastmile_qr_scan"}, "fusion_lon": 0.0, "lon": -77.01997516666667, "name": "eb05e15e7516dd78e55e3d49ee3fd748", "is_reserved": 0, "is_disabled": 0}, {"lat": 38.91178216666667, "fusion_lat": 0.0, "type": "electric_scooter", "bike_id": "545d192f8bad8fac02ccd6e4347ba2be", "rental_uris": {"ios": "https://dc.lft.to/lastmile_qr_scan", "android": "https://dc.lft.to/lastmile_qr_scan"}, "fusion_lon": 0.0, "lon": -77.0169675, "name": "545d192f8bad8fac02ccd6e4347ba2be", "is_reserved": 0, "is_disabled": 0}, {"lat": 38.912428166666665, "fusion_lat": 0.0, "type": "electric_scooter", "bike_id": "5cc3aad09d36538d268652592b536aba", "rental_uris": {"ios": "https://dc.lft.to/lastmile_qr_scan", "android": "https://dc.lft.to/lastmile_qr_scan"}, "fusion_lon": 0.0, "lon": -77.04074233333333, "name": "5cc3aad09d36538d268652592b536aba", "is_reserved": 0, "is_disabled": 0}, {"lat": 38.91201183333333, "fusion_lat": 0.0, "type": "electric_scooter", "bike_id": "75361c783f022f7630ac525aec9de7bd", "rental_uris": {"ios": "https://dc.lft.to/lastmile_qr_scan", "android": "https://dc.lft.to/lastmile_qr_scan"}, "fusion_lon": 0.0, "lon": -77.01887716666667, "name": "75361c783f022f7630ac525aec9de7bd", "is_reserved": 0, "is_disabled": 0}, {"lat": 38.950842, "fusion_lat": 0.0, "type": "electric_bike", "bike_id": "bf2c9244eb15370b9b72a44769eb73b5", "rental_uris": {"ios": "https://dc.lft.to/lastmile_qr_scan", "android": "https://dc.lft.to/lastmile_qr_scan"}, "fusion_lon": 0.0, "lon": -77.01227333333334, "name": "bf2c9244eb15370b9b72a44769eb73b5", "is_reserved": 0, "is_disabled": 0}, {"lat": 38.913285333333334, "fusion_lat": 0.0, "type": "electric_scooter", "bike_id": "8990f436506f9583faae838ad9b54b48", "rental_uris": {"ios": "https://dc.lft.to/lastmile_qr_scan", "android": "https://dc.lft.to/lastmile_qr_scan"}, "fusion_lon": 0.0, "lon": -77.048647, "name": "8990f436506f9583faae838ad9b54b48", "is_reserved": 0, "is_disabled": 0}, {"lat": 38.81332483333333, "fusion_lat": 0.0, "type": "electric_bike", "bike_id": "2447dc920eebe9ae555d6cf9e60996f6", "rental_uris": {"ios": "https://dc.lft.to/lastmile_qr_scan", "android": "https://dc.lft.to/lastmile_qr_scan"}, "fusion_lon": 0.0, "lon": -77.05094566666666, "name": "2447dc920eebe9ae555d6cf9e60996f6", "is_reserved": 0, "is_disabled": 0}, {"lat": 38.899759333333336, "fusion_lat": 0.0, "type": "electric_scooter", "bike_id": "438807a4217d4ceb7fb58b2f41c548a5", "rental_uris": {"ios": "https://dc.lft.to/lastmile_qr_scan", "android": "https://dc.lft.to/lastmile_qr_scan"}, "fusion_lon": 0.0, "lon": -77.01909633333334, "name": "438807a4217d4ceb7fb58b2f41c548a5", "is_reserved": 0, "is_disabled": 0}, {"lat": 38.91289316666666, "fusion_lat": 0.0, "type": "electric_bike", "bike_id": "1fddbcb77b779a0ea25ff76e695606e1", "rental_uris": {"ios": "https://dc.lft.to/lastmile_qr_scan", "android": "https://dc.lft.to/lastmile_qr_scan"}, "fusion_lon": 0.0, "lon": -77.044838, "name": "1fddbcb77b779a0ea25ff76e695606e1", "is_reserved": 0, "is_disabled": 0}, {"lat": 38.89729583333333, "fusion_lat": 0.0, "type": "electric_scooter", "bike_id": "91fad2aea60a725152a625812bf7e4c4", "rental_uris": {"ios": "https://dc.lft.to/lastmile_qr_scan", "android": "https://dc.lft.to/lastmile_qr_scan"}, "fusion_lon": 0.0, "lon": -77.04680883333333, "name": "91fad2aea60a725152a625812bf7e4c4", "is_reserved": 0, "is_disabled": 0}, {"lat": 38.90560766666667, "fusion_lat": 0.0, "type": "electric_scooter", "bike_id": "cdb7a646c77252ea1a3805b70aca7f16", "rental_uris": {"ios": "https://dc.lft.to/lastmile_qr_scan", "android": "https://dc.lft.to/lastmile_qr_scan"}, "fusion_lon": 0.0, "lon": -77.02508266666666, "name": "cdb7a646c77252ea1a3805b70aca7f16", "is_reserved": 0, "is_disabled": 0}, {"lat": 38.876242833333336, "fusion_lat": 0.0, "type": "electric_scooter", "bike_id": "49a623120873a97e18e05d22e5fa9304", "rental_uris": {"ios": "https://dc.lft.to/lastmile_qr_scan", "android": "https://dc.lft.to/lastmile_qr_scan"}, "fusion_lon": 0.0, "lon": -77.0011085, "name": "49a623120873a97e18e05d22e5fa9304", "is_reserved": 0, "is_disabled": 0}, {"lat": 38.900061666666666, "fusion_lat": 0.0, "type": "electric_scooter", "bike_id": "c9a15de4926a31bd2e955975c81163ab", "rental_uris": {"ios": "https://dc.lft.to/lastmile_qr_scan", "android": "https://dc.lft.to/lastmile_qr_scan"}, "fusion_lon": 0.0, "lon": -77.01257333333334, "name": "c9a15de4926a31bd2e955975c81163ab", "is_reserved": 0, "is_disabled": 0}, {"lat": 38.89220666666667, "fusion_lat": 0.0, "type": "electric_scooter", "bike_id": "fadf3c14376163aecdd2d9693f521a8c", "rental_uris": {"ios": "https://dc.lft.to/lastmile_qr_scan", "android": "https://dc.lft.to/lastmile_qr_scan"}, "fusion_lon": 0.0, "lon": -77.04200416666667, "name": "fadf3c14376163aecdd2d9693f521a8c", "is_reserved": 0, "is_disabled": 0}, {"lat": 38.91829, "fusion_lat": 0.0, "type": "electric_scooter", "bike_id": "3fa6772692950137727ef020fecb1999", "rental_uris": {"ios": "https://dc.lft.to/lastmile_qr_scan", "android": "https://dc.lft.to/lastmile_qr_scan"}, "fusion_lon": 0.0, "lon": -77.04554033333334, "name": "3fa6772692950137727ef020fecb1999", "is_reserved": 0, "is_disabled": 0}, {"lat": 38.91992333333334, "fusion_lat": 0.0, "type": "electric_scooter", "bike_id": "496df300a04636c83ee2b7150c037118", "rental_uris": {"ios": "https://dc.lft.to/lastmile_qr_scan", "android": "https://dc.lft.to/lastmile_qr_scan"}, "fusion_lon": 0.0, "lon": -77.0217605, "name": "496df300a04636c83ee2b7150c037118", "is_reserved": 0, "is_disabled": 0}, {"lat": 38.8919485, "fusion_lat": 0.0, "type": "electric_scooter", "bike_id": "4a7f9fc6a63675bb196a2aa91dbedf0a", "rental_uris": {"ios": "https://dc.lft.to/lastmile_qr_scan", "android": "https://dc.lft.to/lastmile_qr_scan"}, "fusion_lon": 0.0, "lon": -76.99385883333333, "name": "4a7f9fc6a63675bb196a2aa91dbedf0a", "is_reserved": 0, "is_disabled": 0}, {"lat": 38.916946, "fusion_lat": 0.0, "type": "electric_scooter", "bike_id": "0e5b6b230e6612a94d3a9e10301778b8", "rental_uris": {"ios": "https://dc.lft.to/lastmile_qr_scan", "android": "https://dc.lft.to/lastmile_qr_scan"}, "fusion_lon": 0.0, "lon": -77.02985766666667, "name": "0e5b6b230e6612a94d3a9e10301778b8", "is_reserved": 0, "is_disabled": 0}, {"lat": 39.002848666666665, "fusion_lat": 0.0, "type": "electric_bike", "bike_id": "d590b5dd94d8cd7c01ffd9073dcdd6a1", "rental_uris": {"ios": "https://dc.lft.to/lastmile_qr_scan", "android": "https://dc.lft.to/lastmile_qr_scan"}, "fusion_lon": 0.0, "lon": -76.90295283333333, "name": "d590b5dd94d8cd7c01ffd9073dcdd6a1", "is_reserved": 0, "is_disabled": 0}, {"lat": 38.87165733333333, "fusion_lat": 0.0, "type": "electric_scooter", "bike_id": "4a453451f68f05da5e0c8b8a1da3df91", "rental_uris": {"ios": "https://dc.lft.to/lastmile_qr_scan", "android": "https://dc.lft.to/lastmile_qr_scan"}, "fusion_lon": 0.0, "lon": -77.00700683333334, "name": "4a453451f68f05da5e0c8b8a1da3df91", "is_reserved": 0, "is_disabled": 0}, {"lat": 38.907668, "fusion_lat": 0.0, "type": "electric_scooter", "bike_id": "e2daf8bd4997392b415fe1284fde93f8", "rental_uris": {"ios": "https://dc.lft.to/lastmile_qr_scan", "android": "https://dc.lft.to/lastmile_qr_scan"}, "fusion_lon": 0.0, "lon": -77.03743066666667, "name": "e2daf8bd4997392b415fe1284fde93f8", "is_reserved": 0, "is_disabled": 0}, {"lat": 38.8637295, "fusion_lat": 0.0, "type": "electric_bike", "bike_id": "8149952d2302b62f294f8714e73de7e1", "rental_uris": {"ios": "https://dc.lft.to/lastmile_qr_scan", "android": "https://dc.lft.to/lastmile_qr_scan"}, "fusion_lon": 0.0, "lon": -76.97016416666666, "name": "8149952d2302b62f294f8714e73de7e1", "is_reserved": 0, "is_disabled": 0}, {"lat": 38.92072683333333, "fusion_lat": 0.0, "type": "electric_scooter", "bike_id": "52f4999a5afd0ec44bcb877a7d4f69c2", "rental_uris": {"ios": "https://dc.lft.to/lastmile_qr_scan", "android": "https://dc.lft.to/lastmile_qr_scan"}, "fusion_lon": 0.0, "lon": -77.02502616666666, "name": "52f4999a5afd0ec44bcb877a7d4f69c2", "is_reserved": 0, "is_disabled": 0}, {"lat": 38.916718, "fusion_lat": 0.0, "type": "electric_scooter", "bike_id": "0e7d8f42ae990f5bfdce09fc6d7e964d", "rental_uris": {"ios": "https://dc.lft.to/lastmile_qr_scan", "android": "https://dc.lft.to/lastmile_qr_scan"}, "fusion_lon": 0.0, "lon": -77.01577716666667, "name": "0e7d8f42ae990f5bfdce09fc6d7e964d", "is_reserved": 0, "is_disabled": 0}, {"lat": 38.80760183333334, "fusion_lat": 0.0, "type": "electric_bike", "bike_id": "f383924cd61f588a9261dd901b0fb268", "rental_uris": {"ios": "https://dc.lft.to/lastmile_qr_scan", "android": "https://dc.lft.to/lastmile_qr_scan"}, "fusion_lon": 0.0, "lon": -77.09471883333333, "name": "f383924cd61f588a9261dd901b0fb268", "is_reserved": 0, "is_disabled": 0}, {"lat": 38.92622133333333, "fusion_lat": 0.0, "type": "electric_scooter", "bike_id": "7903e1ecc80056343ac73e320832eeb9", "rental_uris": {"ios": "https://dc.lft.to/lastmile_qr_scan", "android": "https://dc.lft.to/lastmile_qr_scan"}, "fusion_lon": 0.0, "lon": -77.041957, "name": "7903e1ecc80056343ac73e320832eeb9", "is_reserved": 0, "is_disabled": 0}, {"lat": 38.92077333333334, "fusion_lat": 0.0, "type": "electric_scooter", "bike_id": "5162bca25625f5e90bd16e45a4bcbbe2", "rental_uris": {"ios": "https://dc.lft.to/lastmile_qr_scan", "android": "https://dc.lft.to/lastmile_qr_scan"}, "fusion_lon": 0.0, "lon": -77.02442183333334, "name": "5162bca25625f5e90bd16e45a4bcbbe2", "is_reserved": 0, "is_disabled": 0}, {"lat": 38.915294833333334, "fusion_lat": 0.0, "type": "electric_scooter", "bike_id": "46f73c9a7fd67530681039e54babf750", "rental_uris": {"ios": "https://dc.lft.to/lastmile_qr_scan", "android": "https://dc.lft.to/lastmile_qr_scan"}, "fusion_lon": 0.0, "lon": -76.98354183333333, "name": "46f73c9a7fd67530681039e54babf750", "is_reserved": 0, "is_disabled": 0}, {"lat": 38.92432816666667, "fusion_lat": 0.0, "type": "electric_scooter", "bike_id": "b484ff0ababf42cf0a5b3e75a13fde97", "rental_uris": {"ios": "https://dc.lft.to/lastmile_qr_scan", "android": "https://dc.lft.to/lastmile_qr_scan"}, "fusion_lon": 0.0, "lon": -77.042541, "name": "b484ff0ababf42cf0a5b3e75a13fde97", "is_reserved": 0, "is_disabled": 0}, {"lat": 38.920147666666665, "fusion_lat": 0.0, "type": "electric_scooter", "bike_id": "433a481f4320a0e4d6ce7da564bff66f", "rental_uris": {"ios": "https://dc.lft.to/lastmile_qr_scan", "android": "https://dc.lft.to/lastmile_qr_scan"}, "fusion_lon": 0.0, "lon": -77.04402516666667, "name": "433a481f4320a0e4d6ce7da564bff66f", "is_reserved": 0, "is_disabled": 0}, {"lat": 38.81252, "fusion_lat": 0.0, "type": "electric_bike", "bike_id": "42529996db8e35386d592491f568ee85", "rental_uris": {"ios": "https://dc.lft.to/lastmile_qr_scan", "android": "https://dc.lft.to/lastmile_qr_scan"}, "fusion_lon": 0.0, "lon": -77.117825, "name": "42529996db8e35386d592491f568ee85", "is_reserved": 0, "is_disabled": 0}, {"lat": 38.9181615, "fusion_lat": 0.0, "type": "electric_scooter", "bike_id": "b7d723ba0b8f3d2692385c303025b7f7", "rental_uris": {"ios": "https://dc.lft.to/lastmile_qr_scan", "android": "https://dc.lft.to/lastmile_qr_scan"}, "fusion_lon": 0.0, "lon": -77.04173566666667, "name": "b7d723ba0b8f3d2692385c303025b7f7", "is_reserved": 0, "is_disabled": 0}, {"lat": 38.911047833333335, "fusion_lat": 0.0, "type": "electric_scooter", "bike_id": "78d8f22fd42914b17cb911bb6b465186", "rental_uris": {"ios": "https://dc.lft.to/lastmile_qr_scan", "android": "https://dc.lft.to/lastmile_qr_scan"}, "fusion_lon": 0.0, "lon": -77.03828383333334, "name": "78d8f22fd42914b17cb911bb6b465186", "is_reserved": 0, "is_disabled": 0}, {"lat": 38.885969333333335, "fusion_lat": 0.0, "type": "electric_bike", "bike_id": "66a48616a3fb31c76413f670a29175b4", "rental_uris": {"ios": "https://dc.lft.to/lastmile_qr_scan", "android": "https://dc.lft.to/lastmile_qr_scan"}, "fusion_lon": 0.0, "lon": -77.00082266666666, "name": "66a48616a3fb31c76413f670a29175b4", "is_reserved": 0, "is_disabled": 0}, {"lat": 38.9433665, "fusion_lat": 0.0, "type": "electric_scooter", "bike_id": "2231782ad512f73e8f34c4a35bcc2f03", "rental_uris": {"ios": "https://dc.lft.to/lastmile_qr_scan", "android": "https://dc.lft.to/lastmile_qr_scan"}, "fusion_lon": 0.0, "lon": -76.98319833333333, "name": "2231782ad512f73e8f34c4a35bcc2f03", "is_reserved": 0, "is_disabled": 0}, {"lat": 38.92258866666667, "fusion_lat": 0.0, "type": "electric_scooter", "bike_id": "09c270b3abfbc3b668ab86791a9f3f75", "rental_uris": {"ios": "https://dc.lft.to/lastmile_qr_scan", "android": "https://dc.lft.to/lastmile_qr_scan"}, "fusion_lon": 0.0, "lon": -77.05292216666666, "name": "09c270b3abfbc3b668ab86791a9f3f75", "is_reserved": 0, "is_disabled": 0},