{"data": {"bikes": [{"fusion_lat": 0.0, "name": "362dcb4077ba69b11b337c3d188b2ed5", "is_disabled": 0, "rental_uris": {"android": "https://dc.lft.to/lastmile_qr_scan", "ios": "https://dc.lft.to/lastmile_qr_scan"}, "fusion_lon": 0.0, "lat": 38.91802466666667, "bike_id": "362dcb4077ba69b11b337c3d188b2ed5", "type": "electric_scooter", "is_reserved": 0, "lon": -77.0343595}, {"fusion_lat": 0.0, "name": "7081388206761c0c2b1a651a76cbda1a", "is_disabled": 0, "rental_uris": {"android": "https://dc.lft.to/lastmile_qr_scan", "ios": "https://dc.lft.to/lastmile_qr_scan"}, "fusion_lon": 0.0, "lat": 38.9318275, "bike_id": "7081388206761c0c2b1a651a76cbda1a", "type": "electric_scooter", "is_reserved": 0, "lon": -77.0429445}, {"fusion_lat": 0.0, "name": "2159f3870cd998c437da8e6fcfc84853", "is_disabled": 0, "rental_uris": {"android": "https://dc.lft.to/lastmile_qr_scan", "ios": "https://dc.lft.to/lastmile_qr_scan"}, "fusion_lon": 0.0, "lat": 38.91113283333333, "bike_id": "2159f3870cd998c437da8e6fcfc84853", "type": "electric_scooter", "is_reserved": 0, "lon": -77.021772}, {"fusion_lat": 0.0, "name": "796653448a5cc3e05c1905aa39c97f68", "is_disabled": 0, "rental_uris": {"android": "https://dc.lft.to/lastmile_qr_scan", "ios": "https://dc.lft.to/lastmile_qr_scan"}, "fusion_lon": 0.0, "lat": 38.917081, "bike_id": "796653448a5cc3e05c1905aa39c97f68", "type": "electric_scooter", "is_reserved": 0, "lon": -77.0412175}, {"fusion_lat": 0.0, "name": "a3be55f41f7e5972c2a67843613a84c3", "is_disabled": 0, "rental_uris": {"android": "https://dc.lft.to/lastmile_qr_scan", "ios": "https://dc.lft.to/lastmile_qr_scan"}, "fusion_lon": 0.0, "lat": 38.8579585, "bike_id": "a3be55f41f7e5972c2a67843613a84c3", "type": "electric_bike", "is_reserved": 0, "lon": -77.12012166666666}, {"fusion_lat": 0.0, "name": "09c9fc9f4c2e7351875dcdeac93b9d15", "is_disabled": 0, "rental_uris": {"android": "https://dc.lft.to/lastmile_qr_scan", "ios": "https://dc.lft.to/lastmile_qr_scan"}, "fusion_lon": 0.0, "lat": 38.918092666666666, "bike_id": "09c9fc9f4c2e7351875dcdeac93b9d15", "type": "electric_scooter", "is_reserved": 0, "lon": -77.037881}, {"fusion_lat": 0.0, "name": "cfaba702c261faa83c1ecdc4fc394906", "is_disabled": 0, "rental_uris": {"android": "https://dc.lft.to/lastmile_qr_scan", "ios": "https://dc.lft.to/lastmile_qr_scan"}, "fusion_lon": 0.0, "lat": 38.90304916666667, "bike_id": "cfaba702c261faa83c1ecdc4fc394906", "type": "electric_scooter", "is_reserved": 0, "lon": -77.06520833333333}, {"fusion_lat": 0.0, "name": "1d2eb75216906f09b4ecd905d695baf1", "is_disabled": 0, "rental_uris": {"android": "https://dc.lft.to/lastmile_qr_scan", "ios": "https://dc.lft.to/lastmile_qr_scan"}, "fusion_lon": 0.0, "lat": 38.9166865, "bike_id": "1d2eb75216906f09b4ecd905d695baf1", "type": "electric_scooter", "is_reserved": 0, "lon": -77.02968}, {"fusion_lat": 0.0, "name": "8cf23ff29e9842296102a08908dce5bf", "is_disabled": 0, "rental_uris": {"android": "https://dc.lft.to/lastmile_qr_scan", "ios": "https://dc.lft.to/lastmile_qr_scan"}, "fusion_lon": 0.0, "lat": 38.93066266666666, "bike_id": "8cf23ff29e9842296102a08908dce5bf", "type": "electric_scooter", "is_reserved": 0, "lon": -77.0297535}, {"fusion_lat": 0.0, "name": "e7a21e727ad932fd82a873c38953c6cf", "is_disabled": 0, "rental_uris": {"android": "https://dc.lft.to/lastmile_qr_scan", "ios": "https://dc.lft.to/lastmile_qr_scan"}, "fusion_lon": 0.0, "lat": 38.90565333333333, "bike_id": "e7a21e727ad932fd82a873c38953c6cf", "type": "electric_scooter", "is_reserved": 0, "lon": -77.01308116666667}, {"fusion_lat": 0.0, "name": "5c336e9f41ace1a71d7d0ed4b7a30710", "is_disabled": 0, "rental_uris": {"android": "https://dc.lft.to/lastmile_qr_scan", "ios": "https://dc.lft.to/lastmile_qr_scan"}, "fusion_lon": 0.0, "lat": 38.871835, "bike_id": "5c336e9f41ace1a71d7d0ed4b7a30710", "type": "electric_scooter", "is_reserved": 0, "lon": -77.00612316666667}, {"fusion_lat": 0.0, "name": "76df4ebc3e6868e3117b6628df368df1", "is_disabled": 0, "rental_uris": {"android": "https://dc.lft.to/lastmile_qr_scan", "ios": "https://dc.lft.to/lastmile_qr_scan"}, "fusion_lon": 0.0, "lat": 38.93492883333333, "bike_id": "76df4ebc3e6868e3117b6628df368df1", "type": "electric_scooter", "is_reserved": 0, "lon": -77.03074516666666}, {"fusion_lat": 0.0, "name": "722cf8f49b054e301c8d3cfd77566483", "is_disabled": 0, "rental_uris": {"android": "https://dc.lft.to/lastmile_qr_scan", "ios": "https://dc.lft.to/lastmile_qr_scan"}, "fusion_lon": 0.0, "lat": 38.88768133333333, "bike_id": "722cf8f49b054e301c8d3cfd77566483", "type": "electric_scooter", "is_reserved": 0, "lon": -76.98352566666667}, {"fusion_lat": 0.0, "name": "b103f899001e76c42100a71be1e7be17", "is_disabled": 0, "rental_uris": {"android": "https://dc.lft.to/lastmile_qr_scan", "ios": "https://dc.lft.to/lastmile_qr_scan"}, "fusion_lon": 0.0, "lat": 38.884830666666666, "bike_id": "b103f899001e76c42100a71be1e7be17", "type": "electric_scooter", "is_reserved": 0, "lon": -77.00594183333334}, {"fusion_lat": 0.0, "name": "04cc4dbacaf195bd9739f71df404b8e1", "is_disabled": 0, "rental_uris": {"android": "https://dc.lft.to/lastmile_qr_scan", "ios": "https://dc.lft.to/lastmile_qr_scan"}, "fusion_lon": 0.0, "lat": 38.9046325, "bike_id": "04cc4dbacaf195bd9739f71df404b8e1", "type": "electric_scooter", "is_reserved": 0, "lon": -76.985251}, {"fusion_lat": 0.0, "name": "294ed333bdb5b2d4e5a91f13f1151d22", "is_disabled": 0, "rental_uris": {"android": "https://dc.lft.to/lastmile_qr_scan", "ios": "https://dc.lft.to/lastmile_qr_scan"}, "fusion_lon": 0.0, "lat": 38.8805865, "bike_id": "294ed333bdb5b2d4e5a91f13f1151d22", "type": "electric_scooter", "is_reserved": 0, "lon": -76.93214683333333}, {"fusion_lat": 0.0, "name": "d15892854e94614e531e9a3ae7bde574", "is_disabled": 0, "rental_uris": {"android": "https://dc.lft.to/lastmile_qr_scan", "ios": "https://dc.lft.to/lastmile_qr_scan"}, "fusion_lon": 0.0, "lat": 38.909564833333334, "bike_id": "d15892854e94614e531e9a3ae7bde574", "type": "electric_bike", "is_reserved": 0, "lon": -77.2288565}, {"fusion_lat": 0.0, "name": "9e3336aee44fd0e3f98179debdf0efbd", "is_disabled": 0, "rental_uris": {"android": "https://dc.lft.to/lastmile_qr_scan", "ios": "https://dc.lft.to/lastmile_qr_scan"}, "fusion_lon": 0.0, "lat": 38.89846433333334, "bike_id": "9e3336aee44fd0e3f98179debdf0efbd", "type": "electric_scooter", "is_reserved": 0, "lon": -77.033241}, {"fusion_lat": 0.0, "name": "9ff00d42eebfc536dee3cab6aa169328", "is_disabled": 0, "rental_uris": {"android": "https://dc.lft.to/lastmile_qr_scan", "ios": "https://dc.lft.to/lastmile_qr_scan"}, "fusion_lon": 0.0, "lat": 38.908814166666666, "bike_id": "9ff00d42eebfc536dee3cab6aa169328", "type": "electric_scooter", "is_reserved": 0, "lon": -77.03450583333333}, {"fusion_lat": 0.0, "name": "09b98be7fc171e738e07d0ee27ebb9df", "is_disabled": 0, "rental_uris": {"android": "https://dc.lft.to/lastmile_qr_scan", "ios": "https://dc.lft.to/lastmile_qr_scan"}, "fusion_lon": 0.0, "lat": 38.925598, "bike_id": "09b98be7fc171e738e07d0ee27ebb9df", "type": "electric_scooter", "is_reserved": 0, "lon": -77.022837}, {"fusion_lat": 0.0, "name": "d8e75c00d93f605004d51485d4d2809c", "is_disabled": 0, "rental_uris": {"android": "https://dc.lft.to/lastmile_qr_scan", "ios": "https://dc.lft.to/lastmile_qr_scan"}, "fusion_lon": 0.0, "lat": 38.917153666666664, "bike_id": "d8e75c00d93f605004d51485d4d2809c", "type": "electric_scooter", "is_reserved": 0, "lon": -77.03660333333333}, {"fusion_lat": 0.0, "name": "5e0f12a5e52edbdb3d5dc3f1a2874eed", "is_disabled": 0, "rental_uris": {"android": "https://dc.lft.to/lastmile_qr_scan", "ios": "https://dc.lft.to/lastmile_qr_scan"}, "fusion_lon": 0.0, "lat": 38.91732566666667, "bike_id": "5e0f12a5e52edbdb3d5dc3f1a2874eed", "type": "electric_scooter", "is_reserved": 0, "lon": -77.02953516666666}, {"fusion_lat": 0.0, "name": "a33ad25d8c01d7aa93ce71368e279bc7", "is_disabled": 0, "rental_uris": {"android": "https://dc.lft.to/lastmile_qr_scan", "ios": "https://dc.lft.to/lastmile_qr_scan"}, "fusion_lon": 0.0, "lat": 38.87971116666667, "bike_id": "a33ad25d8c01d7aa93ce71368e279bc7", "type": "electric_scooter", "is_reserved": 0, "lon": -77.00593383333333}, {"fusion_lat": 0.0, "name": "377024121e2b86dfb5608285728c73ae", "is_disabled": 0, "rental_uris": {"android": "https://dc.lft.to/lastmile_qr_scan", "ios": "https://dc.lft.to/lastmile_qr_scan"}, "fusion_lon": 0.0, "lat": 38.9325275, "bike_id": "377024121e2b86dfb5608285728c73ae", "type": "electric_scooter", "is_reserved": 0, "lon": -77.0327825}, {"fusion_lat": 0.0, "name": "eedef8b3a089e2a98056363df8dc5985", "is_disabled": 0, "rental_uris": {"android": "https://dc.lft.to/lastmile_qr_scan", "ios": "https://dc.lft.to/lastmile_qr_scan"}, "fusion_lon": 0.0, "lat": 38.92505083333333, "bike_id": "eedef8b3a089e2a98056363df8dc5985", "type": "electric_scooter", "is_reserved": 0, "lon": -77.03790233333334}, {"fusion_lat": 0.0, "name": "2d7b27ea61a801801c2fab72847eafc2", "is_disabled": 0, "rental_uris": {"android": "https://dc.lft.to/lastmile_qr_scan", "ios": "https://dc.lft.to/lastmile_qr_scan"}, "fusion_lon": 0.0, "lat": 38.89901033333334, "bike_id": "2d7b27ea61a801801c2fab72847eafc2", "type": "electric_scooter", "is_reserved": 0, "lon": -76.93352666666667}, {"fusion_lat": 0.0, "name": "51957fa31ed21113c30afef98b8e7582", "is_disabled": 0, "rental_uris": {"android": "https://dc.lft.to/lastmile_qr_scan", "ios": "https://dc.lft.to/lastmile_qr_scan"}, "fusion_lon": 0.0, "lat": 38.92651883333333, "bike_id": "51957fa31ed21113c30afef98b8e7582", "type": "electric_scooter", "is_reserved": 0, "lon": -77.026994}, {"fusion_lat": 0.0, "name": "feee5fe1c43d546eda07c5900ff55b08", "is_disabled": 0, "rental_uris": {"android": "https://dc.lft.to/lastmile_qr_scan", "ios": "https://dc.lft.to/lastmile_qr_scan"}, "fusion_lon": 0.0, "lat": 38.92040266666667, "bike_id": "feee5fe1c43d546eda07c5900ff55b08", "type": "electric_scooter", "is_reserved": 0, "lon": -77.0481415}, {"fusion_lat": 0.0, "name": "33d95ead9fda76004aa2b464b7d1cbc6", "is_disabled": 0, "rental_uris": {"android": "https://dc.lft.to/lastmile_qr_scan", "ios": "https://dc.lft.to/lastmile_qr_scan"}, "fusion_lon": 0.0, "lat": 38.95963316666667, "bike_id": "33d95ead9fda76004aa2b464b7d1cbc6", "type": "electric_bike", "is_reserved": 0, "lon": -76.981575}, {"fusion_lat": 0.0, "name": "3eda18478505f0ecd622b1a0e7a3f3ff", "is_disabled": 0, "rental_uris": {"android": "https://dc.lft.to/lastmile_qr_scan", "ios": "https://dc.lft.to/lastmile_qr_scan"}, "fusion_lon": 0.0, "lat": 38.89645616666667, "bike_id": "3eda18478505f0ecd622b1a0e7a3f3ff", "type": "electric_scooter", "is_reserved": 0, "lon": -77.04650666666667}, {"fusion_lat": 0.0, "name": "0dc38555b7f66118ee2817223edc010d", "is_disabled": 0, "rental_uris": {"android": "https://dc.lft.to/lastmile_qr_scan", "ios": "https://dc.lft.to/lastmile_qr_scan"}, "fusion_lon": 0.0, "lat": 38.929037666666666, "bike_id": "0dc38555b7f66118ee2817223edc010d", "type": "electric_scooter", "is_reserved": 0, "lon": -77.06406616666666}, {"fusion_lat": 0.0, "name": "4d9a3d26880491956be9c43121842d9d", "is_disabled": 0, "rental_uris": {"android": "https://dc.lft.to/lastmile_qr_scan", "ios": "https://dc.lft.to/lastmile_qr_scan"}, "fusion_lon": 0.0, "lat": 38.9286675, "bike_id": "4d9a3d26880491956be9c43121842d9d", "type": "electric_scooter", "is_reserved": 0, "lon": -77.0310865}, {"fusion_lat": 0.0, "name": "afc581e5e7e8788f3b2a0cbf9ebc8629", "is_disabled": 0, "rental_uris": {"android": "https://dc.lft.to/lastmile_qr_scan", "ios": "https://dc.lft.to/lastmile_qr_scan"}, "fusion_lon": 0.0, "lat": 38.95758033333333, "bike_id": "afc581e5e7e8788f3b2a0cbf9ebc8629", "type": "electric_bike", "is_reserved": 0, "lon": -76.98088466666667}, {"fusion_lat": 0.0, "name": "5431076a4d7fb9a741a70f4aa77b11f4", "is_disabled": 0, "rental_uris": {"android": "https://dc.lft.to/lastmile_qr_scan", "ios": "https://dc.lft.to/lastmile_qr_scan"}, "fusion_lon": 0.0, "lat": 38.932379833333336, "bike_id": "5431076a4d7fb9a741a70f4aa77b11f4", "type": "electric_bike", "is_reserved": 0, "lon": -76.9742215}, {"fusion_lat": 0.0, "name": "c134d4907321c40ec068cb1654756071", "is_disabled": 0, "rental_uris": {"android": "https://dc.lft.to/lastmile_qr_scan", "ios": "https://dc.lft.to/lastmile_qr_scan"}, "fusion_lon": 0.0, "lat": 38.9197825, "bike_id": "c134d4907321c40ec068cb1654756071", "type": "electric_scooter", "is_reserved": 0, "lon": -77.0178815}, {"fusion_lat": 0.0, "name": "f480ac0d36e28eaea6b02a67e0603e22", "is_disabled": 0, "rental_uris": {"android": "https://dc.lft.to/lastmile_qr_scan", "ios": "https://dc.lft.to/lastmile_qr_scan"}, "fusion_lon": 0.0, "lat": 38.90130716666667, "bike_id": "f480ac0d36e28eaea6b02a67e0603e22", "type": "electric_scooter", "is_reserved": 0, "lon": -77.0032015}, {"fusion_lat": 0.0, "name": "55d3cbbe037860ac3dc09825f36a4bf4", "is_disabled": 0, "rental_uris": {"android": "https://dc.lft.to/lastmile_qr_scan", "ios": "https://dc.lft.to/lastmile_qr_scan"}, "fusion_lon": 0.0, "lat": 38.898668666666666, "bike_id": "55d3cbbe037860ac3dc09825f36a4bf4", "type": "electric_scooter", "is_reserved": 0, "lon": -77.03284533333333}, {"fusion_lat": 0.0, "name": "6b222aea9f464390e8576b7f2f0e4037", "is_disabled": 0, "rental_uris": {"android": "https://dc.lft.to/lastmile_qr_scan", "ios": "https://dc.lft.to/lastmile_qr_scan"}, "fusion_lon": 0.0, "lat": 38.94410966666667, "bike_id": "6b222aea9f464390e8576b7f2f0e4037", "type": "electric_scooter", "is_reserved": 0, "lon": -77.03200983333333}, {"fusion_lat": 0.0, "name": "db34692e8455137ae9a8e8e4aa3f60b7", "is_disabled": 0, "rental_uris": {"android": "https://dc.lft.to/lastmile_qr_scan", "ios": "https://dc.lft.to/lastmile_qr_scan"}, "fusion_lon": 0.0, "lat": 38.92967733333333, "bike_id": "db34692e8455137ae9a8e8e4aa3f60b7", "type": "electric_scooter", "is_reserved": 0, "lon": -77.0310005}, {"fusion_lat": 0.0, "name": "3abd3cbaa9e18a3da6ef4c5d6cd188ac", "is_disabled": 0, "rental_uris": {"android": "https://dc.lft.to/lastmile_qr_scan", "ios": "https://dc.lft.to/lastmile_qr_scan"}, "fusion_lon": 0.0, "lat": 38.92070366666667, "bike_id": "3abd3cbaa9e18a3da6ef4c5d6cd188ac", "type": "electric_scooter", "is_reserved": 0, "lon": -77.023915}, {"fusion_lat": 0.0, "name": "c1115ac568c4743b790e1e4945e33025", "is_disabled": 0, "rental_uris": {"android": "https://dc.lft.to/lastmile_qr_scan", "ios": "https://dc.lft.to/lastmile_qr_scan"}, "fusion_lon": 0.0, "lat": 38.91664733333333, "bike_id": "c1115ac568c4743b790e1e4945e33025", "type": "electric_scooter", "is_reserved": 0, "lon": -77.03856116666667}, {"fusion_lat": 0.0, "name": "7d261da6032d71eccf05158db108daa8", "is_disabled": 0, "rental_uris": {"android": "https://dc.lft.to/lastmile_qr_scan", "ios": "https://dc.lft.to/lastmile_qr_scan"}, "fusion_lon": 0.0, "lat": 38.898312833333335, "bike_id": "7d261da6032d71eccf05158db108daa8", "type": "electric_scooter", "is_reserved": 0, "lon": -76.94650316666667}, {"fusion_lat": 0.0, "name": "94e15c8256e7ad8f4841d7c47d153d9d", "is_disabled": 0, "rental_uris": {"android": "https://dc.lft.to/lastmile_qr_scan", "ios": "https://dc.lft.to/lastmile_qr_scan"}, "fusion_lon": 0.0, "lat": 38.906889166666666, "bike_id": "94e15c8256e7ad8f4841d7c47d153d9d", "type": "electric_scooter", "is_reserved": 0, "lon": -77.047277}, {"fusion_lat": 0.0, "name": "96ca962ca2ee49732f85b82561816a42", "is_disabled": 0, "rental_uris": {"android": "https://dc.lft.to/lastmile_qr_scan", "ios": "https://dc.lft.to/lastmile_qr_scan"}, "fusion_lon": 0.0, "lat": 38.878994166666665, "bike_id": "96ca962ca2ee49732f85b82561816a42", "type": "electric_scooter", "is_reserved": 0, "lon": -77.01355283333334}, {"fusion_lat": 0.0, "name": "adcf57b76c5c7747f75174972a474c19", "is_disabled": 0, "rental_uris": {"android": "https://dc.lft.to/lastmile_qr_scan", "ios": "https://dc.lft.to/lastmile_qr_scan"}, "fusion_lon": 0.0, "lat": 38.90498066666667, "bike_id": "adcf57b76c5c7747f75174972a474c19", "type": "electric_scooter", "is_reserved": 0, "lon": -77.01012166666666}, {"fusion_lat": 0.0, "name": "d93d7206b3a707a1a93114e34566959e", "is_disabled": 0, "rental_uris": {"android": "https://dc.lft.to/lastmile_qr_scan", "ios": "https://dc.lft.to/lastmile_qr_scan"}, "fusion_lon": 0.0, "lat": 38.917707, "bike_id": "d93d7206b3a707a1a93114e34566959e", "type": "electric_scooter", "is_reserved": 0, "lon": -77.01494466666666}, {"fusion_lat": 0.0, "name": "6f43eb200447febb0bb07b56d92a73a1", "is_disabled": 0, "rental_uris": {"android": "https://dc.lft.to/lastmile_qr_scan", "ios": "https://dc.lft.to/lastmile_qr_scan"}, "fusion_lon": 0.0, "lat": 38.902551, "bike_id": "6f43eb200447febb0bb07b56d92a73a1", "type": "electric_scooter", "is_reserved": 0, "lon": -77.01772583333333}, {"fusion_lat": 0.0, "name": "d982df3bff16581850b90f1009bfa2a2", "is_disabled": 0, "rental_uris": {"android": "https://dc.lft.to/lastmile_qr_scan", "ios": "https://dc.lft.to/lastmile_qr_scan"}, "fusion_lon": 0.0, "lat": 38.935944166666665, "bike_id": "d982df3bff16581850b90f1009bfa2a2", "type": "electric_scooter", "is_reserved": 0, "lon": -77.0227955}, {"fusion_lat": 0.0, "name": "08d90c84bc77e01825ed79eab90bb802", "is_disabled": 0, "rental_uris": {"android": "https://dc.lft.to/lastmile_qr_scan", "ios": "https://dc.lft.to/lastmile_qr_scan"}, "fusion_lon": 0.0, "lat": 38.86163916666667, "bike_id": "08d90c84bc77e01825ed79eab90bb802", "type": "electric_scooter", "is_reserved": 0, "lon": -76.98364583333333}, {"fusion_lat": 0.0, "name": "7c20b47a2a1ed68428d8d4f4799d00c7", "is_disabled": 0, "rental_uris": {"android": "https://dc.lft.to/lastmile_qr_scan", "ios": "https://dc.lft.to/lastmile_qr_scan"}, "fusion_lon": 0.0, "lat": 38.942326666666666, "bike_id": "7c20b47a2a1ed68428d8d4f4799d00c7", "type": "electric_bike", "is_reserved": 0, "lon": -77.01383283333334}, {"fusion_lat": 0.0, "name": "8358d26b1f28a2fc1a47aaec724c233c", "is_disabled": 0, "rental_uris": {"android": "https://dc.lft.to/lastmile_qr_scan", "ios": "https://dc.lft.to/lastmile_qr_scan"}, "fusion_lon": 0.0, "lat": 38.920235166666664, "bike_id": "8358d26b1f28a2fc1a47aaec724c233c", "type": "electric_scooter", "is_reserved": 0, "lon": -77.03128566666666}, {"fusion_lat": 0.0, "name": "dc63900349995b5da7609936dff2632c", "is_disabled": 0, "rental_uris": {"android": "https://dc.lft.to/lastmile_qr_scan", "ios": "https://dc.lft.to/lastmile_qr_scan"}, "fusion_lon": 0.0, "lat": 38.89287266666667, "bike_id": "dc63900349995b5da7609936dff2632c", "type": "electric_scooter", "is_reserved": 0, "lon": -76.98303033333333}, {"fusion_lat": 0.0, "name": "f64bdb8d0a178b07842dab532384e750", "is_disabled": 0, "rental_uris": {"android": "https://dc.lft.to/lastmile_qr_scan", "ios": "https://dc.lft.to/lastmile_qr_scan"}, "fusion_lon": 0.0, "lat": 38.925047166666666, "bike_id": "f64bdb8d0a178b07842dab532384e750", "type": "electric_scooter", "is_reserved": 0, "lon": -77.0213975}, {"fusion_lat": 0.0, "name": "8d972c055a5824550c864df3bd0fb2fc", "is_disabled": 0, "rental_uris": {"android": "https://dc.lft.to/lastmile_qr_scan", "ios": "https://dc.lft.to/lastmile_qr_scan"}, "fusion_lon": 0.0, "lat": 38.9279215, "bike_id": "8d972c055a5824550c864df3bd0fb2fc", "type": "electric_scooter", "is_reserved": 0, "lon": -77.03210633333333}, {"fusion_lat": 0.0, "name": "f0a396a1793084ce6385fa2f2efee4b0", "is_disabled": 0, "rental_uris": {"android": "https://dc.lft.to/lastmile_qr_scan", "ios": "https://dc.lft.to/lastmile_qr_scan"}, "fusion_lon": 0.0, "lat": 38.91415833333333, "bike_id": "f0a396a1793084ce6385fa2f2efee4b0", "type": "electric_scooter", "is_reserved": 0, "lon": -77.02207433333334}, {"fusion_lat": 0.0, "name": "a87357f9b7b27c3470f1bb7b41beffc3", "is_disabled": 0, "rental_uris": {"android": "https://dc.lft.to/lastmile_qr_scan", "ios": "https://dc.lft.to/lastmile_qr_scan"}, "fusion_lon": 0.0, "lat": 38.91840883333333, "bike_id": "a87357f9b7b27c3470f1bb7b41beffc3", "type": "electric_scooter", "is_reserved": 0, "lon": -77.0351315}, {"fusion_lat": 0.0, "name": "01cd924697c76656e30b0cbd4de694b9", "is_disabled": 0, "rental_uris": {"android": "https://dc.lft.to/lastmile_qr_scan", "ios": "https://dc.lft.to/lastmile_qr_scan"}, "fusion_lon": 0.0, "lat": 38.908319, "bike_id": "01cd924697c76656e30b0cbd4de694b9", "type": "electric_scooter", "is_reserved": 0, "lon": -76.98259216666666}, {"fusion_lat": 0.0, "name": "4da0de9aea25836d7b8870b90931d887", "is_disabled": 0, "rental_uris": {"android": "https://dc.lft.to/lastmile_qr_scan", "ios": "https://dc.lft.to/lastmile_qr_scan"}, "fusion_lon": 0.0, "lat": 38.91761966666667, "bike_id": "4da0de9aea25836d7b8870b90931d887", "type": "electric_scooter", "is_reserved": 0, "lon": -77.03639466666667}, {"fusion_lat": 0.0, "name": "5c114aca1a83c06fed73901628910fdb", "is_disabled": 0, "rental_uris": {"android": "https://dc.lft.to/lastmile_qr_scan", "ios": "https://dc.lft.to/lastmile_qr_scan"}, "fusion_lon": 0.0, "lat": 38.9156975, "bike_id": "5c114aca1a83c06fed73901628910fdb", "type": "electric_scooter", "is_reserved": 0, "lon": -77.03853983333333}, {"fusion_lat": 0.0, "name": "055acf70971b1e403cf36153ab1c025e", "is_disabled": 0, "rental_uris": {"android": "https://dc.lft.to/lastmile_qr_scan", "ios": "https://dc.lft.to/lastmile_qr_scan"}, "fusion_lon": 0.0, "lat": 38.9129615, "bike_id": "055acf70971b1e403cf36153ab1c025e", "type": "electric_scooter", "is_reserved": 0, "lon": -77.04860816666667}, {"fusion_lat": 0.0, "name": "d3ae8666976948ef05a0ca27d2511437", "is_disabled": 0, "rental_uris": {"android": "https://dc.lft.to/lastmile_qr_scan", "ios": "https://dc.lft.to/lastmile_qr_scan"}, "fusion_lon": 0.0, "lat": 38.9196655, "bike_id": "d3ae8666976948ef05a0ca27d2511437", "type": "electric_scooter", "is_reserved": 0, "lon": -77.07082933333334}, {"fusion_lat": 0.0, "name": "6521a7237d7848fec6320fd3d65e34d5", "is_disabled": 0, "rental_uris": {"android": "https://dc.lft.to/lastmile_qr_scan", "ios": "https://dc.lft.to/lastmile_qr_scan"}, "fusion_lon": 0.0, "lat": 38.9204735, "bike_id": "6521a7237d7848fec6320fd3d65e34d5", "type": "electric_scooter", "is_reserved": 0, "lon": -77.00206733333333}, {"fusion_lat": 0.0, "name": "7d49bfbc4855e35580eeb175c7b45f4e", "is_disabled": 0, "rental_uris": {"android": "https://dc.lft.to/lastmile_qr_scan", "ios": "https://dc.lft.to/lastmile_qr_scan"}, "fusion_lon": 0.0, "lat": 38.827864166666664, "bike_id": "7d49bfbc4855e35580eeb175c7b45f4e", "type": "electric_bike", "is_reserved": 0, "lon": -77.12480816666667}, {"fusion_lat": 0.0, "name": "457bf6011d34623ee85b7686a4ac412f", "is_disabled": 0, "rental_uris": {"android": "https://dc.lft.to/lastmile_qr_scan", "ios": "https://dc.lft.to/lastmile_qr_scan"}, "fusion_lon": 0.0, "lat": 38.89721866666667, "bike_id": "457bf6011d34623ee85b7686a4ac412f", "type": "electric_scooter", "is_reserved": 0, "lon": -77.02325733333333}, {"fusion_lat": 0.0, "name": "88574971fce0cf37d4c9cdfd4b3f5ad0", "is_disabled": 0, "rental_uris": {"android": "https://dc.lft.to/lastmile_qr_scan", "ios": "https://dc.lft.to/lastmile_qr_scan"}, "fusion_lon": 0.0, "lat": 38.917627, "bike_id": "88574971fce0cf37d4c9cdfd4b3f5ad0", "type": "electric_scooter", "is_reserved": 0, "lon": -77.03075166666666}, {"fusion_lat": 0.0, "name": "d1e3121908275a363ee74152894034af", "is_disabled": 0, "rental_uris": {"android": "https://dc.lft.to/lastmile_qr_scan", "ios": "https://dc.lft.to/lastmile_qr_scan"}, "fusion_lon": 0.0, "lat": 38.91773533333333, "bike_id": "d1e3121908275a363ee74152894034af", "type": "electric_scooter", "is_reserved": 0, "lon": -77.01449766666667}, {"fusion_lat": 0.0, "name": "119535d11764bc9c929408ebd61934bf", "is_disabled": 0, "rental_uris": {"android": "https://dc.lft.to/lastmile_qr_scan", "ios": "https://dc.lft.to/lastmile_qr_scan"}, "fusion_lon": 0.0, "lat": 38.921347833333336, "bike_id": "119535d11764bc9c929408ebd61934bf", "type": "electric_scooter", "is_reserved": 0, "lon": -77.01795433333334}, {"fusion_lat": 0.0, "name": "6972c801661c9b2eb210b7eecf24fe65", "is_disabled": 0, "rental_uris": {"android": "https://dc.lft.to/lastmile_qr_scan", "ios": "https://dc.lft.to/lastmile_qr_scan"}, "fusion_lon": 0.0, "lat": 38.90958883333333, "bike_id": "6972c801661c9b2eb210b7eecf24fe65", "type": "electric_bike", "is_reserved": 0, "lon": -76.984325}, {"fusion_lat": 0.0, "name": "7787daeb1546897631dd8e92da8b9c7f", "is_disabled": 0, "rental_uris": {"android": "https://dc.lft.to/lastmile_qr_scan", "ios": "https://dc.lft.to/lastmile_qr_scan"}, "fusion_lon": 0.0, "lat": 38.897354, "bike_id": "7787daeb1546897631dd8e92da8b9c7f", "type": "electric_scooter", "is_reserved": 0, "lon": -77.02339516666666}, {"fusion_lat": 0.0, "name": "4f37e9fde80fe83de9719f7c466f52fa", "is_disabled": 0, "rental_uris": {"android": "https://dc.lft.to/lastmile_qr_scan", "ios": "https://dc.lft.to/lastmile_qr_scan"}, "fusion_lon": 0.0, "lat": 38.86627683333333, "bike_id": "4f37e9fde80fe83de9719f7c466f52fa", "type": "electric_scooter", "is_reserved": 0, "lon": -76.98710016666666}, {"fusion_lat": 0.0, "name": "0cb34596be5d6b93d45326d21d650971", "is_disabled": 0, "rental_uris": {"android": "https://dc.lft.to/lastmile_qr_scan", "ios": "https://dc.lft.to/lastmile_qr_scan"}, "fusion_lon": 0.0, "lat": 38.902718166666666, "bike_id": "0cb34596be5d6b93d45326d21d650971", "type": "electric_scooter", "is_reserved": 0, "lon": -77.05314966666667}, {"fusion_lat": 0.0, "name": "495a6e0e96950246c6406849f974fa67", "is_disabled": 0, "rental_uris": {"android": "https://dc.lft.to/lastmile_qr_scan", "ios": "https://dc.lft.to/lastmile_qr_scan"}, "fusion_lon": 0.0, "lat": 38.92693766666667, "bike_id": "495a6e0e96950246c6406849f974fa67", "type": "electric_scooter", "is_reserved": 0, "lon": -77.02186616666667}, {"fusion_lat": 0.0, "name": "09e74d676e6b02311094c58b8c81d2a1", "is_disabled": 0, "rental_uris": {"android": "https://dc.lft.to/lastmile_qr_scan", "ios": "https://dc.lft.to/lastmile_qr_scan"}, "fusion_lon": 0.0, "lat": 38.92053666666666, "bike_id": "09e74d676e6b02311094c58b8c81d2a1", "type": "electric_scooter", "is_reserved": 0, "lon": -77.02199833333333}, {"fusion_lat": 0.0, "name": "1671a7cf06f2fbcdcd174c8ef78ba713", "is_disabled": 0, "rental_uris": {"android": "https://dc.lft.to/lastmile_qr_scan", "ios": "https://dc.lft.to/lastmile_qr_scan"}, "fusion_lon": 0.0, "lat": 38.9258605, "bike_id": "1671a7cf06f2fbcdcd174c8ef78ba713", "type": "electric_scooter", "is_reserved": 0, "lon": -77.0440915}, {"fusion_lat": 0.0, "name": "fa8f9614d6650cfd11bbcdf6ba0226d1", "is_disabled": 0, "rental_uris": {"android": "https://dc.lft.to/lastmile_qr_scan", "ios": "https://dc.lft.to/lastmile_qr_scan"}, "fusion_lon": 0.0, "lat": 38.92246983333333, "bike_id": "fa8f9614d6650cfd11bbcdf6ba0226d1", "type": "electric_scooter", "is_reserved": 0, "lon": -77.0298275}, {"fusion_lat": 0.0, "name": "d18257f889ebddf42601b57dbe6ebdc8", "is_disabled": 0, "rental_uris": {"android": "https://dc.lft.to/lastmile_qr_scan", "ios": "https://dc.lft.to/lastmile_qr_scan"}, "fusion_lon": 0.0, "lat": 38.91979583333333, "bike_id": "d18257f889ebddf42601b57dbe6ebdc8", "type": "electric_scooter", "is_reserved": 0, "lon": -77.02367066666666}, {"fusion_lat": 0.0, "name": "68e24294d4eeef25986c865891bc6b86", "is_disabled": 0, "rental_uris": {"android": "https://dc.lft.to/lastmile_qr_scan", "ios": "https://dc.lft.to/lastmile_qr_scan"}, "fusion_lon": 0.0, "lat": 38.904599, "bike_id": "68e24294d4eeef25986c865891bc6b86", "type": "electric_scooter", "is_reserved": 0, "lon": -77.02706633333334}, {"fusion_lat": 0.0, "name": "c1548cbe13a883c28091a4a412b400e6", "is_disabled": 0, "rental_uris": {"android": "https://dc.lft.to/lastmile_qr_scan", "ios": "https://dc.lft.to/lastmile_qr_scan"}, "fusion_lon": 0.0, "lat": 38.931717166666665, "bike_id": "c1548cbe13a883c28091a4a412b400e6", "type": "electric_scooter", "is_reserved": 0, "lon": -77.028539}, {"fusion_lat": 0.0, "name": "96c4c54d48f5013da012569ef349712f", "is_disabled": 0, "rental_uris": {"android": "https://dc.lft.to/lastmile_qr_scan", "ios": "https://dc.lft.to/lastmile_qr_scan"}, "fusion_lon": 0.0, "lat": 38.885421666666666, "bike_id": "96c4c54d48f5013da012569ef349712f", "type": "electric_scooter", "is_reserved": 0, "lon": -77.00047533333333}, {"fusion_lat": 0.0, "name": "50ef33bb45e29089dd57c021d4e436ae", "is_disabled": 0, "rental_uris": {"android": "https://dc.lft.to/lastmile_qr_scan", "ios": "https://dc.lft.to/lastmile_qr_scan"}, "fusion_lon": 0.0, "lat": 38.9111095, "bike_id": "50ef33bb45e29089dd57c021d4e436ae", "type": "electric_scooter", "is_reserved": 0, "lon": -77.081346}, {"fusion_lat": 0.0, "name": "c6aa6ecab09cb9d91b36c99de40397c7", "is_disabled": 0, "rental_uris": {"android": "https://dc.lft.to/lastmile_qr_scan", "ios": "https://dc.lft.to/lastmile_qr_scan"}, "fusion_lon": 0.0, "lat": 38.936930333333336, "bike_id": "c6aa6ecab09cb9d91b36c99de40397c7", "type": "electric_scooter", "is_reserved": 0, "lon": -77.0559775}, {"fusion_lat": 0.0, "name": "8536d7100842d297726dab4b7075991e", "is_disabled": 0, "rental_uris": {"android": "https://dc.lft.to/lastmile_qr_scan", "ios": "https://dc.lft.to/lastmile_qr_scan"}, "fusion_lon": 0.0, "lat": 38.906479, "bike_id": "8536d7100842d297726dab4b7075991e", "type": "electric_scooter", "is_reserved": 0, "lon": -77.04861483333333}, {"fusion_lat": 0.0, "name": "c20d04573e810cc1efc03c73d2640713", "is_disabled": 0, "rental_uris": {"android": "https://dc.lft.to/lastmile_qr_scan", "ios": "https://dc.lft.to/lastmile_qr_scan"}, "fusion_lon": 0.0, "lat": 38.915778, "bike_id": "c20d04573e810cc1efc03c73d2640713", "type": "electric_scooter", "is_reserved": 0, "lon": -77.03850066666666}, {"fusion_lat": 0.0, "name": "7fc13b3251dda175db84f085d29120d7", "is_disabled": 0, "rental_uris": {"android": "https://dc.lft.to/lastmile_qr_scan", "ios": "https://dc.lft.to/lastmile_qr_scan"}, "fusion_lon": 0.0, "lat": 38.88736033333333, "bike_id": "7fc13b3251dda175db84f085d29120d7", "type": "electric_scooter", "is_reserved": 0, "lon": -77.0033045}, {"fusion_lat": 0.0, "name": "73a352fe6e70c376cc7a8498e229ed8a", "is_disabled": 0, "rental_uris": {"android": "https://dc.lft.to/lastmile_qr_scan", "ios": "https://dc.lft.to/lastmile_qr_scan"}, "fusion_lon": 0.0, "lat": 38.9231, "bike_id": "73a352fe6e70c376cc7a8498e229ed8a", "type": "electric_scooter", "is_reserved": 0, "lon": -77.02968783333333}, {"fusion_lat": 0.0, "name": "62792782f617cf0e1aee5c5816b4d45c", "is_disabled": 0, "rental_uris": {"android": "https://dc.lft.to/lastmile_qr_scan", "ios": "https://dc.lft.to/lastmile_qr_scan"}, "fusion_lon": 0.0, "lat": 38.958321166666664, "bike_id": "62792782f617cf0e1aee5c5816b4d45c", "type": "electric_bike", "is_reserved": 0, "lon": -77.01509966666667}, {"fusion_lat": 0.0, "name": "39a200c056a48fb178f6584248aabc49", "is_disabled": 0, "rental_uris": {"android": "https://dc.lft.to/lastmile_qr_scan", "ios": "https://dc.lft.to/lastmile_qr_scan"}, "fusion_lon": 0.0, "lat": 38.9847335, "bike_id": "39a200c056a48fb178f6584248aabc49", "type": "electric_scooter", "is_reserved": 0, "lon": -77.02646183333333}, {"fusion_lat": 0.0, "name": "1361cc47c4010e72ec854a51537abca9", "is_disabled": 0, "rental_uris": {"android": "https://dc.lft.to/lastmile_qr_scan", "ios": "https://dc.lft.to/lastmile_qr_scan"}, "fusion_lon": 0.0, "lat": 38.916600833333334, "bike_id": "1361cc47c4010e72ec854a51537abca9", "type": "electric_scooter", "is_reserved": 0, "lon": -77.02819316666667}, {"fusion_lat": 0.0, "name": "5f6dc9f1f4850e312e7d0483b540ee4f", "is_disabled": 0, "rental_uris": {"android": "https://dc.lft.to/lastmile_qr_scan", "ios": "https://dc.lft.to/lastmile_qr_scan"}, "fusion_lon": 0.0, "lat": 38.9181795, "bike_id": "5f6dc9f1f4850e312e7d0483b540ee4f", "type": "electric_scooter", "is_reserved": 0, "lon": -77.00255016666667}, {"fusion_lat": 0.0, "name": "ae8f7a70019aab1f51f38293456a27be", "is_disabled": 0, "rental_uris": {"android": "https://dc.lft.to/lastmile_qr_scan", "ios": "https://dc.lft.to/lastmile_qr_scan"}, "fusion_lon": 0.0, "lat": 38.906857333333335, "bike_id": "ae8f7a70019aab1f51f38293456a27be", "type": "electric_scooter", "is_reserved": 0, "lon": -77.04860833333333}, {"fusion_lat": 0.0, "name": "4ee4b154d2c762ab65beaf1ee50cea6e", "is_disabled": 0, "rental_uris": {"android": "https://dc.lft.to/lastmile_qr_scan", "ios": "https://dc.lft.to/lastmile_qr_scan"}, "fusion_lon": 0.0, "lat": 38.925972333333334, "bike_id": "4ee4b154d2c762ab65beaf1ee50cea6e", "type": "electric_scooter", "is_reserved": 0, "lon": -77.02591583333333}, {"fusion_lat": 0.0, "name": "eed0b8bdde1c313e10740c0e042fcae4", "is_disabled": 0, "rental_uris": {"android": "https://dc.lft.to/lastmile_qr_scan", "ios": "https://dc.lft.to/lastmile_qr_scan"}, "fusion_lon": 0.0, "lat": 38.88763616666667, "bike_id": "eed0b8bdde1c313e10740c0e042fcae4", "type": "electric_scooter", "is_reserved": 0, "lon": -76.994701}, {"fusion_lat": 0.0, "name": "d8d0cd3e9e89f75b865aacbda7a2b66f", "is_disabled": 0, "rental_uris": {"android": "https://dc.lft.to/lastmile_qr_scan", "ios": "https://dc.lft.to/lastmile_qr_scan"}, "fusion_lon": 0.0, "lat": 38.9182075, "bike_id": "d8d0cd3e9e89f75b865aacbda7a2b66f", "type": "electric_scooter", "is_reserved": 0, "lon": -77.0247575}, {"fusion_lat": 0.0, "name": "f96807d943acbf3f826376a7dc0d6206", "is_disabled": 0, "rental_uris": {"android": "https://dc.lft.to/lastmile_qr_scan", "ios": "https://dc.lft.to/lastmile_qr_scan"}, "fusion_lon": 0.0, "lat": 38.9530015, "bike_id": "f96807d943acbf3f826376a7dc0d6206", "type": "electric_scooter", "is_reserved": 0, "lon": -76.99901566666666}, {"fusion_lat": 0.0, "name": "7e69ee0ea160729d4b194c67aed15a6d", "is_disabled": 0, "rental_uris": {"android": "https://dc.lft.to/lastmile_qr_scan", "ios": "https://dc.lft.to/lastmile_qr_scan"}, "fusion_lon": 0.0, "lat": 38.924461666666666, "bike_id": "7e69ee0ea160729d4b194c67aed15a6d", "type": "electric_scooter", "is_reserved": 0, "lon": -77.08027266666667}, {"fusion_lat": 0.0, "name": "3431a5b3c399dd1c9ca21115b682e246", "is_disabled": 0, "rental_uris": {"android": "https://dc.lft.to/lastmile_qr_scan", "ios": "https://dc.lft.to/lastmile_qr_scan"}, "fusion_lon": 0.0, "lat": 38.921687166666665, "bike_id": "3431a5b3c399dd1c9ca21115b682e246", "type": "electric_scooter", "is_reserved": 0, "lon": -77.03643033333333}, {"fusion_lat": 0.0, "name": "dd5ec15975df56e2624d5fcc4166d430", "is_disabled": 0, "rental_uris": {"android": "https://dc.lft.to/lastmile_qr_scan", "ios": "https://dc.lft.to/lastmile_qr_scan"}, "fusion_lon": 0.0, "lat": 38.956438, "bike_id": "dd5ec15975df56e2624d5fcc4166d430", "type": "electric_scooter", "is_reserved": 0, "lon": -77.02412166666667}, {"fusion_lat": 0.0, "name": "9d7844ddf77e4548d2f453c53774e911", "is_disabled": 0, "rental_uris": {"android": "https://dc.lft.to/lastmile_qr_scan", "ios": "https://dc.lft.to/lastmile_qr_scan"}, "fusion_lon": 0.0, "lat": 38.914001999999996, "bike_id": "9d7844ddf77e4548d2f453c53774e911", "type": "electric_scooter", "is_reserved": 0, "lon": -77.03322533333333}, {"fusion_lat": 0.0, "name": "3e7b7ebc389ceba90f47cb434b1f7fe1", "is_disabled": 0, "rental_uris": {"android": "https://dc.lft.to/lastmile_qr_scan", "ios": "https://dc.lft.to/lastmile_qr_scan"}, "fusion_lon": 0.0, "lat": 38.911218, "bike_id": "3e7b7ebc389ceba90f47cb434b1f7fe1", "type": "electric_scooter", "is_reserved": 0, "lon": -77.038284}, {"fusion_lat": 0.0, "name": "6ad88254be6f70390e667aa132d80b60", "is_disabled": 0, "rental_uris": {"android": "https://dc.lft.to/lastmile_qr_scan", "ios": "https://dc.lft.to/lastmile_qr_scan"}, "fusion_lon": 0.0, "lat": 38.92482433333333, "bike_id": "6ad88254be6f70390e667aa132d80b60", "type": "electric_scooter", "is_reserved": 0, "lon": -77.02646683333333}, {"fusion_lat": 0.0, "name": "d690c5403fe75133564732ad7c765872", "is_disabled": 0, "rental_uris": {"android": "https://dc.lft.to/lastmile_qr_scan", "ios": "https://dc.lft.to/lastmile_qr_scan"}, "fusion_lon": 0.0, "lat": 38.90125, "bike_id": "d690c5403fe75133564732ad7c765872", "type": "electric_scooter", "is_reserved": 0, "lon": -77.00248616666667}, {"fusion_lat": 0.0, "name": "1d0531cfa88e55698516a4bb771a1001", "is_disabled": 0, "rental_uris": {"android": "https://dc.lft.to/lastmile_qr_scan", "ios": "https://dc.lft.to/lastmile_qr_scan"}, "fusion_lon": 0.0, "lat": 38.89167066666667, "bike_id": "1d0531cfa88e55698516a4bb771a1001", "type": "electric_scooter", "is_reserved": 0, "lon": -76.99464316666666}, {"fusion_lat": 0.0, "name": "fa1f493a9f3748fcacb85e095ef95217", "is_disabled": 0, "rental_uris": {"android": "https://dc.lft.to/lastmile_qr_scan", "ios": "https://dc.lft.to/lastmile_qr_scan"}, "fusion_lon": 0.0, "lat": 38.899295, "bike_id": "fa1f493a9f3748fcacb85e095ef95217", "type": "electric_scooter", "is_reserved": 0, "lon": -77.00344983333333}, {"fusion_lat": 0.0, "name": "d9d34df320b24cf62ac0a79cfcaa82e6", "is_disabled": 0, "rental_uris": {"android": "https://dc.lft.to/lastmile_qr_scan", "ios": "https://dc.lft.to/lastmile_qr_scan"}, "fusion_lon": 0.0, "lat": 38.93196983333333, "bike_id": "d9d34df320b24cf62ac0a79cfcaa82e6", "type": "electric_scooter", "is_reserved": 0, "lon": -77.027942}, {"fusion_lat": 0.0, "name": "e51e40fecc72305a5eecdad607b972aa", "is_disabled": 0, "rental_uris": {"android": "https://dc.lft.to/lastmile_qr_scan", "ios": "https://dc.lft.to/lastmile_qr_scan"}, "fusion_lon": 0.0, "lat": 38.890665166666665, "bike_id": "e51e40fecc72305a5eecdad607b972aa", "type": "electric_scooter", "is_reserved": 0, "lon": -76.94442783333334}, {"fusion_lat": 0.0, "name": "674c5711e7d980376a4f9fff4f46c38a", "is_disabled": 0, "rental_uris": {"android": "https://dc.lft.to/lastmile_qr_scan", "ios": "https://dc.lft.to/lastmile_qr_scan"}, "fusion_lon": 0.0, "lat": 38.8954065, "bike_id": "674c5711e7d980376a4f9fff4f46c38a", "type": "electric_scooter", "is_reserved": 0, "lon": -77.01190383333334}, {"fusion_lat": 0.0, "name": "151d3b9683abbf6c777c17223ad99518", "is_disabled": 0, "rental_uris": {"android": "https://dc.lft.to/lastmile_qr_scan", "ios": "https://dc.lft.to/lastmile_qr_scan"}, "fusion_lon": 0.0, "lat": 38.92510883333333, "bike_id": "151d3b9683abbf6c777c17223ad99518", "type": "electric_scooter", "is_reserved": 0, "lon": -76.9955305}, {"fusion_lat": 0.0, "name": "c8fa634cede22523f150cbbc56dc56f9", "is_disabled": 0, "rental_uris": {"android": "https://dc.lft.to/lastmile_qr_scan", "ios": "https://dc.lft.to/lastmile_qr_scan"}, "fusion_lon": 0.0, "lat": 38.875513833333336, "bike_id": "c8fa634cede22523f150cbbc56dc56f9", "type": "electric_scooter", "is_reserved": 0, "lon": -77.0056025}, {"fusion_lat": 0.0, "name": "4d2f9ce07050b38cb7e8106943c33965", "is_disabled": 0, "rental_uris": {"android": "https://dc.lft.to/lastmile_qr_scan", "ios": "https://dc.lft.to/lastmile_qr_scan"}, "fusion_lon": 0.0, "lat": 38.89833683333333, "bike_id": "4d2f9ce07050b38cb7e8106943c33965", "type": "electric_scooter", "is_reserved": 0, "lon": -77.03168283333333}, {"fusion_lat": 0.0, "name": "a00e2a40c3b3fce7972f9c86479ca136", "is_disabled": 0, "rental_uris": {"android": "https://dc.lft.to/lastmile_qr_scan", "ios": "https://dc.lft.to/lastmile_qr_scan"}, "fusion_lon": 0.0, "lat": 38.883302666666665, "bike_id": "a00e2a40c3b3fce7972f9c86479ca136", "type": "electric_scooter", "is_reserved": 0, "lon": -77.01783083333333}, {"fusion_lat": 0.0, "name": "6b6fc21f6f846f98f5dc36528c01aa47", "is_disabled": 0, "rental_uris": {"android": "https://dc.lft.to/lastmile_qr_scan", "ios": "https://dc.lft.to/lastmile_qr_scan"}, "fusion_lon": 0.0, "lat": 38.9003205, "bike_id": "6b6fc21f6f846f98f5dc36528c01aa47", "type": "electric_scooter", "is_reserved": 0, "lon": -76.99856566666666}, {"fusion_lat": 0.0, "name": "cca57b4b834df45976720857089258c8", "is_disabled": 0, "rental_uris": {"android": "https://dc.lft.to/lastmile_qr_scan", "ios": "https://dc.lft.to/lastmile_qr_scan"}, "fusion_lon": 0.0, "lat": 38.90574, "bike_id": "cca57b4b834df45976720857089258c8", "type": "electric_scooter", "is_reserved": 0, "lon": -77.02205433333333}, {"fusion_lat": 0.0, "name": "67345a086cd29840c3eefaaf86971f49", "is_disabled": 0, "rental_uris": {"android": "https://dc.lft.to/lastmile_qr_scan", "ios": "https://dc.lft.to/lastmile_qr_scan"}, "fusion_lon": 0.0, "lat": 38.8729115, "bike_id": "67345a086cd29840c3eefaaf86971f49", "type": "electric_scooter", "is_reserved": 0, "lon": -77.00981066666667}, {"fusion_lat": 0.0, "name": "fafa9600042399ad6ade9a1293729702", "is_disabled": 0, "rental_uris": {"android": "https://dc.lft.to/lastmile_qr_scan", "ios": "https://dc.lft.to/lastmile_qr_scan"}, "fusion_lon": 0.0, "lat": 38.88499183333333, "bike_id": "fafa9600042399ad6ade9a1293729702", "type": "electric_scooter", "is_reserved": 0, "lon": -77.02084283333333}, {"fusion_lat": 0.0, "name": "d43156e938c1c056bfa5564ba7103dfb", "is_disabled": 0, "rental_uris": {"android": "https://dc.lft.to/lastmile_qr_scan", "ios": "https://dc.lft.to/lastmile_qr_scan"}, "fusion_lon": 0.0, "lat": 38.92701783333333, "bike_id": "d43156e938c1c056bfa5564ba7103dfb", "type": "electric_scooter", "is_reserved": 0, "lon": -77.02096416666667}, {"fusion_lat": 0.0, "name": "c2177d82fd1eeed5f03bb3f0d7c52b94", "is_disabled": 0, "rental_uris": {"android": "https://dc.lft.to/lastmile_qr_scan", "ios": "https://dc.lft.to/lastmile_qr_scan"}, "fusion_lon": 0.0, "lat": 38.90240583333333, "bike_id": "c2177d82fd1eeed5f03bb3f0d7c52b94", "type": "electric_scooter", "is_reserved": 0, "lon": -77.02945866666667}, {"fusion_lat": 0.0, "name": "30112efb27e94f56da94e8ffd2ea9ce6", "is_disabled": 0, "rental_uris": {"android": "https://dc.lft.to/lastmile_qr_scan", "ios": "https://dc.lft.to/lastmile_qr_scan"}, "fusion_lon": 0.0, "lat": 38.93940833333333, "bike_id": "30112efb27e94f56da94e8ffd2ea9ce6", "type": "electric_scooter", "is_reserved": 0, "lon": -77.03339516666666}, {"fusion_lat": 0.0, "name": "1e95f95478e22001d58cde8ffd326a95", "is_disabled": 0, "rental_uris": {"android": "https://dc.lft.to/lastmile_qr_scan", "ios": "https://dc.lft.to/lastmile_qr_scan"}, "fusion_lon": 0.0, "lat": 38.903775833333334, "bike_id": "1e95f95478e22001d58cde8ffd326a95", "type": "electric_scooter", "is_reserved": 0, "lon": -76.989998}, {"fusion_lat": 0.0, "name": "b9b4dca1a11cea78f483661b867b3a20", "is_disabled": 0, "rental_uris": {"android": "https://dc.lft.to/lastmile_qr_scan", "ios": "https://dc.lft.to/lastmile_qr_scan"}, "fusion_lon": 0.0, "lat": 38.9093145, "bike_id": "b9b4dca1a11cea78f483661b867b3a20", "type": "electric_scooter", "is_reserved": 0, "lon": -77.02129116666667}, {"fusion_lat": 0.0, "name": "12e53ce46bf6f5fe91e0eb6f69a00aef", "is_disabled": 0, "rental_uris": {"android": "https://dc.lft.to/lastmile_qr_scan", "ios": "https://dc.lft.to/lastmile_qr_scan"}, "fusion_lon": 0.0, "lat": 38.88992916666667, "bike_id": "12e53ce46bf6f5fe91e0eb6f69a00aef", "type": "electric_scooter", "is_reserved": 0, "lon": -76.98737633333333}, {"fusion_lat": 0.0, "name": "038cb14a9aea647b9714f69a49410270", "is_disabled": 0, "rental_uris": {"android": "https://dc.lft.to/lastmile_qr_scan", "ios": "https://dc.lft.to/lastmile_qr_scan"}, "fusion_lon": 0.0, "lat": 38.9445285, "bike_id": "038cb14a9aea647b9714f69a49410270", "type": "electric_scooter", "is_reserved": 0, "lon": -77.02340383333333}, {"fusion_lat": 0.0, "name": "9e3a4d9f509cf5d5d2a080cd7bc32e7e", "is_disabled": 0, "rental_uris": {"android": "https://dc.lft.to/lastmile_qr_scan", "ios": "https://dc.lft.to/lastmile_qr_scan"}, "fusion_lon": 0.0, "lat": 38.931407666666665, "bike_id": "9e3a4d9f509cf5d5d2a080cd7bc32e7e", "type": "electric_scooter", "is_reserved": 0, "lon": -77.07845033333334}, {"fusion_lat": 0.0, "name": "1460bd6a3b6f13221973187657490ee2", "is_disabled": 0, "rental_uris": {"android": "https://dc.lft.to/lastmile_qr_scan", "ios": "https://dc.lft.to/lastmile_qr_scan"}, "fusion_lon": 0.0, "lat": 38.91928933333333, "bike_id": "1460bd6a3b6f13221973187657490ee2", "type": "electric_scooter", "is_reserved": 0, "lon": -77.02543566666667}, {"fusion_lat": 0.0, "name": "82f78bc9c8a685c343e66ae29d42c089", "is_disabled": 0, "rental_uris": {"android": "https://dc.lft.to/lastmile_qr_scan", "ios": "https://dc.lft.to/lastmile_qr_scan"}, "fusion_lon": 0.0, "lat": 38.90977633333333, "bike_id": "82f78bc9c8a685c343e66ae29d42c089", "type": "electric_scooter", "is_reserved": 0, "lon": -77.021787}, {"fusion_lat": 0.0, "name": "8dfb694c0cffd1e4c56b39db47a06c64", "is_disabled": 0, "rental_uris": {"android": "https://dc.lft.to/lastmile_qr_scan", "ios": "https://dc.lft.to/lastmile_qr_scan"}, "fusion_lon": 0.0, "lat": 38.866241, "bike_id": "8dfb694c0cffd1e4c56b39db47a06c64", "type": "electric_scooter", "is_reserved": 0, "lon": -76.98715183333333}, {"fusion_lat": 0.0, "name": "99a6f6acc16af8a290bd45216799fec7", "is_disabled": 0, "rental_uris": {"android": "https://dc.lft.to/lastmile_qr_scan", "ios": "https://dc.lft.to/lastmile_qr_scan"}, "fusion_lon": 0.0, "lat": 38.91984166666667, "bike_id": "99a6f6acc16af8a290bd45216799fec7", "type": "electric_scooter", "is_reserved": 0, "lon": -77.02373}, {"fusion_lat": 0.0, "name": "bc09be4f77419db7bbed7e19e9e696ec", "is_disabled": 0, "rental_uris": {"android": "https://dc.lft.to/lastmile_qr_scan", "ios": "https://dc.lft.to/lastmile_qr_scan"}, "fusion_lon": 0.0, "lat": 38.90089666666667, "bike_id": "bc09be4f77419db7bbed7e19e9e696ec", "type": "electric_scooter", "is_reserved": 0, "lon": -77.05830483333334}, {"fusion_lat": 0.0, "name": "ea05df18e4f8a45f2fd993bd09a669d3", "is_disabled": 0, "rental_uris": {"android": "https://dc.lft.to/lastmile_qr_scan", "ios": "https://dc.lft.to/lastmile_qr_scan"}, "fusion_lon": 0.0, "lat": 38.9002025, "bike_id": "ea05df18e4f8a45f2fd993bd09a669d3", "type": "electric_scooter", "is_reserved": 0, "lon": -77.02931183333334}, {"fusion_lat": 0.0, "name": "8cb16a8c38c22e7e2ec00203d38308e1", "is_disabled": 0, "rental_uris": {"android": "https://dc.lft.to/lastmile_qr_scan", "ios": "https://dc.lft.to/lastmile_qr_scan"}, "fusion_lon": 0.0, "lat": 38.9205695, "bike_id": "8cb16a8c38c22e7e2ec00203d38308e1", "type": "electric_scooter", "is_reserved": 0, "lon": -76.9988265}, {"fusion_lat": 0.0, "name": "32cb2304341bfd220aad930821b80bdc", "is_disabled": 0, "rental_uris": {"android": "https://dc.lft.to/lastmile_qr_scan", "ios": "https://dc.lft.to/lastmile_qr_scan"}, "fusion_lon": 0.0, "lat": 38.91716433333333, "bike_id": "32cb2304341bfd220aad930821b80bdc", "type": "electric_scooter", "is_reserved": 0, "lon": -77.03859583333333}, {"fusion_lat": 0.0, "name": "9dc44137d60a896e8d8f7febe311bc71", "is_disabled": 0, "rental_uris": {"android": "https://dc.lft.to/lastmile_qr_scan", "ios": "https://dc.lft.to/lastmile_qr_scan"}, "fusion_lon": 0.0, "lat": 38.884523333333334, "bike_id": "9dc44137d60a896e8d8f7febe311bc71", "type": "electric_scooter", "is_reserved": 0, "lon": -76.99390733333334}, {"fusion_lat": 0.0, "name": "0d0ced5bc934a6917491f3b6ccf19bb0", "is_disabled": 0, "rental_uris": {"android": "https://dc.lft.to/lastmile_qr_scan", "ios": "https://dc.lft.to/lastmile_qr_scan"}, "fusion_lon": 0.0, "lat": 38.90573933333334, "bike_id": "0d0ced5bc934a6917491f3b6ccf19bb0", "type": "electric_scooter", "is_reserved": 0, "lon": -77.02412016666666}, {"fusion_lat": 0.0, "name": "94bb43eafc31fcd40c1906383e14773f", "is_disabled": 0, "rental_uris": {"android": "https://dc.lft.to/lastmile_qr_scan", "ios": "https://dc.lft.to/lastmile_qr_scan"}, "fusion_lon": 0.0, "lat": 38.88750916666667, "bike_id": "94bb43eafc31fcd40c1906383e14773f", "type": "electric_scooter", "is_reserved": 0, "lon": -76.998342}, {"fusion_lat": 0.0, "name": "c97ce22b0d0b1703cd68fef8b2bfd1e9", "is_disabled": 0, "rental_uris": {"android": "https://dc.lft.to/lastmile_qr_scan", "ios": "https://dc.lft.to/lastmile_qr_scan"}, "fusion_lon": 0.0, "lat": 38.925044, "bike_id": "c97ce22b0d0b1703cd68fef8b2bfd1e9", "type": "electric_bike", "is_reserved": 0, "lon": -77.05746716666667}, {"fusion_lat": 0.0, "name": "9d3cdaaca05ea73a50c59d82db17f6af", "is_disabled": 0, "rental_uris": {"android": "https://dc.lft.to/lastmile_qr_scan", "ios": "https://dc.lft.to/lastmile_qr_scan"}, "fusion_lon": 0.0, "lat": 38.9185555, "bike_id": "9d3cdaaca05ea73a50c59d82db17f6af", "type": "electric_scooter", "is_reserved": 0, "lon": -77.04493183333334}, {"fusion_lat": 0.0, "name": "a84f65e5ae0bf554f0ad27925a162a9d", "is_disabled": 0, "rental_uris": {"android": "https://dc.lft.to/lastmile_qr_scan", "ios": "https://dc.lft.to/lastmile_qr_scan"}, "fusion_lon": 0.0, "lat": 38.90782, "bike_id": "a84f65e5ae0bf554f0ad27925a162a9d", "type": "electric_scooter", "is_reserved": 0, "lon": -77.00969016666667}, {"fusion_lat": 0.0, "name": "6703870045f35a0f0f9458a0aec9bd86", "is_disabled": 0, "rental_uris": {"android": "https://dc.lft.to/lastmile_qr_scan", "ios": "https://dc.lft.to/lastmile_qr_scan"}, "fusion_lon": 0.0, "lat": 38.9004105, "bike_id": "6703870045f35a0f0f9458a0aec9bd86", "type": "electric_scooter", "is_reserved": 0, "lon": -77.00216916666666}, {"fusion_lat": 0.0, "name": "3c75ed2249933233a503608ebdcb2ae1", "is_disabled": 0, "rental_uris": {"android": "https://dc.lft.to/lastmile_qr_scan", "ios": "https://dc.lft.to/lastmile_qr_scan"}, "fusion_lon": 0.0, "lat": 38.8067195, "bike_id": "3c75ed2249933233a503608ebdcb2ae1", "type": "electric_bike", "is_reserved": 0, "lon": -77.069158}, {"fusion_lat": 0.0, "name": "2bbac30867833e9b05d413aa5b2baf62", "is_disabled": 0, "rental_uris": {"android": "https://dc.lft.to/lastmile_qr_scan", "ios": "https://dc.lft.to/lastmile_qr_scan"}, "fusion_lon": 0.0, "lat": 38.924847666666665, "bike_id": "2bbac30867833e9b05d413aa5b2baf62", "type": "electric_scooter", "is_reserved": 0, "lon": -77.026485}, {"fusion_lat": 0.0, "name": "f791058dc260317d92e85f7efd61eae6", "is_disabled": 0, "rental_uris": {"android": "https://dc.lft.to/lastmile_qr_scan", "ios": "https://dc.lft.to/lastmile_qr_scan"}, "fusion_lon": 0.0, "lat": 38.932605833333334, "bike_id": "f791058dc260317d92e85f7efd61eae6", "type": "electric_scooter", "is_reserved": 0, "lon": -77.03265933333333}, {"fusion_lat": 0.0, "name": "8ad4083eeb1d48cc434d665ade48bf9b", "is_disabled": 0, "rental_uris": {"android": "https://dc.lft.to/lastmile_qr_scan", "ios": "https://dc.lft.to/lastmile_qr_scan"}, "fusion_lon": 0.0, "lat": 38.9588055, "bike_id": "8ad4083eeb1d48cc434d665ade48bf9b", "type": "electric_scooter", "is_reserved": 0, "lon": -77.01166783333333}, {"fusion_lat": 0.0, "name": "d0528aabf6674c970a692c4b5517fa4e", "is_disabled": 0, "rental_uris": {"android": "https://dc.lft.to/lastmile_qr_scan", "ios": "https://dc.lft.to/lastmile_qr_scan"}, "fusion_lon": 0.0, "lat": 38.91898616666667, "bike_id": "d0528aabf6674c970a692c4b5517fa4e", "type": "electric_scooter", "is_reserved": 0, "lon": -77.023655}, {"fusion_lat": 0.0, "name": "23a7aa399b835dd0e0a321837d324897", "is_disabled": 0, "rental_uris": {"android": "https://dc.lft.to/lastmile_qr_scan", "ios": "https://dc.lft.to/lastmile_qr_scan"}, "fusion_lon": 0.0, "lat": 38.876605, "bike_id": "23a7aa399b835dd0e0a321837d324897", "type": "electric_scooter", "is_reserved": 0, "lon": -77.0091655}, {"fusion_lat": 0.0, "name": "f5d8aed8e12842a69841f00ffd0dd636", "is_disabled": 0, "rental_uris": {"android": "https://dc.lft.to/lastmile_qr_scan", "ios": "https://dc.lft.to/lastmile_qr_scan"}, "fusion_lon": 0.0, "lat": 38.9098035, "bike_id": "f5d8aed8e12842a69841f00ffd0dd636", "type": "electric_scooter", "is_reserved": 0, "lon": -77.02287183333334}, {"fusion_lat": 0.0, "name": "273d9b63f499374b3342645fe569acfa", "is_disabled": 0, "rental_uris": {"android": "https://dc.lft.to/lastmile_qr_scan", "ios": "https://dc.lft.to/lastmile_qr_scan"}, "fusion_lon": 0.0, "lat": 38.9155905, "bike_id": "273d9b63f499374b3342645fe569acfa", "type": "electric_scooter", "is_reserved": 0, "lon": -77.03222916666667}, {"fusion_lat": 0.0, "name": "cb08c98f538e7a1886348c680f2f6fa6", "is_disabled": 0, "rental_uris": {"android": "https://dc.lft.to/lastmile_qr_scan", "ios": "https://dc.lft.to/lastmile_qr_scan"}, "fusion_lon": 0.0, "lat": 38.924864166666666, "bike_id": "cb08c98f538e7a1886348c680f2f6fa6", "type": "electric_scooter", "is_reserved": 0, "lon": -77.025441}, {"fusion_lat": 0.0, "name": "b8ce45987eabc8310ea2eb355e9464a3", "is_disabled": 0, "rental_uris": {"android": "https://dc.lft.to/lastmile_qr_scan", "ios": "https://dc.lft.to/lastmile_qr_scan"}, "fusion_lon": 0.0, "lat": 38.882296, "bike_id": "b8ce45987eabc8310ea2eb355e9464a3", "type": "electric_scooter", "is_reserved": 0, "lon": -77.0261495}, {"fusion_lat": 0.0, "name": "fd8530ec4418f817919ca11228a40424", "is_disabled": 0, "rental_uris": {"android": "https://dc.lft.to/lastmile_qr_scan", "ios": "https://dc.lft.to/lastmile_qr_scan"}, "fusion_lon": 0.0, "lat": 38.915667166666665, "bike_id": "fd8530ec4418f817919ca11228a40424", "type": "electric_scooter", "is_reserved": 0, "lon": -77.03223066666666}, {"fusion_lat": 0.0, "name": "491d7406492dd1edf4520b466c404110", "is_disabled": 0, "rental_uris": {"android": "https://dc.lft.to/lastmile_qr_scan", "ios": "https://dc.lft.to/lastmile_qr_scan"}, "fusion_lon": 0.0, "lat": 38.87914133333334, "bike_id": "491d7406492dd1edf4520b466c404110", "type": "electric_scooter", "is_reserved": 0, "lon": -77.00894883333333}, {"fusion_lat": 0.0, "name": "23c0f5f6aebd0fbf4d7eaa093fe27a3d", "is_disabled": 0, "rental_uris": {"android": "https://dc.lft.to/lastmile_qr_scan", "ios": "https://dc.lft.to/lastmile_qr_scan"}, "fusion_lon": 0.0, "lat": 38.89233266666667, "bike_id": "23c0f5f6aebd0fbf4d7eaa093fe27a3d", "type": "electric_scooter", "is_reserved": 0, "lon": -77.03171066666667}, {"fusion_lat": 0.0, "name": "ba005394aca41d50111efe1051569bd3", "is_disabled": 0, "rental_uris": {"android": "https://dc.lft.to/lastmile_qr_scan", "ios": "https://dc.lft.to/lastmile_qr_scan"}, "fusion_lon": 0.0, "lat": 38.90980066666667, "bike_id": "ba005394aca41d50111efe1051569bd3", "type": "electric_scooter", "is_reserved": 0, "lon": -77.0217905}, {"fusion_lat": 0.0, "name": "7e858dc17fd59f79dc01863d9d29a0f0", "is_disabled": 0, "rental_uris": {"android": "https://dc.lft.to/lastmile_qr_scan", "ios": "https://dc.lft.to/lastmile_qr_scan"}, "fusion_lon": 0.0, "lat": 38.88771083333334, "bike_id": "7e858dc17fd59f79dc01863d9d29a0f0", "type": "electric_scooter", "is_reserved": 0, "lon": -77.00258816666667}, {"fusion_lat": 0.0, "name": "327611d8c64360056f5187da734d4b6f", "is_disabled": 0, "rental_uris": {"android": "https://dc.lft.to/lastmile_qr_scan", "ios": "https://dc.lft.to/lastmile_qr_scan"}, "fusion_lon": 0.0, "lat": 38.9067825, "bike_id": "327611d8c64360056f5187da734d4b6f", "type": "electric_scooter", "is_reserved": 0, "lon": -77.027014}, {"fusion_lat": 0.0, "name": "c046d81c4164126e9f2e5c3c67762cf2", "is_disabled": 0, "rental_uris": {"android": "https://dc.lft.to/lastmile_qr_scan", "ios": "https://dc.lft.to/lastmile_qr_scan"}, "fusion_lon": 0.0, "lat": 38.93078166666667, "bike_id": "c046d81c4164126e9f2e5c3c67762cf2", "type": "electric_scooter", "is_reserved": 0, "lon": -77.07757183333334}, {"fusion_lat": 0.0, "name": "28c891765621139ac338c91aaf12b312", "is_disabled": 0, "rental_uris": {"android": "https://dc.lft.to/lastmile_qr_scan", "ios": "https://dc.lft.to/lastmile_qr_scan"}, "fusion_lon": 0.0, "lat": 38.904112833333336, "bike_id": "28c891765621139ac338c91aaf12b312", "type": "electric_scooter", "is_reserved": 0, "lon": -76.97330083333334}, {"fusion_lat": 0.0, "name": "2515b61ac5140eede65843b6ec1adef1", "is_disabled": 0, "rental_uris": {"android": "https://dc.lft.to/lastmile_qr_scan", "ios": "https://dc.lft.to/lastmile_qr_scan"}, "fusion_lon": 0.0, "lat": 38.901407666666664, "bike_id": "2515b61ac5140eede65843b6ec1adef1", "type": "electric_scooter", "is_reserved": 0, "lon": -77.03329066666667}, {"fusion_lat": 0.0, "name": "6fad3cc1942506fd84e4de15dadc1bad", "is_disabled": 0, "rental_uris": {"android": "https://dc.lft.to/lastmile_qr_scan", "ios": "https://dc.lft.to/lastmile_qr_scan"}, "fusion_lon": 0.0, "lat": 38.880653, "bike_id": "6fad3cc1942506fd84e4de15dadc1bad", "type": "electric_scooter", "is_reserved": 0, "lon": -77.02552766666666}, {"fusion_lat": 0.0, "name": "60979c9f83464a28c657ccbe21c76016", "is_disabled": 0, "rental_uris": {"android": "https://dc.lft.to/lastmile_qr_scan", "ios": "https://dc.lft.to/lastmile_qr_scan"}, "fusion_lon": 0.0, "lat": 38.902619666666666, "bike_id": "60979c9f83464a28c657ccbe21c76016", "type": "electric_scooter", "is_reserved": 0, "lon": -76.97450116666667}, {"fusion_lat": 0.0, "name": "51917a34efc742c07ca0d7a6e0d115da", "is_disabled": 0, "rental_uris": {"android": "https://dc.lft.to/lastmile_qr_scan", "ios": "https://dc.lft.to/lastmile_qr_scan"}, "fusion_lon": 0.0, "lat": 38.86021916666667, "bike_id": "51917a34efc742c07ca0d7a6e0d115da", "type": "electric_bike", "is_reserved": 0, "lon": -77.12805133333333}, {"fusion_lat": 0.0, "name": "2edcbe9aca027b9f062f28889398d6cb", "is_disabled": 0, "rental_uris": {"android": "https://dc.lft.to/lastmile_qr_scan", "ios": "https://dc.lft.to/lastmile_qr_scan"}, "fusion_lon": 0.0, "lat": 38.902281, "bike_id": "2edcbe9aca027b9f062f28889398d6cb", "type": "electric_scooter", "is_reserved": 0, "lon": -77.0332145}, {"fusion_lat": 0.0, "name": "729a8ca41a9718f1b61e2551cc6e97e4", "is_disabled": 0, "rental_uris": {"android": "https://dc.lft.to/lastmile_qr_scan", "ios": "https://dc.lft.to/lastmile_qr_scan"}, "fusion_lon": 0.0, "lat": 38.952337, "bike_id": "729a8ca41a9718f1b61e2551cc6e97e4", "type": "electric_scooter", "is_reserved": 0, "lon": -76.98999733333333}, {"fusion_lat": 0.0, "name": "08fe57666e6d74b3b47a77d5f735fd5c", "is_disabled": 0, "rental_uris": {"android": "https://dc.lft.to/lastmile_qr_scan", "ios": "https://dc.lft.to/lastmile_qr_scan"}, "fusion_lon": 0.0, "lat": 38.95633133333333, "bike_id": "08fe57666e6d74b3b47a77d5f735fd5c", "type": "electric_scooter", "is_reserved": 0, "lon": -77.02314416666667}, {"fusion_lat": 0.0, "name": "97dbc1ab8a46926d3ecb14265e102580", "is_disabled": 0, "rental_uris": {"android": "https://dc.lft.to/lastmile_qr_scan", "ios": "https://dc.lft.to/lastmile_qr_scan"}, "fusion_lon": 0.0, "lat": 38.91781233333333, "bike_id": "97dbc1ab8a46926d3ecb14265e102580", "type": "electric_scooter", "is_reserved": 0, "lon": -77.01214366666666}, {"fusion_lat": 0.0, "name": "6bf97c63ae4e8e7a025c7e73ed01b5c5", "is_disabled": 0, "rental_uris": {"android": "https://dc.lft.to/lastmile_qr_scan", "ios": "https://dc.lft.to/lastmile_qr_scan"}, "fusion_lon": 0.0, "lat": 38.92221633333333, "bike_id": "6bf97c63ae4e8e7a025c7e73ed01b5c5", "type": "electric_bike", "is_reserved": 0, "lon": -77.2013545}, {"fusion_lat": 0.0, "name": "e1062bea4472296358fbd23e268c3459", "is_disabled": 0, "rental_uris": {"android": "https://dc.lft.to/lastmile_qr_scan", "ios": "https://dc.lft.to/lastmile_qr_scan"}, "fusion_lon": 0.0, "lat": 38.923372666666666, "bike_id": "e1062bea4472296358fbd23e268c3459", "type": "electric_scooter", "is_reserved": 0, "lon": -77.036156}, {"fusion_lat": 0.0, "name": "f8df269516a036c5874a935fc048bd8e", "is_disabled": 0, "rental_uris": {"android": "https://dc.lft.to/lastmile_qr_scan", "ios": "https://dc.lft.to/lastmile_qr_scan"}, "fusion_lon": 0.0, "lat": 38.928248333333336, "bike_id": "f8df269516a036c5874a935fc048bd8e", "type": "electric_scooter", "is_reserved": 0, "lon": -77.0543385}, {"fusion_lat": 0.0, "name": "28b3884556d0d15c1a636d5d9f3c8f31", "is_disabled": 0, "rental_uris": {"android": "https://dc.lft.to/lastmile_qr_scan", "ios": "https://dc.lft.to/lastmile_qr_scan"}, "fusion_lon": 0.0, "lat": 38.920740333333335, "bike_id": "28b3884556d0d15c1a636d5d9f3c8f31", "type": "electric_scooter", "is_reserved": 0, "lon": -77.01422683333334}, {"fusion_lat": 0.0, "name": "d5dac3ad8cccf807e8fb00ba1782f600", "is_disabled": 0, "rental_uris": {"android": "https://dc.lft.to/lastmile_qr_scan", "ios": "https://dc.lft.to/lastmile_qr_scan"}, "fusion_lon": 0.0, "lat": 38.94198166666666, "bike_id": "d5dac3ad8cccf807e8fb00ba1782f600", "type": "electric_scooter", "is_reserved": 0, "lon": -77.02588733333333}, {"fusion_lat": 0.0, "name": "b61ec5c49ddcc5fc2c02746eeec6cc22", "is_disabled": 0, "rental_uris": {"android": "https://dc.lft.to/lastmile_qr_scan", "ios": "https://dc.lft.to/lastmile_qr_scan"}, "fusion_lon": 0.0, "lat": 38.96407766666667, "bike_id": "b61ec5c49ddcc5fc2c02746eeec6cc22", "type": "electric_scooter", "is_reserved": 0, "lon": -77.07528766666667}, {"fusion_lat": 0.0, "name": "a039f1212135fc3e2eb350dcd4a15895", "is_disabled": 0, "rental_uris": {"android": "https://dc.lft.to/lastmile_qr_scan", "ios": "https://dc.lft.to/lastmile_qr_scan"}, "fusion_lon": 0.0, "lat": 38.93853266666667, "bike_id": "a039f1212135fc3e2eb350dcd4a15895", "type": "electric_scooter", "is_reserved": 0, "lon": -77.03375516666667}, {"fusion_lat": 0.0, "name": "43b9774129c7b18587050bd1a449a7cc", "is_disabled": 0, "rental_uris": {"android": "https://dc.lft.to/lastmile_qr_scan", "ios": "https://dc.lft.to/lastmile_qr_scan"}, "fusion_lon": 0.0, "lat": 38.8940345, "bike_id": "43b9774129c7b18587050bd1a449a7cc", "type": "electric_scooter", "is_reserved": 0, "lon": -76.99489433333333}, {"fusion_lat": 0.0, "name": "9db9b1bbb9ce64e0a5601d33b1209d6f", "is_disabled": 0, "rental_uris": {"android": "https://dc.lft.to/lastmile_qr_scan", "ios": "https://dc.lft.to/lastmile_qr_scan"}, "fusion_lon": 0.0, "lat": 38.90384233333333, "bike_id": "9db9b1bbb9ce64e0a5601d33b1209d6f", "type": "electric_scooter", "is_reserved": 0, "lon": -77.05141483333334}, {"fusion_lat": 0.0, "name": "b02bca78e8c8c636eec3e0d9686ee1b5", "is_disabled": 0, "rental_uris": {"android": "https://dc.lft.to/lastmile_qr_scan", "ios": "https://dc.lft.to/lastmile_qr_scan"}, "fusion_lon": 0.0, "lat": 38.887382, "bike_id": "b02bca78e8c8c636eec3e0d9686ee1b5", "type": "electric_scooter", "is_reserved": 0, "lon": -77.03175766666666}, {"fusion_lat": 0.0, "name": "4487a0c197c942389d8bb04d13a6f187", "is_disabled": 0, "rental_uris": {"android": "https://dc.lft.to/lastmile_qr_scan", "ios": "https://dc.lft.to/lastmile_qr_scan"}, "fusion_lon": 0.0, "lat": 38.925387, "bike_id": "4487a0c197c942389d8bb04d13a6f187", "type": "electric_bike", "is_reserved": 0, "lon": -77.00113283333333}, {"fusion_lat": 0.0, "name": "f9ad0eadad333a035a2de856a5b81fc9", "is_disabled": 0, "rental_uris": {"android": "https://dc.lft.to/lastmile_qr_scan", "ios": "https://dc.lft.to/lastmile_qr_scan"}, "fusion_lon": 0.0, "lat": 38.906324833333336, "bike_id": "f9ad0eadad333a035a2de856a5b81fc9", "type": "electric_scooter", "is_reserved": 0, "lon": -77.00589483333333}, {"fusion_lat": 0.0, "name": "c0e7dfb4f4e79e745cd1f558a4ffe606", "is_disabled": 0, "rental_uris": {"android": "https://dc.lft.to/lastmile_qr_scan", "ios": "https://dc.lft.to/lastmile_qr_scan"}, "fusion_lon": 0.0, "lat": 38.93395566666667, "bike_id": "c0e7dfb4f4e79e745cd1f558a4ffe606", "type": "electric_scooter", "is_reserved": 0, "lon": -77.02834133333333}, {"fusion_lat": 0.0, "name": "cc0231912a2e520b586b28a1692224ee", "is_disabled": 0, "rental_uris": {"android": "https://dc.lft.to/lastmile_qr_scan", "ios": "https://dc.lft.to/lastmile_qr_scan"}, "fusion_lon": 0.0, "lat": 38.909561333333336, "bike_id": "cc0231912a2e520b586b28a1692224ee", "type": "electric_scooter", "is_reserved": 0, "lon": -76.985351}, {"fusion_lat": 0.0, "name": "f200d7f8f92ff232c9ce52933f2064b1", "is_disabled": 0, "rental_uris": {"android": "https://dc.lft.to/lastmile_qr_scan", "ios": "https://dc.lft.to/lastmile_qr_scan"}, "fusion_lon": 0.0, "lat": 38.9291155, "bike_id": "f200d7f8f92ff232c9ce52933f2064b1", "type": "electric_scooter", "is_reserved": 0, "lon": -77.02181733333333}, {"fusion_lat": 0.0, "name": "61f2d3484220e99a2899dffdfe69696c", "is_disabled": 0, "rental_uris": {"android": "https://dc.lft.to/lastmile_qr_scan", "ios": "https://dc.lft.to/lastmile_qr_scan"}, "fusion_lon": 0.0, "lat": 38.89484816666667, "bike_id": "61f2d3484220e99a2899dffdfe69696c", "type": "electric_scooter", "is_reserved": 0, "lon": -77.00250683333333}, {"fusion_lat": 0.0, "name": "aea624e6c2fa7813a9468057167ac5f2", "is_disabled": 0, "rental_uris": {"android": "https://dc.lft.to/lastmile_qr_scan", "ios": "https://dc.lft.to/lastmile_qr_scan"}, "fusion_lon": 0.0, "lat": 38.892262333333335, "bike_id": "aea624e6c2fa7813a9468057167ac5f2", "type": "electric_scooter", "is_reserved": 0, "lon": -77.04501366666666}, {"fusion_lat": 0.0, "name": "2ab3264ad3df5d0435ab89979a04a434", "is_disabled": 0, "rental_uris": {"android": "https://dc.lft.to/lastmile_qr_scan", "ios": "https://dc.lft.to/lastmile_qr_scan"}, "fusion_lon": 0.0, "lat": 38.942917333333334, "bike_id": "2ab3264ad3df5d0435ab89979a04a434", "type": "electric_scooter", "is_reserved": 0, "lon": -77.0217215}, {"fusion_lat": 0.0, "name": "741a9d2a36e4b2a5ec968b22532125ce", "is_disabled": 0, "rental_uris": {"android": "https://dc.lft.to/lastmile_qr_scan", "ios": "https://dc.lft.to/lastmile_qr_scan"}, "fusion_lon": 0.0, "lat": 38.8974095, "bike_id": "741a9d2a36e4b2a5ec968b22532125ce", "type": "electric_scooter", "is_reserved": 0, "lon": -77.03304866666667}, {"fusion_lat": 0.0, "name": "2267e898ff974a64c24455905ab62d7a", "is_disabled": 0, "rental_uris": {"android": "https://dc.lft.to/lastmile_qr_scan", "ios": "https://dc.lft.to/lastmile_qr_scan"}, "fusion_lon": 0.0, "lat": 38.8996475, "bike_id": "2267e898ff974a64c24455905ab62d7a", "type": "electric_scooter", "is_reserved": 0, "lon": -76.98153366666666}, {"fusion_lat": 0.0, "name": "28e90adb8e5957c5afb5940040ec22f2", "is_disabled": 0, "rental_uris": {"android": "https://dc.lft.to/lastmile_qr_scan", "ios": "https://dc.lft.to/lastmile_qr_scan"}, "fusion_lon": 0.0, "lat": 38.952937166666665, "bike_id": "28e90adb8e5957c5afb5940040ec22f2", "type": "electric_bike", "is_reserved": 0, "lon": -76.9998925}, {"fusion_lat": 0.0, "name": "6e411902fe9e9e554800a5538ed55835", "is_disabled": 0, "rental_uris": {"android": "https://dc.lft.to/lastmile_qr_scan", "ios": "https://dc.lft.to/lastmile_qr_scan"}, "fusion_lon": 0.0, "lat": 38.902693, "bike_id": "6e411902fe9e9e554800a5538ed55835", "type": "electric_scooter", "is_reserved": 0, "lon": -77.01758733333334}, {"fusion_lat": 0.0, "name": "29db825193d0e9fe8641c07d66dc9986", "is_disabled": 0, "rental_uris": {"android": "https://dc.lft.to/lastmile_qr_scan", "ios": "https://dc.lft.to/lastmile_qr_scan"}, "fusion_lon": 0.0, "lat": 38.841294166666664, "bike_id": "29db825193d0e9fe8641c07d66dc9986", "type": "electric_bike", "is_reserved": 0, "lon": -77.06308766666666}, {"fusion_lat": 0.0, "name": "27625f8742c73fdb4f458b042b3d0d2e", "is_disabled": 0, "rental_uris": {"android": "https://dc.lft.to/lastmile_qr_scan", "ios": "https://dc.lft.to/lastmile_qr_scan"}, "fusion_lon": 0.0, "lat": 38.897426, "bike_id": "27625f8742c73fdb4f458b042b3d0d2e", "type": "electric_scooter", "is_reserved": 0, "lon": -77.02400516666667}, {"fusion_lat": 0.0, "name": "7bdf4ba58fb112af50a42e7f91f3a501", "is_disabled": 0, "rental_uris": {"android": "https://dc.lft.to/lastmile_qr_scan", "ios": "https://dc.lft.to/lastmile_qr_scan"}, "fusion_lon": 0.0, "lat": 38.92393583333333, "bike_id": "7bdf4ba58fb112af50a42e7f91f3a501", "type": "electric_scooter", "is_reserved": 0, "lon": -77.0430325}, {"fusion_lat": 0.0, "name": "e8808df2432ff12c4b8d3e428352a688", "is_disabled": 0, "rental_uris": {"android": "https://dc.lft.to/lastmile_qr_scan", "ios": "https://dc.lft.to/lastmile_qr_scan"}, "fusion_lon": 0.0, "lat": 38.8985525, "bike_id": "e8808df2432ff12c4b8d3e428352a688", "type": "electric_scooter", "is_reserved": 0, "lon": -77.03176716666667}, {"fusion_lat": 0.0, "name": "405d039a2ae88908e116804af4eb148b", "is_disabled": 0, "rental_uris": {"android": "https://dc.lft.to/lastmile_qr_scan", "ios": "https://dc.lft.to/lastmile_qr_scan"}, "fusion_lon": 0.0, "lat": 38.931215333333334, "bike_id": "405d039a2ae88908e116804af4eb148b", "type": "electric_scooter", "is_reserved": 0, "lon": -76.98437983333334}, {"fusion_lat": 0.0, "name": "855fc8899a3972be76c612a9d7c04a68", "is_disabled": 0, "rental_uris": {"android": "https://dc.lft.to/lastmile_qr_scan", "ios": "https://dc.lft.to/lastmile_qr_scan"}, "fusion_lon": 0.0, "lat": 38.900248, "bike_id": "855fc8899a3972be76c612a9d7c04a68", "type": "electric_scooter", "is_reserved": 0, "lon": -77.0350215}, {"fusion_lat": 0.0, "name": "96a706339fad660a9a683db744fcb2ec", "is_disabled": 0, "rental_uris": {"android": "https://dc.lft.to/lastmile_qr_scan", "ios": "https://dc.lft.to/lastmile_qr_scan"}, "fusion_lon": 0.0, "lat": 38.921028, "bike_id": "96a706339fad660a9a683db744fcb2ec", "type": "electric_scooter", "is_reserved": 0, "lon": -76.994649}, {"fusion_lat": 0.0, "name": "4f4d7433501e18fcddd99a98063d1f83", "is_disabled": 0, "rental_uris": {"android": "https://dc.lft.to/lastmile_qr_scan", "ios": "https://dc.lft.to/lastmile_qr_scan"}, "fusion_lon": 0.0, "lat": 38.985495, "bike_id": "4f4d7433501e18fcddd99a98063d1f83", "type": "electric_bike", "is_reserved": 0, "lon": -77.00397533333333}, {"fusion_lat": 0.0, "name": "022869b6818c1febc52eb660ac179a6a", "is_disabled": 0, "rental_uris": {"android": "https://dc.lft.to/lastmile_qr_scan", "ios": "https://dc.lft.to/lastmile_qr_scan"}, "fusion_lon": 0.0, "lat": 38.94297483333333, "bike_id": "022869b6818c1febc52eb660ac179a6a", "type": "electric_scooter", "is_reserved": 0, "lon": -77.0216935}, {"fusion_lat": 0.0, "name": "16818d61ab148848e21bd04cb0c4a78e", "is_disabled": 0, "rental_uris": {"android": "https://dc.lft.to/lastmile_qr_scan", "ios": "https://dc.lft.to/lastmile_qr_scan"}, "fusion_lon": 0.0, "lat": 38.87847166666667, "bike_id": "16818d61ab148848e21bd04cb0c4a78e", "type": "electric_bike", "is_reserved": 0, "lon": -77.030222}, {"fusion_lat": 0.0, "name": "a7448d83588c8fb7c7cd88c75e178fa6", "is_disabled": 0, "rental_uris": {"android": "https://dc.lft.to/lastmile_qr_scan", "ios": "https://dc.lft.to/lastmile_qr_scan"}, "fusion_lon": 0.0, "lat": 38.88298783333333, "bike_id": "a7448d83588c8fb7c7cd88c75e178fa6", "type": "electric_scooter", "is_reserved": 0, "lon": -76.9485045}, {"fusion_lat": 0.0, "name": "0e358926581bc5c946ff376acd9e4545", "is_disabled": 0, "rental_uris": {"android": "https://dc.lft.to/lastmile_qr_scan", "ios": "https://dc.lft.to/lastmile_qr_scan"}, "fusion_lon": 0.0, "lat": 38.884292, "bike_id": "0e358926581bc5c946ff376acd9e4545", "type": "electric_scooter", "is_reserved": 0, "lon": -76.9575015}, {"fusion_lat": 0.0, "name": "30b11daf2d59b50a6df6504268cf6c67", "is_disabled": 0, "rental_uris": {"android": "https://dc.lft.to/lastmile_qr_scan", "ios": "https://dc.lft.to/lastmile_qr_scan"}, "fusion_lon": 0.0, "lat": 38.89838116666667, "bike_id": "30b11daf2d59b50a6df6504268cf6c67", "type": "electric_scooter", "is_reserved": 0, "lon": -77.01342083333333}, {"fusion_lat": 0.0, "name": "79681f6247fca5677864d0c77f4705ee", "is_disabled": 0, "rental_uris": {"android": "https://dc.lft.to/lastmile_qr_scan", "ios": "https://dc.lft.to/lastmile_qr_scan"}, "fusion_lon": 0.0, "lat": 38.924152166666666, "bike_id": "79681f6247fca5677864d0c77f4705ee", "type": "electric_scooter", "is_reserved": 0, "lon": -76.996195}, {"fusion_lat": 0.0, "name": "26606bf22a9d8cdf45723d44d1ac7ba0", "is_disabled": 0, "rental_uris": {"android": "https://dc.lft.to/lastmile_qr_scan", "ios": "https://dc.lft.to/lastmile_qr_scan"}, "fusion_lon": 0.0, "lat": 38.887678, "bike_id": "26606bf22a9d8cdf45723d44d1ac7ba0", "type": "electric_scooter", "is_reserved": 0, "lon": -77.03301683333333}, {"fusion_lat": 0.0, "name": "968bf640711c46adb090fde226280122", "is_disabled": 0, "rental_uris": {"android": "https://dc.lft.to/lastmile_qr_scan", "ios": "https://dc.lft.to/lastmile_qr_scan"}, "fusion_lon": 0.0, "lat": 38.9358115, "bike_id": "968bf640711c46adb090fde226280122", "type": "electric_scooter", "is_reserved": 0, "lon": -77.02843566666667}, {"fusion_lat": 0.0, "name": "5b8f19c987a616939fa43f8ac3e3465c", "is_disabled": 0, "rental_uris": {"android": "https://dc.lft.to/lastmile_qr_scan", "ios": "https://dc.lft.to/lastmile_qr_scan"}, "fusion_lon": 0.0, "lat": 38.925141333333336, "bike_id": "5b8f19c987a616939fa43f8ac3e3465c", "type": "electric_scooter", "is_reserved": 0, "lon": -77.02284083333333}, {"fusion_lat": 0.0, "name": "2785157ba1fb01ddfa59212e2a02f750", "is_disabled": 0, "rental_uris": {"android": "https://dc.lft.to/lastmile_qr_scan", "ios": "https://dc.lft.to/lastmile_qr_scan"}, "fusion_lon": 0.0, "lat": 38.907726, "bike_id": "2785157ba1fb01ddfa59212e2a02f750", "type": "electric_scooter", "is_reserved": 0, "lon": -77.0559945}, {"fusion_lat": 0.0, "name": "fe6b826e8918309bd08e69cc1e8e5da1", "is_disabled": 0, "rental_uris": {"android": "https://dc.lft.to/lastmile_qr_scan", "ios": "https://dc.lft.to/lastmile_qr_scan"}, "fusion_lon": 0.0, "lat": 38.952245833333336, "bike_id": "fe6b826e8918309bd08e69cc1e8e5da1", "type": "electric_scooter", "is_reserved": 0, "lon": -77.08214683333334}, {"fusion_lat": 0.0, "name": "36ae15809a9b3a290f43c1de7424e0b1", "is_disabled": 0, "rental_uris": {"android": "https://dc.lft.to/lastmile_qr_scan", "ios": "https://dc.lft.to/lastmile_qr_scan"}, "fusion_lon": 0.0, "lat": 38.854097, "bike_id": "36ae15809a9b3a290f43c1de7424e0b1", "type": "electric_bike", "is_reserved": 0, "lon": -77.12077983333333}, {"fusion_lat": 0.0, "name": "4b6f2892e07b27a9c65ad5813ee3cc58", "is_disabled": 0, "rental_uris": {"android": "https://dc.lft.to/lastmile_qr_scan", "ios": "https://dc.lft.to/lastmile_qr_scan"}, "fusion_lon": 0.0, "lat": 38.89730183333333, "bike_id": "4b6f2892e07b27a9c65ad5813ee3cc58", "type": "electric_scooter", "is_reserved": 0, "lon": -77.046309}, {"fusion_lat": 0.0, "name": "69856ab1413b41641e38c739afc6889f", "is_disabled": 0, "rental_uris": {"android": "https://dc.lft.to/lastmile_qr_scan", "ios": "https://dc.lft.to/lastmile_qr_scan"}, "fusion_lon": 0.0, "lat": 38.9199955, "bike_id": "69856ab1413b41641e38c739afc6889f", "type": "electric_scooter", "is_reserved": 0, "lon": -77.07184933333333}, {"fusion_lat": 0.0, "name": "6cfd2e61c9e2d5ffe783762b6e04cb2c", "is_disabled": 0, "rental_uris": {"android": "https://dc.lft.to/lastmile_qr_scan", "ios": "https://dc.lft.to/lastmile_qr_scan"}, "fusion_lon": 0.0, "lat": 38.908570833333336, "bike_id": "6cfd2e61c9e2d5ffe783762b6e04cb2c", "type": "electric_scooter", "is_reserved": 0, "lon": -77.04487433333334}, {"fusion_lat": 0.0, "name": "d36d60d162760b30e1632602543c0956", "is_disabled": 0, "rental_uris": {"android": "https://dc.lft.to/lastmile_qr_scan", "ios": "https://dc.lft.to/lastmile_qr_scan"}, "fusion_lon": 0.0, "lat": 38.8973, "bike_id": "d36d60d162760b30e1632602543c0956", "type": "electric_scooter", "is_reserved": 0, "lon": -77.046272}, {"fusion_lat": 0.0, "name": "c9c80b089e269f0ec13b0d6a510e0d19", "is_disabled": 0, "rental_uris": {"android": "https://dc.lft.to/lastmile_qr_scan", "ios": "https://dc.lft.to/lastmile_qr_scan"}, "fusion_lon": 0.0, "lat": 38.87713133333333, "bike_id": "c9c80b089e269f0ec13b0d6a510e0d19", "type": "electric_scooter", "is_reserved": 0, "lon": -77.00404483333334}, {"fusion_lat": 0.0, "name": "a61c7f532397b7d40aa784a8aa7a3b66", "is_disabled": 0, "rental_uris": {"android": "https://dc.lft.to/lastmile_qr_scan", "ios": "https://dc.lft.to/lastmile_qr_scan"}, "fusion_lon": 0.0, "lat": 38.90736066666667, "bike_id": "a61c7f532397b7d40aa784a8aa7a3b66", "type": "electric_scooter", "is_reserved": 0, "lon": -77.03445716666667}, {"fusion_lat": 0.0, "name": "35983981fae49682cdef7b6c3400d1f1", "is_disabled": 0, "rental_uris": {"android": "https://dc.lft.to/lastmile_qr_scan", "ios": "https://dc.lft.to/lastmile_qr_scan"}, "fusion_lon": 0.0, "lat": 38.91437666666667, "bike_id": "35983981fae49682cdef7b6c3400d1f1", "type": "electric_scooter", "is_reserved": 0, "lon": -76.9935455}, {"fusion_lat": 0.0, "name": "3f62f3cc9f9898ab7937971712579ec2", "is_disabled": 0, "rental_uris": {"android": "https://dc.lft.to/lastmile_qr_scan", "ios": "https://dc.lft.to/lastmile_qr_scan"}, "fusion_lon": 0.0, "lat": 38.923386666666666, "bike_id": "3f62f3cc9f9898ab7937971712579ec2", "type": "electric_scooter", "is_reserved": 0, "lon": -77.03516383333333}, {"fusion_lat": 0.0, "name": "b6656cf736fe0a889121c29b66e2f44d", "is_disabled": 0, "rental_uris": {"android": "https://dc.lft.to/lastmile_qr_scan", "ios": "https://dc.lft.to/lastmile_qr_scan"}, "fusion_lon": 0.0, "lat": 38.90235466666667, "bike_id": "b6656cf736fe0a889121c29b66e2f44d", "type": "electric_scooter", "is_reserved": 0, "lon": -77.02689116666667}, {"fusion_lat": 0.0, "name": "b1fc5dbc239f73767daa6aa15280f840", "is_disabled": 0, "rental_uris": {"android": "https://dc.lft.to/lastmile_qr_scan", "ios": "https://dc.lft.to/lastmile_qr_scan"}, "fusion_lon": 0.0, "lat": 38.911186666666666, "bike_id": "b1fc5dbc239f73767daa6aa15280f840", "type": "electric_scooter", "is_reserved": 0, "lon": -77.038329}, {"fusion_lat": 0.0, "name": "03b583a6aef7d6135d9bdae0faa1945b", "is_disabled": 0, "rental_uris": {"android": "https://dc.lft.to/lastmile_qr_scan", "ios": "https://dc.lft.to/lastmile_qr_scan"}, "fusion_lon": 0.0, "lat": 38.90033916666667, "bike_id": "03b583a6aef7d6135d9bdae0faa1945b", "type": "electric_bike", "is_reserved": 0, "lon": -76.97220983333334}, {"fusion_lat": 0.0, "name": "c9a30f6000726057d6b3e917613a3ced", "is_disabled": 0, "rental_uris": {"android": "https://dc.lft.to/lastmile_qr_scan", "ios": "https://dc.lft.to/lastmile_qr_scan"}, "fusion_lon": 0.0, "lat": 38.922566833333335, "bike_id": "c9a30f6000726057d6b3e917613a3ced", "type": "electric_scooter", "is_reserved": 0, "lon": -77.009168}, {"fusion_lat": 0.0, "name": "9977920ed5051069eef7ddd6087b2356", "is_disabled": 0, "rental_uris": {"android": "https://dc.lft.to/lastmile_qr_scan", "ios": "https://dc.lft.to/lastmile_qr_scan"}, "fusion_lon": 0.0, "lat": 38.929599333333336, "bike_id": "9977920ed5051069eef7ddd6087b2356", "type": "electric_scooter", "is_reserved": 0, "lon": -76.99174983333333}, {"fusion_lat": 0.0, "name": "d8d27d66bdafb9f7516e8dcfec3c9cca", "is_disabled": 0, "rental_uris": {"android": "https://dc.lft.to/lastmile_qr_scan", "ios": "https://dc.lft.to/lastmile_qr_scan"}, "fusion_lon": 0.0, "lat": 38.90524883333333, "bike_id": "d8d27d66bdafb9f7516e8dcfec3c9cca", "type": "electric_scooter", "is_reserved": 0, "lon": -77.029554}, {"fusion_lat": 0.0, "name": "8e8dc251223d8d8d8c67943db46ce7d8", "is_disabled": 0, "rental_uris": {"android": "https://dc.lft.to/lastmile_qr_scan", "ios": "https://dc.lft.to/lastmile_qr_scan"}, "fusion_lon": 0.0, "lat": 38.907785833333335, "bike_id": "8e8dc251223d8d8d8c67943db46ce7d8", "type": "electric_scooter", "is_reserved": 0, "lon": -77.03845333333334}, {"fusion_lat": 0.0, "name": "4bcfa516d7e6eb116c35d8e0b9bbcfe7", "is_disabled": 0, "rental_uris": {"android": "https://dc.lft.to/lastmile_qr_scan", "ios": "https://dc.lft.to/lastmile_qr_scan"}, "fusion_lon": 0.0, "lat": 38.938637666666665, "bike_id": "4bcfa516d7e6eb116c35d8e0b9bbcfe7", "type": "electric_scooter", "is_reserved": 0, "lon": -77.02554916666666}, {"fusion_lat": 0.0, "name": "5d6acb6972b1f5ccfe93067810cbdd2b", "is_disabled": 0, "rental_uris": {"android": "https://dc.lft.to/lastmile_qr_scan", "ios": "https://dc.lft.to/lastmile_qr_scan"}, "fusion_lon": 0.0, "lat": 38.90561683333333, "bike_id": "5d6acb6972b1f5ccfe93067810cbdd2b", "type": "electric_scooter", "is_reserved": 0, "lon": -77.0344875}, {"fusion_lat": 0.0, "name": "29a7049796d406ba93bce34f16dbb6e6", "is_disabled": 0, "rental_uris": {"android": "https://dc.lft.to/lastmile_qr_scan", "ios": "https://dc.lft.to/lastmile_qr_scan"}, "fusion_lon": 0.0, "lat": 38.90774566666666, "bike_id": "29a7049796d406ba93bce34f16dbb6e6", "type": "electric_scooter", "is_reserved": 0, "lon": -77.03847966666666}, {"fusion_lat": 0.0, "name": "ec2d9b1e0eb0a1d98aaf87b0a3f81ab9", "is_disabled": 0, "rental_uris": {"android": "https://dc.lft.to/lastmile_qr_scan", "ios": "https://dc.lft.to/lastmile_qr_scan"}, "fusion_lon": 0.0, "lat": 38.904096, "bike_id": "ec2d9b1e0eb0a1d98aaf87b0a3f81ab9", "type": "electric_scooter", "is_reserved": 0, "lon": -77.04868833333333}, {"fusion_lat": 0.0, "name": "3cdf1e7baae2e585ad79fa68e2cd8ae5", "is_disabled": 0, "rental_uris": {"android": "https://dc.lft.to/lastmile_qr_scan", "ios": "https://dc.lft.to/lastmile_qr_scan"}, "fusion_lon": 0.0, "lat": 38.92474516666667, "bike_id": "3cdf1e7baae2e585ad79fa68e2cd8ae5", "type": "electric_scooter", "is_reserved": 0, "lon": -77.02212516666667}, {"fusion_lat": 0.0, "name": "df69bfeac675ad51fb66eaecf6f8e09b", "is_disabled": 0, "rental_uris": {"android": "https://dc.lft.to/lastmile_qr_scan", "ios": "https://dc.lft.to/lastmile_qr_scan"}, "fusion_lon": 0.0, "lat": 38.89218, "bike_id": "df69bfeac675ad51fb66eaecf6f8e09b", "type": "electric_scooter", "is_reserved": 0, "lon": -77.02007133333333}, {"fusion_lat": 0.0, "name": "4b475ed1a9cb50d15c8a461f2930484d", "is_disabled": 0, "rental_uris": {"android": "https://dc.lft.to/lastmile_qr_scan", "ios": "https://dc.lft.to/lastmile_qr_scan"}, "fusion_lon": 0.0, "lat": 38.832067333333335, "bike_id": "4b475ed1a9cb50d15c8a461f2930484d", "type": "electric_bike", "is_reserved": 0, "lon": -76.9967355}, {"fusion_lat": 0.0, "name": "8ce4a20599be87c028c749e01a03f967", "is_disabled": 0, "rental_uris": {"android": "https://dc.lft.to/lastmile_qr_scan", "ios": "https://dc.lft.to/lastmile_qr_scan"}, "fusion_lon": 0.0, "lat": 38.911525, "bike_id": "8ce4a20599be87c028c749e01a03f967", "type": "electric_scooter", "is_reserved": 0, "lon": -76.996941}, {"fusion_lat": 0.0, "name": "dfbfb592c41361b62657393b754327bd", "is_disabled": 0, "rental_uris": {"android": "https://dc.lft.to/lastmile_qr_scan", "ios": "https://dc.lft.to/lastmile_qr_scan"}, "fusion_lon": 0.0, "lat": 38.93174233333333, "bike_id": "dfbfb592c41361b62657393b754327bd", "type": "electric_scooter", "is_reserved": 0, "lon": -77.0377515}, {"fusion_lat": 0.0, "name": "e2cef728235ef150f3f876c384ca115e", "is_disabled": 0, "rental_uris": {"android": "https://dc.lft.to/lastmile_qr_scan", "ios": "https://dc.lft.to/lastmile_qr_scan"}, "fusion_lon": 0.0, "lat": 38.96678933333333, "bike_id": "e2cef728235ef150f3f876c384ca115e", "type": "electric_bike", "is_reserved": 0, "lon": -77.02302216666666}, {"fusion_lat": 0.0, "name": "db832d11594a059c8bf3ea4262e37a38", "is_disabled": 0, "rental_uris": {"android": "https://dc.lft.to/lastmile_qr_scan", "ios": "https://dc.lft.to/lastmile_qr_scan"}, "fusion_lon": 0.0, "lat": 38.88540316666667, "bike_id": "db832d11594a059c8bf3ea4262e37a38", "type": "electric_scooter", "is_reserved": 0, "lon": -77.01490866666667}, {"fusion_lat": 0.0, "name": "a421dbc0ad7f587d1f062323e76cbcc1", "is_disabled": 0, "rental_uris": {"android": "https://dc.lft.to/lastmile_qr_scan", "ios": "https://dc.lft.to/lastmile_qr_scan"}, "fusion_lon": 0.0, "lat": 38.906516833333335, "bike_id": "a421dbc0ad7f587d1f062323e76cbcc1", "type": "electric_scooter", "is_reserved": 0, "lon": -77.01135583333334}, {"fusion_lat": 0.0, "name": "88f3981f865b5ad87273fcb4ad0f4e61", "is_disabled": 0, "rental_uris": {"android": "https://dc.lft.to/lastmile_qr_scan", "ios": "https://dc.lft.to/lastmile_qr_scan"}, "fusion_lon": 0.0, "lat": 38.89222, "bike_id": "88f3981f865b5ad87273fcb4ad0f4e61", "type": "electric_scooter", "is_reserved": 0, "lon": -77.03214583333333}, {"fusion_lat": 0.0, "name": "f223c07fb789fbe193237faba2e72218", "is_disabled": 0, "rental_uris": {"android": "https://dc.lft.to/lastmile_qr_scan", "ios": "https://dc.lft.to/lastmile_qr_scan"}, "fusion_lon": 0.0, "lat": 38.92296433333333, "bike_id": "f223c07fb789fbe193237faba2e72218", "type": "electric_scooter", "is_reserved": 0, "lon": -77.029531}, {"fusion_lat": 0.0, "name": "acbd5419c55d18ca2c806d594a57aade", "is_disabled": 0, "rental_uris": {"android": "https://dc.lft.to/lastmile_qr_scan", "ios": "https://dc.lft.to/lastmile_qr_scan"}, "fusion_lon": 0.0, "lat": 38.934605, "bike_id": "acbd5419c55d18ca2c806d594a57aade", "type": "electric_scooter", "is_reserved": 0, "lon": -77.072617}, {"fusion_lat": 0.0, "name": "14c68c32f2a75080bd4ea5170a7e734b", "is_disabled": 0, "rental_uris": {"android": "https://dc.lft.to/lastmile_qr_scan", "ios": "https://dc.lft.to/lastmile_qr_scan"}, "fusion_lon": 0.0, "lat": 38.916099333333335, "bike_id": "14c68c32f2a75080bd4ea5170a7e734b", "type": "electric_scooter", "is_reserved": 0, "lon": -77.02952416666666}, {"fusion_lat": 0.0, "name": "38cc19e2bca1ca17be6a240817f89dd5", "is_disabled": 0, "rental_uris": {"android": "https://dc.lft.to/lastmile_qr_scan", "ios": "https://dc.lft.to/lastmile_qr_scan"}, "fusion_lon": 0.0, "lat": 38.928657333333334, "bike_id": "38cc19e2bca1ca17be6a240817f89dd5", "type": "electric_scooter", "is_reserved": 0, "lon": -77.03517183333334}, {"fusion_lat": 0.0, "name": "bbe2f1fb002d30010bf6a4f0cb30aeb9", "is_disabled": 0, "rental_uris": {"android": "https://dc.lft.to/lastmile_qr_scan", "ios": "https://dc.lft.to/lastmile_qr_scan"}, "fusion_lon": 0.0, "lat": 38.89991633333333, "bike_id": "bbe2f1fb002d30010bf6a4f0cb30aeb9", "type": "electric_scooter", "is_reserved": 0, "lon": -77.00632333333333}, {"fusion_lat": 0.0, "name": "fccf64a7116016b13100c798b10d876f", "is_disabled": 0, "rental_uris": {"android": "https://dc.lft.to/lastmile_qr_scan", "ios": "https://dc.lft.to/lastmile_qr_scan"}, "fusion_lon": 0.0, "lat": 38.9042605, "bike_id": "fccf64a7116016b13100c798b10d876f", "type": "electric_scooter", "is_reserved": 0, "lon": -76.94973583333334}, {"fusion_lat": 0.0, "name": "fea4aa11ad4b8f47a470700cffa36851", "is_disabled": 0, "rental_uris": {"android": "https://dc.lft.to/lastmile_qr_scan", "ios": "https://dc.lft.to/lastmile_qr_scan"}, "fusion_lon": 0.0, "lat": 38.92392683333333, "bike_id": "fea4aa11ad4b8f47a470700cffa36851", "type": "electric_scooter", "is_reserved": 0, "lon": -77.04288683333333}, {"fusion_lat": 0.0, "name": "5615f48e21a03a41bd9f98a045f5b818", "is_disabled": 0, "rental_uris": {"android": "https://dc.lft.to/lastmile_qr_scan", "ios": "https://dc.lft.to/lastmile_qr_scan"}, "fusion_lon": 0.0, "lat": 38.897081666666665, "bike_id": "5615f48e21a03a41bd9f98a045f5b818", "type": "electric_scooter", "is_reserved": 0, "lon": -77.013195}, {"fusion_lat": 0.0, "name": "d526d5be2b8eb6b48ba8cc4c9cbf243f", "is_disabled": 0, "rental_uris": {"android": "https://dc.lft.to/lastmile_qr_scan", "ios": "https://dc.lft.to/lastmile_qr_scan"}, "fusion_lon": 0.0, "lat": 38.900324499999996, "bike_id": "d526d5be2b8eb6b48ba8cc4c9cbf243f", "type": "electric_scooter", "is_reserved": 0, "lon": -77.0020825}, {"fusion_lat": 0.0, "name": "134aaab5c08efa66516a95699e2823e1", "is_disabled": 0, "rental_uris": {"android": "https://dc.lft.to/lastmile_qr_scan", "ios": "https://dc.lft.to/lastmile_qr_scan"}, "fusion_lon": 0.0, "lat": 38.92739616666667, "bike_id": "134aaab5c08efa66516a95699e2823e1", "type": "electric_scooter", "is_reserved": 0, "lon": -77.034227}, {"fusion_lat": 0.0, "name": "b39bc833807ef5e207046d862fbde5ea", "is_disabled": 0, "rental_uris": {"android": "https://dc.lft.to/lastmile_qr_scan", "ios": "https://dc.lft.to/lastmile_qr_scan"}, "fusion_lon": 0.0, "lat": 38.904121333333336, "bike_id": "b39bc833807ef5e207046d862fbde5ea", "type": "electric_scooter", "is_reserved": 0, "lon": -76.97333666666667}, {"fusion_lat": 0.0, "name": "27e32ce668ff6dcf3a984c42239b7f9f", "is_disabled": 0, "rental_uris": {"android": "https://dc.lft.to/lastmile_qr_scan", "ios": "https://dc.lft.to/lastmile_qr_scan"}, "fusion_lon": 0.0, "lat": 38.896997166666665, "bike_id": "27e32ce668ff6dcf3a984c42239b7f9f", "type": "electric_scooter", "is_reserved": 0, "lon": -77.02977733333333}, {"fusion_lat": 0.0, "name": "ea96afacecbc908e620ca4403b9511ec", "is_disabled": 0, "rental_uris": {"android": "https://dc.lft.to/lastmile_qr_scan", "ios": "https://dc.lft.to/lastmile_qr_scan"}, "fusion_lon": 0.0, "lat": 38.88703983333333, "bike_id": "ea96afacecbc908e620ca4403b9511ec", "type": "electric_scooter", "is_reserved": 0, "lon": -77.00250933333334}, {"fusion_lat": 0.0, "name": "9e014b0ebffcac57e8a75d01d4c95e61", "is_disabled": 0, "rental_uris": {"android": "https://dc.lft.to/lastmile_qr_scan", "ios": "https://dc.lft.to/lastmile_qr_scan"}, "fusion_lon": 0.0, "lat": 38.90205316666667, "bike_id": "9e014b0ebffcac57e8a75d01d4c95e61", "type": "electric_scooter", "is_reserved": 0, "lon": -77.02307383333333}, {"fusion_lat": 0.0, "name": "6cb3ace5199eda2b4d525550ee6eca14", "is_disabled": 0, "rental_uris": {"android": "https://dc.lft.to/lastmile_qr_scan", "ios": "https://dc.lft.to/lastmile_qr_scan"}, "fusion_lon": 0.0, "lat": 38.896545, "bike_id": "6cb3ace5199eda2b4d525550ee6eca14", "type": "electric_scooter", "is_reserved": 0, "lon": -77.0513575}, {"fusion_lat": 0.0, "name": "9ad78d26e4dd526987c1fb3a6e2b9b7f", "is_disabled": 0, "rental_uris": {"android": "https://dc.lft.to/lastmile_qr_scan", "ios": "https://dc.lft.to/lastmile_qr_scan"}, "fusion_lon": 0.0, "lat": 38.9012035, "bike_id": "9ad78d26e4dd526987c1fb3a6e2b9b7f", "type": "electric_scooter", "is_reserved": 0, "lon": -77.052344}, {"fusion_lat": 0.0, "name": "935334c69970dd8a29505436541b55ad", "is_disabled": 0, "rental_uris": {"android": "https://dc.lft.to/lastmile_qr_scan", "ios": "https://dc.lft.to/lastmile_qr_scan"}, "fusion_lon": 0.0, "lat": 38.89833216666667, "bike_id": "935334c69970dd8a29505436541b55ad", "type": "electric_scooter", "is_reserved": 0, "lon": -76.94625316666666}, {"fusion_lat": 0.0, "name": "e772505cb51d3a66349516a8aaf03771", "is_disabled": 0, "rental_uris": {"android": "https://dc.lft.to/lastmile_qr_scan", "ios": "https://dc.lft.to/lastmile_qr_scan"}, "fusion_lon": 0.0, "lat": 38.896118666666666, "bike_id": "e772505cb51d3a66349516a8aaf03771", "type": "electric_scooter", "is_reserved": 0, "lon": -76.94814483333333}, {"fusion_lat": 0.0, "name": "3a7fd831bfda198ddcbb7f1e2ce41114", "is_disabled": 0, "rental_uris": {"android": "https://dc.lft.to/lastmile_qr_scan", "ios": "https://dc.lft.to/lastmile_qr_scan"}, "fusion_lon": 0.0, "lat": 38.877498833333334, "bike_id": "3a7fd831bfda198ddcbb7f1e2ce41114", "type": "electric_scooter", "is_reserved": 0, "lon": -77.0142415}, {"fusion_lat": 0.0, "name": "12e08b25c33eb99183b2ede22c85571e", "is_disabled": 0, "rental_uris": {"android": "https://dc.lft.to/lastmile_qr_scan", "ios": "https://dc.lft.to/lastmile_qr_scan"}, "fusion_lon": 0.0, "lat": 38.87954116666667, "bike_id": "12e08b25c33eb99183b2ede22c85571e", "type": "electric_scooter", "is_reserved": 0, "lon": -76.99013516666666}, {"fusion_lat": 0.0, "name": "458486ac8c89cb8832ecb9c0a52a5a05", "is_disabled": 0, "rental_uris": {"android": "https://dc.lft.to/lastmile_qr_scan", "ios": "https://dc.lft.to/lastmile_qr_scan"}, "fusion_lon": 0.0, "lat": 38.88332783333333, "bike_id": "458486ac8c89cb8832ecb9c0a52a5a05", "type": "electric_scooter", "is_reserved": 0, "lon": -77.0177055}, {"fusion_lat": 0.0, "name": "52e10d4be5fefc230114d67d22f1151d", "is_disabled": 0, "rental_uris": {"android": "https://dc.lft.to/lastmile_qr_scan", "ios": "https://dc.lft.to/lastmile_qr_scan"}, "fusion_lon": 0.0, "lat": 38.82180133333333, "bike_id": "52e10d4be5fefc230114d67d22f1151d", "type": "electric_bike", "is_reserved": 0, "lon": -76.995107}, {"fusion_lat": 0.0, "name": "a7cc92ba8227c80c37b33662b7a7232e", "is_disabled": 0, "rental_uris": {"android": "https://dc.lft.to/lastmile_qr_scan", "ios": "https://dc.lft.to/lastmile_qr_scan"}, "fusion_lon": 0.0, "lat": 38.8900285, "bike_id": "a7cc92ba8227c80c37b33662b7a7232e", "type": "electric_scooter", "is_reserved": 0, "lon": -76.93740533333333}, {"fusion_lat": 0.0, "name": "4cd07025b4bf674b3eba7ad4eddd7971", "is_disabled": 0, "rental_uris": {"android": "https://dc.lft.to/lastmile_qr_scan", "ios": "https://dc.lft.to/lastmile_qr_scan"}, "fusion_lon": 0.0, "lat": 38.9260535, "bike_id": "4cd07025b4bf674b3eba7ad4eddd7971", "type": "electric_scooter", "is_reserved": 0, "lon": -77.02152216666667}, {"fusion_lat": 0.0, "name": "6a7cc2e7dfd617f6b889c281acee7276", "is_disabled": 0, "rental_uris": {"android": "https://dc.lft.to/lastmile_qr_scan", "ios": "https://dc.lft.to/lastmile_qr_scan"}, "fusion_lon": 0.0, "lat": 38.91661233333333, "bike_id": "6a7cc2e7dfd617f6b889c281acee7276", "type": "electric_scooter", "is_reserved": 0, "lon": -77.02818583333334}, {"fusion_lat": 0.0, "name": "fdb58ae6000d9436221ebe4bba59c95e", "is_disabled": 0, "rental_uris": {"android": "https://dc.lft.to/lastmile_qr_scan", "ios": "https://dc.lft.to/lastmile_qr_scan"}, "fusion_lon": 0.0, "lat": 38.87686016666667, "bike_id": "fdb58ae6000d9436221ebe4bba59c95e", "type": "electric_scooter", "is_reserved": 0, "lon": -77.01754633333333}, {"fusion_lat": 0.0, "name": "6b68023a54fd7727997e395e9f3ebf17", "is_disabled": 0, "rental_uris": {"android": "https://dc.lft.to/lastmile_qr_scan", "ios": "https://dc.lft.to/lastmile_qr_scan"}, "fusion_lon": 0.0, "lat": 38.93264083333333, "bike_id": "6b68023a54fd7727997e395e9f3ebf17", "type": "electric_scooter", "is_reserved": 0, "lon": -77.02089733333334}, {"fusion_lat": 0.0, "name": "6d9ef48dd56f4bb2e14bf233a70a5cf3", "is_disabled": 0, "rental_uris": {"android": "https://dc.lft.to/lastmile_qr_scan", "ios": "https://dc.lft.to/lastmile_qr_scan"}, "fusion_lon": 0.0, "lat": 38.908967, "bike_id": "6d9ef48dd56f4bb2e14bf233a70a5cf3", "type": "electric_bike", "is_reserved": 0, "lon": -77.032065}, {"fusion_lat": 0.0, "name": "4c243c5475ff91dec8fd1d831ae63e56", "is_disabled": 0, "rental_uris": {"android": "https://dc.lft.to/lastmile_qr_scan", "ios": "https://dc.lft.to/lastmile_qr_scan"}, "fusion_lon": 0.0, "lat": 38.92087083333333, "bike_id": "4c243c5475ff91dec8fd1d831ae63e56", "type": "electric_scooter", "is_reserved": 0, "lon": -76.994571}, {"fusion_lat": 0.0, "name": "7b4339b80d2498d1988fcaf5d4029670", "is_disabled": 0, "rental_uris": {"android": "https://dc.lft.to/lastmile_qr_scan", "ios": "https://dc.lft.to/lastmile_qr_scan"}, "fusion_lon": 0.0, "lat": 38.80449516666667, "bike_id": "7b4339b80d2498d1988fcaf5d4029670", "type": "electric_bike", "is_reserved": 0, "lon": -77.05380683333334}, {"fusion_lat": 0.0, "name": "f59e3361cc5a99533fc3954cc0de7644", "is_disabled": 0, "rental_uris": {"android": "https://dc.lft.to/lastmile_qr_scan", "ios": "https://dc.lft.to/lastmile_qr_scan"}, "fusion_lon": 0.0, "lat": 38.89734133333333, "bike_id": "f59e3361cc5a99533fc3954cc0de7644", "type": "electric_scooter", "is_reserved": 0, "lon": -77.04618166666667}, {"fusion_lat": 0.0, "name": "457802d3a020c4a7e3447c87507221e5", "is_disabled": 0, "rental_uris": {"android": "https://dc.lft.to/lastmile_qr_scan", "ios": "https://dc.lft.to/lastmile_qr_scan"}, "fusion_lon": 0.0, "lat": 38.91491583333333, "bike_id": "457802d3a020c4a7e3447c87507221e5", "type": "electric_scooter", "is_reserved": 0, "lon": -77.045597}, {"fusion_lat": 0.0, "name": "3e5c2768cdf3634a654adad66be3b446", "is_disabled": 0, "rental_uris": {"android": "https://dc.lft.to/lastmile_qr_scan", "ios": "https://dc.lft.to/lastmile_qr_scan"}, "fusion_lon": 0.0, "lat": 38.94293166666667, "bike_id": "3e5c2768cdf3634a654adad66be3b446", "type": "electric_scooter", "is_reserved": 0, "lon": -77.02171583333333}, {"fusion_lat": 0.0, "name": "019eac4815a2cb4f99b7412f1347c14c", "is_disabled": 0, "rental_uris": {"android": "https://dc.lft.to/lastmile_qr_scan", "ios": "https://dc.lft.to/lastmile_qr_scan"}, "fusion_lon": 0.0, "lat": 38.90036116666667, "bike_id": "019eac4815a2cb4f99b7412f1347c14c", "type": "electric_scooter", "is_reserved": 0, "lon": -76.99255816666667}, {"fusion_lat": 0.0, "name": "9d3d2b89c9ac61a5ca66d830487424ea", "is_disabled": 0, "rental_uris": {"android": "https://dc.lft.to/lastmile_qr_scan", "ios": "https://dc.lft.to/lastmile_qr_scan"}, "fusion_lon": 0.0, "lat": 38.90503266666666, "bike_id": "9d3d2b89c9ac61a5ca66d830487424ea", "type": "electric_scooter", "is_reserved": 0, "lon": -76.97955016666667}, {"fusion_lat": 0.0, "name": "2410bdec68e69669ccc66750217cecea", "is_disabled": 0, "rental_uris": {"android": "https://dc.lft.to/lastmile_qr_scan", "ios": "https://dc.lft.to/lastmile_qr_scan"}, "fusion_lon": 0.0, "lat": 38.907363, "bike_id": "2410bdec68e69669ccc66750217cecea", "type": "electric_scooter", "is_reserved": 0, "lon": -77.03449266666667}, {"fusion_lat": 0.0, "name": "36db90ae070388136d1933d976904777", "is_disabled": 0, "rental_uris": {"android": "https://dc.lft.to/lastmile_qr_scan", "ios": "https://dc.lft.to/lastmile_qr_scan"}, "fusion_lon": 0.0, "lat": 38.92070833333333, "bike_id": "36db90ae070388136d1933d976904777", "type": "electric_scooter", "is_reserved": 0, "lon": -77.02384683333334}, {"fusion_lat": 0.0, "name": "572101c3b2e8fcc2ccb1310c20721b4f", "is_disabled": 0, "rental_uris": {"android": "https://dc.lft.to/lastmile_qr_scan", "ios": "https://dc.lft.to/lastmile_qr_scan"}, "fusion_lon": 0.0, "lat": 38.9117275, "bike_id": "572101c3b2e8fcc2ccb1310c20721b4f", "type": "electric_scooter", "is_reserved": 0, "lon": -77.06860533333334}, {"fusion_lat": 0.0, "name": "19478d4a1c903dfa59e205cada6352cd", "is_disabled": 0, "rental_uris": {"android": "https://dc.lft.to/lastmile_qr_scan", "ios": "https://dc.lft.to/lastmile_qr_scan"}, "fusion_lon": 0.0, "lat": 38.861486666666664, "bike_id": "19478d4a1c903dfa59e205cada6352cd", "type": "electric_bike", "is_reserved": 0, "lon": -76.97167816666666}, {"fusion_lat": 0.0, "name": "7abcb5aa4752386b381e60611b2238b9", "is_disabled": 0, "rental_uris": {"android": "https://dc.lft.to/lastmile_qr_scan", "ios": "https://dc.lft.to/lastmile_qr_scan"}, "fusion_lon": 0.0, "lat": 38.926515, "bike_id": "7abcb5aa4752386b381e60611b2238b9", "type": "electric_scooter", "is_reserved": 0, "lon": -77.0242445}, {"fusion_lat": 0.0, "name": "1706d0c856638e696616ca581083616d", "is_disabled": 0, "rental_uris": {"android": "https://dc.lft.to/lastmile_qr_scan", "ios": "https://dc.lft.to/lastmile_qr_scan"}, "fusion_lon": 0.0, "lat": 38.94187683333333, "bike_id": "1706d0c856638e696616ca581083616d", "type": "electric_scooter", "is_reserved": 0, "lon": -77.02400033333333}, {"fusion_lat": 0.0, "name": "932466ed6fbb8ef2657288fdb610e6ae", "is_disabled": 0, "rental_uris": {"android": "https://dc.lft.to/lastmile_qr_scan", "ios": "https://dc.lft.to/lastmile_qr_scan"}, "fusion_lon": 0.0, "lat": 38.8989865, "bike_id": "932466ed6fbb8ef2657288fdb610e6ae", "type": "electric_scooter", "is_reserved": 0, "lon": -76.976107}, {"fusion_lat": 0.0, "name": "b2ae13f3169baa0202609bf456db1591", "is_disabled": 0, "rental_uris": {"android": "https://dc.lft.to/lastmile_qr_scan", "ios": "https://dc.lft.to/lastmile_qr_scan"}, "fusion_lon": 0.0, "lat": 38.96603416666667, "bike_id": "b2ae13f3169baa0202609bf456db1591", "type": "electric_bike", "is_reserved": 0, "lon": -77.02802333333334}, {"fusion_lat": 0.0, "name": "cc3d2a336adbb283f95b8342d53d0dea", "is_disabled": 0, "rental_uris": {"android": "https://dc.lft.to/lastmile_qr_scan", "ios": "https://dc.lft.to/lastmile_qr_scan"}, "fusion_lon": 0.0, "lat": 38.932798, "bike_id": "cc3d2a336adbb283f95b8342d53d0dea", "type": "electric_scooter", "is_reserved": 0, "lon": -77.04080633333334}, {"fusion_lat": 0.0, "name": "442102cf5d5fedc78b7f783617d2412f", "is_disabled": 0, "rental_uris": {"android": "https://dc.lft.to/lastmile_qr_scan", "ios": "https://dc.lft.to/lastmile_qr_scan"}, "fusion_lon": 0.0, "lat": 38.950541333333334, "bike_id": "442102cf5d5fedc78b7f783617d2412f", "type": "electric_scooter", "is_reserved": 0, "lon": -77.080239}, {"fusion_lat": 0.0, "name": "3386d7ec5a604484083c53b0331905ce", "is_disabled": 0, "rental_uris": {"android": "https://dc.lft.to/lastmile_qr_scan", "ios": "https://dc.lft.to/lastmile_qr_scan"}, "fusion_lon": 0.0, "lat": 38.866306, "bike_id": "3386d7ec5a604484083c53b0331905ce", "type": "electric_scooter", "is_reserved": 0, "lon": -76.98717966666666}, {"fusion_lat": 0.0, "name": "743806952b72ab18f708cb5e61904c02", "is_disabled": 0, "rental_uris": {"android": "https://dc.lft.to/lastmile_qr_scan", "ios": "https://dc.lft.to/lastmile_qr_scan"}, "fusion_lon": 0.0, "lat": 38.903111833333334, "bike_id": "743806952b72ab18f708cb5e61904c02", "type": "electric_scooter", "is_reserved": 0, "lon": -77.06004583333333}, {"fusion_lat": 0.0, "name": "ace58493889ede49e825419c4feb006a", "is_disabled": 0, "rental_uris": {"android": "https://dc.lft.to/lastmile_qr_scan", "ios": "https://dc.lft.to/lastmile_qr_scan"}, "fusion_lon": 0.0, "lat": 38.909772333333336, "bike_id": "ace58493889ede49e825419c4feb006a", "type": "electric_scooter", "is_reserved": 0, "lon": -77.026921}, {"fusion_lat": 0.0, "name": "daef57ac833d7eb973eff6cee030e848", "is_disabled": 0, "rental_uris": {"android": "https://dc.lft.to/lastmile_qr_scan", "ios": "https://dc.lft.to/lastmile_qr_scan"}, "fusion_lon": 0.0, "lat": 38.89793266666667, "bike_id": "daef57ac833d7eb973eff6cee030e848", "type": "electric_bike", "is_reserved": 0, "lon": -76.99952783333333},