{"data": {"bikes": [{"fusion_lat": 0.0, "name": "737acf54519ce8aa78935424db18dd45", "is_disabled": 0, "rental_uris": {"android": "https://dc.lft.to/lastmile_qr_scan", "ios": "https://dc.lft.to/lastmile_qr_scan"}, "fusion_lon": 0.0, "lat": 38.873771833333336, "bike_id": "737acf54519ce8aa78935424db18dd45", "type": "electric_scooter", "is_reserved": 0, "lon": -77.0003525}, {"fusion_lat": 0.0, "name": "7f144904420c039e2c5ab19315a2e41c", "is_disabled": 0, "rental_uris": {"android": "https://dc.lft.to/lastmile_qr_scan", "ios": "https://dc.lft.to/lastmile_qr_scan"}, "fusion_lon": 0.0, "lat": 38.9130335, "bike_id": "7f144904420c039e2c5ab19315a2e41c", "type": "electric_scooter", "is_reserved": 0, "lon": -77.048746}, {"fusion_lat": 0.0, "name": "385618e714382adbb9b4dafe85fee345", "is_disabled": 0, "rental_uris": {"android": "https://dc.lft.to/lastmile_qr_scan", "ios": "https://dc.lft.to/lastmile_qr_scan"}, "fusion_lon": 0.0, "lat": 38.819466166666665, "bike_id": "385618e714382adbb9b4dafe85fee345", "type": "electric_bike", "is_reserved": 0, "lon": -77.12720133333333}, {"fusion_lat": 0.0, "name": "4557034f3cf4b8323f2e3823ddebc686", "is_disabled": 0, "rental_uris": {"android": "https://dc.lft.to/lastmile_qr_scan", "ios": "https://dc.lft.to/lastmile_qr_scan"}, "fusion_lon": 0.0, "lat": 38.9032505, "bike_id": "4557034f3cf4b8323f2e3823ddebc686", "type": "electric_scooter", "is_reserved": 0, "lon": -77.04508783333333}, {"fusion_lat": 0.0, "name": "a8c7898c3606470d1d910a44846b9201", "is_disabled": 0, "rental_uris": {"android": "https://dc.lft.to/lastmile_qr_scan", "ios": "https://dc.lft.to/lastmile_qr_scan"}, "fusion_lon": 0.0, "lat": 38.90714033333333, "bike_id": "a8c7898c3606470d1d910a44846b9201", "type": "electric_scooter", "is_reserved": 0, "lon": -77.04165533333334}, {"fusion_lat": 0.0, "name": "16c562cb2a06187eea75dbba73f7cd95", "is_disabled": 0, "rental_uris": {"android": "https://dc.lft.to/lastmile_qr_scan", "ios": "https://dc.lft.to/lastmile_qr_scan"}, "fusion_lon": 0.0, "lat": 38.92495233333333, "bike_id": "16c562cb2a06187eea75dbba73f7cd95", "type": "electric_scooter", "is_reserved": 0, "lon": -76.98540366666667}, {"fusion_lat": 0.0, "name": "40fba030d57d74b67ac56ce0d09d0bd4", "is_disabled": 0, "rental_uris": {"android": "https://dc.lft.to/lastmile_qr_scan", "ios": "https://dc.lft.to/lastmile_qr_scan"}, "fusion_lon": 0.0, "lat": 38.9071515, "bike_id": "40fba030d57d74b67ac56ce0d09d0bd4", "type": "electric_scooter", "is_reserved": 0, "lon": -77.034472}, {"fusion_lat": 0.0, "name": "25ed4e46b75c2c1c45110c8eb7122301", "is_disabled": 0, "rental_uris": {"android": "https://dc.lft.to/lastmile_qr_scan", "ios": "https://dc.lft.to/lastmile_qr_scan"}, "fusion_lon": 0.0, "lat": 38.91562483333333, "bike_id": "25ed4e46b75c2c1c45110c8eb7122301", "type": "electric_scooter", "is_reserved": 0, "lon": -77.0223145}, {"fusion_lat": 0.0, "name": "b458eab61080af0848835ddc1dd42a16", "is_disabled": 0, "rental_uris": {"android": "https://dc.lft.to/lastmile_qr_scan", "ios": "https://dc.lft.to/lastmile_qr_scan"}, "fusion_lon": 0.0, "lat": 38.878328333333336, "bike_id": "b458eab61080af0848835ddc1dd42a16", "type": "electric_scooter", "is_reserved": 0, "lon": -76.96321866666666}, {"fusion_lat": 0.0, "name": "7d3936dbcb270d3f1bbbd95c7f7b41c4", "is_disabled": 0, "rental_uris": {"android": "https://dc.lft.to/lastmile_qr_scan", "ios": "https://dc.lft.to/lastmile_qr_scan"}, "fusion_lon": 0.0, "lat": 38.9255515, "bike_id": "7d3936dbcb270d3f1bbbd95c7f7b41c4", "type": "electric_scooter", "is_reserved": 0, "lon": -77.077622}, {"fusion_lat": 0.0, "name": "a4fe7d4af7de77c4e2d8b96474e26894", "is_disabled": 0, "rental_uris": {"android": "https://dc.lft.to/lastmile_qr_scan", "ios": "https://dc.lft.to/lastmile_qr_scan"}, "fusion_lon": 0.0, "lat": 38.92057333333333, "bike_id": "a4fe7d4af7de77c4e2d8b96474e26894", "type": "electric_scooter", "is_reserved": 0, "lon": -77.03390783333333}, {"fusion_lat": 0.0, "name": "fca54c0b57c941e3b3b93f3203f4649f", "is_disabled": 0, "rental_uris": {"android": "https://dc.lft.to/lastmile_qr_scan", "ios": "https://dc.lft.to/lastmile_qr_scan"}, "fusion_lon": 0.0, "lat": 38.921004833333335, "bike_id": "fca54c0b57c941e3b3b93f3203f4649f", "type": "electric_scooter", "is_reserved": 0, "lon": -77.04694083333334}, {"fusion_lat": 0.0, "name": "2b9f8ba485eb32b824f1047a8f470800", "is_disabled": 0, "rental_uris": {"android": "https://dc.lft.to/lastmile_qr_scan", "ios": "https://dc.lft.to/lastmile_qr_scan"}, "fusion_lon": 0.0, "lat": 38.95632116666667, "bike_id": "2b9f8ba485eb32b824f1047a8f470800", "type": "electric_scooter", "is_reserved": 0, "lon": -77.02415233333333}, {"fusion_lat": 0.0, "name": "5bf3f975e19e7706d9ed8ae5daff4903", "is_disabled": 0, "rental_uris": {"android": "https://dc.lft.to/lastmile_qr_scan", "ios": "https://dc.lft.to/lastmile_qr_scan"}, "fusion_lon": 0.0, "lat": 38.90562466666667, "bike_id": "5bf3f975e19e7706d9ed8ae5daff4903", "type": "electric_scooter", "is_reserved": 0, "lon": -77.03463616666667}, {"fusion_lat": 0.0, "name": "42be78027f82a30d539278e8ffd1d5af", "is_disabled": 0, "rental_uris": {"android": "https://dc.lft.to/lastmile_qr_scan", "ios": "https://dc.lft.to/lastmile_qr_scan"}, "fusion_lon": 0.0, "lat": 38.91773583333333, "bike_id": "42be78027f82a30d539278e8ffd1d5af", "type": "electric_scooter", "is_reserved": 0, "lon": -77.0358355}, {"fusion_lat": 0.0, "name": "912cc781ad5dd12f7427fed3f0937b73", "is_disabled": 0, "rental_uris": {"android": "https://dc.lft.to/lastmile_qr_scan", "ios": "https://dc.lft.to/lastmile_qr_scan"}, "fusion_lon": 0.0, "lat": 38.91254383333333, "bike_id": "912cc781ad5dd12f7427fed3f0937b73", "type": "electric_scooter", "is_reserved": 0, "lon": -77.01033983333333}, {"fusion_lat": 0.0, "name": "08cd5922a0e38395f316dece97430f57", "is_disabled": 0, "rental_uris": {"android": "https://dc.lft.to/lastmile_qr_scan", "ios": "https://dc.lft.to/lastmile_qr_scan"}, "fusion_lon": 0.0, "lat": 38.92838316666667, "bike_id": "08cd5922a0e38395f316dece97430f57", "type": "electric_scooter", "is_reserved": 0, "lon": -76.9934295}, {"fusion_lat": 0.0, "name": "95fe8970cb7e62c6b8d0d7e2dea626eb", "is_disabled": 0, "rental_uris": {"android": "https://dc.lft.to/lastmile_qr_scan", "ios": "https://dc.lft.to/lastmile_qr_scan"}, "fusion_lon": 0.0, "lat": 38.905166333333334, "bike_id": "95fe8970cb7e62c6b8d0d7e2dea626eb", "type": "electric_scooter", "is_reserved": 0, "lon": -77.0317395}, {"fusion_lat": 0.0, "name": "187b09960f98583414671714dc54dd8e", "is_disabled": 0, "rental_uris": {"android": "https://dc.lft.to/lastmile_qr_scan", "ios": "https://dc.lft.to/lastmile_qr_scan"}, "fusion_lon": 0.0, "lat": 38.93238566666667, "bike_id": "187b09960f98583414671714dc54dd8e", "type": "electric_scooter", "is_reserved": 0, "lon": -77.03850916666667}, {"fusion_lat": 0.0, "name": "4b73cdf99e53478e451650de04d0605b", "is_disabled": 0, "rental_uris": {"android": "https://dc.lft.to/lastmile_qr_scan", "ios": "https://dc.lft.to/lastmile_qr_scan"}, "fusion_lon": 0.0, "lat": 38.907625833333334, "bike_id": "4b73cdf99e53478e451650de04d0605b", "type": "electric_scooter", "is_reserved": 0, "lon": -77.00028516666667}, {"fusion_lat": 0.0, "name": "c5e68d48310fb04c1224493b11b22414", "is_disabled": 0, "rental_uris": {"android": "https://dc.lft.to/lastmile_qr_scan", "ios": "https://dc.lft.to/lastmile_qr_scan"}, "fusion_lon": 0.0, "lat": 38.937569333333336, "bike_id": "c5e68d48310fb04c1224493b11b22414", "type": "electric_bike", "is_reserved": 0, "lon": -76.958252}, {"fusion_lat": 0.0, "name": "4e244bb668ff149d5711b924ec755706", "is_disabled": 0, "rental_uris": {"android": "https://dc.lft.to/lastmile_qr_scan", "ios": "https://dc.lft.to/lastmile_qr_scan"}, "fusion_lon": 0.0, "lat": 38.932825666666666, "bike_id": "4e244bb668ff149d5711b924ec755706", "type": "electric_scooter", "is_reserved": 0, "lon": -77.0408185}, {"fusion_lat": 0.0, "name": "64e05132626ef5229f0fca222f9dde7a", "is_disabled": 0, "rental_uris": {"android": "https://dc.lft.to/lastmile_qr_scan", "ios": "https://dc.lft.to/lastmile_qr_scan"}, "fusion_lon": 0.0, "lat": 38.916327, "bike_id": "64e05132626ef5229f0fca222f9dde7a", "type": "electric_scooter", "is_reserved": 0, "lon": -77.010738}, {"fusion_lat": 0.0, "name": "d9f0c19a19ef96d1295bb80a157a6b49", "is_disabled": 0, "rental_uris": {"android": "https://dc.lft.to/lastmile_qr_scan", "ios": "https://dc.lft.to/lastmile_qr_scan"}, "fusion_lon": 0.0, "lat": 38.92550333333333, "bike_id": "d9f0c19a19ef96d1295bb80a157a6b49", "type": "electric_scooter", "is_reserved": 0, "lon": -77.035489}, {"fusion_lat": 0.0, "name": "7f86fe531b95bc11d6edd9422ae16786", "is_disabled": 0, "rental_uris": {"android": "https://dc.lft.to/lastmile_qr_scan", "ios": "https://dc.lft.to/lastmile_qr_scan"}, "fusion_lon": 0.0, "lat": 38.9026255, "bike_id": "7f86fe531b95bc11d6edd9422ae16786", "type": "electric_scooter", "is_reserved": 0, "lon": -77.0531515}, {"fusion_lat": 0.0, "name": "4f0c2c4a75082f435d1697d4479e9b75", "is_disabled": 0, "rental_uris": {"android": "https://dc.lft.to/lastmile_qr_scan", "ios": "https://dc.lft.to/lastmile_qr_scan"}, "fusion_lon": 0.0, "lat": 38.9550665, "bike_id": "4f0c2c4a75082f435d1697d4479e9b75", "type": "electric_scooter", "is_reserved": 0, "lon": -77.02836383333333}, {"fusion_lat": 0.0, "name": "2412e6a570d2988ed9899a54b1864258", "is_disabled": 0, "rental_uris": {"android": "https://dc.lft.to/lastmile_qr_scan", "ios": "https://dc.lft.to/lastmile_qr_scan"}, "fusion_lon": 0.0, "lat": 38.911064333333336, "bike_id": "2412e6a570d2988ed9899a54b1864258", "type": "electric_bike", "is_reserved": 0, "lon": -77.00260466666667}, {"fusion_lat": 0.0, "name": "4f78df3d09f46c90a1c68f4fa9a5b8fa", "is_disabled": 0, "rental_uris": {"android": "https://dc.lft.to/lastmile_qr_scan", "ios": "https://dc.lft.to/lastmile_qr_scan"}, "fusion_lon": 0.0, "lat": 38.925009333333335, "bike_id": "4f78df3d09f46c90a1c68f4fa9a5b8fa", "type": "electric_scooter", "is_reserved": 0, "lon": -77.05227633333334}, {"fusion_lat": 0.0, "name": "7b0f0e82c7cf764f78c0fb43cd2c2fd3", "is_disabled": 0, "rental_uris": {"android": "https://dc.lft.to/lastmile_qr_scan", "ios": "https://dc.lft.to/lastmile_qr_scan"}, "fusion_lon": 0.0, "lat": 38.890116166666665, "bike_id": "7b0f0e82c7cf764f78c0fb43cd2c2fd3", "type": "electric_scooter", "is_reserved": 0, "lon": -76.93733066666667}, {"fusion_lat": 0.0, "name": "151996ecaaece08546a5280e5464350b", "is_disabled": 0, "rental_uris": {"android": "https://dc.lft.to/lastmile_qr_scan", "ios": "https://dc.lft.to/lastmile_qr_scan"}, "fusion_lon": 0.0, "lat": 38.9142215, "bike_id": "151996ecaaece08546a5280e5464350b", "type": "electric_scooter", "is_reserved": 0, "lon": -77.03814183333333}, {"fusion_lat": 0.0, "name": "179edbb3cf13916025789ec00b82de5d", "is_disabled": 0, "rental_uris": {"android": "https://dc.lft.to/lastmile_qr_scan", "ios": "https://dc.lft.to/lastmile_qr_scan"}, "fusion_lon": 0.0, "lat": 38.89601066666667, "bike_id": "179edbb3cf13916025789ec00b82de5d", "type": "electric_bike", "is_reserved": 0, "lon": -77.022104}, {"fusion_lat": 0.0, "name": "2826bd9eb8b6412acd60d9633240f1bb", "is_disabled": 0, "rental_uris": {"android": "https://dc.lft.to/lastmile_qr_scan", "ios": "https://dc.lft.to/lastmile_qr_scan"}, "fusion_lon": 0.0, "lat": 38.92696933333333, "bike_id": "2826bd9eb8b6412acd60d9633240f1bb", "type": "electric_scooter", "is_reserved": 0, "lon": -77.0205675}, {"fusion_lat": 0.0, "name": "660b9c0d8e426745722a2bd2a370bc45", "is_disabled": 0, "rental_uris": {"android": "https://dc.lft.to/lastmile_qr_scan", "ios": "https://dc.lft.to/lastmile_qr_scan"}, "fusion_lon": 0.0, "lat": 38.92868933333333, "bike_id": "660b9c0d8e426745722a2bd2a370bc45", "type": "electric_scooter", "is_reserved": 0, "lon": -77.0135665}, {"fusion_lat": 0.0, "name": "05e7729cdcec9d8dbcee078c02be05a2", "is_disabled": 0, "rental_uris": {"android": "https://dc.lft.to/lastmile_qr_scan", "ios": "https://dc.lft.to/lastmile_qr_scan"}, "fusion_lon": 0.0, "lat": 38.9072825, "bike_id": "05e7729cdcec9d8dbcee078c02be05a2", "type": "electric_scooter", "is_reserved": 0, "lon": -77.02966416666666}, {"fusion_lat": 0.0, "name": "eedd99e3fcdd6a5e283b093f7e74f6e6", "is_disabled": 0, "rental_uris": {"android": "https://dc.lft.to/lastmile_qr_scan", "ios": "https://dc.lft.to/lastmile_qr_scan"}, "fusion_lon": 0.0, "lat": 38.874087333333335, "bike_id": "eedd99e3fcdd6a5e283b093f7e74f6e6", "type": "electric_scooter", "is_reserved": 0, "lon": -77.0006725}, {"fusion_lat": 0.0, "name": "8167a9a0532e067ef2fa412c3ce17f0c", "is_disabled": 0, "rental_uris": {"android": "https://dc.lft.to/lastmile_qr_scan", "ios": "https://dc.lft.to/lastmile_qr_scan"}, "fusion_lon": 0.0, "lat": 38.915164833333336, "bike_id": "8167a9a0532e067ef2fa412c3ce17f0c", "type": "electric_scooter", "is_reserved": 0, "lon": -77.01225816666667}, {"fusion_lat": 0.0, "name": "87e04a60d6892fb54a3b1e7e4d28d8fc", "is_disabled": 0, "rental_uris": {"android": "https://dc.lft.to/lastmile_qr_scan", "ios": "https://dc.lft.to/lastmile_qr_scan"}, "fusion_lon": 0.0, "lat": 38.87851333333333, "bike_id": "87e04a60d6892fb54a3b1e7e4d28d8fc", "type": "electric_scooter", "is_reserved": 0, "lon": -77.00800916666667}, {"fusion_lat": 0.0, "name": "f1bd5069899316463164071dfe7d73b5", "is_disabled": 0, "rental_uris": {"android": "https://dc.lft.to/lastmile_qr_scan", "ios": "https://dc.lft.to/lastmile_qr_scan"}, "fusion_lon": 0.0, "lat": 38.877084833333335, "bike_id": "f1bd5069899316463164071dfe7d73b5", "type": "electric_scooter", "is_reserved": 0, "lon": -77.01765683333333}, {"fusion_lat": 0.0, "name": "9062f80f1c0723581efaf66189a56410", "is_disabled": 0, "rental_uris": {"android": "https://dc.lft.to/lastmile_qr_scan", "ios": "https://dc.lft.to/lastmile_qr_scan"}, "fusion_lon": 0.0, "lat": 38.9207585, "bike_id": "9062f80f1c0723581efaf66189a56410", "type": "electric_scooter", "is_reserved": 0, "lon": -77.02508716666667}, {"fusion_lat": 0.0, "name": "406c30a6883963319bb6979387b05926", "is_disabled": 0, "rental_uris": {"android": "https://dc.lft.to/lastmile_qr_scan", "ios": "https://dc.lft.to/lastmile_qr_scan"}, "fusion_lon": 0.0, "lat": 38.90026016666667, "bike_id": "406c30a6883963319bb6979387b05926", "type": "electric_scooter", "is_reserved": 0, "lon": -77.00203783333333}, {"fusion_lat": 0.0, "name": "fefbde2cb9133dc03c3b9a444b6fcb32", "is_disabled": 0, "rental_uris": {"android": "https://dc.lft.to/lastmile_qr_scan", "ios": "https://dc.lft.to/lastmile_qr_scan"}, "fusion_lon": 0.0, "lat": 38.87105366666667, "bike_id": "fefbde2cb9133dc03c3b9a444b6fcb32", "type": "electric_scooter", "is_reserved": 0, "lon": -76.96575583333333}, {"fusion_lat": 0.0, "name": "605962fafa1e4dcf31b7513a82eb435b", "is_disabled": 0, "rental_uris": {"android": "https://dc.lft.to/lastmile_qr_scan", "ios": "https://dc.lft.to/lastmile_qr_scan"}, "fusion_lon": 0.0, "lat": 38.907156666666666, "bike_id": "605962fafa1e4dcf31b7513a82eb435b", "type": "electric_scooter", "is_reserved": 0, "lon": -77.04962433333333}, {"fusion_lat": 0.0, "name": "bb885a4d582907c1a322b1c18cb2b107", "is_disabled": 0, "rental_uris": {"android": "https://dc.lft.to/lastmile_qr_scan", "ios": "https://dc.lft.to/lastmile_qr_scan"}, "fusion_lon": 0.0, "lat": 38.906818333333334, "bike_id": "bb885a4d582907c1a322b1c18cb2b107", "type": "electric_scooter", "is_reserved": 0, "lon": -77.02693316666667}, {"fusion_lat": 0.0, "name": "bbf166aa51864942323d6e302a5b554d", "is_disabled": 0, "rental_uris": {"android": "https://dc.lft.to/lastmile_qr_scan", "ios": "https://dc.lft.to/lastmile_qr_scan"}, "fusion_lon": 0.0, "lat": 38.922509, "bike_id": "bbf166aa51864942323d6e302a5b554d", "type": "electric_scooter", "is_reserved": 0, "lon": -77.03384766666667}, {"fusion_lat": 0.0, "name": "a7f2bdaca1f6d48b842e0da2fc39d63f", "is_disabled": 0, "rental_uris": {"android": "https://dc.lft.to/lastmile_qr_scan", "ios": "https://dc.lft.to/lastmile_qr_scan"}, "fusion_lon": 0.0, "lat": 38.93262383333333, "bike_id": "a7f2bdaca1f6d48b842e0da2fc39d63f", "type": "electric_scooter", "is_reserved": 0, "lon": -77.03457283333333}, {"fusion_lat": 0.0, "name": "74a9dd2369278424badf94863bb76034", "is_disabled": 0, "rental_uris": {"android": "https://dc.lft.to/lastmile_qr_scan", "ios": "https://dc.lft.to/lastmile_qr_scan"}, "fusion_lon": 0.0, "lat": 38.9128545, "bike_id": "74a9dd2369278424badf94863bb76034", "type": "electric_scooter", "is_reserved": 0, "lon": -77.04522666666666}, {"fusion_lat": 0.0, "name": "e74c65e7f710e7e7d8d56ee0d0125054", "is_disabled": 0, "rental_uris": {"android": "https://dc.lft.to/lastmile_qr_scan", "ios": "https://dc.lft.to/lastmile_qr_scan"}, "fusion_lon": 0.0, "lat": 38.922501833333335, "bike_id": "e74c65e7f710e7e7d8d56ee0d0125054", "type": "electric_scooter", "is_reserved": 0, "lon": -77.04252466666667}, {"fusion_lat": 0.0, "name": "d625ab62d1f0df885fc03fc752e288a1", "is_disabled": 0, "rental_uris": {"android": "https://dc.lft.to/lastmile_qr_scan", "ios": "https://dc.lft.to/lastmile_qr_scan"}, "fusion_lon": 0.0, "lat": 38.8974385, "bike_id": "d625ab62d1f0df885fc03fc752e288a1", "type": "electric_scooter", "is_reserved": 0, "lon": -77.026945}, {"fusion_lat": 0.0, "name": "517c23701a0cd6f8ac2d6071846f174c", "is_disabled": 0, "rental_uris": {"android": "https://dc.lft.to/lastmile_qr_scan", "ios": "https://dc.lft.to/lastmile_qr_scan"}, "fusion_lon": 0.0, "lat": 38.8973265, "bike_id": "517c23701a0cd6f8ac2d6071846f174c", "type": "electric_scooter", "is_reserved": 0, "lon": -77.04821716666666}, {"fusion_lat": 0.0, "name": "2225d2b44298cd4185de7981a4a6746c", "is_disabled": 0, "rental_uris": {"android": "https://dc.lft.to/lastmile_qr_scan", "ios": "https://dc.lft.to/lastmile_qr_scan"}, "fusion_lon": 0.0, "lat": 38.87807933333333, "bike_id": "2225d2b44298cd4185de7981a4a6746c", "type": "electric_scooter", "is_reserved": 0, "lon": -77.015333}, {"fusion_lat": 0.0, "name": "f9cab2d85de9a5d3340f74acb74b5572", "is_disabled": 0, "rental_uris": {"android": "https://dc.lft.to/lastmile_qr_scan", "ios": "https://dc.lft.to/lastmile_qr_scan"}, "fusion_lon": 0.0, "lat": 38.87135683333333, "bike_id": "f9cab2d85de9a5d3340f74acb74b5572", "type": "electric_scooter", "is_reserved": 0, "lon": -77.01222233333333}, {"fusion_lat": 0.0, "name": "a0cd308939709e271b3c889ad9e537a4", "is_disabled": 0, "rental_uris": {"android": "https://dc.lft.to/lastmile_qr_scan", "ios": "https://dc.lft.to/lastmile_qr_scan"}, "fusion_lon": 0.0, "lat": 38.935715, "bike_id": "a0cd308939709e271b3c889ad9e537a4", "type": "electric_scooter", "is_reserved": 0, "lon": -77.01924633333333}, {"fusion_lat": 0.0, "name": "bc7dc604f9305a028aa042cd676c4e4e", "is_disabled": 0, "rental_uris": {"android": "https://dc.lft.to/lastmile_qr_scan", "ios": "https://dc.lft.to/lastmile_qr_scan"}, "fusion_lon": 0.0, "lat": 38.9161035, "bike_id": "bc7dc604f9305a028aa042cd676c4e4e", "type": "electric_scooter", "is_reserved": 0, "lon": -77.04583366666667}, {"fusion_lat": 0.0, "name": "09ca502b0293b1af9ab8ea1d66413e80", "is_disabled": 0, "rental_uris": {"android": "https://dc.lft.to/lastmile_qr_scan", "ios": "https://dc.lft.to/lastmile_qr_scan"}, "fusion_lon": 0.0, "lat": 38.913342666666665, "bike_id": "09ca502b0293b1af9ab8ea1d66413e80", "type": "electric_scooter", "is_reserved": 0, "lon": -77.0317575}, {"fusion_lat": 0.0, "name": "ae5984c02228b417f06b628e85a49e63", "is_disabled": 0, "rental_uris": {"android": "https://dc.lft.to/lastmile_qr_scan", "ios": "https://dc.lft.to/lastmile_qr_scan"}, "fusion_lon": 0.0, "lat": 38.90729683333333, "bike_id": "ae5984c02228b417f06b628e85a49e63", "type": "electric_scooter", "is_reserved": 0, "lon": -77.04990783333334}, {"fusion_lat": 0.0, "name": "697f0a16f175b8248ad7f3b838efd92f", "is_disabled": 0, "rental_uris": {"android": "https://dc.lft.to/lastmile_qr_scan", "ios": "https://dc.lft.to/lastmile_qr_scan"}, "fusion_lon": 0.0, "lat": 38.911012166666666, "bike_id": "697f0a16f175b8248ad7f3b838efd92f", "type": "electric_scooter", "is_reserved": 0, "lon": -77.02201383333333}, {"fusion_lat": 0.0, "name": "e29bf8e23ad8c59e579332f6c2d60339", "is_disabled": 0, "rental_uris": {"android": "https://dc.lft.to/lastmile_qr_scan", "ios": "https://dc.lft.to/lastmile_qr_scan"}, "fusion_lon": 0.0, "lat": 38.91820966666667, "bike_id": "e29bf8e23ad8c59e579332f6c2d60339", "type": "electric_scooter", "is_reserved": 0, "lon": -77.03679433333333}, {"fusion_lat": 0.0, "name": "4f3da0b90d8635f6f8898b83787a49fe", "is_disabled": 0, "rental_uris": {"android": "https://dc.lft.to/lastmile_qr_scan", "ios": "https://dc.lft.to/lastmile_qr_scan"}, "fusion_lon": 0.0, "lat": 38.925630166666664, "bike_id": "4f3da0b90d8635f6f8898b83787a49fe", "type": "electric_scooter", "is_reserved": 0, "lon": -77.04376316666666}, {"fusion_lat": 0.0, "name": "d14ef289a9797cd085d47c551389a3f8", "is_disabled": 0, "rental_uris": {"android": "https://dc.lft.to/lastmile_qr_scan", "ios": "https://dc.lft.to/lastmile_qr_scan"}, "fusion_lon": 0.0, "lat": 38.89223233333333, "bike_id": "d14ef289a9797cd085d47c551389a3f8", "type": "electric_scooter", "is_reserved": 0, "lon": -77.04654483333333}, {"fusion_lat": 0.0, "name": "70c4aa21283aa9348ede60c53c372216", "is_disabled": 0, "rental_uris": {"android": "https://dc.lft.to/lastmile_qr_scan", "ios": "https://dc.lft.to/lastmile_qr_scan"}, "fusion_lon": 0.0, "lat": 38.898789, "bike_id": "70c4aa21283aa9348ede60c53c372216", "type": "electric_scooter", "is_reserved": 0, "lon": -76.931853}, {"fusion_lat": 0.0, "name": "ee0dfe6f035c1fbba4d54a774670d676", "is_disabled": 0, "rental_uris": {"android": "https://dc.lft.to/lastmile_qr_scan", "ios": "https://dc.lft.to/lastmile_qr_scan"}, "fusion_lon": 0.0, "lat": 38.90405883333333, "bike_id": "ee0dfe6f035c1fbba4d54a774670d676", "type": "electric_scooter", "is_reserved": 0, "lon": -77.02586583333333}, {"fusion_lat": 0.0, "name": "2454c0aa0f27dc7470ef953a480e4011", "is_disabled": 0, "rental_uris": {"android": "https://dc.lft.to/lastmile_qr_scan", "ios": "https://dc.lft.to/lastmile_qr_scan"}, "fusion_lon": 0.0, "lat": 38.929664, "bike_id": "2454c0aa0f27dc7470ef953a480e4011", "type": "electric_scooter", "is_reserved": 0, "lon": -77.02792266666667}, {"fusion_lat": 0.0, "name": "0c8737695dac36f82f3ce54c7ade3535", "is_disabled": 0, "rental_uris": {"android": "https://dc.lft.to/lastmile_qr_scan", "ios": "https://dc.lft.to/lastmile_qr_scan"}, "fusion_lon": 0.0, "lat": 38.91120566666667, "bike_id": "0c8737695dac36f82f3ce54c7ade3535", "type": "electric_scooter", "is_reserved": 0, "lon": -77.00771}, {"fusion_lat": 0.0, "name": "efc77d708a08c3353259370f9cafc4e3", "is_disabled": 0, "rental_uris": {"android": "https://dc.lft.to/lastmile_qr_scan", "ios": "https://dc.lft.to/lastmile_qr_scan"}, "fusion_lon": 0.0, "lat": 38.920157833333334, "bike_id": "efc77d708a08c3353259370f9cafc4e3", "type": "electric_scooter", "is_reserved": 0, "lon": -77.0131695}, {"fusion_lat": 0.0, "name": "8399c7a40f5b341ac7827a4c97f09ca9", "is_disabled": 0, "rental_uris": {"android": "https://dc.lft.to/lastmile_qr_scan", "ios": "https://dc.lft.to/lastmile_qr_scan"}, "fusion_lon": 0.0, "lat": 38.893390333333336, "bike_id": "8399c7a40f5b341ac7827a4c97f09ca9", "type": "electric_scooter", "is_reserved": 0, "lon": -77.03208633333334}, {"fusion_lat": 0.0, "name": "39c6f107b2e5e631a5a222ec4c3217da", "is_disabled": 0, "rental_uris": {"android": "https://dc.lft.to/lastmile_qr_scan", "ios": "https://dc.lft.to/lastmile_qr_scan"}, "fusion_lon": 0.0, "lat": 38.8922065, "bike_id": "39c6f107b2e5e631a5a222ec4c3217da", "type": "electric_scooter", "is_reserved": 0, "lon": -77.048698}, {"fusion_lat": 0.0, "name": "04ac169086022e27b20db58e3fd1f94b", "is_disabled": 0, "rental_uris": {"android": "https://dc.lft.to/lastmile_qr_scan", "ios": "https://dc.lft.to/lastmile_qr_scan"}, "fusion_lon": 0.0, "lat": 38.9001235, "bike_id": "04ac169086022e27b20db58e3fd1f94b", "type": "electric_scooter", "is_reserved": 0, "lon": -76.98814233333333}, {"fusion_lat": 0.0, "name": "1270baa91f3352b661451945b689f2be", "is_disabled": 0, "rental_uris": {"android": "https://dc.lft.to/lastmile_qr_scan", "ios": "https://dc.lft.to/lastmile_qr_scan"}, "fusion_lon": 0.0, "lat": 38.9275745, "bike_id": "1270baa91f3352b661451945b689f2be", "type": "electric_scooter", "is_reserved": 0, "lon": -77.0327795}, {"fusion_lat": 0.0, "name": "45c949bb081f66582e07a072d642e82c", "is_disabled": 0, "rental_uris": {"android": "https://dc.lft.to/lastmile_qr_scan", "ios": "https://dc.lft.to/lastmile_qr_scan"}, "fusion_lon": 0.0, "lat": 38.950833, "bike_id": "45c949bb081f66582e07a072d642e82c", "type": "electric_bike", "is_reserved": 0, "lon": -77.0123105}, {"fusion_lat": 0.0, "name": "8030e9ab2ab6a1646caf220bb8a16700", "is_disabled": 0, "rental_uris": {"android": "https://dc.lft.to/lastmile_qr_scan", "ios": "https://dc.lft.to/lastmile_qr_scan"}, "fusion_lon": 0.0, "lat": 38.87925166666667, "bike_id": "8030e9ab2ab6a1646caf220bb8a16700", "type": "electric_scooter", "is_reserved": 0, "lon": -77.02369583333333}, {"fusion_lat": 0.0, "name": "e5902495b4ecf16241490d95a30b19d5", "is_disabled": 0, "rental_uris": {"android": "https://dc.lft.to/lastmile_qr_scan", "ios": "https://dc.lft.to/lastmile_qr_scan"}, "fusion_lon": 0.0, "lat": 38.90332983333333, "bike_id": "e5902495b4ecf16241490d95a30b19d5", "type": "electric_scooter", "is_reserved": 0, "lon": -77.04494433333333}, {"fusion_lat": 0.0, "name": "a8b1f2020b0e61f164e8a677c38d2b72", "is_disabled": 0, "rental_uris": {"android": "https://dc.lft.to/lastmile_qr_scan", "ios": "https://dc.lft.to/lastmile_qr_scan"}, "fusion_lon": 0.0, "lat": 38.90008666666667, "bike_id": "a8b1f2020b0e61f164e8a677c38d2b72", "type": "electric_scooter", "is_reserved": 0, "lon": -76.9986555}, {"fusion_lat": 0.0, "name": "5e89853b9183e19bcbb1dd976e7b9420", "is_disabled": 0, "rental_uris": {"android": "https://dc.lft.to/lastmile_qr_scan", "ios": "https://dc.lft.to/lastmile_qr_scan"}, "fusion_lon": 0.0, "lat": 38.9057405, "bike_id": "5e89853b9183e19bcbb1dd976e7b9420", "type": "electric_scooter", "is_reserved": 0, "lon": -77.04335883333333}, {"fusion_lat": 0.0, "name": "3aebe70cc95488a16368834e5399a0b7", "is_disabled": 0, "rental_uris": {"android": "https://dc.lft.to/lastmile_qr_scan", "ios": "https://dc.lft.to/lastmile_qr_scan"}, "fusion_lon": 0.0, "lat": 38.8954625, "bike_id": "3aebe70cc95488a16368834e5399a0b7", "type": "electric_scooter", "is_reserved": 0, "lon": -76.983384}, {"fusion_lat": 0.0, "name": "2693b3d2e4b4adb778ed1df31df26020", "is_disabled": 0, "rental_uris": {"android": "https://dc.lft.to/lastmile_qr_scan", "ios": "https://dc.lft.to/lastmile_qr_scan"}, "fusion_lon": 0.0, "lat": 38.944115, "bike_id": "2693b3d2e4b4adb778ed1df31df26020", "type": "electric_scooter", "is_reserved": 0, "lon": -77.0632405}, {"fusion_lat": 0.0, "name": "08aa4758cc1a8a126b30ab2e6be855c5", "is_disabled": 0, "rental_uris": {"android": "https://dc.lft.to/lastmile_qr_scan", "ios": "https://dc.lft.to/lastmile_qr_scan"}, "fusion_lon": 0.0, "lat": 38.92091766666667, "bike_id": "08aa4758cc1a8a126b30ab2e6be855c5", "type": "electric_scooter", "is_reserved": 0, "lon": -77.02525416666667}, {"fusion_lat": 0.0, "name": "8fee687584eacecf572c48c1cb05ef27", "is_disabled": 0, "rental_uris": {"android": "https://dc.lft.to/lastmile_qr_scan", "ios": "https://dc.lft.to/lastmile_qr_scan"}, "fusion_lon": 0.0, "lat": 38.897288333333336, "bike_id": "8fee687584eacecf572c48c1cb05ef27", "type": "electric_scooter", "is_reserved": 0, "lon": -76.9913775}, {"fusion_lat": 0.0, "name": "fba4c2bb0afe1887c375cb7e47efb179", "is_disabled": 0, "rental_uris": {"android": "https://dc.lft.to/lastmile_qr_scan", "ios": "https://dc.lft.to/lastmile_qr_scan"}, "fusion_lon": 0.0, "lat": 38.90685583333333, "bike_id": "fba4c2bb0afe1887c375cb7e47efb179", "type": "electric_scooter", "is_reserved": 0, "lon": -77.01013033333334}, {"fusion_lat": 0.0, "name": "32900a71e45d1966abfbf3a8562a0581", "is_disabled": 0, "rental_uris": {"android": "https://dc.lft.to/lastmile_qr_scan", "ios": "https://dc.lft.to/lastmile_qr_scan"}, "fusion_lon": 0.0, "lat": 38.923363333333334, "bike_id": "32900a71e45d1966abfbf3a8562a0581", "type": "electric_scooter", "is_reserved": 0, "lon": -77.0530015}, {"fusion_lat": 0.0, "name": "28f45927dd90e71a41916a9e86222faa", "is_disabled": 0, "rental_uris": {"android": "https://dc.lft.to/lastmile_qr_scan", "ios": "https://dc.lft.to/lastmile_qr_scan"}, "fusion_lon": 0.0, "lat": 38.908484666666666, "bike_id": "28f45927dd90e71a41916a9e86222faa", "type": "electric_scooter", "is_reserved": 0, "lon": -77.02333283333333}, {"fusion_lat": 0.0, "name": "cc7ccc79fc27317f906ba55e1d7e83f7", "is_disabled": 0, "rental_uris": {"android": "https://dc.lft.to/lastmile_qr_scan", "ios": "https://dc.lft.to/lastmile_qr_scan"}, "fusion_lon": 0.0, "lat": 38.881856, "bike_id": "cc7ccc79fc27317f906ba55e1d7e83f7", "type": "electric_bike", "is_reserved": 0, "lon": -77.0863535}, {"fusion_lat": 0.0, "name": "e9c24a68d9a03556c795e7e376221319", "is_disabled": 0, "rental_uris": {"android": "https://dc.lft.to/lastmile_qr_scan", "ios": "https://dc.lft.to/lastmile_qr_scan"}, "fusion_lon": 0.0, "lat": 38.91833233333333, "bike_id": "e9c24a68d9a03556c795e7e376221319", "type": "electric_scooter", "is_reserved": 0, "lon": -77.04532216666666}, {"fusion_lat": 0.0, "name": "a3ccfa94ed02ff937604c9547f8e7bc7", "is_disabled": 0, "rental_uris": {"android": "https://dc.lft.to/lastmile_qr_scan", "ios": "https://dc.lft.to/lastmile_qr_scan"}, "fusion_lon": 0.0, "lat": 38.90223366666667, "bike_id": "a3ccfa94ed02ff937604c9547f8e7bc7", "type": "electric_scooter", "is_reserved": 0, "lon": -77.03467533333334}, {"fusion_lat": 0.0, "name": "0a109539ae0a516fa18050988105801b", "is_disabled": 0, "rental_uris": {"android": "https://dc.lft.to/lastmile_qr_scan", "ios": "https://dc.lft.to/lastmile_qr_scan"}, "fusion_lon": 0.0, "lat": 38.920610833333335, "bike_id": "0a109539ae0a516fa18050988105801b", "type": "electric_scooter", "is_reserved": 0, "lon": -77.0236195}, {"fusion_lat": 0.0, "name": "cc11c218bb874b3afbfc2a81f629c2c0", "is_disabled": 0, "rental_uris": {"android": "https://dc.lft.to/lastmile_qr_scan", "ios": "https://dc.lft.to/lastmile_qr_scan"}, "fusion_lon": 0.0, "lat": 38.91699283333333, "bike_id": "cc11c218bb874b3afbfc2a81f629c2c0", "type": "electric_scooter", "is_reserved": 0, "lon": -77.0321745}, {"fusion_lat": 0.0, "name": "1a6b9354d2e064f0a79bf39eecfb06c3", "is_disabled": 0, "rental_uris": {"android": "https://dc.lft.to/lastmile_qr_scan", "ios": "https://dc.lft.to/lastmile_qr_scan"}, "fusion_lon": 0.0, "lat": 38.92616016666667, "bike_id": "1a6b9354d2e064f0a79bf39eecfb06c3", "type": "electric_scooter", "is_reserved": 0, "lon": -77.04329116666666}, {"fusion_lat": 0.0, "name": "3e3eac03187310c3f9fa038d0ec79ccf", "is_disabled": 0, "rental_uris": {"android": "https://dc.lft.to/lastmile_qr_scan", "ios": "https://dc.lft.to/lastmile_qr_scan"}, "fusion_lon": 0.0, "lat": 38.922529833333336, "bike_id": "3e3eac03187310c3f9fa038d0ec79ccf", "type": "electric_scooter", "is_reserved": 0, "lon": -77.01949283333333}, {"fusion_lat": 0.0, "name": "bc332d63368f14567912e44cdb4b12cc", "is_disabled": 0, "rental_uris": {"android": "https://dc.lft.to/lastmile_qr_scan", "ios": "https://dc.lft.to/lastmile_qr_scan"}, "fusion_lon": 0.0, "lat": 38.9072675, "bike_id": "bc332d63368f14567912e44cdb4b12cc", "type": "electric_scooter", "is_reserved": 0, "lon": -77.03460066666666}, {"fusion_lat": 0.0, "name": "4ca65d674b918fd8ea0ff8300e90b753", "is_disabled": 0, "rental_uris": {"android": "https://dc.lft.to/lastmile_qr_scan", "ios": "https://dc.lft.to/lastmile_qr_scan"}, "fusion_lon": 0.0, "lat": 38.91792816666667, "bike_id": "4ca65d674b918fd8ea0ff8300e90b753", "type": "electric_scooter", "is_reserved": 0, "lon": -77.034464}, {"fusion_lat": 0.0, "name": "ee96365940ef27e09bbd084e42d43f5e", "is_disabled": 0, "rental_uris": {"android": "https://dc.lft.to/lastmile_qr_scan", "ios": "https://dc.lft.to/lastmile_qr_scan"}, "fusion_lon": 0.0, "lat": 38.91906433333333, "bike_id": "ee96365940ef27e09bbd084e42d43f5e", "type": "electric_scooter", "is_reserved": 0, "lon": -77.01365416666667}, {"fusion_lat": 0.0, "name": "15e827d6239d41be23e8f918f8fdc6d1", "is_disabled": 0, "rental_uris": {"android": "https://dc.lft.to/lastmile_qr_scan", "ios": "https://dc.lft.to/lastmile_qr_scan"}, "fusion_lon": 0.0, "lat": 38.91335933333333, "bike_id": "15e827d6239d41be23e8f918f8fdc6d1", "type": "electric_scooter", "is_reserved": 0, "lon": -77.047857}, {"fusion_lat": 0.0, "name": "940f45c195f053fa88980be2ef966873", "is_disabled": 0, "rental_uris": {"android": "https://dc.lft.to/lastmile_qr_scan", "ios": "https://dc.lft.to/lastmile_qr_scan"}, "fusion_lon": 0.0, "lat": 38.9537435, "bike_id": "940f45c195f053fa88980be2ef966873", "type": "electric_bike", "is_reserved": 0, "lon": -76.979599}, {"fusion_lat": 0.0, "name": "6d56699bdf3f6d4777877db504407f8e", "is_disabled": 0, "rental_uris": {"android": "https://dc.lft.to/lastmile_qr_scan", "ios": "https://dc.lft.to/lastmile_qr_scan"}, "fusion_lon": 0.0, "lat": 38.92557333333333, "bike_id": "6d56699bdf3f6d4777877db504407f8e", "type": "electric_scooter", "is_reserved": 0, "lon": -77.04294783333333}, {"fusion_lat": 0.0, "name": "a6b3c92a28ab175c568dfcac88208524", "is_disabled": 0, "rental_uris": {"android": "https://dc.lft.to/lastmile_qr_scan", "ios": "https://dc.lft.to/lastmile_qr_scan"}, "fusion_lon": 0.0, "lat": 38.931436, "bike_id": "a6b3c92a28ab175c568dfcac88208524", "type": "electric_scooter", "is_reserved": 0, "lon": -77.02144566666666}, {"fusion_lat": 0.0, "name": "ef0e1246774cc2795a80b2c43c5e96f8", "is_disabled": 0, "rental_uris": {"android": "https://dc.lft.to/lastmile_qr_scan", "ios": "https://dc.lft.to/lastmile_qr_scan"}, "fusion_lon": 0.0, "lat": 38.922965, "bike_id": "ef0e1246774cc2795a80b2c43c5e96f8", "type": "electric_scooter", "is_reserved": 0, "lon": -77.042131}, {"fusion_lat": 0.0, "name": "7d9ba38db51c1e0deb933450ee9462d9", "is_disabled": 0, "rental_uris": {"android": "https://dc.lft.to/lastmile_qr_scan", "ios": "https://dc.lft.to/lastmile_qr_scan"}, "fusion_lon": 0.0, "lat": 38.92642566666667, "bike_id": "7d9ba38db51c1e0deb933450ee9462d9", "type": "electric_scooter", "is_reserved": 0, "lon": -77.04135633333334}, {"fusion_lat": 0.0, "name": "32a2ea9a444fe2e3c2e84976408fa7c1", "is_disabled": 0, "rental_uris": {"android": "https://dc.lft.to/lastmile_qr_scan", "ios": "https://dc.lft.to/lastmile_qr_scan"}, "fusion_lon": 0.0, "lat": 38.93530466666667, "bike_id": "32a2ea9a444fe2e3c2e84976408fa7c1", "type": "electric_scooter", "is_reserved": 0, "lon": -77.02346816666666}, {"fusion_lat": 0.0, "name": "3fe17eec7f8dbfa27f0980ff029b0e92", "is_disabled": 0, "rental_uris": {"android": "https://dc.lft.to/lastmile_qr_scan", "ios": "https://dc.lft.to/lastmile_qr_scan"}, "fusion_lon": 0.0, "lat": 38.9024285, "bike_id": "3fe17eec7f8dbfa27f0980ff029b0e92", "type": "electric_scooter", "is_reserved": 0, "lon": -77.00202433333334}, {"fusion_lat": 0.0, "name": "f1daa93f5fa2efa037d93afa5f8d3bd0", "is_disabled": 0, "rental_uris": {"android": "https://dc.lft.to/lastmile_qr_scan", "ios": "https://dc.lft.to/lastmile_qr_scan"}, "fusion_lon": 0.0, "lat": 38.8739985, "bike_id": "f1daa93f5fa2efa037d93afa5f8d3bd0", "type": "electric_scooter", "is_reserved": 0, "lon": -77.000601}, {"fusion_lat": 0.0, "name": "154a2366f543e745db435efb2b79126f", "is_disabled": 0, "rental_uris": {"android": "https://dc.lft.to/lastmile_qr_scan", "ios": "https://dc.lft.to/lastmile_qr_scan"}, "fusion_lon": 0.0, "lat": 38.916847, "bike_id": "154a2366f543e745db435efb2b79126f", "type": "electric_scooter", "is_reserved": 0, "lon": -77.02972466666667}, {"fusion_lat": 0.0, "name": "69357a86aa0bb44b48450adc66ec3d6b", "is_disabled": 0, "rental_uris": {"android": "https://dc.lft.to/lastmile_qr_scan", "ios": "https://dc.lft.to/lastmile_qr_scan"}, "fusion_lon": 0.0, "lat": 38.913370666666665, "bike_id": "69357a86aa0bb44b48450adc66ec3d6b", "type": "electric_scooter", "is_reserved": 0, "lon": -77.04870133333333}, {"fusion_lat": 0.0, "name": "22713a16a8f963d40c4c9af988c6a23e", "is_disabled": 0, "rental_uris": {"android": "https://dc.lft.to/lastmile_qr_scan", "ios": "https://dc.lft.to/lastmile_qr_scan"}, "fusion_lon": 0.0, "lat": 38.92336366666667, "bike_id": "22713a16a8f963d40c4c9af988c6a23e", "type": "electric_scooter", "is_reserved": 0, "lon": -77.0361275}, {"fusion_lat": 0.0, "name": "f1ef84d2ec7a3db441f6ce18130b5ce8", "is_disabled": 0, "rental_uris": {"android": "https://dc.lft.to/lastmile_qr_scan", "ios": "https://dc.lft.to/lastmile_qr_scan"}, "fusion_lon": 0.0, "lat": 38.89468166666666, "bike_id": "f1ef84d2ec7a3db441f6ce18130b5ce8", "type": "electric_scooter", "is_reserved": 0, "lon": -77.01766183333334}, {"fusion_lat": 0.0, "name": "811d411c55b8d42457eb5c37d089d76c", "is_disabled": 0, "rental_uris": {"android": "https://dc.lft.to/lastmile_qr_scan", "ios": "https://dc.lft.to/lastmile_qr_scan"}, "fusion_lon": 0.0, "lat": 38.907580333333335, "bike_id": "811d411c55b8d42457eb5c37d089d76c", "type": "electric_scooter", "is_reserved": 0, "lon": -77.03578683333333}, {"fusion_lat": 0.0, "name": "7e7896844e2985f17b80a189d7977f5d", "is_disabled": 0, "rental_uris": {"android": "https://dc.lft.to/lastmile_qr_scan", "ios": "https://dc.lft.to/lastmile_qr_scan"}, "fusion_lon": 0.0, "lat": 38.91262716666667, "bike_id": "7e7896844e2985f17b80a189d7977f5d", "type": "electric_scooter", "is_reserved": 0, "lon": -77.04929783333333}, {"fusion_lat": 0.0, "name": "53338ffbf0d2051f877b1a74c6f76fda", "is_disabled": 0, "rental_uris": {"android": "https://dc.lft.to/lastmile_qr_scan", "ios": "https://dc.lft.to/lastmile_qr_scan"}, "fusion_lon": 0.0, "lat": 38.90379866666667, "bike_id": "53338ffbf0d2051f877b1a74c6f76fda", "type": "electric_scooter", "is_reserved": 0, "lon": -77.0384155}, {"fusion_lat": 0.0, "name": "fd0cf4df65c9bbaa8996cf23a94e41aa", "is_disabled": 0, "rental_uris": {"android": "https://dc.lft.to/lastmile_qr_scan", "ios": "https://dc.lft.to/lastmile_qr_scan"}, "fusion_lon": 0.0, "lat": 38.926837166666665, "bike_id": "fd0cf4df65c9bbaa8996cf23a94e41aa", "type": "electric_scooter", "is_reserved": 0, "lon": -77.02969833333333}, {"fusion_lat": 0.0, "name": "d4e751c8fce96eef3b81de5309d7f23f", "is_disabled": 0, "rental_uris": {"android": "https://dc.lft.to/lastmile_qr_scan", "ios": "https://dc.lft.to/lastmile_qr_scan"}, "fusion_lon": 0.0, "lat": 38.94921016666667, "bike_id": "d4e751c8fce96eef3b81de5309d7f23f", "type": "electric_bike", "is_reserved": 0, "lon": -77.0079445}, {"fusion_lat": 0.0, "name": "88638413476e7b61f79f815b3358e07a", "is_disabled": 0, "rental_uris": {"android": "https://dc.lft.to/lastmile_qr_scan", "ios": "https://dc.lft.to/lastmile_qr_scan"}, "fusion_lon": 0.0, "lat": 38.916202, "bike_id": "88638413476e7b61f79f815b3358e07a", "type": "electric_scooter", "is_reserved": 0, "lon": -77.02151366666666}, {"fusion_lat": 0.0, "name": "419a9fea0085d229452314b901e3b732", "is_disabled": 0, "rental_uris": {"android": "https://dc.lft.to/lastmile_qr_scan", "ios": "https://dc.lft.to/lastmile_qr_scan"}, "fusion_lon": 0.0, "lat": 38.917442333333334, "bike_id": "419a9fea0085d229452314b901e3b732", "type": "electric_scooter", "is_reserved": 0, "lon": -77.04574783333334}, {"fusion_lat": 0.0, "name": "42ebab0ebe18f0e0ed0044fe8a30957b", "is_disabled": 0, "rental_uris": {"android": "https://dc.lft.to/lastmile_qr_scan", "ios": "https://dc.lft.to/lastmile_qr_scan"}, "fusion_lon": 0.0, "lat": 38.907167333333334, "bike_id": "42ebab0ebe18f0e0ed0044fe8a30957b", "type": "electric_scooter", "is_reserved": 0, "lon": -76.9982035}, {"fusion_lat": 0.0, "name": "950b8f7fd175205c26e3ef48d95336a1", "is_disabled": 0, "rental_uris": {"android": "https://dc.lft.to/lastmile_qr_scan", "ios": "https://dc.lft.to/lastmile_qr_scan"}, "fusion_lon": 0.0, "lat": 38.921796, "bike_id": "950b8f7fd175205c26e3ef48d95336a1", "type": "electric_scooter", "is_reserved": 0, "lon": -77.07441816666666}, {"fusion_lat": 0.0, "name": "aca3d76534907f0964d6ebf75568f8e3", "is_disabled": 0, "rental_uris": {"android": "https://dc.lft.to/lastmile_qr_scan", "ios": "https://dc.lft.to/lastmile_qr_scan"}, "fusion_lon": 0.0, "lat": 38.91275983333333, "bike_id": "aca3d76534907f0964d6ebf75568f8e3", "type": "electric_scooter", "is_reserved": 0, "lon": -77.02246}, {"fusion_lat": 0.0, "name": "233d1c80f6722aa8695e44b6a5a56a83", "is_disabled": 0, "rental_uris": {"android": "https://dc.lft.to/lastmile_qr_scan", "ios": "https://dc.lft.to/lastmile_qr_scan"}, "fusion_lon": 0.0, "lat": 38.935892, "bike_id": "233d1c80f6722aa8695e44b6a5a56a83", "type": "electric_scooter", "is_reserved": 0, "lon": -77.02854733333334}, {"fusion_lat": 0.0, "name": "6242d77c9bb4e994f269bb0fe82b070a", "is_disabled": 0, "rental_uris": {"android": "https://dc.lft.to/lastmile_qr_scan", "ios": "https://dc.lft.to/lastmile_qr_scan"}, "fusion_lon": 0.0, "lat": 38.922414333333336, "bike_id": "6242d77c9bb4e994f269bb0fe82b070a", "type": "electric_scooter", "is_reserved": 0, "lon": -77.0389935}, {"fusion_lat": 0.0, "name": "2b566969279283e843c71424b71e435a", "is_disabled": 0, "rental_uris": {"android": "https://dc.lft.to/lastmile_qr_scan", "ios": "https://dc.lft.to/lastmile_qr_scan"}, "fusion_lon": 0.0, "lat": 38.94118016666667, "bike_id": "2b566969279283e843c71424b71e435a", "type": "electric_bike", "is_reserved": 0, "lon": -76.9903375}, {"fusion_lat": 0.0, "name": "a62c9ef88f1bbb4f8ce6553ed3e84b82", "is_disabled": 0, "rental_uris": {"android": "https://dc.lft.to/lastmile_qr_scan", "ios": "https://dc.lft.to/lastmile_qr_scan"}, "fusion_lon": 0.0, "lat": 38.905067, "bike_id": "a62c9ef88f1bbb4f8ce6553ed3e84b82", "type": "electric_scooter", "is_reserved": 0, "lon": -76.98485566666666}, {"fusion_lat": 0.0, "name": "ce91eda26e05267b5a7b2e5eefeae738", "is_disabled": 0, "rental_uris": {"android": "https://dc.lft.to/lastmile_qr_scan", "ios": "https://dc.lft.to/lastmile_qr_scan"}, "fusion_lon": 0.0, "lat": 38.95462283333333, "bike_id": "ce91eda26e05267b5a7b2e5eefeae738", "type": "electric_scooter", "is_reserved": 0, "lon": -77.00787716666666}, {"fusion_lat": 0.0, "name": "a68f199a1a0e818bedce268efd5a5a98", "is_disabled": 0, "rental_uris": {"android": "https://dc.lft.to/lastmile_qr_scan", "ios": "https://dc.lft.to/lastmile_qr_scan"}, "fusion_lon": 0.0, "lat": 38.905024, "bike_id": "a68f199a1a0e818bedce268efd5a5a98", "type": "electric_scooter", "is_reserved": 0, "lon": -77.02946283333333}, {"fusion_lat": 0.0, "name": "2666e16f5ae59f31b8620d46e0a414e4", "is_disabled": 0, "rental_uris": {"android": "https://dc.lft.to/lastmile_qr_scan", "ios": "https://dc.lft.to/lastmile_qr_scan"}, "fusion_lon": 0.0, "lat": 38.923594666666666, "bike_id": "2666e16f5ae59f31b8620d46e0a414e4", "type": "electric_scooter", "is_reserved": 0, "lon": -77.050284}, {"fusion_lat": 0.0, "name": "0f18f400829db7d2db68651c00f24baf", "is_disabled": 0, "rental_uris": {"android": "https://dc.lft.to/lastmile_qr_scan", "ios": "https://dc.lft.to/lastmile_qr_scan"}, "fusion_lon": 0.0, "lat": 38.92043983333333, "bike_id": "0f18f400829db7d2db68651c00f24baf", "type": "electric_scooter", "is_reserved": 0, "lon": -77.00346216666667}, {"fusion_lat": 0.0, "name": "474442707ecc80e89482eb6045c0cc3c", "is_disabled": 0, "rental_uris": {"android": "https://dc.lft.to/lastmile_qr_scan", "ios": "https://dc.lft.to/lastmile_qr_scan"}, "fusion_lon": 0.0, "lat": 38.94433383333333, "bike_id": "474442707ecc80e89482eb6045c0cc3c", "type": "electric_bike", "is_reserved": 0, "lon": -77.02604016666666}, {"fusion_lat": 0.0, "name": "6f34cffbf55b448c6233ce9a6d4fada1", "is_disabled": 0, "rental_uris": {"android": "https://dc.lft.to/lastmile_qr_scan", "ios": "https://dc.lft.to/lastmile_qr_scan"}, "fusion_lon": 0.0, "lat": 38.932763666666666, "bike_id": "6f34cffbf55b448c6233ce9a6d4fada1", "type": "electric_scooter", "is_reserved": 0, "lon": -77.02869016666666}, {"fusion_lat": 0.0, "name": "ee988ecebe21612e59258ca5e2fa4ebe", "is_disabled": 0, "rental_uris": {"android": "https://dc.lft.to/lastmile_qr_scan", "ios": "https://dc.lft.to/lastmile_qr_scan"}, "fusion_lon": 0.0, "lat": 38.892252, "bike_id": "ee988ecebe21612e59258ca5e2fa4ebe", "type": "electric_scooter", "is_reserved": 0, "lon": -77.02788416666667}, {"fusion_lat": 0.0, "name": "3be3c76543eaf2952bd3e5756f3ca6e3", "is_disabled": 0, "rental_uris": {"android": "https://dc.lft.to/lastmile_qr_scan", "ios": "https://dc.lft.to/lastmile_qr_scan"}, "fusion_lon": 0.0, "lat": 38.9266715, "bike_id": "3be3c76543eaf2952bd3e5756f3ca6e3", "type": "electric_scooter", "is_reserved": 0, "lon": -77.0305065}, {"fusion_lat": 0.0, "name": "e52b5214ca3e519be0c71808cf09a368", "is_disabled": 0, "rental_uris": {"android": "https://dc.lft.to/lastmile_qr_scan", "ios": "https://dc.lft.to/lastmile_qr_scan"}, "fusion_lon": 0.0, "lat": 38.89087033333333, "bike_id": "e52b5214ca3e519be0c71808cf09a368", "type": "electric_scooter", "is_reserved": 0, "lon": -76.91934633333334}, {"fusion_lat": 0.0, "name": "ef90ffbbae25184d43b8b14c9c4aabab", "is_disabled": 0, "rental_uris": {"android": "https://dc.lft.to/lastmile_qr_scan", "ios": "https://dc.lft.to/lastmile_qr_scan"}, "fusion_lon": 0.0, "lat": 38.879025666666664, "bike_id": "ef90ffbbae25184d43b8b14c9c4aabab", "type": "electric_scooter", "is_reserved": 0, "lon": -77.00818133333334}, {"fusion_lat": 0.0, "name": "a1589a0f13ec6e402e09830c206c85bd", "is_disabled": 0, "rental_uris": {"android": "https://dc.lft.to/lastmile_qr_scan", "ios": "https://dc.lft.to/lastmile_qr_scan"}, "fusion_lon": 0.0, "lat": 38.91702633333333, "bike_id": "a1589a0f13ec6e402e09830c206c85bd", "type": "electric_scooter", "is_reserved": 0, "lon": -77.02495366666666}, {"fusion_lat": 0.0, "name": "706ce8f26581870603278dc3d657ca89", "is_disabled": 0, "rental_uris": {"android": "https://dc.lft.to/lastmile_qr_scan", "ios": "https://dc.lft.to/lastmile_qr_scan"}, "fusion_lon": 0.0, "lat": 38.896019833333334, "bike_id": "706ce8f26581870603278dc3d657ca89", "type": "electric_scooter", "is_reserved": 0, "lon": -77.025863}, {"fusion_lat": 0.0, "name": "292220a8dcaa4d8686544f002513e728", "is_disabled": 0, "rental_uris": {"android": "https://dc.lft.to/lastmile_qr_scan", "ios": "https://dc.lft.to/lastmile_qr_scan"}, "fusion_lon": 0.0, "lat": 38.90645383333333, "bike_id": "292220a8dcaa4d8686544f002513e728", "type": "electric_scooter", "is_reserved": 0, "lon": -77.00577633333333}, {"fusion_lat": 0.0, "name": "f6b3331785bc482ea00a72841881db5d", "is_disabled": 0, "rental_uris": {"android": "https://dc.lft.to/lastmile_qr_scan", "ios": "https://dc.lft.to/lastmile_qr_scan"}, "fusion_lon": 0.0, "lat": 38.932037, "bike_id": "f6b3331785bc482ea00a72841881db5d", "type": "electric_scooter", "is_reserved": 0, "lon": -77.03500333333334}, {"fusion_lat": 0.0, "name": "006c6c3b2826f68be4797a5d449f48d9", "is_disabled": 0, "rental_uris": {"android": "https://dc.lft.to/lastmile_qr_scan", "ios": "https://dc.lft.to/lastmile_qr_scan"}, "fusion_lon": 0.0, "lat": 38.915525, "bike_id": "006c6c3b2826f68be4797a5d449f48d9", "type": "electric_scooter", "is_reserved": 0, "lon": -77.0386155}, {"fusion_lat": 0.0, "name": "5ce044858f6d760d67942aebb7b3330d", "is_disabled": 0, "rental_uris": {"android": "https://dc.lft.to/lastmile_qr_scan", "ios": "https://dc.lft.to/lastmile_qr_scan"}, "fusion_lon": 0.0, "lat": 38.92150816666667, "bike_id": "5ce044858f6d760d67942aebb7b3330d", "type": "electric_scooter", "is_reserved": 0, "lon": -77.0193975}, {"fusion_lat": 0.0, "name": "6c2803abba28ef7ca035ada647bd852d", "is_disabled": 0, "rental_uris": {"android": "https://dc.lft.to/lastmile_qr_scan", "ios": "https://dc.lft.to/lastmile_qr_scan"}, "fusion_lon": 0.0, "lat": 38.91876383333334, "bike_id": "6c2803abba28ef7ca035ada647bd852d", "type": "electric_scooter", "is_reserved": 0, "lon": -77.03507116666667}, {"fusion_lat": 0.0, "name": "12503fc89f424d675a0ecd88311dac4b", "is_disabled": 0, "rental_uris": {"android": "https://dc.lft.to/lastmile_qr_scan", "ios": "https://dc.lft.to/lastmile_qr_scan"}, "fusion_lon": 0.0, "lat": 38.9171115, "bike_id": "12503fc89f424d675a0ecd88311dac4b", "type": "electric_scooter", "is_reserved": 0, "lon": -77.032393}, {"fusion_lat": 0.0, "name": "1efbb368f4bf589b4e252a1fb5903d9f", "is_disabled": 0, "rental_uris": {"android": "https://dc.lft.to/lastmile_qr_scan", "ios": "https://dc.lft.to/lastmile_qr_scan"}, "fusion_lon": 0.0, "lat": 38.919769333333335, "bike_id": "1efbb368f4bf589b4e252a1fb5903d9f", "type": "electric_scooter", "is_reserved": 0, "lon": -77.02371966666666}, {"fusion_lat": 0.0, "name": "fa979c29a51474b3376a49e4150b3891", "is_disabled": 0, "rental_uris": {"android": "https://dc.lft.to/lastmile_qr_scan", "ios": "https://dc.lft.to/lastmile_qr_scan"}, "fusion_lon": 0.0, "lat": 38.887663833333335, "bike_id": "fa979c29a51474b3376a49e4150b3891", "type": "electric_scooter", "is_reserved": 0, "lon": -76.97748766666666}, {"fusion_lat": 0.0, "name": "39779fa77a454318e6ca3495e14ed230", "is_disabled": 0, "rental_uris": {"android": "https://dc.lft.to/lastmile_qr_scan", "ios": "https://dc.lft.to/lastmile_qr_scan"}, "fusion_lon": 0.0, "lat": 38.898332833333335, "bike_id": "39779fa77a454318e6ca3495e14ed230", "type": "electric_scooter", "is_reserved": 0, "lon": -76.94634983333333}, {"fusion_lat": 0.0, "name": "a01df631ec46f3888c987a3d2b3f8f56", "is_disabled": 0, "rental_uris": {"android": "https://dc.lft.to/lastmile_qr_scan", "ios": "https://dc.lft.to/lastmile_qr_scan"}, "fusion_lon": 0.0, "lat": 38.92372433333333, "bike_id": "a01df631ec46f3888c987a3d2b3f8f56", "type": "electric_scooter", "is_reserved": 0, "lon": -77.05154183333333}, {"fusion_lat": 0.0, "name": "5ad4626aa1eaea5dfe85c5a660cd1e71", "is_disabled": 0, "rental_uris": {"android": "https://dc.lft.to/lastmile_qr_scan", "ios": "https://dc.lft.to/lastmile_qr_scan"}, "fusion_lon": 0.0, "lat": 38.90011716666667, "bike_id": "5ad4626aa1eaea5dfe85c5a660cd1e71", "type": "electric_scooter", "is_reserved": 0, "lon": -76.98814866666666}, {"fusion_lat": 0.0, "name": "d60ca78de32d0029ff58fdcfea282b0d", "is_disabled": 0, "rental_uris": {"android": "https://dc.lft.to/lastmile_qr_scan", "ios": "https://dc.lft.to/lastmile_qr_scan"}, "fusion_lon": 0.0, "lat": 38.90943716666666, "bike_id": "d60ca78de32d0029ff58fdcfea282b0d", "type": "electric_scooter", "is_reserved": 0, "lon": -76.9877005}, {"fusion_lat": 0.0, "name": "b8af812de3cba80bb31bbc86b5e53571", "is_disabled": 0, "rental_uris": {"android": "https://dc.lft.to/lastmile_qr_scan", "ios": "https://dc.lft.to/lastmile_qr_scan"}, "fusion_lon": 0.0, "lat": 38.912457333333336, "bike_id": "b8af812de3cba80bb31bbc86b5e53571", "type": "electric_scooter", "is_reserved": 0, "lon": -77.0387115}, {"fusion_lat": 0.0, "name": "83a3ad1748b2eb6b4f1905f131cdc164", "is_disabled": 0, "rental_uris": {"android": "https://dc.lft.to/lastmile_qr_scan", "ios": "https://dc.lft.to/lastmile_qr_scan"}, "fusion_lon": 0.0, "lat": 38.900257833333335, "bike_id": "83a3ad1748b2eb6b4f1905f131cdc164", "type": "electric_scooter", "is_reserved": 0, "lon": -76.97401483333333}, {"fusion_lat": 0.0, "name": "c1237551bd48617f10594de8ac0b04b4", "is_disabled": 0, "rental_uris": {"android": "https://dc.lft.to/lastmile_qr_scan", "ios": "https://dc.lft.to/lastmile_qr_scan"}, "fusion_lon": 0.0, "lat": 38.906775333333336, "bike_id": "c1237551bd48617f10594de8ac0b04b4", "type": "electric_scooter", "is_reserved": 0, "lon": -76.99960466666667}, {"fusion_lat": 0.0, "name": "6f704abd4424377c1a3d2e74707ec9fe", "is_disabled": 0, "rental_uris": {"android": "https://dc.lft.to/lastmile_qr_scan", "ios": "https://dc.lft.to/lastmile_qr_scan"}, "fusion_lon": 0.0, "lat": 38.915315166666666, "bike_id": "6f704abd4424377c1a3d2e74707ec9fe", "type": "electric_scooter", "is_reserved": 0, "lon": -77.01222633333333}, {"fusion_lat": 0.0, "name": "fa97067eab09166cfd34c5e29fa85a35", "is_disabled": 0, "rental_uris": {"android": "https://dc.lft.to/lastmile_qr_scan", "ios": "https://dc.lft.to/lastmile_qr_scan"}, "fusion_lon": 0.0, "lat": 38.91996316666667, "bike_id": "fa97067eab09166cfd34c5e29fa85a35", "type": "electric_scooter", "is_reserved": 0, "lon": -77.02372116666666}, {"fusion_lat": 0.0, "name": "264e52b9a76af07656eecd5acf6c9969", "is_disabled": 0, "rental_uris": {"android": "https://dc.lft.to/lastmile_qr_scan", "ios": "https://dc.lft.to/lastmile_qr_scan"}, "fusion_lon": 0.0, "lat": 38.930486333333334, "bike_id": "264e52b9a76af07656eecd5acf6c9969", "type": "electric_scooter", "is_reserved": 0, "lon": -77.03798}, {"fusion_lat": 0.0, "name": "5124443ae63259e418ec6464ea3dd4ac", "is_disabled": 0, "rental_uris": {"android": "https://dc.lft.to/lastmile_qr_scan", "ios": "https://dc.lft.to/lastmile_qr_scan"}, "fusion_lon": 0.0, "lat": 38.922898333333336, "bike_id": "5124443ae63259e418ec6464ea3dd4ac", "type": "electric_scooter", "is_reserved": 0, "lon": -76.99769566666667}, {"fusion_lat": 0.0, "name": "c0117a17e7f508a70b3665769da4cd91", "is_disabled": 0, "rental_uris": {"android": "https://dc.lft.to/lastmile_qr_scan", "ios": "https://dc.lft.to/lastmile_qr_scan"}, "fusion_lon": 0.0, "lat": 38.89719683333333, "bike_id": "c0117a17e7f508a70b3665769da4cd91", "type": "electric_scooter", "is_reserved": 0, "lon": -77.0093715}, {"fusion_lat": 0.0, "name": "a77d2005bdc832c9497e5e2eb7c3a2c5", "is_disabled": 0, "rental_uris": {"android": "https://dc.lft.to/lastmile_qr_scan", "ios": "https://dc.lft.to/lastmile_qr_scan"}, "fusion_lon": 0.0, "lat": 38.913341833333334, "bike_id": "a77d2005bdc832c9497e5e2eb7c3a2c5", "type": "electric_scooter", "is_reserved": 0, "lon": -77.031682}, {"fusion_lat": 0.0, "name": "999a2170567b375553d2851494d45e75", "is_disabled": 0, "rental_uris": {"android": "https://dc.lft.to/lastmile_qr_scan", "ios": "https://dc.lft.to/lastmile_qr_scan"}, "fusion_lon": 0.0, "lat": 38.920114166666664, "bike_id": "999a2170567b375553d2851494d45e75", "type": "electric_bike", "is_reserved": 0, "lon": -76.99067616666666}, {"fusion_lat": 0.0, "name": "182a12d3359772702513818a837b1757", "is_disabled": 0, "rental_uris": {"android": "https://dc.lft.to/lastmile_qr_scan", "ios": "https://dc.lft.to/lastmile_qr_scan"}, "fusion_lon": 0.0, "lat": 38.90196266666667, "bike_id": "182a12d3359772702513818a837b1757", "type": "electric_scooter", "is_reserved": 0, "lon": -77.05051683333333}, {"fusion_lat": 0.0, "name": "755feabc419ddbbd1c1ad68e5c6724bc", "is_disabled": 0, "rental_uris": {"android": "https://dc.lft.to/lastmile_qr_scan", "ios": "https://dc.lft.to/lastmile_qr_scan"}, "fusion_lon": 0.0, "lat": 38.911056333333335, "bike_id": "755feabc419ddbbd1c1ad68e5c6724bc", "type": "electric_scooter", "is_reserved": 0, "lon": -77.01001566666666}, {"fusion_lat": 0.0, "name": "13f4c8b185fcbc42f725af5239a0e70f", "is_disabled": 0, "rental_uris": {"android": "https://dc.lft.to/lastmile_qr_scan", "ios": "https://dc.lft.to/lastmile_qr_scan"}, "fusion_lon": 0.0, "lat": 38.9432685, "bike_id": "13f4c8b185fcbc42f725af5239a0e70f", "type": "electric_scooter", "is_reserved": 0, "lon": -77.01552283333334}, {"fusion_lat": 0.0, "name": "dd29f038fc3b46b476d147e5daa3bd7f", "is_disabled": 0, "rental_uris": {"android": "https://dc.lft.to/lastmile_qr_scan", "ios": "https://dc.lft.to/lastmile_qr_scan"}, "fusion_lon": 0.0, "lat": 38.89605, "bike_id": "dd29f038fc3b46b476d147e5daa3bd7f", "type": "electric_scooter", "is_reserved": 0, "lon": -76.9810775}, {"fusion_lat": 0.0, "name": "69fde6bba3424162e0e06945bc49afce", "is_disabled": 0, "rental_uris": {"android": "https://dc.lft.to/lastmile_qr_scan", "ios": "https://dc.lft.to/lastmile_qr_scan"}, "fusion_lon": 0.0, "lat": 38.89972783333333, "bike_id": "69fde6bba3424162e0e06945bc49afce", "type": "electric_scooter", "is_reserved": 0, "lon": -77.05262116666667}, {"fusion_lat": 0.0, "name": "1f8d32eb9086ac5eb2dcca4e981b03c2", "is_disabled": 0, "rental_uris": {"android": "https://dc.lft.to/lastmile_qr_scan", "ios": "https://dc.lft.to/lastmile_qr_scan"}, "fusion_lon": 0.0, "lat": 38.925019, "bike_id": "1f8d32eb9086ac5eb2dcca4e981b03c2", "type": "electric_scooter", "is_reserved": 0, "lon": -77.05225966666667}, {"fusion_lat": 0.0, "name": "73de987af1f90b2db7e9e80e12d69d14", "is_disabled": 0, "rental_uris": {"android": "https://dc.lft.to/lastmile_qr_scan", "ios": "https://dc.lft.to/lastmile_qr_scan"}, "fusion_lon": 0.0, "lat": 38.924764, "bike_id": "73de987af1f90b2db7e9e80e12d69d14", "type": "electric_scooter", "is_reserved": 0, "lon": -77.026685}, {"fusion_lat": 0.0, "name": "482dad280029bd9bd8fc4f372949a9a5", "is_disabled": 0, "rental_uris": {"android": "https://dc.lft.to/lastmile_qr_scan", "ios": "https://dc.lft.to/lastmile_qr_scan"}, "fusion_lon": 0.0, "lat": 38.89013933333333, "bike_id": "482dad280029bd9bd8fc4f372949a9a5", "type": "electric_scooter", "is_reserved": 0, "lon": -76.937353}, {"fusion_lat": 0.0, "name": "0b875434fbfec0096cea70a247a2309b", "is_disabled": 0, "rental_uris": {"android": "https://dc.lft.to/lastmile_qr_scan", "ios": "https://dc.lft.to/lastmile_qr_scan"}, "fusion_lon": 0.0, "lat": 38.890116666666664, "bike_id": "0b875434fbfec0096cea70a247a2309b", "type": "electric_scooter", "is_reserved": 0, "lon": -76.93734833333333}, {"fusion_lat": 0.0, "name": "d3d2a663b55e599441251614ed40059b", "is_disabled": 0, "rental_uris": {"android": "https://dc.lft.to/lastmile_qr_scan", "ios": "https://dc.lft.to/lastmile_qr_scan"}, "fusion_lon": 0.0, "lat": 38.946312666666664, "bike_id": "d3d2a663b55e599441251614ed40059b", "type": "electric_scooter", "is_reserved": 0, "lon": -77.01849033333333}, {"fusion_lat": 0.0, "name": "806ce5d781cd8e0e41b948be5803e7c7", "is_disabled": 0, "rental_uris": {"android": "https://dc.lft.to/lastmile_qr_scan", "ios": "https://dc.lft.to/lastmile_qr_scan"}, "fusion_lon": 0.0, "lat": 38.9667895, "bike_id": "806ce5d781cd8e0e41b948be5803e7c7", "type": "electric_bike", "is_reserved": 0, "lon": -77.02163983333334}, {"fusion_lat": 0.0, "name": "dd60965640a9232caa65df1e7a7f565c", "is_disabled": 0, "rental_uris": {"android": "https://dc.lft.to/lastmile_qr_scan", "ios": "https://dc.lft.to/lastmile_qr_scan"}, "fusion_lon": 0.0, "lat": 38.900605166666665, "bike_id": "dd60965640a9232caa65df1e7a7f565c", "type": "electric_scooter", "is_reserved": 0, "lon": -77.0022235}, {"fusion_lat": 0.0, "name": "b52609bf1fa27dc939bad97fff2085cb", "is_disabled": 0, "rental_uris": {"android": "https://dc.lft.to/lastmile_qr_scan", "ios": "https://dc.lft.to/lastmile_qr_scan"}, "fusion_lon": 0.0, "lat": 38.902188, "bike_id": "b52609bf1fa27dc939bad97fff2085cb", "type": "electric_scooter", "is_reserved": 0, "lon": -77.01882133333334}, {"fusion_lat": 0.0, "name": "aafa9df52520a72b8eeb0af9878e8376", "is_disabled": 0, "rental_uris": {"android": "https://dc.lft.to/lastmile_qr_scan", "ios": "https://dc.lft.to/lastmile_qr_scan"}, "fusion_lon": 0.0, "lat": 38.92081983333333, "bike_id": "aafa9df52520a72b8eeb0af9878e8376", "type": "electric_scooter", "is_reserved": 0, "lon": -77.02287983333333}, {"fusion_lat": 0.0, "name": "939e6ad50894fb92c4dad7ab863d7c5d", "is_disabled": 0, "rental_uris": {"android": "https://dc.lft.to/lastmile_qr_scan", "ios": "https://dc.lft.to/lastmile_qr_scan"}, "fusion_lon": 0.0, "lat": 38.918836666666664, "bike_id": "939e6ad50894fb92c4dad7ab863d7c5d", "type": "electric_scooter", "is_reserved": 0, "lon": -77.03491983333333}, {"fusion_lat": 0.0, "name": "654525f9a7cab8e702e5313a32ba4779", "is_disabled": 0, "rental_uris": {"android": "https://dc.lft.to/lastmile_qr_scan", "ios": "https://dc.lft.to/lastmile_qr_scan"}, "fusion_lon": 0.0, "lat": 38.91103066666667, "bike_id": "654525f9a7cab8e702e5313a32ba4779", "type": "electric_scooter", "is_reserved": 0, "lon": -77.01147233333333}, {"fusion_lat": 0.0, "name": "4501f181af20f53c285cbf3c2edbed79", "is_disabled": 0, "rental_uris": {"android": "https://dc.lft.to/lastmile_qr_scan", "ios": "https://dc.lft.to/lastmile_qr_scan"}, "fusion_lon": 0.0, "lat": 38.90266883333334, "bike_id": "4501f181af20f53c285cbf3c2edbed79", "type": "electric_scooter", "is_reserved": 0, "lon": -77.03367983333334}, {"fusion_lat": 0.0, "name": "765525e8b4e8b7cc24b6dc63fbfe95a4", "is_disabled": 0, "rental_uris": {"android": "https://dc.lft.to/lastmile_qr_scan", "ios": "https://dc.lft.to/lastmile_qr_scan"}, "fusion_lon": 0.0, "lat": 38.8984575, "bike_id": "765525e8b4e8b7cc24b6dc63fbfe95a4", "type": "electric_scooter", "is_reserved": 0, "lon": -77.029861}, {"fusion_lat": 0.0, "name": "fb31e63fb85890bf43d0ac5f4ac5afa3", "is_disabled": 0, "rental_uris": {"android": "https://dc.lft.to/lastmile_qr_scan", "ios": "https://dc.lft.to/lastmile_qr_scan"}, "fusion_lon": 0.0, "lat": 38.928673333333336, "bike_id": "fb31e63fb85890bf43d0ac5f4ac5afa3", "type": "electric_scooter", "is_reserved": 0, "lon": -77.0273225}, {"fusion_lat": 0.0, "name": "4e422b2bc68dcc663270b106bd702bdf", "is_disabled": 0, "rental_uris": {"android": "https://dc.lft.to/lastmile_qr_scan", "ios": "https://dc.lft.to/lastmile_qr_scan"}, "fusion_lon": 0.0, "lat": 38.871763333333334, "bike_id": "4e422b2bc68dcc663270b106bd702bdf", "type": "electric_scooter", "is_reserved": 0, "lon": -77.009199}, {"fusion_lat": 0.0, "name": "a087337d6f1c155b77094bdb1df8d014", "is_disabled": 0, "rental_uris": {"android": "https://dc.lft.to/lastmile_qr_scan", "ios": "https://dc.lft.to/lastmile_qr_scan"}, "fusion_lon": 0.0, "lat": 38.90467233333333, "bike_id": "a087337d6f1c155b77094bdb1df8d014", "type": "electric_scooter", "is_reserved": 0, "lon": -77.05337383333334}, {"fusion_lat": 0.0, "name": "83c127f62fa92aa65bcac30b7df777c7", "is_disabled": 0, "rental_uris": {"android": "https://dc.lft.to/lastmile_qr_scan", "ios": "https://dc.lft.to/lastmile_qr_scan"}, "fusion_lon": 0.0, "lat": 38.8824425, "bike_id": "83c127f62fa92aa65bcac30b7df777c7", "type": "electric_scooter", "is_reserved": 0, "lon": -77.00357483333333}, {"fusion_lat": 0.0, "name": "02066072c28064c2626059f190039eec", "is_disabled": 0, "rental_uris": {"android": "https://dc.lft.to/lastmile_qr_scan", "ios": "https://dc.lft.to/lastmile_qr_scan"}, "fusion_lon": 0.0, "lat": 38.8948525, "bike_id": "02066072c28064c2626059f190039eec", "type": "electric_scooter", "is_reserved": 0, "lon": -77.010921}, {"fusion_lat": 0.0, "name": "d749529b5850f6fe0aa4b8f083a2e976", "is_disabled": 0, "rental_uris": {"android": "https://dc.lft.to/lastmile_qr_scan", "ios": "https://dc.lft.to/lastmile_qr_scan"}, "fusion_lon": 0.0, "lat": 38.92208933333333, "bike_id": "d749529b5850f6fe0aa4b8f083a2e976", "type": "electric_scooter", "is_reserved": 0, "lon": -77.0201815}, {"fusion_lat": 0.0, "name": "fd4ead7531f8cd80b9726391f0ec847f", "is_disabled": 0, "rental_uris": {"android": "https://dc.lft.to/lastmile_qr_scan", "ios": "https://dc.lft.to/lastmile_qr_scan"}, "fusion_lon": 0.0, "lat": 38.8872125, "bike_id": "fd4ead7531f8cd80b9726391f0ec847f", "type": "electric_scooter", "is_reserved": 0, "lon": -77.02579883333334}, {"fusion_lat": 0.0, "name": "953d2f57972a7214c611fbac88d9fe80", "is_disabled": 0, "rental_uris": {"android": "https://dc.lft.to/lastmile_qr_scan", "ios": "https://dc.lft.to/lastmile_qr_scan"}, "fusion_lon": 0.0, "lat": 38.90303883333333, "bike_id": "953d2f57972a7214c611fbac88d9fe80", "type": "electric_scooter", "is_reserved": 0, "lon": -76.9765435}, {"fusion_lat": 0.0, "name": "dd65775c90673a721d59547afbc7b089", "is_disabled": 0, "rental_uris": {"android": "https://dc.lft.to/lastmile_qr_scan", "ios": "https://dc.lft.to/lastmile_qr_scan"}, "fusion_lon": 0.0, "lat": 38.923611333333334, "bike_id": "dd65775c90673a721d59547afbc7b089", "type": "electric_scooter", "is_reserved": 0, "lon": -77.050292}, {"fusion_lat": 0.0, "name": "bf52455f3ac25b50788aadabdcee0281", "is_disabled": 0, "rental_uris": {"android": "https://dc.lft.to/lastmile_qr_scan", "ios": "https://dc.lft.to/lastmile_qr_scan"}, "fusion_lon": 0.0, "lat": 38.921019333333334, "bike_id": "bf52455f3ac25b50788aadabdcee0281", "type": "electric_scooter", "is_reserved": 0, "lon": -77.031906}, {"fusion_lat": 0.0, "name": "0448afe908133a56bc11ea5a73d8f7c1", "is_disabled": 0, "rental_uris": {"android": "https://dc.lft.to/lastmile_qr_scan", "ios": "https://dc.lft.to/lastmile_qr_scan"}, "fusion_lon": 0.0, "lat": 38.905333166666665, "bike_id": "0448afe908133a56bc11ea5a73d8f7c1", "type": "electric_scooter", "is_reserved": 0, "lon": -77.04117183333334}, {"fusion_lat": 0.0, "name": "8577f765353cdcacfd3854447547dbe2", "is_disabled": 0, "rental_uris": {"android": "https://dc.lft.to/lastmile_qr_scan", "ios": "https://dc.lft.to/lastmile_qr_scan"}, "fusion_lon": 0.0, "lat": 38.9171675, "bike_id": "8577f765353cdcacfd3854447547dbe2", "type": "electric_scooter", "is_reserved": 0, "lon": -77.0320545}, {"fusion_lat": 0.0, "name": "f813727e2321d076ad686ab617394669", "is_disabled": 0, "rental_uris": {"android": "https://dc.lft.to/lastmile_qr_scan", "ios": "https://dc.lft.to/lastmile_qr_scan"}, "fusion_lon": 0.0, "lat": 38.8933555, "bike_id": "f813727e2321d076ad686ab617394669", "type": "electric_scooter", "is_reserved": 0, "lon": -76.943799}, {"fusion_lat": 0.0, "name": "e1588da33749251bed726501753f8a75", "is_disabled": 0, "rental_uris": {"android": "https://dc.lft.to/lastmile_qr_scan", "ios": "https://dc.lft.to/lastmile_qr_scan"}, "fusion_lon": 0.0, "lat": 38.90564783333333, "bike_id": "e1588da33749251bed726501753f8a75", "type": "electric_scooter", "is_reserved": 0, "lon": -77.022078}, {"fusion_lat": 0.0, "name": "da8fa6ea8874e666ce4f762ed2f26fd9", "is_disabled": 0, "rental_uris": {"android": "https://dc.lft.to/lastmile_qr_scan", "ios": "https://dc.lft.to/lastmile_qr_scan"}, "fusion_lon": 0.0, "lat": 38.88996433333333, "bike_id": "da8fa6ea8874e666ce4f762ed2f26fd9", "type": "electric_scooter", "is_reserved": 0, "lon": -77.0374815}, {"fusion_lat": 0.0, "name": "ba684dffe5c1ceecbc02076ff39cb3a6", "is_disabled": 0, "rental_uris": {"android": "https://dc.lft.to/lastmile_qr_scan", "ios": "https://dc.lft.to/lastmile_qr_scan"}, "fusion_lon": 0.0, "lat": 38.91800633333333, "bike_id": "ba684dffe5c1ceecbc02076ff39cb3a6", "type": "electric_scooter", "is_reserved": 0, "lon": -77.03448716666666}, {"fusion_lat": 0.0, "name": "347dd134cb4a756923b7f2532e1efc0b", "is_disabled": 0, "rental_uris": {"android": "https://dc.lft.to/lastmile_qr_scan", "ios": "https://dc.lft.to/lastmile_qr_scan"}, "fusion_lon": 0.0, "lat": 38.919761, "bike_id": "347dd134cb4a756923b7f2532e1efc0b", "type": "electric_scooter", "is_reserved": 0, "lon": -77.02374366666666}, {"fusion_lat": 0.0, "name": "86c726e134dda835d9c2ed09e30cf875", "is_disabled": 0, "rental_uris": {"android": "https://dc.lft.to/lastmile_qr_scan", "ios": "https://dc.lft.to/lastmile_qr_scan"}, "fusion_lon": 0.0, "lat": 38.933712166666666, "bike_id": "86c726e134dda835d9c2ed09e30cf875", "type": "electric_scooter", "is_reserved": 0, "lon": -77.05727016666667}, {"fusion_lat": 0.0, "name": "a2c1aa4b3408ac24f95d33a43061165b", "is_disabled": 0, "rental_uris": {"android": "https://dc.lft.to/lastmile_qr_scan", "ios": "https://dc.lft.to/lastmile_qr_scan"}, "fusion_lon": 0.0, "lat": 38.9266825, "bike_id": "a2c1aa4b3408ac24f95d33a43061165b", "type": "electric_scooter", "is_reserved": 0, "lon": -77.01500533333333}, {"fusion_lat": 0.0, "name": "2356e8d531838ce1285e21e4d8f66018", "is_disabled": 0, "rental_uris": {"android": "https://dc.lft.to/lastmile_qr_scan", "ios": "https://dc.lft.to/lastmile_qr_scan"}, "fusion_lon": 0.0, "lat": 38.994414666666664, "bike_id": "2356e8d531838ce1285e21e4d8f66018", "type": "electric_bike", "is_reserved": 0, "lon": -76.995916}, {"fusion_lat": 0.0, "name": "bec474935b8aacbb31c9a68a6c5ef65b", "is_disabled": 0, "rental_uris": {"android": "https://dc.lft.to/lastmile_qr_scan", "ios": "https://dc.lft.to/lastmile_qr_scan"}, "fusion_lon": 0.0, "lat": 38.9200565, "bike_id": "bec474935b8aacbb31c9a68a6c5ef65b", "type": "electric_scooter", "is_reserved": 0, "lon": -77.032782}, {"fusion_lat": 0.0, "name": "f4812721fe2ceafdb059eab3079ca49f", "is_disabled": 0, "rental_uris": {"android": "https://dc.lft.to/lastmile_qr_scan", "ios": "https://dc.lft.to/lastmile_qr_scan"}, "fusion_lon": 0.0, "lat": 38.913231333333336, "bike_id": "f4812721fe2ceafdb059eab3079ca49f", "type": "electric_scooter", "is_reserved": 0, "lon": -77.01503916666667}, {"fusion_lat": 0.0, "name": "be515587845bf882b891fb288ed0c413", "is_disabled": 0, "rental_uris": {"android": "https://dc.lft.to/lastmile_qr_scan", "ios": "https://dc.lft.to/lastmile_qr_scan"}, "fusion_lon": 0.0, "lat": 38.91731133333333, "bike_id": "be515587845bf882b891fb288ed0c413", "type": "electric_scooter", "is_reserved": 0, "lon": -77.03662083333333}, {"fusion_lat": 0.0, "name": "dffb46b25004377eea64ec93c94b46fa", "is_disabled": 0, "rental_uris": {"android": "https://dc.lft.to/lastmile_qr_scan", "ios": "https://dc.lft.to/lastmile_qr_scan"}, "fusion_lon": 0.0, "lat": 38.93340416666667, "bike_id": "dffb46b25004377eea64ec93c94b46fa", "type": "electric_scooter", "is_reserved": 0, "lon": -77.02742633333334}, {"fusion_lat": 0.0, "name": "20b9003df1907dc0ef90c6baed8e7337", "is_disabled": 0, "rental_uris": {"android": "https://dc.lft.to/lastmile_qr_scan", "ios": "https://dc.lft.to/lastmile_qr_scan"}, "fusion_lon": 0.0, "lat": 38.941961666666664, "bike_id": "20b9003df1907dc0ef90c6baed8e7337", "type": "electric_scooter", "is_reserved": 0, "lon": -77.02589616666667}, {"fusion_lat": 0.0, "name": "93be5a51f48dcc5d5bf23194370f6019", "is_disabled": 0, "rental_uris": {"android": "https://dc.lft.to/lastmile_qr_scan", "ios": "https://dc.lft.to/lastmile_qr_scan"}, "fusion_lon": 0.0, "lat": 38.906473166666665, "bike_id": "93be5a51f48dcc5d5bf23194370f6019", "type": "electric_scooter", "is_reserved": 0, "lon": -77.0416075}, {"fusion_lat": 0.0, "name": "f33a862383a92974285e116d66db15ca", "is_disabled": 0, "rental_uris": {"android": "https://dc.lft.to/lastmile_qr_scan", "ios": "https://dc.lft.to/lastmile_qr_scan"}, "fusion_lon": 0.0, "lat": 38.914147166666666, "bike_id": "f33a862383a92974285e116d66db15ca", "type": "electric_scooter", "is_reserved": 0, "lon": -77.040781}, {"fusion_lat": 0.0, "name": "86a6511928b9ece899acdf8a655dac1c", "is_disabled": 0, "rental_uris": {"android": "https://dc.lft.to/lastmile_qr_scan", "ios": "https://dc.lft.to/lastmile_qr_scan"}, "fusion_lon": 0.0, "lat": 38.91108633333333, "bike_id": "86a6511928b9ece899acdf8a655dac1c", "type": "electric_scooter", "is_reserved": 0, "lon": -77.0144295}, {"fusion_lat": 0.0, "name": "a46e2f2104bcbeeeab29b7aa21c6d9e9", "is_disabled": 0, "rental_uris": {"android": "https://dc.lft.to/lastmile_qr_scan", "ios": "https://dc.lft.to/lastmile_qr_scan"}, "fusion_lon": 0.0, "lat": 38.90107316666667, "bike_id": "a46e2f2104bcbeeeab29b7aa21c6d9e9", "type": "electric_scooter", "is_reserved": 0, "lon": -77.02213916666666}, {"fusion_lat": 0.0, "name": "594f9e4522556089eb6fe18190925577", "is_disabled": 0, "rental_uris": {"android": "https://dc.lft.to/lastmile_qr_scan", "ios": "https://dc.lft.to/lastmile_qr_scan"}, "fusion_lon": 0.0, "lat": 38.845049833333334, "bike_id": "594f9e4522556089eb6fe18190925577", "type": "electric_bike", "is_reserved": 0, "lon": -76.99351133333333}, {"fusion_lat": 0.0, "name": "0486f8d9f96f5cbd51e3567b48219ad5", "is_disabled": 0, "rental_uris": {"android": "https://dc.lft.to/lastmile_qr_scan", "ios": "https://dc.lft.to/lastmile_qr_scan"}, "fusion_lon": 0.0, "lat": 38.93119433333333, "bike_id": "0486f8d9f96f5cbd51e3567b48219ad5", "type": "electric_scooter", "is_reserved": 0, "lon": -77.0297965}, {"fusion_lat": 0.0, "name": "e9e7abaa955f8b9a416a54d11f38a0df", "is_disabled": 0, "rental_uris": {"android": "https://dc.lft.to/lastmile_qr_scan", "ios": "https://dc.lft.to/lastmile_qr_scan"}, "fusion_lon": 0.0, "lat": 38.90729966666667, "bike_id": "e9e7abaa955f8b9a416a54d11f38a0df", "type": "electric_scooter", "is_reserved": 0, "lon": -77.02804416666666}, {"fusion_lat": 0.0, "name": "1b7c47fcd76cbf7e3360ee6a3d9b8271", "is_disabled": 0, "rental_uris": {"android": "https://dc.lft.to/lastmile_qr_scan", "ios": "https://dc.lft.to/lastmile_qr_scan"}, "fusion_lon": 0.0, "lat": 38.915947, "bike_id": "1b7c47fcd76cbf7e3360ee6a3d9b8271", "type": "electric_scooter", "is_reserved": 0, "lon": -77.04549566666667}, {"fusion_lat": 0.0, "name": "9bc9e6747d5bcc6b25be4eda75d81da8", "is_disabled": 0, "rental_uris": {"android": "https://dc.lft.to/lastmile_qr_scan", "ios": "https://dc.lft.to/lastmile_qr_scan"}, "fusion_lon": 0.0, "lat": 38.87479616666667, "bike_id": "9bc9e6747d5bcc6b25be4eda75d81da8", "type": "electric_scooter", "is_reserved": 0, "lon": -77.0011935}, {"fusion_lat": 0.0, "name": "56c92afaa3ec3b16d3296433c2da29a6", "is_disabled": 0, "rental_uris": {"android": "https://dc.lft.to/lastmile_qr_scan", "ios": "https://dc.lft.to/lastmile_qr_scan"}, "fusion_lon": 0.0, "lat": 38.914837, "bike_id": "56c92afaa3ec3b16d3296433c2da29a6", "type": "electric_scooter", "is_reserved": 0, "lon": -77.0428145}, {"fusion_lat": 0.0, "name": "0a4f1a482d5d74693116058cdfafe56d", "is_disabled": 0, "rental_uris": {"android": "https://dc.lft.to/lastmile_qr_scan", "ios": "https://dc.lft.to/lastmile_qr_scan"}, "fusion_lon": 0.0, "lat": 38.909667666666664, "bike_id": "0a4f1a482d5d74693116058cdfafe56d", "type": "electric_scooter", "is_reserved": 0, "lon": -77.03198}, {"fusion_lat": 0.0, "name": "0f4c62887f400ae6fc306630f557be6f", "is_disabled": 0, "rental_uris": {"android": "https://dc.lft.to/lastmile_qr_scan", "ios": "https://dc.lft.to/lastmile_qr_scan"}, "fusion_lon": 0.0, "lat": 38.877104333333335, "bike_id": "0f4c62887f400ae6fc306630f557be6f", "type": "electric_scooter", "is_reserved": 0, "lon": -77.0176175}, {"fusion_lat": 0.0, "name": "245f1702a91c8e5d14521d371edf6644", "is_disabled": 0, "rental_uris": {"android": "https://dc.lft.to/lastmile_qr_scan", "ios": "https://dc.lft.to/lastmile_qr_scan"}, "fusion_lon": 0.0, "lat": 38.905999666666666, "bike_id": "245f1702a91c8e5d14521d371edf6644", "type": "electric_scooter", "is_reserved": 0, "lon": -77.062977}, {"fusion_lat": 0.0, "name": "4ee7c3892331476be162845a8eb0a2b9", "is_disabled": 0, "rental_uris": {"android": "https://dc.lft.to/lastmile_qr_scan", "ios": "https://dc.lft.to/lastmile_qr_scan"}, "fusion_lon": 0.0, "lat": 38.92792166666667, "bike_id": "4ee7c3892331476be162845a8eb0a2b9", "type": "electric_scooter", "is_reserved": 0, "lon": -77.02257466666667}, {"fusion_lat": 0.0, "name": "6f1374dfa2a38a5cb4ca111d3ac889dd", "is_disabled": 0, "rental_uris": {"android": "https://dc.lft.to/lastmile_qr_scan", "ios": "https://dc.lft.to/lastmile_qr_scan"}, "fusion_lon": 0.0, "lat": 38.900643, "bike_id": "6f1374dfa2a38a5cb4ca111d3ac889dd", "type": "electric_scooter", "is_reserved": 0, "lon": -76.9274565}, {"fusion_lat": 0.0, "name": "7b3d5827ba5d6089d39a7d42962989bf", "is_disabled": 0, "rental_uris": {"android": "https://dc.lft.to/lastmile_qr_scan", "ios": "https://dc.lft.to/lastmile_qr_scan"}, "fusion_lon": 0.0, "lat": 38.87533633333334, "bike_id": "7b3d5827ba5d6089d39a7d42962989bf", "type": "electric_scooter", "is_reserved": 0, "lon": -77.005073}, {"fusion_lat": 0.0, "name": "37de41c4ce2ec1329aa665a573ff375d", "is_disabled": 0, "rental_uris": {"android": "https://dc.lft.to/lastmile_qr_scan", "ios": "https://dc.lft.to/lastmile_qr_scan"}, "fusion_lon": 0.0, "lat": 38.92750183333333, "bike_id": "37de41c4ce2ec1329aa665a573ff375d", "type": "electric_scooter", "is_reserved": 0, "lon": -77.02426266666667}, {"fusion_lat": 0.0, "name": "675511abea6626a07723ca085d87436d", "is_disabled": 0, "rental_uris": {"android": "https://dc.lft.to/lastmile_qr_scan", "ios": "https://dc.lft.to/lastmile_qr_scan"}, "fusion_lon": 0.0, "lat": 38.896618333333336, "bike_id": "675511abea6626a07723ca085d87436d", "type": "electric_scooter", "is_reserved": 0, "lon": -77.05147816666667}, {"fusion_lat": 0.0, "name": "785f8f9791484a0d06eeb4a169fd6965", "is_disabled": 0, "rental_uris": {"android": "https://dc.lft.to/lastmile_qr_scan", "ios": "https://dc.lft.to/lastmile_qr_scan"}, "fusion_lon": 0.0, "lat": 38.95756316666667, "bike_id": "785f8f9791484a0d06eeb4a169fd6965", "type": "electric_scooter", "is_reserved": 0, "lon": -77.02055833333333}, {"fusion_lat": 0.0, "name": "c6a7337868a3e389cc8b00b9b1a0a905", "is_disabled": 0, "rental_uris": {"android": "https://dc.lft.to/lastmile_qr_scan", "ios": "https://dc.lft.to/lastmile_qr_scan"}, "fusion_lon": 0.0, "lat": 38.902726, "bike_id": "c6a7337868a3e389cc8b00b9b1a0a905", "type": "electric_scooter", "is_reserved": 0, "lon": -77.0397425}, {"fusion_lat": 0.0, "name": "d59aa0ca35e2286bc5948f8a5c1e78fb", "is_disabled": 0, "rental_uris": {"android": "https://dc.lft.to/lastmile_qr_scan", "ios": "https://dc.lft.to/lastmile_qr_scan"}, "fusion_lon": 0.0, "lat": 38.895450833333335, "bike_id": "d59aa0ca35e2286bc5948f8a5c1e78fb", "type": "electric_scooter", "is_reserved": 0, "lon": -76.94949083333333}, {"fusion_lat": 0.0, "name": "f7956350260b6ef04707989bc85df0a6", "is_disabled": 0, "rental_uris": {"android": "https://dc.lft.to/lastmile_qr_scan", "ios": "https://dc.lft.to/lastmile_qr_scan"}, "fusion_lon": 0.0, "lat": 38.92315383333333, "bike_id": "f7956350260b6ef04707989bc85df0a6", "type": "electric_scooter", "is_reserved": 0, "lon": -77.04409583333333}, {"fusion_lat": 0.0, "name": "7ff957728e49dc2512cb479baa2ac587", "is_disabled": 0, "rental_uris": {"android": "https://dc.lft.to/lastmile_qr_scan", "ios": "https://dc.lft.to/lastmile_qr_scan"}, "fusion_lon": 0.0, "lat": 38.87662, "bike_id": "7ff957728e49dc2512cb479baa2ac587", "type": "electric_scooter", "is_reserved": 0, "lon": -76.99622783333334}, {"fusion_lat": 0.0, "name": "6e233b034f0ff3f2e2dfb5a9c917a62f", "is_disabled": 0, "rental_uris": {"android": "https://dc.lft.to/lastmile_qr_scan", "ios": "https://dc.lft.to/lastmile_qr_scan"}, "fusion_lon": 0.0, "lat": 38.87383166666667, "bike_id": "6e233b034f0ff3f2e2dfb5a9c917a62f", "type": "electric_scooter", "is_reserved": 0, "lon": -77.00038183333334}, {"fusion_lat": 0.0, "name": "bc900c9267fe3ae3d269e86a3cbe9efb", "is_disabled": 0, "rental_uris": {"android": "https://dc.lft.to/lastmile_qr_scan", "ios": "https://dc.lft.to/lastmile_qr_scan"}, "fusion_lon": 0.0, "lat": 38.972863833333335, "bike_id": "bc900c9267fe3ae3d269e86a3cbe9efb", "type": "electric_scooter", "is_reserved": 0, "lon": -77.01159166666666}, {"fusion_lat": 0.0, "name": "652c11e8cf12b1f41ef9a334750fc2ab", "is_disabled": 0, "rental_uris": {"android": "https://dc.lft.to/lastmile_qr_scan", "ios": "https://dc.lft.to/lastmile_qr_scan"}, "fusion_lon": 0.0, "lat": 38.8544865, "bike_id": "652c11e8cf12b1f41ef9a334750fc2ab", "type": "electric_scooter", "is_reserved": 0, "lon": -76.98578766666667}, {"fusion_lat": 0.0, "name": "0f83ad7f6842e67502955d82f26aec55", "is_disabled": 0, "rental_uris": {"android": "https://dc.lft.to/lastmile_qr_scan", "ios": "https://dc.lft.to/lastmile_qr_scan"}, "fusion_lon": 0.0, "lat": 38.899025, "bike_id": "0f83ad7f6842e67502955d82f26aec55", "type": "electric_scooter", "is_reserved": 0, "lon": -77.03343}, {"fusion_lat": 0.0, "name": "d2346b38237564ab702d5dfab174025f", "is_disabled": 0, "rental_uris": {"android": "https://dc.lft.to/lastmile_qr_scan", "ios": "https://dc.lft.to/lastmile_qr_scan"}, "fusion_lon": 0.0, "lat": 38.900309166666666, "bike_id": "d2346b38237564ab702d5dfab174025f", "type": "electric_scooter", "is_reserved": 0, "lon": -77.011934}, {"fusion_lat": 0.0, "name": "0d68c74d970c9140a23f1859e1f3fe0a", "is_disabled": 0, "rental_uris": {"android": "https://dc.lft.to/lastmile_qr_scan", "ios": "https://dc.lft.to/lastmile_qr_scan"}, "fusion_lon": 0.0, "lat": 38.913247, "bike_id": "0d68c74d970c9140a23f1859e1f3fe0a", "type": "electric_scooter", "is_reserved": 0, "lon": -77.03212066666667}, {"fusion_lat": 0.0, "name": "98eaac86eb67807e33ca075ba7eae547", "is_disabled": 0, "rental_uris": {"android": "https://dc.lft.to/lastmile_qr_scan", "ios": "https://dc.lft.to/lastmile_qr_scan"}, "fusion_lon": 0.0, "lat": 38.92071416666667, "bike_id": "98eaac86eb67807e33ca075ba7eae547", "type": "electric_scooter", "is_reserved": 0, "lon": -77.01473516666667}, {"fusion_lat": 0.0, "name": "d7b4baacc91e38dbbd8539937273ff47", "is_disabled": 0, "rental_uris": {"android": "https://dc.lft.to/lastmile_qr_scan", "ios": "https://dc.lft.to/lastmile_qr_scan"}, "fusion_lon": 0.0, "lat": 38.920434166666666, "bike_id": "d7b4baacc91e38dbbd8539937273ff47", "type": "electric_scooter", "is_reserved": 0, "lon": -77.01796166666666}, {"fusion_lat": 0.0, "name": "8d4298b5e4f9f40e21cdc25a65bfa3c5", "is_disabled": 0, "rental_uris": {"android": "https://dc.lft.to/lastmile_qr_scan", "ios": "https://dc.lft.to/lastmile_qr_scan"}, "fusion_lon": 0.0, "lat": 38.9155315, "bike_id": "8d4298b5e4f9f40e21cdc25a65bfa3c5", "type": "electric_scooter", "is_reserved": 0, "lon": -77.03860966666667}, {"fusion_lat": 0.0, "name": "86f90de3208ec040bd16c1513a958bc0", "is_disabled": 0, "rental_uris": {"android": "https://dc.lft.to/lastmile_qr_scan", "ios": "https://dc.lft.to/lastmile_qr_scan"}, "fusion_lon": 0.0, "lat": 38.96185033333333, "bike_id": "86f90de3208ec040bd16c1513a958bc0", "type": "electric_bike", "is_reserved": 0, "lon": -77.052665}, {"fusion_lat": 0.0, "name": "020a089441d57bc232568aaa48164fda", "is_disabled": 0, "rental_uris": {"android": "https://dc.lft.to/lastmile_qr_scan", "ios": "https://dc.lft.to/lastmile_qr_scan"}, "fusion_lon": 0.0, "lat": 38.89703, "bike_id": "020a089441d57bc232568aaa48164fda", "type": "electric_scooter", "is_reserved": 0, "lon": -77.013149}, {"fusion_lat": 0.0, "name": "fcb0c25ca45ee2c2d0d0916679ad1f4e", "is_disabled": 0, "rental_uris": {"android": "https://dc.lft.to/lastmile_qr_scan", "ios": "https://dc.lft.to/lastmile_qr_scan"}, "fusion_lon": 0.0, "lat": 38.902652, "bike_id": "fcb0c25ca45ee2c2d0d0916679ad1f4e", "type": "electric_scooter", "is_reserved": 0, "lon": -77.05322016666666}, {"fusion_lat": 0.0, "name": "ac89f2572cae7400608a73845d1f2161", "is_disabled": 0, "rental_uris": {"android": "https://dc.lft.to/lastmile_qr_scan", "ios": "https://dc.lft.to/lastmile_qr_scan"}, "fusion_lon": 0.0, "lat": 38.912656166666665, "bike_id": "ac89f2572cae7400608a73845d1f2161", "type": "electric_scooter", "is_reserved": 0, "lon": -77.03867633333333}, {"fusion_lat": 0.0, "name": "9cfe4d7bf0d2e6aff6066e349204dcf9", "is_disabled": 0, "rental_uris": {"android": "https://dc.lft.to/lastmile_qr_scan", "ios": "https://dc.lft.to/lastmile_qr_scan"}, "fusion_lon": 0.0, "lat": 38.905116666666665, "bike_id": "9cfe4d7bf0d2e6aff6066e349204dcf9", "type": "electric_scooter", "is_reserved": 0, "lon": -77.0316535}, {"fusion_lat": 0.0, "name": "8af58062771059ace0b54916eae31125", "is_disabled": 0, "rental_uris": {"android": "https://dc.lft.to/lastmile_qr_scan", "ios": "https://dc.lft.to/lastmile_qr_scan"}, "fusion_lon": 0.0, "lat": 38.924379333333334, "bike_id": "8af58062771059ace0b54916eae31125", "type": "electric_scooter", "is_reserved": 0, "lon": -77.044708}, {"fusion_lat": 0.0, "name": "355a765316e68b5a1492986bc0dd4bc6", "is_disabled": 0, "rental_uris": {"android": "https://dc.lft.to/lastmile_qr_scan", "ios": "https://dc.lft.to/lastmile_qr_scan"}, "fusion_lon": 0.0, "lat": 38.926695333333335, "bike_id": "355a765316e68b5a1492986bc0dd4bc6", "type": "electric_scooter", "is_reserved": 0, "lon": -77.02779733333334}, {"fusion_lat": 0.0, "name": "1570e01940ed5985f27423e5961d5709", "is_disabled": 0, "rental_uris": {"android": "https://dc.lft.to/lastmile_qr_scan", "ios": "https://dc.lft.to/lastmile_qr_scan"}, "fusion_lon": 0.0, "lat": 38.78270083333334, "bike_id": "1570e01940ed5985f27423e5961d5709", "type": "electric_bike", "is_reserved": 0, "lon": -77.01608633333333}, {"fusion_lat": 0.0, "name": "7a352481654225e1612ca7aab002ddb3", "is_disabled": 0, "rental_uris": {"android": "https://dc.lft.to/lastmile_qr_scan", "ios": "https://dc.lft.to/lastmile_qr_scan"}, "fusion_lon": 0.0, "lat": 38.8745885, "bike_id": "7a352481654225e1612ca7aab002ddb3", "type": "electric_scooter", "is_reserved": 0, "lon": -77.00284516666666}, {"fusion_lat": 0.0, "name": "2b4e6e0fc184f8531336a44f26869464", "is_disabled": 0, "rental_uris": {"android": "https://dc.lft.to/lastmile_qr_scan", "ios": "https://dc.lft.to/lastmile_qr_scan"}, "fusion_lon": 0.0, "lat": 38.86020366666666, "bike_id": "2b4e6e0fc184f8531336a44f26869464", "type": "electric_bike", "is_reserved": 0, "lon": -77.12805283333333}, {"fusion_lat": 0.0, "name": "7ce33985fe694568aef7356e729ef7d7", "is_disabled": 0, "rental_uris": {"android": "https://dc.lft.to/lastmile_qr_scan", "ios": "https://dc.lft.to/lastmile_qr_scan"}, "fusion_lon": 0.0, "lat": 38.9326615, "bike_id": "7ce33985fe694568aef7356e729ef7d7", "type": "electric_scooter", "is_reserved": 0, "lon": -77.01917783333333}, {"fusion_lat": 0.0, "name": "8056b9828902dddd6818f39544be7437", "is_disabled": 0, "rental_uris": {"android": "https://dc.lft.to/lastmile_qr_scan", "ios": "https://dc.lft.to/lastmile_qr_scan"}, "fusion_lon": 0.0, "lat": 38.94093516666667, "bike_id": "8056b9828902dddd6818f39544be7437", "type": "electric_scooter", "is_reserved": 0, "lon": -77.03279983333333}, {"fusion_lat": 0.0, "name": "47098971b5cf3bc782abea3ff6bdaed9", "is_disabled": 0, "rental_uris": {"android": "https://dc.lft.to/lastmile_qr_scan", "ios": "https://dc.lft.to/lastmile_qr_scan"}, "fusion_lon": 0.0, "lat": 38.920144, "bike_id": "47098971b5cf3bc782abea3ff6bdaed9", "type": "electric_scooter", "is_reserved": 0, "lon": -77.02512533333334}, {"fusion_lat": 0.0, "name": "579a435ea674c99db52fed9f74157cc7", "is_disabled": 0, "rental_uris": {"android": "https://dc.lft.to/lastmile_qr_scan", "ios": "https://dc.lft.to/lastmile_qr_scan"}, "fusion_lon": 0.0, "lat": 38.952315, "bike_id": "579a435ea674c99db52fed9f74157cc7", "type": "electric_scooter", "is_reserved": 0, "lon": -76.9906305}, {"fusion_lat": 0.0, "name": "e97bf03dcb393d2d398dc6791cef87f8", "is_disabled": 0, "rental_uris": {"android": "https://dc.lft.to/lastmile_qr_scan", "ios": "https://dc.lft.to/lastmile_qr_scan"}, "fusion_lon": 0.0, "lat": 38.930802, "bike_id": "e97bf03dcb393d2d398dc6791cef87f8", "type": "electric_scooter", "is_reserved": 0, "lon": -77.02006233333333}, {"fusion_lat": 0.0, "name": "9e73023792c43a27d819adfa15111f52", "is_disabled": 0, "rental_uris": {"android": "https://dc.lft.to/lastmile_qr_scan", "ios": "https://dc.lft.to/lastmile_qr_scan"}, "fusion_lon": 0.0, "lat": 38.92849666666667, "bike_id": "9e73023792c43a27d819adfa15111f52", "type": "electric_scooter", "is_reserved": 0, "lon": -77.01403416666666}, {"fusion_lat": 0.0, "name": "f2e2ab483018ccd6e3a588de1fbd5a6c", "is_disabled": 0, "rental_uris": {"android": "https://dc.lft.to/lastmile_qr_scan", "ios": "https://dc.lft.to/lastmile_qr_scan"}, "fusion_lon": 0.0, "lat": 38.917240166666666, "bike_id": "f2e2ab483018ccd6e3a588de1fbd5a6c", "type": "electric_scooter", "is_reserved": 0, "lon": -77.01925666666666}, {"fusion_lat": 0.0, "name": "772658a799a8011b10e3d6d454164d71", "is_disabled": 0, "rental_uris": {"android": "https://dc.lft.to/lastmile_qr_scan", "ios": "https://dc.lft.to/lastmile_qr_scan"}, "fusion_lon": 0.0, "lat": 38.930750333333336, "bike_id": "772658a799a8011b10e3d6d454164d71", "type": "electric_scooter", "is_reserved": 0, "lon": -77.07763566666667}, {"fusion_lat": 0.0, "name": "e4bf33e1254342cabcbafb939fe48ea8", "is_disabled": 0, "rental_uris": {"android": "https://dc.lft.to/lastmile_qr_scan", "ios": "https://dc.lft.to/lastmile_qr_scan"}, "fusion_lon": 0.0, "lat": 38.90923816666667, "bike_id": "e4bf33e1254342cabcbafb939fe48ea8", "type": "electric_bike", "is_reserved": 0, "lon": -77.03210866666667}, {"fusion_lat": 0.0, "name": "2e76e248f86f2216760f9666cc53b307", "is_disabled": 0, "rental_uris": {"android": "https://dc.lft.to/lastmile_qr_scan", "ios": "https://dc.lft.to/lastmile_qr_scan"}, "fusion_lon": 0.0, "lat": 38.935958666666664, "bike_id": "2e76e248f86f2216760f9666cc53b307", "type": "electric_scooter", "is_reserved": 0, "lon": -77.03664933333333}, {"fusion_lat": 0.0, "name": "505895e8bd39a685b48926c32a35dfbf", "is_disabled": 0, "rental_uris": {"android": "https://dc.lft.to/lastmile_qr_scan", "ios": "https://dc.lft.to/lastmile_qr_scan"}, "fusion_lon": 0.0, "lat": 38.9059625, "bike_id": "505895e8bd39a685b48926c32a35dfbf", "type": "electric_scooter", "is_reserved": 0, "lon": -77.02597566666667}, {"fusion_lat": 0.0, "name": "c0f08366ff230b6414e3bb7f81ead84a", "is_disabled": 0, "rental_uris": {"android": "https://dc.lft.to/lastmile_qr_scan", "ios": "https://dc.lft.to/lastmile_qr_scan"}, "fusion_lon": 0.0, "lat": 38.944974, "bike_id": "c0f08366ff230b6414e3bb7f81ead84a", "type": "electric_scooter", "is_reserved": 0, "lon": -77.038792}, {"fusion_lat": 0.0, "name": "52e0c5a72b77dace57d7739c42e3b4b1", "is_disabled": 0, "rental_uris": {"android": "https://dc.lft.to/lastmile_qr_scan", "ios": "https://dc.lft.to/lastmile_qr_scan"}, "fusion_lon": 0.0, "lat": 38.91925966666667, "bike_id": "52e0c5a72b77dace57d7739c42e3b4b1", "type": "electric_scooter", "is_reserved": 0, "lon": -77.04157933333333}, {"fusion_lat": 0.0, "name": "e3bb3f7bffd0c537a29904e3f6c00a44", "is_disabled": 0, "rental_uris": {"android": "https://dc.lft.to/lastmile_qr_scan", "ios": "https://dc.lft.to/lastmile_qr_scan"}, "fusion_lon": 0.0, "lat": 38.914034666666666, "bike_id": "e3bb3f7bffd0c537a29904e3f6c00a44", "type": "electric_scooter", "is_reserved": 0, "lon": -77.03266683333334}, {"fusion_lat": 0.0, "name": "91f0d264a8a6f7c0138e373b9d7b9d55", "is_disabled": 0, "rental_uris": {"android": "https://dc.lft.to/lastmile_qr_scan", "ios": "https://dc.lft.to/lastmile_qr_scan"}, "fusion_lon": 0.0, "lat": 38.89218, "bike_id": "91f0d264a8a6f7c0138e373b9d7b9d55", "type": "electric_scooter", "is_reserved": 0, "lon": -76.95740983333333}, {"fusion_lat": 0.0, "name": "fffc49859e03d8ee3e500d53b0c30fb9", "is_disabled": 0, "rental_uris": {"android": "https://dc.lft.to/lastmile_qr_scan", "ios": "https://dc.lft.to/lastmile_qr_scan"}, "fusion_lon": 0.0, "lat": 38.8954525, "bike_id": "fffc49859e03d8ee3e500d53b0c30fb9", "type": "electric_scooter", "is_reserved": 0, "lon": -76.98336816666666}, {"fusion_lat": 0.0, "name": "7447565283d7558a1eaefadbb28d8739", "is_disabled": 0, "rental_uris": {"android": "https://dc.lft.to/lastmile_qr_scan", "ios": "https://dc.lft.to/lastmile_qr_scan"}, "fusion_lon": 0.0, "lat": 38.8956805, "bike_id": "7447565283d7558a1eaefadbb28d8739", "type": "electric_scooter", "is_reserved": 0, "lon": -76.94878566666667}, {"fusion_lat": 0.0, "name": "0dc0874f9725c44b5df06a48cc935bfb", "is_disabled": 0, "rental_uris": {"android": "https://dc.lft.to/lastmile_qr_scan", "ios": "https://dc.lft.to/lastmile_qr_scan"}, "fusion_lon": 0.0, "lat": 38.917302666666664, "bike_id": "0dc0874f9725c44b5df06a48cc935bfb", "type": "electric_scooter", "is_reserved": 0, "lon": -77.0366285}, {"fusion_lat": 0.0, "name": "07eecfbb8755641c532b0645406e3d68", "is_disabled": 0, "rental_uris": {"android": "https://dc.lft.to/lastmile_qr_scan", "ios": "https://dc.lft.to/lastmile_qr_scan"}, "fusion_lon": 0.0, "lat": 38.916951, "bike_id": "07eecfbb8755641c532b0645406e3d68", "type": "electric_scooter", "is_reserved": 0, "lon": -77.02396183333333}, {"fusion_lat": 0.0, "name": "5693ff764c40ca3a4231536c58a4f599", "is_disabled": 0, "rental_uris": {"android": "https://dc.lft.to/lastmile_qr_scan", "ios": "https://dc.lft.to/lastmile_qr_scan"}, "fusion_lon": 0.0, "lat": 38.9335335, "bike_id": "5693ff764c40ca3a4231536c58a4f599", "type": "electric_scooter", "is_reserved": 0, "lon": -77.073086}, {"fusion_lat": 0.0, "name": "9f0cf34163e381beb09ab777f1cbc3df", "is_disabled": 0, "rental_uris": {"android": "https://dc.lft.to/lastmile_qr_scan", "ios": "https://dc.lft.to/lastmile_qr_scan"}, "fusion_lon": 0.0, "lat": 38.917778166666665, "bike_id": "9f0cf34163e381beb09ab777f1cbc3df", "type": "electric_scooter", "is_reserved": 0, "lon": -77.0409975}, {"fusion_lat": 0.0, "name": "0603f1906404c9999ca7e10a0cd0521d", "is_disabled": 0, "rental_uris": {"android": "https://dc.lft.to/lastmile_qr_scan", "ios": "https://dc.lft.to/lastmile_qr_scan"}, "fusion_lon": 0.0, "lat": 38.90548366666667, "bike_id": "0603f1906404c9999ca7e10a0cd0521d", "type": "electric_scooter", "is_reserved": 0, "lon": -77.0466705}, {"fusion_lat": 0.0, "name": "beceeb48a09e672ab954cccd7a23b435", "is_disabled": 0, "rental_uris": {"android": "https://dc.lft.to/lastmile_qr_scan", "ios": "https://dc.lft.to/lastmile_qr_scan"}, "fusion_lon": 0.0, "lat": 38.93507833333334, "bike_id": "beceeb48a09e672ab954cccd7a23b435", "type": "electric_scooter", "is_reserved": 0, "lon": -77.03292283333333}, {"fusion_lat": 0.0, "name": "3c057d60968c386358157771a21204a6", "is_disabled": 0, "rental_uris": {"android": "https://dc.lft.to/lastmile_qr_scan", "ios": "https://dc.lft.to/lastmile_qr_scan"}, "fusion_lon": 0.0, "lat": 38.8835, "bike_id": "3c057d60968c386358157771a21204a6", "type": "electric_scooter", "is_reserved": 0, "lon": -77.03174316666667}, {"fusion_lat": 0.0, "name": "7cf17025cd0aaba46affc260b4e9d02a", "is_disabled": 0, "rental_uris": {"android": "https://dc.lft.to/lastmile_qr_scan", "ios": "https://dc.lft.to/lastmile_qr_scan"}, "fusion_lon": 0.0, "lat": 38.906051, "bike_id": "7cf17025cd0aaba46affc260b4e9d02a", "type": "electric_scooter", "is_reserved": 0, "lon": -77.00704133333333}, {"fusion_lat": 0.0, "name": "0aadd7cec4d5984b3c9146fa9a9e1a3f", "is_disabled": 0, "rental_uris": {"android": "https://dc.lft.to/lastmile_qr_scan", "ios": "https://dc.lft.to/lastmile_qr_scan"}, "fusion_lon": 0.0, "lat": 38.92083266666667, "bike_id": "0aadd7cec4d5984b3c9146fa9a9e1a3f", "type": "electric_scooter", "is_reserved": 0, "lon": -77.01742966666667}, {"fusion_lat": 0.0, "name": "5b0db27222450a2841740d4b39fc742d", "is_disabled": 0, "rental_uris": {"android": "https://dc.lft.to/lastmile_qr_scan", "ios": "https://dc.lft.to/lastmile_qr_scan"}, "fusion_lon": 0.0, "lat": 38.94519016666667, "bike_id": "5b0db27222450a2841740d4b39fc742d", "type": "electric_scooter", "is_reserved": 0, "lon": -77.03885933333333}, {"fusion_lat": 0.0, "name": "f2e4d086e7219db07a65a3dc63490312", "is_disabled": 0, "rental_uris": {"android": "https://dc.lft.to/lastmile_qr_scan", "ios": "https://dc.lft.to/lastmile_qr_scan"}, "fusion_lon": 0.0, "lat": 38.935243166666666, "bike_id": "f2e4d086e7219db07a65a3dc63490312", "type": "electric_scooter", "is_reserved": 0, "lon": -77.02357016666667}, {"fusion_lat": 0.0, "name": "4b08e68be12ecdcf59d3089a32d9ec13", "is_disabled": 0, "rental_uris": {"android": "https://dc.lft.to/lastmile_qr_scan", "ios": "https://dc.lft.to/lastmile_qr_scan"}, "fusion_lon": 0.0, "lat": 38.91268316666667, "bike_id": "4b08e68be12ecdcf59d3089a32d9ec13", "type": "electric_scooter", "is_reserved": 0, "lon": -77.01932783333334}, {"fusion_lat": 0.0, "name": "9a538a28e268179e4ed3136bf862aa45", "is_disabled": 0, "rental_uris": {"android": "https://dc.lft.to/lastmile_qr_scan", "ios": "https://dc.lft.to/lastmile_qr_scan"}, "fusion_lon": 0.0, "lat": 38.847568, "bike_id": "9a538a28e268179e4ed3136bf862aa45", "type": "electric_scooter", "is_reserved": 0, "lon": -76.99501983333333}, {"fusion_lat": 0.0, "name": "3328f65676ea0ef282194b28273be56f", "is_disabled": 0, "rental_uris": {"android": "https://dc.lft.to/lastmile_qr_scan", "ios": "https://dc.lft.to/lastmile_qr_scan"}, "fusion_lon": 0.0, "lat": 38.90171633333333, "bike_id": "3328f65676ea0ef282194b28273be56f", "type": "electric_scooter", "is_reserved": 0, "lon": -76.9925905}, {"fusion_lat": 0.0, "name": "a79089354c60230f1f76494c576411bf", "is_disabled": 0, "rental_uris": {"android": "https://dc.lft.to/lastmile_qr_scan", "ios": "https://dc.lft.to/lastmile_qr_scan"}, "fusion_lon": 0.0, "lat": 38.9068245, "bike_id": "a79089354c60230f1f76494c576411bf", "type": "electric_scooter", "is_reserved": 0, "lon": -77.02695816666666}, {"fusion_lat": 0.0, "name": "72b8152d8cfa75d5fde6ec49200366c3", "is_disabled": 0, "rental_uris": {"android": "https://dc.lft.to/lastmile_qr_scan", "ios": "https://dc.lft.to/lastmile_qr_scan"}, "fusion_lon": 0.0, "lat": 38.90050816666667, "bike_id": "72b8152d8cfa75d5fde6ec49200366c3", "type": "electric_scooter", "is_reserved": 0, "lon": -77.04489816666667}, {"fusion_lat": 0.0, "name": "2ba7b28e84582b774e56a4be4b4f1bd1", "is_disabled": 0, "rental_uris": {"android": "https://dc.lft.to/lastmile_qr_scan", "ios": "https://dc.lft.to/lastmile_qr_scan"}, "fusion_lon": 0.0, "lat": 38.9169725, "bike_id": "2ba7b28e84582b774e56a4be4b4f1bd1", "type": "electric_scooter", "is_reserved": 0, "lon": -77.05310616666667}, {"fusion_lat": 0.0, "name": "8ef4623d9feb59314875f51fb39c6aa0", "is_disabled": 0, "rental_uris": {"android": "https://dc.lft.to/lastmile_qr_scan", "ios": "https://dc.lft.to/lastmile_qr_scan"}, "fusion_lon": 0.0, "lat": 38.91558283333333, "bike_id": "8ef4623d9feb59314875f51fb39c6aa0", "type": "electric_scooter", "is_reserved": 0, "lon": -77.03140483333334}, {"fusion_lat": 0.0, "name": "9f4ccff83657ed86b02529e48e747896", "is_disabled": 0, "rental_uris": {"android": "https://dc.lft.to/lastmile_qr_scan", "ios": "https://dc.lft.to/lastmile_qr_scan"}, "fusion_lon": 0.0, "lat": 38.92077333333334, "bike_id": "9f4ccff83657ed86b02529e48e747896", "type": "electric_scooter", "is_reserved": 0, "lon": -77.02513783333333}, {"fusion_lat": 0.0, "name": "c3d2bf44d6ed23db558390eda882f073", "is_disabled": 0, "rental_uris": {"android": "https://dc.lft.to/lastmile_qr_scan", "ios": "https://dc.lft.to/lastmile_qr_scan"}, "fusion_lon": 0.0, "lat": 38.91974883333334, "bike_id": "c3d2bf44d6ed23db558390eda882f073", "type": "electric_scooter", "is_reserved": 0, "lon": -77.02193933333334}, {"fusion_lat": 0.0, "name": "34b64b151b44eb932668854174630154", "is_disabled": 0, "rental_uris": {"android": "https://dc.lft.to/lastmile_qr_scan", "ios": "https://dc.lft.to/lastmile_qr_scan"}, "fusion_lon": 0.0, "lat": 38.917108666666664, "bike_id": "34b64b151b44eb932668854174630154", "type": "electric_scooter", "is_reserved": 0, "lon": -76.97662033333333}, {"fusion_lat": 0.0, "name": "5f3c6f81e377696ac2cc3a9eeacc98ed", "is_disabled": 0, "rental_uris": {"android": "https://dc.lft.to/lastmile_qr_scan", "ios": "https://dc.lft.to/lastmile_qr_scan"}, "fusion_lon": 0.0, "lat": 38.94076316666667, "bike_id": "5f3c6f81e377696ac2cc3a9eeacc98ed", "type": "electric_scooter", "is_reserved": 0, "lon": -77.03000366666667}, {"fusion_lat": 0.0, "name": "8e0c96fdf06a198af79aab68322c7e20", "is_disabled": 0, "rental_uris": {"android": "https://dc.lft.to/lastmile_qr_scan", "ios": "https://dc.lft.to/lastmile_qr_scan"}, "fusion_lon": 0.0, "lat": 38.900869666666665, "bike_id": "8e0c96fdf06a198af79aab68322c7e20", "type": "electric_scooter", "is_reserved": 0, "lon": -76.9832695}, {"fusion_lat": 0.0, "name": "22e2f7b17107144ad848c8918bb7559f", "is_disabled": 0, "rental_uris": {"android": "https://dc.lft.to/lastmile_qr_scan", "ios": "https://dc.lft.to/lastmile_qr_scan"}, "fusion_lon": 0.0, "lat": 38.87963883333333, "bike_id": "22e2f7b17107144ad848c8918bb7559f", "type": "electric_bike", "is_reserved": 0, "lon": -76.91616733333333}, {"fusion_lat": 0.0, "name": "145f2436cb2931f283c88ebc2bf95902", "is_disabled": 0, "rental_uris": {"android": "https://dc.lft.to/lastmile_qr_scan", "ios": "https://dc.lft.to/lastmile_qr_scan"}, "fusion_lon": 0.0, "lat": 38.913182166666665, "bike_id": "145f2436cb2931f283c88ebc2bf95902", "type": "electric_scooter", "is_reserved": 0, "lon": -77.021416}, {"fusion_lat": 0.0, "name": "d096ca2026d92fab7193b8f3b8642bec", "is_disabled": 0, "rental_uris": {"android": "https://dc.lft.to/lastmile_qr_scan", "ios": "https://dc.lft.to/lastmile_qr_scan"}, "fusion_lon": 0.0, "lat": 38.8983905, "bike_id": "d096ca2026d92fab7193b8f3b8642bec", "type": "electric_scooter", "is_reserved": 0, "lon": -77.039224}, {"fusion_lat": 0.0, "name": "277db59e504a81ea52feea1ac78f79a0", "is_disabled": 0, "rental_uris": {"android": "https://dc.lft.to/lastmile_qr_scan", "ios": "https://dc.lft.to/lastmile_qr_scan"}, "fusion_lon": 0.0, "lat": 38.90576433333333, "bike_id": "277db59e504a81ea52feea1ac78f79a0", "type": "electric_scooter", "is_reserved": 0, "lon": -77.006499}, {"fusion_lat": 0.0, "name": "bdc22c56effbb2187547fcd26fa999df", "is_disabled": 0, "rental_uris": {"android": "https://dc.lft.to/lastmile_qr_scan", "ios": "https://dc.lft.to/lastmile_qr_scan"}, "fusion_lon": 0.0, "lat": 38.90409666666667, "bike_id": "bdc22c56effbb2187547fcd26fa999df", "type": "electric_scooter", "is_reserved": 0, "lon": -76.97333816666666}, {"fusion_lat": 0.0, "name": "6986d77754db000bbd3c88cc20f5b15b", "is_disabled": 0, "rental_uris": {"android": "https://dc.lft.to/lastmile_qr_scan", "ios": "https://dc.lft.to/lastmile_qr_scan"}, "fusion_lon": 0.0, "lat": 38.91973183333333, "bike_id": "6986d77754db000bbd3c88cc20f5b15b", "type": "electric_scooter", "is_reserved": 0, "lon": -77.02354066666666},