{"data": {"bikes": [{"rental_uris": {"android": "https://dc.lft.to/lastmile_qr_scan", "ios": "https://dc.lft.to/lastmile_qr_scan"}, "lat": 38.89883966666667, "type": "electric_scooter", "name": "2d7654ce93262af85b39774856581725", "fusion_lon": 0.0, "fusion_lat": 0.0, "is_reserved": 0, "bike_id": "2d7654ce93262af85b39774856581725", "lon": -76.93177016666667, "is_disabled": 0}, {"rental_uris": {"android": "https://dc.lft.to/lastmile_qr_scan", "ios": "https://dc.lft.to/lastmile_qr_scan"}, "lat": 38.905485166666665, "type": "electric_bike", "name": "9ae3ed093012d7a3284501b054f13ef4", "fusion_lon": 0.0, "fusion_lat": 0.0, "is_reserved": 0, "bike_id": "9ae3ed093012d7a3284501b054f13ef4", "lon": -77.067851, "is_disabled": 0}, {"rental_uris": {"android": "https://dc.lft.to/lastmile_qr_scan", "ios": "https://dc.lft.to/lastmile_qr_scan"}, "lat": 38.923573166666664, "type": "electric_scooter", "name": "f337a9aba595e845f725ead4ddbbc9b9", "fusion_lon": 0.0, "fusion_lat": 0.0, "is_reserved": 0, "bike_id": "f337a9aba595e845f725ead4ddbbc9b9", "lon": -77.050739, "is_disabled": 0}, {"rental_uris": {"android": "https://dc.lft.to/lastmile_qr_scan", "ios": "https://dc.lft.to/lastmile_qr_scan"}, "lat": 38.88109983333333, "type": "electric_scooter", "name": "7c77fe85db9e45337b61fbbc2da51160", "fusion_lon": 0.0, "fusion_lat": 0.0, "is_reserved": 0, "bike_id": "7c77fe85db9e45337b61fbbc2da51160", "lon": -77.01988066666667, "is_disabled": 0}, {"rental_uris": {"android": "https://dc.lft.to/lastmile_qr_scan", "ios": "https://dc.lft.to/lastmile_qr_scan"}, "lat": 38.9227515, "type": "electric_scooter", "name": "6e88cb6526e5dbfec156c40b8edee9c7", "fusion_lon": 0.0, "fusion_lat": 0.0, "is_reserved": 0, "bike_id": "6e88cb6526e5dbfec156c40b8edee9c7", "lon": -77.02128416666666, "is_disabled": 0}, {"rental_uris": {"android": "https://dc.lft.to/lastmile_qr_scan", "ios": "https://dc.lft.to/lastmile_qr_scan"}, "lat": 38.9062135, "type": "electric_scooter", "name": "b79d6d029e85ccaa60de091b75c315af", "fusion_lon": 0.0, "fusion_lat": 0.0, "is_reserved": 0, "bike_id": "b79d6d029e85ccaa60de091b75c315af", "lon": -77.06267266666667, "is_disabled": 0}, {"rental_uris": {"android": "https://dc.lft.to/lastmile_qr_scan", "ios": "https://dc.lft.to/lastmile_qr_scan"}, "lat": 38.9084685, "type": "electric_scooter", "name": "26cacb5e246b941ee2b3e7cb60317f77", "fusion_lon": 0.0, "fusion_lat": 0.0, "is_reserved": 0, "bike_id": "26cacb5e246b941ee2b3e7cb60317f77", "lon": -77.03180766666667, "is_disabled": 0}, {"rental_uris": {"android": "https://dc.lft.to/lastmile_qr_scan", "ios": "https://dc.lft.to/lastmile_qr_scan"}, "lat": 38.89326666666667, "type": "electric_scooter", "name": "adb5839a3253772431b8f4386437c950", "fusion_lon": 0.0, "fusion_lat": 0.0, "is_reserved": 0, "bike_id": "adb5839a3253772431b8f4386437c950", "lon": -77.029596, "is_disabled": 0}, {"rental_uris": {"android": "https://dc.lft.to/lastmile_qr_scan", "ios": "https://dc.lft.to/lastmile_qr_scan"}, "lat": 38.9232425, "type": "electric_scooter", "name": "fd1b306d0f8913d6e12e0e53ebde0f01", "fusion_lon": 0.0, "fusion_lat": 0.0, "is_reserved": 0, "bike_id": "fd1b306d0f8913d6e12e0e53ebde0f01", "lon": -77.01963566666667, "is_disabled": 0}, {"rental_uris": {"android": "https://dc.lft.to/lastmile_qr_scan", "ios": "https://dc.lft.to/lastmile_qr_scan"}, "lat": 38.920490666666666, "type": "electric_scooter", "name": "48479b57445aade0c8568d54c53797e8", "fusion_lon": 0.0, "fusion_lat": 0.0, "is_reserved": 0, "bike_id": "48479b57445aade0c8568d54c53797e8", "lon": -77.0418395, "is_disabled": 0}, {"rental_uris": {"android": "https://dc.lft.to/lastmile_qr_scan", "ios": "https://dc.lft.to/lastmile_qr_scan"}, "lat": 38.919242833333335, "type": "electric_scooter", "name": "7f01e5e5497c1b704c1a597490a16ca2", "fusion_lon": 0.0, "fusion_lat": 0.0, "is_reserved": 0, "bike_id": "7f01e5e5497c1b704c1a597490a16ca2", "lon": -77.03397616666666, "is_disabled": 0}, {"rental_uris": {"android": "https://dc.lft.to/lastmile_qr_scan", "ios": "https://dc.lft.to/lastmile_qr_scan"}, "lat": 38.9013465, "type": "electric_scooter", "name": "39e71aa6e245f8f642c830ce8af17e8e", "fusion_lon": 0.0, "fusion_lat": 0.0, "is_reserved": 0, "bike_id": "39e71aa6e245f8f642c830ce8af17e8e", "lon": -77.04199016666666, "is_disabled": 0}, {"rental_uris": {"android": "https://dc.lft.to/lastmile_qr_scan", "ios": "https://dc.lft.to/lastmile_qr_scan"}, "lat": 38.9275285, "type": "electric_scooter", "name": "852ca1338abe6046689fc7b9c8767549", "fusion_lon": 0.0, "fusion_lat": 0.0, "is_reserved": 0, "bike_id": "852ca1338abe6046689fc7b9c8767549", "lon": -77.0211315, "is_disabled": 0}, {"rental_uris": {"android": "https://dc.lft.to/lastmile_qr_scan", "ios": "https://dc.lft.to/lastmile_qr_scan"}, "lat": 38.92030483333333, "type": "electric_scooter", "name": "44dc25870c48d5ed2a9a35ec7a5da90d", "fusion_lon": 0.0, "fusion_lat": 0.0, "is_reserved": 0, "bike_id": "44dc25870c48d5ed2a9a35ec7a5da90d", "lon": -77.03727616666667, "is_disabled": 0}, {"rental_uris": {"android": "https://dc.lft.to/lastmile_qr_scan", "ios": "https://dc.lft.to/lastmile_qr_scan"}, "lat": 38.922575, "type": "electric_scooter", "name": "dcc6d7769cbb15e81b477f96b737c371", "fusion_lon": 0.0, "fusion_lat": 0.0, "is_reserved": 0, "bike_id": "dcc6d7769cbb15e81b477f96b737c371", "lon": -77.04294666666667, "is_disabled": 0}, {"rental_uris": {"android": "https://dc.lft.to/lastmile_qr_scan", "ios": "https://dc.lft.to/lastmile_qr_scan"}, "lat": 38.89230033333333, "type": "electric_scooter", "name": "7e7688cefedb03d2e6ee969046427ca9", "fusion_lon": 0.0, "fusion_lat": 0.0, "is_reserved": 0, "bike_id": "7e7688cefedb03d2e6ee969046427ca9", "lon": -77.0462315, "is_disabled": 0}, {"rental_uris": {"android": "https://dc.lft.to/lastmile_qr_scan", "ios": "https://dc.lft.to/lastmile_qr_scan"}, "lat": 38.957368, "type": "electric_scooter", "name": "877118b8c8cd39ae44007e0135118b3a", "fusion_lon": 0.0, "fusion_lat": 0.0, "is_reserved": 0, "bike_id": "877118b8c8cd39ae44007e0135118b3a", "lon": -77.0275345, "is_disabled": 0}, {"rental_uris": {"android": "https://dc.lft.to/lastmile_qr_scan", "ios": "https://dc.lft.to/lastmile_qr_scan"}, "lat": 38.90190883333333, "type": "electric_scooter", "name": "5270d49aa45588c4a2faa2d8086cbbe0", "fusion_lon": 0.0, "fusion_lat": 0.0, "is_reserved": 0, "bike_id": "5270d49aa45588c4a2faa2d8086cbbe0", "lon": -77.021986, "is_disabled": 0}, {"rental_uris": {"android": "https://dc.lft.to/lastmile_qr_scan", "ios": "https://dc.lft.to/lastmile_qr_scan"}, "lat": 38.92478366666667, "type": "electric_scooter", "name": "797034f31baaa03dbdc719b7bbe46497", "fusion_lon": 0.0, "fusion_lat": 0.0, "is_reserved": 0, "bike_id": "797034f31baaa03dbdc719b7bbe46497", "lon": -77.03009733333333, "is_disabled": 0}, {"rental_uris": {"android": "https://dc.lft.to/lastmile_qr_scan", "ios": "https://dc.lft.to/lastmile_qr_scan"}, "lat": 38.908568833333334, "type": "electric_scooter", "name": "615d6e1da7c86e2ab69d92a009837908", "fusion_lon": 0.0, "fusion_lat": 0.0, "is_reserved": 0, "bike_id": "615d6e1da7c86e2ab69d92a009837908", "lon": -77.07096516666667, "is_disabled": 0}, {"rental_uris": {"android": "https://dc.lft.to/lastmile_qr_scan", "ios": "https://dc.lft.to/lastmile_qr_scan"}, "lat": 38.91131433333334, "type": "electric_scooter", "name": "ccbcce70c9134e9173e604b7a132c2ae", "fusion_lon": 0.0, "fusion_lat": 0.0, "is_reserved": 0, "bike_id": "ccbcce70c9134e9173e604b7a132c2ae", "lon": -77.06533783333333, "is_disabled": 0}, {"rental_uris": {"android": "https://dc.lft.to/lastmile_qr_scan", "ios": "https://dc.lft.to/lastmile_qr_scan"}, "lat": 39.0262195, "type": "electric_bike", "name": "5565907d10f1c76641c7a231232c27fd", "fusion_lon": 0.0, "fusion_lat": 0.0, "is_reserved": 0, "bike_id": "5565907d10f1c76641c7a231232c27fd", "lon": -77.038787, "is_disabled": 0}, {"rental_uris": {"android": "https://dc.lft.to/lastmile_qr_scan", "ios": "https://dc.lft.to/lastmile_qr_scan"}, "lat": 38.902636333333334, "type": "electric_scooter", "name": "7deecfec7e768073bed5dc24acf8c812", "fusion_lon": 0.0, "fusion_lat": 0.0, "is_reserved": 0, "bike_id": "7deecfec7e768073bed5dc24acf8c812", "lon": -77.03844133333334, "is_disabled": 0}, {"rental_uris": {"android": "https://dc.lft.to/lastmile_qr_scan", "ios": "https://dc.lft.to/lastmile_qr_scan"}, "lat": 38.96225466666667, "type": "electric_bike", "name": "5f772bc6ae8d9f5807c6cbc83434abc5", "fusion_lon": 0.0, "fusion_lat": 0.0, "is_reserved": 0, "bike_id": "5f772bc6ae8d9f5807c6cbc83434abc5", "lon": -77.02621883333333, "is_disabled": 0}, {"rental_uris": {"android": "https://dc.lft.to/lastmile_qr_scan", "ios": "https://dc.lft.to/lastmile_qr_scan"}, "lat": 38.92339466666667, "type": "electric_scooter", "name": "3de0736d6c194bf472ec4cf2d3882035", "fusion_lon": 0.0, "fusion_lat": 0.0, "is_reserved": 0, "bike_id": "3de0736d6c194bf472ec4cf2d3882035", "lon": -77.01908733333333, "is_disabled": 0}, {"rental_uris": {"android": "https://dc.lft.to/lastmile_qr_scan", "ios": "https://dc.lft.to/lastmile_qr_scan"}, "lat": 38.87817033333333, "type": "electric_scooter", "name": "17d5fe59a928c15aae3bc1413d662a7e", "fusion_lon": 0.0, "fusion_lat": 0.0, "is_reserved": 0, "bike_id": "17d5fe59a928c15aae3bc1413d662a7e", "lon": -76.9883095, "is_disabled": 0}, {"rental_uris": {"android": "https://dc.lft.to/lastmile_qr_scan", "ios": "https://dc.lft.to/lastmile_qr_scan"}, "lat": 38.85800533333333, "type": "electric_bike", "name": "136f396d47c313da58e95258d495c8c2", "fusion_lon": 0.0, "fusion_lat": 0.0, "is_reserved": 0, "bike_id": "136f396d47c313da58e95258d495c8c2", "lon": -76.98753, "is_disabled": 0}, {"rental_uris": {"android": "https://dc.lft.to/lastmile_qr_scan", "ios": "https://dc.lft.to/lastmile_qr_scan"}, "lat": 38.92582683333333, "type": "electric_scooter", "name": "96481951c27ffa4521b37b30518d5255", "fusion_lon": 0.0, "fusion_lat": 0.0, "is_reserved": 0, "bike_id": "96481951c27ffa4521b37b30518d5255", "lon": -77.036432, "is_disabled": 0}, {"rental_uris": {"android": "https://dc.lft.to/lastmile_qr_scan", "ios": "https://dc.lft.to/lastmile_qr_scan"}, "lat": 38.90006433333333, "type": "electric_scooter", "name": "e556f7b28ff449a5cc76c041898f5f42", "fusion_lon": 0.0, "fusion_lat": 0.0, "is_reserved": 0, "bike_id": "e556f7b28ff449a5cc76c041898f5f42", "lon": -77.0292885, "is_disabled": 0}, {"rental_uris": {"android": "https://dc.lft.to/lastmile_qr_scan", "ios": "https://dc.lft.to/lastmile_qr_scan"}, "lat": 38.90275, "type": "electric_scooter", "name": "42927b1249bd4200b1f690d27e664d1d", "fusion_lon": 0.0, "fusion_lat": 0.0, "is_reserved": 0, "bike_id": "42927b1249bd4200b1f690d27e664d1d", "lon": -77.03825266666666, "is_disabled": 0}, {"rental_uris": {"android": "https://dc.lft.to/lastmile_qr_scan", "ios": "https://dc.lft.to/lastmile_qr_scan"}, "lat": 38.923787833333336, "type": "electric_scooter", "name": "c89d47ad27b77b6b49a4bf4a329104eb", "fusion_lon": 0.0, "fusion_lat": 0.0, "is_reserved": 0, "bike_id": "c89d47ad27b77b6b49a4bf4a329104eb", "lon": -77.024396, "is_disabled": 0}, {"rental_uris": {"android": "https://dc.lft.to/lastmile_qr_scan", "ios": "https://dc.lft.to/lastmile_qr_scan"}, "lat": 38.923617666666665, "type": "electric_scooter", "name": "8f7f6cb76e027c8e264d84f0a48cbb59", "fusion_lon": 0.0, "fusion_lat": 0.0, "is_reserved": 0, "bike_id": "8f7f6cb76e027c8e264d84f0a48cbb59", "lon": -77.05130116666666, "is_disabled": 0}, {"rental_uris": {"android": "https://dc.lft.to/lastmile_qr_scan", "ios": "https://dc.lft.to/lastmile_qr_scan"}, "lat": 38.903616666666665, "type": "electric_scooter", "name": "86daf5be11a12cb94fa993c592c2b9f3", "fusion_lon": 0.0, "fusion_lat": 0.0, "is_reserved": 0, "bike_id": "86daf5be11a12cb94fa993c592c2b9f3", "lon": -77.03439316666666, "is_disabled": 0}, {"rental_uris": {"android": "https://dc.lft.to/lastmile_qr_scan", "ios": "https://dc.lft.to/lastmile_qr_scan"}, "lat": 38.903906, "type": "electric_scooter", "name": "c2ece362cb1d4da6f5413fbe57fde1e9", "fusion_lon": 0.0, "fusion_lat": 0.0, "is_reserved": 0, "bike_id": "c2ece362cb1d4da6f5413fbe57fde1e9", "lon": -77.04672666666667, "is_disabled": 0}, {"rental_uris": {"android": "https://dc.lft.to/lastmile_qr_scan", "ios": "https://dc.lft.to/lastmile_qr_scan"}, "lat": 38.92896983333333, "type": "electric_scooter", "name": "123110b92758a11b85b367f537862531", "fusion_lon": 0.0, "fusion_lat": 0.0, "is_reserved": 0, "bike_id": "123110b92758a11b85b367f537862531", "lon": -77.01640033333334, "is_disabled": 0}, {"rental_uris": {"android": "https://dc.lft.to/lastmile_qr_scan", "ios": "https://dc.lft.to/lastmile_qr_scan"}, "lat": 38.922357166666664, "type": "electric_scooter", "name": "79f8d5d78475eaabe1032a7545059ead", "fusion_lon": 0.0, "fusion_lat": 0.0, "is_reserved": 0, "bike_id": "79f8d5d78475eaabe1032a7545059ead", "lon": -77.02212033333333, "is_disabled": 0}, {"rental_uris": {"android": "https://dc.lft.to/lastmile_qr_scan", "ios": "https://dc.lft.to/lastmile_qr_scan"}, "lat": 38.90114333333333, "type": "electric_scooter", "name": "030268d50aa2e42460fe62370ede5b66", "fusion_lon": 0.0, "fusion_lat": 0.0, "is_reserved": 0, "bike_id": "030268d50aa2e42460fe62370ede5b66", "lon": -77.01809083333333, "is_disabled": 0}, {"rental_uris": {"android": "https://dc.lft.to/lastmile_qr_scan", "ios": "https://dc.lft.to/lastmile_qr_scan"}, "lat": 38.896861333333334, "type": "electric_scooter", "name": "92094b591f953b3b56e61913361c05ca", "fusion_lon": 0.0, "fusion_lat": 0.0, "is_reserved": 0, "bike_id": "92094b591f953b3b56e61913361c05ca", "lon": -77.004986, "is_disabled": 0}, {"rental_uris": {"android": "https://dc.lft.to/lastmile_qr_scan", "ios": "https://dc.lft.to/lastmile_qr_scan"}, "lat": 38.92317366666666, "type": "electric_scooter", "name": "03672c1eaae92b5b9f9015f90e07f862", "fusion_lon": 0.0, "fusion_lat": 0.0, "is_reserved": 0, "bike_id": "03672c1eaae92b5b9f9015f90e07f862", "lon": -77.02900466666667, "is_disabled": 0}, {"rental_uris": {"android": "https://dc.lft.to/lastmile_qr_scan", "ios": "https://dc.lft.to/lastmile_qr_scan"}, "lat": 38.883983666666666, "type": "electric_bike", "name": "36ef6f9fc06a081177681909c448cd2d", "fusion_lon": 0.0, "fusion_lat": 0.0, "is_reserved": 0, "bike_id": "36ef6f9fc06a081177681909c448cd2d", "lon": -77.03012466666667, "is_disabled": 0}, {"rental_uris": {"android": "https://dc.lft.to/lastmile_qr_scan", "ios": "https://dc.lft.to/lastmile_qr_scan"}, "lat": 38.89238683333333, "type": "electric_scooter", "name": "2f31c234d387b741485e9b86bda18a8b", "fusion_lon": 0.0, "fusion_lat": 0.0, "is_reserved": 0, "bike_id": "2f31c234d387b741485e9b86bda18a8b", "lon": -77.03193716666667, "is_disabled": 0}, {"rental_uris": {"android": "https://dc.lft.to/lastmile_qr_scan", "ios": "https://dc.lft.to/lastmile_qr_scan"}, "lat": 38.95132516666666, "type": "electric_scooter", "name": "2c42857341032f7119ac2066456b4a8e", "fusion_lon": 0.0, "fusion_lat": 0.0, "is_reserved": 0, "bike_id": "2c42857341032f7119ac2066456b4a8e", "lon": -77.0272625, "is_disabled": 0}, {"rental_uris": {"android": "https://dc.lft.to/lastmile_qr_scan", "ios": "https://dc.lft.to/lastmile_qr_scan"}, "lat": 38.89666866666666, "type": "electric_scooter", "name": "770c2b7be616f893c0721c2c5c566ce1", "fusion_lon": 0.0, "fusion_lat": 0.0, "is_reserved": 0, "bike_id": "770c2b7be616f893c0721c2c5c566ce1", "lon": -76.93206766666667, "is_disabled": 0}, {"rental_uris": {"android": "https://dc.lft.to/lastmile_qr_scan", "ios": "https://dc.lft.to/lastmile_qr_scan"}, "lat": 38.926575166666666, "type": "electric_bike", "name": "ea2e4ccdf686835559fc9e85f62d6980", "fusion_lon": 0.0, "fusion_lat": 0.0, "is_reserved": 0, "bike_id": "ea2e4ccdf686835559fc9e85f62d6980", "lon": -77.09019766666667, "is_disabled": 0}, {"rental_uris": {"android": "https://dc.lft.to/lastmile_qr_scan", "ios": "https://dc.lft.to/lastmile_qr_scan"}, "lat": 38.88039166666667, "type": "electric_scooter", "name": "12cafa6a1c71c3133be05e34d3a8eb4e", "fusion_lon": 0.0, "fusion_lat": 0.0, "is_reserved": 0, "bike_id": "12cafa6a1c71c3133be05e34d3a8eb4e", "lon": -76.92717883333333, "is_disabled": 0}, {"rental_uris": {"android": "https://dc.lft.to/lastmile_qr_scan", "ios": "https://dc.lft.to/lastmile_qr_scan"}, "lat": 38.91048216666667, "type": "electric_scooter", "name": "d7bbdb0575b0014f8a109035c910d4ac", "fusion_lon": 0.0, "fusion_lat": 0.0, "is_reserved": 0, "bike_id": "d7bbdb0575b0014f8a109035c910d4ac", "lon": -77.043379, "is_disabled": 0}, {"rental_uris": {"android": "https://dc.lft.to/lastmile_qr_scan", "ios": "https://dc.lft.to/lastmile_qr_scan"}, "lat": 38.93580433333333, "type": "electric_scooter", "name": "dbaae48f88d82515ba9c24943c879f3c", "fusion_lon": 0.0, "fusion_lat": 0.0, "is_reserved": 0, "bike_id": "dbaae48f88d82515ba9c24943c879f3c", "lon": -77.05882216666667, "is_disabled": 0}, {"rental_uris": {"android": "https://dc.lft.to/lastmile_qr_scan", "ios": "https://dc.lft.to/lastmile_qr_scan"}, "lat": 38.90443366666667, "type": "electric_scooter", "name": "f3df4f4f324d66241abb0b82e005ae9f", "fusion_lon": 0.0, "fusion_lat": 0.0, "is_reserved": 0, "bike_id": "f3df4f4f324d66241abb0b82e005ae9f", "lon": -77.04342733333333, "is_disabled": 0}, {"rental_uris": {"android": "https://dc.lft.to/lastmile_qr_scan", "ios": "https://dc.lft.to/lastmile_qr_scan"}, "lat": 38.9039775, "type": "electric_scooter", "name": "83c88663e725b976bf94f52365b94572", "fusion_lon": 0.0, "fusion_lat": 0.0, "is_reserved": 0, "bike_id": "83c88663e725b976bf94f52365b94572", "lon": -77.0532895, "is_disabled": 0}, {"rental_uris": {"android": "https://dc.lft.to/lastmile_qr_scan", "ios": "https://dc.lft.to/lastmile_qr_scan"}, "lat": 38.904171166666664, "type": "electric_bike", "name": "6351022e42edba2e9788f52251573a1b", "fusion_lon": 0.0, "fusion_lat": 0.0, "is_reserved": 0, "bike_id": "6351022e42edba2e9788f52251573a1b", "lon": -77.02181566666667, "is_disabled": 0}, {"rental_uris": {"android": "https://dc.lft.to/lastmile_qr_scan", "ios": "https://dc.lft.to/lastmile_qr_scan"}, "lat": 38.877439, "type": "electric_scooter", "name": "2c8f98ed234a5e5e9ee007dad825a223", "fusion_lon": 0.0, "fusion_lat": 0.0, "is_reserved": 0, "bike_id": "2c8f98ed234a5e5e9ee007dad825a223", "lon": -77.00390483333334, "is_disabled": 0}, {"rental_uris": {"android": "https://dc.lft.to/lastmile_qr_scan", "ios": "https://dc.lft.to/lastmile_qr_scan"}, "lat": 38.922377166666664, "type": "electric_scooter", "name": "c6b9ecb12d0db717d33099e9e7f174f0", "fusion_lon": 0.0, "fusion_lat": 0.0, "is_reserved": 0, "bike_id": "c6b9ecb12d0db717d33099e9e7f174f0", "lon": -77.02122266666667, "is_disabled": 0}, {"rental_uris": {"android": "https://dc.lft.to/lastmile_qr_scan", "ios": "https://dc.lft.to/lastmile_qr_scan"}, "lat": 38.92132216666667, "type": "electric_scooter", "name": "5d5e7b58de30f84fbba8392137a19b1c", "fusion_lon": 0.0, "fusion_lat": 0.0, "is_reserved": 0, "bike_id": "5d5e7b58de30f84fbba8392137a19b1c", "lon": -77.01905, "is_disabled": 0}, {"rental_uris": {"android": "https://dc.lft.to/lastmile_qr_scan", "ios": "https://dc.lft.to/lastmile_qr_scan"}, "lat": 38.900568, "type": "electric_scooter", "name": "e934df58d9c2ed4cd84b59032d85cda0", "fusion_lon": 0.0, "fusion_lat": 0.0, "is_reserved": 0, "bike_id": "e934df58d9c2ed4cd84b59032d85cda0", "lon": -77.0075115, "is_disabled": 0}, {"rental_uris": {"android": "https://dc.lft.to/lastmile_qr_scan", "ios": "https://dc.lft.to/lastmile_qr_scan"}, "lat": 38.88719616666667, "type": "electric_scooter", "name": "320d44b3257edf7c5178dbedcd68e0c5", "fusion_lon": 0.0, "fusion_lat": 0.0, "is_reserved": 0, "bike_id": "320d44b3257edf7c5178dbedcd68e0c5", "lon": -76.99648333333333, "is_disabled": 0}, {"rental_uris": {"android": "https://dc.lft.to/lastmile_qr_scan", "ios": "https://dc.lft.to/lastmile_qr_scan"}, "lat": 38.881993, "type": "electric_scooter", "name": "6dffee9acf419c33986ba7a17444b817", "fusion_lon": 0.0, "fusion_lat": 0.0, "is_reserved": 0, "bike_id": "6dffee9acf419c33986ba7a17444b817", "lon": -77.02863033333334, "is_disabled": 0}, {"rental_uris": {"android": "https://dc.lft.to/lastmile_qr_scan", "ios": "https://dc.lft.to/lastmile_qr_scan"}, "lat": 38.92138033333333, "type": "electric_scooter", "name": "d9fb24afd1c5273eb5b569c89a932f24", "fusion_lon": 0.0, "fusion_lat": 0.0, "is_reserved": 0, "bike_id": "d9fb24afd1c5273eb5b569c89a932f24", "lon": -77.01796283333333, "is_disabled": 0}, {"rental_uris": {"android": "https://dc.lft.to/lastmile_qr_scan", "ios": "https://dc.lft.to/lastmile_qr_scan"}, "lat": 38.93362366666667, "type": "electric_scooter", "name": "c522f096bbf121b560b61204d6d8d425", "fusion_lon": 0.0, "fusion_lat": 0.0, "is_reserved": 0, "bike_id": "c522f096bbf121b560b61204d6d8d425", "lon": -77.02414183333333, "is_disabled": 0}, {"rental_uris": {"android": "https://dc.lft.to/lastmile_qr_scan", "ios": "https://dc.lft.to/lastmile_qr_scan"}, "lat": 38.9153415, "type": "electric_scooter", "name": "3a7f479cd7fb3c600831525bb084e0f3", "fusion_lon": 0.0, "fusion_lat": 0.0, "is_reserved": 0, "bike_id": "3a7f479cd7fb3c600831525bb084e0f3", "lon": -77.0126435, "is_disabled": 0}, {"rental_uris": {"android": "https://dc.lft.to/lastmile_qr_scan", "ios": "https://dc.lft.to/lastmile_qr_scan"}, "lat": 38.9233775, "type": "electric_scooter", "name": "3829fad027168d170794bb598e7a1f8e", "fusion_lon": 0.0, "fusion_lat": 0.0, "is_reserved": 0, "bike_id": "3829fad027168d170794bb598e7a1f8e", "lon": -77.04137983333334, "is_disabled": 0}, {"rental_uris": {"android": "https://dc.lft.to/lastmile_qr_scan", "ios": "https://dc.lft.to/lastmile_qr_scan"}, "lat": 38.90973683333333, "type": "electric_scooter", "name": "4d4fc35ee8a1e980c8aaf74cbf843cea", "fusion_lon": 0.0, "fusion_lat": 0.0, "is_reserved": 0, "bike_id": "4d4fc35ee8a1e980c8aaf74cbf843cea", "lon": -77.03174633333333, "is_disabled": 0}, {"rental_uris": {"android": "https://dc.lft.to/lastmile_qr_scan", "ios": "https://dc.lft.to/lastmile_qr_scan"}, "lat": 38.935355666666666, "type": "electric_scooter", "name": "15d81fcd97e983bae911d8a0b8d1f42c", "fusion_lon": 0.0, "fusion_lat": 0.0, "is_reserved": 0, "bike_id": "15d81fcd97e983bae911d8a0b8d1f42c", "lon": -77.03477616666666, "is_disabled": 0}, {"rental_uris": {"android": "https://dc.lft.to/lastmile_qr_scan", "ios": "https://dc.lft.to/lastmile_qr_scan"}, "lat": 38.80736566666667, "type": "electric_bike", "name": "83d3a45f620a836791318c968e7a7db4", "fusion_lon": 0.0, "fusion_lat": 0.0, "is_reserved": 0, "bike_id": "83d3a45f620a836791318c968e7a7db4", "lon": -77.09691583333333, "is_disabled": 0}, {"rental_uris": {"android": "https://dc.lft.to/lastmile_qr_scan", "ios": "https://dc.lft.to/lastmile_qr_scan"}, "lat": 38.924604, "type": "electric_scooter", "name": "03c9a98ec10423ffaffa5ed38ee99add", "fusion_lon": 0.0, "fusion_lat": 0.0, "is_reserved": 0, "bike_id": "03c9a98ec10423ffaffa5ed38ee99add", "lon": -77.02153566666667, "is_disabled": 0}, {"rental_uris": {"android": "https://dc.lft.to/lastmile_qr_scan", "ios": "https://dc.lft.to/lastmile_qr_scan"}, "lat": 38.914500333333336, "type": "electric_scooter", "name": "22c7970a80858203878c9b51ce34c020", "fusion_lon": 0.0, "fusion_lat": 0.0, "is_reserved": 0, "bike_id": "22c7970a80858203878c9b51ce34c020", "lon": -77.02223883333333, "is_disabled": 0}, {"rental_uris": {"android": "https://dc.lft.to/lastmile_qr_scan", "ios": "https://dc.lft.to/lastmile_qr_scan"}, "lat": 38.9012455, "type": "electric_scooter", "name": "42aad5b428905b78d8c996407993cb5d", "fusion_lon": 0.0, "fusion_lat": 0.0, "is_reserved": 0, "bike_id": "42aad5b428905b78d8c996407993cb5d", "lon": -77.03211283333333, "is_disabled": 0}, {"rental_uris": {"android": "https://dc.lft.to/lastmile_qr_scan", "ios": "https://dc.lft.to/lastmile_qr_scan"}, "lat": 38.8837915, "type": "electric_scooter", "name": "b822970d32e2565139dba32d453330ef", "fusion_lon": 0.0, "fusion_lat": 0.0, "is_reserved": 0, "bike_id": "b822970d32e2565139dba32d453330ef", "lon": -77.02606966666667, "is_disabled": 0}, {"rental_uris": {"android": "https://dc.lft.to/lastmile_qr_scan", "ios": "https://dc.lft.to/lastmile_qr_scan"}, "lat": 38.87682483333333, "type": "electric_scooter", "name": "8b0a479b3934e2f5c98036b890fdbf80", "fusion_lon": 0.0, "fusion_lat": 0.0, "is_reserved": 0, "bike_id": "8b0a479b3934e2f5c98036b890fdbf80", "lon": -77.01972533333333, "is_disabled": 0}, {"rental_uris": {"android": "https://dc.lft.to/lastmile_qr_scan", "ios": "https://dc.lft.to/lastmile_qr_scan"}, "lat": 38.924733833333335, "type": "electric_scooter", "name": "7bb4a677b7af16cb4fa695f02a8e7f61", "fusion_lon": 0.0, "fusion_lat": 0.0, "is_reserved": 0, "bike_id": "7bb4a677b7af16cb4fa695f02a8e7f61", "lon": -77.02184216666667, "is_disabled": 0}, {"rental_uris": {"android": "https://dc.lft.to/lastmile_qr_scan", "ios": "https://dc.lft.to/lastmile_qr_scan"}, "lat": 38.92340933333333, "type": "electric_scooter", "name": "2a1a1d4351ce232d8202ec18b04d1597", "fusion_lon": 0.0, "fusion_lat": 0.0, "is_reserved": 0, "bike_id": "2a1a1d4351ce232d8202ec18b04d1597", "lon": -77.052491, "is_disabled": 0}, {"rental_uris": {"android": "https://dc.lft.to/lastmile_qr_scan", "ios": "https://dc.lft.to/lastmile_qr_scan"}, "lat": 38.91757466666667, "type": "electric_scooter", "name": "587571e0c9068803d5fad457242e8da1", "fusion_lon": 0.0, "fusion_lat": 0.0, "is_reserved": 0, "bike_id": "587571e0c9068803d5fad457242e8da1", "lon": -77.04145783333334, "is_disabled": 0}, {"rental_uris": {"android": "https://dc.lft.to/lastmile_qr_scan", "ios": "https://dc.lft.to/lastmile_qr_scan"}, "lat": 38.89835716666666, "type": "electric_scooter", "name": "4d840136baef64863a8ba3d08be9a396", "fusion_lon": 0.0, "fusion_lat": 0.0, "is_reserved": 0, "bike_id": "4d840136baef64863a8ba3d08be9a396", "lon": -77.04698116666667, "is_disabled": 0}, {"rental_uris": {"android": "https://dc.lft.to/lastmile_qr_scan", "ios": "https://dc.lft.to/lastmile_qr_scan"}, "lat": 38.9003565, "type": "electric_scooter", "name": "098bd27cb0b11259b4ae6d366cb2355d", "fusion_lon": 0.0, "fusion_lat": 0.0, "is_reserved": 0, "bike_id": "098bd27cb0b11259b4ae6d366cb2355d", "lon": -76.98822133333333, "is_disabled": 0}, {"rental_uris": {"android": "https://dc.lft.to/lastmile_qr_scan", "ios": "https://dc.lft.to/lastmile_qr_scan"}, "lat": 38.892208333333336, "type": "electric_scooter", "name": "4617721c95ec77420ada1e0716ddf15d", "fusion_lon": 0.0, "fusion_lat": 0.0, "is_reserved": 0, "bike_id": "4617721c95ec77420ada1e0716ddf15d", "lon": -77.02164283333333, "is_disabled": 0}, {"rental_uris": {"android": "https://dc.lft.to/lastmile_qr_scan", "ios": "https://dc.lft.to/lastmile_qr_scan"}, "lat": 38.919050166666665, "type": "electric_scooter", "name": "04e9a37c146c3cddfaa2301d9863bdb9", "fusion_lon": 0.0, "fusion_lat": 0.0, "is_reserved": 0, "bike_id": "04e9a37c146c3cddfaa2301d9863bdb9", "lon": -77.02133833333333, "is_disabled": 0}, {"rental_uris": {"android": "https://dc.lft.to/lastmile_qr_scan", "ios": "https://dc.lft.to/lastmile_qr_scan"}, "lat": 38.9058935, "type": "electric_scooter", "name": "90f7f476a866a3ac34ccb51b2a606161", "fusion_lon": 0.0, "fusion_lat": 0.0, "is_reserved": 0, "bike_id": "90f7f476a866a3ac34ccb51b2a606161", "lon": -77.00915383333333, "is_disabled": 0}, {"rental_uris": {"android": "https://dc.lft.to/lastmile_qr_scan", "ios": "https://dc.lft.to/lastmile_qr_scan"}, "lat": 38.90321866666667, "type": "electric_scooter", "name": "509a2e68401192f9c610456b11142c20", "fusion_lon": 0.0, "fusion_lat": 0.0, "is_reserved": 0, "bike_id": "509a2e68401192f9c610456b11142c20", "lon": -77.02213683333333, "is_disabled": 0}, {"rental_uris": {"android": "https://dc.lft.to/lastmile_qr_scan", "ios": "https://dc.lft.to/lastmile_qr_scan"}, "lat": 38.892177833333335, "type": "electric_scooter", "name": "b5482187f3c64aa5efff534a4aedc0a3", "fusion_lon": 0.0, "fusion_lat": 0.0, "is_reserved": 0, "bike_id": "b5482187f3c64aa5efff534a4aedc0a3", "lon": -77.02745716666666, "is_disabled": 0}, {"rental_uris": {"android": "https://dc.lft.to/lastmile_qr_scan", "ios": "https://dc.lft.to/lastmile_qr_scan"}, "lat": 38.90526583333333, "type": "electric_scooter", "name": "8f97dba3c5c7f99b59a7e10ec7f617b9", "fusion_lon": 0.0, "fusion_lat": 0.0, "is_reserved": 0, "bike_id": "8f97dba3c5c7f99b59a7e10ec7f617b9", "lon": -77.060372, "is_disabled": 0}, {"rental_uris": {"android": "https://dc.lft.to/lastmile_qr_scan", "ios": "https://dc.lft.to/lastmile_qr_scan"}, "lat": 38.87721716666667, "type": "electric_scooter", "name": "6001e2d077b3733f5858447204330ee3", "fusion_lon": 0.0, "fusion_lat": 0.0, "is_reserved": 0, "bike_id": "6001e2d077b3733f5858447204330ee3", "lon": -77.017648, "is_disabled": 0}, {"rental_uris": {"android": "https://dc.lft.to/lastmile_qr_scan", "ios": "https://dc.lft.to/lastmile_qr_scan"}, "lat": 38.9025905, "type": "electric_scooter", "name": "d5b5f06fbbdc2057868669df1c0d9db4", "fusion_lon": 0.0, "fusion_lat": 0.0, "is_reserved": 0, "bike_id": "d5b5f06fbbdc2057868669df1c0d9db4", "lon": -77.03340416666667, "is_disabled": 0}, {"rental_uris": {"android": "https://dc.lft.to/lastmile_qr_scan", "ios": "https://dc.lft.to/lastmile_qr_scan"}, "lat": 38.899161666666664, "type": "electric_scooter", "name": "2b7f620da5a6ef85fe8b0d7b0f763a5f", "fusion_lon": 0.0, "fusion_lat": 0.0, "is_reserved": 0, "bike_id": "2b7f620da5a6ef85fe8b0d7b0f763a5f", "lon": -76.93390016666666, "is_disabled": 0}, {"rental_uris": {"android": "https://dc.lft.to/lastmile_qr_scan", "ios": "https://dc.lft.to/lastmile_qr_scan"}, "lat": 38.890077, "type": "electric_scooter", "name": "a823379e77b6649b113a5bfadac16fc7", "fusion_lon": 0.0, "fusion_lat": 0.0, "is_reserved": 0, "bike_id": "a823379e77b6649b113a5bfadac16fc7", "lon": -76.93740766666667, "is_disabled": 0}, {"rental_uris": {"android": "https://dc.lft.to/lastmile_qr_scan", "ios": "https://dc.lft.to/lastmile_qr_scan"}, "lat": 38.89835866666667, "type": "electric_scooter", "name": "5b1cca32a2fa5b1da68bc521de386618", "fusion_lon": 0.0, "fusion_lat": 0.0, "is_reserved": 0, "bike_id": "5b1cca32a2fa5b1da68bc521de386618", "lon": -77.0334875, "is_disabled": 0}, {"rental_uris": {"android": "https://dc.lft.to/lastmile_qr_scan", "ios": "https://dc.lft.to/lastmile_qr_scan"}, "lat": 38.9236935, "type": "electric_scooter", "name": "442464c5ea27350dc6b40874a9a4b3c4", "fusion_lon": 0.0, "fusion_lat": 0.0, "is_reserved": 0, "bike_id": "442464c5ea27350dc6b40874a9a4b3c4", "lon": -77.01952283333334, "is_disabled": 0}, {"rental_uris": {"android": "https://dc.lft.to/lastmile_qr_scan", "ios": "https://dc.lft.to/lastmile_qr_scan"}, "lat": 38.86760833333334, "type": "electric_bike", "name": "04ad30dbc1b0edd4b3e5fad56bd9a509", "fusion_lon": 0.0, "fusion_lat": 0.0, "is_reserved": 0, "bike_id": "04ad30dbc1b0edd4b3e5fad56bd9a509", "lon": -76.94533283333334, "is_disabled": 0}, {"rental_uris": {"android": "https://dc.lft.to/lastmile_qr_scan", "ios": "https://dc.lft.to/lastmile_qr_scan"}, "lat": 38.9122665, "type": "electric_scooter", "name": "381b6f8537f958d246acbdb11ad184a9", "fusion_lon": 0.0, "fusion_lat": 0.0, "is_reserved": 0, "bike_id": "381b6f8537f958d246acbdb11ad184a9", "lon": -77.027945, "is_disabled": 0}, {"rental_uris": {"android": "https://dc.lft.to/lastmile_qr_scan", "ios": "https://dc.lft.to/lastmile_qr_scan"}, "lat": 38.896710666666664, "type": "electric_scooter", "name": "0f2609dbfad772857e3c6f4d2cfa1087", "fusion_lon": 0.0, "fusion_lat": 0.0, "is_reserved": 0, "bike_id": "0f2609dbfad772857e3c6f4d2cfa1087", "lon": -77.02667416666667, "is_disabled": 0}, {"rental_uris": {"android": "https://dc.lft.to/lastmile_qr_scan", "ios": "https://dc.lft.to/lastmile_qr_scan"}, "lat": 38.92636566666667, "type": "electric_scooter", "name": "5b5ae243f9763cc7045b798225788ae7", "fusion_lon": 0.0, "fusion_lat": 0.0, "is_reserved": 0, "bike_id": "5b5ae243f9763cc7045b798225788ae7", "lon": -77.03707766666666, "is_disabled": 0}, {"rental_uris": {"android": "https://dc.lft.to/lastmile_qr_scan", "ios": "https://dc.lft.to/lastmile_qr_scan"}, "lat": 38.912639666666664, "type": "electric_scooter", "name": "dcfc5acff740b9fa7f88e733e34e1bce", "fusion_lon": 0.0, "fusion_lat": 0.0, "is_reserved": 0, "bike_id": "dcfc5acff740b9fa7f88e733e34e1bce", "lon": -77.0387105, "is_disabled": 0}, {"rental_uris": {"android": "https://dc.lft.to/lastmile_qr_scan", "ios": "https://dc.lft.to/lastmile_qr_scan"}, "lat": 38.92473916666667, "type": "electric_scooter", "name": "b415ec809cf2b5fee9b7d7977e9ce042", "fusion_lon": 0.0, "fusion_lat": 0.0, "is_reserved": 0, "bike_id": "b415ec809cf2b5fee9b7d7977e9ce042", "lon": -77.02216766666666, "is_disabled": 0}, {"rental_uris": {"android": "https://dc.lft.to/lastmile_qr_scan", "ios": "https://dc.lft.to/lastmile_qr_scan"}, "lat": 38.8865795, "type": "electric_scooter", "name": "02e694e618bf0bc16495fbf18aa2e229", "fusion_lon": 0.0, "fusion_lat": 0.0, "is_reserved": 0, "bike_id": "02e694e618bf0bc16495fbf18aa2e229", "lon": -76.936729, "is_disabled": 0}, {"rental_uris": {"android": "https://dc.lft.to/lastmile_qr_scan", "ios": "https://dc.lft.to/lastmile_qr_scan"}, "lat": 38.92133916666667, "type": "electric_scooter", "name": "a74cd93df95748cce4078c895a2788ff", "fusion_lon": 0.0, "fusion_lat": 0.0, "is_reserved": 0, "bike_id": "a74cd93df95748cce4078c895a2788ff", "lon": -77.01797133333334, "is_disabled": 0}, {"rental_uris": {"android": "https://dc.lft.to/lastmile_qr_scan", "ios": "https://dc.lft.to/lastmile_qr_scan"}, "lat": 38.92612716666667, "type": "electric_scooter", "name": "1c5d9a56435bdb67e6efad9256138884", "fusion_lon": 0.0, "fusion_lat": 0.0, "is_reserved": 0, "bike_id": "1c5d9a56435bdb67e6efad9256138884", "lon": -77.02161966666667, "is_disabled": 0}, {"rental_uris": {"android": "https://dc.lft.to/lastmile_qr_scan", "ios": "https://dc.lft.to/lastmile_qr_scan"}, "lat": 38.90613583333333, "type": "electric_scooter", "name": "276a9f7c4bff8071f68612625eef2409", "fusion_lon": 0.0, "fusion_lat": 0.0, "is_reserved": 0, "bike_id": "276a9f7c4bff8071f68612625eef2409", "lon": -76.97804083333334, "is_disabled": 0}, {"rental_uris": {"android": "https://dc.lft.to/lastmile_qr_scan", "ios": "https://dc.lft.to/lastmile_qr_scan"}, "lat": 38.92449233333333, "type": "electric_scooter", "name": "cd62f569bb751195e75fb4d4b299c8a9", "fusion_lon": 0.0, "fusion_lat": 0.0, "is_reserved": 0, "bike_id": "cd62f569bb751195e75fb4d4b299c8a9", "lon": -77.0213485, "is_disabled": 0}, {"rental_uris": {"android": "https://dc.lft.to/lastmile_qr_scan", "ios": "https://dc.lft.to/lastmile_qr_scan"}, "lat": 38.920744, "type": "electric_scooter", "name": "3cef8f638205c1694a642b76bd533134", "fusion_lon": 0.0, "fusion_lat": 0.0, "is_reserved": 0, "bike_id": "3cef8f638205c1694a642b76bd533134", "lon": -77.04553866666667, "is_disabled": 0}, {"rental_uris": {"android": "https://dc.lft.to/lastmile_qr_scan", "ios": "https://dc.lft.to/lastmile_qr_scan"}, "lat": 38.957046166666665, "type": "electric_bike", "name": "b1c5c0c55a2fe4336799bc995e55da07", "fusion_lon": 0.0, "fusion_lat": 0.0, "is_reserved": 0, "bike_id": "b1c5c0c55a2fe4336799bc995e55da07", "lon": -77.35971533333333, "is_disabled": 0}, {"rental_uris": {"android": "https://dc.lft.to/lastmile_qr_scan", "ios": "https://dc.lft.to/lastmile_qr_scan"}, "lat": 38.882403333333336, "type": "electric_scooter", "name": "b458a2090b37f03613b59c82e4ac7c2a", "fusion_lon": 0.0, "fusion_lat": 0.0, "is_reserved": 0, "bike_id": "b458a2090b37f03613b59c82e4ac7c2a", "lon": -76.99494, "is_disabled": 0}, {"rental_uris": {"android": "https://dc.lft.to/lastmile_qr_scan", "ios": "https://dc.lft.to/lastmile_qr_scan"}, "lat": 38.88397533333333, "type": "electric_scooter", "name": "1898b8131696796f124386ce0c2cb571", "fusion_lon": 0.0, "fusion_lat": 0.0, "is_reserved": 0, "bike_id": "1898b8131696796f124386ce0c2cb571", "lon": -76.93041733333334, "is_disabled": 0}, {"rental_uris": {"android": "https://dc.lft.to/lastmile_qr_scan", "ios": "https://dc.lft.to/lastmile_qr_scan"}, "lat": 38.903506, "type": "electric_scooter", "name": "7f18cf05eff9ff239334cb528eec9f6f", "fusion_lon": 0.0, "fusion_lat": 0.0, "is_reserved": 0, "bike_id": "7f18cf05eff9ff239334cb528eec9f6f", "lon": -77.03164966666667, "is_disabled": 0}, {"rental_uris": {"android": "https://dc.lft.to/lastmile_qr_scan", "ios": "https://dc.lft.to/lastmile_qr_scan"}, "lat": 38.903542, "type": "electric_scooter", "name": "dc64b8f0a7170d8ffb8ce55bb12626f1", "fusion_lon": 0.0, "fusion_lat": 0.0, "is_reserved": 0, "bike_id": "dc64b8f0a7170d8ffb8ce55bb12626f1", "lon": -77.04196016666667, "is_disabled": 0}, {"rental_uris": {"android": "https://dc.lft.to/lastmile_qr_scan", "ios": "https://dc.lft.to/lastmile_qr_scan"}, "lat": 39.0842925, "type": "electric_bike", "name": "ce51c412ed30ae2b8ea68fc8963dfbb4", "fusion_lon": 0.0, "fusion_lat": 0.0, "is_reserved": 0, "bike_id": "ce51c412ed30ae2b8ea68fc8963dfbb4", "lon": -76.9514415, "is_disabled": 0}, {"rental_uris": {"android": "https://dc.lft.to/lastmile_qr_scan", "ios": "https://dc.lft.to/lastmile_qr_scan"}, "lat": 38.904096333333335, "type": "electric_scooter", "name": "30f6bd97522e032d992e76e553db268d", "fusion_lon": 0.0, "fusion_lat": 0.0, "is_reserved": 0, "bike_id": "30f6bd97522e032d992e76e553db268d", "lon": -77.03827483333333, "is_disabled": 0}, {"rental_uris": {"android": "https://dc.lft.to/lastmile_qr_scan", "ios": "https://dc.lft.to/lastmile_qr_scan"}, "lat": 38.8766575, "type": "electric_scooter", "name": "7ba8973685314bb7678112f357f4522e", "fusion_lon": 0.0, "fusion_lat": 0.0, "is_reserved": 0, "bike_id": "7ba8973685314bb7678112f357f4522e", "lon": -77.0007005, "is_disabled": 0}, {"rental_uris": {"android": "https://dc.lft.to/lastmile_qr_scan", "ios": "https://dc.lft.to/lastmile_qr_scan"}, "lat": 38.9352465, "type": "electric_scooter", "name": "fd5a632ddd05878eba13940602e1cf65", "fusion_lon": 0.0, "fusion_lat": 0.0, "is_reserved": 0, "bike_id": "fd5a632ddd05878eba13940602e1cf65", "lon": -77.032619, "is_disabled": 0}, {"rental_uris": {"android": "https://dc.lft.to/lastmile_qr_scan", "ios": "https://dc.lft.to/lastmile_qr_scan"}, "lat": 38.930983833333336, "type": "electric_scooter", "name": "8e2810293eb499a2f53c14357a93de01", "fusion_lon": 0.0, "fusion_lat": 0.0, "is_reserved": 0, "bike_id": "8e2810293eb499a2f53c14357a93de01", "lon": -77.02480266666667, "is_disabled": 0}, {"rental_uris": {"android": "https://dc.lft.to/lastmile_qr_scan", "ios": "https://dc.lft.to/lastmile_qr_scan"}, "lat": 38.913861833333335, "type": "electric_scooter", "name": "3a8c50d7c3c5e79916ae169e76d24e1e", "fusion_lon": 0.0, "fusion_lat": 0.0, "is_reserved": 0, "bike_id": "3a8c50d7c3c5e79916ae169e76d24e1e", "lon": -76.98413816666667, "is_disabled": 0}, {"rental_uris": {"android": "https://dc.lft.to/lastmile_qr_scan", "ios": "https://dc.lft.to/lastmile_qr_scan"}, "lat": 38.91636066666667, "type": "electric_scooter", "name": "3b5604af677a7ea96b5b065bde65dc62", "fusion_lon": 0.0, "fusion_lat": 0.0, "is_reserved": 0, "bike_id": "3b5604af677a7ea96b5b065bde65dc62", "lon": -77.0254885, "is_disabled": 0}, {"rental_uris": {"android": "https://dc.lft.to/lastmile_qr_scan", "ios": "https://dc.lft.to/lastmile_qr_scan"}, "lat": 38.9288215, "type": "electric_scooter", "name": "bba8cbab3559be76382f4d87160a65c3", "fusion_lon": 0.0, "fusion_lat": 0.0, "is_reserved": 0, "bike_id": "bba8cbab3559be76382f4d87160a65c3", "lon": -77.03247616666667, "is_disabled": 0}, {"rental_uris": {"android": "https://dc.lft.to/lastmile_qr_scan", "ios": "https://dc.lft.to/lastmile_qr_scan"}, "lat": 38.930105, "type": "electric_scooter", "name": "bb575765d8c02bfce1ed75f5a7466f21", "fusion_lon": 0.0, "fusion_lat": 0.0, "is_reserved": 0, "bike_id": "bb575765d8c02bfce1ed75f5a7466f21", "lon": -77.02425333333333, "is_disabled": 0}, {"rental_uris": {"android": "https://dc.lft.to/lastmile_qr_scan", "ios": "https://dc.lft.to/lastmile_qr_scan"}, "lat": 38.9140165, "type": "electric_scooter", "name": "a80aa7f0db80105380113ff2910f2a43", "fusion_lon": 0.0, "fusion_lat": 0.0, "is_reserved": 0, "bike_id": "a80aa7f0db80105380113ff2910f2a43", "lon": -77.04882, "is_disabled": 0}, {"rental_uris": {"android": "https://dc.lft.to/lastmile_qr_scan", "ios": "https://dc.lft.to/lastmile_qr_scan"}, "lat": 38.9418435, "type": "electric_scooter", "name": "15b04253eb177dc38657a6b4b9667c79", "fusion_lon": 0.0, "fusion_lat": 0.0, "is_reserved": 0, "bike_id": "15b04253eb177dc38657a6b4b9667c79", "lon": -77.024889, "is_disabled": 0}, {"rental_uris": {"android": "https://dc.lft.to/lastmile_qr_scan", "ios": "https://dc.lft.to/lastmile_qr_scan"}, "lat": 38.92330116666667, "type": "electric_scooter", "name": "ac5634bfe06096b0a26388f8a3db6d18", "fusion_lon": 0.0, "fusion_lat": 0.0, "is_reserved": 0, "bike_id": "ac5634bfe06096b0a26388f8a3db6d18", "lon": -77.0195755, "is_disabled": 0}, {"rental_uris": {"android": "https://dc.lft.to/lastmile_qr_scan", "ios": "https://dc.lft.to/lastmile_qr_scan"}, "lat": 38.89630183333333, "type": "electric_scooter", "name": "69b3f2444b324f98f88a78503083c4f9", "fusion_lon": 0.0, "fusion_lat": 0.0, "is_reserved": 0, "bike_id": "69b3f2444b324f98f88a78503083c4f9", "lon": -77.02786083333334, "is_disabled": 0}, {"rental_uris": {"android": "https://dc.lft.to/lastmile_qr_scan", "ios": "https://dc.lft.to/lastmile_qr_scan"}, "lat": 38.916192833333334, "type": "electric_scooter", "name": "78f1504f522f7994e16bef77e6167f00", "fusion_lon": 0.0, "fusion_lat": 0.0, "is_reserved": 0, "bike_id": "78f1504f522f7994e16bef77e6167f00", "lon": -77.0505515, "is_disabled": 0}, {"rental_uris": {"android": "https://dc.lft.to/lastmile_qr_scan", "ios": "https://dc.lft.to/lastmile_qr_scan"}, "lat": 38.88703816666667, "type": "electric_scooter", "name": "62c2ccca7baa6bbfafd22f3132e32a5c", "fusion_lon": 0.0, "fusion_lat": 0.0, "is_reserved": 0, "bike_id": "62c2ccca7baa6bbfafd22f3132e32a5c", "lon": -77.01365566666666, "is_disabled": 0}, {"rental_uris": {"android": "https://dc.lft.to/lastmile_qr_scan", "ios": "https://dc.lft.to/lastmile_qr_scan"}, "lat": 38.92334683333333, "type": "electric_scooter", "name": "1a60ba8045b9eeb2a5890d17b93f38e0", "fusion_lon": 0.0, "fusion_lat": 0.0, "is_reserved": 0, "bike_id": "1a60ba8045b9eeb2a5890d17b93f38e0", "lon": -77.0190275, "is_disabled": 0}, {"rental_uris": {"android": "https://dc.lft.to/lastmile_qr_scan", "ios": "https://dc.lft.to/lastmile_qr_scan"}, "lat": 38.84294516666667, "type": "electric_bike", "name": "f68558dacc75dcf4b6a7f7d1c258386e", "fusion_lon": 0.0, "fusion_lat": 0.0, "is_reserved": 0, "bike_id": "f68558dacc75dcf4b6a7f7d1c258386e", "lon": -77.063805, "is_disabled": 0}, {"rental_uris": {"android": "https://dc.lft.to/lastmile_qr_scan", "ios": "https://dc.lft.to/lastmile_qr_scan"}, "lat": 38.9169725, "type": "electric_scooter", "name": "f77deb8a4446a94f64a1ea843a0a411c", "fusion_lon": 0.0, "fusion_lat": 0.0, "is_reserved": 0, "bike_id": "f77deb8a4446a94f64a1ea843a0a411c", "lon": -77.03152516666667, "is_disabled": 0}, {"rental_uris": {"android": "https://dc.lft.to/lastmile_qr_scan", "ios": "https://dc.lft.to/lastmile_qr_scan"}, "lat": 38.99230566666667, "type": "electric_bike", "name": "adcc0eed454e54ffcb1193770b0d357f", "fusion_lon": 0.0, "fusion_lat": 0.0, "is_reserved": 0, "bike_id": "adcc0eed454e54ffcb1193770b0d357f", "lon": -77.0237975, "is_disabled": 0}, {"rental_uris": {"android": "https://dc.lft.to/lastmile_qr_scan", "ios": "https://dc.lft.to/lastmile_qr_scan"}, "lat": 38.92239516666667, "type": "electric_scooter", "name": "e64ee550b3a86f1a9a0635cb105dcb4d", "fusion_lon": 0.0, "fusion_lat": 0.0, "is_reserved": 0, "bike_id": "e64ee550b3a86f1a9a0635cb105dcb4d", "lon": -77.02988716666667, "is_disabled": 0}, {"rental_uris": {"android": "https://dc.lft.to/lastmile_qr_scan", "ios": "https://dc.lft.to/lastmile_qr_scan"}, "lat": 38.972355, "type": "electric_scooter", "name": "99a532e9543b40b42a5398ec662ab536", "fusion_lon": 0.0, "fusion_lat": 0.0, "is_reserved": 0, "bike_id": "99a532e9543b40b42a5398ec662ab536", "lon": -77.0270745, "is_disabled": 0}, {"rental_uris": {"android": "https://dc.lft.to/lastmile_qr_scan", "ios": "https://dc.lft.to/lastmile_qr_scan"}, "lat": 38.926817666666665, "type": "electric_scooter", "name": "06ed03766c7e426c3c7c1d779ec2c670", "fusion_lon": 0.0, "fusion_lat": 0.0, "is_reserved": 0, "bike_id": "06ed03766c7e426c3c7c1d779ec2c670", "lon": -77.02965366666666, "is_disabled": 0}, {"rental_uris": {"android": "https://dc.lft.to/lastmile_qr_scan", "ios": "https://dc.lft.to/lastmile_qr_scan"}, "lat": 38.893558666666664, "type": "electric_scooter", "name": "ef0ee8d7cc01fc8f701d78d546c11d47", "fusion_lon": 0.0, "fusion_lat": 0.0, "is_reserved": 0, "bike_id": "ef0ee8d7cc01fc8f701d78d546c11d47", "lon": -77.00336483333334, "is_disabled": 0}, {"rental_uris": {"android": "https://dc.lft.to/lastmile_qr_scan", "ios": "https://dc.lft.to/lastmile_qr_scan"}, "lat": 38.924678166666666, "type": "electric_scooter", "name": "fc6e827d1cd89a9c66485f4499ed1324", "fusion_lon": 0.0, "fusion_lat": 0.0, "is_reserved": 0, "bike_id": "fc6e827d1cd89a9c66485f4499ed1324", "lon": -77.0224565, "is_disabled": 0}, {"rental_uris": {"android": "https://dc.lft.to/lastmile_qr_scan", "ios": "https://dc.lft.to/lastmile_qr_scan"}, "lat": 38.913621166666665, "type": "electric_scooter", "name": "7dab543b33a8df216fb62bad5328ff33", "fusion_lon": 0.0, "fusion_lat": 0.0, "is_reserved": 0, "bike_id": "7dab543b33a8df216fb62bad5328ff33", "lon": -77.04494033333333, "is_disabled": 0}, {"rental_uris": {"android": "https://dc.lft.to/lastmile_qr_scan", "ios": "https://dc.lft.to/lastmile_qr_scan"}, "lat": 38.920054, "type": "electric_scooter", "name": "908bc99bb623758f30e58273a8550b8a", "fusion_lon": 0.0, "fusion_lat": 0.0, "is_reserved": 0, "bike_id": "908bc99bb623758f30e58273a8550b8a", "lon": -77.0419755, "is_disabled": 0}, {"rental_uris": {"android": "https://dc.lft.to/lastmile_qr_scan", "ios": "https://dc.lft.to/lastmile_qr_scan"}, "lat": 38.89234033333334, "type": "electric_scooter", "name": "81e0975bf3358433dd52ce9a065b6532", "fusion_lon": 0.0, "fusion_lat": 0.0, "is_reserved": 0, "bike_id": "81e0975bf3358433dd52ce9a065b6532", "lon": -77.0250945, "is_disabled": 0}, {"rental_uris": {"android": "https://dc.lft.to/lastmile_qr_scan", "ios": "https://dc.lft.to/lastmile_qr_scan"}, "lat": 38.910264166666664, "type": "electric_scooter", "name": "30b57e211d56d08067af4c42f29ab7a7", "fusion_lon": 0.0, "fusion_lat": 0.0, "is_reserved": 0, "bike_id": "30b57e211d56d08067af4c42f29ab7a7", "lon": -77.04507066666666, "is_disabled": 0}, {"rental_uris": {"android": "https://dc.lft.to/lastmile_qr_scan", "ios": "https://dc.lft.to/lastmile_qr_scan"}, "lat": 38.8922435, "type": "electric_scooter", "name": "c9def8559784c687f0caa51cccb62385", "fusion_lon": 0.0, "fusion_lat": 0.0, "is_reserved": 0, "bike_id": "c9def8559784c687f0caa51cccb62385", "lon": -77.046445, "is_disabled": 0}, {"rental_uris": {"android": "https://dc.lft.to/lastmile_qr_scan", "ios": "https://dc.lft.to/lastmile_qr_scan"}, "lat": 38.89901366666667, "type": "electric_scooter", "name": "adf8f3ec4057238e8c7ae4ad11241129", "fusion_lon": 0.0, "fusion_lat": 0.0, "is_reserved": 0, "bike_id": "adf8f3ec4057238e8c7ae4ad11241129", "lon": -77.032788, "is_disabled": 0}, {"rental_uris": {"android": "https://dc.lft.to/lastmile_qr_scan", "ios": "https://dc.lft.to/lastmile_qr_scan"}, "lat": 38.89979983333333, "type": "electric_scooter", "name": "7f1adeaa76cd2d7d53ce969634b71517", "fusion_lon": 0.0, "fusion_lat": 0.0, "is_reserved": 0, "bike_id": "7f1adeaa76cd2d7d53ce969634b71517", "lon": -77.04809933333334, "is_disabled": 0}, {"rental_uris": {"android": "https://dc.lft.to/lastmile_qr_scan", "ios": "https://dc.lft.to/lastmile_qr_scan"}, "lat": 38.80976866666666, "type": "electric_bike", "name": "3822af4a3e4a1a5f25be87963885f492", "fusion_lon": 0.0, "fusion_lat": 0.0, "is_reserved": 0, "bike_id": "3822af4a3e4a1a5f25be87963885f492", "lon": -77.07662633333334, "is_disabled": 0}, {"rental_uris": {"android": "https://dc.lft.to/lastmile_qr_scan", "ios": "https://dc.lft.to/lastmile_qr_scan"}, "lat": 38.90133183333333, "type": "electric_scooter", "name": "0569be02bde89d4bae1eb4aa36500056", "fusion_lon": 0.0, "fusion_lat": 0.0, "is_reserved": 0, "bike_id": "0569be02bde89d4bae1eb4aa36500056", "lon": -77.0321325, "is_disabled": 0}, {"rental_uris": {"android": "https://dc.lft.to/lastmile_qr_scan", "ios": "https://dc.lft.to/lastmile_qr_scan"}, "lat": 38.918950833333334, "type": "electric_bike", "name": "76c21893f676ae1096eb92397ff35ed6", "fusion_lon": 0.0, "fusion_lat": 0.0, "is_reserved": 0, "bike_id": "76c21893f676ae1096eb92397ff35ed6", "lon": -77.10180616666666, "is_disabled": 0}, {"rental_uris": {"android": "https://dc.lft.to/lastmile_qr_scan", "ios": "https://dc.lft.to/lastmile_qr_scan"}, "lat": 38.900389833333335, "type": "electric_scooter", "name": "df20df4416f0ae5e9420ce5146ff1e3e", "fusion_lon": 0.0, "fusion_lat": 0.0, "is_reserved": 0, "bike_id": "df20df4416f0ae5e9420ce5146ff1e3e", "lon": -76.988393, "is_disabled": 0}, {"rental_uris": {"android": "https://dc.lft.to/lastmile_qr_scan", "ios": "https://dc.lft.to/lastmile_qr_scan"}, "lat": 38.9050805, "type": "electric_scooter", "name": "3f6425854112fcfac94985a68c7f3a79", "fusion_lon": 0.0, "fusion_lat": 0.0, "is_reserved": 0, "bike_id": "3f6425854112fcfac94985a68c7f3a79", "lon": -77.07016133333333, "is_disabled": 0}, {"rental_uris": {"android": "https://dc.lft.to/lastmile_qr_scan", "ios": "https://dc.lft.to/lastmile_qr_scan"}, "lat": 38.900151666666666, "type": "electric_scooter", "name": "5eff2bb65d8ed6947aa65dd06cc8b46e", "fusion_lon": 0.0, "fusion_lat": 0.0, "is_reserved": 0, "bike_id": "5eff2bb65d8ed6947aa65dd06cc8b46e", "lon": -77.0125145, "is_disabled": 0}, {"rental_uris": {"android": "https://dc.lft.to/lastmile_qr_scan", "ios": "https://dc.lft.to/lastmile_qr_scan"}, "lat": 38.83584283333333, "type": "electric_bike", "name": "dd78043d36938c7ee7d889bbdfbd66f3", "fusion_lon": 0.0, "fusion_lat": 0.0, "is_reserved": 0, "bike_id": "dd78043d36938c7ee7d889bbdfbd66f3", "lon": -76.9902965, "is_disabled": 0}, {"rental_uris": {"android": "https://dc.lft.to/lastmile_qr_scan", "ios": "https://dc.lft.to/lastmile_qr_scan"}, "lat": 38.92235383333333, "type": "electric_scooter", "name": "d19e0b15c3e80a75e850b484e99e7123", "fusion_lon": 0.0, "fusion_lat": 0.0, "is_reserved": 0, "bike_id": "d19e0b15c3e80a75e850b484e99e7123", "lon": -77.03523716666666, "is_disabled": 0}, {"rental_uris": {"android": "https://dc.lft.to/lastmile_qr_scan", "ios": "https://dc.lft.to/lastmile_qr_scan"}, "lat": 38.94464683333333, "type": "electric_scooter", "name": "0963813d1f6187ea30acaa0d830d7dac", "fusion_lon": 0.0, "fusion_lat": 0.0, "is_reserved": 0, "bike_id": "0963813d1f6187ea30acaa0d830d7dac", "lon": -77.0065905, "is_disabled": 0}, {"rental_uris": {"android": "https://dc.lft.to/lastmile_qr_scan", "ios": "https://dc.lft.to/lastmile_qr_scan"}, "lat": 38.92473233333333, "type": "electric_scooter", "name": "49e4cde1382ff66f711e90c3e4d679cc", "fusion_lon": 0.0, "fusion_lat": 0.0, "is_reserved": 0, "bike_id": "49e4cde1382ff66f711e90c3e4d679cc", "lon": -77.02248133333333, "is_disabled": 0}, {"rental_uris": {"android": "https://dc.lft.to/lastmile_qr_scan", "ios": "https://dc.lft.to/lastmile_qr_scan"}, "lat": 38.91640316666667, "type": "electric_scooter", "name": "7d9e0acd4d5892596730e82f0e18a8de", "fusion_lon": 0.0, "fusion_lat": 0.0, "is_reserved": 0, "bike_id": "7d9e0acd4d5892596730e82f0e18a8de", "lon": -77.02696216666666, "is_disabled": 0}, {"rental_uris": {"android": "https://dc.lft.to/lastmile_qr_scan", "ios": "https://dc.lft.to/lastmile_qr_scan"}, "lat": 38.9147805, "type": "electric_scooter", "name": "53b6c562c77f7aa76bc24c990b0392b8", "fusion_lon": 0.0, "fusion_lat": 0.0, "is_reserved": 0, "bike_id": "53b6c562c77f7aa76bc24c990b0392b8", "lon": -77.0218575, "is_disabled": 0}, {"rental_uris": {"android": "https://dc.lft.to/lastmile_qr_scan", "ios": "https://dc.lft.to/lastmile_qr_scan"}, "lat": 38.905845, "type": "electric_scooter", "name": "19c555821a4478fc7cc0385793e5a0fe", "fusion_lon": 0.0, "fusion_lat": 0.0, "is_reserved": 0, "bike_id": "19c555821a4478fc7cc0385793e5a0fe", "lon": -77.04093316666666, "is_disabled": 0}, {"rental_uris": {"android": "https://dc.lft.to/lastmile_qr_scan", "ios": "https://dc.lft.to/lastmile_qr_scan"}, "lat": 38.893573333333336, "type": "electric_scooter", "name": "9a1a10406d97eb82c36bc852ef5c1055", "fusion_lon": 0.0, "fusion_lat": 0.0, "is_reserved": 0, "bike_id": "9a1a10406d97eb82c36bc852ef5c1055", "lon": -77.00335283333334, "is_disabled": 0}, {"rental_uris": {"android": "https://dc.lft.to/lastmile_qr_scan", "ios": "https://dc.lft.to/lastmile_qr_scan"}, "lat": 38.923116666666665, "type": "electric_scooter", "name": "042054702b295be467e4dff7377513ce", "fusion_lon": 0.0, "fusion_lat": 0.0, "is_reserved": 0, "bike_id": "042054702b295be467e4dff7377513ce", "lon": -77.0421475, "is_disabled": 0}, {"rental_uris": {"android": "https://dc.lft.to/lastmile_qr_scan", "ios": "https://dc.lft.to/lastmile_qr_scan"}, "lat": 38.96393, "type": "electric_scooter", "name": "e3dd822e6e8fe6e1a81e7db8c82130ba", "fusion_lon": 0.0, "fusion_lat": 0.0, "is_reserved": 0, "bike_id": "e3dd822e6e8fe6e1a81e7db8c82130ba", "lon": -77.02594283333333, "is_disabled": 0}, {"rental_uris": {"android": "https://dc.lft.to/lastmile_qr_scan", "ios": "https://dc.lft.to/lastmile_qr_scan"}, "lat": 38.87677583333333, "type": "electric_scooter", "name": "3a8136e1c70e76d59993499909143323", "fusion_lon": 0.0, "fusion_lat": 0.0, "is_reserved": 0, "bike_id": "3a8136e1c70e76d59993499909143323", "lon": -77.0196955, "is_disabled": 0}, {"rental_uris": {"android": "https://dc.lft.to/lastmile_qr_scan", "ios": "https://dc.lft.to/lastmile_qr_scan"}, "lat": 38.91678666666667, "type": "electric_scooter", "name": "65c9abeb9108e9e8ec0c7b9a09161990", "fusion_lon": 0.0, "fusion_lat": 0.0, "is_reserved": 0, "bike_id": "65c9abeb9108e9e8ec0c7b9a09161990", "lon": -77.029659, "is_disabled": 0}, {"rental_uris": {"android": "https://dc.lft.to/lastmile_qr_scan", "ios": "https://dc.lft.to/lastmile_qr_scan"}, "lat": 38.9239925, "type": "electric_bike", "name": "582eec7e6048400dcb331837e6b549fe", "fusion_lon": 0.0, "fusion_lat": 0.0, "is_reserved": 0, "bike_id": "582eec7e6048400dcb331837e6b549fe", "lon": -77.040684, "is_disabled": 0}, {"rental_uris": {"android": "https://dc.lft.to/lastmile_qr_scan", "ios": "https://dc.lft.to/lastmile_qr_scan"}, "lat": 38.91032233333333, "type": "electric_scooter", "name": "22ac216ad6f0f6f08b1906cff5ebf73d", "fusion_lon": 0.0, "fusion_lat": 0.0, "is_reserved": 0, "bike_id": "22ac216ad6f0f6f08b1906cff5ebf73d", "lon": -76.99341516666667, "is_disabled": 0}, {"rental_uris": {"android": "https://dc.lft.to/lastmile_qr_scan", "ios": "https://dc.lft.to/lastmile_qr_scan"}, "lat": 38.890890666666664, "type": "electric_bike", "name": "635b65e6c7d4d61c472103fa016e7f52", "fusion_lon": 0.0, "fusion_lat": 0.0, "is_reserved": 0, "bike_id": "635b65e6c7d4d61c472103fa016e7f52", "lon": -76.95472016666666, "is_disabled": 0}, {"rental_uris": {"android": "https://dc.lft.to/lastmile_qr_scan", "ios": "https://dc.lft.to/lastmile_qr_scan"}, "lat": 38.927997, "type": "electric_scooter", "name": "d8efab9639790107340d565d8c157a39", "fusion_lon": 0.0, "fusion_lat": 0.0, "is_reserved": 0, "bike_id": "d8efab9639790107340d565d8c157a39", "lon": -77.02984683333334, "is_disabled": 0}, {"rental_uris": {"android": "https://dc.lft.to/lastmile_qr_scan", "ios": "https://dc.lft.to/lastmile_qr_scan"}, "lat": 38.931899333333334, "type": "electric_scooter", "name": "3ebbf3b05558aa6456e0d7d7e59963cf", "fusion_lon": 0.0, "fusion_lat": 0.0, "is_reserved": 0, "bike_id": "3ebbf3b05558aa6456e0d7d7e59963cf", "lon": -77.018667, "is_disabled": 0}, {"rental_uris": {"android": "https://dc.lft.to/lastmile_qr_scan", "ios": "https://dc.lft.to/lastmile_qr_scan"}, "lat": 38.88703666666667, "type": "electric_scooter", "name": "3c5d0a1cce6c336c3e6cb1f51c81e4e6", "fusion_lon": 0.0, "fusion_lat": 0.0, "is_reserved": 0, "bike_id": "3c5d0a1cce6c336c3e6cb1f51c81e4e6", "lon": -77.0217, "is_disabled": 0}, {"rental_uris": {"android": "https://dc.lft.to/lastmile_qr_scan", "ios": "https://dc.lft.to/lastmile_qr_scan"}, "lat": 38.905771333333334, "type": "electric_scooter", "name": "2893650b24107ee772ac68f65682b415", "fusion_lon": 0.0, "fusion_lat": 0.0, "is_reserved": 0, "bike_id": "2893650b24107ee772ac68f65682b415", "lon": -77.04065566666667, "is_disabled": 0}, {"rental_uris": {"android": "https://dc.lft.to/lastmile_qr_scan", "ios": "https://dc.lft.to/lastmile_qr_scan"}, "lat": 38.898905, "type": "electric_scooter", "name": "8ec0cdfdd901558e3ed4311905954723", "fusion_lon": 0.0, "fusion_lat": 0.0, "is_reserved": 0, "bike_id": "8ec0cdfdd901558e3ed4311905954723", "lon": -77.0476935, "is_disabled": 0}, {"rental_uris": {"android": "https://dc.lft.to/lastmile_qr_scan", "ios": "https://dc.lft.to/lastmile_qr_scan"}, "lat": 38.903908, "type": "electric_scooter", "name": "751979e7786b0cd9f0d712745975a24b", "fusion_lon": 0.0, "fusion_lat": 0.0, "is_reserved": 0, "bike_id": "751979e7786b0cd9f0d712745975a24b", "lon": -77.025949, "is_disabled": 0}, {"rental_uris": {"android": "https://dc.lft.to/lastmile_qr_scan", "ios": "https://dc.lft.to/lastmile_qr_scan"}, "lat": 38.931090833333336, "type": "electric_scooter", "name": "9f39be6192ddfb27a4b5a1a48b808c95", "fusion_lon": 0.0, "fusion_lat": 0.0, "is_reserved": 0, "bike_id": "9f39be6192ddfb27a4b5a1a48b808c95", "lon": -77.03013166666666, "is_disabled": 0}, {"rental_uris": {"android": "https://dc.lft.to/lastmile_qr_scan", "ios": "https://dc.lft.to/lastmile_qr_scan"}, "lat": 38.93528716666667, "type": "electric_scooter", "name": "daf13294eb48408bd7e1866c8ea29e36", "fusion_lon": 0.0, "fusion_lat": 0.0, "is_reserved": 0, "bike_id": "daf13294eb48408bd7e1866c8ea29e36", "lon": -77.058362, "is_disabled": 0}, {"rental_uris": {"android": "https://dc.lft.to/lastmile_qr_scan", "ios": "https://dc.lft.to/lastmile_qr_scan"}, "lat": 38.8475705, "type": "electric_bike", "name": "53f4cd38fb7063516cd3b52fcc20db12", "fusion_lon": 0.0, "fusion_lat": 0.0, "is_reserved": 0, "bike_id": "53f4cd38fb7063516cd3b52fcc20db12", "lon": -77.05374183333333, "is_disabled": 0}, {"rental_uris": {"android": "https://dc.lft.to/lastmile_qr_scan", "ios": "https://dc.lft.to/lastmile_qr_scan"}, "lat": 38.9312775, "type": "electric_scooter", "name": "f7aa8713b2092fff2a114600d2c89c6f", "fusion_lon": 0.0, "fusion_lat": 0.0, "is_reserved": 0, "bike_id": "f7aa8713b2092fff2a114600d2c89c6f", "lon": -77.02264466666666, "is_disabled": 0}, {"rental_uris": {"android": "https://dc.lft.to/lastmile_qr_scan", "ios": "https://dc.lft.to/lastmile_qr_scan"}, "lat": 38.90624183333333, "type": "electric_scooter", "name": "a0ae5ab3150a44bc1e5f3a0558e82c99", "fusion_lon": 0.0, "fusion_lat": 0.0, "is_reserved": 0, "bike_id": "a0ae5ab3150a44bc1e5f3a0558e82c99", "lon": -77.06267183333334, "is_disabled": 0}, {"rental_uris": {"android": "https://dc.lft.to/lastmile_qr_scan", "ios": "https://dc.lft.to/lastmile_qr_scan"}, "lat": 38.89637783333333, "type": "electric_scooter", "name": "972cbb10b53d0faa80a725ba47605171", "fusion_lon": 0.0, "fusion_lat": 0.0, "is_reserved": 0, "bike_id": "972cbb10b53d0faa80a725ba47605171", "lon": -77.027314, "is_disabled": 0}, {"rental_uris": {"android": "https://dc.lft.to/lastmile_qr_scan", "ios": "https://dc.lft.to/lastmile_qr_scan"}, "lat": 38.89490383333333, "type": "electric_scooter", "name": "b69d95ca6ce87431d38ef2708390afdf", "fusion_lon": 0.0, "fusion_lat": 0.0, "is_reserved": 0, "bike_id": "b69d95ca6ce87431d38ef2708390afdf", "lon": -76.94891983333333, "is_disabled": 0}, {"rental_uris": {"android": "https://dc.lft.to/lastmile_qr_scan", "ios": "https://dc.lft.to/lastmile_qr_scan"}, "lat": 38.88720433333334, "type": "electric_scooter", "name": "4141a92c8a80e82055b32750ef942d92", "fusion_lon": 0.0, "fusion_lat": 0.0, "is_reserved": 0, "bike_id": "4141a92c8a80e82055b32750ef942d92", "lon": -77.02841333333333, "is_disabled": 0}, {"rental_uris": {"android": "https://dc.lft.to/lastmile_qr_scan", "ios": "https://dc.lft.to/lastmile_qr_scan"}, "lat": 38.902702833333336, "type": "electric_scooter", "name": "1bd1a255b507e111d6556b6b2f617174", "fusion_lon": 0.0, "fusion_lat": 0.0, "is_reserved": 0, "bike_id": "1bd1a255b507e111d6556b6b2f617174", "lon": -77.02941716666666, "is_disabled": 0}, {"rental_uris": {"android": "https://dc.lft.to/lastmile_qr_scan", "ios": "https://dc.lft.to/lastmile_qr_scan"}, "lat": 38.901735333333335, "type": "electric_scooter", "name": "24ad70c51d2da5b4efdd89c00da54fb0", "fusion_lon": 0.0, "fusion_lat": 0.0, "is_reserved": 0, "bike_id": "24ad70c51d2da5b4efdd89c00da54fb0", "lon": -76.94150083333334, "is_disabled": 0}, {"rental_uris": {"android": "https://dc.lft.to/lastmile_qr_scan", "ios": "https://dc.lft.to/lastmile_qr_scan"}, "lat": 38.9206715, "type": "electric_scooter", "name": "bc1d51fbcec7667c0c76a9bf2b7427e5", "fusion_lon": 0.0, "fusion_lat": 0.0, "is_reserved": 0, "bike_id": "bc1d51fbcec7667c0c76a9bf2b7427e5", "lon": -77.02267783333333, "is_disabled": 0}, {"rental_uris": {"android": "https://dc.lft.to/lastmile_qr_scan", "ios": "https://dc.lft.to/lastmile_qr_scan"}, "lat": 38.919133333333335, "type": "electric_scooter", "name": "afd70a585ebe6d4b891ed33d773dbb04", "fusion_lon": 0.0, "fusion_lat": 0.0, "is_reserved": 0, "bike_id": "afd70a585ebe6d4b891ed33d773dbb04", "lon": -77.0339875, "is_disabled": 0}, {"rental_uris": {"android": "https://dc.lft.to/lastmile_qr_scan", "ios": "https://dc.lft.to/lastmile_qr_scan"}, "lat": 38.89704583333334, "type": "electric_scooter", "name": "3ee28092b9e16e10b75aabd686ca016f", "fusion_lon": 0.0, "fusion_lat": 0.0, "is_reserved": 0, "bike_id": "3ee28092b9e16e10b75aabd686ca016f", "lon": -77.01324533333333, "is_disabled": 0}, {"rental_uris": {"android": "https://dc.lft.to/lastmile_qr_scan", "ios": "https://dc.lft.to/lastmile_qr_scan"}, "lat": 38.893187, "type": "electric_scooter", "name": "2da3d4fdec7a09c86d186ff0712776e9", "fusion_lon": 0.0, "fusion_lat": 0.0, "is_reserved": 0, "bike_id": "2da3d4fdec7a09c86d186ff0712776e9", "lon": -76.93966883333333, "is_disabled": 0}, {"rental_uris": {"android": "https://dc.lft.to/lastmile_qr_scan", "ios": "https://dc.lft.to/lastmile_qr_scan"}, "lat": 38.92069733333334, "type": "electric_scooter", "name": "8e206fbe6d8641e9b2ad350ad331e3e7", "fusion_lon": 0.0, "fusion_lat": 0.0, "is_reserved": 0, "bike_id": "8e206fbe6d8641e9b2ad350ad331e3e7", "lon": -77.039851, "is_disabled": 0}, {"rental_uris": {"android": "https://dc.lft.to/lastmile_qr_scan", "ios": "https://dc.lft.to/lastmile_qr_scan"}, "lat": 38.907008833333336, "type": "electric_scooter", "name": "ac0ec89a99183e6783d3a66d6fcdc636", "fusion_lon": 0.0, "fusion_lat": 0.0, "is_reserved": 0, "bike_id": "ac0ec89a99183e6783d3a66d6fcdc636", "lon": -77.003118, "is_disabled": 0}, {"rental_uris": {"android": "https://dc.lft.to/lastmile_qr_scan", "ios": "https://dc.lft.to/lastmile_qr_scan"}, "lat": 38.9049105, "type": "electric_scooter", "name": "efdb2abd3cb6ef51e11cab48d695fa51", "fusion_lon": 0.0, "fusion_lat": 0.0, "is_reserved": 0, "bike_id": "efdb2abd3cb6ef51e11cab48d695fa51", "lon": -77.03558533333333, "is_disabled": 0}, {"rental_uris": {"android": "https://dc.lft.to/lastmile_qr_scan", "ios": "https://dc.lft.to/lastmile_qr_scan"}, "lat": 38.8922795, "type": "electric_scooter", "name": "3107d3eaa0df126cf1481ac34bca6e4a", "fusion_lon": 0.0, "fusion_lat": 0.0, "is_reserved": 0, "bike_id": "3107d3eaa0df126cf1481ac34bca6e4a", "lon": -77.03137616666666, "is_disabled": 0}, {"rental_uris": {"android": "https://dc.lft.to/lastmile_qr_scan", "ios": "https://dc.lft.to/lastmile_qr_scan"}, "lat": 38.929212166666666, "type": "electric_scooter", "name": "5b0e705fba62e6c0d1c6df1e4c75acc1", "fusion_lon": 0.0, "fusion_lat": 0.0, "is_reserved": 0, "bike_id": "5b0e705fba62e6c0d1c6df1e4c75acc1", "lon": -77.02143716666667, "is_disabled": 0}, {"rental_uris": {"android": "https://dc.lft.to/lastmile_qr_scan", "ios": "https://dc.lft.to/lastmile_qr_scan"}, "lat": 38.964099, "type": "electric_scooter", "name": "86726b7083bdea0e927365887e856805", "fusion_lon": 0.0, "fusion_lat": 0.0, "is_reserved": 0, "bike_id": "86726b7083bdea0e927365887e856805", "lon": -77.0328725, "is_disabled": 0}, {"rental_uris": {"android": "https://dc.lft.to/lastmile_qr_scan", "ios": "https://dc.lft.to/lastmile_qr_scan"}, "lat": 38.914176499999996, "type": "electric_scooter", "name": "dac814311f68b1a2f82c16bc9c4c478a", "fusion_lon": 0.0, "fusion_lat": 0.0, "is_reserved": 0, "bike_id": "dac814311f68b1a2f82c16bc9c4c478a", "lon": -77.04501916666666, "is_disabled": 0}, {"rental_uris": {"android": "https://dc.lft.to/lastmile_qr_scan", "ios": "https://dc.lft.to/lastmile_qr_scan"}, "lat": 38.924127166666665, "type": "electric_scooter", "name": "7562b42417537e52a10a3bd173e42a3f", "fusion_lon": 0.0, "fusion_lat": 0.0, "is_reserved": 0, "bike_id": "7562b42417537e52a10a3bd173e42a3f", "lon": -77.0226095, "is_disabled": 0}, {"rental_uris": {"android": "https://dc.lft.to/lastmile_qr_scan", "ios": "https://dc.lft.to/lastmile_qr_scan"}, "lat": 38.90302633333334, "type": "electric_scooter", "name": "7b7b10c42b751070c5277073a2887ece", "fusion_lon": 0.0, "fusion_lat": 0.0, "is_reserved": 0, "bike_id": "7b7b10c42b751070c5277073a2887ece", "lon": -77.03845483333333, "is_disabled": 0}, {"rental_uris": {"android": "https://dc.lft.to/lastmile_qr_scan", "ios": "https://dc.lft.to/lastmile_qr_scan"}, "lat": 38.87470716666667, "type": "electric_scooter", "name": "94dbbc9b1af6e1fdfbe985dd2ef90183", "fusion_lon": 0.0, "fusion_lat": 0.0, "is_reserved": 0, "bike_id": "94dbbc9b1af6e1fdfbe985dd2ef90183", "lon": -77.00510616666666, "is_disabled": 0}, {"rental_uris": {"android": "https://dc.lft.to/lastmile_qr_scan", "ios": "https://dc.lft.to/lastmile_qr_scan"}, "lat": 38.91563716666667, "type": "electric_scooter", "name": "0285bf11090bc5dfcd126662689e17c1", "fusion_lon": 0.0, "fusion_lat": 0.0, "is_reserved": 0, "bike_id": "0285bf11090bc5dfcd126662689e17c1", "lon": -77.03262183333334, "is_disabled": 0}, {"rental_uris": {"android": "https://dc.lft.to/lastmile_qr_scan", "ios": "https://dc.lft.to/lastmile_qr_scan"}, "lat": 38.906995333333334, "type": "electric_scooter", "name": "38338465ba846ce2c514d163608223ec", "fusion_lon": 0.0, "fusion_lat": 0.0, "is_reserved": 0, "bike_id": "38338465ba846ce2c514d163608223ec", "lon": -76.9869545, "is_disabled": 0}, {"rental_uris": {"android": "https://dc.lft.to/lastmile_qr_scan", "ios": "https://dc.lft.to/lastmile_qr_scan"}, "lat": 38.903031166666665, "type": "electric_scooter", "name": "dd88aadceee56ae42484cc3aee65d09f", "fusion_lon": 0.0, "fusion_lat": 0.0, "is_reserved": 0, "bike_id": "dd88aadceee56ae42484cc3aee65d09f", "lon": -77.044762, "is_disabled": 0}, {"rental_uris": {"android": "https://dc.lft.to/lastmile_qr_scan", "ios": "https://dc.lft.to/lastmile_qr_scan"}, "lat": 38.92084966666667, "type": "electric_scooter", "name": "1466442035e7e00a71da6ef5a6a53415", "fusion_lon": 0.0, "fusion_lat": 0.0, "is_reserved": 0, "bike_id": "1466442035e7e00a71da6ef5a6a53415", "lon": -77.01812483333333, "is_disabled": 0}, {"rental_uris": {"android": "https://dc.lft.to/lastmile_qr_scan", "ios": "https://dc.lft.to/lastmile_qr_scan"}, "lat": 38.8871905, "type": "electric_scooter", "name": "699c9576220a36254aedff4fbf49dc80", "fusion_lon": 0.0, "fusion_lat": 0.0, "is_reserved": 0, "bike_id": "699c9576220a36254aedff4fbf49dc80", "lon": -76.99645233333334, "is_disabled": 0}, {"rental_uris": {"android": "https://dc.lft.to/lastmile_qr_scan", "ios": "https://dc.lft.to/lastmile_qr_scan"}, "lat": 38.92682, "type": "electric_scooter", "name": "71fd719ce3bcf8b23c8dcf23189ed84d", "fusion_lon": 0.0, "fusion_lat": 0.0, "is_reserved": 0, "bike_id": "71fd719ce3bcf8b23c8dcf23189ed84d", "lon": -77.02965116666667, "is_disabled": 0}, {"rental_uris": {"android": "https://dc.lft.to/lastmile_qr_scan", "ios": "https://dc.lft.to/lastmile_qr_scan"}, "lat": 38.918084666666665, "type": "electric_scooter", "name": "dc909bd04750c36496ce9121d31600bb", "fusion_lon": 0.0, "fusion_lat": 0.0, "is_reserved": 0, "bike_id": "dc909bd04750c36496ce9121d31600bb", "lon": -77.03127916666666, "is_disabled": 0}, {"rental_uris": {"android": "https://dc.lft.to/lastmile_qr_scan", "ios": "https://dc.lft.to/lastmile_qr_scan"}, "lat": 38.870642333333336, "type": "electric_bike", "name": "b6e717de3390803b583cce7a2bf82e8d", "fusion_lon": 0.0, "fusion_lat": 0.0, "is_reserved": 0, "bike_id": "b6e717de3390803b583cce7a2bf82e8d", "lon": -77.11046516666667, "is_disabled": 0}, {"rental_uris": {"android": "https://dc.lft.to/lastmile_qr_scan", "ios": "https://dc.lft.to/lastmile_qr_scan"}, "lat": 38.89729466666667, "type": "electric_scooter", "name": "f477e922c7274c715f85c48986722244", "fusion_lon": 0.0, "fusion_lat": 0.0, "is_reserved": 0, "bike_id": "f477e922c7274c715f85c48986722244", "lon": -77.05524533333333, "is_disabled": 0}, {"rental_uris": {"android": "https://dc.lft.to/lastmile_qr_scan", "ios": "https://dc.lft.to/lastmile_qr_scan"}, "lat": 38.90809816666667, "type": "electric_scooter", "name": "6b730a7178c7a08384948ea825323456", "fusion_lon": 0.0, "fusion_lat": 0.0, "is_reserved": 0, "bike_id": "6b730a7178c7a08384948ea825323456", "lon": -76.998535, "is_disabled": 0}, {"rental_uris": {"android": "https://dc.lft.to/lastmile_qr_scan", "ios": "https://dc.lft.to/lastmile_qr_scan"}, "lat": 38.893721166666666, "type": "electric_scooter", "name": "941fcf6696d09ac05c82bbafd2ebb94b", "fusion_lon": 0.0, "fusion_lat": 0.0, "is_reserved": 0, "bike_id": "941fcf6696d09ac05c82bbafd2ebb94b", "lon": -77.0034775, "is_disabled": 0}, {"rental_uris": {"android": "https://dc.lft.to/lastmile_qr_scan", "ios": "https://dc.lft.to/lastmile_qr_scan"}, "lat": 38.90507433333333, "type": "electric_scooter", "name": "a7bd235c90ee270dd58ed954357ea21e", "fusion_lon": 0.0, "fusion_lat": 0.0, "is_reserved": 0, "bike_id": "a7bd235c90ee270dd58ed954357ea21e", "lon": -77.0416835, "is_disabled": 0}, {"rental_uris": {"android": "https://dc.lft.to/lastmile_qr_scan", "ios": "https://dc.lft.to/lastmile_qr_scan"}, "lat": 38.9429645, "type": "electric_scooter", "name": "c0186afacc15bdff1a1b9b3182eb9058", "fusion_lon": 0.0, "fusion_lat": 0.0, "is_reserved": 0, "bike_id": "c0186afacc15bdff1a1b9b3182eb9058", "lon": -77.02796483333333, "is_disabled": 0}, {"rental_uris": {"android": "https://dc.lft.to/lastmile_qr_scan", "ios": "https://dc.lft.to/lastmile_qr_scan"}, "lat": 38.921584, "type": "electric_scooter", "name": "22b83a127915f3a5c7cd13f00c2d3025", "fusion_lon": 0.0, "fusion_lat": 0.0, "is_reserved": 0, "bike_id": "22b83a127915f3a5c7cd13f00c2d3025", "lon": -77.0332745, "is_disabled": 0}, {"rental_uris": {"android": "https://dc.lft.to/lastmile_qr_scan", "ios": "https://dc.lft.to/lastmile_qr_scan"}, "lat": 38.90386133333333, "type": "electric_scooter", "name": "7387ee2ba98a97b8f459f06881451ebe", "fusion_lon": 0.0, "fusion_lat": 0.0, "is_reserved": 0, "bike_id": "7387ee2ba98a97b8f459f06881451ebe", "lon": -77.03855683333333, "is_disabled": 0}, {"rental_uris": {"android": "https://dc.lft.to/lastmile_qr_scan", "ios": "https://dc.lft.to/lastmile_qr_scan"}, "lat": 38.90727733333333, "type": "electric_scooter", "name": "957c9861d31bc33974d9c3b5adc41c1c", "fusion_lon": 0.0, "fusion_lat": 0.0, "is_reserved": 0, "bike_id": "957c9861d31bc33974d9c3b5adc41c1c", "lon": -77.04049383333333, "is_disabled": 0}, {"rental_uris": {"android": "https://dc.lft.to/lastmile_qr_scan", "ios": "https://dc.lft.to/lastmile_qr_scan"}, "lat": 38.902135666666666, "type": "electric_scooter", "name": "0642b1bb3cebb7e56c0f5bd89cc5b337", "fusion_lon": 0.0, "fusion_lat": 0.0, "is_reserved": 0, "bike_id": "0642b1bb3cebb7e56c0f5bd89cc5b337", "lon": -77.05900483333333, "is_disabled": 0}, {"rental_uris": {"android": "https://dc.lft.to/lastmile_qr_scan", "ios": "https://dc.lft.to/lastmile_qr_scan"}, "lat": 38.923532333333334, "type": "electric_scooter", "name": "1631de82aeca8322fbad3ff8f61cdc8d", "fusion_lon": 0.0, "fusion_lat": 0.0, "is_reserved": 0, "bike_id": "1631de82aeca8322fbad3ff8f61cdc8d", "lon": -77.05072883333334, "is_disabled": 0}, {"rental_uris": {"android": "https://dc.lft.to/lastmile_qr_scan", "ios": "https://dc.lft.to/lastmile_qr_scan"}, "lat": 38.90394033333333, "type": "electric_scooter", "name": "e74a2b706e6902b67fbeb04f2752db15", "fusion_lon": 0.0, "fusion_lat": 0.0, "is_reserved": 0, "bike_id": "e74a2b706e6902b67fbeb04f2752db15", "lon": -77.0385225, "is_disabled": 0}, {"rental_uris": {"android": "https://dc.lft.to/lastmile_qr_scan", "ios": "https://dc.lft.to/lastmile_qr_scan"}, "lat": 38.896142833333336, "type": "electric_scooter", "name": "18ddf7fba82a0b91c134b98bf5336bbd", "fusion_lon": 0.0, "fusion_lat": 0.0, "is_reserved": 0, "bike_id": "18ddf7fba82a0b91c134b98bf5336bbd", "lon": -77.02423333333333, "is_disabled": 0}, {"rental_uris": {"android": "https://dc.lft.to/lastmile_qr_scan", "ios": "https://dc.lft.to/lastmile_qr_scan"}, "lat": 38.94414733333333, "type": "electric_scooter", "name": "2a90499078634cfd6af144a9ea0aead8", "fusion_lon": 0.0, "fusion_lat": 0.0, "is_reserved": 0, "bike_id": "2a90499078634cfd6af144a9ea0aead8", "lon": -77.06327966666667, "is_disabled": 0}, {"rental_uris": {"android": "https://dc.lft.to/lastmile_qr_scan", "ios": "https://dc.lft.to/lastmile_qr_scan"}, "lat": 38.891015, "type": "electric_bike", "name": "9074c130591959996047adab46b272a2", "fusion_lon": 0.0, "fusion_lat": 0.0, "is_reserved": 0, "bike_id": "9074c130591959996047adab46b272a2", "lon": -77.18410366666667, "is_disabled": 0}, {"rental_uris": {"android": "https://dc.lft.to/lastmile_qr_scan", "ios": "https://dc.lft.to/lastmile_qr_scan"}, "lat": 38.93245683333333, "type": "electric_scooter", "name": "81a7b9037f9742aa06acdc9a2deca8d8", "fusion_lon": 0.0, "fusion_lat": 0.0, "is_reserved": 0, "bike_id": "81a7b9037f9742aa06acdc9a2deca8d8", "lon": -77.03269883333333, "is_disabled": 0}, {"rental_uris": {"android": "https://dc.lft.to/lastmile_qr_scan", "ios": "https://dc.lft.to/lastmile_qr_scan"}, "lat": 38.9025525, "type": "electric_scooter", "name": "fe09aa6febe04a0d8ed69f1185c6f851", "fusion_lon": 0.0, "fusion_lat": 0.0, "is_reserved": 0, "bike_id": "fe09aa6febe04a0d8ed69f1185c6f851", "lon": -77.038979, "is_disabled": 0}, {"rental_uris": {"android": "https://dc.lft.to/lastmile_qr_scan", "ios": "https://dc.lft.to/lastmile_qr_scan"}, "lat": 38.935526, "type": "electric_scooter", "name": "9cf2197f0fef65dfcb64975441f8c05d", "fusion_lon": 0.0, "fusion_lat": 0.0, "is_reserved": 0, "bike_id": "9cf2197f0fef65dfcb64975441f8c05d", "lon": -77.03484966666667, "is_disabled": 0}, {"rental_uris": {"android": "https://dc.lft.to/lastmile_qr_scan", "ios": "https://dc.lft.to/lastmile_qr_scan"}, "lat": 38.89835733333334, "type": "electric_scooter", "name": "4d2355161e3a75e4b420bb9b52e1fcf9", "fusion_lon": 0.0, "fusion_lat": 0.0, "is_reserved": 0, "bike_id": "4d2355161e3a75e4b420bb9b52e1fcf9", "lon": -77.0481525, "is_disabled": 0}, {"rental_uris": {"android": "https://dc.lft.to/lastmile_qr_scan", "ios": "https://dc.lft.to/lastmile_qr_scan"}, "lat": 39.084952, "type": "electric_bike", "name": "ba0626485e739baf36a06893bfbddfca", "fusion_lon": 0.0, "fusion_lat": 0.0, "is_reserved": 0, "bike_id": "ba0626485e739baf36a06893bfbddfca", "lon": -76.9504765, "is_disabled": 0}, {"rental_uris": {"android": "https://dc.lft.to/lastmile_qr_scan", "ios": "https://dc.lft.to/lastmile_qr_scan"}, "lat": 38.905597, "type": "electric_scooter", "name": "0563d6790574c61622237bd51b60f4c5", "fusion_lon": 0.0, "fusion_lat": 0.0, "is_reserved": 0, "bike_id": "0563d6790574c61622237bd51b60f4c5", "lon": -77.0094665, "is_disabled": 0}, {"rental_uris": {"android": "https://dc.lft.to/lastmile_qr_scan", "ios": "https://dc.lft.to/lastmile_qr_scan"}, "lat": 38.9198915, "type": "electric_scooter", "name": "1d8caf320d85703284a651c23366b998", "fusion_lon": 0.0, "fusion_lat": 0.0, "is_reserved": 0, "bike_id": "1d8caf320d85703284a651c23366b998", "lon": -77.032504, "is_disabled": 0}, {"rental_uris": {"android": "https://dc.lft.to/lastmile_qr_scan", "ios": "https://dc.lft.to/lastmile_qr_scan"}, "lat": 38.900513333333336, "type": "electric_scooter", "name": "d08dae686bca8c357d4f15d3b6ea8724", "fusion_lon": 0.0, "fusion_lat": 0.0, "is_reserved": 0, "bike_id": "d08dae686bca8c357d4f15d3b6ea8724", "lon": -77.00764016666666, "is_disabled": 0}, {"rental_uris": {"android": "https://dc.lft.to/lastmile_qr_scan", "ios": "https://dc.lft.to/lastmile_qr_scan"}, "lat": 38.940925666666665, "type": "electric_scooter", "name": "c7e6d921a72a5c8d37adb8ccbff06ed7", "fusion_lon": 0.0, "fusion_lat": 0.0, "is_reserved": 0, "bike_id": "c7e6d921a72a5c8d37adb8ccbff06ed7", "lon": -77.02979733333333, "is_disabled": 0}, {"rental_uris": {"android": "https://dc.lft.to/lastmile_qr_scan", "ios": "https://dc.lft.to/lastmile_qr_scan"}, "lat": 38.885133, "type": "electric_scooter", "name": "59ae2a3413f8251d4c761b235f77fd83", "fusion_lon": 0.0, "fusion_lat": 0.0, "is_reserved": 0, "bike_id": "59ae2a3413f8251d4c761b235f77fd83", "lon": -77.00559133333333, "is_disabled": 0}, {"rental_uris": {"android": "https://dc.lft.to/lastmile_qr_scan", "ios": "https://dc.lft.to/lastmile_qr_scan"}, "lat": 38.90382366666667, "type": "electric_scooter", "name": "8f3f0b4958745e940e4e63f8f513a360", "fusion_lon": 0.0, "fusion_lat": 0.0, "is_reserved": 0, "bike_id": "8f3f0b4958745e940e4e63f8f513a360", "lon": -77.03202483333334, "is_disabled": 0}, {"rental_uris": {"android": "https://dc.lft.to/lastmile_qr_scan", "ios": "https://dc.lft.to/lastmile_qr_scan"}, "lat": 38.89895466666667, "type": "electric_scooter", "name": "467313a28e22d516588437df3584dc78", "fusion_lon": 0.0, "fusion_lat": 0.0, "is_reserved": 0, "bike_id": "467313a28e22d516588437df3584dc78", "lon": -77.03320033333334, "is_disabled": 0}, {"rental_uris": {"android": "https://dc.lft.to/lastmile_qr_scan", "ios": "https://dc.lft.to/lastmile_qr_scan"}, "lat": 38.9026065, "type": "electric_scooter", "name": "994fafb998c4c10840acbe9f63591f28", "fusion_lon": 0.0, "fusion_lat": 0.0, "is_reserved": 0, "bike_id": "994fafb998c4c10840acbe9f63591f28", "lon": -77.03255583333333, "is_disabled": 0}, {"rental_uris": {"android": "https://dc.lft.to/lastmile_qr_scan", "ios": "https://dc.lft.to/lastmile_qr_scan"}, "lat": 38.924419, "type": "electric_scooter", "name": "769d11e43db60115c7cbc53e8d072b0e", "fusion_lon": 0.0, "fusion_lat": 0.0, "is_reserved": 0, "bike_id": "769d11e43db60115c7cbc53e8d072b0e", "lon": -77.02023016666666, "is_disabled": 0}, {"rental_uris": {"android": "https://dc.lft.to/lastmile_qr_scan", "ios": "https://dc.lft.to/lastmile_qr_scan"}, "lat": 38.897393, "type": "electric_scooter", "name": "e58c65b1cc3e03936e5f141e6ced8b40", "fusion_lon": 0.0, "fusion_lat": 0.0, "is_reserved": 0, "bike_id": "e58c65b1cc3e03936e5f141e6ced8b40", "lon": -77.0443515, "is_disabled": 0}, {"rental_uris": {"android": "https://dc.lft.to/lastmile_qr_scan", "ios": "https://dc.lft.to/lastmile_qr_scan"}, "lat": 38.8946215, "type": "electric_scooter", "name": "935e8ec5e7127c858863224883a925df", "fusion_lon": 0.0, "fusion_lat": 0.0, "is_reserved": 0, "bike_id": "935e8ec5e7127c858863224883a925df", "lon": -77.02101766666667, "is_disabled": 0}, {"rental_uris": {"android": "https://dc.lft.to/lastmile_qr_scan", "ios": "https://dc.lft.to/lastmile_qr_scan"}, "lat": 38.8992775, "type": "electric_scooter", "name": "ae956398861add9904dcf5efc322fb92", "fusion_lon": 0.0, "fusion_lat": 0.0, "is_reserved": 0, "bike_id": "ae956398861add9904dcf5efc322fb92", "lon": -77.03387366666666, "is_disabled": 0}, {"rental_uris": {"android": "https://dc.lft.to/lastmile_qr_scan", "ios": "https://dc.lft.to/lastmile_qr_scan"}, "lat": 38.89997866666667, "type": "electric_scooter", "name": "5a80c019819e88edf3be7f0543bbd796", "fusion_lon": 0.0, "fusion_lat": 0.0, "is_reserved": 0, "bike_id": "5a80c019819e88edf3be7f0543bbd796", "lon": -77.04126866666667, "is_disabled": 0}, {"rental_uris": {"android": "https://dc.lft.to/lastmile_qr_scan", "ios": "https://dc.lft.to/lastmile_qr_scan"}, "lat": 38.90038466666667, "type": "electric_scooter", "name": "3de90c4739d48f84f0eef93d49870e5b", "fusion_lon": 0.0, "fusion_lat": 0.0, "is_reserved": 0, "bike_id": "3de90c4739d48f84f0eef93d49870e5b", "lon": -76.98826116666666, "is_disabled": 0}, {"rental_uris": {"android": "https://dc.lft.to/lastmile_qr_scan", "ios": "https://dc.lft.to/lastmile_qr_scan"}, "lat": 38.937021333333334, "type": "electric_scooter", "name": "12e087bc816a82c042e3298321c24885", "fusion_lon": 0.0, "fusion_lat": 0.0, "is_reserved": 0, "bike_id": "12e087bc816a82c042e3298321c24885", "lon": -77.02399466666667, "is_disabled": 0}, {"rental_uris": {"android": "https://dc.lft.to/lastmile_qr_scan", "ios": "https://dc.lft.to/lastmile_qr_scan"}, "lat": 38.907878333333336, "type": "electric_scooter", "name": "59b2ba90bc4ca24443bd58fb39e80e5b", "fusion_lon": 0.0, "fusion_lat": 0.0, "is_reserved": 0, "bike_id": "59b2ba90bc4ca24443bd58fb39e80e5b", "lon": -77.064343, "is_disabled": 0}, {"rental_uris": {"android": "https://dc.lft.to/lastmile_qr_scan", "ios": "https://dc.lft.to/lastmile_qr_scan"}, "lat": 38.89224866666667, "type": "electric_scooter", "name": "fa96535ec793b07dff0246aa244445ef", "fusion_lon": 0.0, "fusion_lat": 0.0, "is_reserved": 0, "bike_id": "fa96535ec793b07dff0246aa244445ef", "lon": -77.0313275, "is_disabled": 0}, {"rental_uris": {"android": "https://dc.lft.to/lastmile_qr_scan", "ios": "https://dc.lft.to/lastmile_qr_scan"}, "lat": 38.9054605, "type": "electric_scooter", "name": "7991ff9b0d4077cfdf7f4da3c19089de", "fusion_lon": 0.0, "fusion_lat": 0.0, "is_reserved": 0, "bike_id": "7991ff9b0d4077cfdf7f4da3c19089de", "lon": -77.03977533333334, "is_disabled": 0}, {"rental_uris": {"android": "https://dc.lft.to/lastmile_qr_scan", "ios": "https://dc.lft.to/lastmile_qr_scan"}, "lat": 38.899406666666664, "type": "electric_scooter", "name": "3e6b5031df4729011155028050640e94", "fusion_lon": 0.0, "fusion_lat": 0.0, "is_reserved": 0, "bike_id": "3e6b5031df4729011155028050640e94", "lon": -77.04109866666667, "is_disabled": 0}, {"rental_uris": {"android": "https://dc.lft.to/lastmile_qr_scan", "ios": "https://dc.lft.to/lastmile_qr_scan"}, "lat": 38.90074366666666, "type": "electric_bike", "name": "cad426f24922009f2b8c00ce0dffc319", "fusion_lon": 0.0, "fusion_lat": 0.0, "is_reserved": 0, "bike_id": "cad426f24922009f2b8c00ce0dffc319", "lon": -77.04700116666666, "is_disabled": 0}, {"rental_uris": {"android": "https://dc.lft.to/lastmile_qr_scan", "ios": "https://dc.lft.to/lastmile_qr_scan"}, "lat": 38.94730666666667, "type": "electric_scooter", "name": "811e912f10647cb7691da4666bd74c22", "fusion_lon": 0.0, "fusion_lat": 0.0, "is_reserved": 0, "bike_id": "811e912f10647cb7691da4666bd74c22", "lon": -77.06546533333334, "is_disabled": 0}, {"rental_uris": {"android": "https://dc.lft.to/lastmile_qr_scan", "ios": "https://dc.lft.to/lastmile_qr_scan"}, "lat": 38.92448533333334, "type": "electric_scooter", "name": "e61de42a2bfebea0117efb94b79960b7", "fusion_lon": 0.0, "fusion_lat": 0.0, "is_reserved": 0, "bike_id": "e61de42a2bfebea0117efb94b79960b7", "lon": -77.022418, "is_disabled": 0}, {"rental_uris": {"android": "https://dc.lft.to/lastmile_qr_scan", "ios": "https://dc.lft.to/lastmile_qr_scan"}, "lat": 38.923306, "type": "electric_scooter", "name": "e2c3869f6b3b1a04de51b2b57f68fcdb", "fusion_lon": 0.0, "fusion_lat": 0.0, "is_reserved": 0, "bike_id": "e2c3869f6b3b1a04de51b2b57f68fcdb", "lon": -77.0207155, "is_disabled": 0}, {"rental_uris": {"android": "https://dc.lft.to/lastmile_qr_scan", "ios": "https://dc.lft.to/lastmile_qr_scan"}, "lat": 38.89697816666666, "type": "electric_scooter", "name": "85326c098dd665de7422cd2cf70a8c41", "fusion_lon": 0.0, "fusion_lat": 0.0, "is_reserved": 0, "bike_id": "85326c098dd665de7422cd2cf70a8c41", "lon": -77.032226, "is_disabled": 0}, {"rental_uris": {"android": "https://dc.lft.to/lastmile_qr_scan", "ios": "https://dc.lft.to/lastmile_qr_scan"}, "lat": 38.88382466666667, "type": "electric_scooter", "name": "2755ec47ac4a698348a5bb97bf6c2e01", "fusion_lon": 0.0, "fusion_lat": 0.0, "is_reserved": 0, "bike_id": "2755ec47ac4a698348a5bb97bf6c2e01", "lon": -76.9951925, "is_disabled": 0}, {"rental_uris": {"android": "https://dc.lft.to/lastmile_qr_scan", "ios": "https://dc.lft.to/lastmile_qr_scan"}, "lat": 38.922561333333334, "type": "electric_scooter", "name": "4e79c0a85f3c88a04064ce24962b7c8c", "fusion_lon": 0.0, "fusion_lat": 0.0, "is_reserved": 0, "bike_id": "4e79c0a85f3c88a04064ce24962b7c8c", "lon": -77.0308285, "is_disabled": 0}, {"rental_uris": {"android": "https://dc.lft.to/lastmile_qr_scan", "ios": "https://dc.lft.to/lastmile_qr_scan"}, "lat": 38.90370716666666, "type": "electric_scooter", "name": "d8ef8ceed7f75524334f70d60521f5a0", "fusion_lon": 0.0, "fusion_lat": 0.0, "is_reserved": 0, "bike_id": "d8ef8ceed7f75524334f70d60521f5a0", "lon": -77.03196683333333, "is_disabled": 0}, {"rental_uris": {"android": "https://dc.lft.to/lastmile_qr_scan", "ios": "https://dc.lft.to/lastmile_qr_scan"}, "lat": 38.900096166666664, "type": "electric_scooter", "name": "fe27e64c7eb0d156bff809e9086d3c28", "fusion_lon": 0.0, "fusion_lat": 0.0, "is_reserved": 0, "bike_id": "fe27e64c7eb0d156bff809e9086d3c28", "lon": -77.01258066666666, "is_disabled": 0}, {"rental_uris": {"android": "https://dc.lft.to/lastmile_qr_scan", "ios": "https://dc.lft.to/lastmile_qr_scan"}, "lat": 38.930038333333336, "type": "electric_scooter", "name": "bdb4d76f22ea7e2e82c4280d15244ba0", "fusion_lon": 0.0, "fusion_lat": 0.0, "is_reserved": 0, "bike_id": "bdb4d76f22ea7e2e82c4280d15244ba0", "lon": -77.02112333333334, "is_disabled": 0}, {"rental_uris": {"android": "https://dc.lft.to/lastmile_qr_scan", "ios": "https://dc.lft.to/lastmile_qr_scan"}, "lat": 38.928716666666666, "type": "electric_scooter", "name": "f27bbea8fddc35e9d464e86e9d7d051a", "fusion_lon": 0.0, "fusion_lat": 0.0, "is_reserved": 0, "bike_id": "f27bbea8fddc35e9d464e86e9d7d051a", "lon": -77.01408166666667, "is_disabled": 0}, {"rental_uris": {"android": "https://dc.lft.to/lastmile_qr_scan", "ios": "https://dc.lft.to/lastmile_qr_scan"}, "lat": 38.889925166666664, "type": "electric_scooter", "name": "8ca45c95ac02072cb6dec03d7c9a0e97", "fusion_lon": 0.0, "fusion_lat": 0.0, "is_reserved": 0, "bike_id": "8ca45c95ac02072cb6dec03d7c9a0e97", "lon": -77.00339633333333, "is_disabled": 0}, {"rental_uris": {"android": "https://dc.lft.to/lastmile_qr_scan", "ios": "https://dc.lft.to/lastmile_qr_scan"}, "lat": 38.88703916666667, "type": "electric_scooter", "name": "880c846df02ccace356449bf706fff4c", "fusion_lon": 0.0, "fusion_lat": 0.0, "is_reserved": 0, "bike_id": "880c846df02ccace356449bf706fff4c", "lon": -77.01363183333333, "is_disabled": 0}, {"rental_uris": {"android": "https://dc.lft.to/lastmile_qr_scan", "ios": "https://dc.lft.to/lastmile_qr_scan"}, "lat": 38.917061833333335, "type": "electric_scooter", "name": "29bcfc63f278d4019d4936324287d558", "fusion_lon": 0.0, "fusion_lat": 0.0, "is_reserved": 0, "bike_id": "29bcfc63f278d4019d4936324287d558", "lon": -77.0340985, "is_disabled": 0}, {"rental_uris": {"android": "https://dc.lft.to/lastmile_qr_scan", "ios": "https://dc.lft.to/lastmile_qr_scan"}, "lat": 38.8971925, "type": "electric_scooter", "name": "83d51a854843e19dccf7d51b726a7156", "fusion_lon": 0.0, "fusion_lat": 0.0, "is_reserved": 0, "bike_id": "83d51a854843e19dccf7d51b726a7156", "lon": -77.02722983333334, "is_disabled": 0}, {"rental_uris": {"android": "https://dc.lft.to/lastmile_qr_scan", "ios": "https://dc.lft.to/lastmile_qr_scan"}, "lat": 38.90263783333333, "type": "electric_scooter", "name": "a547f610b43944df388e14061ac2d1f4", "fusion_lon": 0.0, "fusion_lat": 0.0, "is_reserved": 0, "bike_id": "a547f610b43944df388e14061ac2d1f4", "lon": -77.03478533333333, "is_disabled": 0}, {"rental_uris": {"android": "https://dc.lft.to/lastmile_qr_scan", "ios": "https://dc.lft.to/lastmile_qr_scan"}, "lat": 38.899125, "type": "electric_scooter", "name": "b690848bb5b52a909f3cf9400851468f", "fusion_lon": 0.0, "fusion_lat": 0.0, "is_reserved": 0, "bike_id": "b690848bb5b52a909f3cf9400851468f", "lon": -77.01379933333334, "is_disabled": 0}, {"rental_uris": {"android": "https://dc.lft.to/lastmile_qr_scan", "ios": "https://dc.lft.to/lastmile_qr_scan"}, "lat": 38.8951825, "type": "electric_scooter", "name": "dea4691d5ef4957fb5000d710a3241f6", "fusion_lon": 0.0, "fusion_lat": 0.0, "is_reserved": 0, "bike_id": "dea4691d5ef4957fb5000d710a3241f6", "lon": -77.04485683333333, "is_disabled": 0}, {"rental_uris": {"android": "https://dc.lft.to/lastmile_qr_scan", "ios": "https://dc.lft.to/lastmile_qr_scan"}, "lat": 38.905655, "type": "electric_scooter", "name": "48874bb7513270f4f46b9850aa015fe8", "fusion_lon": 0.0, "fusion_lat": 0.0, "is_reserved": 0, "bike_id": "48874bb7513270f4f46b9850aa015fe8", "lon": -77.05718333333333, "is_disabled": 0}, {"rental_uris": {"android": "https://dc.lft.to/lastmile_qr_scan", "ios": "https://dc.lft.to/lastmile_qr_scan"}, "lat": 38.908056, "type": "electric_scooter", "name": "640cd3d967d226131a7a299d67eb3b01", "fusion_lon": 0.0, "fusion_lat": 0.0, "is_reserved": 0, "bike_id": "640cd3d967d226131a7a299d67eb3b01", "lon": -77.03396816666667, "is_disabled": 0}, {"rental_uris": {"android": "https://dc.lft.to/lastmile_qr_scan", "ios": "https://dc.lft.to/lastmile_qr_scan"}, "lat": 38.84675816666667, "type": "electric_bike", "name": "fd46159564158189555dd08e8234ac91", "fusion_lon": 0.0, "fusion_lat": 0.0, "is_reserved": 0, "bike_id": "fd46159564158189555dd08e8234ac91", "lon": -77.13934833333333, "is_disabled": 0}, {"rental_uris": {"android": "https://dc.lft.to/lastmile_qr_scan", "ios": "https://dc.lft.to/lastmile_qr_scan"}, "lat": 38.899471, "type": "electric_scooter", "name": "291a00bd7f34fdf9cb5c2c203d351e45", "fusion_lon": 0.0, "fusion_lat": 0.0, "is_reserved": 0, "bike_id": "291a00bd7f34fdf9cb5c2c203d351e45", "lon": -77.04748933333333, "is_disabled": 0}, {"rental_uris": {"android": "https://dc.lft.to/lastmile_qr_scan", "ios": "https://dc.lft.to/lastmile_qr_scan"}, "lat": 38.8896955, "type": "electric_scooter", "name": "df477b53fe421b6ca3832eed0f713a0c", "fusion_lon": 0.0, "fusion_lat": 0.0, "is_reserved": 0, "bike_id": "df477b53fe421b6ca3832eed0f713a0c", "lon": -76.9803845, "is_disabled": 0}, {"rental_uris": {"android": "https://dc.lft.to/lastmile_qr_scan", "ios": "https://dc.lft.to/lastmile_qr_scan"}, "lat": 38.9156015, "type": "electric_scooter", "name": "a5d47382ba6cbfe407daa57e6ee08911", "fusion_lon": 0.0, "fusion_lat": 0.0, "is_reserved": 0, "bike_id": "a5d47382ba6cbfe407daa57e6ee08911", "lon": -77.05106616666667, "is_disabled": 0}, {"rental_uris": {"android": "https://dc.lft.to/lastmile_qr_scan", "ios": "https://dc.lft.to/lastmile_qr_scan"}, "lat": 38.89807916666667, "type": "electric_scooter", "name": "0678bfb87b99781b5820b12024cac07e", "fusion_lon": 0.0, "fusion_lat": 0.0, "is_reserved": 0, "bike_id": "0678bfb87b99781b5820b12024cac07e", "lon": -77.012055, "is_disabled": 0}, {"rental_uris": {"android": "https://dc.lft.to/lastmile_qr_scan", "ios": "https://dc.lft.to/lastmile_qr_scan"}, "lat": 38.913206, "type": "electric_scooter", "name": "7b67e34befbccf42bb48c82c2a3c086c", "fusion_lon": 0.0, "fusion_lat": 0.0, "is_reserved": 0, "bike_id": "7b67e34befbccf42bb48c82c2a3c086c", "lon": -77.04544366666667, "is_disabled": 0}, {"rental_uris": {"android": "https://dc.lft.to/lastmile_qr_scan", "ios": "https://dc.lft.to/lastmile_qr_scan"}, "lat": 38.924847666666665, "type": "electric_scooter", "name": "0ea0f8c6980e182d865fd07108368464", "fusion_lon": 0.0, "fusion_lat": 0.0, "is_reserved": 0, "bike_id": "0ea0f8c6980e182d865fd07108368464", "lon": -77.02269466666667, "is_disabled": 0}, {"rental_uris": {"android": "https://dc.lft.to/lastmile_qr_scan", "ios": "https://dc.lft.to/lastmile_qr_scan"}, "lat": 38.89727666666667, "type": "electric_scooter", "name": "61dade82330d51db8269a11db1265d79", "fusion_lon": 0.0, "fusion_lat": 0.0, "is_reserved": 0, "bike_id": "61dade82330d51db8269a11db1265d79", "lon": -77.029983, "is_disabled": 0}, {"rental_uris": {"android": "https://dc.lft.to/lastmile_qr_scan", "ios": "https://dc.lft.to/lastmile_qr_scan"}, "lat": 38.904172, "type": "electric_scooter", "name": "04cbf6b0bcee2e38d4b367244e732189", "fusion_lon": 0.0, "fusion_lat": 0.0, "is_reserved": 0, "bike_id": "04cbf6b0bcee2e38d4b367244e732189", "lon": -77.04352733333333, "is_disabled": 0}, {"rental_uris": {"android": "https://dc.lft.to/lastmile_qr_scan", "ios": "https://dc.lft.to/lastmile_qr_scan"}, "lat": 38.905841333333335, "type": "electric_scooter", "name": "84acc433f20799cf5296a36705525025", "fusion_lon": 0.0, "fusion_lat": 0.0, "is_reserved": 0, "bike_id": "84acc433f20799cf5296a36705525025", "lon": -77.06964533333333, "is_disabled": 0}, {"rental_uris": {"android": "https://dc.lft.to/lastmile_qr_scan", "ios": "https://dc.lft.to/lastmile_qr_scan"}, "lat": 38.91779966666667, "type": "electric_scooter", "name": "81603caa2ea3c44339e2f186e7ea884b", "fusion_lon": 0.0, "fusion_lat": 0.0, "is_reserved": 0, "bike_id": "81603caa2ea3c44339e2f186e7ea884b", "lon": -77.03207016666667, "is_disabled": 0}, {"rental_uris": {"android": "https://dc.lft.to/lastmile_qr_scan", "ios": "https://dc.lft.to/lastmile_qr_scan"}, "lat": 38.879025666666664, "type": "electric_scooter", "name": "8ff1f2c071f2d4304fe0ce4be7372dc1", "fusion_lon": 0.0, "fusion_lat": 0.0, "is_reserved": 0, "bike_id": "8ff1f2c071f2d4304fe0ce4be7372dc1", "lon": -77.013678, "is_disabled": 0}, {"rental_uris": {"android": "https://dc.lft.to/lastmile_qr_scan", "ios": "https://dc.lft.to/lastmile_qr_scan"}, "lat": 38.928711, "type": "electric_scooter", "name": "3c52a9b59f808dc527eb88a3f450ad54", "fusion_lon": 0.0, "fusion_lat": 0.0, "is_reserved": 0, "bike_id": "3c52a9b59f808dc527eb88a3f450ad54", "lon": -77.033069, "is_disabled": 0}, {"rental_uris": {"android": "https://dc.lft.to/lastmile_qr_scan", "ios": "https://dc.lft.to/lastmile_qr_scan"}, "lat": 38.90172166666667, "type": "electric_scooter", "name": "610947536a2db575171fec7e5d7a53e8", "fusion_lon": 0.0, "fusion_lat": 0.0, "is_reserved": 0, "bike_id": "610947536a2db575171fec7e5d7a53e8", "lon": -77.0220615, "is_disabled": 0}, {"rental_uris": {"android": "https://dc.lft.to/lastmile_qr_scan", "ios": "https://dc.lft.to/lastmile_qr_scan"}, "lat": 38.90706633333333, "type": "electric_scooter", "name": "52eeeeee41d5d6e7ba59fffa11d3d2d5", "fusion_lon": 0.0, "fusion_lat": 0.0, "is_reserved": 0, "bike_id": "52eeeeee41d5d6e7ba59fffa11d3d2d5", "lon": -76.9869955, "is_disabled": 0}, {"rental_uris": {"android": "https://dc.lft.to/lastmile_qr_scan", "ios": "https://dc.lft.to/lastmile_qr_scan"}, "lat": 38.933985666666665, "type": "electric_scooter", "name": "3a4505b93ad0c43681025d8401642042", "fusion_lon": 0.0, "fusion_lat": 0.0, "is_reserved": 0, "bike_id": "3a4505b93ad0c43681025d8401642042", "lon": -77.04139616666667, "is_disabled": 0}, {"rental_uris": {"android": "https://dc.lft.to/lastmile_qr_scan", "ios": "https://dc.lft.to/lastmile_qr_scan"}, "lat": 38.896927, "type": "electric_scooter", "name": "cb911cdfe5eba9356badfb07935a0a4f", "fusion_lon": 0.0, "fusion_lat": 0.0, "is_reserved": 0, "bike_id": "cb911cdfe5eba9356badfb07935a0a4f", "lon": -77.03224566666667, "is_disabled": 0}, {"rental_uris": {"android": "https://dc.lft.to/lastmile_qr_scan", "ios": "https://dc.lft.to/lastmile_qr_scan"}, "lat": 38.89882133333333, "type": "electric_scooter", "name": "27d45f36955195c05e127743be215fc5", "fusion_lon": 0.0, "fusion_lat": 0.0, "is_reserved": 0, "bike_id": "27d45f36955195c05e127743be215fc5", "lon": -77.04878266666667, "is_disabled": 0}, {"rental_uris": {"android": "https://dc.lft.to/lastmile_qr_scan", "ios": "https://dc.lft.to/lastmile_qr_scan"}, "lat": 38.938817, "type": "electric_scooter", "name": "e51293520f181da3ed0aa7b367496f10", "fusion_lon": 0.0, "fusion_lat": 0.0, "is_reserved": 0, "bike_id": "e51293520f181da3ed0aa7b367496f10", "lon": -77.02481583333334, "is_disabled": 0}, {"rental_uris": {"android": "https://dc.lft.to/lastmile_qr_scan", "ios": "https://dc.lft.to/lastmile_qr_scan"}, "lat": 38.921311, "type": "electric_scooter", "name": "dcfd3fbf69412bcab8bc281cdbaf8ea8", "fusion_lon": 0.0, "fusion_lat": 0.0, "is_reserved": 0, "bike_id": "dcfd3fbf69412bcab8bc281cdbaf8ea8", "lon": -77.0179545, "is_disabled": 0}, {"rental_uris": {"android": "https://dc.lft.to/lastmile_qr_scan", "ios": "https://dc.lft.to/lastmile_qr_scan"}, "lat": 38.903914, "type": "electric_scooter", "name": "af368ea24d0f1891684f7ee9ef9d7c0b", "fusion_lon": 0.0, "fusion_lat": 0.0, "is_reserved": 0, "bike_id": "af368ea24d0f1891684f7ee9ef9d7c0b", "lon": -77.04758766666667, "is_disabled": 0}, {"rental_uris": {"android": "https://dc.lft.to/lastmile_qr_scan", "ios": "https://dc.lft.to/lastmile_qr_scan"}, "lat": 38.8976, "type": "electric_scooter", "name": "fd6773ce3fae16c38f9ce57fbddee7f5", "fusion_lon": 0.0, "fusion_lat": 0.0, "is_reserved": 0, "bike_id": "fd6773ce3fae16c38f9ce57fbddee7f5", "lon": -77.009529, "is_disabled": 0}, {"rental_uris": {"android": "https://dc.lft.to/lastmile_qr_scan", "ios": "https://dc.lft.to/lastmile_qr_scan"}, "lat": 38.918284666666665, "type": "electric_scooter", "name": "e9b67ed589550d0e9ffb8b8abe082895", "fusion_lon": 0.0, "fusion_lat": 0.0, "is_reserved": 0, "bike_id": "e9b67ed589550d0e9ffb8b8abe082895", "lon": -77.053185, "is_disabled": 0}, {"rental_uris": {"android": "https://dc.lft.to/lastmile_qr_scan", "ios": "https://dc.lft.to/lastmile_qr_scan"}, "lat": 38.915409333333336, "type": "electric_scooter", "name": "3b945e2874e4355eaa18b99f29426cc2", "fusion_lon": 0.0, "fusion_lat": 0.0, "is_reserved": 0, "bike_id": "3b945e2874e4355eaa18b99f29426cc2", "lon": -77.03182816666667, "is_disabled": 0}, {"rental_uris": {"android": "https://dc.lft.to/lastmile_qr_scan", "ios": "https://dc.lft.to/lastmile_qr_scan"}, "lat": 38.87779866666666, "type": "electric_scooter", "name": "dafda986232104c23b76b53a7b831645", "fusion_lon": 0.0, "fusion_lat": 0.0, "is_reserved": 0, "bike_id": "dafda986232104c23b76b53a7b831645", "lon": -77.0021055, "is_disabled": 0}, {"rental_uris": {"android": "https://dc.lft.to/lastmile_qr_scan", "ios": "https://dc.lft.to/lastmile_qr_scan"}, "lat": 38.87929583333333, "type": "electric_scooter", "name": "cf6b98e4f145b8eb7652b97f95b4a7c1", "fusion_lon": 0.0, "fusion_lat": 0.0, "is_reserved": 0, "bike_id": "cf6b98e4f145b8eb7652b97f95b4a7c1", "lon": -77.0237575, "is_disabled": 0}, {"rental_uris": {"android": "https://dc.lft.to/lastmile_qr_scan", "ios": "https://dc.lft.to/lastmile_qr_scan"}, "lat": 38.838661333333334, "type": "electric_bike", "name": "e93cd517030c667dcd550fdad67964bc", "fusion_lon": 0.0, "fusion_lat": 0.0, "is_reserved": 0, "bike_id": "e93cd517030c667dcd550fdad67964bc", "lon": -76.99486133333333, "is_disabled": 0}, {"rental_uris": {"android": "https://dc.lft.to/lastmile_qr_scan", "ios": "https://dc.lft.to/lastmile_qr_scan"}, "lat": 38.8997885, "type": "electric_scooter", "name": "6d43073dc9e2bc3416a2a92a56be339b", "fusion_lon": 0.0, "fusion_lat": 0.0, "is_reserved": 0, "bike_id": "6d43073dc9e2bc3416a2a92a56be339b", "lon": -77.03169366666667, "is_disabled": 0}, {"rental_uris": {"android": "https://dc.lft.to/lastmile_qr_scan", "ios": "https://dc.lft.to/lastmile_qr_scan"}, "lat": 38.872951666666665, "type": "electric_scooter", "name": "987735b07d92dcb97fcba53a164fca18", "fusion_lon": 0.0, "fusion_lat": 0.0, "is_reserved": 0, "bike_id": "987735b07d92dcb97fcba53a164fca18", "lon": -77.00988983333333, "is_disabled": 0}, {"rental_uris": {"android": "https://dc.lft.to/lastmile_qr_scan", "ios": "https://dc.lft.to/lastmile_qr_scan"}, "lat": 38.931764333333334, "type": "electric_scooter", "name": "16a3b93ffbe088b6d04f7c8ede5b1aee", "fusion_lon": 0.0, "fusion_lat": 0.0, "is_reserved": 0, "bike_id": "16a3b93ffbe088b6d04f7c8ede5b1aee", "lon": -77.03668633333334, "is_disabled": 0}, {"rental_uris": {"android": "https://dc.lft.to/lastmile_qr_scan", "ios": "https://dc.lft.to/lastmile_qr_scan"}, "lat": 38.896642666666665, "type": "electric_scooter", "name": "9e5adb99ea5af85de3588825b247117e", "fusion_lon": 0.0, "fusion_lat": 0.0, "is_reserved": 0, "bike_id": "9e5adb99ea5af85de3588825b247117e", "lon": -77.024143, "is_disabled": 0}, {"rental_uris": {"android": "https://dc.lft.to/lastmile_qr_scan", "ios": "https://dc.lft.to/lastmile_qr_scan"}, "lat": 38.8752715, "type": "electric_scooter", "name": "76780edb4cb7141efc83f81197762014", "fusion_lon": 0.0, "fusion_lat": 0.0, "is_reserved": 0, "bike_id": "76780edb4cb7141efc83f81197762014", "lon": -77.01230016666666, "is_disabled": 0}, {"rental_uris": {"android": "https://dc.lft.to/lastmile_qr_scan", "ios": "https://dc.lft.to/lastmile_qr_scan"},