{"data": {"bikes": [{"fusion_lat": 0.0, "name": "264fc47452ea25029ede71c07a28b4d2", "is_disabled": 0, "rental_uris": {"android": "https://dc.lft.to/lastmile_qr_scan", "ios": "https://dc.lft.to/lastmile_qr_scan"}, "fusion_lon": 0.0, "lat": 38.90692466666667, "bike_id": "264fc47452ea25029ede71c07a28b4d2", "type": "electric_scooter", "is_reserved": 0, "lon": -77.035959}, {"fusion_lat": 0.0, "name": "17bfd1888c87b8d7ba23224f2b2c2ef1", "is_disabled": 0, "rental_uris": {"android": "https://dc.lft.to/lastmile_qr_scan", "ios": "https://dc.lft.to/lastmile_qr_scan"}, "fusion_lon": 0.0, "lat": 38.8922165, "bike_id": "17bfd1888c87b8d7ba23224f2b2c2ef1", "type": "electric_scooter", "is_reserved": 0, "lon": -77.04644466666667}, {"fusion_lat": 0.0, "name": "e00455edd492f86fe7a4786880538069", "is_disabled": 0, "rental_uris": {"android": "https://dc.lft.to/lastmile_qr_scan", "ios": "https://dc.lft.to/lastmile_qr_scan"}, "fusion_lon": 0.0, "lat": 38.9126635, "bike_id": "e00455edd492f86fe7a4786880538069", "type": "electric_scooter", "is_reserved": 0, "lon": -77.017686}, {"fusion_lat": 0.0, "name": "2444baf53da4d74748d3a127d4f62bd9", "is_disabled": 0, "rental_uris": {"android": "https://dc.lft.to/lastmile_qr_scan", "ios": "https://dc.lft.to/lastmile_qr_scan"}, "fusion_lon": 0.0, "lat": 38.89888633333333, "bike_id": "2444baf53da4d74748d3a127d4f62bd9", "type": "electric_scooter", "is_reserved": 0, "lon": -76.99358966666667}, {"fusion_lat": 0.0, "name": "a2cebb732b69ee7a636b4f73550b7ba2", "is_disabled": 0, "rental_uris": {"android": "https://dc.lft.to/lastmile_qr_scan", "ios": "https://dc.lft.to/lastmile_qr_scan"}, "fusion_lon": 0.0, "lat": 38.88497066666667, "bike_id": "a2cebb732b69ee7a636b4f73550b7ba2", "type": "electric_scooter", "is_reserved": 0, "lon": -77.014833}, {"fusion_lat": 0.0, "name": "b011bdd0f880ef45f984d8bc34c99ecc", "is_disabled": 0, "rental_uris": {"android": "https://dc.lft.to/lastmile_qr_scan", "ios": "https://dc.lft.to/lastmile_qr_scan"}, "fusion_lon": 0.0, "lat": 38.91693433333333, "bike_id": "b011bdd0f880ef45f984d8bc34c99ecc", "type": "electric_scooter", "is_reserved": 0, "lon": -77.03122066666667}, {"fusion_lat": 0.0, "name": "651ae70c783fc090a4d0e8c6d7cf0b07", "is_disabled": 0, "rental_uris": {"android": "https://dc.lft.to/lastmile_qr_scan", "ios": "https://dc.lft.to/lastmile_qr_scan"}, "fusion_lon": 0.0, "lat": 38.9088145, "bike_id": "651ae70c783fc090a4d0e8c6d7cf0b07", "type": "electric_scooter", "is_reserved": 0, "lon": -76.99817383333334}, {"fusion_lat": 0.0, "name": "f41f34e36e1810e039bbd7244a788111", "is_disabled": 0, "rental_uris": {"android": "https://dc.lft.to/lastmile_qr_scan", "ios": "https://dc.lft.to/lastmile_qr_scan"}, "fusion_lon": 0.0, "lat": 38.9115315, "bike_id": "f41f34e36e1810e039bbd7244a788111", "type": "electric_scooter", "is_reserved": 0, "lon": -77.08751933333333}, {"fusion_lat": 0.0, "name": "5eb7f84d98da82644452d65f85d34f28", "is_disabled": 0, "rental_uris": {"android": "https://dc.lft.to/lastmile_qr_scan", "ios": "https://dc.lft.to/lastmile_qr_scan"}, "fusion_lon": 0.0, "lat": 38.915404833333334, "bike_id": "5eb7f84d98da82644452d65f85d34f28", "type": "electric_scooter", "is_reserved": 0, "lon": -77.03206916666667}, {"fusion_lat": 0.0, "name": "384916fadcbeaa8140d170ac9fae6d87", "is_disabled": 0, "rental_uris": {"android": "https://dc.lft.to/lastmile_qr_scan", "ios": "https://dc.lft.to/lastmile_qr_scan"}, "fusion_lon": 0.0, "lat": 38.89545283333333, "bike_id": "384916fadcbeaa8140d170ac9fae6d87", "type": "electric_scooter", "is_reserved": 0, "lon": -76.98339133333333}, {"fusion_lat": 0.0, "name": "5fe8c17c4be1949faddca5aab834be97", "is_disabled": 0, "rental_uris": {"android": "https://dc.lft.to/lastmile_qr_scan", "ios": "https://dc.lft.to/lastmile_qr_scan"}, "fusion_lon": 0.0, "lat": 38.898226, "bike_id": "5fe8c17c4be1949faddca5aab834be97", "type": "electric_scooter", "is_reserved": 0, "lon": -77.046112}, {"fusion_lat": 0.0, "name": "ce56053d3a9d301d86ffc6f3d0c9d2aa", "is_disabled": 0, "rental_uris": {"android": "https://dc.lft.to/lastmile_qr_scan", "ios": "https://dc.lft.to/lastmile_qr_scan"}, "fusion_lon": 0.0, "lat": 38.88824016666667, "bike_id": "ce56053d3a9d301d86ffc6f3d0c9d2aa", "type": "electric_scooter", "is_reserved": 0, "lon": -76.97723133333334}, {"fusion_lat": 0.0, "name": "a88ebc1b46364320981803b55fa5dd7a", "is_disabled": 0, "rental_uris": {"android": "https://dc.lft.to/lastmile_qr_scan", "ios": "https://dc.lft.to/lastmile_qr_scan"}, "fusion_lon": 0.0, "lat": 38.942628166666665, "bike_id": "a88ebc1b46364320981803b55fa5dd7a", "type": "electric_bike", "is_reserved": 0, "lon": -77.02847583333333}, {"fusion_lat": 0.0, "name": "fe858688f5b87209ef25e66a6460f01f", "is_disabled": 0, "rental_uris": {"android": "https://dc.lft.to/lastmile_qr_scan", "ios": "https://dc.lft.to/lastmile_qr_scan"}, "fusion_lon": 0.0, "lat": 38.900811166666664, "bike_id": "fe858688f5b87209ef25e66a6460f01f", "type": "electric_scooter", "is_reserved": 0, "lon": -77.01363016666667}, {"fusion_lat": 0.0, "name": "8058c38e5d636404e35928c81bdfa183", "is_disabled": 0, "rental_uris": {"android": "https://dc.lft.to/lastmile_qr_scan", "ios": "https://dc.lft.to/lastmile_qr_scan"}, "fusion_lon": 0.0, "lat": 38.925210166666666, "bike_id": "8058c38e5d636404e35928c81bdfa183", "type": "electric_scooter", "is_reserved": 0, "lon": -77.07709333333334}, {"fusion_lat": 0.0, "name": "8d73a4e9f4d9fa6eb1cbf6eea9745896", "is_disabled": 0, "rental_uris": {"android": "https://dc.lft.to/lastmile_qr_scan", "ios": "https://dc.lft.to/lastmile_qr_scan"}, "fusion_lon": 0.0, "lat": 38.91255966666667, "bike_id": "8d73a4e9f4d9fa6eb1cbf6eea9745896", "type": "electric_scooter", "is_reserved": 0, "lon": -77.03157983333334}, {"fusion_lat": 0.0, "name": "7951e423bc703250564c7ce148858352", "is_disabled": 0, "rental_uris": {"android": "https://dc.lft.to/lastmile_qr_scan", "ios": "https://dc.lft.to/lastmile_qr_scan"}, "fusion_lon": 0.0, "lat": 38.888236666666664, "bike_id": "7951e423bc703250564c7ce148858352", "type": "electric_scooter", "is_reserved": 0, "lon": -76.9771975}, {"fusion_lat": 0.0, "name": "0be28469f216b3605d30149b66f6f623", "is_disabled": 0, "rental_uris": {"android": "https://dc.lft.to/lastmile_qr_scan", "ios": "https://dc.lft.to/lastmile_qr_scan"}, "fusion_lon": 0.0, "lat": 38.899004166666664, "bike_id": "0be28469f216b3605d30149b66f6f623", "type": "electric_scooter", "is_reserved": 0, "lon": -76.9849685}, {"fusion_lat": 0.0, "name": "62e41665e49035df111967699879428d", "is_disabled": 0, "rental_uris": {"android": "https://dc.lft.to/lastmile_qr_scan", "ios": "https://dc.lft.to/lastmile_qr_scan"}, "fusion_lon": 0.0, "lat": 38.941858333333336, "bike_id": "62e41665e49035df111967699879428d", "type": "electric_scooter", "is_reserved": 0, "lon": -77.02492266666667}, {"fusion_lat": 0.0, "name": "ddf8ee4dd279d066f3ac524b9f4c64ba", "is_disabled": 0, "rental_uris": {"android": "https://dc.lft.to/lastmile_qr_scan", "ios": "https://dc.lft.to/lastmile_qr_scan"}, "fusion_lon": 0.0, "lat": 38.92327483333333, "bike_id": "ddf8ee4dd279d066f3ac524b9f4c64ba", "type": "electric_scooter", "is_reserved": 0, "lon": -77.0363835}, {"fusion_lat": 0.0, "name": "89e4cb77d81157c44517f7f5a061216f", "is_disabled": 0, "rental_uris": {"android": "https://dc.lft.to/lastmile_qr_scan", "ios": "https://dc.lft.to/lastmile_qr_scan"}, "fusion_lon": 0.0, "lat": 38.905746666666666, "bike_id": "89e4cb77d81157c44517f7f5a061216f", "type": "electric_scooter", "is_reserved": 0, "lon": -77.0221035}, {"fusion_lat": 0.0, "name": "a5c5099904e836a8954a514c9cc4e6cf", "is_disabled": 0, "rental_uris": {"android": "https://dc.lft.to/lastmile_qr_scan", "ios": "https://dc.lft.to/lastmile_qr_scan"}, "fusion_lon": 0.0, "lat": 38.915563666666664, "bike_id": "a5c5099904e836a8954a514c9cc4e6cf", "type": "electric_scooter", "is_reserved": 0, "lon": -77.0220995}, {"fusion_lat": 0.0, "name": "88657e1fcc039d5e42e22faafa7f19c3", "is_disabled": 0, "rental_uris": {"android": "https://dc.lft.to/lastmile_qr_scan", "ios": "https://dc.lft.to/lastmile_qr_scan"}, "fusion_lon": 0.0, "lat": 38.9110305, "bike_id": "88657e1fcc039d5e42e22faafa7f19c3", "type": "electric_scooter", "is_reserved": 0, "lon": -77.00214533333333}, {"fusion_lat": 0.0, "name": "e66104198390b376fc545fc8c108635b", "is_disabled": 0, "rental_uris": {"android": "https://dc.lft.to/lastmile_qr_scan", "ios": "https://dc.lft.to/lastmile_qr_scan"}, "fusion_lon": 0.0, "lat": 39.0048215, "bike_id": "e66104198390b376fc545fc8c108635b", "type": "electric_bike", "is_reserved": 0, "lon": -77.021863}, {"fusion_lat": 0.0, "name": "7f1854bd084b1c97e133f4b7f6783749", "is_disabled": 0, "rental_uris": {"android": "https://dc.lft.to/lastmile_qr_scan", "ios": "https://dc.lft.to/lastmile_qr_scan"}, "fusion_lon": 0.0, "lat": 38.91688933333333, "bike_id": "7f1854bd084b1c97e133f4b7f6783749", "type": "electric_scooter", "is_reserved": 0, "lon": -77.03854666666666}, {"fusion_lat": 0.0, "name": "9cefb3b3be897ef3e917bc0f8afc02b9", "is_disabled": 0, "rental_uris": {"android": "https://dc.lft.to/lastmile_qr_scan", "ios": "https://dc.lft.to/lastmile_qr_scan"}, "fusion_lon": 0.0, "lat": 38.93105466666667, "bike_id": "9cefb3b3be897ef3e917bc0f8afc02b9", "type": "electric_bike", "is_reserved": 0, "lon": -77.02461}, {"fusion_lat": 0.0, "name": "7b0d1bbf8f4ec9fa7b0e439820376ed3", "is_disabled": 0, "rental_uris": {"android": "https://dc.lft.to/lastmile_qr_scan", "ios": "https://dc.lft.to/lastmile_qr_scan"}, "fusion_lon": 0.0, "lat": 38.876547333333335, "bike_id": "7b0d1bbf8f4ec9fa7b0e439820376ed3", "type": "electric_scooter", "is_reserved": 0, "lon": -77.003052}, {"fusion_lat": 0.0, "name": "b2c2ae6b47f77beaeed1310c588a7e9d", "is_disabled": 0, "rental_uris": {"android": "https://dc.lft.to/lastmile_qr_scan", "ios": "https://dc.lft.to/lastmile_qr_scan"}, "fusion_lon": 0.0, "lat": 38.89227833333333, "bike_id": "b2c2ae6b47f77beaeed1310c588a7e9d", "type": "electric_scooter", "is_reserved": 0, "lon": -77.0447205}, {"fusion_lat": 0.0, "name": "bef94c8fc575e729b9b2e51f737e4e76", "is_disabled": 0, "rental_uris": {"android": "https://dc.lft.to/lastmile_qr_scan", "ios": "https://dc.lft.to/lastmile_qr_scan"}, "fusion_lon": 0.0, "lat": 38.903332666666664, "bike_id": "bef94c8fc575e729b9b2e51f737e4e76", "type": "electric_scooter", "is_reserved": 0, "lon": -77.01633716666667}, {"fusion_lat": 0.0, "name": "9300bbcd791b20e2206f8ec8153c6f99", "is_disabled": 0, "rental_uris": {"android": "https://dc.lft.to/lastmile_qr_scan", "ios": "https://dc.lft.to/lastmile_qr_scan"}, "fusion_lon": 0.0, "lat": 38.931226, "bike_id": "9300bbcd791b20e2206f8ec8153c6f99", "type": "electric_scooter", "is_reserved": 0, "lon": -77.020866}, {"fusion_lat": 0.0, "name": "ccf002a22c3aa15aea342c297f794874", "is_disabled": 0, "rental_uris": {"android": "https://dc.lft.to/lastmile_qr_scan", "ios": "https://dc.lft.to/lastmile_qr_scan"}, "fusion_lon": 0.0, "lat": 38.8876685, "bike_id": "ccf002a22c3aa15aea342c297f794874", "type": "electric_scooter", "is_reserved": 0, "lon": -77.01303566666667}, {"fusion_lat": 0.0, "name": "6ac762f2b0f378b24881e0e794f022d7", "is_disabled": 0, "rental_uris": {"android": "https://dc.lft.to/lastmile_qr_scan", "ios": "https://dc.lft.to/lastmile_qr_scan"}, "fusion_lon": 0.0, "lat": 38.89320716666667, "bike_id": "6ac762f2b0f378b24881e0e794f022d7", "type": "electric_bike", "is_reserved": 0, "lon": -76.95126383333333}, {"fusion_lat": 0.0, "name": "ca7b373618a313f33ccd429d3fa4eae5", "is_disabled": 0, "rental_uris": {"android": "https://dc.lft.to/lastmile_qr_scan", "ios": "https://dc.lft.to/lastmile_qr_scan"}, "fusion_lon": 0.0, "lat": 38.90013233333333, "bike_id": "ca7b373618a313f33ccd429d3fa4eae5", "type": "electric_scooter", "is_reserved": 0, "lon": -76.99976183333334}, {"fusion_lat": 0.0, "name": "981c6a5d9a724a05bf54c76c1f9e57fd", "is_disabled": 0, "rental_uris": {"android": "https://dc.lft.to/lastmile_qr_scan", "ios": "https://dc.lft.to/lastmile_qr_scan"}, "fusion_lon": 0.0, "lat": 38.879668833333334, "bike_id": "981c6a5d9a724a05bf54c76c1f9e57fd", "type": "electric_scooter", "is_reserved": 0, "lon": -76.98545783333333}, {"fusion_lat": 0.0, "name": "c4f92ccc562a472b1111ccf58a19f51a", "is_disabled": 0, "rental_uris": {"android": "https://dc.lft.to/lastmile_qr_scan", "ios": "https://dc.lft.to/lastmile_qr_scan"}, "fusion_lon": 0.0, "lat": 38.92592366666667, "bike_id": "c4f92ccc562a472b1111ccf58a19f51a", "type": "electric_bike", "is_reserved": 0, "lon": -77.21007083333333}, {"fusion_lat": 0.0, "name": "91565a23e4c5d2181fcb4c79291ab3a4", "is_disabled": 0, "rental_uris": {"android": "https://dc.lft.to/lastmile_qr_scan", "ios": "https://dc.lft.to/lastmile_qr_scan"}, "fusion_lon": 0.0, "lat": 38.9085505, "bike_id": "91565a23e4c5d2181fcb4c79291ab3a4", "type": "electric_scooter", "is_reserved": 0, "lon": -77.02723166666667}, {"fusion_lat": 0.0, "name": "e1ab90f942114b8baee7371f602dda96", "is_disabled": 0, "rental_uris": {"android": "https://dc.lft.to/lastmile_qr_scan", "ios": "https://dc.lft.to/lastmile_qr_scan"}, "fusion_lon": 0.0, "lat": 38.827825, "bike_id": "e1ab90f942114b8baee7371f602dda96", "type": "electric_bike", "is_reserved": 0, "lon": -77.124911}, {"fusion_lat": 0.0, "name": "5d5bb6c6c3e2f5681b2b1118fd617e9b", "is_disabled": 0, "rental_uris": {"android": "https://dc.lft.to/lastmile_qr_scan", "ios": "https://dc.lft.to/lastmile_qr_scan"}, "fusion_lon": 0.0, "lat": 38.92249016666667, "bike_id": "5d5bb6c6c3e2f5681b2b1118fd617e9b", "type": "electric_scooter", "is_reserved": 0, "lon": -77.04250583333334}, {"fusion_lat": 0.0, "name": "45bd3869aef00a31b7eb784aae8d94a9", "is_disabled": 0, "rental_uris": {"android": "https://dc.lft.to/lastmile_qr_scan", "ios": "https://dc.lft.to/lastmile_qr_scan"}, "fusion_lon": 0.0, "lat": 38.9296345, "bike_id": "45bd3869aef00a31b7eb784aae8d94a9", "type": "electric_scooter", "is_reserved": 0, "lon": -77.0114825}, {"fusion_lat": 0.0, "name": "2ecda995c06968f22a5055507627c596", "is_disabled": 0, "rental_uris": {"android": "https://dc.lft.to/lastmile_qr_scan", "ios": "https://dc.lft.to/lastmile_qr_scan"}, "fusion_lon": 0.0, "lat": 38.899701, "bike_id": "2ecda995c06968f22a5055507627c596", "type": "electric_scooter", "is_reserved": 0, "lon": -77.01614766666667}, {"fusion_lat": 0.0, "name": "3e94094fc17bdb9535a211773e24deb0", "is_disabled": 0, "rental_uris": {"android": "https://dc.lft.to/lastmile_qr_scan", "ios": "https://dc.lft.to/lastmile_qr_scan"}, "fusion_lon": 0.0, "lat": 38.90873033333333, "bike_id": "3e94094fc17bdb9535a211773e24deb0", "type": "electric_scooter", "is_reserved": 0, "lon": -77.04324983333333}, {"fusion_lat": 0.0, "name": "29e098134e32564a8fa642f4d393a892", "is_disabled": 0, "rental_uris": {"android": "https://dc.lft.to/lastmile_qr_scan", "ios": "https://dc.lft.to/lastmile_qr_scan"}, "fusion_lon": 0.0, "lat": 38.93970766666666, "bike_id": "29e098134e32564a8fa642f4d393a892", "type": "electric_scooter", "is_reserved": 0, "lon": -77.03293533333333}, {"fusion_lat": 0.0, "name": "4f758b63f16dcf052ba3dfa037565e3b", "is_disabled": 0, "rental_uris": {"android": "https://dc.lft.to/lastmile_qr_scan", "ios": "https://dc.lft.to/lastmile_qr_scan"}, "fusion_lon": 0.0, "lat": 38.921409, "bike_id": "4f758b63f16dcf052ba3dfa037565e3b", "type": "electric_scooter", "is_reserved": 0, "lon": -77.01220733333334}, {"fusion_lat": 0.0, "name": "5313405b030c0ebaa04af6d6ea0f5396", "is_disabled": 0, "rental_uris": {"android": "https://dc.lft.to/lastmile_qr_scan", "ios": "https://dc.lft.to/lastmile_qr_scan"}, "fusion_lon": 0.0, "lat": 38.892188, "bike_id": "5313405b030c0ebaa04af6d6ea0f5396", "type": "electric_scooter", "is_reserved": 0, "lon": -77.026595}, {"fusion_lat": 0.0, "name": "9d522c5ecf58aa45f2942a7fb3876210", "is_disabled": 0, "rental_uris": {"android": "https://dc.lft.to/lastmile_qr_scan", "ios": "https://dc.lft.to/lastmile_qr_scan"}, "fusion_lon": 0.0, "lat": 38.917761166666665, "bike_id": "9d522c5ecf58aa45f2942a7fb3876210", "type": "electric_scooter", "is_reserved": 0, "lon": -77.03857066666667}, {"fusion_lat": 0.0, "name": "4b96faf8560f9ee2b8fa9db53c356091", "is_disabled": 0, "rental_uris": {"android": "https://dc.lft.to/lastmile_qr_scan", "ios": "https://dc.lft.to/lastmile_qr_scan"}, "fusion_lon": 0.0, "lat": 38.909765, "bike_id": "4b96faf8560f9ee2b8fa9db53c356091", "type": "electric_scooter", "is_reserved": 0, "lon": -77.040367}, {"fusion_lat": 0.0, "name": "01c6b89ea61ae2420f33b04b92d4097d", "is_disabled": 0, "rental_uris": {"android": "https://dc.lft.to/lastmile_qr_scan", "ios": "https://dc.lft.to/lastmile_qr_scan"}, "fusion_lon": 0.0, "lat": 38.87393266666667, "bike_id": "01c6b89ea61ae2420f33b04b92d4097d", "type": "electric_scooter", "is_reserved": 0, "lon": -77.01451216666666}, {"fusion_lat": 0.0, "name": "09b70e9f979905f499cb3ade2c4b3598", "is_disabled": 0, "rental_uris": {"android": "https://dc.lft.to/lastmile_qr_scan", "ios": "https://dc.lft.to/lastmile_qr_scan"}, "fusion_lon": 0.0, "lat": 38.90626683333333, "bike_id": "09b70e9f979905f499cb3ade2c4b3598", "type": "electric_scooter", "is_reserved": 0, "lon": -77.0261115}, {"fusion_lat": 0.0, "name": "c80df91a66db83e00711e97b2d41a067", "is_disabled": 0, "rental_uris": {"android": "https://dc.lft.to/lastmile_qr_scan", "ios": "https://dc.lft.to/lastmile_qr_scan"}, "fusion_lon": 0.0, "lat": 38.844962333333335, "bike_id": "c80df91a66db83e00711e97b2d41a067", "type": "electric_scooter", "is_reserved": 0, "lon": -76.9959915}, {"fusion_lat": 0.0, "name": "d0435fc1c2f554663264b52fc8b3923f", "is_disabled": 0, "rental_uris": {"android": "https://dc.lft.to/lastmile_qr_scan", "ios": "https://dc.lft.to/lastmile_qr_scan"}, "fusion_lon": 0.0, "lat": 38.91942866666667, "bike_id": "d0435fc1c2f554663264b52fc8b3923f", "type": "electric_scooter", "is_reserved": 0, "lon": -77.02518866666666}, {"fusion_lat": 0.0, "name": "bae8b261a1f22a8c052c3daa051b9b4a", "is_disabled": 0, "rental_uris": {"android": "https://dc.lft.to/lastmile_qr_scan", "ios": "https://dc.lft.to/lastmile_qr_scan"}, "fusion_lon": 0.0, "lat": 38.86244516666667, "bike_id": "bae8b261a1f22a8c052c3daa051b9b4a", "type": "electric_scooter", "is_reserved": 0, "lon": -76.99495266666666}, {"fusion_lat": 0.0, "name": "e9135b8b11d478631d48b3a5dcb117d2", "is_disabled": 0, "rental_uris": {"android": "https://dc.lft.to/lastmile_qr_scan", "ios": "https://dc.lft.to/lastmile_qr_scan"}, "fusion_lon": 0.0, "lat": 38.919123, "bike_id": "e9135b8b11d478631d48b3a5dcb117d2", "type": "electric_scooter", "is_reserved": 0, "lon": -77.02734466666666}, {"fusion_lat": 0.0, "name": "d21fd05250e26719005b189f416e82a9", "is_disabled": 0, "rental_uris": {"android": "https://dc.lft.to/lastmile_qr_scan", "ios": "https://dc.lft.to/lastmile_qr_scan"}, "fusion_lon": 0.0, "lat": 38.85367016666667, "bike_id": "d21fd05250e26719005b189f416e82a9", "type": "electric_bike", "is_reserved": 0, "lon": -77.11481183333333}, {"fusion_lat": 0.0, "name": "94b7849a706d81e35dfb726b84fc131d", "is_disabled": 0, "rental_uris": {"android": "https://dc.lft.to/lastmile_qr_scan", "ios": "https://dc.lft.to/lastmile_qr_scan"}, "fusion_lon": 0.0, "lat": 38.897713833333334, "bike_id": "94b7849a706d81e35dfb726b84fc131d", "type": "electric_scooter", "is_reserved": 0, "lon": -76.98462266666667}, {"fusion_lat": 0.0, "name": "e0fbfb6ca29c6b5f8b322a0be903a631", "is_disabled": 0, "rental_uris": {"android": "https://dc.lft.to/lastmile_qr_scan", "ios": "https://dc.lft.to/lastmile_qr_scan"}, "fusion_lon": 0.0, "lat": 38.921592833333335, "bike_id": "e0fbfb6ca29c6b5f8b322a0be903a631", "type": "electric_scooter", "is_reserved": 0, "lon": -77.03432583333333}, {"fusion_lat": 0.0, "name": "048b475db3bfb6ceea7ff26f490ab4b2", "is_disabled": 0, "rental_uris": {"android": "https://dc.lft.to/lastmile_qr_scan", "ios": "https://dc.lft.to/lastmile_qr_scan"}, "fusion_lon": 0.0, "lat": 38.873754, "bike_id": "048b475db3bfb6ceea7ff26f490ab4b2", "type": "electric_scooter", "is_reserved": 0, "lon": -77.0005205}, {"fusion_lat": 0.0, "name": "f9adde202bf63c3ae6df6329a7b4c760", "is_disabled": 0, "rental_uris": {"android": "https://dc.lft.to/lastmile_qr_scan", "ios": "https://dc.lft.to/lastmile_qr_scan"}, "fusion_lon": 0.0, "lat": 38.94302616666667, "bike_id": "f9adde202bf63c3ae6df6329a7b4c760", "type": "electric_scooter", "is_reserved": 0, "lon": -77.06130766666666}, {"fusion_lat": 0.0, "name": "0df07671f340fbeccb40b4d81f979b52", "is_disabled": 0, "rental_uris": {"android": "https://dc.lft.to/lastmile_qr_scan", "ios": "https://dc.lft.to/lastmile_qr_scan"}, "fusion_lon": 0.0, "lat": 38.877365166666664, "bike_id": "0df07671f340fbeccb40b4d81f979b52", "type": "electric_scooter", "is_reserved": 0, "lon": -76.9968275}, {"fusion_lat": 0.0, "name": "732e891afb60b26ca98ba7f4851785af", "is_disabled": 0, "rental_uris": {"android": "https://dc.lft.to/lastmile_qr_scan", "ios": "https://dc.lft.to/lastmile_qr_scan"}, "fusion_lon": 0.0, "lat": 38.916981666666665, "bike_id": "732e891afb60b26ca98ba7f4851785af", "type": "electric_scooter", "is_reserved": 0, "lon": -77.03053766666666}, {"fusion_lat": 0.0, "name": "8abe6b6ff232448dab060b1275fa4c6b", "is_disabled": 0, "rental_uris": {"android": "https://dc.lft.to/lastmile_qr_scan", "ios": "https://dc.lft.to/lastmile_qr_scan"}, "fusion_lon": 0.0, "lat": 38.900114, "bike_id": "8abe6b6ff232448dab060b1275fa4c6b", "type": "electric_scooter", "is_reserved": 0, "lon": -77.01177716666666}, {"fusion_lat": 0.0, "name": "f54e52714d55d1cec06fd4888371cc0a", "is_disabled": 0, "rental_uris": {"android": "https://dc.lft.to/lastmile_qr_scan", "ios": "https://dc.lft.to/lastmile_qr_scan"}, "fusion_lon": 0.0, "lat": 38.933536, "bike_id": "f54e52714d55d1cec06fd4888371cc0a", "type": "electric_scooter", "is_reserved": 0, "lon": -77.03416166666666}, {"fusion_lat": 0.0, "name": "8ec031d637467f95d5927284648688f6", "is_disabled": 0, "rental_uris": {"android": "https://dc.lft.to/lastmile_qr_scan", "ios": "https://dc.lft.to/lastmile_qr_scan"}, "fusion_lon": 0.0, "lat": 38.917077, "bike_id": "8ec031d637467f95d5927284648688f6", "type": "electric_scooter", "is_reserved": 0, "lon": -77.03867666666666}, {"fusion_lat": 0.0, "name": "106d19db7eac41cbbfc4438cd544b350", "is_disabled": 0, "rental_uris": {"android": "https://dc.lft.to/lastmile_qr_scan", "ios": "https://dc.lft.to/lastmile_qr_scan"}, "fusion_lon": 0.0, "lat": 38.911288666666664, "bike_id": "106d19db7eac41cbbfc4438cd544b350", "type": "electric_scooter", "is_reserved": 0, "lon": -77.0220265}, {"fusion_lat": 0.0, "name": "e5e8019b1f1f9041e3e6652ae612f494", "is_disabled": 0, "rental_uris": {"android": "https://dc.lft.to/lastmile_qr_scan", "ios": "https://dc.lft.to/lastmile_qr_scan"}, "fusion_lon": 0.0, "lat": 38.874804, "bike_id": "e5e8019b1f1f9041e3e6652ae612f494", "type": "electric_scooter", "is_reserved": 0, "lon": -77.00600283333333}, {"fusion_lat": 0.0, "name": "9abe4611831679f31e344e6d29e0e6d0", "is_disabled": 0, "rental_uris": {"android": "https://dc.lft.to/lastmile_qr_scan", "ios": "https://dc.lft.to/lastmile_qr_scan"}, "fusion_lon": 0.0, "lat": 38.921519333333336, "bike_id": "9abe4611831679f31e344e6d29e0e6d0", "type": "electric_scooter", "is_reserved": 0, "lon": -77.03869216666666}, {"fusion_lat": 0.0, "name": "0ca982c47af491bad194f3c35b6a419c", "is_disabled": 0, "rental_uris": {"android": "https://dc.lft.to/lastmile_qr_scan", "ios": "https://dc.lft.to/lastmile_qr_scan"}, "fusion_lon": 0.0, "lat": 38.92321, "bike_id": "0ca982c47af491bad194f3c35b6a419c", "type": "electric_scooter", "is_reserved": 0, "lon": -77.0435035}, {"fusion_lat": 0.0, "name": "772e1f45ce81512bcd1036c7aa908acd", "is_disabled": 0, "rental_uris": {"android": "https://dc.lft.to/lastmile_qr_scan", "ios": "https://dc.lft.to/lastmile_qr_scan"}, "fusion_lon": 0.0, "lat": 38.90240083333333, "bike_id": "772e1f45ce81512bcd1036c7aa908acd", "type": "electric_scooter", "is_reserved": 0, "lon": -77.03263116666666}, {"fusion_lat": 0.0, "name": "18c53a591eea58174338ac694a2ac6a4", "is_disabled": 0, "rental_uris": {"android": "https://dc.lft.to/lastmile_qr_scan", "ios": "https://dc.lft.to/lastmile_qr_scan"}, "fusion_lon": 0.0, "lat": 38.88723783333333, "bike_id": "18c53a591eea58174338ac694a2ac6a4", "type": "electric_scooter", "is_reserved": 0, "lon": -77.02584166666666}, {"fusion_lat": 0.0, "name": "f5a41b186dc4ce3d87395a41b6c4265d", "is_disabled": 0, "rental_uris": {"android": "https://dc.lft.to/lastmile_qr_scan", "ios": "https://dc.lft.to/lastmile_qr_scan"}, "fusion_lon": 0.0, "lat": 39.0342965, "bike_id": "f5a41b186dc4ce3d87395a41b6c4265d", "type": "electric_bike", "is_reserved": 0, "lon": -77.04303066666667}, {"fusion_lat": 0.0, "name": "859145da3e25b62d3529928d0e6874d1", "is_disabled": 0, "rental_uris": {"android": "https://dc.lft.to/lastmile_qr_scan", "ios": "https://dc.lft.to/lastmile_qr_scan"}, "fusion_lon": 0.0, "lat": 38.916039166666664, "bike_id": "859145da3e25b62d3529928d0e6874d1", "type": "electric_scooter", "is_reserved": 0, "lon": -77.03218683333333}, {"fusion_lat": 0.0, "name": "8a2030f5d872fb6b658f84e00efcc20b", "is_disabled": 0, "rental_uris": {"android": "https://dc.lft.to/lastmile_qr_scan", "ios": "https://dc.lft.to/lastmile_qr_scan"}, "fusion_lon": 0.0, "lat": 38.91916883333333, "bike_id": "8a2030f5d872fb6b658f84e00efcc20b", "type": "electric_scooter", "is_reserved": 0, "lon": -77.03218716666667}, {"fusion_lat": 0.0, "name": "b19fd2e77eb9c6f0ebb216ea11b7b877", "is_disabled": 0, "rental_uris": {"android": "https://dc.lft.to/lastmile_qr_scan", "ios": "https://dc.lft.to/lastmile_qr_scan"}, "fusion_lon": 0.0, "lat": 38.895854666666665, "bike_id": "b19fd2e77eb9c6f0ebb216ea11b7b877", "type": "electric_scooter", "is_reserved": 0, "lon": -76.98314816666667}, {"fusion_lat": 0.0, "name": "c43a14b25ed5e97b3eb2b1b16376998b", "is_disabled": 0, "rental_uris": {"android": "https://dc.lft.to/lastmile_qr_scan", "ios": "https://dc.lft.to/lastmile_qr_scan"}, "fusion_lon": 0.0, "lat": 38.910069666666665, "bike_id": "c43a14b25ed5e97b3eb2b1b16376998b", "type": "electric_scooter", "is_reserved": 0, "lon": -77.03445883333333}, {"fusion_lat": 0.0, "name": "ce436ccca4652f58c127d411069b2984", "is_disabled": 0, "rental_uris": {"android": "https://dc.lft.to/lastmile_qr_scan", "ios": "https://dc.lft.to/lastmile_qr_scan"}, "fusion_lon": 0.0, "lat": 38.92932483333333, "bike_id": "ce436ccca4652f58c127d411069b2984", "type": "electric_scooter", "is_reserved": 0, "lon": -77.03277716666666}, {"fusion_lat": 0.0, "name": "c658a13e61154f77df6c29a3eff45c69", "is_disabled": 0, "rental_uris": {"android": "https://dc.lft.to/lastmile_qr_scan", "ios": "https://dc.lft.to/lastmile_qr_scan"}, "fusion_lon": 0.0, "lat": 38.90051616666667, "bike_id": "c658a13e61154f77df6c29a3eff45c69", "type": "electric_scooter", "is_reserved": 0, "lon": -77.0006535}, {"fusion_lat": 0.0, "name": "201f5d93b3bbea23330b4aa4d72b1444", "is_disabled": 0, "rental_uris": {"android": "https://dc.lft.to/lastmile_qr_scan", "ios": "https://dc.lft.to/lastmile_qr_scan"}, "fusion_lon": 0.0, "lat": 38.899837166666664, "bike_id": "201f5d93b3bbea23330b4aa4d72b1444", "type": "electric_scooter", "is_reserved": 0, "lon": -77.02714583333334}, {"fusion_lat": 0.0, "name": "6ee7384ff5f0090da587bee934beb119", "is_disabled": 0, "rental_uris": {"android": "https://dc.lft.to/lastmile_qr_scan", "ios": "https://dc.lft.to/lastmile_qr_scan"}, "fusion_lon": 0.0, "lat": 38.902007166666664, "bike_id": "6ee7384ff5f0090da587bee934beb119", "type": "electric_scooter", "is_reserved": 0, "lon": -77.02374316666666}, {"fusion_lat": 0.0, "name": "6f13fef7a5e47461183a61662ed2d6e9", "is_disabled": 0, "rental_uris": {"android": "https://dc.lft.to/lastmile_qr_scan", "ios": "https://dc.lft.to/lastmile_qr_scan"}, "fusion_lon": 0.0, "lat": 38.908856, "bike_id": "6f13fef7a5e47461183a61662ed2d6e9", "type": "electric_scooter", "is_reserved": 0, "lon": -77.0321915}, {"fusion_lat": 0.0, "name": "2f42dc75d0a21760e67ff9c0950c66d9", "is_disabled": 0, "rental_uris": {"android": "https://dc.lft.to/lastmile_qr_scan", "ios": "https://dc.lft.to/lastmile_qr_scan"}, "fusion_lon": 0.0, "lat": 38.92536716666667, "bike_id": "2f42dc75d0a21760e67ff9c0950c66d9", "type": "electric_scooter", "is_reserved": 0, "lon": -77.03488283333333}, {"fusion_lat": 0.0, "name": "cbfbb9b6cdabd1d203bfc55731bae81e", "is_disabled": 0, "rental_uris": {"android": "https://dc.lft.to/lastmile_qr_scan", "ios": "https://dc.lft.to/lastmile_qr_scan"}, "fusion_lon": 0.0, "lat": 38.917031, "bike_id": "cbfbb9b6cdabd1d203bfc55731bae81e", "type": "electric_scooter", "is_reserved": 0, "lon": -77.03041766666666}, {"fusion_lat": 0.0, "name": "bf414d6abfd8df3f874c4d1dc9dda528", "is_disabled": 0, "rental_uris": {"android": "https://dc.lft.to/lastmile_qr_scan", "ios": "https://dc.lft.to/lastmile_qr_scan"}, "fusion_lon": 0.0, "lat": 38.87933066666667, "bike_id": "bf414d6abfd8df3f874c4d1dc9dda528", "type": "electric_scooter", "is_reserved": 0, "lon": -77.00629033333334}, {"fusion_lat": 0.0, "name": "33d05f3acfdc783715217a57956cd458", "is_disabled": 0, "rental_uris": {"android": "https://dc.lft.to/lastmile_qr_scan", "ios": "https://dc.lft.to/lastmile_qr_scan"}, "fusion_lon": 0.0, "lat": 38.931842, "bike_id": "33d05f3acfdc783715217a57956cd458", "type": "electric_scooter", "is_reserved": 0, "lon": -77.0196455}, {"fusion_lat": 0.0, "name": "6eeeec5e106f5c248d8f449784b81fee", "is_disabled": 0, "rental_uris": {"android": "https://dc.lft.to/lastmile_qr_scan", "ios": "https://dc.lft.to/lastmile_qr_scan"}, "fusion_lon": 0.0, "lat": 38.918285166666664, "bike_id": "6eeeec5e106f5c248d8f449784b81fee", "type": "electric_scooter", "is_reserved": 0, "lon": -77.03196216666667}, {"fusion_lat": 0.0, "name": "a8d14bb428a3f812e7b52581a7ae5e87", "is_disabled": 0, "rental_uris": {"android": "https://dc.lft.to/lastmile_qr_scan", "ios": "https://dc.lft.to/lastmile_qr_scan"}, "fusion_lon": 0.0, "lat": 38.92434883333333, "bike_id": "a8d14bb428a3f812e7b52581a7ae5e87", "type": "electric_scooter", "is_reserved": 0, "lon": -77.02023883333334}, {"fusion_lat": 0.0, "name": "944b5058b8d2eac2e0b6d4fea43374f5", "is_disabled": 0, "rental_uris": {"android": "https://dc.lft.to/lastmile_qr_scan", "ios": "https://dc.lft.to/lastmile_qr_scan"}, "fusion_lon": 0.0, "lat": 38.916350333333334, "bike_id": "944b5058b8d2eac2e0b6d4fea43374f5", "type": "electric_scooter", "is_reserved": 0, "lon": -77.0320995}, {"fusion_lat": 0.0, "name": "be78459b2be3153a4fad95c91c0af421", "is_disabled": 0, "rental_uris": {"android": "https://dc.lft.to/lastmile_qr_scan", "ios": "https://dc.lft.to/lastmile_qr_scan"}, "fusion_lon": 0.0, "lat": 38.89748083333333, "bike_id": "be78459b2be3153a4fad95c91c0af421", "type": "electric_scooter", "is_reserved": 0, "lon": -76.94189483333334}, {"fusion_lat": 0.0, "name": "6d6aae53bc7ec6ff75d88858940c94b8", "is_disabled": 0, "rental_uris": {"android": "https://dc.lft.to/lastmile_qr_scan", "ios": "https://dc.lft.to/lastmile_qr_scan"}, "fusion_lon": 0.0, "lat": 38.92118716666667, "bike_id": "6d6aae53bc7ec6ff75d88858940c94b8", "type": "electric_scooter", "is_reserved": 0, "lon": -77.04385766666667}, {"fusion_lat": 0.0, "name": "50d99efb4257a1c82286670ebd17183b", "is_disabled": 0, "rental_uris": {"android": "https://dc.lft.to/lastmile_qr_scan", "ios": "https://dc.lft.to/lastmile_qr_scan"}, "fusion_lon": 0.0, "lat": 38.9241815, "bike_id": "50d99efb4257a1c82286670ebd17183b", "type": "electric_scooter", "is_reserved": 0, "lon": -77.01944433333334}, {"fusion_lat": 0.0, "name": "20bc95c670afd354ad746c5ada5ad9e4", "is_disabled": 0, "rental_uris": {"android": "https://dc.lft.to/lastmile_qr_scan", "ios": "https://dc.lft.to/lastmile_qr_scan"}, "fusion_lon": 0.0, "lat": 38.926798, "bike_id": "20bc95c670afd354ad746c5ada5ad9e4", "type": "electric_scooter", "is_reserved": 0, "lon": -77.03099966666667}, {"fusion_lat": 0.0, "name": "dadbf5782f63da786f0adde66d8ccb74", "is_disabled": 0, "rental_uris": {"android": "https://dc.lft.to/lastmile_qr_scan", "ios": "https://dc.lft.to/lastmile_qr_scan"}, "fusion_lon": 0.0, "lat": 38.892373, "bike_id": "dadbf5782f63da786f0adde66d8ccb74", "type": "electric_scooter", "is_reserved": 0, "lon": -77.028108}, {"fusion_lat": 0.0, "name": "f17ef50300535f9456e357fd6b5a7dee", "is_disabled": 0, "rental_uris": {"android": "https://dc.lft.to/lastmile_qr_scan", "ios": "https://dc.lft.to/lastmile_qr_scan"}, "fusion_lon": 0.0, "lat": 38.90564833333333, "bike_id": "f17ef50300535f9456e357fd6b5a7dee", "type": "electric_scooter", "is_reserved": 0, "lon": -77.0342205}, {"fusion_lat": 0.0, "name": "3ffa2db6e97327e4d1114d68c27d2946", "is_disabled": 0, "rental_uris": {"android": "https://dc.lft.to/lastmile_qr_scan", "ios": "https://dc.lft.to/lastmile_qr_scan"}, "fusion_lon": 0.0, "lat": 38.924499, "bike_id": "3ffa2db6e97327e4d1114d68c27d2946", "type": "electric_scooter", "is_reserved": 0, "lon": -77.04021616666667}, {"fusion_lat": 0.0, "name": "1fdf31717c5387867cee7310410c0841", "is_disabled": 0, "rental_uris": {"android": "https://dc.lft.to/lastmile_qr_scan", "ios": "https://dc.lft.to/lastmile_qr_scan"}, "fusion_lon": 0.0, "lat": 38.9196085, "bike_id": "1fdf31717c5387867cee7310410c0841", "type": "electric_scooter", "is_reserved": 0, "lon": -77.0178445}, {"fusion_lat": 0.0, "name": "ac1f5cc0096bc19bde5f0af835a32f0a", "is_disabled": 0, "rental_uris": {"android": "https://dc.lft.to/lastmile_qr_scan", "ios": "https://dc.lft.to/lastmile_qr_scan"}, "fusion_lon": 0.0, "lat": 38.896165, "bike_id": "ac1f5cc0096bc19bde5f0af835a32f0a", "type": "electric_scooter", "is_reserved": 0, "lon": -77.026825}, {"fusion_lat": 0.0, "name": "4592ec212e98d9b76f7f963ab02e31b9", "is_disabled": 0, "rental_uris": {"android": "https://dc.lft.to/lastmile_qr_scan", "ios": "https://dc.lft.to/lastmile_qr_scan"}, "fusion_lon": 0.0, "lat": 38.9001345, "bike_id": "4592ec212e98d9b76f7f963ab02e31b9", "type": "electric_scooter", "is_reserved": 0, "lon": -77.006819}, {"fusion_lat": 0.0, "name": "d0e1b9890332522ecd44e431bf7cad91", "is_disabled": 0, "rental_uris": {"android": "https://dc.lft.to/lastmile_qr_scan", "ios": "https://dc.lft.to/lastmile_qr_scan"}, "fusion_lon": 0.0, "lat": 38.90669233333333, "bike_id": "d0e1b9890332522ecd44e431bf7cad91", "type": "electric_scooter", "is_reserved": 0, "lon": -77.027044}, {"fusion_lat": 0.0, "name": "903044b9b38c31802ad484deabe989aa", "is_disabled": 0, "rental_uris": {"android": "https://dc.lft.to/lastmile_qr_scan", "ios": "https://dc.lft.to/lastmile_qr_scan"}, "fusion_lon": 0.0, "lat": 38.9176625, "bike_id": "903044b9b38c31802ad484deabe989aa", "type": "electric_scooter", "is_reserved": 0, "lon": -77.03574183333333}, {"fusion_lat": 0.0, "name": "ba40f34337462a5a2e525ce06cd24d7c", "is_disabled": 0, "rental_uris": {"android": "https://dc.lft.to/lastmile_qr_scan", "ios": "https://dc.lft.to/lastmile_qr_scan"}, "fusion_lon": 0.0, "lat": 38.91405433333333, "bike_id": "ba40f34337462a5a2e525ce06cd24d7c", "type": "electric_scooter", "is_reserved": 0, "lon": -77.07552766666667}, {"fusion_lat": 0.0, "name": "9b1e3738d3b31092d3f7107abd00394e", "is_disabled": 0, "rental_uris": {"android": "https://dc.lft.to/lastmile_qr_scan", "ios": "https://dc.lft.to/lastmile_qr_scan"}, "fusion_lon": 0.0, "lat": 38.89009766666667, "bike_id": "9b1e3738d3b31092d3f7107abd00394e", "type": "electric_scooter", "is_reserved": 0, "lon": -76.93702133333333}, {"fusion_lat": 0.0, "name": "ea8d0a5a4611e7305d11c4dc37f6b8a6", "is_disabled": 0, "rental_uris": {"android": "https://dc.lft.to/lastmile_qr_scan", "ios": "https://dc.lft.to/lastmile_qr_scan"}, "fusion_lon": 0.0, "lat": 38.899573833333335, "bike_id": "ea8d0a5a4611e7305d11c4dc37f6b8a6", "type": "electric_scooter", "is_reserved": 0, "lon": -77.057039}, {"fusion_lat": 0.0, "name": "4954819f3bc281fac01763b139ec856d", "is_disabled": 0, "rental_uris": {"android": "https://dc.lft.to/lastmile_qr_scan", "ios": "https://dc.lft.to/lastmile_qr_scan"}, "fusion_lon": 0.0, "lat": 38.922853833333335, "bike_id": "4954819f3bc281fac01763b139ec856d", "type": "electric_scooter", "is_reserved": 0, "lon": -77.03660033333334}, {"fusion_lat": 0.0, "name": "2465bd00cae002af96675c54700a2d2a", "is_disabled": 0, "rental_uris": {"android": "https://dc.lft.to/lastmile_qr_scan", "ios": "https://dc.lft.to/lastmile_qr_scan"}, "fusion_lon": 0.0, "lat": 38.915422, "bike_id": "2465bd00cae002af96675c54700a2d2a", "type": "electric_scooter", "is_reserved": 0, "lon": -77.03204016666666}, {"fusion_lat": 0.0, "name": "ad8d872dcee6591d56c4f9c8ae1a8cf4", "is_disabled": 0, "rental_uris": {"android": "https://dc.lft.to/lastmile_qr_scan", "ios": "https://dc.lft.to/lastmile_qr_scan"}, "fusion_lon": 0.0, "lat": 38.8874175, "bike_id": "ad8d872dcee6591d56c4f9c8ae1a8cf4", "type": "electric_scooter", "is_reserved": 0, "lon": -77.02136066666667}, {"fusion_lat": 0.0, "name": "b806a42fc5d4ee7f4dd378128e535548", "is_disabled": 0, "rental_uris": {"android": "https://dc.lft.to/lastmile_qr_scan", "ios": "https://dc.lft.to/lastmile_qr_scan"}, "fusion_lon": 0.0, "lat": 38.907229666666666, "bike_id": "b806a42fc5d4ee7f4dd378128e535548", "type": "electric_scooter", "is_reserved": 0, "lon": -77.04561033333333}, {"fusion_lat": 0.0, "name": "ccb7ab5d22fdecc460e0c804acb983d4", "is_disabled": 0, "rental_uris": {"android": "https://dc.lft.to/lastmile_qr_scan", "ios": "https://dc.lft.to/lastmile_qr_scan"}, "fusion_lon": 0.0, "lat": 38.9027875, "bike_id": "ccb7ab5d22fdecc460e0c804acb983d4", "type": "electric_scooter", "is_reserved": 0, "lon": -77.03644016666667}, {"fusion_lat": 0.0, "name": "7c2b5b7b3dd986d4334f1e674045ddd5", "is_disabled": 0, "rental_uris": {"android": "https://dc.lft.to/lastmile_qr_scan", "ios": "https://dc.lft.to/lastmile_qr_scan"}, "fusion_lon": 0.0, "lat": 38.9002775, "bike_id": "7c2b5b7b3dd986d4334f1e674045ddd5", "type": "electric_scooter", "is_reserved": 0, "lon": -76.99874766666667}, {"fusion_lat": 0.0, "name": "b766e7eddf54125d1a74ae808a5a22f6", "is_disabled": 0, "rental_uris": {"android": "https://dc.lft.to/lastmile_qr_scan", "ios": "https://dc.lft.to/lastmile_qr_scan"}, "fusion_lon": 0.0, "lat": 38.91190516666666, "bike_id": "b766e7eddf54125d1a74ae808a5a22f6", "type": "electric_scooter", "is_reserved": 0, "lon": -77.0304005}, {"fusion_lat": 0.0, "name": "38148d161a57d5e967844b8011a89825", "is_disabled": 0, "rental_uris": {"android": "https://dc.lft.to/lastmile_qr_scan", "ios": "https://dc.lft.to/lastmile_qr_scan"}, "fusion_lon": 0.0, "lat": 38.9242055, "bike_id": "38148d161a57d5e967844b8011a89825", "type": "electric_scooter", "is_reserved": 0, "lon": -77.057473}, {"fusion_lat": 0.0, "name": "6f7ac9dc85d3bd3e34e41d9d60158032", "is_disabled": 0, "rental_uris": {"android": "https://dc.lft.to/lastmile_qr_scan", "ios": "https://dc.lft.to/lastmile_qr_scan"}, "fusion_lon": 0.0, "lat": 38.89808816666667, "bike_id": "6f7ac9dc85d3bd3e34e41d9d60158032", "type": "electric_scooter", "is_reserved": 0, "lon": -77.03030866666667}, {"fusion_lat": 0.0, "name": "523c31b57a4c458620acae8a2342912c", "is_disabled": 0, "rental_uris": {"android": "https://dc.lft.to/lastmile_qr_scan", "ios": "https://dc.lft.to/lastmile_qr_scan"}, "fusion_lon": 0.0, "lat": 38.900281166666666, "bike_id": "523c31b57a4c458620acae8a2342912c", "type": "electric_scooter", "is_reserved": 0, "lon": -77.01186316666667}, {"fusion_lat": 0.0, "name": "25377326db50107399d9f1c866103ea2", "is_disabled": 0, "rental_uris": {"android": "https://dc.lft.to/lastmile_qr_scan", "ios": "https://dc.lft.to/lastmile_qr_scan"}, "fusion_lon": 0.0, "lat": 38.91723983333333, "bike_id": "25377326db50107399d9f1c866103ea2", "type": "electric_scooter", "is_reserved": 0, "lon": -77.027076}, {"fusion_lat": 0.0, "name": "cf08849705155d193341f4296fadcd74", "is_disabled": 0, "rental_uris": {"android": "https://dc.lft.to/lastmile_qr_scan", "ios": "https://dc.lft.to/lastmile_qr_scan"}, "fusion_lon": 0.0, "lat": 38.961831333333336, "bike_id": "cf08849705155d193341f4296fadcd74", "type": "electric_bike", "is_reserved": 0, "lon": -77.05265733333333}, {"fusion_lat": 0.0, "name": "af765146e09ad45e18d1296d2e5c7c51", "is_disabled": 0, "rental_uris": {"android": "https://dc.lft.to/lastmile_qr_scan", "ios": "https://dc.lft.to/lastmile_qr_scan"}, "fusion_lon": 0.0, "lat": 38.886084, "bike_id": "af765146e09ad45e18d1296d2e5c7c51", "type": "electric_scooter", "is_reserved": 0, "lon": -76.99538933333334}, {"fusion_lat": 0.0, "name": "3c7351e8bb3c51292e243ffb54adbbc4", "is_disabled": 0, "rental_uris": {"android": "https://dc.lft.to/lastmile_qr_scan", "ios": "https://dc.lft.to/lastmile_qr_scan"}, "fusion_lon": 0.0, "lat": 38.9268005, "bike_id": "3c7351e8bb3c51292e243ffb54adbbc4", "type": "electric_scooter", "is_reserved": 0, "lon": -77.02888333333334}, {"fusion_lat": 0.0, "name": "1080f321eb48bf5cad9a276955c8be04", "is_disabled": 0, "rental_uris": {"android": "https://dc.lft.to/lastmile_qr_scan", "ios": "https://dc.lft.to/lastmile_qr_scan"}, "fusion_lon": 0.0, "lat": 38.88374183333333, "bike_id": "1080f321eb48bf5cad9a276955c8be04", "type": "electric_scooter", "is_reserved": 0, "lon": -76.9951795}, {"fusion_lat": 0.0, "name": "0e169bb59b671139b29fe6dddabb73cc", "is_disabled": 0, "rental_uris": {"android": "https://dc.lft.to/lastmile_qr_scan", "ios": "https://dc.lft.to/lastmile_qr_scan"}, "fusion_lon": 0.0, "lat": 38.93718366666667, "bike_id": "0e169bb59b671139b29fe6dddabb73cc", "type": "electric_scooter", "is_reserved": 0, "lon": -77.02380433333333}, {"fusion_lat": 0.0, "name": "b3f04549ec065291aa868609c2fe1dca", "is_disabled": 0, "rental_uris": {"android": "https://dc.lft.to/lastmile_qr_scan", "ios": "https://dc.lft.to/lastmile_qr_scan"}, "fusion_lon": 0.0, "lat": 38.96574616666667, "bike_id": "b3f04549ec065291aa868609c2fe1dca", "type": "electric_scooter", "is_reserved": 0, "lon": -77.00267533333333}, {"fusion_lat": 0.0, "name": "e200864ea51b32f66155f0e99a791d6b", "is_disabled": 0, "rental_uris": {"android": "https://dc.lft.to/lastmile_qr_scan", "ios": "https://dc.lft.to/lastmile_qr_scan"}, "fusion_lon": 0.0, "lat": 38.924349166666666, "bike_id": "e200864ea51b32f66155f0e99a791d6b", "type": "electric_scooter", "is_reserved": 0, "lon": -77.044602}, {"fusion_lat": 0.0, "name": "13059a6bb3cf2eb17a8622094579ecee", "is_disabled": 0, "rental_uris": {"android": "https://dc.lft.to/lastmile_qr_scan", "ios": "https://dc.lft.to/lastmile_qr_scan"}, "fusion_lon": 0.0, "lat": 38.89564216666667, "bike_id": "13059a6bb3cf2eb17a8622094579ecee", "type": "electric_scooter", "is_reserved": 0, "lon": -76.94875366666666}, {"fusion_lat": 0.0, "name": "1066d40dcad49d22d1bab647bab3fa12", "is_disabled": 0, "rental_uris": {"android": "https://dc.lft.to/lastmile_qr_scan", "ios": "https://dc.lft.to/lastmile_qr_scan"}, "fusion_lon": 0.0, "lat": 38.867368, "bike_id": "1066d40dcad49d22d1bab647bab3fa12", "type": "electric_scooter", "is_reserved": 0, "lon": -76.98791266666667}, {"fusion_lat": 0.0, "name": "66fe4d08e217e4fe8513cbee3b42bdab", "is_disabled": 0, "rental_uris": {"android": "https://dc.lft.to/lastmile_qr_scan", "ios": "https://dc.lft.to/lastmile_qr_scan"}, "fusion_lon": 0.0, "lat": 38.8972305, "bike_id": "66fe4d08e217e4fe8513cbee3b42bdab", "type": "electric_scooter", "is_reserved": 0, "lon": -77.01293583333333}, {"fusion_lat": 0.0, "name": "0c6274c223c7c7469aa041011837a8a0", "is_disabled": 0, "rental_uris": {"android": "https://dc.lft.to/lastmile_qr_scan", "ios": "https://dc.lft.to/lastmile_qr_scan"}, "fusion_lon": 0.0, "lat": 38.87369483333333, "bike_id": "0c6274c223c7c7469aa041011837a8a0", "type": "electric_scooter", "is_reserved": 0, "lon": -77.00129983333333}, {"fusion_lat": 0.0, "name": "8a0d2bbd69135c5dc31869a75d64a862", "is_disabled": 0, "rental_uris": {"android": "https://dc.lft.to/lastmile_qr_scan", "ios": "https://dc.lft.to/lastmile_qr_scan"}, "fusion_lon": 0.0, "lat": 38.892352, "bike_id": "8a0d2bbd69135c5dc31869a75d64a862", "type": "electric_scooter", "is_reserved": 0, "lon": -77.0238245}, {"fusion_lat": 0.0, "name": "a8c75e8915ef98ed89178777fe14149d", "is_disabled": 0, "rental_uris": {"android": "https://dc.lft.to/lastmile_qr_scan", "ios": "https://dc.lft.to/lastmile_qr_scan"}, "fusion_lon": 0.0, "lat": 38.902075333333336, "bike_id": "a8c75e8915ef98ed89178777fe14149d", "type": "electric_scooter", "is_reserved": 0, "lon": -77.0275065}, {"fusion_lat": 0.0, "name": "7453814cf3bac6af8e50874c6f1fdb83", "is_disabled": 0, "rental_uris": {"android": "https://dc.lft.to/lastmile_qr_scan", "ios": "https://dc.lft.to/lastmile_qr_scan"}, "fusion_lon": 0.0, "lat": 38.920290333333334, "bike_id": "7453814cf3bac6af8e50874c6f1fdb83", "type": "electric_scooter", "is_reserved": 0, "lon": -77.010254}, {"fusion_lat": 0.0, "name": "664cd737a14ed2608f1fd3a135814b83", "is_disabled": 0, "rental_uris": {"android": "https://dc.lft.to/lastmile_qr_scan", "ios": "https://dc.lft.to/lastmile_qr_scan"}, "fusion_lon": 0.0, "lat": 38.90844583333333, "bike_id": "664cd737a14ed2608f1fd3a135814b83", "type": "electric_scooter", "is_reserved": 0, "lon": -77.03295183333333}, {"fusion_lat": 0.0, "name": "68e0bd45c1b763f439d8fb4b7d1cf126", "is_disabled": 0, "rental_uris": {"android": "https://dc.lft.to/lastmile_qr_scan", "ios": "https://dc.lft.to/lastmile_qr_scan"}, "fusion_lon": 0.0, "lat": 38.923647333333335, "bike_id": "68e0bd45c1b763f439d8fb4b7d1cf126", "type": "electric_scooter", "is_reserved": 0, "lon": -77.05056016666667}, {"fusion_lat": 0.0, "name": "b2fe2aa9c0e5d7befcdf8d127e5e3c2e", "is_disabled": 0, "rental_uris": {"android": "https://dc.lft.to/lastmile_qr_scan", "ios": "https://dc.lft.to/lastmile_qr_scan"}, "fusion_lon": 0.0, "lat": 38.899694833333335, "bike_id": "b2fe2aa9c0e5d7befcdf8d127e5e3c2e", "type": "electric_scooter", "is_reserved": 0, "lon": -76.93761633333334}, {"fusion_lat": 0.0, "name": "5c6a716096fe44c5c497b2ed69464d74", "is_disabled": 0, "rental_uris": {"android": "https://dc.lft.to/lastmile_qr_scan", "ios": "https://dc.lft.to/lastmile_qr_scan"}, "fusion_lon": 0.0, "lat": 38.905964166666664, "bike_id": "5c6a716096fe44c5c497b2ed69464d74", "type": "electric_scooter", "is_reserved": 0, "lon": -77.00266533333334}, {"fusion_lat": 0.0, "name": "a2041f59b4b270044412a9080113f8c2", "is_disabled": 0, "rental_uris": {"android": "https://dc.lft.to/lastmile_qr_scan", "ios": "https://dc.lft.to/lastmile_qr_scan"}, "fusion_lon": 0.0, "lat": 38.896846333333336, "bike_id": "a2041f59b4b270044412a9080113f8c2", "type": "electric_scooter", "is_reserved": 0, "lon": -76.937126}, {"fusion_lat": 0.0, "name": "4a0b293406ff5de3e637958f4f5d2c34", "is_disabled": 0, "rental_uris": {"android": "https://dc.lft.to/lastmile_qr_scan", "ios": "https://dc.lft.to/lastmile_qr_scan"}, "fusion_lon": 0.0, "lat": 38.95057033333333, "bike_id": "4a0b293406ff5de3e637958f4f5d2c34", "type": "electric_scooter", "is_reserved": 0, "lon": -77.0802605}, {"fusion_lat": 0.0, "name": "72a9ed3a2b766bc3c3ac6028a16d7b38", "is_disabled": 0, "rental_uris": {"android": "https://dc.lft.to/lastmile_qr_scan", "ios": "https://dc.lft.to/lastmile_qr_scan"}, "fusion_lon": 0.0, "lat": 38.8996205, "bike_id": "72a9ed3a2b766bc3c3ac6028a16d7b38", "type": "electric_scooter", "is_reserved": 0, "lon": -77.02716383333333}, {"fusion_lat": 0.0, "name": "d9123a364fda0239d61bb01f4570bf6e", "is_disabled": 0, "rental_uris": {"android": "https://dc.lft.to/lastmile_qr_scan", "ios": "https://dc.lft.to/lastmile_qr_scan"}, "fusion_lon": 0.0, "lat": 38.918209166666664, "bike_id": "d9123a364fda0239d61bb01f4570bf6e", "type": "electric_scooter", "is_reserved": 0, "lon": -77.027024}, {"fusion_lat": 0.0, "name": "7c5d1d881522395809c6da3f9721aa51", "is_disabled": 0, "rental_uris": {"android": "https://dc.lft.to/lastmile_qr_scan", "ios": "https://dc.lft.to/lastmile_qr_scan"}, "fusion_lon": 0.0, "lat": 38.924113, "bike_id": "7c5d1d881522395809c6da3f9721aa51", "type": "electric_scooter", "is_reserved": 0, "lon": -77.05254883333333}, {"fusion_lat": 0.0, "name": "461310a94274d1a513bb53b97a48f1cc", "is_disabled": 0, "rental_uris": {"android": "https://dc.lft.to/lastmile_qr_scan", "ios": "https://dc.lft.to/lastmile_qr_scan"}, "fusion_lon": 0.0, "lat": 38.9174995, "bike_id": "461310a94274d1a513bb53b97a48f1cc", "type": "electric_scooter", "is_reserved": 0, "lon": -77.02587966666667}, {"fusion_lat": 0.0, "name": "4105e9f3b6e82838fcc040fb9d8a3b76", "is_disabled": 0, "rental_uris": {"android": "https://dc.lft.to/lastmile_qr_scan", "ios": "https://dc.lft.to/lastmile_qr_scan"}, "fusion_lon": 0.0, "lat": 38.90582333333333, "bike_id": "4105e9f3b6e82838fcc040fb9d8a3b76", "type": "electric_scooter", "is_reserved": 0, "lon": -77.008923}, {"fusion_lat": 0.0, "name": "c3d4c39a4b11445c77739b7a291505fb", "is_disabled": 0, "rental_uris": {"android": "https://dc.lft.to/lastmile_qr_scan", "ios": "https://dc.lft.to/lastmile_qr_scan"}, "fusion_lon": 0.0, "lat": 38.91686883333333, "bike_id": "c3d4c39a4b11445c77739b7a291505fb", "type": "electric_scooter", "is_reserved": 0, "lon": -77.0228825}, {"fusion_lat": 0.0, "name": "5eda1a65a08672789d6144fe4c1e0450", "is_disabled": 0, "rental_uris": {"android": "https://dc.lft.to/lastmile_qr_scan", "ios": "https://dc.lft.to/lastmile_qr_scan"}, "fusion_lon": 0.0, "lat": 38.93539216666667, "bike_id": "5eda1a65a08672789d6144fe4c1e0450", "type": "electric_scooter", "is_reserved": 0, "lon": -77.057493}, {"fusion_lat": 0.0, "name": "5bbfba3ec5249b70d1f995ac5f670bcf", "is_disabled": 0, "rental_uris": {"android": "https://dc.lft.to/lastmile_qr_scan", "ios": "https://dc.lft.to/lastmile_qr_scan"}, "fusion_lon": 0.0, "lat": 38.916336333333334, "bike_id": "5bbfba3ec5249b70d1f995ac5f670bcf", "type": "electric_scooter", "is_reserved": 0, "lon": -77.03210816666666}, {"fusion_lat": 0.0, "name": "d4df6b3d9dfdcc57ad02b00fd0c51431", "is_disabled": 0, "rental_uris": {"android": "https://dc.lft.to/lastmile_qr_scan", "ios": "https://dc.lft.to/lastmile_qr_scan"}, "fusion_lon": 0.0, "lat": 38.875803166666664, "bike_id": "d4df6b3d9dfdcc57ad02b00fd0c51431", "type": "electric_bike", "is_reserved": 0, "lon": -77.23412266666666}, {"fusion_lat": 0.0, "name": "c16ba62c22c1ce419806e7c74583a852", "is_disabled": 0, "rental_uris": {"android": "https://dc.lft.to/lastmile_qr_scan", "ios": "https://dc.lft.to/lastmile_qr_scan"}, "fusion_lon": 0.0, "lat": 38.911041166666664, "bike_id": "c16ba62c22c1ce419806e7c74583a852", "type": "electric_scooter", "is_reserved": 0, "lon": -77.042032}, {"fusion_lat": 0.0, "name": "cf5a9c95a1371724a956a547ce138be2", "is_disabled": 0, "rental_uris": {"android": "https://dc.lft.to/lastmile_qr_scan", "ios": "https://dc.lft.to/lastmile_qr_scan"}, "fusion_lon": 0.0, "lat": 38.921501, "bike_id": "cf5a9c95a1371724a956a547ce138be2", "type": "electric_scooter", "is_reserved": 0, "lon": -77.04010583333333}, {"fusion_lat": 0.0, "name": "03a547a75bc16257dd6ca63ec6e632fa", "is_disabled": 0, "rental_uris": {"android": "https://dc.lft.to/lastmile_qr_scan", "ios": "https://dc.lft.to/lastmile_qr_scan"}, "fusion_lon": 0.0, "lat": 38.94179366666667, "bike_id": "03a547a75bc16257dd6ca63ec6e632fa", "type": "electric_scooter", "is_reserved": 0, "lon": -77.036558}, {"fusion_lat": 0.0, "name": "c9c6fa5afa24a70b3ff59472766d81c4", "is_disabled": 0, "rental_uris": {"android": "https://dc.lft.to/lastmile_qr_scan", "ios": "https://dc.lft.to/lastmile_qr_scan"}, "fusion_lon": 0.0, "lat": 38.903945666666665, "bike_id": "c9c6fa5afa24a70b3ff59472766d81c4", "type": "electric_scooter", "is_reserved": 0, "lon": -76.99010933333334}, {"fusion_lat": 0.0, "name": "4b814c1e2177141d923c65f88c8c5678", "is_disabled": 0, "rental_uris": {"android": "https://dc.lft.to/lastmile_qr_scan", "ios": "https://dc.lft.to/lastmile_qr_scan"}, "fusion_lon": 0.0, "lat": 38.88366116666667, "bike_id": "4b814c1e2177141d923c65f88c8c5678", "type": "electric_scooter", "is_reserved": 0, "lon": -77.01953983333334}, {"fusion_lat": 0.0, "name": "c8a5266f7ece9ac567d1771f00604d9a", "is_disabled": 0, "rental_uris": {"android": "https://dc.lft.to/lastmile_qr_scan", "ios": "https://dc.lft.to/lastmile_qr_scan"}, "fusion_lon": 0.0, "lat": 38.918085833333336, "bike_id": "c8a5266f7ece9ac567d1771f00604d9a", "type": "electric_scooter", "is_reserved": 0, "lon": -77.040283}, {"fusion_lat": 0.0, "name": "69bec27cd36f547c93ba80db28b2392b", "is_disabled": 0, "rental_uris": {"android": "https://dc.lft.to/lastmile_qr_scan", "ios": "https://dc.lft.to/lastmile_qr_scan"}, "fusion_lon": 0.0, "lat": 38.91821783333333, "bike_id": "69bec27cd36f547c93ba80db28b2392b", "type": "electric_scooter", "is_reserved": 0, "lon": -77.04000683333334}, {"fusion_lat": 0.0, "name": "548f1b45af3fffe6046832754cf37fa1", "is_disabled": 0, "rental_uris": {"android": "https://dc.lft.to/lastmile_qr_scan", "ios": "https://dc.lft.to/lastmile_qr_scan"}, "fusion_lon": 0.0, "lat": 38.89544083333333, "bike_id": "548f1b45af3fffe6046832754cf37fa1", "type": "electric_scooter", "is_reserved": 0, "lon": -76.98336366666666}, {"fusion_lat": 0.0, "name": "62d162cbb83dde35ca9b8e1c8d0b6391", "is_disabled": 0, "rental_uris": {"android": "https://dc.lft.to/lastmile_qr_scan", "ios": "https://dc.lft.to/lastmile_qr_scan"}, "fusion_lon": 0.0, "lat": 38.901017333333336, "bike_id": "62d162cbb83dde35ca9b8e1c8d0b6391", "type": "electric_scooter", "is_reserved": 0, "lon": -77.05014283333334}, {"fusion_lat": 0.0, "name": "5ad745d5655f11bf0c62c386884e4cd5", "is_disabled": 0, "rental_uris": {"android": "https://dc.lft.to/lastmile_qr_scan", "ios": "https://dc.lft.to/lastmile_qr_scan"}, "fusion_lon": 0.0, "lat": 38.9020225, "bike_id": "5ad745d5655f11bf0c62c386884e4cd5", "type": "electric_scooter", "is_reserved": 0, "lon": -77.0237225}, {"fusion_lat": 0.0, "name": "4c3a9a76448348f04e55904ec1b03b38", "is_disabled": 0, "rental_uris": {"android": "https://dc.lft.to/lastmile_qr_scan", "ios": "https://dc.lft.to/lastmile_qr_scan"}, "fusion_lon": 0.0, "lat": 38.858049666666666, "bike_id": "4c3a9a76448348f04e55904ec1b03b38", "type": "electric_bike", "is_reserved": 0, "lon": -76.98730333333333}, {"fusion_lat": 0.0, "name": "c32f0fe47d89566773dcafd5a913fbc0", "is_disabled": 0, "rental_uris": {"android": "https://dc.lft.to/lastmile_qr_scan", "ios": "https://dc.lft.to/lastmile_qr_scan"}, "fusion_lon": 0.0, "lat": 38.8960225, "bike_id": "c32f0fe47d89566773dcafd5a913fbc0", "type": "electric_scooter", "is_reserved": 0, "lon": -77.0092945}, {"fusion_lat": 0.0, "name": "01f16bb8b9fb3a33a45de53ee612301f", "is_disabled": 0, "rental_uris": {"android": "https://dc.lft.to/lastmile_qr_scan", "ios": "https://dc.lft.to/lastmile_qr_scan"}, "fusion_lon": 0.0, "lat": 38.8961985, "bike_id": "01f16bb8b9fb3a33a45de53ee612301f", "type": "electric_scooter", "is_reserved": 0, "lon": -77.02691766666666}, {"fusion_lat": 0.0, "name": "f93bbc842f70c39446772aedf5ffb704", "is_disabled": 0, "rental_uris": {"android": "https://dc.lft.to/lastmile_qr_scan", "ios": "https://dc.lft.to/lastmile_qr_scan"}, "fusion_lon": 0.0, "lat": 38.821824, "bike_id": "f93bbc842f70c39446772aedf5ffb704", "type": "electric_bike", "is_reserved": 0, "lon": -77.00140833333333}, {"fusion_lat": 0.0, "name": "abe4087b75fb6a2bddd871d49cbca242", "is_disabled": 0, "rental_uris": {"android": "https://dc.lft.to/lastmile_qr_scan", "ios": "https://dc.lft.to/lastmile_qr_scan"}, "fusion_lon": 0.0, "lat": 38.9176875, "bike_id": "abe4087b75fb6a2bddd871d49cbca242", "type": "electric_scooter", "is_reserved": 0, "lon": -77.0147515}, {"fusion_lat": 0.0, "name": "e425cd7a32aac6e7a6275cec251c5074", "is_disabled": 0, "rental_uris": {"android": "https://dc.lft.to/lastmile_qr_scan", "ios": "https://dc.lft.to/lastmile_qr_scan"}, "fusion_lon": 0.0, "lat": 38.910329, "bike_id": "e425cd7a32aac6e7a6275cec251c5074", "type": "electric_scooter", "is_reserved": 0, "lon": -76.99343883333333}, {"fusion_lat": 0.0, "name": "23a122fe0027ea64d37cf24991d9223a", "is_disabled": 0, "rental_uris": {"android": "https://dc.lft.to/lastmile_qr_scan", "ios": "https://dc.lft.to/lastmile_qr_scan"}, "fusion_lon": 0.0, "lat": 38.86255716666667, "bike_id": "23a122fe0027ea64d37cf24991d9223a", "type": "electric_bike", "is_reserved": 0, "lon": -76.983356}, {"fusion_lat": 0.0, "name": "f0c0e47ede36732510675dd408e96ecd", "is_disabled": 0, "rental_uris": {"android": "https://dc.lft.to/lastmile_qr_scan", "ios": "https://dc.lft.to/lastmile_qr_scan"}, "fusion_lon": 0.0, "lat": 38.8984715, "bike_id": "f0c0e47ede36732510675dd408e96ecd", "type": "electric_scooter", "is_reserved": 0, "lon": -77.02195366666666}, {"fusion_lat": 0.0, "name": "597882b5dad3f22b97922d55ee1007c7", "is_disabled": 0, "rental_uris": {"android": "https://dc.lft.to/lastmile_qr_scan", "ios": "https://dc.lft.to/lastmile_qr_scan"}, "fusion_lon": 0.0, "lat": 38.8715665, "bike_id": "597882b5dad3f22b97922d55ee1007c7", "type": "electric_bike", "is_reserved": 0, "lon": -77.13146683333333}, {"fusion_lat": 0.0, "name": "3005257d719e73372a23d44ba6ea1d57", "is_disabled": 0, "rental_uris": {"android": "https://dc.lft.to/lastmile_qr_scan", "ios": "https://dc.lft.to/lastmile_qr_scan"}, "fusion_lon": 0.0, "lat": 38.9309595, "bike_id": "3005257d719e73372a23d44ba6ea1d57", "type": "electric_scooter", "is_reserved": 0, "lon": -77.03439266666666}, {"fusion_lat": 0.0, "name": "90a2bf3f9963c3dcaa2b7e67bbc14369", "is_disabled": 0, "rental_uris": {"android": "https://dc.lft.to/lastmile_qr_scan", "ios": "https://dc.lft.to/lastmile_qr_scan"}, "fusion_lon": 0.0, "lat": 38.8756145, "bike_id": "90a2bf3f9963c3dcaa2b7e67bbc14369", "type": "electric_scooter", "is_reserved": 0, "lon": -77.00607733333334}, {"fusion_lat": 0.0, "name": "a00b5d2ba23a9b813335c9e6ca263bdc", "is_disabled": 0, "rental_uris": {"android": "https://dc.lft.to/lastmile_qr_scan", "ios": "https://dc.lft.to/lastmile_qr_scan"}, "fusion_lon": 0.0, "lat": 38.925314666666665, "bike_id": "a00b5d2ba23a9b813335c9e6ca263bdc", "type": "electric_bike", "is_reserved": 0, "lon": -77.05091066666667}, {"fusion_lat": 0.0, "name": "711cb7ea44ff9fab411852cd62ef5e9a", "is_disabled": 0, "rental_uris": {"android": "https://dc.lft.to/lastmile_qr_scan", "ios": "https://dc.lft.to/lastmile_qr_scan"}, "fusion_lon": 0.0, "lat": 38.905099666666665, "bike_id": "711cb7ea44ff9fab411852cd62ef5e9a", "type": "electric_scooter", "is_reserved": 0, "lon": -77.06379716666666}, {"fusion_lat": 0.0, "name": "5e5106e1642727568ad57a261f819eff", "is_disabled": 0, "rental_uris": {"android": "https://dc.lft.to/lastmile_qr_scan", "ios": "https://dc.lft.to/lastmile_qr_scan"}, "fusion_lon": 0.0, "lat": 38.892223, "bike_id": "5e5106e1642727568ad57a261f819eff", "type": "electric_scooter", "is_reserved": 0, "lon": -77.04503316666667}, {"fusion_lat": 0.0, "name": "f15811b5f891ddb52979433ca41672e7", "is_disabled": 0, "rental_uris": {"android": "https://dc.lft.to/lastmile_qr_scan", "ios": "https://dc.lft.to/lastmile_qr_scan"}, "fusion_lon": 0.0, "lat": 38.8988165, "bike_id": "f15811b5f891ddb52979433ca41672e7", "type": "electric_scooter", "is_reserved": 0, "lon": -77.00900916666667}, {"fusion_lat": 0.0, "name": "08e804b33164c948c419aee8021d060b", "is_disabled": 0, "rental_uris": {"android": "https://dc.lft.to/lastmile_qr_scan", "ios": "https://dc.lft.to/lastmile_qr_scan"}, "fusion_lon": 0.0, "lat": 38.92135916666667, "bike_id": "08e804b33164c948c419aee8021d060b", "type": "electric_scooter", "is_reserved": 0, "lon": -77.04422216666667}, {"fusion_lat": 0.0, "name": "ae1c2252080898cdb9290625e70411ac", "is_disabled": 0, "rental_uris": {"android": "https://dc.lft.to/lastmile_qr_scan", "ios": "https://dc.lft.to/lastmile_qr_scan"}, "fusion_lon": 0.0, "lat": 38.90371566666666, "bike_id": "ae1c2252080898cdb9290625e70411ac", "type": "electric_scooter", "is_reserved": 0, "lon": -77.04330783333333}, {"fusion_lat": 0.0, "name": "eb530c6ad5cea2c9aadbbc1dbb0ef4a2", "is_disabled": 0, "rental_uris": {"android": "https://dc.lft.to/lastmile_qr_scan", "ios": "https://dc.lft.to/lastmile_qr_scan"}, "fusion_lon": 0.0, "lat": 38.915349666666664, "bike_id": "eb530c6ad5cea2c9aadbbc1dbb0ef4a2", "type": "electric_scooter", "is_reserved": 0, "lon": -77.03191266666667}, {"fusion_lat": 0.0, "name": "3338e21ed9ebb6a67c23a711dd2c8b43", "is_disabled": 0, "rental_uris": {"android": "https://dc.lft.to/lastmile_qr_scan", "ios": "https://dc.lft.to/lastmile_qr_scan"}, "fusion_lon": 0.0, "lat": 38.90650216666667, "bike_id": "3338e21ed9ebb6a67c23a711dd2c8b43", "type": "electric_scooter", "is_reserved": 0, "lon": -77.04170116666667}, {"fusion_lat": 0.0, "name": "fa291b343e1e60668e74b731d845739e", "is_disabled": 0, "rental_uris": {"android": "https://dc.lft.to/lastmile_qr_scan", "ios": "https://dc.lft.to/lastmile_qr_scan"}, "fusion_lon": 0.0, "lat": 38.887428, "bike_id": "fa291b343e1e60668e74b731d845739e", "type": "electric_scooter", "is_reserved": 0, "lon": -77.0213}, {"fusion_lat": 0.0, "name": "152c88e30cb4e573c200ba58abdd2edc", "is_disabled": 0, "rental_uris": {"android": "https://dc.lft.to/lastmile_qr_scan", "ios": "https://dc.lft.to/lastmile_qr_scan"}, "fusion_lon": 0.0, "lat": 38.902938166666665, "bike_id": "152c88e30cb4e573c200ba58abdd2edc", "type": "electric_scooter", "is_reserved": 0, "lon": -77.0163045}, {"fusion_lat": 0.0, "name": "a4e06453192b1be020bc7da8e0719c98", "is_disabled": 0, "rental_uris": {"android": "https://dc.lft.to/lastmile_qr_scan", "ios": "https://dc.lft.to/lastmile_qr_scan"}, "fusion_lon": 0.0, "lat": 38.9216335, "bike_id": "a4e06453192b1be020bc7da8e0719c98", "type": "electric_scooter", "is_reserved": 0, "lon": -77.03267216666667}, {"fusion_lat": 0.0, "name": "55ed70d4a5281e489f96e4cbefb4191f", "is_disabled": 0, "rental_uris": {"android": "https://dc.lft.to/lastmile_qr_scan", "ios": "https://dc.lft.to/lastmile_qr_scan"}, "fusion_lon": 0.0, "lat": 38.925858, "bike_id": "55ed70d4a5281e489f96e4cbefb4191f", "type": "electric_scooter", "is_reserved": 0, "lon": -77.02976766666667}, {"fusion_lat": 0.0, "name": "f82ff940f238654e191fc3087cbde3bc", "is_disabled": 0, "rental_uris": {"android": "https://dc.lft.to/lastmile_qr_scan", "ios": "https://dc.lft.to/lastmile_qr_scan"}, "fusion_lon": 0.0, "lat": 38.924471833333335, "bike_id": "f82ff940f238654e191fc3087cbde3bc", "type": "electric_scooter", "is_reserved": 0, "lon": -77.03969883333333}, {"fusion_lat": 0.0, "name": "9c04037dc3c832b7f8dc209c486ddbb8", "is_disabled": 0, "rental_uris": {"android": "https://dc.lft.to/lastmile_qr_scan", "ios": "https://dc.lft.to/lastmile_qr_scan"}, "fusion_lon": 0.0, "lat": 38.91715333333333, "bike_id": "9c04037dc3c832b7f8dc209c486ddbb8", "type": "electric_scooter", "is_reserved": 0, "lon": -77.023998}, {"fusion_lat": 0.0, "name": "91e09bcd21039d940e3ab68e8c81f8f1", "is_disabled": 0, "rental_uris": {"android": "https://dc.lft.to/lastmile_qr_scan", "ios": "https://dc.lft.to/lastmile_qr_scan"}, "fusion_lon": 0.0, "lat": 38.905176, "bike_id": "91e09bcd21039d940e3ab68e8c81f8f1", "type": "electric_scooter", "is_reserved": 0, "lon": -77.051404}, {"fusion_lat": 0.0, "name": "bd8a0c4e8a7928a5dc8f6cbb63140a8f", "is_disabled": 0, "rental_uris": {"android": "https://dc.lft.to/lastmile_qr_scan", "ios": "https://dc.lft.to/lastmile_qr_scan"}, "fusion_lon": 0.0, "lat": 38.924463833333334, "bike_id": "bd8a0c4e8a7928a5dc8f6cbb63140a8f", "type": "electric_scooter", "is_reserved": 0, "lon": -77.02227533333334}, {"fusion_lat": 0.0, "name": "f2a4d800b59226b1fc90a92578804cfb", "is_disabled": 0, "rental_uris": {"android": "https://dc.lft.to/lastmile_qr_scan", "ios": "https://dc.lft.to/lastmile_qr_scan"}, "fusion_lon": 0.0, "lat": 38.94185566666667, "bike_id": "f2a4d800b59226b1fc90a92578804cfb", "type": "electric_scooter", "is_reserved": 0, "lon": -77.0248855}, {"fusion_lat": 0.0, "name": "1a956847f1c815134e91216741f61519", "is_disabled": 0, "rental_uris": {"android": "https://dc.lft.to/lastmile_qr_scan", "ios": "https://dc.lft.to/lastmile_qr_scan"}, "fusion_lon": 0.0, "lat": 38.917136666666664, "bike_id": "1a956847f1c815134e91216741f61519", "type": "electric_scooter", "is_reserved": 0, "lon": -77.0240165}, {"fusion_lat": 0.0, "name": "aceb98bba39532853d305e24c34e5176", "is_disabled": 0, "rental_uris": {"android": "https://dc.lft.to/lastmile_qr_scan", "ios": "https://dc.lft.to/lastmile_qr_scan"}, "fusion_lon": 0.0, "lat": 38.87367, "bike_id": "aceb98bba39532853d305e24c34e5176", "type": "electric_scooter", "is_reserved": 0, "lon": -77.000428}, {"fusion_lat": 0.0, "name": "39ccc0903d5319baeb1b88e079a9f7e0", "is_disabled": 0, "rental_uris": {"android": "https://dc.lft.to/lastmile_qr_scan", "ios": "https://dc.lft.to/lastmile_qr_scan"}, "fusion_lon": 0.0, "lat": 38.912594, "bike_id": "39ccc0903d5319baeb1b88e079a9f7e0", "type": "electric_scooter", "is_reserved": 0, "lon": -77.03580183333334}, {"fusion_lat": 0.0, "name": "4771c960b6356745596b5b6211e2f50d", "is_disabled": 0, "rental_uris": {"android": "https://dc.lft.to/lastmile_qr_scan", "ios": "https://dc.lft.to/lastmile_qr_scan"}, "fusion_lon": 0.0, "lat": 38.92053216666667, "bike_id": "4771c960b6356745596b5b6211e2f50d", "type": "electric_scooter", "is_reserved": 0, "lon": -77.033936}, {"fusion_lat": 0.0, "name": "0717cc6985f48c320d756f80e8dc7433", "is_disabled": 0, "rental_uris": {"android": "https://dc.lft.to/lastmile_qr_scan", "ios": "https://dc.lft.to/lastmile_qr_scan"}, "fusion_lon": 0.0, "lat": 38.900676, "bike_id": "0717cc6985f48c320d756f80e8dc7433", "type": "electric_scooter", "is_reserved": 0, "lon": -77.05023633333333}, {"fusion_lat": 0.0, "name": "63e6b480c8aed058d512f8773aeccc53", "is_disabled": 0, "rental_uris": {"android": "https://dc.lft.to/lastmile_qr_scan", "ios": "https://dc.lft.to/lastmile_qr_scan"}, "fusion_lon": 0.0, "lat": 38.90749816666667, "bike_id": "63e6b480c8aed058d512f8773aeccc53", "type": "electric_scooter", "is_reserved": 0, "lon": -77.02385616666666}, {"fusion_lat": 0.0, "name": "807f9753dec0eecf78b9449064ea59a1", "is_disabled": 0, "rental_uris": {"android": "https://dc.lft.to/lastmile_qr_scan", "ios": "https://dc.lft.to/lastmile_qr_scan"}, "fusion_lon": 0.0, "lat": 38.90703516666667, "bike_id": "807f9753dec0eecf78b9449064ea59a1", "type": "electric_scooter", "is_reserved": 0, "lon": -77.04163033333333}, {"fusion_lat": 0.0, "name": "13e301483ccd80ccf642f516eb8ebaea", "is_disabled": 0, "rental_uris": {"android": "https://dc.lft.to/lastmile_qr_scan", "ios": "https://dc.lft.to/lastmile_qr_scan"}, "fusion_lon": 0.0, "lat": 38.930619166666666, "bike_id": "13e301483ccd80ccf642f516eb8ebaea", "type": "electric_scooter", "is_reserved": 0, "lon": -77.0321705}, {"fusion_lat": 0.0, "name": "d3ffd718863c309d6153ed47090bda28", "is_disabled": 0, "rental_uris": {"android": "https://dc.lft.to/lastmile_qr_scan", "ios": "https://dc.lft.to/lastmile_qr_scan"}, "fusion_lon": 0.0, "lat": 38.81862783333333, "bike_id": "d3ffd718863c309d6153ed47090bda28", "type": "electric_bike", "is_reserved": 0, "lon": -77.12708016666667}, {"fusion_lat": 0.0, "name": "1c31ae5c9c46c872ec64189449aa7bd7", "is_disabled": 0, "rental_uris": {"android": "https://dc.lft.to/lastmile_qr_scan", "ios": "https://dc.lft.to/lastmile_qr_scan"}, "fusion_lon": 0.0, "lat": 38.919159, "bike_id": "1c31ae5c9c46c872ec64189449aa7bd7", "type": "electric_scooter", "is_reserved": 0, "lon": -77.03092366666667}, {"fusion_lat": 0.0, "name": "267b5417cbd524ef4df50f559ea4eb8a", "is_disabled": 0, "rental_uris": {"android": "https://dc.lft.to/lastmile_qr_scan", "ios": "https://dc.lft.to/lastmile_qr_scan"}, "fusion_lon": 0.0, "lat": 38.8972165, "bike_id": "267b5417cbd524ef4df50f559ea4eb8a", "type": "electric_scooter", "is_reserved": 0, "lon": -77.04399533333333}, {"fusion_lat": 0.0, "name": "09bfa56a1b72e922015076fcec78b067", "is_disabled": 0, "rental_uris": {"android": "https://dc.lft.to/lastmile_qr_scan", "ios": "https://dc.lft.to/lastmile_qr_scan"}, "fusion_lon": 0.0, "lat": 38.878336833333336, "bike_id": "09bfa56a1b72e922015076fcec78b067", "type": "electric_scooter", "is_reserved": 0, "lon": -76.96323216666667}, {"fusion_lat": 0.0, "name": "df0e4e2e0fcedcfcfc47522351b208ac", "is_disabled": 0, "rental_uris": {"android": "https://dc.lft.to/lastmile_qr_scan", "ios": "https://dc.lft.to/lastmile_qr_scan"}, "fusion_lon": 0.0, "lat": 38.886989, "bike_id": "df0e4e2e0fcedcfcfc47522351b208ac", "type": "electric_bike", "is_reserved": 0, "lon": -76.99683616666667}, {"fusion_lat": 0.0, "name": "32356868b1aa3ec4e9e5de4f16e40bb9", "is_disabled": 0, "rental_uris": {"android": "https://dc.lft.to/lastmile_qr_scan", "ios": "https://dc.lft.to/lastmile_qr_scan"}, "fusion_lon": 0.0, "lat": 38.940851, "bike_id": "32356868b1aa3ec4e9e5de4f16e40bb9", "type": "electric_scooter", "is_reserved": 0, "lon": -77.02636516666666}, {"fusion_lat": 0.0, "name": "f785627847f711167c106c86feda45c5", "is_disabled": 0, "rental_uris": {"android": "https://dc.lft.to/lastmile_qr_scan", "ios": "https://dc.lft.to/lastmile_qr_scan"}, "fusion_lon": 0.0, "lat": 38.883999333333335, "bike_id": "f785627847f711167c106c86feda45c5", "type": "electric_scooter", "is_reserved": 0, "lon": -77.01976816666667}, {"fusion_lat": 0.0, "name": "1300fdf08c40105c5ed6adf2d2dbf7f7", "is_disabled": 0, "rental_uris": {"android": "https://dc.lft.to/lastmile_qr_scan", "ios": "https://dc.lft.to/lastmile_qr_scan"}, "fusion_lon": 0.0, "lat": 38.923145166666664, "bike_id": "1300fdf08c40105c5ed6adf2d2dbf7f7", "type": "electric_scooter", "is_reserved": 0, "lon": -77.04037933333333}, {"fusion_lat": 0.0, "name": "58487be35b6bc7e960afaaad8940db68", "is_disabled": 0, "rental_uris": {"android": "https://dc.lft.to/lastmile_qr_scan", "ios": "https://dc.lft.to/lastmile_qr_scan"}, "fusion_lon": 0.0, "lat": 38.91108916666666, "bike_id": "58487be35b6bc7e960afaaad8940db68", "type": "electric_scooter", "is_reserved": 0, "lon": -77.0315965}, {"fusion_lat": 0.0, "name": "87adc42d940c84889df4b2ee9cc150c7", "is_disabled": 0, "rental_uris": {"android": "https://dc.lft.to/lastmile_qr_scan", "ios": "https://dc.lft.to/lastmile_qr_scan"}, "fusion_lon": 0.0, "lat": 38.922248333333336, "bike_id": "87adc42d940c84889df4b2ee9cc150c7", "type": "electric_scooter", "is_reserved": 0, "lon": -77.021206}, {"fusion_lat": 0.0, "name": "cc64795ddb8523797c1cf5a872224c9a", "is_disabled": 0, "rental_uris": {"android": "https://dc.lft.to/lastmile_qr_scan", "ios": "https://dc.lft.to/lastmile_qr_scan"}, "fusion_lon": 0.0, "lat": 38.906484166666665, "bike_id": "cc64795ddb8523797c1cf5a872224c9a", "type": "electric_scooter", "is_reserved": 0, "lon": -77.03440316666666}, {"fusion_lat": 0.0, "name": "afe2971b78af8a8435ec83a1946a9960", "is_disabled": 0, "rental_uris": {"android": "https://dc.lft.to/lastmile_qr_scan", "ios": "https://dc.lft.to/lastmile_qr_scan"}, "fusion_lon": 0.0, "lat": 38.8601365, "bike_id": "afe2971b78af8a8435ec83a1946a9960", "type": "electric_scooter", "is_reserved": 0, "lon": -76.96704783333334}, {"fusion_lat": 0.0, "name": "4f0fabb2f63ac72bf68d7fdf5eb0c0b8", "is_disabled": 0, "rental_uris": {"android": "https://dc.lft.to/lastmile_qr_scan", "ios": "https://dc.lft.to/lastmile_qr_scan"}, "fusion_lon": 0.0, "lat": 38.90462133333333, "bike_id": "4f0fabb2f63ac72bf68d7fdf5eb0c0b8", "type": "electric_scooter", "is_reserved": 0, "lon": -77.028159}, {"fusion_lat": 0.0, "name": "18fd0f2c3462995221fc5d8961f3a7e0", "is_disabled": 0, "rental_uris": {"android": "https://dc.lft.to/lastmile_qr_scan", "ios": "https://dc.lft.to/lastmile_qr_scan"}, "fusion_lon": 0.0, "lat": 38.89431783333333, "bike_id": "18fd0f2c3462995221fc5d8961f3a7e0", "type": "electric_scooter", "is_reserved": 0, "lon": -77.02176383333334}, {"fusion_lat": 0.0, "name": "d6b35f6d6f57c1e0b591d06dcdebecd3", "is_disabled": 0, "rental_uris": {"android": "https://dc.lft.to/lastmile_qr_scan", "ios": "https://dc.lft.to/lastmile_qr_scan"}, "fusion_lon": 0.0, "lat": 38.93179416666667, "bike_id": "d6b35f6d6f57c1e0b591d06dcdebecd3", "type": "electric_scooter", "is_reserved": 0, "lon": -77.0200555}, {"fusion_lat": 0.0, "name": "24ea1cfabf545089fdb993e40b86184f", "is_disabled": 0, "rental_uris": {"android": "https://dc.lft.to/lastmile_qr_scan", "ios": "https://dc.lft.to/lastmile_qr_scan"}, "fusion_lon": 0.0, "lat": 38.899769, "bike_id": "24ea1cfabf545089fdb993e40b86184f", "type": "electric_scooter", "is_reserved": 0, "lon": -77.05267866666667}, {"fusion_lat": 0.0, "name": "9903b072055d2fe2c1fd57ecd46c36b1", "is_disabled": 0, "rental_uris": {"android": "https://dc.lft.to/lastmile_qr_scan", "ios": "https://dc.lft.to/lastmile_qr_scan"}, "fusion_lon": 0.0, "lat": 38.8729925, "bike_id": "9903b072055d2fe2c1fd57ecd46c36b1", "type": "electric_scooter", "is_reserved": 0, "lon": -76.97799866666666}, {"fusion_lat": 0.0, "name": "625dff35cd568237e314d480ff716192", "is_disabled": 0, "rental_uris": {"android": "https://dc.lft.to/lastmile_qr_scan", "ios": "https://dc.lft.to/lastmile_qr_scan"}, "fusion_lon": 0.0, "lat": 38.924687166666665, "bike_id": "625dff35cd568237e314d480ff716192", "type": "electric_scooter", "is_reserved": 0, "lon": -77.020736}, {"fusion_lat": 0.0, "name": "f90e9a136d6e148a02eaec0674dd7ccb", "is_disabled": 0, "rental_uris": {"android": "https://dc.lft.to/lastmile_qr_scan", "ios": "https://dc.lft.to/lastmile_qr_scan"}, "fusion_lon": 0.0, "lat": 38.90685966666667, "bike_id": "f90e9a136d6e148a02eaec0674dd7ccb", "type": "electric_scooter", "is_reserved": 0, "lon": -77.03813833333334}, {"fusion_lat": 0.0, "name": "28772c8b14885d150f7870b9fc727892", "is_disabled": 0, "rental_uris": {"android": "https://dc.lft.to/lastmile_qr_scan", "ios": "https://dc.lft.to/lastmile_qr_scan"}, "fusion_lon": 0.0, "lat": 38.901059000000004, "bike_id": "28772c8b14885d150f7870b9fc727892", "type": "electric_scooter", "is_reserved": 0, "lon": -76.93051316666667}, {"fusion_lat": 0.0, "name": "daf49078a557bc1825e05cc6a85faeb7", "is_disabled": 0, "rental_uris": {"android": "https://dc.lft.to/lastmile_qr_scan", "ios": "https://dc.lft.to/lastmile_qr_scan"}, "fusion_lon": 0.0, "lat": 38.9234145, "bike_id": "daf49078a557bc1825e05cc6a85faeb7", "type": "electric_scooter", "is_reserved": 0, "lon": -77.05220883333334}, {"fusion_lat": 0.0, "name": "f8100503dd7c703a38c9abc796e14051", "is_disabled": 0, "rental_uris": {"android": "https://dc.lft.to/lastmile_qr_scan", "ios": "https://dc.lft.to/lastmile_qr_scan"}, "fusion_lon": 0.0, "lat": 38.90801583333333, "bike_id": "f8100503dd7c703a38c9abc796e14051", "type": "electric_scooter", "is_reserved": 0, "lon": -77.0425795}, {"fusion_lat": 0.0, "name": "8a3ac16d37e05955345bfacafcffe3c2", "is_disabled": 0, "rental_uris": {"android": "https://dc.lft.to/lastmile_qr_scan", "ios": "https://dc.lft.to/lastmile_qr_scan"}, "fusion_lon": 0.0, "lat": 38.91125733333333, "bike_id": "8a3ac16d37e05955345bfacafcffe3c2", "type": "electric_scooter", "is_reserved": 0, "lon": -77.021979}, {"fusion_lat": 0.0, "name": "bc0c9c594552196ec6c564d8f4353b07", "is_disabled": 0, "rental_uris": {"android": "https://dc.lft.to/lastmile_qr_scan", "ios": "https://dc.lft.to/lastmile_qr_scan"}, "fusion_lon": 0.0, "lat": 38.930815833333334, "bike_id": "bc0c9c594552196ec6c564d8f4353b07", "type": "electric_scooter", "is_reserved": 0, "lon": -77.0199285}, {"fusion_lat": 0.0, "name": "ae8bc11e9cd1305e0b8de6931a6ab5ef", "is_disabled": 0, "rental_uris": {"android": "https://dc.lft.to/lastmile_qr_scan", "ios": "https://dc.lft.to/lastmile_qr_scan"}, "fusion_lon": 0.0, "lat": 38.956007166666666, "bike_id": "ae8bc11e9cd1305e0b8de6931a6ab5ef", "type": "electric_scooter", "is_reserved": 0, "lon": -77.033563}, {"fusion_lat": 0.0, "name": "07a51a98a5996a245a9476db1c55ad11", "is_disabled": 0, "rental_uris": {"android": "https://dc.lft.to/lastmile_qr_scan", "ios": "https://dc.lft.to/lastmile_qr_scan"}, "fusion_lon": 0.0, "lat": 38.900898833333336, "bike_id": "07a51a98a5996a245a9476db1c55ad11", "type": "electric_scooter", "is_reserved": 0, "lon": -76.983277}, {"fusion_lat": 0.0, "name": "8855967fc73516a4d97bc2eb477b7c46", "is_disabled": 0, "rental_uris": {"android": "https://dc.lft.to/lastmile_qr_scan", "ios": "https://dc.lft.to/lastmile_qr_scan"}, "fusion_lon": 0.0, "lat": 38.87966566666667, "bike_id": "8855967fc73516a4d97bc2eb477b7c46", "type": "electric_bike", "is_reserved": 0, "lon": -76.91615816666666}, {"fusion_lat": 0.0, "name": "d66cfec9cca701cb4442b9cfff92e298", "is_disabled": 0, "rental_uris": {"android": "https://dc.lft.to/lastmile_qr_scan", "ios": "https://dc.lft.to/lastmile_qr_scan"}, "fusion_lon": 0.0, "lat": 38.92246883333333, "bike_id": "d66cfec9cca701cb4442b9cfff92e298", "type": "electric_scooter", "is_reserved": 0, "lon": -77.0365715}, {"fusion_lat": 0.0, "name": "cc1f9cafc56b4bd75973eca3f02b0bab", "is_disabled": 0, "rental_uris": {"android": "https://dc.lft.to/lastmile_qr_scan", "ios": "https://dc.lft.to/lastmile_qr_scan"}, "fusion_lon": 0.0, "lat": 38.908107666666666, "bike_id": "cc1f9cafc56b4bd75973eca3f02b0bab", "type": "electric_scooter", "is_reserved": 0, "lon": -77.03450233333334}, {"fusion_lat": 0.0, "name": "b84a5491c398edcc36b70bfb16741426", "is_disabled": 0, "rental_uris": {"android": "https://dc.lft.to/lastmile_qr_scan", "ios": "https://dc.lft.to/lastmile_qr_scan"}, "fusion_lon": 0.0, "lat": 38.899073, "bike_id": "b84a5491c398edcc36b70bfb16741426", "type": "electric_scooter", "is_reserved": 0, "lon": -76.99152866666667}, {"fusion_lat": 0.0, "name": "aabc340af3388a593bc5e8f70fd4c794", "is_disabled": 0, "rental_uris": {"android": "https://dc.lft.to/lastmile_qr_scan", "ios": "https://dc.lft.to/lastmile_qr_scan"}, "fusion_lon": 0.0, "lat": 38.89970816666667, "bike_id": "aabc340af3388a593bc5e8f70fd4c794", "type": "electric_scooter", "is_reserved": 0, "lon": -77.01610566666666}, {"fusion_lat": 0.0, "name": "20add636844321481e8a5f928c01384c", "is_disabled": 0, "rental_uris": {"android": "https://dc.lft.to/lastmile_qr_scan", "ios": "https://dc.lft.to/lastmile_qr_scan"}, "fusion_lon": 0.0, "lat": 38.91708783333333, "bike_id": "20add636844321481e8a5f928c01384c", "type": "electric_scooter", "is_reserved": 0, "lon": -76.97664583333334}, {"fusion_lat": 0.0, "name": "ea3f09ca42f262c92e12b0b348f46a3c", "is_disabled": 0, "rental_uris": {"android": "https://dc.lft.to/lastmile_qr_scan", "ios": "https://dc.lft.to/lastmile_qr_scan"}, "fusion_lon": 0.0, "lat": 38.9077695, "bike_id": "ea3f09ca42f262c92e12b0b348f46a3c", "type": "electric_scooter", "is_reserved": 0, "lon": -77.0386135}, {"fusion_lat": 0.0, "name": "cda56fe94afd35fd4952737f9f96d5bc", "is_disabled": 0, "rental_uris": {"android": "https://dc.lft.to/lastmile_qr_scan", "ios": "https://dc.lft.to/lastmile_qr_scan"}, "fusion_lon": 0.0, "lat": 38.91925066666667, "bike_id": "cda56fe94afd35fd4952737f9f96d5bc", "type": "electric_scooter", "is_reserved": 0, "lon": -77.03221316666666}, {"fusion_lat": 0.0, "name": "2e332f76e76b4380cbd4bcdaafffa620", "is_disabled": 0, "rental_uris": {"android": "https://dc.lft.to/lastmile_qr_scan", "ios": "https://dc.lft.to/lastmile_qr_scan"}, "fusion_lon": 0.0, "lat": 38.9279505, "bike_id": "2e332f76e76b4380cbd4bcdaafffa620", "type": "electric_scooter", "is_reserved": 0, "lon": -77.02457183333334}, {"fusion_lat": 0.0, "name": "d583e09ce4db10d341843b3c1b9f9b03", "is_disabled": 0, "rental_uris": {"android": "https://dc.lft.to/lastmile_qr_scan", "ios": "https://dc.lft.to/lastmile_qr_scan"}, "fusion_lon": 0.0, "lat": 38.900104166666665, "bike_id": "d583e09ce4db10d341843b3c1b9f9b03", "type": "electric_scooter", "is_reserved": 0, "lon": -76.98808766666667}, {"fusion_lat": 0.0, "name": "baa46133e02318eee5b52ee9cc804195", "is_disabled": 0, "rental_uris": {"android": "https://dc.lft.to/lastmile_qr_scan", "ios": "https://dc.lft.to/lastmile_qr_scan"}, "fusion_lon": 0.0, "lat": 38.92863583333333, "bike_id": "baa46133e02318eee5b52ee9cc804195", "type": "electric_scooter", "is_reserved": 0, "lon": -77.03221366666666}, {"fusion_lat": 0.0, "name": "c50a98c948581f39ad93e36af6a04bd3", "is_disabled": 0, "rental_uris": {"android": "https://dc.lft.to/lastmile_qr_scan", "ios": "https://dc.lft.to/lastmile_qr_scan"}, "fusion_lon": 0.0, "lat": 38.917750166666664, "bike_id": "c50a98c948581f39ad93e36af6a04bd3", "type": "electric_scooter", "is_reserved": 0, "lon": -77.03223316666667}, {"fusion_lat": 0.0, "name": "60168f86691fb11230fd57e1f95ae59f", "is_disabled": 0, "rental_uris": {"android": "https://dc.lft.to/lastmile_qr_scan", "ios": "https://dc.lft.to/lastmile_qr_scan"}, "fusion_lon": 0.0, "lat": 38.90403966666667, "bike_id": "60168f86691fb11230fd57e1f95ae59f", "type": "electric_scooter", "is_reserved": 0, "lon": -77.02577433333333}, {"fusion_lat": 0.0, "name": "cf4c21188dfa9b573d367ccf6f4f0012", "is_disabled": 0, "rental_uris": {"android": "https://dc.lft.to/lastmile_qr_scan", "ios": "https://dc.lft.to/lastmile_qr_scan"}, "fusion_lon": 0.0, "lat": 38.87164533333333, "bike_id": "cf4c21188dfa9b573d367ccf6f4f0012", "type": "electric_scooter", "is_reserved": 0, "lon": -77.00569583333333}, {"fusion_lat": 0.0, "name": "2a889d7e0a2c785cbf1e32ca5ac7cb77", "is_disabled": 0, "rental_uris": {"android": "https://dc.lft.to/lastmile_qr_scan", "ios": "https://dc.lft.to/lastmile_qr_scan"}, "fusion_lon": 0.0, "lat": 38.89280616666667, "bike_id": "2a889d7e0a2c785cbf1e32ca5ac7cb77", "type": "electric_scooter", "is_reserved": 0, "lon": -77.03174966666667}, {"fusion_lat": 0.0, "name": "7f1d647f3c29e7220ef1dd40e4e3fe3f", "is_disabled": 0, "rental_uris": {"android": "https://dc.lft.to/lastmile_qr_scan", "ios": "https://dc.lft.to/lastmile_qr_scan"}, "fusion_lon": 0.0, "lat": 38.8666595, "bike_id": "7f1d647f3c29e7220ef1dd40e4e3fe3f", "type": "electric_scooter", "is_reserved": 0, "lon": -76.98902166666667}, {"fusion_lat": 0.0, "name": "79e5bd2c94be65d02959848372a3c168", "is_disabled": 0, "rental_uris": {"android": "https://dc.lft.to/lastmile_qr_scan", "ios": "https://dc.lft.to/lastmile_qr_scan"}, "fusion_lon": 0.0, "lat": 38.92989983333333, "bike_id": "79e5bd2c94be65d02959848372a3c168", "type": "electric_scooter", "is_reserved": 0, "lon": -77.03234783333333}, {"fusion_lat": 0.0, "name": "724c454d2efa622bf501c2c05f2ac74a", "is_disabled": 0, "rental_uris": {"android": "https://dc.lft.to/lastmile_qr_scan", "ios": "https://dc.lft.to/lastmile_qr_scan"}, "fusion_lon": 0.0, "lat": 38.90299016666667, "bike_id": "724c454d2efa622bf501c2c05f2ac74a", "type": "electric_scooter", "is_reserved": 0, "lon": -77.0495205}, {"fusion_lat": 0.0, "name": "f6eaeb08271526e75ff7d86e3661a1bf", "is_disabled": 0, "rental_uris": {"android": "https://dc.lft.to/lastmile_qr_scan", "ios": "https://dc.lft.to/lastmile_qr_scan"}, "fusion_lon": 0.0, "lat": 38.862102666666665, "bike_id": "f6eaeb08271526e75ff7d86e3661a1bf", "type": "electric_bike", "is_reserved": 0, "lon": -77.05974166666667}, {"fusion_lat": 0.0, "name": "09f336f9aec25ed0e8e6ed1d60981b88", "is_disabled": 0, "rental_uris": {"android": "https://dc.lft.to/lastmile_qr_scan", "ios": "https://dc.lft.to/lastmile_qr_scan"}, "fusion_lon": 0.0, "lat": 38.916864, "bike_id": "09f336f9aec25ed0e8e6ed1d60981b88", "type": "electric_scooter", "is_reserved": 0, "lon": -77.038525}, {"fusion_lat": 0.0, "name": "1e09d40be931b9dacda385f8fd09c485", "is_disabled": 0, "rental_uris": {"android": "https://dc.lft.to/lastmile_qr_scan", "ios": "https://dc.lft.to/lastmile_qr_scan"}, "fusion_lon": 0.0, "lat": 38.89800533333333, "bike_id": "1e09d40be931b9dacda385f8fd09c485", "type": "electric_scooter", "is_reserved": 0, "lon": -76.98456133333333}, {"fusion_lat": 0.0, "name": "7df4dd7d529e4fa9fc95a6e957c881fe", "is_disabled": 0, "rental_uris": {"android": "https://dc.lft.to/lastmile_qr_scan", "ios": "https://dc.lft.to/lastmile_qr_scan"}, "fusion_lon": 0.0, "lat": 38.92151833333333, "bike_id": "7df4dd7d529e4fa9fc95a6e957c881fe", "type": "electric_scooter", "is_reserved": 0, "lon": -77.03871716666667}, {"fusion_lat": 0.0, "name": "6d613d0073982a18f4a9709b950cd2e1", "is_disabled": 0, "rental_uris": {"android": "https://dc.lft.to/lastmile_qr_scan", "ios": "https://dc.lft.to/lastmile_qr_scan"}, "fusion_lon": 0.0, "lat": 38.91797616666667, "bike_id": "6d613d0073982a18f4a9709b950cd2e1", "type": "electric_scooter", "is_reserved": 0, "lon": -77.03438533333333}, {"fusion_lat": 0.0, "name": "661810d1b6b650a35aa529ca36b75e6f", "is_disabled": 0, "rental_uris": {"android": "https://dc.lft.to/lastmile_qr_scan", "ios": "https://dc.lft.to/lastmile_qr_scan"}, "fusion_lon": 0.0, "lat": 38.9021655, "bike_id": "661810d1b6b650a35aa529ca36b75e6f", "type": "electric_scooter", "is_reserved": 0, "lon": -77.0532575}, {"fusion_lat": 0.0, "name": "ddda42b769adfcde3fe9789b56c86a18", "is_disabled": 0, "rental_uris": {"android": "https://dc.lft.to/lastmile_qr_scan", "ios": "https://dc.lft.to/lastmile_qr_scan"}, "fusion_lon": 0.0, "lat": 38.898169833333334, "bike_id": "ddda42b769adfcde3fe9789b56c86a18", "type": "electric_scooter", "is_reserved": 0, "lon": -77.03039616666666}, {"fusion_lat": 0.0, "name": "ecfed2dceacd003a2be5278ff5e7e5a9", "is_disabled": 0, "rental_uris": {"android": "https://dc.lft.to/lastmile_qr_scan", "ios": "https://dc.lft.to/lastmile_qr_scan"}, "fusion_lon": 0.0, "lat": 38.85876366666667, "bike_id": "ecfed2dceacd003a2be5278ff5e7e5a9", "type": "electric_bike", "is_reserved": 0, "lon": -77.09558133333333}, {"fusion_lat": 0.0, "name": "27d1ba05d19257bc9b0a3c86be54fc4e", "is_disabled": 0, "rental_uris": {"android": "https://dc.lft.to/lastmile_qr_scan", "ios": "https://dc.lft.to/lastmile_qr_scan"}, "fusion_lon": 0.0, "lat": 38.892883499999996, "bike_id": "27d1ba05d19257bc9b0a3c86be54fc4e", "type": "electric_scooter", "is_reserved": 0, "lon": -77.012269}, {"fusion_lat": 0.0, "name": "c37a6890ee220d850e67aa585fa4c28b", "is_disabled": 0, "rental_uris": {"android": "https://dc.lft.to/lastmile_qr_scan", "ios": "https://dc.lft.to/lastmile_qr_scan"}, "fusion_lon": 0.0, "lat": 38.93081316666667, "bike_id": "c37a6890ee220d850e67aa585fa4c28b", "type": "electric_scooter", "is_reserved": 0, "lon": -77.03409216666667}, {"fusion_lat": 0.0, "name": "b317963db6188bb89e928bc98aeb5663", "is_disabled": 0, "rental_uris": {"android": "https://dc.lft.to/lastmile_qr_scan", "ios": "https://dc.lft.to/lastmile_qr_scan"}, "fusion_lon": 0.0, "lat": 38.912712666666664, "bike_id": "b317963db6188bb89e928bc98aeb5663", "type": "electric_scooter", "is_reserved": 0, "lon": -77.0312665}, {"fusion_lat": 0.0, "name": "fca052361c0e14b364c7c508714837b3", "is_disabled": 0, "rental_uris": {"android": "https://dc.lft.to/lastmile_qr_scan", "ios": "https://dc.lft.to/lastmile_qr_scan"}, "fusion_lon": 0.0, "lat": 38.806775333333334, "bike_id": "fca052361c0e14b364c7c508714837b3", "type": "electric_bike", "is_reserved": 0, "lon": -77.06920166666667}, {"fusion_lat": 0.0, "name": "1b95189829c13295d746c21e01730b6f", "is_disabled": 0, "rental_uris": {"android": "https://dc.lft.to/lastmile_qr_scan", "ios": "https://dc.lft.to/lastmile_qr_scan"}, "fusion_lon": 0.0, "lat": 38.89229433333333, "bike_id": "1b95189829c13295d746c21e01730b6f", "type": "electric_scooter", "is_reserved": 0, "lon": -76.98817033333333}, {"fusion_lat": 0.0, "name": "d4276311d9979e25032262987fd5bca7", "is_disabled": 0, "rental_uris": {"android": "https://dc.lft.to/lastmile_qr_scan", "ios": "https://dc.lft.to/lastmile_qr_scan"}, "fusion_lon": 0.0, "lat": 38.921721, "bike_id": "d4276311d9979e25032262987fd5bca7", "type": "electric_scooter", "is_reserved": 0, "lon": -77.04027516666666}, {"fusion_lat": 0.0, "name": "33e2d0b5621f843302806fd12bd96d91", "is_disabled": 0, "rental_uris": {"android": "https://dc.lft.to/lastmile_qr_scan", "ios": "https://dc.lft.to/lastmile_qr_scan"}, "fusion_lon": 0.0, "lat": 38.928501, "bike_id": "33e2d0b5621f843302806fd12bd96d91", "type": "electric_scooter", "is_reserved": 0, "lon": -77.013977}, {"fusion_lat": 0.0, "name": "e57aa91259e95fca4696f04107fb27ec", "is_disabled": 0, "rental_uris": {"android": "https://dc.lft.to/lastmile_qr_scan", "ios": "https://dc.lft.to/lastmile_qr_scan"}, "fusion_lon": 0.0, "lat": 38.90574866666667, "bike_id": "e57aa91259e95fca4696f04107fb27ec", "type": "electric_scooter", "is_reserved": 0, "lon": -77.02210033333333}, {"fusion_lat": 0.0, "name": "aa6e0ebb387d1095ba7356feb0f8af25", "is_disabled": 0, "rental_uris": {"android": "https://dc.lft.to/lastmile_qr_scan", "ios": "https://dc.lft.to/lastmile_qr_scan"}, "fusion_lon": 0.0, "lat": 38.90551933333333, "bike_id": "aa6e0ebb387d1095ba7356feb0f8af25", "type": "electric_scooter", "is_reserved": 0, "lon": -77.04567016666667}, {"fusion_lat": 0.0, "name": "b85dae4a0569cb891cef97759fc2f1b4", "is_disabled": 0, "rental_uris": {"android": "https://dc.lft.to/lastmile_qr_scan", "ios": "https://dc.lft.to/lastmile_qr_scan"}, "fusion_lon": 0.0, "lat": 38.907050166666664, "bike_id": "b85dae4a0569cb891cef97759fc2f1b4", "type": "electric_scooter", "is_reserved": 0, "lon": -77.05054}, {"fusion_lat": 0.0, "name": "fed5c3f8b37af4c319d5739cdda6cb8d", "is_disabled": 0, "rental_uris": {"android": "https://dc.lft.to/lastmile_qr_scan", "ios": "https://dc.lft.to/lastmile_qr_scan"}, "fusion_lon": 0.0, "lat": 38.901749333333335, "bike_id": "fed5c3f8b37af4c319d5739cdda6cb8d", "type": "electric_scooter", "is_reserved": 0, "lon": -76.99257683333333}, {"fusion_lat": 0.0, "name": "ed4b37e2a0a8fc033cdee87f94456ede", "is_disabled": 0, "rental_uris": {"android": "https://dc.lft.to/lastmile_qr_scan", "ios": "https://dc.lft.to/lastmile_qr_scan"}, "fusion_lon": 0.0, "lat": 38.92837183333333, "bike_id": "ed4b37e2a0a8fc033cdee87f94456ede", "type": "electric_scooter", "is_reserved": 0, "lon": -77.00601233333333}, {"fusion_lat": 0.0, "name": "a3c08cd2f4a0d9038aadfcc2632c5ce1", "is_disabled": 0, "rental_uris": {"android": "https://dc.lft.to/lastmile_qr_scan", "ios": "https://dc.lft.to/lastmile_qr_scan"}, "fusion_lon": 0.0, "lat": 38.807165499999996, "bike_id": "a3c08cd2f4a0d9038aadfcc2632c5ce1", "type": "electric_bike", "is_reserved": 0, "lon": -77.0617665}, {"fusion_lat": 0.0, "name": "4a052c577b1d72e378cd2ef8f9278d6f", "is_disabled": 0, "rental_uris": {"android": "https://dc.lft.to/lastmile_qr_scan", "ios": "https://dc.lft.to/lastmile_qr_scan"}, "fusion_lon": 0.0, "lat": 38.88122466666667, "bike_id": "4a052c577b1d72e378cd2ef8f9278d6f", "type": "electric_bike", "is_reserved": 0, "lon": -76.99798183333333}, {"fusion_lat": 0.0, "name": "dd51de3a98c0a3039707290faa86f93c", "is_disabled": 0, "rental_uris": {"android": "https://dc.lft.to/lastmile_qr_scan", "ios": "https://dc.lft.to/lastmile_qr_scan"}, "fusion_lon": 0.0, "lat": 38.891067, "bike_id": "dd51de3a98c0a3039707290faa86f93c", "type": "electric_bike", "is_reserved": 0, "lon": -76.983578}, {"fusion_lat": 0.0, "name": "7315d911a4552bef5626c8c1dc706082", "is_disabled": 0, "rental_uris": {"android": "https://dc.lft.to/lastmile_qr_scan", "ios": "https://dc.lft.to/lastmile_qr_scan"}, "fusion_lon": 0.0, "lat": 38.887364, "bike_id": "7315d911a4552bef5626c8c1dc706082", "type": "electric_scooter", "is_reserved": 0, "lon": -77.01516016666666}, {"fusion_lat": 0.0, "name": "5a2222741ffb51974baebe428e437fe3", "is_disabled": 0, "rental_uris": {"android": "https://dc.lft.to/lastmile_qr_scan", "ios": "https://dc.lft.to/lastmile_qr_scan"}, "fusion_lon": 0.0, "lat": 38.90286583333334, "bike_id": "5a2222741ffb51974baebe428e437fe3", "type": "electric_scooter", "is_reserved": 0, "lon": -77.0227315}, {"fusion_lat": 0.0, "name": "6f197a6429c382254ff3a42ff36a0f0f", "is_disabled": 0, "rental_uris": {"android": "https://dc.lft.to/lastmile_qr_scan", "ios": "https://dc.lft.to/lastmile_qr_scan"}, "fusion_lon": 0.0, "lat": 38.88747083333333, "bike_id": "6f197a6429c382254ff3a42ff36a0f0f", "type": "electric_scooter", "is_reserved": 0, "lon": -77.02124733333333}, {"fusion_lat": 0.0, "name": "b82095b39e87dca411492e6cc69c3274", "is_disabled": 0, "rental_uris": {"android": "https://dc.lft.to/lastmile_qr_scan", "ios": "https://dc.lft.to/lastmile_qr_scan"}, "fusion_lon": 0.0, "lat": 38.941839333333334, "bike_id": "b82095b39e87dca411492e6cc69c3274", "type": "electric_scooter", "is_reserved": 0, "lon": -77.0261625}, {"fusion_lat": 0.0, "name": "ad741e82db4ecf92a16274a30295ffc4", "is_disabled": 0, "rental_uris": {"android": "https://dc.lft.to/lastmile_qr_scan", "ios": "https://dc.lft.to/lastmile_qr_scan"}, "fusion_lon": 0.0, "lat": 38.914151333333336, "bike_id": "ad741e82db4ecf92a16274a30295ffc4", "type": "electric_scooter", "is_reserved": 0, "lon": -77.03021066666666}, {"fusion_lat": 0.0, "name": "9e78e0224f63da5dfa95b94f3cdfc85e", "is_disabled": 0, "rental_uris": {"android": "https://dc.lft.to/lastmile_qr_scan", "ios": "https://dc.lft.to/lastmile_qr_scan"}, "fusion_lon": 0.0, "lat": 38.9169445, "bike_id": "9e78e0224f63da5dfa95b94f3cdfc85e", "type": "electric_scooter", "is_reserved": 0, "lon": -77.04277966666666}, {"fusion_lat": 0.0, "name": "e7b06bbb9597a001dce072fb437ecec1", "is_disabled": 0, "rental_uris": {"android": "https://dc.lft.to/lastmile_qr_scan", "ios": "https://dc.lft.to/lastmile_qr_scan"}, "fusion_lon": 0.0, "lat": 38.926654166666665, "bike_id": "e7b06bbb9597a001dce072fb437ecec1", "type": "electric_scooter", "is_reserved": 0, "lon": -77.03028083333334}, {"fusion_lat": 0.0, "name": "c2e145054e2cd615d5e5438c3d4acad8", "is_disabled": 0, "rental_uris": {"android": "https://dc.lft.to/lastmile_qr_scan", "ios": "https://dc.lft.to/lastmile_qr_scan"}, "fusion_lon": 0.0, "lat": 38.860061, "bike_id": "c2e145054e2cd615d5e5438c3d4acad8", "type": "electric_scooter", "is_reserved": 0, "lon": -76.985202}, {"fusion_lat": 0.0, "name": "daefcd831709902c1f63de4adceed2e9", "is_disabled": 0, "rental_uris": {"android": "https://dc.lft.to/lastmile_qr_scan", "ios": "https://dc.lft.to/lastmile_qr_scan"}, "fusion_lon": 0.0, "lat": 38.9260175, "bike_id": "daefcd831709902c1f63de4adceed2e9", "type": "electric_scooter", "is_reserved": 0, "lon": -77.021559}, {"fusion_lat": 0.0, "name": "e001d2950692e4dddf1dfe11e5fccc5c", "is_disabled": 0, "rental_uris": {"android": "https://dc.lft.to/lastmile_qr_scan", "ios": "https://dc.lft.to/lastmile_qr_scan"}, "fusion_lon": 0.0, "lat": 38.90466216666667, "bike_id": "e001d2950692e4dddf1dfe11e5fccc5c", "type": "electric_scooter", "is_reserved": 0, "lon": -77.02820433333333}, {"fusion_lat": 0.0, "name": "5754d035445d05281dfe86c88a6614c7", "is_disabled": 0, "rental_uris": {"android": "https://dc.lft.to/lastmile_qr_scan", "ios": "https://dc.lft.to/lastmile_qr_scan"}, "fusion_lon": 0.0, "lat": 38.9206695, "bike_id": "5754d035445d05281dfe86c88a6614c7", "type": "electric_scooter", "is_reserved": 0, "lon": -77.043802}, {"fusion_lat": 0.0, "name": "673e72a18c86c32a19d73dd3b9a51f42", "is_disabled": 0, "rental_uris": {"android": "https://dc.lft.to/lastmile_qr_scan", "ios": "https://dc.lft.to/lastmile_qr_scan"}, "fusion_lon": 0.0, "lat": 38.959368166666664, "bike_id": "673e72a18c86c32a19d73dd3b9a51f42", "type": "electric_bike", "is_reserved": 0, "lon": -76.92839066666667}, {"fusion_lat": 0.0, "name": "bb89373db4b4d567d62a25428f9c3b12", "is_disabled": 0, "rental_uris": {"android": "https://dc.lft.to/lastmile_qr_scan", "ios": "https://dc.lft.to/lastmile_qr_scan"}, "fusion_lon": 0.0, "lat": 38.89574116666667, "bike_id": "bb89373db4b4d567d62a25428f9c3b12", "type": "electric_scooter", "is_reserved": 0, "lon": -76.98324516666666}, {"fusion_lat": 0.0, "name": "b22509ccf4a8b6b01b173afbcd589d4a", "is_disabled": 0, "rental_uris": {"android": "https://dc.lft.to/lastmile_qr_scan", "ios": "https://dc.lft.to/lastmile_qr_scan"}, "fusion_lon": 0.0, "lat": 38.9081675, "bike_id": "b22509ccf4a8b6b01b173afbcd589d4a", "type": "electric_scooter", "is_reserved": 0, "lon": -77.038291}, {"fusion_lat": 0.0, "name": "97d87e4c5de85f836c8a969bfda78e48", "is_disabled": 0, "rental_uris": {"android": "https://dc.lft.to/lastmile_qr_scan", "ios": "https://dc.lft.to/lastmile_qr_scan"}, "fusion_lon": 0.0, "lat": 38.887684666666665, "bike_id": "97d87e4c5de85f836c8a969bfda78e48", "type": "electric_scooter", "is_reserved": 0, "lon": -76.99160666666667}, {"fusion_lat": 0.0, "name": "26ae129fcb20567117beb52fe169897b", "is_disabled": 0, "rental_uris": {"android": "https://dc.lft.to/lastmile_qr_scan", "ios": "https://dc.lft.to/lastmile_qr_scan"}, "fusion_lon": 0.0, "lat": 38.925434333333335, "bike_id": "26ae129fcb20567117beb52fe169897b", "type": "electric_scooter", "is_reserved": 0, "lon": -77.05249066666667}, {"fusion_lat": 0.0, "name": "a2b46b24160f25ad86a129ca8f6dadd2", "is_disabled": 0, "rental_uris": {"android": "https://dc.lft.to/lastmile_qr_scan", "ios": "https://dc.lft.to/lastmile_qr_scan"}, "fusion_lon": 0.0, "lat": 38.851748, "bike_id": "a2b46b24160f25ad86a129ca8f6dadd2", "type": "electric_scooter", "is_reserved": 0, "lon": -76.99579416666667}, {"fusion_lat": 0.0, "name": "b7d9846677763f5fb6cdf65a71049cb6", "is_disabled": 0, "rental_uris": {"android": "https://dc.lft.to/lastmile_qr_scan", "ios": "https://dc.lft.to/lastmile_qr_scan"}, "fusion_lon": 0.0, "lat": 38.947227833333336, "bike_id": "b7d9846677763f5fb6cdf65a71049cb6", "type": "electric_scooter", "is_reserved": 0, "lon": -77.06547233333333}, {"fusion_lat": 0.0, "name": "001f5e3617e4b98441ba9d535cadb00a", "is_disabled": 0, "rental_uris": {"android": "https://dc.lft.to/lastmile_qr_scan", "ios": "https://dc.lft.to/lastmile_qr_scan"}, "fusion_lon": 0.0, "lat": 38.887303, "bike_id": "001f5e3617e4b98441ba9d535cadb00a", "type": "electric_scooter", "is_reserved": 0, "lon": -77.0319155}, {"fusion_lat": 0.0, "name": "d2388ee208dd5b300621e9cc27e542d8", "is_disabled": 0, "rental_uris": {"android": "https://dc.lft.to/lastmile_qr_scan", "ios": "https://dc.lft.to/lastmile_qr_scan"}, "fusion_lon": 0.0, "lat": 38.897319833333334, "bike_id": "d2388ee208dd5b300621e9cc27e542d8", "type": "electric_scooter", "is_reserved": 0, "lon": -77.04745283333334}, {"fusion_lat": 0.0, "name": "b99524c3b55b120d56015c705b86c656", "is_disabled": 0, "rental_uris": {"android": "https://dc.lft.to/lastmile_qr_scan", "ios": "https://dc.lft.to/lastmile_qr_scan"}, "fusion_lon": 0.0, "lat": 38.923334, "bike_id": "b99524c3b55b120d56015c705b86c656", "type": "electric_scooter", "is_reserved": 0, "lon": -77.05680883333333}, {"fusion_lat": 0.0, "name": "df8f830d73e1f1becdb33878d752a155", "is_disabled": 0, "rental_uris": {"android": "https://dc.lft.to/lastmile_qr_scan", "ios": "https://dc.lft.to/lastmile_qr_scan"}, "fusion_lon": 0.0, "lat": 38.91267466666667, "bike_id": "df8f830d73e1f1becdb33878d752a155", "type": "electric_scooter", "is_reserved": 0, "lon": -77.02230733333333}, {"fusion_lat": 0.0, "name": "1908cc18ed93df9d59c69647d02b5060", "is_disabled": 0, "rental_uris": {"android": "https://dc.lft.to/lastmile_qr_scan", "ios": "https://dc.lft.to/lastmile_qr_scan"}, "fusion_lon": 0.0, "lat": 38.9066075, "bike_id": "1908cc18ed93df9d59c69647d02b5060", "type": "electric_scooter", "is_reserved": 0, "lon": -77.009015}, {"fusion_lat": 0.0, "name": "59669daa8e38ef1ecf0a660338d0de95", "is_disabled": 0, "rental_uris": {"android": "https://dc.lft.to/lastmile_qr_scan", "ios": "https://dc.lft.to/lastmile_qr_scan"}, "fusion_lon": 0.0, "lat": 38.8982765, "bike_id": "59669daa8e38ef1ecf0a660338d0de95", "type": "electric_scooter", "is_reserved": 0, "lon": -77.0502655}, {"fusion_lat": 0.0, "name": "46b7eade11bcb33b1199bfd7e5781561", "is_disabled": 0, "rental_uris": {"android": "https://dc.lft.to/lastmile_qr_scan", "ios": "https://dc.lft.to/lastmile_qr_scan"}, "fusion_lon": 0.0, "lat": 38.92097733333333, "bike_id": "46b7eade11bcb33b1199bfd7e5781561", "type": "electric_scooter", "is_reserved": 0, "lon": -77.02509233333333}, {"fusion_lat": 0.0, "name": "8c4a46ab73594d143a3fb131c50e7ab9", "is_disabled": 0, "rental_uris": {"android": "https://dc.lft.to/lastmile_qr_scan", "ios": "https://dc.lft.to/lastmile_qr_scan"}, "fusion_lon": 0.0, "lat": 38.90562766666667, "bike_id": "8c4a46ab73594d143a3fb131c50e7ab9", "type": "electric_scooter", "is_reserved": 0, "lon": -77.03743533333333}, {"fusion_lat": 0.0, "name": "673d160e8abb6d9525780aaf95abbed7", "is_disabled": 0, "rental_uris": {"android": "https://dc.lft.to/lastmile_qr_scan", "ios": "https://dc.lft.to/lastmile_qr_scan"}, "fusion_lon": 0.0, "lat": 38.883446166666666, "bike_id": "673d160e8abb6d9525780aaf95abbed7", "type": "electric_scooter", "is_reserved": 0, "lon": -76.935039}, {"fusion_lat": 0.0, "name": "b60398671a670cd9ebcc14b9255e748e", "is_disabled": 0, "rental_uris": {"android": "https://dc.lft.to/lastmile_qr_scan", "ios": "https://dc.lft.to/lastmile_qr_scan"}, "fusion_lon": 0.0, "lat": 38.909695, "bike_id": "b60398671a670cd9ebcc14b9255e748e", "type": "electric_scooter", "is_reserved": 0, "lon": -77.03207583333334}, {"fusion_lat": 0.0, "name": "10ff0725a8d8e4b3912b3487a877d8ef", "is_disabled": 0, "rental_uris": {"android": "https://dc.lft.to/lastmile_qr_scan", "ios": "https://dc.lft.to/lastmile_qr_scan"}, "fusion_lon": 0.0, "lat": 38.90302066666667, "bike_id": "10ff0725a8d8e4b3912b3487a877d8ef", "type": "electric_scooter", "is_reserved": 0, "lon": -77.05817633333334},