{"data": {"bikes": [{"bike_id": "18e4684d9d20145bb365d7287705046f", "is_reserved": 0, "fusion_lon": 0.0, "lat": 38.916739, "is_disabled": 0, "name": "18e4684d9d20145bb365d7287705046f", "fusion_lat": 0.0, "rental_uris": {"ios": "https://dc.lft.to/lastmile_qr_scan", "android": "https://dc.lft.to/lastmile_qr_scan"}, "lon": -77.03206483333334, "type": "electric_scooter"}, {"bike_id": "140e7a67da4185ff0ac381b4cd8847fa", "is_reserved": 0, "fusion_lon": 0.0, "lat": 38.892193166666665, "is_disabled": 0, "name": "140e7a67da4185ff0ac381b4cd8847fa", "fusion_lat": 0.0, "rental_uris": {"ios": "https://dc.lft.to/lastmile_qr_scan", "android": "https://dc.lft.to/lastmile_qr_scan"}, "lon": -77.02448666666666, "type": "electric_scooter"}, {"bike_id": "5bd83412c6b19bc4adb2737329384e24", "is_reserved": 0, "fusion_lon": 0.0, "lat": 38.914267833333334, "is_disabled": 0, "name": "5bd83412c6b19bc4adb2737329384e24", "fusion_lat": 0.0, "rental_uris": {"ios": "https://dc.lft.to/lastmile_qr_scan", "android": "https://dc.lft.to/lastmile_qr_scan"}, "lon": -77.045042, "type": "electric_scooter"}, {"bike_id": "bc4e966154c708260e89c844b41b561d", "is_reserved": 0, "fusion_lon": 0.0, "lat": 38.894676833333335, "is_disabled": 0, "name": "bc4e966154c708260e89c844b41b561d", "fusion_lat": 0.0, "rental_uris": {"ios": "https://dc.lft.to/lastmile_qr_scan", "android": "https://dc.lft.to/lastmile_qr_scan"}, "lon": -77.027505, "type": "electric_scooter"}, {"bike_id": "0c0b353aba206d39bda773c5f780ada9", "is_reserved": 0, "fusion_lon": 0.0, "lat": 38.909708, "is_disabled": 0, "name": "0c0b353aba206d39bda773c5f780ada9", "fusion_lat": 0.0, "rental_uris": {"ios": "https://dc.lft.to/lastmile_qr_scan", "android": "https://dc.lft.to/lastmile_qr_scan"}, "lon": -77.02307033333334, "type": "electric_scooter"}, {"bike_id": "607dd5f27198c088a40bc27a39de52f6", "is_reserved": 0, "fusion_lon": 0.0, "lat": 38.906122333333336, "is_disabled": 0, "name": "607dd5f27198c088a40bc27a39de52f6", "fusion_lat": 0.0, "rental_uris": {"ios": "https://dc.lft.to/lastmile_qr_scan", "android": "https://dc.lft.to/lastmile_qr_scan"}, "lon": -77.07490416666667, "type": "electric_scooter"}, {"bike_id": "1849961366966a0407dcbbea229e3315", "is_reserved": 0, "fusion_lon": 0.0, "lat": 38.93951533333333, "is_disabled": 0, "name": "1849961366966a0407dcbbea229e3315", "fusion_lat": 0.0, "rental_uris": {"ios": "https://dc.lft.to/lastmile_qr_scan", "android": "https://dc.lft.to/lastmile_qr_scan"}, "lon": -77.07256033333333, "type": "electric_scooter"}, {"bike_id": "d7d191bded8a7ef33f579bb1ecc0909e", "is_reserved": 0, "fusion_lon": 0.0, "lat": 38.90384066666667, "is_disabled": 0, "name": "d7d191bded8a7ef33f579bb1ecc0909e", "fusion_lat": 0.0, "rental_uris": {"ios": "https://dc.lft.to/lastmile_qr_scan", "android": "https://dc.lft.to/lastmile_qr_scan"}, "lon": -77.04155516666667, "type": "electric_scooter"}, {"bike_id": "1fa9c523e6f3e73fb5dfb67d139f83ce", "is_reserved": 0, "fusion_lon": 0.0, "lat": 38.90240333333333, "is_disabled": 0, "name": "1fa9c523e6f3e73fb5dfb67d139f83ce", "fusion_lat": 0.0, "rental_uris": {"ios": "https://dc.lft.to/lastmile_qr_scan", "android": "https://dc.lft.to/lastmile_qr_scan"}, "lon": -77.02976516666666, "type": "electric_scooter"}, {"bike_id": "de25aaf3141017095b8600b90446af50", "is_reserved": 0, "fusion_lon": 0.0, "lat": 38.90117883333333, "is_disabled": 0, "name": "de25aaf3141017095b8600b90446af50", "fusion_lat": 0.0, "rental_uris": {"ios": "https://dc.lft.to/lastmile_qr_scan", "android": "https://dc.lft.to/lastmile_qr_scan"}, "lon": -77.0433755, "type": "electric_scooter"}, {"bike_id": "e413b584661d1d9ae1fdd8c81f8cab7c", "is_reserved": 0, "fusion_lon": 0.0, "lat": 38.909559, "is_disabled": 0, "name": "e413b584661d1d9ae1fdd8c81f8cab7c", "fusion_lat": 0.0, "rental_uris": {"ios": "https://dc.lft.to/lastmile_qr_scan", "android": "https://dc.lft.to/lastmile_qr_scan"}, "lon": -77.04862483333334, "type": "electric_scooter"}, {"bike_id": "2b97cc230e7a91b61a1acca9934dadf1", "is_reserved": 0, "fusion_lon": 0.0, "lat": 39.038806666666666, "is_disabled": 0, "name": "2b97cc230e7a91b61a1acca9934dadf1", "fusion_lat": 0.0, "rental_uris": {"ios": "https://dc.lft.to/lastmile_qr_scan", "android": "https://dc.lft.to/lastmile_qr_scan"}, "lon": -76.99041283333334, "type": "electric_bike"}, {"bike_id": "1f2114807ebf0a8e05397f1e22b98bb4", "is_reserved": 0, "fusion_lon": 0.0, "lat": 38.890601, "is_disabled": 0, "name": "1f2114807ebf0a8e05397f1e22b98bb4", "fusion_lat": 0.0, "rental_uris": {"ios": "https://dc.lft.to/lastmile_qr_scan", "android": "https://dc.lft.to/lastmile_qr_scan"}, "lon": -77.023022, "type": "electric_scooter"}, {"bike_id": "e9805f36fe8dab23f26bdba0630ecb8e", "is_reserved": 0, "fusion_lon": 0.0, "lat": 38.88431966666667, "is_disabled": 0, "name": "e9805f36fe8dab23f26bdba0630ecb8e", "fusion_lat": 0.0, "rental_uris": {"ios": "https://dc.lft.to/lastmile_qr_scan", "android": "https://dc.lft.to/lastmile_qr_scan"}, "lon": -76.95753033333334, "type": "electric_scooter"}, {"bike_id": "6ef5d541151eea6fbba3b6b8287ca05f", "is_reserved": 0, "fusion_lon": 0.0, "lat": 38.91838816666667, "is_disabled": 0, "name": "6ef5d541151eea6fbba3b6b8287ca05f", "fusion_lat": 0.0, "rental_uris": {"ios": "https://dc.lft.to/lastmile_qr_scan", "android": "https://dc.lft.to/lastmile_qr_scan"}, "lon": -77.03897916666666, "type": "electric_scooter"}, {"bike_id": "475238025e9efa59c52eb19ab7dc8bbf", "is_reserved": 0, "fusion_lon": 0.0, "lat": 38.90038283333333, "is_disabled": 0, "name": "475238025e9efa59c52eb19ab7dc8bbf", "fusion_lat": 0.0, "rental_uris": {"ios": "https://dc.lft.to/lastmile_qr_scan", "android": "https://dc.lft.to/lastmile_qr_scan"}, "lon": -77.00535233333333, "type": "electric_scooter"}, {"bike_id": "fd30dd413ab694777ff0e47f0a35ac55", "is_reserved": 0, "fusion_lon": 0.0, "lat": 38.912147833333336, "is_disabled": 0, "name": "fd30dd413ab694777ff0e47f0a35ac55", "fusion_lat": 0.0, "rental_uris": {"ios": "https://dc.lft.to/lastmile_qr_scan", "android": "https://dc.lft.to/lastmile_qr_scan"}, "lon": -77.0280135, "type": "electric_scooter"}, {"bike_id": "56b0aec151286ff2352b34707a782e4d", "is_reserved": 0, "fusion_lon": 0.0, "lat": 38.8990545, "is_disabled": 0, "name": "56b0aec151286ff2352b34707a782e4d", "fusion_lat": 0.0, "rental_uris": {"ios": "https://dc.lft.to/lastmile_qr_scan", "android": "https://dc.lft.to/lastmile_qr_scan"}, "lon": -77.0394055, "type": "electric_scooter"}, {"bike_id": "304779cbb027d34dec8bb30a9ed04161", "is_reserved": 0, "fusion_lon": 0.0, "lat": 38.898155333333335, "is_disabled": 0, "name": "304779cbb027d34dec8bb30a9ed04161", "fusion_lat": 0.0, "rental_uris": {"ios": "https://dc.lft.to/lastmile_qr_scan", "android": "https://dc.lft.to/lastmile_qr_scan"}, "lon": -77.01154816666667, "type": "electric_scooter"}, {"bike_id": "fca6dda548d95032c57ccd5eb37abea1", "is_reserved": 0, "fusion_lon": 0.0, "lat": 38.917744666666664, "is_disabled": 0, "name": "fca6dda548d95032c57ccd5eb37abea1", "fusion_lat": 0.0, "rental_uris": {"ios": "https://dc.lft.to/lastmile_qr_scan", "android": "https://dc.lft.to/lastmile_qr_scan"}, "lon": -77.01497383333333, "type": "electric_scooter"}, {"bike_id": "43401f40a22ed411ae452806e58a2990", "is_reserved": 0, "fusion_lon": 0.0, "lat": 38.93142616666667, "is_disabled": 0, "name": "43401f40a22ed411ae452806e58a2990", "fusion_lat": 0.0, "rental_uris": {"ios": "https://dc.lft.to/lastmile_qr_scan", "android": "https://dc.lft.to/lastmile_qr_scan"}, "lon": -77.0570715, "type": "electric_scooter"}, {"bike_id": "3476dc0b9faabe5f2897a712677cf91b", "is_reserved": 0, "fusion_lon": 0.0, "lat": 38.964992333333335, "is_disabled": 0, "name": "3476dc0b9faabe5f2897a712677cf91b", "fusion_lat": 0.0, "rental_uris": {"ios": "https://dc.lft.to/lastmile_qr_scan", "android": "https://dc.lft.to/lastmile_qr_scan"}, "lon": -77.06493933333333, "type": "electric_bike"}, {"bike_id": "b6fe58f08849cbcced43c2003b2f9e15", "is_reserved": 0, "fusion_lon": 0.0, "lat": 38.918763, "is_disabled": 0, "name": "b6fe58f08849cbcced43c2003b2f9e15", "fusion_lat": 0.0, "rental_uris": {"ios": "https://dc.lft.to/lastmile_qr_scan", "android": "https://dc.lft.to/lastmile_qr_scan"}, "lon": -77.0445645, "type": "electric_scooter"}, {"bike_id": "a8c65832555fd83964f23eca3c6da88d", "is_reserved": 0, "fusion_lon": 0.0, "lat": 38.8521545, "is_disabled": 0, "name": "a8c65832555fd83964f23eca3c6da88d", "fusion_lat": 0.0, "rental_uris": {"ios": "https://dc.lft.to/lastmile_qr_scan", "android": "https://dc.lft.to/lastmile_qr_scan"}, "lon": -77.12954616666667, "type": "electric_bike"}, {"bike_id": "377b9b92d587f73f7ecfabcc2612bff1", "is_reserved": 0, "fusion_lon": 0.0, "lat": 38.94181616666667, "is_disabled": 0, "name": "377b9b92d587f73f7ecfabcc2612bff1", "fusion_lat": 0.0, "rental_uris": {"ios": "https://dc.lft.to/lastmile_qr_scan", "android": "https://dc.lft.to/lastmile_qr_scan"}, "lon": -77.02530733333333, "type": "electric_scooter"}, {"bike_id": "37ed327151eb4db23ad45bd3450cfeb9", "is_reserved": 0, "fusion_lon": 0.0, "lat": 38.900482333333336, "is_disabled": 0, "name": "37ed327151eb4db23ad45bd3450cfeb9", "fusion_lat": 0.0, "rental_uris": {"ios": "https://dc.lft.to/lastmile_qr_scan", "android": "https://dc.lft.to/lastmile_qr_scan"}, "lon": -77.00760433333333, "type": "electric_scooter"}, {"bike_id": "f8e12e59b4510dbb0eebb95061194356", "is_reserved": 0, "fusion_lon": 0.0, "lat": 38.80689233333333, "is_disabled": 0, "name": "f8e12e59b4510dbb0eebb95061194356", "fusion_lat": 0.0, "rental_uris": {"ios": "https://dc.lft.to/lastmile_qr_scan", "android": "https://dc.lft.to/lastmile_qr_scan"}, "lon": -77.0597825, "type": "electric_bike"}, {"bike_id": "f5b04305c79355cd2b8ca6794bb0b21c", "is_reserved": 0, "fusion_lon": 0.0, "lat": 38.9019255, "is_disabled": 0, "name": "f5b04305c79355cd2b8ca6794bb0b21c", "fusion_lat": 0.0, "rental_uris": {"ios": "https://dc.lft.to/lastmile_qr_scan", "android": "https://dc.lft.to/lastmile_qr_scan"}, "lon": -77.0478455, "type": "electric_scooter"}, {"bike_id": "8f34d86751b7cec86b76ab4312de2ae7", "is_reserved": 0, "fusion_lon": 0.0, "lat": 38.90235283333333, "is_disabled": 0, "name": "8f34d86751b7cec86b76ab4312de2ae7", "fusion_lat": 0.0, "rental_uris": {"ios": "https://dc.lft.to/lastmile_qr_scan", "android": "https://dc.lft.to/lastmile_qr_scan"}, "lon": -77.029771, "type": "electric_scooter"}, {"bike_id": "0d3ef357f0ba448c6cc5d2840ee17283", "is_reserved": 0, "fusion_lon": 0.0, "lat": 38.9278675, "is_disabled": 0, "name": "0d3ef357f0ba448c6cc5d2840ee17283", "fusion_lat": 0.0, "rental_uris": {"ios": "https://dc.lft.to/lastmile_qr_scan", "android": "https://dc.lft.to/lastmile_qr_scan"}, "lon": -77.031443, "type": "electric_scooter"}, {"bike_id": "5d5fa3485d332b0f25d39ff8a5402ef1", "is_reserved": 0, "fusion_lon": 0.0, "lat": 38.90567183333334, "is_disabled": 0, "name": "5d5fa3485d332b0f25d39ff8a5402ef1", "fusion_lat": 0.0, "rental_uris": {"ios": "https://dc.lft.to/lastmile_qr_scan", "android": "https://dc.lft.to/lastmile_qr_scan"}, "lon": -77.029694, "type": "electric_scooter"}, {"bike_id": "d0291fbb02c51613d11f18df029ea591", "is_reserved": 0, "fusion_lon": 0.0, "lat": 38.892218666666665, "is_disabled": 0, "name": "d0291fbb02c51613d11f18df029ea591", "fusion_lat": 0.0, "rental_uris": {"ios": "https://dc.lft.to/lastmile_qr_scan", "android": "https://dc.lft.to/lastmile_qr_scan"}, "lon": -77.028376, "type": "electric_scooter"}, {"bike_id": "8439948f839590f7b05fea4136d32e68", "is_reserved": 0, "fusion_lon": 0.0, "lat": 38.939475, "is_disabled": 0, "name": "8439948f839590f7b05fea4136d32e68", "fusion_lat": 0.0, "rental_uris": {"ios": "https://dc.lft.to/lastmile_qr_scan", "android": "https://dc.lft.to/lastmile_qr_scan"}, "lon": -77.0327025, "type": "electric_scooter"}, {"bike_id": "b69c020dee4c382c2893d49d09370ae4", "is_reserved": 0, "fusion_lon": 0.0, "lat": 38.98463666666667, "is_disabled": 0, "name": "b69c020dee4c382c2893d49d09370ae4", "fusion_lat": 0.0, "rental_uris": {"ios": "https://dc.lft.to/lastmile_qr_scan", "android": "https://dc.lft.to/lastmile_qr_scan"}, "lon": -76.95528683333333, "type": "electric_bike"}, {"bike_id": "c12d4f0b4bf4a773237116c96ab014d4", "is_reserved": 0, "fusion_lon": 0.0, "lat": 38.916509166666664, "is_disabled": 0, "name": "c12d4f0b4bf4a773237116c96ab014d4", "fusion_lat": 0.0, "rental_uris": {"ios": "https://dc.lft.to/lastmile_qr_scan", "android": "https://dc.lft.to/lastmile_qr_scan"}, "lon": -77.036572, "type": "electric_scooter"}, {"bike_id": "babf6ca42b91d8d080032ddafe6b7cca", "is_reserved": 0, "fusion_lon": 0.0, "lat": 38.892275833333336, "is_disabled": 0, "name": "babf6ca42b91d8d080032ddafe6b7cca", "fusion_lat": 0.0, "rental_uris": {"ios": "https://dc.lft.to/lastmile_qr_scan", "android": "https://dc.lft.to/lastmile_qr_scan"}, "lon": -77.02583633333333, "type": "electric_scooter"}, {"bike_id": "3b6087590974a5221a0272ba53027091", "is_reserved": 0, "fusion_lon": 0.0, "lat": 38.91974616666667, "is_disabled": 0, "name": "3b6087590974a5221a0272ba53027091", "fusion_lat": 0.0, "rental_uris": {"ios": "https://dc.lft.to/lastmile_qr_scan", "android": "https://dc.lft.to/lastmile_qr_scan"}, "lon": -77.0238955, "type": "electric_scooter"}, {"bike_id": "beb44a0315b21c572c03a287ce6acdc7", "is_reserved": 0, "fusion_lon": 0.0, "lat": 38.902876, "is_disabled": 0, "name": "beb44a0315b21c572c03a287ce6acdc7", "fusion_lat": 0.0, "rental_uris": {"ios": "https://dc.lft.to/lastmile_qr_scan", "android": "https://dc.lft.to/lastmile_qr_scan"}, "lon": -77.04062866666666, "type": "electric_scooter"}, {"bike_id": "c0703d4caee3f7c1ce9af962592e0ff1", "is_reserved": 0, "fusion_lon": 0.0, "lat": 38.89738416666667, "is_disabled": 0, "name": "c0703d4caee3f7c1ce9af962592e0ff1", "fusion_lat": 0.0, "rental_uris": {"ios": "https://dc.lft.to/lastmile_qr_scan", "android": "https://dc.lft.to/lastmile_qr_scan"}, "lon": -77.02703816666667, "type": "electric_scooter"}, {"bike_id": "a1b837a93bc4cf10ce1bcf4bf81b8aff", "is_reserved": 0, "fusion_lon": 0.0, "lat": 38.90642666666667, "is_disabled": 0, "name": "a1b837a93bc4cf10ce1bcf4bf81b8aff", "fusion_lat": 0.0, "rental_uris": {"ios": "https://dc.lft.to/lastmile_qr_scan", "android": "https://dc.lft.to/lastmile_qr_scan"}, "lon": -77.0250065, "type": "electric_scooter"}, {"bike_id": "cc9192a23dc05a0460574b91c6f4dc6c", "is_reserved": 0, "fusion_lon": 0.0, "lat": 38.939481666666666, "is_disabled": 0, "name": "cc9192a23dc05a0460574b91c6f4dc6c", "fusion_lat": 0.0, "rental_uris": {"ios": "https://dc.lft.to/lastmile_qr_scan", "android": "https://dc.lft.to/lastmile_qr_scan"}, "lon": -77.03263266666667, "type": "electric_scooter"}, {"bike_id": "52a6b8edde5bfe9bee1b1f389dcde8d6", "is_reserved": 0, "fusion_lon": 0.0, "lat": 38.92755066666667, "is_disabled": 0, "name": "52a6b8edde5bfe9bee1b1f389dcde8d6", "fusion_lat": 0.0, "rental_uris": {"ios": "https://dc.lft.to/lastmile_qr_scan", "android": "https://dc.lft.to/lastmile_qr_scan"}, "lon": -77.05371266666667, "type": "electric_scooter"}, {"bike_id": "7b92dc627bca51fd5a1a21d50ae46694", "is_reserved": 0, "fusion_lon": 0.0, "lat": 38.92080883333333, "is_disabled": 0, "name": "7b92dc627bca51fd5a1a21d50ae46694", "fusion_lat": 0.0, "rental_uris": {"ios": "https://dc.lft.to/lastmile_qr_scan", "android": "https://dc.lft.to/lastmile_qr_scan"}, "lon": -77.02551016666666, "type": "electric_scooter"}, {"bike_id": "7f38c3e2a79f9925d1b84cbdbc2d4609", "is_reserved": 0, "fusion_lon": 0.0, "lat": 38.865969166666666, "is_disabled": 0, "name": "7f38c3e2a79f9925d1b84cbdbc2d4609", "fusion_lat": 0.0, "rental_uris": {"ios": "https://dc.lft.to/lastmile_qr_scan", "android": "https://dc.lft.to/lastmile_qr_scan"}, "lon": -76.93226, "type": "electric_bike"}, {"bike_id": "89919cf35e08c41c56d6472385b40441", "is_reserved": 0, "fusion_lon": 0.0, "lat": 38.88594283333333, "is_disabled": 0, "name": "89919cf35e08c41c56d6472385b40441", "fusion_lat": 0.0, "rental_uris": {"ios": "https://dc.lft.to/lastmile_qr_scan", "android": "https://dc.lft.to/lastmile_qr_scan"}, "lon": -76.95264466666667, "type": "electric_scooter"}, {"bike_id": "7a557a1ba6fd84a2b80630b53151a737", "is_reserved": 0, "fusion_lon": 0.0, "lat": 38.91567533333333, "is_disabled": 0, "name": "7a557a1ba6fd84a2b80630b53151a737", "fusion_lat": 0.0, "rental_uris": {"ios": "https://dc.lft.to/lastmile_qr_scan", "android": "https://dc.lft.to/lastmile_qr_scan"}, "lon": -77.02290433333333, "type": "electric_scooter"}, {"bike_id": "8cb5b1f6a22775b26b3ddc8dba12380f", "is_reserved": 0, "fusion_lon": 0.0, "lat": 38.92573433333333, "is_disabled": 0, "name": "8cb5b1f6a22775b26b3ddc8dba12380f", "fusion_lat": 0.0, "rental_uris": {"ios": "https://dc.lft.to/lastmile_qr_scan", "android": "https://dc.lft.to/lastmile_qr_scan"}, "lon": -77.02571516666667, "type": "electric_scooter"}, {"bike_id": "e055e67d63461e2f078e282371eea0ee", "is_reserved": 0, "fusion_lon": 0.0, "lat": 38.91719833333333, "is_disabled": 0, "name": "e055e67d63461e2f078e282371eea0ee", "fusion_lat": 0.0, "rental_uris": {"ios": "https://dc.lft.to/lastmile_qr_scan", "android": "https://dc.lft.to/lastmile_qr_scan"}, "lon": -77.0383875, "type": "electric_scooter"}, {"bike_id": "2c947148eb4c75ad5e0851ced9513b25", "is_reserved": 0, "fusion_lon": 0.0, "lat": 38.920741, "is_disabled": 0, "name": "2c947148eb4c75ad5e0851ced9513b25", "fusion_lat": 0.0, "rental_uris": {"ios": "https://dc.lft.to/lastmile_qr_scan", "android": "https://dc.lft.to/lastmile_qr_scan"}, "lon": -77.02427266666666, "type": "electric_scooter"}, {"bike_id": "4be1714c467a06dcf16edb54bb3b83bc", "is_reserved": 0, "fusion_lon": 0.0, "lat": 38.94392166666667, "is_disabled": 0, "name": "4be1714c467a06dcf16edb54bb3b83bc", "fusion_lat": 0.0, "rental_uris": {"ios": "https://dc.lft.to/lastmile_qr_scan", "android": "https://dc.lft.to/lastmile_qr_scan"}, "lon": -77.038941, "type": "electric_scooter"}, {"bike_id": "3322ffdc5654345f1c04dbef4c37c2d5", "is_reserved": 0, "fusion_lon": 0.0, "lat": 38.89876366666667, "is_disabled": 0, "name": "3322ffdc5654345f1c04dbef4c37c2d5", "fusion_lat": 0.0, "rental_uris": {"ios": "https://dc.lft.to/lastmile_qr_scan", "android": "https://dc.lft.to/lastmile_qr_scan"}, "lon": -76.931585, "type": "electric_scooter"}, {"bike_id": "df65f618d2bd3e6d8f2a696c752fe642", "is_reserved": 0, "fusion_lon": 0.0, "lat": 38.909675166666666, "is_disabled": 0, "name": "df65f618d2bd3e6d8f2a696c752fe642", "fusion_lat": 0.0, "rental_uris": {"ios": "https://dc.lft.to/lastmile_qr_scan", "android": "https://dc.lft.to/lastmile_qr_scan"}, "lon": -77.02727316666666, "type": "electric_scooter"}, {"bike_id": "f183b0b404a9cf55d7251de149b8fd90", "is_reserved": 0, "fusion_lon": 0.0, "lat": 38.914153, "is_disabled": 0, "name": "f183b0b404a9cf55d7251de149b8fd90", "fusion_lat": 0.0, "rental_uris": {"ios": "https://dc.lft.to/lastmile_qr_scan", "android": "https://dc.lft.to/lastmile_qr_scan"}, "lon": -77.03909866666666, "type": "electric_scooter"}, {"bike_id": "cebeb9a6b82f7a5f0d2a6801a0fec0a3", "is_reserved": 0, "fusion_lon": 0.0, "lat": 38.917876, "is_disabled": 0, "name": "cebeb9a6b82f7a5f0d2a6801a0fec0a3", "fusion_lat": 0.0, "rental_uris": {"ios": "https://dc.lft.to/lastmile_qr_scan", "android": "https://dc.lft.to/lastmile_qr_scan"}, "lon": -77.02312966666666, "type": "electric_scooter"}, {"bike_id": "f5ef3be22d1c1fbf9226cf2f5afcb197", "is_reserved": 0, "fusion_lon": 0.0, "lat": 38.9010335, "is_disabled": 0, "name": "f5ef3be22d1c1fbf9226cf2f5afcb197", "fusion_lat": 0.0, "rental_uris": {"ios": "https://dc.lft.to/lastmile_qr_scan", "android": "https://dc.lft.to/lastmile_qr_scan"}, "lon": -77.04363083333334, "type": "electric_scooter"}, {"bike_id": "c4052e7ec6278cc408d0038656936d8e", "is_reserved": 0, "fusion_lon": 0.0, "lat": 38.92444916666667, "is_disabled": 0, "name": "c4052e7ec6278cc408d0038656936d8e", "fusion_lat": 0.0, "rental_uris": {"ios": "https://dc.lft.to/lastmile_qr_scan", "android": "https://dc.lft.to/lastmile_qr_scan"}, "lon": -76.99336933333333, "type": "electric_scooter"}, {"bike_id": "ea530f01628cde6eca71ce00fa3f7a5e", "is_reserved": 0, "fusion_lon": 0.0, "lat": 38.91404433333334, "is_disabled": 0, "name": "ea530f01628cde6eca71ce00fa3f7a5e", "fusion_lat": 0.0, "rental_uris": {"ios": "https://dc.lft.to/lastmile_qr_scan", "android": "https://dc.lft.to/lastmile_qr_scan"}, "lon": -77.001575, "type": "electric_scooter"}, {"bike_id": "7fbf128c37af15aea3deb5249a220f0b", "is_reserved": 0, "fusion_lon": 0.0, "lat": 38.91733083333333, "is_disabled": 0, "name": "7fbf128c37af15aea3deb5249a220f0b", "fusion_lat": 0.0, "rental_uris": {"ios": "https://dc.lft.to/lastmile_qr_scan", "android": "https://dc.lft.to/lastmile_qr_scan"}, "lon": -77.01026183333333, "type": "electric_scooter"}, {"bike_id": "df51f0430330f706f5f16b7a0a2e6227", "is_reserved": 0, "fusion_lon": 0.0, "lat": 38.90381216666667, "is_disabled": 0, "name": "df51f0430330f706f5f16b7a0a2e6227", "fusion_lat": 0.0, "rental_uris": {"ios": "https://dc.lft.to/lastmile_qr_scan", "android": "https://dc.lft.to/lastmile_qr_scan"}, "lon": -76.99828516666666, "type": "electric_scooter"}, {"bike_id": "5fe00e0a2abb659812ba7c79c0b36847", "is_reserved": 0, "fusion_lon": 0.0, "lat": 38.92165266666667, "is_disabled": 0, "name": "5fe00e0a2abb659812ba7c79c0b36847", "fusion_lat": 0.0, "rental_uris": {"ios": "https://dc.lft.to/lastmile_qr_scan", "android": "https://dc.lft.to/lastmile_qr_scan"}, "lon": -76.99398166666667, "type": "electric_scooter"}, {"bike_id": "cb3e9ca3f24bc6c9a441b627f427e69e", "is_reserved": 0, "fusion_lon": 0.0, "lat": 38.8132825, "is_disabled": 0, "name": "cb3e9ca3f24bc6c9a441b627f427e69e", "fusion_lat": 0.0, "rental_uris": {"ios": "https://dc.lft.to/lastmile_qr_scan", "android": "https://dc.lft.to/lastmile_qr_scan"}, "lon": -77.0511335, "type": "electric_bike"}, {"bike_id": "63fbeea996309b08bf3ea0cdbd6e7d40", "is_reserved": 0, "fusion_lon": 0.0, "lat": 38.866591, "is_disabled": 0, "name": "63fbeea996309b08bf3ea0cdbd6e7d40", "fusion_lat": 0.0, "rental_uris": {"ios": "https://dc.lft.to/lastmile_qr_scan", "android": "https://dc.lft.to/lastmile_qr_scan"}, "lon": -76.98882016666667, "type": "electric_scooter"}, {"bike_id": "cd245973079e22b7cf09c9fcc69202dc", "is_reserved": 0, "fusion_lon": 0.0, "lat": 38.88642016666667, "is_disabled": 0, "name": "cd245973079e22b7cf09c9fcc69202dc", "fusion_lat": 0.0, "rental_uris": {"ios": "https://dc.lft.to/lastmile_qr_scan", "android": "https://dc.lft.to/lastmile_qr_scan"}, "lon": -77.02135666666666, "type": "electric_scooter"}, {"bike_id": "7d7873c3e9744dc28142581559a71caa", "is_reserved": 0, "fusion_lon": 0.0, "lat": 38.9068305, "is_disabled": 0, "name": "7d7873c3e9744dc28142581559a71caa", "fusion_lat": 0.0, "rental_uris": {"ios": "https://dc.lft.to/lastmile_qr_scan", "android": "https://dc.lft.to/lastmile_qr_scan"}, "lon": -77.00071116666666, "type": "electric_scooter"}, {"bike_id": "cd52631f6842fa51c187a102686ed64c", "is_reserved": 0, "fusion_lon": 0.0, "lat": 38.86521116666667, "is_disabled": 0, "name": "cd52631f6842fa51c187a102686ed64c", "fusion_lat": 0.0, "rental_uris": {"ios": "https://dc.lft.to/lastmile_qr_scan", "android": "https://dc.lft.to/lastmile_qr_scan"}, "lon": -76.99031466666666, "type": "electric_scooter"}, {"bike_id": "ac065b6657a971f5153dd5dc9045e9a1", "is_reserved": 0, "fusion_lon": 0.0, "lat": 38.86374716666667, "is_disabled": 0, "name": "ac065b6657a971f5153dd5dc9045e9a1", "fusion_lat": 0.0, "rental_uris": {"ios": "https://dc.lft.to/lastmile_qr_scan", "android": "https://dc.lft.to/lastmile_qr_scan"}, "lon": -76.99059166666666, "type": "electric_scooter"}, {"bike_id": "fa988fb66ab4d302149ad4a5717e58ab", "is_reserved": 0, "fusion_lon": 0.0, "lat": 38.893888, "is_disabled": 0, "name": "fa988fb66ab4d302149ad4a5717e58ab", "fusion_lat": 0.0, "rental_uris": {"ios": "https://dc.lft.to/lastmile_qr_scan", "android": "https://dc.lft.to/lastmile_qr_scan"}, "lon": -77.03003316666667, "type": "electric_scooter"}, {"bike_id": "d899146fc82f8fcf55058fe0082bf66c", "is_reserved": 0, "fusion_lon": 0.0, "lat": 38.89999866666667, "is_disabled": 0, "name": "d899146fc82f8fcf55058fe0082bf66c", "fusion_lat": 0.0, "rental_uris": {"ios": "https://dc.lft.to/lastmile_qr_scan", "android": "https://dc.lft.to/lastmile_qr_scan"}, "lon": -76.98459016666666, "type": "electric_scooter"}, {"bike_id": "8276d52ed8faeb5ba6845287ba87a297", "is_reserved": 0, "fusion_lon": 0.0, "lat": 38.871340333333336, "is_disabled": 0, "name": "8276d52ed8faeb5ba6845287ba87a297", "fusion_lat": 0.0, "rental_uris": {"ios": "https://dc.lft.to/lastmile_qr_scan", "android": "https://dc.lft.to/lastmile_qr_scan"}, "lon": -76.97745716666667, "type": "electric_scooter"}, {"bike_id": "1124ee1075577b36db202d305362206e", "is_reserved": 0, "fusion_lon": 0.0, "lat": 38.887246, "is_disabled": 0, "name": "1124ee1075577b36db202d305362206e", "fusion_lat": 0.0, "rental_uris": {"ios": "https://dc.lft.to/lastmile_qr_scan", "android": "https://dc.lft.to/lastmile_qr_scan"}, "lon": -77.02579983333334, "type": "electric_scooter"}, {"bike_id": "f5f2898641d245a36d32083153365800", "is_reserved": 0, "fusion_lon": 0.0, "lat": 38.909712666666664, "is_disabled": 0, "name": "f5f2898641d245a36d32083153365800", "fusion_lat": 0.0, "rental_uris": {"ios": "https://dc.lft.to/lastmile_qr_scan", "android": "https://dc.lft.to/lastmile_qr_scan"}, "lon": -77.03836133333333, "type": "electric_scooter"}, {"bike_id": "7f87c26347087c8b61f8e3d402797fdd", "is_reserved": 0, "fusion_lon": 0.0, "lat": 38.852889166666664, "is_disabled": 0, "name": "7f87c26347087c8b61f8e3d402797fdd", "fusion_lat": 0.0, "rental_uris": {"ios": "https://dc.lft.to/lastmile_qr_scan", "android": "https://dc.lft.to/lastmile_qr_scan"}, "lon": -77.05277833333334, "type": "electric_bike"}, {"bike_id": "8cb4c31ebc7a55c56213747b03266c9e", "is_reserved": 0, "fusion_lon": 0.0, "lat": 38.9199405, "is_disabled": 0, "name": "8cb4c31ebc7a55c56213747b03266c9e", "fusion_lat": 0.0, "rental_uris": {"ios": "https://dc.lft.to/lastmile_qr_scan", "android": "https://dc.lft.to/lastmile_qr_scan"}, "lon": -77.03888416666666, "type": "electric_scooter"}, {"bike_id": "7b38edb03b46d58d352650c2bf116c1c", "is_reserved": 0, "fusion_lon": 0.0, "lat": 38.901638166666665, "is_disabled": 0, "name": "7b38edb03b46d58d352650c2bf116c1c", "fusion_lat": 0.0, "rental_uris": {"ios": "https://dc.lft.to/lastmile_qr_scan", "android": "https://dc.lft.to/lastmile_qr_scan"}, "lon": -77.02837166666667, "type": "electric_scooter"}, {"bike_id": "06d179fd82e0255d3c19e30fc49a6c44", "is_reserved": 0, "fusion_lon": 0.0, "lat": 38.90813, "is_disabled": 0, "name": "06d179fd82e0255d3c19e30fc49a6c44", "fusion_lat": 0.0, "rental_uris": {"ios": "https://dc.lft.to/lastmile_qr_scan", "android": "https://dc.lft.to/lastmile_qr_scan"}, "lon": -77.03206133333333, "type": "electric_scooter"}, {"bike_id": "41d9b9af889d080d91c7006324204c6a", "is_reserved": 0, "fusion_lon": 0.0, "lat": 38.89957233333333, "is_disabled": 0, "name": "41d9b9af889d080d91c7006324204c6a", "fusion_lat": 0.0, "rental_uris": {"ios": "https://dc.lft.to/lastmile_qr_scan", "android": "https://dc.lft.to/lastmile_qr_scan"}, "lon": -77.02398466666666, "type": "electric_scooter"}, {"bike_id": "01c7439a2b2bcde894fc41fbb306749d", "is_reserved": 0, "fusion_lon": 0.0, "lat": 38.887118, "is_disabled": 0, "name": "01c7439a2b2bcde894fc41fbb306749d", "fusion_lat": 0.0, "rental_uris": {"ios": "https://dc.lft.to/lastmile_qr_scan", "android": "https://dc.lft.to/lastmile_qr_scan"}, "lon": -77.0975385, "type": "electric_bike"}, {"bike_id": "c9ff4419836fd12e2fd9143b50af09bb", "is_reserved": 0, "fusion_lon": 0.0, "lat": 38.92511833333333, "is_disabled": 0, "name": "c9ff4419836fd12e2fd9143b50af09bb", "fusion_lat": 0.0, "rental_uris": {"ios": "https://dc.lft.to/lastmile_qr_scan", "android": "https://dc.lft.to/lastmile_qr_scan"}, "lon": -77.01934283333334, "type": "electric_scooter"}, {"bike_id": "18e7444059a14d0a1f1f92904812428e", "is_reserved": 0, "fusion_lon": 0.0, "lat": 38.901124333333335, "is_disabled": 0, "name": "18e7444059a14d0a1f1f92904812428e", "fusion_lat": 0.0, "rental_uris": {"ios": "https://dc.lft.to/lastmile_qr_scan", "android": "https://dc.lft.to/lastmile_qr_scan"}, "lon": -77.0319425, "type": "electric_scooter"}, {"bike_id": "ebd40c4d1bc921312e0eec301c6f0c7f", "is_reserved": 0, "fusion_lon": 0.0, "lat": 38.874585333333336, "is_disabled": 0, "name": "ebd40c4d1bc921312e0eec301c6f0c7f", "fusion_lat": 0.0, "rental_uris": {"ios": "https://dc.lft.to/lastmile_qr_scan", "android": "https://dc.lft.to/lastmile_qr_scan"}, "lon": -77.00542633333333, "type": "electric_scooter"}, {"bike_id": "78ea605bcee9c1ba6e912373220323f1", "is_reserved": 0, "fusion_lon": 0.0, "lat": 38.93890616666667, "is_disabled": 0, "name": "78ea605bcee9c1ba6e912373220323f1", "fusion_lat": 0.0, "rental_uris": {"ios": "https://dc.lft.to/lastmile_qr_scan", "android": "https://dc.lft.to/lastmile_qr_scan"}, "lon": -77.033316, "type": "electric_scooter"}, {"bike_id": "d4e16f8168598c78e26adecefdb03828", "is_reserved": 0, "fusion_lon": 0.0, "lat": 38.921507, "is_disabled": 0, "name": "d4e16f8168598c78e26adecefdb03828", "fusion_lat": 0.0, "rental_uris": {"ios": "https://dc.lft.to/lastmile_qr_scan", "android": "https://dc.lft.to/lastmile_qr_scan"}, "lon": -77.03532866666667, "type": "electric_scooter"}, {"bike_id": "453e9e3eb4a3030cb79e833200ae628b", "is_reserved": 0, "fusion_lon": 0.0, "lat": 38.903239666666664, "is_disabled": 0, "name": "453e9e3eb4a3030cb79e833200ae628b", "fusion_lat": 0.0, "rental_uris": {"ios": "https://dc.lft.to/lastmile_qr_scan", "android": "https://dc.lft.to/lastmile_qr_scan"}, "lon": -77.0377715, "type": "electric_scooter"}, {"bike_id": "28216f2c0e42b72fbd9834456414159e", "is_reserved": 0, "fusion_lon": 0.0, "lat": 38.88502483333333, "is_disabled": 0, "name": "28216f2c0e42b72fbd9834456414159e", "fusion_lat": 0.0, "rental_uris": {"ios": "https://dc.lft.to/lastmile_qr_scan", "android": "https://dc.lft.to/lastmile_qr_scan"}, "lon": -77.0056835, "type": "electric_scooter"}, {"bike_id": "ed26635ea6749779be059a45417c1c73", "is_reserved": 0, "fusion_lon": 0.0, "lat": 38.922462333333335, "is_disabled": 0, "name": "ed26635ea6749779be059a45417c1c73", "fusion_lat": 0.0, "rental_uris": {"ios": "https://dc.lft.to/lastmile_qr_scan", "android": "https://dc.lft.to/lastmile_qr_scan"}, "lon": -77.03664633333334, "type": "electric_scooter"}, {"bike_id": "69c1a0122ce4378b159d2469384a0a09", "is_reserved": 0, "fusion_lon": 0.0, "lat": 38.91838933333333, "is_disabled": 0, "name": "69c1a0122ce4378b159d2469384a0a09", "fusion_lat": 0.0, "rental_uris": {"ios": "https://dc.lft.to/lastmile_qr_scan", "android": "https://dc.lft.to/lastmile_qr_scan"}, "lon": -77.02302966666667, "type": "electric_scooter"}, {"bike_id": "1e15cbc4a4181c64aeba2b7e4aea174c", "is_reserved": 0, "fusion_lon": 0.0, "lat": 38.906243, "is_disabled": 0, "name": "1e15cbc4a4181c64aeba2b7e4aea174c", "fusion_lat": 0.0, "rental_uris": {"ios": "https://dc.lft.to/lastmile_qr_scan", "android": "https://dc.lft.to/lastmile_qr_scan"}, "lon": -77.03949566666667, "type": "electric_scooter"}, {"bike_id": "b8050ea32d38a9b562ae9880e5dc4d11", "is_reserved": 0, "fusion_lon": 0.0, "lat": 38.9037575, "is_disabled": 0, "name": "b8050ea32d38a9b562ae9880e5dc4d11", "fusion_lat": 0.0, "rental_uris": {"ios": "https://dc.lft.to/lastmile_qr_scan", "android": "https://dc.lft.to/lastmile_qr_scan"}, "lon": -77.03968, "type": "electric_scooter"}, {"bike_id": "71dc58167ab001e8bf8629dae07802fd", "is_reserved": 0, "fusion_lon": 0.0, "lat": 38.918722333333335, "is_disabled": 0, "name": "71dc58167ab001e8bf8629dae07802fd", "fusion_lat": 0.0, "rental_uris": {"ios": "https://dc.lft.to/lastmile_qr_scan", "android": "https://dc.lft.to/lastmile_qr_scan"}, "lon": -77.043479, "type": "electric_scooter"}, {"bike_id": "013dda2d476fb8375d5c78412c5be2dd", "is_reserved": 0, "fusion_lon": 0.0, "lat": 38.959135, "is_disabled": 0, "name": "013dda2d476fb8375d5c78412c5be2dd", "fusion_lat": 0.0, "rental_uris": {"ios": "https://dc.lft.to/lastmile_qr_scan", "android": "https://dc.lft.to/lastmile_qr_scan"}, "lon": -77.0015185, "type": "electric_bike"}, {"bike_id": "0b7be70d6266a498fba9e5e0e4dd95e9", "is_reserved": 0, "fusion_lon": 0.0, "lat": 38.912696, "is_disabled": 0, "name": "0b7be70d6266a498fba9e5e0e4dd95e9", "fusion_lat": 0.0, "rental_uris": {"ios": "https://dc.lft.to/lastmile_qr_scan", "android": "https://dc.lft.to/lastmile_qr_scan"}, "lon": -77.02213133333333, "type": "electric_scooter"}, {"bike_id": "69cf109b8e48cab18183894fc4c452fd", "is_reserved": 0, "fusion_lon": 0.0, "lat": 38.928825, "is_disabled": 0, "name": "69cf109b8e48cab18183894fc4c452fd", "fusion_lat": 0.0, "rental_uris": {"ios": "https://dc.lft.to/lastmile_qr_scan", "android": "https://dc.lft.to/lastmile_qr_scan"}, "lon": -77.03759933333333, "type": "electric_scooter"}, {"bike_id": "67447c07fc7d3b72cafa423d1884585f", "is_reserved": 0, "fusion_lon": 0.0, "lat": 38.93661916666667, "is_disabled": 0, "name": "67447c07fc7d3b72cafa423d1884585f", "fusion_lat": 0.0, "rental_uris": {"ios": "https://dc.lft.to/lastmile_qr_scan", "android": "https://dc.lft.to/lastmile_qr_scan"}, "lon": -77.03629483333333, "type": "electric_scooter"}, {"bike_id": "bc4e34dff4b09d5704a33d6ceaae45b4", "is_reserved": 0, "fusion_lon": 0.0, "lat": 38.887392, "is_disabled": 0, "name": "bc4e34dff4b09d5704a33d6ceaae45b4", "fusion_lat": 0.0, "rental_uris": {"ios": "https://dc.lft.to/lastmile_qr_scan", "android": "https://dc.lft.to/lastmile_qr_scan"}, "lon": -77.01534033333333, "type": "electric_scooter"}, {"bike_id": "b30c1fe07b12f7b2158cd16eaf71151a", "is_reserved": 0, "fusion_lon": 0.0, "lat": 38.899698666666666, "is_disabled": 0, "name": "b30c1fe07b12f7b2158cd16eaf71151a", "fusion_lat": 0.0, "rental_uris": {"ios": "https://dc.lft.to/lastmile_qr_scan", "android": "https://dc.lft.to/lastmile_qr_scan"}, "lon": -77.03122433333333, "type": "electric_scooter"}, {"bike_id": "7e71e9d2ce9c6c06ab1f14a6e0b431b7", "is_reserved": 0, "fusion_lon": 0.0, "lat": 38.897697, "is_disabled": 0, "name": "7e71e9d2ce9c6c06ab1f14a6e0b431b7", "fusion_lat": 0.0, "rental_uris": {"ios": "https://dc.lft.to/lastmile_qr_scan", "android": "https://dc.lft.to/lastmile_qr_scan"}, "lon": -77.00752616666666, "type": "electric_scooter"}, {"bike_id": "fce403250ec1360ad2ed8b469a5ef912", "is_reserved": 0, "fusion_lon": 0.0, "lat": 38.90971416666667, "is_disabled": 0, "name": "fce403250ec1360ad2ed8b469a5ef912", "fusion_lat": 0.0, "rental_uris": {"ios": "https://dc.lft.to/lastmile_qr_scan", "android": "https://dc.lft.to/lastmile_qr_scan"}, "lon": -77.02726916666667, "type": "electric_scooter"}, {"bike_id": "b9cdf0652b1e64a47423e10ad6057e45", "is_reserved": 0, "fusion_lon": 0.0, "lat": 38.9111195, "is_disabled": 0, "name": "b9cdf0652b1e64a47423e10ad6057e45", "fusion_lat": 0.0, "rental_uris": {"ios": "https://dc.lft.to/lastmile_qr_scan", "android": "https://dc.lft.to/lastmile_qr_scan"}, "lon": -77.06521533333333, "type": "electric_scooter"}, {"bike_id": "e839f2b95724d609503223e5b92b52f0", "is_reserved": 0, "fusion_lon": 0.0, "lat": 38.9361325, "is_disabled": 0, "name": "e839f2b95724d609503223e5b92b52f0", "fusion_lat": 0.0, "rental_uris": {"ios": "https://dc.lft.to/lastmile_qr_scan", "android": "https://dc.lft.to/lastmile_qr_scan"}, "lon": -77.03203616666667, "type": "electric_scooter"}, {"bike_id": "b4aabc82b22ba02939cdb788f6088ede", "is_reserved": 0, "fusion_lon": 0.0, "lat": 38.900116, "is_disabled": 0, "name": "b4aabc82b22ba02939cdb788f6088ede", "fusion_lat": 0.0, "rental_uris": {"ios": "https://dc.lft.to/lastmile_qr_scan", "android": "https://dc.lft.to/lastmile_qr_scan"}, "lon": -77.01121216666667, "type": "electric_scooter"}, {"bike_id": "b05123fe6837f85fa9dced97ab20b729", "is_reserved": 0, "fusion_lon": 0.0, "lat": 38.901359, "is_disabled": 0, "name": "b05123fe6837f85fa9dced97ab20b729", "fusion_lat": 0.0, "rental_uris": {"ios": "https://dc.lft.to/lastmile_qr_scan", "android": "https://dc.lft.to/lastmile_qr_scan"}, "lon": -77.04481883333334, "type": "electric_scooter"}, {"bike_id": "6f8400bc1c72747d4972ea47694c2642", "is_reserved": 0, "fusion_lon": 0.0, "lat": 38.862459666666666, "is_disabled": 0, "name": "6f8400bc1c72747d4972ea47694c2642", "fusion_lat": 0.0, "rental_uris": {"ios": "https://dc.lft.to/lastmile_qr_scan", "android": "https://dc.lft.to/lastmile_qr_scan"}, "lon": -76.99487916666666, "type": "electric_scooter"}, {"bike_id": "244ac08eea55496be8e9dd0f3635dd7c", "is_reserved": 0, "fusion_lon": 0.0, "lat": 38.91859383333333, "is_disabled": 0, "name": "244ac08eea55496be8e9dd0f3635dd7c", "fusion_lat": 0.0, "rental_uris": {"ios": "https://dc.lft.to/lastmile_qr_scan", "android": "https://dc.lft.to/lastmile_qr_scan"}, "lon": -77.041735, "type": "electric_scooter"}, {"bike_id": "f24557f8b8ed7868e580ebea511f2b85", "is_reserved": 0, "fusion_lon": 0.0, "lat": 38.9051025, "is_disabled": 0, "name": "f24557f8b8ed7868e580ebea511f2b85", "fusion_lat": 0.0, "rental_uris": {"ios": "https://dc.lft.to/lastmile_qr_scan", "android": "https://dc.lft.to/lastmile_qr_scan"}, "lon": -77.041798, "type": "electric_scooter"}, {"bike_id": "cb5954b7400975fa322e44691af4d88f", "is_reserved": 0, "fusion_lon": 0.0, "lat": 38.93347133333333, "is_disabled": 0, "name": "cb5954b7400975fa322e44691af4d88f", "fusion_lat": 0.0, "rental_uris": {"ios": "https://dc.lft.to/lastmile_qr_scan", "android": "https://dc.lft.to/lastmile_qr_scan"}, "lon": -77.05865233333333, "type": "electric_scooter"}, {"bike_id": "bb328f1a9d60e800e3e5927b8fa6dc8f", "is_reserved": 0, "fusion_lon": 0.0, "lat": 38.92332016666667, "is_disabled": 0, "name": "bb328f1a9d60e800e3e5927b8fa6dc8f", "fusion_lat": 0.0, "rental_uris": {"ios": "https://dc.lft.to/lastmile_qr_scan", "android": "https://dc.lft.to/lastmile_qr_scan"}, "lon": -77.03509866666667, "type": "electric_scooter"}, {"bike_id": "bd3021214ffbacb7f856d158bb1aa37c", "is_reserved": 0, "fusion_lon": 0.0, "lat": 38.883926833333334, "is_disabled": 0, "name": "bd3021214ffbacb7f856d158bb1aa37c", "fusion_lat": 0.0, "rental_uris": {"ios": "https://dc.lft.to/lastmile_qr_scan", "android": "https://dc.lft.to/lastmile_qr_scan"}, "lon": -76.98590733333333, "type": "electric_scooter"}, {"bike_id": "d5a29a6677a7560a9b0ff6a5e42430b7", "is_reserved": 0, "fusion_lon": 0.0, "lat": 38.896763, "is_disabled": 0, "name": "d5a29a6677a7560a9b0ff6a5e42430b7", "fusion_lat": 0.0, "rental_uris": {"ios": "https://dc.lft.to/lastmile_qr_scan", "android": "https://dc.lft.to/lastmile_qr_scan"}, "lon": -76.996238, "type": "electric_scooter"}, {"bike_id": "86845c798e867dfc5e9c05cb0655c36a", "is_reserved": 0, "fusion_lon": 0.0, "lat": 38.914041166666664, "is_disabled": 0, "name": "86845c798e867dfc5e9c05cb0655c36a", "fusion_lat": 0.0, "rental_uris": {"ios": "https://dc.lft.to/lastmile_qr_scan", "android": "https://dc.lft.to/lastmile_qr_scan"}, "lon": -77.03175466666667, "type": "electric_scooter"}, {"bike_id": "8e39f09ea45f81736ce3a3bf6ac13220", "is_reserved": 0, "fusion_lon": 0.0, "lat": 38.913338, "is_disabled": 0, "name": "8e39f09ea45f81736ce3a3bf6ac13220", "fusion_lat": 0.0, "rental_uris": {"ios": "https://dc.lft.to/lastmile_qr_scan", "android": "https://dc.lft.to/lastmile_qr_scan"}, "lon": -77.0312065, "type": "electric_scooter"}, {"bike_id": "24037d7d5019e0b7f18c6514c64ee793", "is_reserved": 0, "fusion_lon": 0.0, "lat": 38.842901833333336, "is_disabled": 0, "name": "24037d7d5019e0b7f18c6514c64ee793", "fusion_lat": 0.0, "rental_uris": {"ios": "https://dc.lft.to/lastmile_qr_scan", "android": "https://dc.lft.to/lastmile_qr_scan"}, "lon": -76.99948, "type": "electric_scooter"}, {"bike_id": "e633a26b6bf341f9004fd4bf38cb4aa7", "is_reserved": 0, "fusion_lon": 0.0, "lat": 38.940508333333334, "is_disabled": 0, "name": "e633a26b6bf341f9004fd4bf38cb4aa7", "fusion_lat": 0.0, "rental_uris": {"ios": "https://dc.lft.to/lastmile_qr_scan", "android": "https://dc.lft.to/lastmile_qr_scan"}, "lon": -77.09270616666667, "type": "electric_scooter"}, {"bike_id": "9e11c7b872610e725eafff1b171c92bc", "is_reserved": 0, "fusion_lon": 0.0, "lat": 38.898215666666665, "is_disabled": 0, "name": "9e11c7b872610e725eafff1b171c92bc", "fusion_lat": 0.0, "rental_uris": {"ios": "https://dc.lft.to/lastmile_qr_scan", "android": "https://dc.lft.to/lastmile_qr_scan"}, "lon": -77.02931116666667, "type": "electric_scooter"}, {"bike_id": "71fcd924a74d91be53ac30910d7fd6bf", "is_reserved": 0, "fusion_lon": 0.0, "lat": 38.903644166666666, "is_disabled": 0, "name": "71fcd924a74d91be53ac30910d7fd6bf", "fusion_lat": 0.0, "rental_uris": {"ios": "https://dc.lft.to/lastmile_qr_scan", "android": "https://dc.lft.to/lastmile_qr_scan"}, "lon": -77.01899166666666, "type": "electric_scooter"}, {"bike_id": "dcf310099870594ebc2d8b65ff5ba3ec", "is_reserved": 0, "fusion_lon": 0.0, "lat": 38.907495, "is_disabled": 0, "name": "dcf310099870594ebc2d8b65ff5ba3ec", "fusion_lat": 0.0, "rental_uris": {"ios": "https://dc.lft.to/lastmile_qr_scan", "android": "https://dc.lft.to/lastmile_qr_scan"}, "lon": -77.0009055, "type": "electric_scooter"}, {"bike_id": "c5598a608c6147e6e486a1f8270a1458", "is_reserved": 0, "fusion_lon": 0.0, "lat": 38.903250166666666, "is_disabled": 0, "name": "c5598a608c6147e6e486a1f8270a1458", "fusion_lat": 0.0, "rental_uris": {"ios": "https://dc.lft.to/lastmile_qr_scan", "android": "https://dc.lft.to/lastmile_qr_scan"}, "lon": -77.03869483333334, "type": "electric_scooter"}, {"bike_id": "b7e77758c6c61c81f4195edaddb4364d", "is_reserved": 0, "fusion_lon": 0.0, "lat": 38.91746366666667, "is_disabled": 0, "name": "b7e77758c6c61c81f4195edaddb4364d", "fusion_lat": 0.0, "rental_uris": {"ios": "https://dc.lft.to/lastmile_qr_scan", "android": "https://dc.lft.to/lastmile_qr_scan"}, "lon": -77.00754816666667, "type": "electric_scooter"}, {"bike_id": "ca3fc251ef1212bb05e486c406ffcb2c", "is_reserved": 0, "fusion_lon": 0.0, "lat": 38.86699183333333, "is_disabled": 0, "name": "ca3fc251ef1212bb05e486c406ffcb2c", "fusion_lat": 0.0, "rental_uris": {"ios": "https://dc.lft.to/lastmile_qr_scan", "android": "https://dc.lft.to/lastmile_qr_scan"}, "lon": -76.98715033333333, "type": "electric_scooter"}, {"bike_id": "88f8d51632bd1ae5ecaaf0b019da3022", "is_reserved": 0, "fusion_lon": 0.0, "lat": 38.9141365, "is_disabled": 0, "name": "88f8d51632bd1ae5ecaaf0b019da3022", "fusion_lat": 0.0, "rental_uris": {"ios": "https://dc.lft.to/lastmile_qr_scan", "android": "https://dc.lft.to/lastmile_qr_scan"}, "lon": -77.04144816666667, "type": "electric_scooter"}, {"bike_id": "30f6e69282565815ee5ce7c223c4bb93", "is_reserved": 0, "fusion_lon": 0.0, "lat": 38.974357833333336, "is_disabled": 0, "name": "30f6e69282565815ee5ce7c223c4bb93", "fusion_lat": 0.0, "rental_uris": {"ios": "https://dc.lft.to/lastmile_qr_scan", "android": "https://dc.lft.to/lastmile_qr_scan"}, "lon": -77.01531066666666, "type": "electric_scooter"}, {"bike_id": "d0f4291da4a4a55f7d8a601c44c3b309", "is_reserved": 0, "fusion_lon": 0.0, "lat": 38.9274, "is_disabled": 0, "name": "d0f4291da4a4a55f7d8a601c44c3b309", "fusion_lat": 0.0, "rental_uris": {"ios": "https://dc.lft.to/lastmile_qr_scan", "android": "https://dc.lft.to/lastmile_qr_scan"}, "lon": -77.01203716666667, "type": "electric_scooter"}, {"bike_id": "8854d84dfb48fc249b3c79685dd87175", "is_reserved": 0, "fusion_lon": 0.0, "lat": 38.89271133333333, "is_disabled": 0, "name": "8854d84dfb48fc249b3c79685dd87175", "fusion_lat": 0.0, "rental_uris": {"ios": "https://dc.lft.to/lastmile_qr_scan", "android": "https://dc.lft.to/lastmile_qr_scan"}, "lon": -77.02190216666666, "type": "electric_bike"}, {"bike_id": "6723847dd1f7734d036f0db8230b0f68", "is_reserved": 0, "fusion_lon": 0.0, "lat": 38.89732016666667, "is_disabled": 0, "name": "6723847dd1f7734d036f0db8230b0f68", "fusion_lat": 0.0, "rental_uris": {"ios": "https://dc.lft.to/lastmile_qr_scan", "android": "https://dc.lft.to/lastmile_qr_scan"}, "lon": -77.04340616666667, "type": "electric_scooter"}, {"bike_id": "51d66e2099894b9f1a2f28d80d259d25", "is_reserved": 0, "fusion_lon": 0.0, "lat": 38.91921933333333, "is_disabled": 0, "name": "51d66e2099894b9f1a2f28d80d259d25", "fusion_lat": 0.0, "rental_uris": {"ios": "https://dc.lft.to/lastmile_qr_scan", "android": "https://dc.lft.to/lastmile_qr_scan"}, "lon": -77.0314125, "type": "electric_scooter"}, {"bike_id": "64461f9f734036b53f0e2fd5ac740af5", "is_reserved": 0, "fusion_lon": 0.0, "lat": 38.91275016666667, "is_disabled": 0, "name": "64461f9f734036b53f0e2fd5ac740af5", "fusion_lat": 0.0, "rental_uris": {"ios": "https://dc.lft.to/lastmile_qr_scan", "android": "https://dc.lft.to/lastmile_qr_scan"}, "lon": -77.013557, "type": "electric_scooter"}, {"bike_id": "613f4ddbdfb74d36b255a0165ab3aaa4", "is_reserved": 0, "fusion_lon": 0.0, "lat": 38.90616216666667, "is_disabled": 0, "name": "613f4ddbdfb74d36b255a0165ab3aaa4", "fusion_lat": 0.0, "rental_uris": {"ios": "https://dc.lft.to/lastmile_qr_scan", "android": "https://dc.lft.to/lastmile_qr_scan"}, "lon": -77.04143283333333, "type": "electric_scooter"}, {"bike_id": "93985e2bbe4d76b5c0c29fa3c8e9b55f", "is_reserved": 0, "fusion_lon": 0.0, "lat": 38.931019166666665, "is_disabled": 0, "name": "93985e2bbe4d76b5c0c29fa3c8e9b55f", "fusion_lat": 0.0, "rental_uris": {"ios": "https://dc.lft.to/lastmile_qr_scan", "android": "https://dc.lft.to/lastmile_qr_scan"}, "lon": -77.038063, "type": "electric_scooter"}, {"bike_id": "b814c2b13d710825fefd695b0d10a4ff", "is_reserved": 0, "fusion_lon": 0.0, "lat": 38.90093016666667, "is_disabled": 0, "name": "b814c2b13d710825fefd695b0d10a4ff", "fusion_lat": 0.0, "rental_uris": {"ios": "https://dc.lft.to/lastmile_qr_scan", "android": "https://dc.lft.to/lastmile_qr_scan"}, "lon": -76.97468816666667, "type": "electric_scooter"}, {"bike_id": "a574a5840a7fd3b7d5d4abdc45ee811e", "is_reserved": 0, "fusion_lon": 0.0, "lat": 38.90957516666667, "is_disabled": 0, "name": "a574a5840a7fd3b7d5d4abdc45ee811e", "fusion_lat": 0.0, "rental_uris": {"ios": "https://dc.lft.to/lastmile_qr_scan", "android": "https://dc.lft.to/lastmile_qr_scan"}, "lon": -77.02551116666666, "type": "electric_scooter"}, {"bike_id": "1cfba62f3a853ab8981fecc1955c4f3f", "is_reserved": 0, "fusion_lon": 0.0, "lat": 38.906602666666664, "is_disabled": 0, "name": "1cfba62f3a853ab8981fecc1955c4f3f", "fusion_lat": 0.0, "rental_uris": {"ios": "https://dc.lft.to/lastmile_qr_scan", "android": "https://dc.lft.to/lastmile_qr_scan"}, "lon": -77.05143466666667, "type": "electric_scooter"}, {"bike_id": "6173b7826b9438a94429d1c2b1e9e7d9", "is_reserved": 0, "fusion_lon": 0.0, "lat": 38.90020966666667, "is_disabled": 0, "name": "6173b7826b9438a94429d1c2b1e9e7d9", "fusion_lat": 0.0, "rental_uris": {"ios": "https://dc.lft.to/lastmile_qr_scan", "android": "https://dc.lft.to/lastmile_qr_scan"}, "lon": -77.04027233333333, "type": "electric_scooter"}, {"bike_id": "edd6718cee960311e3cda309c25ea7f1", "is_reserved": 0, "fusion_lon": 0.0, "lat": 38.89268666666667, "is_disabled": 0, "name": "edd6718cee960311e3cda309c25ea7f1", "fusion_lat": 0.0, "rental_uris": {"ios": "https://dc.lft.to/lastmile_qr_scan", "android": "https://dc.lft.to/lastmile_qr_scan"}, "lon": -77.02613833333334, "type": "electric_scooter"}, {"bike_id": "64df2f919d27c89718945b90362743e0", "is_reserved": 0, "fusion_lon": 0.0, "lat": 38.91859483333333, "is_disabled": 0, "name": "64df2f919d27c89718945b90362743e0", "fusion_lat": 0.0, "rental_uris": {"ios": "https://dc.lft.to/lastmile_qr_scan", "android": "https://dc.lft.to/lastmile_qr_scan"}, "lon": -77.0444745, "type": "electric_scooter"}, {"bike_id": "9c22fab47152664d4d77f6cd21991d72", "is_reserved": 0, "fusion_lon": 0.0, "lat": 38.865218666666664, "is_disabled": 0, "name": "9c22fab47152664d4d77f6cd21991d72", "fusion_lat": 0.0, "rental_uris": {"ios": "https://dc.lft.to/lastmile_qr_scan", "android": "https://dc.lft.to/lastmile_qr_scan"}, "lon": -76.99033116666666, "type": "electric_scooter"}, {"bike_id": "cc2a76f2238820091498a9f74833d8c8", "is_reserved": 0, "fusion_lon": 0.0, "lat": 38.922564666666666, "is_disabled": 0, "name": "cc2a76f2238820091498a9f74833d8c8", "fusion_lat": 0.0, "rental_uris": {"ios": "https://dc.lft.to/lastmile_qr_scan", "android": "https://dc.lft.to/lastmile_qr_scan"}, "lon": -77.03640766666666, "type": "electric_scooter"}, {"bike_id": "61ede7dca864e632cbbb57f22a8599c3", "is_reserved": 0, "fusion_lon": 0.0, "lat": 38.94089783333333, "is_disabled": 0, "name": "61ede7dca864e632cbbb57f22a8599c3", "fusion_lat": 0.0, "rental_uris": {"ios": "https://dc.lft.to/lastmile_qr_scan", "android": "https://dc.lft.to/lastmile_qr_scan"}, "lon": -77.06192483333334, "type": "electric_scooter"}, {"bike_id": "6dd37f2ca7c17f0ea6764427b28706a8", "is_reserved": 0, "fusion_lon": 0.0, "lat": 38.90621133333333, "is_disabled": 0, "name": "6dd37f2ca7c17f0ea6764427b28706a8", "fusion_lat": 0.0, "rental_uris": {"ios": "https://dc.lft.to/lastmile_qr_scan", "android": "https://dc.lft.to/lastmile_qr_scan"}, "lon": -77.03971283333334, "type": "electric_scooter"}, {"bike_id": "1d09107a0557cb1d26e7be38770d33fb", "is_reserved": 0, "fusion_lon": 0.0, "lat": 38.89548666666666, "is_disabled": 0, "name": "1d09107a0557cb1d26e7be38770d33fb", "fusion_lat": 0.0, "rental_uris": {"ios": "https://dc.lft.to/lastmile_qr_scan", "android": "https://dc.lft.to/lastmile_qr_scan"}, "lon": -77.02198283333334, "type": "electric_scooter"}, {"bike_id": "64f9c995ca03a2016dece7536b8e4648", "is_reserved": 0, "fusion_lon": 0.0, "lat": 38.8991205, "is_disabled": 0, "name": "64f9c995ca03a2016dece7536b8e4648", "fusion_lat": 0.0, "rental_uris": {"ios": "https://dc.lft.to/lastmile_qr_scan", "android": "https://dc.lft.to/lastmile_qr_scan"}, "lon": -77.03277966666667, "type": "electric_scooter"}, {"bike_id": "af03baf29365b55306dfc12bc4a7b657", "is_reserved": 0, "fusion_lon": 0.0, "lat": 38.8955425, "is_disabled": 0, "name": "af03baf29365b55306dfc12bc4a7b657", "fusion_lat": 0.0, "rental_uris": {"ios": "https://dc.lft.to/lastmile_qr_scan", "android": "https://dc.lft.to/lastmile_qr_scan"}, "lon": -76.93048366666666, "type": "electric_scooter"}, {"bike_id": "f00b8da01b267ada4d42e0e43ce5c0fb", "is_reserved": 0, "fusion_lon": 0.0, "lat": 38.9159525, "is_disabled": 0, "name": "f00b8da01b267ada4d42e0e43ce5c0fb", "fusion_lat": 0.0, "rental_uris": {"ios": "https://dc.lft.to/lastmile_qr_scan", "android": "https://dc.lft.to/lastmile_qr_scan"}, "lon": -76.9838045, "type": "electric_scooter"}, {"bike_id": "6effb1b74be96afe09d6c3188d667525", "is_reserved": 0, "fusion_lon": 0.0, "lat": 39.058092333333335, "is_disabled": 0, "name": "6effb1b74be96afe09d6c3188d667525", "fusion_lat": 0.0, "rental_uris": {"ios": "https://dc.lft.to/lastmile_qr_scan", "android": "https://dc.lft.to/lastmile_qr_scan"}, "lon": -77.1262555, "type": "electric_bike"}, {"bike_id": "6a266622bdccf245716f570d39bee6e0", "is_reserved": 0, "fusion_lon": 0.0, "lat": 38.89847866666667, "is_disabled": 0, "name": "6a266622bdccf245716f570d39bee6e0", "fusion_lat": 0.0, "rental_uris": {"ios": "https://dc.lft.to/lastmile_qr_scan", "android": "https://dc.lft.to/lastmile_qr_scan"}, "lon": -77.02866316666666, "type": "electric_scooter"}, {"bike_id": "87427862036594befe76ffe51064aed0", "is_reserved": 0, "fusion_lon": 0.0, "lat": 38.92503583333333, "is_disabled": 0, "name": "87427862036594befe76ffe51064aed0", "fusion_lat": 0.0, "rental_uris": {"ios": "https://dc.lft.to/lastmile_qr_scan", "android": "https://dc.lft.to/lastmile_qr_scan"}, "lon": -77.02176616666667, "type": "electric_scooter"}, {"bike_id": "acacdc85498842e60a02ef40a1d8466d", "is_reserved": 0, "fusion_lon": 0.0, "lat": 38.902367, "is_disabled": 0, "name": "acacdc85498842e60a02ef40a1d8466d", "fusion_lat": 0.0, "rental_uris": {"ios": "https://dc.lft.to/lastmile_qr_scan", "android": "https://dc.lft.to/lastmile_qr_scan"}, "lon": -77.002008, "type": "electric_scooter"}, {"bike_id": "1639430ca9596decf520d1069704725e", "is_reserved": 0, "fusion_lon": 0.0, "lat": 38.846104833333335, "is_disabled": 0, "name": "1639430ca9596decf520d1069704725e", "fusion_lat": 0.0, "rental_uris": {"ios": "https://dc.lft.to/lastmile_qr_scan", "android": "https://dc.lft.to/lastmile_qr_scan"}, "lon": -76.9783385, "type": "electric_bike"}, {"bike_id": "27215368b2b45dea2cfb19c53ea70d5a", "is_reserved": 0, "fusion_lon": 0.0, "lat": 38.914682666666664, "is_disabled": 0, "name": "27215368b2b45dea2cfb19c53ea70d5a", "fusion_lat": 0.0, "rental_uris": {"ios": "https://dc.lft.to/lastmile_qr_scan", "android": "https://dc.lft.to/lastmile_qr_scan"}, "lon": -77.008378, "type": "electric_scooter"}, {"bike_id": "c59089df434e3b974c0c66c095175046", "is_reserved": 0, "fusion_lon": 0.0, "lat": 38.927115666666666, "is_disabled": 0, "name": "c59089df434e3b974c0c66c095175046", "fusion_lat": 0.0, "rental_uris": {"ios": "https://dc.lft.to/lastmile_qr_scan", "android": "https://dc.lft.to/lastmile_qr_scan"}, "lon": -77.02101233333333, "type": "electric_scooter"}, {"bike_id": "75162694be0f0b40503bfa50928bfa19", "is_reserved": 0, "fusion_lon": 0.0, "lat": 38.90676116666667, "is_disabled": 0, "name": "75162694be0f0b40503bfa50928bfa19", "fusion_lat": 0.0, "rental_uris": {"ios": "https://dc.lft.to/lastmile_qr_scan", "android": "https://dc.lft.to/lastmile_qr_scan"}, "lon": -77.0347265, "type": "electric_scooter"}, {"bike_id": "3dbdeadaf4a54aba163653d16540917d", "is_reserved": 0, "fusion_lon": 0.0, "lat": 38.904059833333335, "is_disabled": 0, "name": "3dbdeadaf4a54aba163653d16540917d", "fusion_lat": 0.0, "rental_uris": {"ios": "https://dc.lft.to/lastmile_qr_scan", "android": "https://dc.lft.to/lastmile_qr_scan"}, "lon": -77.04344833333333, "type": "electric_scooter"}, {"bike_id": "bd07d1a1ac56416b5362f9bfa5a803be", "is_reserved": 0, "fusion_lon": 0.0, "lat": 38.9059175, "is_disabled": 0, "name": "bd07d1a1ac56416b5362f9bfa5a803be", "fusion_lat": 0.0, "rental_uris": {"ios": "https://dc.lft.to/lastmile_qr_scan", "android": "https://dc.lft.to/lastmile_qr_scan"}, "lon": -77.00277066666666, "type": "electric_scooter"}, {"bike_id": "ff780e1e68ff234f5bdadc09409dba8f", "is_reserved": 0, "fusion_lon": 0.0, "lat": 38.9209955, "is_disabled": 0, "name": "ff780e1e68ff234f5bdadc09409dba8f", "fusion_lat": 0.0, "rental_uris": {"ios": "https://dc.lft.to/lastmile_qr_scan", "android": "https://dc.lft.to/lastmile_qr_scan"}, "lon": -77.03179966666667, "type": "electric_scooter"}, {"bike_id": "60a55fb6fa9775db10bda5416c8c3311", "is_reserved": 0, "fusion_lon": 0.0, "lat": 38.905719500000004, "is_disabled": 0, "name": "60a55fb6fa9775db10bda5416c8c3311", "fusion_lat": 0.0, "rental_uris": {"ios": "https://dc.lft.to/lastmile_qr_scan", "android": "https://dc.lft.to/lastmile_qr_scan"}, "lon": -77.03867183333334, "type": "electric_scooter"}, {"bike_id": "63cc4e88c5bac6c55c212b6c069b01dc", "is_reserved": 0, "fusion_lon": 0.0, "lat": 38.93097616666667, "is_disabled": 0, "name": "63cc4e88c5bac6c55c212b6c069b01dc", "fusion_lat": 0.0, "rental_uris": {"ios": "https://dc.lft.to/lastmile_qr_scan", "android": "https://dc.lft.to/lastmile_qr_scan"}, "lon": -77.025095, "type": "electric_scooter"}, {"bike_id": "906975aed7d673fc9a947cd9ca4e7e3b", "is_reserved": 0, "fusion_lon": 0.0, "lat": 38.89619833333333, "is_disabled": 0, "name": "906975aed7d673fc9a947cd9ca4e7e3b", "fusion_lat": 0.0, "rental_uris": {"ios": "https://dc.lft.to/lastmile_qr_scan", "android": "https://dc.lft.to/lastmile_qr_scan"}, "lon": -77.03228883333334, "type": "electric_scooter"}, {"bike_id": "5227d0242a2887da90ed5fc739a3455a", "is_reserved": 0, "fusion_lon": 0.0, "lat": 38.866050333333334, "is_disabled": 0, "name": "5227d0242a2887da90ed5fc739a3455a", "fusion_lat": 0.0, "rental_uris": {"ios": "https://dc.lft.to/lastmile_qr_scan", "android": "https://dc.lft.to/lastmile_qr_scan"}, "lon": -76.98917983333334, "type": "electric_scooter"}, {"bike_id": "476899aca1faa3ab560b35b5cce65f04", "is_reserved": 0, "fusion_lon": 0.0, "lat": 38.900345333333334, "is_disabled": 0, "name": "476899aca1faa3ab560b35b5cce65f04", "fusion_lat": 0.0, "rental_uris": {"ios": "https://dc.lft.to/lastmile_qr_scan", "android": "https://dc.lft.to/lastmile_qr_scan"}, "lon": -77.04692733333333, "type": "electric_scooter"}, {"bike_id": "4676fd80823669493a78cc595bf1c178", "is_reserved": 0, "fusion_lon": 0.0, "lat": 38.85533516666667, "is_disabled": 0, "name": "4676fd80823669493a78cc595bf1c178", "fusion_lat": 0.0, "rental_uris": {"ios": "https://dc.lft.to/lastmile_qr_scan", "android": "https://dc.lft.to/lastmile_qr_scan"}, "lon": -77.11329433333333, "type": "electric_bike"}, {"bike_id": "4e03d69b942181ccb20070dd5bc0c1fd", "is_reserved": 0, "fusion_lon": 0.0, "lat": 38.8981175, "is_disabled": 0, "name": "4e03d69b942181ccb20070dd5bc0c1fd", "fusion_lat": 0.0, "rental_uris": {"ios": "https://dc.lft.to/lastmile_qr_scan", "android": "https://dc.lft.to/lastmile_qr_scan"}, "lon": -77.02952583333334, "type": "electric_scooter"}, {"bike_id": "a4c91312bf9392ef6034af137b2016fa", "is_reserved": 0, "fusion_lon": 0.0, "lat": 38.89659483333333, "is_disabled": 0, "name": "a4c91312bf9392ef6034af137b2016fa", "fusion_lat": 0.0, "rental_uris": {"ios": "https://dc.lft.to/lastmile_qr_scan", "android": "https://dc.lft.to/lastmile_qr_scan"}, "lon": -77.02957516666666, "type": "electric_scooter"}, {"bike_id": "3ef0dcd894ef95f14d94263c3e389aff", "is_reserved": 0, "fusion_lon": 0.0, "lat": 38.88327233333333, "is_disabled": 0, "name": "3ef0dcd894ef95f14d94263c3e389aff", "fusion_lat": 0.0, "rental_uris": {"ios": "https://dc.lft.to/lastmile_qr_scan", "android": "https://dc.lft.to/lastmile_qr_scan"}, "lon": -77.01752083333334, "type": "electric_scooter"}, {"bike_id": "8ab90ae8185bda6c006b4d4c68f8400f", "is_reserved": 0, "fusion_lon": 0.0, "lat": 38.91713266666667, "is_disabled": 0, "name": "8ab90ae8185bda6c006b4d4c68f8400f", "fusion_lat": 0.0, "rental_uris": {"ios": "https://dc.lft.to/lastmile_qr_scan", "android": "https://dc.lft.to/lastmile_qr_scan"}, "lon": -77.03110633333333, "type": "electric_scooter"}, {"bike_id": "ff03ffb4c2765ce81743e04fcb4cc9d2", "is_reserved": 0, "fusion_lon": 0.0, "lat": 38.92571316666667, "is_disabled": 0, "name": "ff03ffb4c2765ce81743e04fcb4cc9d2", "fusion_lat": 0.0, "rental_uris": {"ios": "https://dc.lft.to/lastmile_qr_scan", "android": "https://dc.lft.to/lastmile_qr_scan"}, "lon": -77.03926433333334, "type": "electric_scooter"}, {"bike_id": "d9ff1fbacb2b0c39bc1a56fe7cc9c69a", "is_reserved": 0, "fusion_lon": 0.0, "lat": 38.925671333333334, "is_disabled": 0, "name": "d9ff1fbacb2b0c39bc1a56fe7cc9c69a", "fusion_lat": 0.0, "rental_uris": {"ios": "https://dc.lft.to/lastmile_qr_scan", "android": "https://dc.lft.to/lastmile_qr_scan"}, "lon": -77.0390755, "type": "electric_scooter"}, {"bike_id": "43310e805dad0c7c636b65bf0e0bc554", "is_reserved": 0, "fusion_lon": 0.0, "lat": 38.912842833333336, "is_disabled": 0, "name": "43310e805dad0c7c636b65bf0e0bc554", "fusion_lat": 0.0, "rental_uris": {"ios": "https://dc.lft.to/lastmile_qr_scan", "android": "https://dc.lft.to/lastmile_qr_scan"}, "lon": -77.03847216666666, "type": "electric_scooter"}, {"bike_id": "3cab7e2b87de0f3cb3ef9a608bf78979", "is_reserved": 0, "fusion_lon": 0.0, "lat": 38.91591783333333, "is_disabled": 0, "name": "3cab7e2b87de0f3cb3ef9a608bf78979", "fusion_lat": 0.0, "rental_uris": {"ios": "https://dc.lft.to/lastmile_qr_scan", "android": "https://dc.lft.to/lastmile_qr_scan"}, "lon": -76.98391466666666, "type": "electric_scooter"}, {"bike_id": "ff1d000c7931481701cf72b37773031b", "is_reserved": 0, "fusion_lon": 0.0, "lat": 38.9168675, "is_disabled": 0, "name": "ff1d000c7931481701cf72b37773031b", "fusion_lat": 0.0, "rental_uris": {"ios": "https://dc.lft.to/lastmile_qr_scan", "android": "https://dc.lft.to/lastmile_qr_scan"}, "lon": -77.02903233333333, "type": "electric_scooter"}, {"bike_id": "03761d25e66b71b519e48e10dd0b1265", "is_reserved": 0, "fusion_lon": 0.0, "lat": 38.919413, "is_disabled": 0, "name": "03761d25e66b71b519e48e10dd0b1265", "fusion_lat": 0.0, "rental_uris": {"ios": "https://dc.lft.to/lastmile_qr_scan", "android": "https://dc.lft.to/lastmile_qr_scan"}, "lon": -77.01353533333334, "type": "electric_scooter"}, {"bike_id": "225b2c821246021ac3d0f868ab0a4207", "is_reserved": 0, "fusion_lon": 0.0, "lat": 38.936983833333336, "is_disabled": 0, "name": "225b2c821246021ac3d0f868ab0a4207", "fusion_lat": 0.0, "rental_uris": {"ios": "https://dc.lft.to/lastmile_qr_scan", "android": "https://dc.lft.to/lastmile_qr_scan"}, "lon": -77.06022983333334, "type": "electric_scooter"}, {"bike_id": "6af0498b80d38708c07e7d204a8c2d54", "is_reserved": 0, "fusion_lon": 0.0, "lat": 38.90133316666667, "is_disabled": 0, "name": "6af0498b80d38708c07e7d204a8c2d54", "fusion_lat": 0.0, "rental_uris": {"ios": "https://dc.lft.to/lastmile_qr_scan", "android": "https://dc.lft.to/lastmile_qr_scan"}, "lon": -77.01613116666667, "type": "electric_scooter"}, {"bike_id": "5085f41952266c85510a7073b75a53d9", "is_reserved": 0, "fusion_lon": 0.0, "lat": 38.911876, "is_disabled": 0, "name": "5085f41952266c85510a7073b75a53d9", "fusion_lat": 0.0, "rental_uris": {"ios": "https://dc.lft.to/lastmile_qr_scan", "android": "https://dc.lft.to/lastmile_qr_scan"}, "lon": -76.99624, "type": "electric_scooter"}, {"bike_id": "61b66b7b5e4a0905f4ab09fb989a3ca8", "is_reserved": 0, "fusion_lon": 0.0, "lat": 38.9100915, "is_disabled": 0, "name": "61b66b7b5e4a0905f4ab09fb989a3ca8", "fusion_lat": 0.0, "rental_uris": {"ios": "https://dc.lft.to/lastmile_qr_scan", "android": "https://dc.lft.to/lastmile_qr_scan"}, "lon": -76.99396916666667, "type": "electric_scooter"}, {"bike_id": "8f6d168a12c58d05a282fd8effce59b2", "is_reserved": 0, "fusion_lon": 0.0, "lat": 38.9236905, "is_disabled": 0, "name": "8f6d168a12c58d05a282fd8effce59b2", "fusion_lat": 0.0, "rental_uris": {"ios": "https://dc.lft.to/lastmile_qr_scan", "android": "https://dc.lft.to/lastmile_qr_scan"}, "lon": -77.2231835, "type": "electric_bike"}, {"bike_id": "80e180adfdf8d39c890b3d4a20ffabbc", "is_reserved": 0, "fusion_lon": 0.0, "lat": 38.90009966666667, "is_disabled": 0, "name": "80e180adfdf8d39c890b3d4a20ffabbc", "fusion_lat": 0.0, "rental_uris": {"ios": "https://dc.lft.to/lastmile_qr_scan", "android": "https://dc.lft.to/lastmile_qr_scan"}, "lon": -76.9911985, "type": "electric_scooter"}, {"bike_id": "83923cf2095954b218ab8755e3c91553", "is_reserved": 0, "fusion_lon": 0.0, "lat": 38.97087666666667, "is_disabled": 0, "name": "83923cf2095954b218ab8755e3c91553", "fusion_lat": 0.0, "rental_uris": {"ios": "https://dc.lft.to/lastmile_qr_scan", "android": "https://dc.lft.to/lastmile_qr_scan"}, "lon": -77.06964933333333, "type": "electric_bike"}, {"bike_id": "79668a9769653dee1035f3775a3de350", "is_reserved": 0, "fusion_lon": 0.0, "lat": 38.9240895, "is_disabled": 0, "name": "79668a9769653dee1035f3775a3de350", "fusion_lat": 0.0, "rental_uris": {"ios": "https://dc.lft.to/lastmile_qr_scan", "android": "https://dc.lft.to/lastmile_qr_scan"}, "lon": -77.029596, "type": "electric_scooter"}, {"bike_id": "035cba106aaf1e6d6f29be095e2c1bd8", "is_reserved": 0, "fusion_lon": 0.0, "lat": 38.9171115, "is_disabled": 0, "name": "035cba106aaf1e6d6f29be095e2c1bd8", "fusion_lat": 0.0, "rental_uris": {"ios": "https://dc.lft.to/lastmile_qr_scan", "android": "https://dc.lft.to/lastmile_qr_scan"}, "lon": -77.03456183333333, "type": "electric_scooter"}, {"bike_id": "b4c9c64e458c7a06db3fe2685f239e89", "is_reserved": 0, "fusion_lon": 0.0, "lat": 38.92578816666666, "is_disabled": 0, "name": "b4c9c64e458c7a06db3fe2685f239e89", "fusion_lat": 0.0, "rental_uris": {"ios": "https://dc.lft.to/lastmile_qr_scan", "android": "https://dc.lft.to/lastmile_qr_scan"}, "lon": -77.00475116666667, "type": "electric_scooter"}, {"bike_id": "0aafe2864368a8c859860765b5973d6a", "is_reserved": 0, "fusion_lon": 0.0, "lat": 38.904093, "is_disabled": 0, "name": "0aafe2864368a8c859860765b5973d6a", "fusion_lat": 0.0, "rental_uris": {"ios": "https://dc.lft.to/lastmile_qr_scan", "android": "https://dc.lft.to/lastmile_qr_scan"}, "lon": -77.04863916666666, "type": "electric_scooter"}, {"bike_id": "cc4e247521e0c2d31cd04f80071a390b", "is_reserved": 0, "fusion_lon": 0.0, "lat": 38.89907633333333, "is_disabled": 0, "name": "cc4e247521e0c2d31cd04f80071a390b", "fusion_lat": 0.0, "rental_uris": {"ios": "https://dc.lft.to/lastmile_qr_scan", "android": "https://dc.lft.to/lastmile_qr_scan"}, "lon": -77.03279666666667, "type": "electric_scooter"}, {"bike_id": "902b21dcb65c5d7f56dfb0b7cec5bc98", "is_reserved": 0, "fusion_lon": 0.0, "lat": 38.876349833333336, "is_disabled": 0, "name": "902b21dcb65c5d7f56dfb0b7cec5bc98", "fusion_lat": 0.0, "rental_uris": {"ios": "https://dc.lft.to/lastmile_qr_scan", "android": "https://dc.lft.to/lastmile_qr_scan"}, "lon": -77.004549, "type": "electric_scooter"}, {"bike_id": "adb6d5112859d1cba6ddd201fd715488", "is_reserved": 0, "fusion_lon": 0.0, "lat": 38.89338033333333, "is_disabled": 0, "name": "adb6d5112859d1cba6ddd201fd715488", "fusion_lat": 0.0, "rental_uris": {"ios": "https://dc.lft.to/lastmile_qr_scan", "android": "https://dc.lft.to/lastmile_qr_scan"}, "lon": -76.98459566666666, "type": "electric_scooter"}, {"bike_id": "0aa05a8a6cfc95e2f75aaaeefd38a89d", "is_reserved": 0, "fusion_lon": 0.0, "lat": 38.88503383333333, "is_disabled": 0, "name": "0aa05a8a6cfc95e2f75aaaeefd38a89d", "fusion_lat": 0.0, "rental_uris": {"ios": "https://dc.lft.to/lastmile_qr_scan", "android": "https://dc.lft.to/lastmile_qr_scan"}, "lon": -77.01550283333333, "type": "electric_scooter"}, {"bike_id": "7f9a36562dcd2449e0a219b896a50396", "is_reserved": 0, "fusion_lon": 0.0, "lat": 38.89032866666667, "is_disabled": 0, "name": "7f9a36562dcd2449e0a219b896a50396", "fusion_lat": 0.0, "rental_uris": {"ios": "https://dc.lft.to/lastmile_qr_scan", "android": "https://dc.lft.to/lastmile_qr_scan"}, "lon": -76.93626133333333, "type": "electric_scooter"}, {"bike_id": "4aad7fe0297bdbd12fd848c3e73bd9c7", "is_reserved": 0, "fusion_lon": 0.0, "lat": 38.935875333333335, "is_disabled": 0, "name": "4aad7fe0297bdbd12fd848c3e73bd9c7", "fusion_lat": 0.0, "rental_uris": {"ios": "https://dc.lft.to/lastmile_qr_scan", "android": "https://dc.lft.to/lastmile_qr_scan"}, "lon": -77.02763716666666, "type": "electric_scooter"}, {"bike_id": "920bfa2ba211fa17526d3f11a423ded5", "is_reserved": 0, "fusion_lon": 0.0, "lat": 38.926245333333334, "is_disabled": 0, "name": "920bfa2ba211fa17526d3f11a423ded5", "fusion_lat": 0.0, "rental_uris": {"ios": "https://dc.lft.to/lastmile_qr_scan", "android": "https://dc.lft.to/lastmile_qr_scan"}, "lon": -77.0378845, "type": "electric_scooter"}, {"bike_id": "7bddb2f152ef00145a89bf27e3e84d82", "is_reserved": 0, "fusion_lon": 0.0, "lat": 38.91335516666667, "is_disabled": 0, "name": "7bddb2f152ef00145a89bf27e3e84d82", "fusion_lat": 0.0, "rental_uris": {"ios": "https://dc.lft.to/lastmile_qr_scan", "android": "https://dc.lft.to/lastmile_qr_scan"}, "lon": -77.0486835, "type": "electric_scooter"}, {"bike_id": "bd18eb445aa1325da449e6a59ccde85a", "is_reserved": 0, "fusion_lon": 0.0, "lat": 38.926502666666664, "is_disabled": 0, "name": "bd18eb445aa1325da449e6a59ccde85a", "fusion_lat": 0.0, "rental_uris": {"ios": "https://dc.lft.to/lastmile_qr_scan", "android": "https://dc.lft.to/lastmile_qr_scan"}, "lon": -77.03714216666667, "type": "electric_scooter"}, {"bike_id": "50c79e9fc5ffd1c08d3e97f2011c2413", "is_reserved": 0, "fusion_lon": 0.0, "lat": 38.91497366666667, "is_disabled": 0, "name": "50c79e9fc5ffd1c08d3e97f2011c2413", "fusion_lat": 0.0, "rental_uris": {"ios": "https://dc.lft.to/lastmile_qr_scan", "android": "https://dc.lft.to/lastmile_qr_scan"}, "lon": -77.026928, "type": "electric_scooter"}, {"bike_id": "506838eddf8420214349fffc36f2a328", "is_reserved": 0, "fusion_lon": 0.0, "lat": 38.908440166666665, "is_disabled": 0, "name": "506838eddf8420214349fffc36f2a328", "fusion_lat": 0.0, "rental_uris": {"ios": "https://dc.lft.to/lastmile_qr_scan", "android": "https://dc.lft.to/lastmile_qr_scan"}, "lon": -77.020618, "type": "electric_scooter"}, {"bike_id": "fc29f66796f0eaa0214b424fef4e0910", "is_reserved": 0, "fusion_lon": 0.0, "lat": 38.91879933333333, "is_disabled": 0, "name": "fc29f66796f0eaa0214b424fef4e0910", "fusion_lat": 0.0, "rental_uris": {"ios": "https://dc.lft.to/lastmile_qr_scan", "android": "https://dc.lft.to/lastmile_qr_scan"}, "lon": -76.97153516666667, "type": "electric_scooter"}, {"bike_id": "2f5caf4c1497bff3e3b7c840917fde30", "is_reserved": 0, "fusion_lon": 0.0, "lat": 38.8992395, "is_disabled": 0, "name": "2f5caf4c1497bff3e3b7c840917fde30", "fusion_lat": 0.0, "rental_uris": {"ios": "https://dc.lft.to/lastmile_qr_scan", "android": "https://dc.lft.to/lastmile_qr_scan"}, "lon": -77.05405183333333, "type": "electric_scooter"}, {"bike_id": "e3a336e4df93cec3e67601e613128f96", "is_reserved": 0, "fusion_lon": 0.0, "lat": 38.9176275, "is_disabled": 0, "name": "e3a336e4df93cec3e67601e613128f96", "fusion_lat": 0.0, "rental_uris": {"ios": "https://dc.lft.to/lastmile_qr_scan", "android": "https://dc.lft.to/lastmile_qr_scan"}, "lon": -77.02312383333333, "type": "electric_scooter"}, {"bike_id": "c37549a32ec3542be19b7940d5236550", "is_reserved": 0, "fusion_lon": 0.0, "lat": 38.9492345, "is_disabled": 0, "name": "c37549a32ec3542be19b7940d5236550", "fusion_lat": 0.0, "rental_uris": {"ios": "https://dc.lft.to/lastmile_qr_scan", "android": "https://dc.lft.to/lastmile_qr_scan"}, "lon": -77.01938733333333, "type": "electric_scooter"}, {"bike_id": "d008eb84a2fcf9169f56c73995473ab9", "is_reserved": 0, "fusion_lon": 0.0, "lat": 38.943242166666664, "is_disabled": 0, "name": "d008eb84a2fcf9169f56c73995473ab9", "fusion_lat": 0.0, "rental_uris": {"ios": "https://dc.lft.to/lastmile_qr_scan", "android": "https://dc.lft.to/lastmile_qr_scan"}, "lon": -77.07390666666667, "type": "electric_scooter"}, {"bike_id": "cd01d14f5679ac2a5755f5f25dc710f1", "is_reserved": 0, "fusion_lon": 0.0, "lat": 38.909849333333334, "is_disabled": 0, "name": "cd01d14f5679ac2a5755f5f25dc710f1", "fusion_lat": 0.0, "rental_uris": {"ios": "https://dc.lft.to/lastmile_qr_scan", "android": "https://dc.lft.to/lastmile_qr_scan"}, "lon": -77.06715566666666, "type": "electric_scooter"}, {"bike_id": "e21fed26c089f675b3d638505260df85", "is_reserved": 0, "fusion_lon": 0.0, "lat": 38.93113866666667, "is_disabled": 0, "name": "e21fed26c089f675b3d638505260df85", "fusion_lat": 0.0, "rental_uris": {"ios": "https://dc.lft.to/lastmile_qr_scan", "android": "https://dc.lft.to/lastmile_qr_scan"}, "lon": -77.02092883333333, "type": "electric_scooter"}, {"bike_id": "5bb7d530d6e64d4ffc7450be5f22cee1", "is_reserved": 0, "fusion_lon": 0.0, "lat": 38.883246666666665, "is_disabled": 0, "name": "5bb7d530d6e64d4ffc7450be5f22cee1", "fusion_lat": 0.0, "rental_uris": {"ios": "https://dc.lft.to/lastmile_qr_scan", "android": "https://dc.lft.to/lastmile_qr_scan"}, "lon": -77.01759383333334, "type": "electric_scooter"}, {"bike_id": "e8c570368b8d3972aeb15a9e63c722c0", "is_reserved": 0, "fusion_lon": 0.0, "lat": 38.907206333333335, "is_disabled": 0, "name": "e8c570368b8d3972aeb15a9e63c722c0", "fusion_lat": 0.0, "rental_uris": {"ios": "https://dc.lft.to/lastmile_qr_scan", "android": "https://dc.lft.to/lastmile_qr_scan"}, "lon": -77.038761, "type": "electric_scooter"}, {"bike_id": "74939370e1a0f43a1151a6cda2f742ce", "is_reserved": 0, "fusion_lon": 0.0, "lat": 38.91628866666667, "is_disabled": 0, "name": "74939370e1a0f43a1151a6cda2f742ce", "fusion_lat": 0.0, "rental_uris": {"ios": "https://dc.lft.to/lastmile_qr_scan", "android": "https://dc.lft.to/lastmile_qr_scan"}, "lon": -77.03189466666667, "type": "electric_scooter"}, {"bike_id": "c8c76f4ea9571486576555a26472a3fc", "is_reserved": 0, "fusion_lon": 0.0, "lat": 38.9371715, "is_disabled": 0, "name": "c8c76f4ea9571486576555a26472a3fc", "fusion_lat": 0.0, "rental_uris": {"ios": "https://dc.lft.to/lastmile_qr_scan", "android": "https://dc.lft.to/lastmile_qr_scan"}, "lon": -77.03264133333333, "type": "electric_scooter"}, {"bike_id": "dbd2524cce17210a5f5c21f2db81b726", "is_reserved": 0, "fusion_lon": 0.0, "lat": 38.84426916666666, "is_disabled": 0, "name": "dbd2524cce17210a5f5c21f2db81b726", "fusion_lat": 0.0, "rental_uris": {"ios": "https://dc.lft.to/lastmile_qr_scan", "android": "https://dc.lft.to/lastmile_qr_scan"}, "lon": -76.997825, "type": "electric_scooter"}, {"bike_id": "f9e5ea90bb9fea8841afb6e8ab606db1", "is_reserved": 0, "fusion_lon": 0.0, "lat": 38.892197333333336, "is_disabled": 0, "name": "f9e5ea90bb9fea8841afb6e8ab606db1", "fusion_lat": 0.0, "rental_uris": {"ios": "https://dc.lft.to/lastmile_qr_scan", "android": "https://dc.lft.to/lastmile_qr_scan"}, "lon": -77.04860166666667, "type": "electric_scooter"}, {"bike_id": "2d85a58b400990683b8d6dbcb1a79cfe", "is_reserved": 0, "fusion_lon": 0.0, "lat": 38.810471666666665, "is_disabled": 0, "name": "2d85a58b400990683b8d6dbcb1a79cfe", "fusion_lat": 0.0, "rental_uris": {"ios": "https://dc.lft.to/lastmile_qr_scan", "android": "https://dc.lft.to/lastmile_qr_scan"}, "lon": -77.08509, "type": "electric_bike"}, {"bike_id": "f9276fccf6f9da7bc1611e62a3031fea", "is_reserved": 0, "fusion_lon": 0.0, "lat": 38.91440566666667, "is_disabled": 0, "name": "f9276fccf6f9da7bc1611e62a3031fea", "fusion_lat": 0.0, "rental_uris": {"ios": "https://dc.lft.to/lastmile_qr_scan", "android": "https://dc.lft.to/lastmile_qr_scan"}, "lon": -77.034689, "type": "electric_scooter"}, {"bike_id": "a49dd9fc83cf2652e2122cf83d6e341f", "is_reserved": 0, "fusion_lon": 0.0, "lat": 38.911648666666665, "is_disabled": 0, "name": "a49dd9fc83cf2652e2122cf83d6e341f", "fusion_lat": 0.0, "rental_uris": {"ios": "https://dc.lft.to/lastmile_qr_scan", "android": "https://dc.lft.to/lastmile_qr_scan"}, "lon": -77.0028525, "type": "electric_bike"}, {"bike_id": "24d8725dc6ba7297f5e2459015b1a4f6", "is_reserved": 0, "fusion_lon": 0.0, "lat": 38.9290305, "is_disabled": 0, "name": "24d8725dc6ba7297f5e2459015b1a4f6", "fusion_lat": 0.0, "rental_uris": {"ios": "https://dc.lft.to/lastmile_qr_scan", "android": "https://dc.lft.to/lastmile_qr_scan"}, "lon": -77.02165216666667, "type": "electric_scooter"}, {"bike_id": "9678aad5483cf249d4a8e9642e26068c", "is_reserved": 0, "fusion_lon": 0.0, "lat": 38.85433483333333, "is_disabled": 0, "name": "9678aad5483cf249d4a8e9642e26068c", "fusion_lat": 0.0, "rental_uris": {"ios": "https://dc.lft.to/lastmile_qr_scan", "android": "https://dc.lft.to/lastmile_qr_scan"}, "lon": -76.90964166666667, "type": "electric_bike"}, {"bike_id": "2d07aad27a4b80d99d7a9873ebe7af57", "is_reserved": 0, "fusion_lon": 0.0, "lat": 38.931522333333334, "is_disabled": 0, "name": "2d07aad27a4b80d99d7a9873ebe7af57", "fusion_lat": 0.0, "rental_uris": {"ios": "https://dc.lft.to/lastmile_qr_scan", "android": "https://dc.lft.to/lastmile_qr_scan"}, "lon": -77.04367666666667, "type": "electric_scooter"}, {"bike_id": "af793ec19a24a4a9594c3dcbf769e013", "is_reserved": 0, "fusion_lon": 0.0, "lat": 38.91185566666667, "is_disabled": 0, "name": "af793ec19a24a4a9594c3dcbf769e013", "fusion_lat": 0.0, "rental_uris": {"ios": "https://dc.lft.to/lastmile_qr_scan", "android": "https://dc.lft.to/lastmile_qr_scan"}, "lon": -77.04555416666666, "type": "electric_scooter"}, {"bike_id": "5d1fa8a554aa48ab3a5791795ad33888", "is_reserved": 0, "fusion_lon": 0.0, "lat": 38.911907, "is_disabled": 0, "name": "5d1fa8a554aa48ab3a5791795ad33888", "fusion_lat": 0.0, "rental_uris": {"ios": "https://dc.lft.to/lastmile_qr_scan", "android": "https://dc.lft.to/lastmile_qr_scan"}, "lon": -77.06096866666667, "type": "electric_scooter"}, {"bike_id": "ca18eedba2f114e32fc0cd98af5236aa", "is_reserved": 0, "fusion_lon": 0.0, "lat": 38.9349185, "is_disabled": 0, "name": "ca18eedba2f114e32fc0cd98af5236aa", "fusion_lat": 0.0, "rental_uris": {"ios": "https://dc.lft.to/lastmile_qr_scan", "android": "https://dc.lft.to/lastmile_qr_scan"}, "lon": -77.02846, "type": "electric_scooter"}, {"bike_id": "5d26b36c0455a61fbecf546e23504688", "is_reserved": 0, "fusion_lon": 0.0, "lat": 38.9031875, "is_disabled": 0, "name": "5d26b36c0455a61fbecf546e23504688", "fusion_lat": 0.0, "rental_uris": {"ios": "https://dc.lft.to/lastmile_qr_scan", "android": "https://dc.lft.to/lastmile_qr_scan"}, "lon": -77.03326233333334, "type": "electric_scooter"}, {"bike_id": "8b1d83c80fb556645c6f34e9f1781ba6", "is_reserved": 0, "fusion_lon": 0.0, "lat": 38.90007833333333, "is_disabled": 0, "name": "8b1d83c80fb556645c6f34e9f1781ba6", "fusion_lat": 0.0, "rental_uris": {"ios": "https://dc.lft.to/lastmile_qr_scan", "android": "https://dc.lft.to/lastmile_qr_scan"}, "lon": -76.98702116666666, "type": "electric_scooter"}, {"bike_id": "516b7ec0abea1a4953a4ff2cb5414fb3", "is_reserved": 0, "fusion_lon": 0.0, "lat": 38.938780333333334, "is_disabled": 0, "name": "516b7ec0abea1a4953a4ff2cb5414fb3", "fusion_lat": 0.0, "rental_uris": {"ios": "https://dc.lft.to/lastmile_qr_scan", "android": "https://dc.lft.to/lastmile_qr_scan"}, "lon": -77.02483, "type": "electric_scooter"}, {"bike_id": "9416b70b66ff732041742e71f225148f", "is_reserved": 0, "fusion_lon": 0.0, "lat": 38.9003175, "is_disabled": 0, "name": "9416b70b66ff732041742e71f225148f", "fusion_lat": 0.0, "rental_uris": {"ios": "https://dc.lft.to/lastmile_qr_scan", "android": "https://dc.lft.to/lastmile_qr_scan"}, "lon": -76.99532033333334, "type": "electric_scooter"}, {"bike_id": "b45889354e7f4c6f9d130b27a96ffe42", "is_reserved": 0, "fusion_lon": 0.0, "lat": 38.88603033333333, "is_disabled": 0, "name": "b45889354e7f4c6f9d130b27a96ffe42", "fusion_lat": 0.0, "rental_uris": {"ios": "https://dc.lft.to/lastmile_qr_scan", "android": "https://dc.lft.to/lastmile_qr_scan"}, "lon": -77.00564116666666, "type": "electric_scooter"}, {"bike_id": "63e07bb6be53f0d3292bbbcf6a7ed3be", "is_reserved": 0, "fusion_lon": 0.0, "lat": 38.87256466666667, "is_disabled": 0, "name": "63e07bb6be53f0d3292bbbcf6a7ed3be", "fusion_lat": 0.0, "rental_uris": {"ios": "https://dc.lft.to/lastmile_qr_scan", "android": "https://dc.lft.to/lastmile_qr_scan"}, "lon": -76.97913333333334, "type": "electric_bike"}, {"bike_id": "2b4d6343f0d543a7901fed1d6df3a47a", "is_reserved": 0, "fusion_lon": 0.0, "lat": 38.9214855, "is_disabled": 0, "name": "2b4d6343f0d543a7901fed1d6df3a47a", "fusion_lat": 0.0, "rental_uris": {"ios": "https://dc.lft.to/lastmile_qr_scan", "android": "https://dc.lft.to/lastmile_qr_scan"}, "lon": -77.03533083333333, "type": "electric_scooter"}, {"bike_id": "50d5e894d071fdef220c12d27674c2dd", "is_reserved": 0, "fusion_lon": 0.0, "lat": 38.92720283333333, "is_disabled": 0, "name": "50d5e894d071fdef220c12d27674c2dd", "fusion_lat": 0.0, "rental_uris": {"ios": "https://dc.lft.to/lastmile_qr_scan", "android": "https://dc.lft.to/lastmile_qr_scan"}, "lon": -77.00566133333334, "type": "electric_scooter"}, {"bike_id": "a550fcbd657806bf23ca75ab96b69533", "is_reserved": 0, "fusion_lon": 0.0, "lat": 38.89845533333333, "is_disabled": 0, "name": "a550fcbd657806bf23ca75ab96b69533", "fusion_lat": 0.0, "rental_uris": {"ios": "https://dc.lft.to/lastmile_qr_scan", "android": "https://dc.lft.to/lastmile_qr_scan"}, "lon": -76.94478216666667, "type": "electric_scooter"}, {"bike_id": "2354650488fa6d3a46abaef4ef347217", "is_reserved": 0, "fusion_lon": 0.0, "lat": 38.8853085, "is_disabled": 0, "name": "2354650488fa6d3a46abaef4ef347217", "fusion_lat": 0.0, "rental_uris": {"ios": "https://dc.lft.to/lastmile_qr_scan", "android": "https://dc.lft.to/lastmile_qr_scan"}, "lon": -76.9805555, "type": "electric_scooter"}, {"bike_id": "c5a609157ad6dc7cb5c2aa074f430ccc", "is_reserved": 0, "fusion_lon": 0.0, "lat": 39.094593833333334, "is_disabled": 0, "name": "c5a609157ad6dc7cb5c2aa074f430ccc", "fusion_lat": 0.0, "rental_uris": {"ios": "https://dc.lft.to/lastmile_qr_scan", "android": "https://dc.lft.to/lastmile_qr_scan"}, "lon": -77.14996483333333, "type": "electric_bike"}, {"bike_id": "05b3a975b33190ebe83b446305b51402", "is_reserved": 0, "fusion_lon": 0.0, "lat": 38.90538216666667, "is_disabled": 0, "name": "05b3a975b33190ebe83b446305b51402", "fusion_lat": 0.0, "rental_uris": {"ios": "https://dc.lft.to/lastmile_qr_scan", "android": "https://dc.lft.to/lastmile_qr_scan"}, "lon": -77.0269245, "type": "electric_scooter"}, {"bike_id": "faa9274e127c24c35ad0779878384eeb", "is_reserved": 0, "fusion_lon": 0.0, "lat": 38.827872166666666, "is_disabled": 0, "name": "faa9274e127c24c35ad0779878384eeb", "fusion_lat": 0.0, "rental_uris": {"ios": "https://dc.lft.to/lastmile_qr_scan", "android": "https://dc.lft.to/lastmile_qr_scan"}, "lon": -77.00909666666666, "type": "electric_bike"}, {"bike_id": "2a97384d0ac3abcfc9ee2541cad80c61", "is_reserved": 0, "fusion_lon": 0.0, "lat": 38.89999516666666, "is_disabled": 0, "name": "2a97384d0ac3abcfc9ee2541cad80c61", "fusion_lat": 0.0, "rental_uris": {"ios": "https://dc.lft.to/lastmile_qr_scan", "android": "https://dc.lft.to/lastmile_qr_scan"}, "lon": -76.9977715, "type": "electric_scooter"}, {"bike_id": "510f0e374bae33480ac42c0cc8f059e5", "is_reserved": 0, "fusion_lon": 0.0, "lat": 38.840526, "is_disabled": 0, "name": "510f0e374bae33480ac42c0cc8f059e5", "fusion_lat": 0.0, "rental_uris": {"ios": "https://dc.lft.to/lastmile_qr_scan", "android": "https://dc.lft.to/lastmile_qr_scan"}, "lon": -77.06409183333334, "type": "electric_bike"}, {"bike_id": "b6e3b949c624fe84cf5aa4c9482e2a3c", "is_reserved": 0, "fusion_lon": 0.0, "lat": 38.92017716666667, "is_disabled": 0, "name": "b6e3b949c624fe84cf5aa4c9482e2a3c", "fusion_lat": 0.0, "rental_uris": {"ios": "https://dc.lft.to/lastmile_qr_scan", "android": "https://dc.lft.to/lastmile_qr_scan"}, "lon": -77.03132383333333, "type": "electric_scooter"}, {"bike_id": "8bc390bdafb20d61de6c781fcfb01ca3", "is_reserved": 0, "fusion_lon": 0.0, "lat": 38.899526, "is_disabled": 0, "name": "8bc390bdafb20d61de6c781fcfb01ca3", "fusion_lat": 0.0, "rental_uris": {"ios": "https://dc.lft.to/lastmile_qr_scan", "android": "https://dc.lft.to/lastmile_qr_scan"}, "lon": -77.03352966666667, "type": "electric_scooter"}, {"bike_id": "ebcdbf75dcebfe2abb2c81006b49d246", "is_reserved": 0, "fusion_lon": 0.0, "lat": 38.93332316666667, "is_disabled": 0, "name": "ebcdbf75dcebfe2abb2c81006b49d246", "fusion_lat": 0.0, "rental_uris": {"ios": "https://dc.lft.to/lastmile_qr_scan", "android": "https://dc.lft.to/lastmile_qr_scan"}, "lon": -77.032679, "type": "electric_scooter"}, {"bike_id": "aa59f030b844a00a5558fda7db91a67f", "is_reserved": 0, "fusion_lon": 0.0, "lat": 38.89361316666667, "is_disabled": 0, "name": "aa59f030b844a00a5558fda7db91a67f", "fusion_lat": 0.0, "rental_uris": {"ios": "https://dc.lft.to/lastmile_qr_scan", "android": "https://dc.lft.to/lastmile_qr_scan"}, "lon": -76.98514183333333, "type": "electric_bike"}, {"bike_id": "7a575eb7d5628454eeb5800ee81143f6", "is_reserved": 0, "fusion_lon": 0.0, "lat": 38.89879416666667, "is_disabled": 0, "name": "7a575eb7d5628454eeb5800ee81143f6", "fusion_lat": 0.0, "rental_uris": {"ios": "https://dc.lft.to/lastmile_qr_scan", "android": "https://dc.lft.to/lastmile_qr_scan"}, "lon": -76.93160583333334, "type": "electric_scooter"}, {"bike_id": "ffd0e81d35e1b813c1f873e39f90120f", "is_reserved": 0, "fusion_lon": 0.0, "lat": 38.863741833333336, "is_disabled": 0, "name": "ffd0e81d35e1b813c1f873e39f90120f", "fusion_lat": 0.0, "rental_uris": {"ios": "https://dc.lft.to/lastmile_qr_scan", "android": "https://dc.lft.to/lastmile_qr_scan"}, "lon": -76.99060633333333, "type": "electric_scooter"}, {"bike_id": "ed6bc087a86dc905259c85e7d313e393", "is_reserved": 0, "fusion_lon": 0.0, "lat": 38.9187925, "is_disabled": 0, "name": "ed6bc087a86dc905259c85e7d313e393", "fusion_lat": 0.0, "rental_uris": {"ios": "https://dc.lft.to/lastmile_qr_scan", "android": "https://dc.lft.to/lastmile_qr_scan"}, "lon": -77.02977433333334, "type": "electric_scooter"}, {"bike_id": "5c00b7def8a8161bd922de103705174b", "is_reserved": 0, "fusion_lon": 0.0, "lat": 38.8983155, "is_disabled": 0, "name": "5c00b7def8a8161bd922de103705174b", "fusion_lat": 0.0, "rental_uris": {"ios": "https://dc.lft.to/lastmile_qr_scan", "android": "https://dc.lft.to/lastmile_qr_scan"}, "lon": -76.94636133333333, "type": "electric_scooter"}, {"bike_id": "0d6025a270cc96e7088a7a82b8980e97", "is_reserved": 0, "fusion_lon": 0.0, "lat": 38.8949075, "is_disabled": 0, "name": "0d6025a270cc96e7088a7a82b8980e97", "fusion_lat": 0.0, "rental_uris": {"ios": "https://dc.lft.to/lastmile_qr_scan", "android": "https://dc.lft.to/lastmile_qr_scan"}, "lon": -76.94913833333334, "type": "electric_scooter"}, {"bike_id": "e5d86b918a8db2e15162a34b50e03029", "is_reserved": 0, "fusion_lon": 0.0, "lat": 38.923713666666664, "is_disabled": 0, "name": "e5d86b918a8db2e15162a34b50e03029", "fusion_lat": 0.0, "rental_uris": {"ios": "https://dc.lft.to/lastmile_qr_scan", "android": "https://dc.lft.to/lastmile_qr_scan"}, "lon": -77.05172916666666, "type": "electric_scooter"}, {"bike_id": "6ba4645c43cc5fd84aa467e01d5703f5", "is_reserved": 0, "fusion_lon": 0.0, "lat": 38.87713566666667, "is_disabled": 0, "name": "6ba4645c43cc5fd84aa467e01d5703f5", "fusion_lat": 0.0, "rental_uris": {"ios": "https://dc.lft.to/lastmile_qr_scan", "android": "https://dc.lft.to/lastmile_qr_scan"}, "lon": -77.00413183333333, "type": "electric_scooter"}, {"bike_id": "de366685aae634a40aa28473e2995a47", "is_reserved": 0, "fusion_lon": 0.0, "lat": 38.9216765, "is_disabled": 0, "name": "de366685aae634a40aa28473e2995a47", "fusion_lat": 0.0, "rental_uris": {"ios": "https://dc.lft.to/lastmile_qr_scan", "android": "https://dc.lft.to/lastmile_qr_scan"}, "lon": -77.04219483333334, "type": "electric_scooter"}, {"bike_id": "fcab4afc9b2b0f64866706475a687e51", "is_reserved": 0, "fusion_lon": 0.0, "lat": 38.91700133333333, "is_disabled": 0, "name": "fcab4afc9b2b0f64866706475a687e51", "fusion_lat": 0.0, "rental_uris": {"ios": "https://dc.lft.to/lastmile_qr_scan", "android": "https://dc.lft.to/lastmile_qr_scan"}, "lon": -77.03111816666667, "type": "electric_scooter"}, {"bike_id": "faccbef4a781a360f6ca02d7c609a6fb", "is_reserved": 0, "fusion_lon": 0.0, "lat": 38.9638215, "is_disabled": 0, "name": "faccbef4a781a360f6ca02d7c609a6fb", "fusion_lat": 0.0, "rental_uris": {"ios": "https://dc.lft.to/lastmile_qr_scan", "android": "https://dc.lft.to/lastmile_qr_scan"}, "lon": -77.03502733333333, "type": "electric_scooter"}, {"bike_id": "6946e5d2efdb2fc2fc4fe690dd50dd95", "is_reserved": 0, "fusion_lon": 0.0, "lat": 38.90176966666667, "is_disabled": 0, "name": "6946e5d2efdb2fc2fc4fe690dd50dd95", "fusion_lat": 0.0, "rental_uris": {"ios": "https://dc.lft.to/lastmile_qr_scan", "android": "https://dc.lft.to/lastmile_qr_scan"}, "lon": -76.980898, "type": "electric_scooter"}, {"bike_id": "608824b056e890fdd20710573e5d29e4", "is_reserved": 0, "fusion_lon": 0.0, "lat": 38.90392516666667, "is_disabled": 0, "name": "608824b056e890fdd20710573e5d29e4", "fusion_lat": 0.0, "rental_uris": {"ios": "https://dc.lft.to/lastmile_qr_scan", "android": "https://dc.lft.to/lastmile_qr_scan"}, "lon": -77.0446, "type": "electric_scooter"}, {"bike_id": "ca9c38a69c348bdb34fc67b2437842cb", "is_reserved": 0, "fusion_lon": 0.0, "lat": 38.91477733333333, "is_disabled": 0, "name": "ca9c38a69c348bdb34fc67b2437842cb", "fusion_lat": 0.0, "rental_uris": {"ios": "https://dc.lft.to/lastmile_qr_scan", "android": "https://dc.lft.to/lastmile_qr_scan"}, "lon": -77.021889, "type": "electric_scooter"}, {"bike_id": "edcef8f176a40cb62e8dbe4e7e2589d6", "is_reserved": 0, "fusion_lon": 0.0, "lat": 38.949748166666666, "is_disabled": 0, "name": "edcef8f176a40cb62e8dbe4e7e2589d6", "fusion_lat": 0.0, "rental_uris": {"ios": "https://dc.lft.to/lastmile_qr_scan", "android": "https://dc.lft.to/lastmile_qr_scan"}, "lon": -77.07894, "type": "electric_scooter"}, {"bike_id": "b45f5ee6f9a183e9541346dffef7e14b", "is_reserved": 0, "fusion_lon": 0.0, "lat": 39.003803166666664, "is_disabled": 0, "name": "b45f5ee6f9a183e9541346dffef7e14b", "fusion_lat": 0.0, "rental_uris": {"ios": "https://dc.lft.to/lastmile_qr_scan", "android": "https://dc.lft.to/lastmile_qr_scan"}, "lon": -77.01291866666666, "type": "electric_bike"}, {"bike_id": "66123220726e4ba10665d5638ee7991d", "is_reserved": 0, "fusion_lon": 0.0, "lat": 38.88486116666667, "is_disabled": 0, "name": "66123220726e4ba10665d5638ee7991d", "fusion_lat": 0.0, "rental_uris": {"ios": "https://dc.lft.to/lastmile_qr_scan", "android": "https://dc.lft.to/lastmile_qr_scan"}, "lon": -77.00727933333333, "type": "electric_scooter"}, {"bike_id": "3812ff97a44d538785fb10e9541bdb5c", "is_reserved": 0, "fusion_lon": 0.0, "lat": 38.900976666666665, "is_disabled": 0, "name": "3812ff97a44d538785fb10e9541bdb5c", "fusion_lat": 0.0, "rental_uris": {"ios": "https://dc.lft.to/lastmile_qr_scan", "android": "https://dc.lft.to/lastmile_qr_scan"}, "lon": -77.04792466666666, "type": "electric_scooter"}, {"bike_id": "79d4553069f2088b5a1e1d36cc52545f", "is_reserved": 0, "fusion_lon": 0.0, "lat": 38.91704583333333, "is_disabled": 0, "name": "79d4553069f2088b5a1e1d36cc52545f", "fusion_lat": 0.0, "rental_uris": {"ios": "https://dc.lft.to/lastmile_qr_scan", "android": "https://dc.lft.to/lastmile_qr_scan"}, "lon": -77.02911216666666, "type": "electric_scooter"}, {"bike_id": "c3850f214cfddfd1091b70157ae9e81e", "is_reserved": 0, "fusion_lon": 0.0, "lat": 38.90519283333333, "is_disabled": 0, "name": "c3850f214cfddfd1091b70157ae9e81e", "fusion_lat": 0.0, "rental_uris": {"ios": "https://dc.lft.to/lastmile_qr_scan", "android": "https://dc.lft.to/lastmile_qr_scan"}, "lon": -77.067922, "type": "electric_bike"}, {"bike_id": "17fd855189426bc9504efc0e329cced8", "is_reserved": 0, "fusion_lon": 0.0, "lat": 38.956444833333336, "is_disabled": 0, "name": "17fd855189426bc9504efc0e329cced8", "fusion_lat": 0.0, "rental_uris": {"ios": "https://dc.lft.to/lastmile_qr_scan", "android": "https://dc.lft.to/lastmile_qr_scan"}, "lon": -77.03299433333333, "type": "electric_scooter"}, {"bike_id": "47c2a1aa97244035aac746f6e0ddc1da", "is_reserved": 0, "fusion_lon": 0.0, "lat": 38.8278365, "is_disabled": 0, "name": "47c2a1aa97244035aac746f6e0ddc1da", "fusion_lat": 0.0, "rental_uris": {"ios": "https://dc.lft.to/lastmile_qr_scan", "android": "https://dc.lft.to/lastmile_qr_scan"}, "lon": -77.00915833333333, "type": "electric_bike"}, {"bike_id": "ddbed9dfce184c6cbc66fb59a6aa67d6", "is_reserved": 0, "fusion_lon": 0.0, "lat": 38.972327666666665, "is_disabled": 0, "name": "ddbed9dfce184c6cbc66fb59a6aa67d6", "fusion_lat": 0.0, "rental_uris": {"ios": "https://dc.lft.to/lastmile_qr_scan", "android": "https://dc.lft.to/lastmile_qr_scan"}, "lon": -77.02711433333333, "type": "electric_scooter"}, {"bike_id": "3a06ff5058921cbcbb2a1b283cae4440", "is_reserved": 0, "fusion_lon": 0.0, "lat": 38.86423033333333, "is_disabled": 0, "name": "3a06ff5058921cbcbb2a1b283cae4440", "fusion_lat": 0.0, "rental_uris": {"ios": "https://dc.lft.to/lastmile_qr_scan", "android": "https://dc.lft.to/lastmile_qr_scan"}, "lon": -76.9746605, "type": "electric_scooter"}, {"bike_id": "39eab8b2119f2da52136ff737d282a12", "is_reserved": 0, "fusion_lon": 0.0, "lat": 38.907893333333334, "is_disabled": 0, "name": "39eab8b2119f2da52136ff737d282a12", "fusion_lat": 0.0, "rental_uris": {"ios": "https://dc.lft.to/lastmile_qr_scan", "android": "https://dc.lft.to/lastmile_qr_scan"}, "lon": -77.0487635, "type": "electric_scooter"}, {"bike_id": "116f08fed30fef048626eed92263b70b", "is_reserved": 0, "fusion_lon": 0.0, "lat": 38.92445433333334, "is_disabled": 0, "name": "116f08fed30fef048626eed92263b70b", "fusion_lat": 0.0, "rental_uris": {"ios": "https://dc.lft.to/lastmile_qr_scan", "android": "https://dc.lft.to/lastmile_qr_scan"}, "lon": -77.03368516666667, "type": "electric_scooter"}, {"bike_id": "2f0da093181c58b8bf6342d6ae99487b", "is_reserved": 0, "fusion_lon": 0.0, "lat": 38.893944833333336, "is_disabled": 0, "name": "2f0da093181c58b8bf6342d6ae99487b", "fusion_lat": 0.0, "rental_uris": {"ios": "https://dc.lft.to/lastmile_qr_scan", "android": "https://dc.lft.to/lastmile_qr_scan"}, "lon": -76.94812333333333, "type": "electric_scooter"}, {"bike_id": "f0ef818cd0336b0eac8040a62fd4a9b2", "is_reserved": 0, "fusion_lon": 0.0, "lat": 38.94094533333333, "is_disabled": 0, "name": "f0ef818cd0336b0eac8040a62fd4a9b2", "fusion_lat": 0.0, "rental_uris": {"ios": "https://dc.lft.to/lastmile_qr_scan", "android": "https://dc.lft.to/lastmile_qr_scan"}, "lon": -77.03278316666666, "type": "electric_scooter"}, {"bike_id": "806392f88072bb07ef063eddcca10ed3", "is_reserved": 0, "fusion_lon": 0.0, "lat": 38.919138, "is_disabled": 0, "name": "806392f88072bb07ef063eddcca10ed3", "fusion_lat": 0.0, "rental_uris": {"ios": "https://dc.lft.to/lastmile_qr_scan", "android": "https://dc.lft.to/lastmile_qr_scan"}, "lon": -77.02618416666667, "type": "electric_scooter"}, {"bike_id": "4cef7ede084ff6a5c02209def22e9f2e", "is_reserved": 0, "fusion_lon": 0.0, "lat": 38.900005666666665, "is_disabled": 0, "name": "4cef7ede084ff6a5c02209def22e9f2e", "fusion_lat": 0.0, "rental_uris": {"ios": "https://dc.lft.to/lastmile_qr_scan", "android": "https://dc.lft.to/lastmile_qr_scan"}, "lon": -76.995017, "type": "electric_scooter"}, {"bike_id": "3fb5605838f39676ec568113124adb5d", "is_reserved": 0, "fusion_lon": 0.0, "lat": 38.9186635, "is_disabled": 0, "name": "3fb5605838f39676ec568113124adb5d", "fusion_lat": 0.0, "rental_uris": {"ios": "https://dc.lft.to/lastmile_qr_scan", "android": "https://dc.lft.to/lastmile_qr_scan"}, "lon": -77.03662316666667, "type": "electric_scooter"}, {"bike_id": "dcb60653c1b8890bbab71d518019b16f", "is_reserved": 0, "fusion_lon": 0.0, "lat": 38.86460966666667, "is_disabled": 0, "name": "dcb60653c1b8890bbab71d518019b16f", "fusion_lat": 0.0, "rental_uris": {"ios": "https://dc.lft.to/lastmile_qr_scan", "android": "https://dc.lft.to/lastmile_qr_scan"}, "lon": -76.94539416666667, "type": "electric_bike"}, {"bike_id": "59ddb0e14afe0b944faa79fe907c062a", "is_reserved": 0, "fusion_lon": 0.0, "lat": 38.932033, "is_disabled": 0, "name": "59ddb0e14afe0b944faa79fe907c062a", "fusion_lat": 0.0, "rental_uris": {"ios": "https://dc.lft.to/lastmile_qr_scan", "android": "https://dc.lft.to/lastmile_qr_scan"}, "lon": -77.038519, "type": "electric_scooter"}, {"bike_id": "944c7c1cf1a8bf88fc26c5f6ff050d56", "is_reserved": 0, "fusion_lon": 0.0, "lat": 38.8952995, "is_disabled": 0, "name": "944c7c1cf1a8bf88fc26c5f6ff050d56", "fusion_lat": 0.0, "rental_uris": {"ios": "https://dc.lft.to/lastmile_qr_scan", "android": "https://dc.lft.to/lastmile_qr_scan"}, "lon": -77.03351533333333, "type": "electric_scooter"}, {"bike_id": "8b96596e76c48dd3ce4a3c358c3e2a01", "is_reserved": 0, "fusion_lon": 0.0, "lat": 38.919495, "is_disabled": 0, "name": "8b96596e76c48dd3ce4a3c358c3e2a01", "fusion_lat": 0.0, "rental_uris": {"ios": "https://dc.lft.to/lastmile_qr_scan", "android": "https://dc.lft.to/lastmile_qr_scan"}, "lon": -77.03201616666666, "type": "electric_scooter"}, {"bike_id": "415849887f183bd01169219c75d22ccd", "is_reserved": 0, "fusion_lon": 0.0, "lat": 38.908892, "is_disabled": 0, "name": "415849887f183bd01169219c75d22ccd", "fusion_lat": 0.0, "rental_uris": {"ios": "https://dc.lft.to/lastmile_qr_scan", "android": "https://dc.lft.to/lastmile_qr_scan"}, "lon": -77.041561, "type": "electric_scooter"}, {"bike_id": "a90828358bbdeb64420dc95dc4dcd92b", "is_reserved": 0, "fusion_lon": 0.0, "lat": 38.92445033333333, "is_disabled": 0, "name": "a90828358bbdeb64420dc95dc4dcd92b", "fusion_lat": 0.0, "rental_uris": {"ios": "https://dc.lft.to/lastmile_qr_scan", "android": "https://dc.lft.to/lastmile_qr_scan"}, "lon": -77.02035833333333, "type": "electric_scooter"}, {"bike_id": "c2bbd7c96063135f34d30c3fb20c52a6", "is_reserved": 0, "fusion_lon": 0.0, "lat": 38.914043, "is_disabled": 0, "name": "c2bbd7c96063135f34d30c3fb20c52a6", "fusion_lat": 0.0, "rental_uris": {"ios": "https://dc.lft.to/lastmile_qr_scan", "android": "https://dc.lft.to/lastmile_qr_scan"}, "lon": -77.0456735, "type": "electric_scooter"}, {"bike_id": "35d769ce59fd4b6d31836a04e8bc8456", "is_reserved": 0, "fusion_lon": 0.0, "lat": 38.899649833333335, "is_disabled": 0, "name": "35d769ce59fd4b6d31836a04e8bc8456", "fusion_lat": 0.0, "rental_uris": {"ios": "https://dc.lft.to/lastmile_qr_scan", "android": "https://dc.lft.to/lastmile_qr_scan"}, "lon": -76.98671833333333, "type": "electric_bike"}, {"bike_id": "658fc0292f654563f9cd05dbc032271f", "is_reserved": 0, "fusion_lon": 0.0, "lat": 38.90452766666667, "is_disabled": 0, "name": "658fc0292f654563f9cd05dbc032271f", "fusion_lat": 0.0, "rental_uris": {"ios": "https://dc.lft.to/lastmile_qr_scan", "android": "https://dc.lft.to/lastmile_qr_scan"}, "lon": -77.0591935, "type": "electric_scooter"}, {"bike_id": "e4cdf9903801ede7fe778b35e6929e4b", "is_reserved": 0, "fusion_lon": 0.0, "lat": 38.94178816666667, "is_disabled": 0, "name": "e4cdf9903801ede7fe778b35e6929e4b", "fusion_lat": 0.0, "rental_uris": {"ios": "https://dc.lft.to/lastmile_qr_scan", "android": "https://dc.lft.to/lastmile_qr_scan"}, "lon": -77.02532133333334, "type": "electric_scooter"}, {"bike_id": "3a0d934907a963a5579de07ee010341c", "is_reserved": 0, "fusion_lon": 0.0, "lat": 38.86414366666666, "is_disabled": 0, "name": "3a0d934907a963a5579de07ee010341c", "fusion_lat": 0.0, "rental_uris": {"ios": "https://dc.lft.to/lastmile_qr_scan", "android": "https://dc.lft.to/lastmile_qr_scan"}, "lon": -77.01354283333333, "type": "electric_scooter"}, {"bike_id": "95ee57d7e99e5a45f6d9aa0af64bcf70", "is_reserved": 0, "fusion_lon": 0.0, "lat": 38.914204166666664, "is_disabled": 0, "name": "95ee57d7e99e5a45f6d9aa0af64bcf70", "fusion_lat": 0.0, "rental_uris": {"ios": "https://dc.lft.to/lastmile_qr_scan", "android": "https://dc.lft.to/lastmile_qr_scan"}, "lon": -77.0390755, "type": "electric_scooter"}, {"bike_id": "47a4c55c3ad2e62dd6a1b77b160cb46f", "is_reserved": 0, "fusion_lon": 0.0, "lat": 38.90956516666667, "is_disabled": 0, "name": "47a4c55c3ad2e62dd6a1b77b160cb46f", "fusion_lat": 0.0, "rental_uris": {"ios": "https://dc.lft.to/lastmile_qr_scan", "android": "https://dc.lft.to/lastmile_qr_scan"}, "lon": -77.034234, "type": "electric_scooter"}, {"bike_id": "a1d79f8bb2c3561246db21307884e651", "is_reserved": 0, "fusion_lon": 0.0, "lat": 38.9017295, "is_disabled": 0, "name": "a1d79f8bb2c3561246db21307884e651", "fusion_lat": 0.0, "rental_uris": {"ios": "https://dc.lft.to/lastmile_qr_scan", "android": "https://dc.lft.to/lastmile_qr_scan"}, "lon": -77.00020333333333, "type": "electric_scooter"}, {"bike_id": "670908c712c308e587c85289ad73546e", "is_reserved": 0, "fusion_lon": 0.0, "lat": 38.863589833333336, "is_disabled": 0, "name": "670908c712c308e587c85289ad73546e", "fusion_lat": 0.0, "rental_uris": {"ios": "https://dc.lft.to/lastmile_qr_scan", "android": "https://dc.lft.to/lastmile_qr_scan"}, "lon": -76.99069616666667, "type": "electric_scooter"}, {"bike_id": "c92826b317a07bd810b146589dd93c9c", "is_reserved": 0, "fusion_lon": 0.0, "lat": 38.9581435, "is_disabled": 0, "name": "c92826b317a07bd810b146589dd93c9c", "fusion_lat": 0.0, "rental_uris": {"ios": "https://dc.lft.to/lastmile_qr_scan", "android": "https://dc.lft.to/lastmile_qr_scan"}, "lon": -77.01380333333333, "type": "electric_bike"}, {"bike_id": "f2e14718906f7e4c293a427b46312602", "is_reserved": 0, "fusion_lon": 0.0, "lat": 38.88436983333333, "is_disabled": 0, "name": "f2e14718906f7e4c293a427b46312602", "fusion_lat": 0.0, "rental_uris": {"ios": "https://dc.lft.to/lastmile_qr_scan", "android": "https://dc.lft.to/lastmile_qr_scan"}, "lon": -77.03043916666667, "type": "electric_scooter"}, {"bike_id": "b8950274bb800e93659c7e8d002b62c9", "is_reserved": 0, "fusion_lon": 0.0, "lat": 38.90517766666667, "is_disabled": 0, "name": "b8950274bb800e93659c7e8d002b62c9", "fusion_lat": 0.0, "rental_uris": {"ios": "https://dc.lft.to/lastmile_qr_scan", "android": "https://dc.lft.to/lastmile_qr_scan"}, "lon": -77.0483975, "type": "electric_scooter"}, {"bike_id": "71492162d2c0134812c49e000d9d067a", "is_reserved": 0, "fusion_lon": 0.0, "lat": 38.904573166666665, "is_disabled": 0, "name": "71492162d2c0134812c49e000d9d067a", "fusion_lat": 0.0, "rental_uris": {"ios": "https://dc.lft.to/lastmile_qr_scan", "android": "https://dc.lft.to/lastmile_qr_scan"}, "lon": -76.99504533333334, "type": "electric_scooter"}, {"bike_id": "da3ab08d001e90f01121c352201b82c7", "is_reserved": 0, "fusion_lon": 0.0, "lat": 38.8960775, "is_disabled": 0, "name": "da3ab08d001e90f01121c352201b82c7", "fusion_lat": 0.0, "rental_uris": {"ios": "https://dc.lft.to/lastmile_qr_scan", "android": "https://dc.lft.to/lastmile_qr_scan"}, "lon": -77.0450695, "type": "electric_scooter"}, {"bike_id": "76c799ff305d424f4226b64d87757dbb", "is_reserved": 0, "fusion_lon": 0.0, "lat": 38.922942666666664, "is_disabled": 0, "name": "76c799ff305d424f4226b64d87757dbb", "fusion_lat": 0.0, "rental_uris": {"ios": "https://dc.lft.to/lastmile_qr_scan", "android": "https://dc.lft.to/lastmile_qr_scan"}, "lon": -77.04142983333334, "type": "electric_scooter"},