{"data": {"bikes": [{"is_reserved": 0, "type": "electric_scooter", "bike_id": "b75cde052976be6b00942f34c1283447", "lat": 38.91644633333333, "lon": -77.0369845, "rental_uris": {"android": "https://dc.lft.to/lastmile_qr_scan", "ios": "https://dc.lft.to/lastmile_qr_scan"}, "is_disabled": 0, "fusion_lat": 0.0, "name": "b75cde052976be6b00942f34c1283447", "fusion_lon": 0.0}, {"is_reserved": 0, "type": "electric_scooter", "bike_id": "faa204671fd2ee3e73b39123237dafbb", "lat": 38.922954833333336, "lon": -77.04218216666666, "rental_uris": {"android": "https://dc.lft.to/lastmile_qr_scan", "ios": "https://dc.lft.to/lastmile_qr_scan"}, "is_disabled": 0, "fusion_lat": 0.0, "name": "faa204671fd2ee3e73b39123237dafbb", "fusion_lon": 0.0}, {"is_reserved": 0, "type": "electric_scooter", "bike_id": "1ec696c7b641c09af4dd73ade0086bb0", "lat": 38.900308833333334, "lon": -76.99627816666667, "rental_uris": {"android": "https://dc.lft.to/lastmile_qr_scan", "ios": "https://dc.lft.to/lastmile_qr_scan"}, "is_disabled": 0, "fusion_lat": 0.0, "name": "1ec696c7b641c09af4dd73ade0086bb0", "fusion_lon": 0.0}, {"is_reserved": 0, "type": "electric_scooter", "bike_id": "7af24a4007c3405cbec41211e79caba6", "lat": 38.89821466666667, "lon": -77.024636, "rental_uris": {"android": "https://dc.lft.to/lastmile_qr_scan", "ios": "https://dc.lft.to/lastmile_qr_scan"}, "is_disabled": 0, "fusion_lat": 0.0, "name": "7af24a4007c3405cbec41211e79caba6", "fusion_lon": 0.0}, {"is_reserved": 0, "type": "electric_scooter", "bike_id": "b43020f9401270ee63029ec1ecc221de", "lat": 38.907901833333334, "lon": -76.99693883333333, "rental_uris": {"android": "https://dc.lft.to/lastmile_qr_scan", "ios": "https://dc.lft.to/lastmile_qr_scan"}, "is_disabled": 0, "fusion_lat": 0.0, "name": "b43020f9401270ee63029ec1ecc221de", "fusion_lon": 0.0}, {"is_reserved": 0, "type": "electric_scooter", "bike_id": "68f798b838ea4f618c385877125cc198", "lat": 38.903465, "lon": -77.02578933333334, "rental_uris": {"android": "https://dc.lft.to/lastmile_qr_scan", "ios": "https://dc.lft.to/lastmile_qr_scan"}, "is_disabled": 0, "fusion_lat": 0.0, "name": "68f798b838ea4f618c385877125cc198", "fusion_lon": 0.0}, {"is_reserved": 0, "type": "electric_scooter", "bike_id": "b771ce46df7a1abcd29fa503a73f0c58", "lat": 38.91766766666667, "lon": -77.047449, "rental_uris": {"android": "https://dc.lft.to/lastmile_qr_scan", "ios": "https://dc.lft.to/lastmile_qr_scan"}, "is_disabled": 0, "fusion_lat": 0.0, "name": "b771ce46df7a1abcd29fa503a73f0c58", "fusion_lon": 0.0}, {"is_reserved": 0, "type": "electric_scooter", "bike_id": "b570a44d6424887773684aa3b8bf24e1", "lat": 38.930349166666666, "lon": -77.02962716666667, "rental_uris": {"android": "https://dc.lft.to/lastmile_qr_scan", "ios": "https://dc.lft.to/lastmile_qr_scan"}, "is_disabled": 0, "fusion_lat": 0.0, "name": "b570a44d6424887773684aa3b8bf24e1", "fusion_lon": 0.0}, {"is_reserved": 0, "type": "electric_bike", "bike_id": "1e513af0d9ff5dc7cce79bf359cfdd2b", "lat": 38.98715083333333, "lon": -76.945848, "rental_uris": {"android": "https://dc.lft.to/lastmile_qr_scan", "ios": "https://dc.lft.to/lastmile_qr_scan"}, "is_disabled": 0, "fusion_lat": 0.0, "name": "1e513af0d9ff5dc7cce79bf359cfdd2b", "fusion_lon": 0.0}, {"is_reserved": 0, "type": "electric_scooter", "bike_id": "bf24004da298c77bffe24ade640c9cbb", "lat": 38.90854383333333, "lon": -77.04593216666666, "rental_uris": {"android": "https://dc.lft.to/lastmile_qr_scan", "ios": "https://dc.lft.to/lastmile_qr_scan"}, "is_disabled": 0, "fusion_lat": 0.0, "name": "bf24004da298c77bffe24ade640c9cbb", "fusion_lon": 0.0}, {"is_reserved": 0, "type": "electric_scooter", "bike_id": "fce80be99ae93f09bb71d39b2fdf1b3b", "lat": 38.880569333333334, "lon": -77.02564816666667, "rental_uris": {"android": "https://dc.lft.to/lastmile_qr_scan", "ios": "https://dc.lft.to/lastmile_qr_scan"}, "is_disabled": 0, "fusion_lat": 0.0, "name": "fce80be99ae93f09bb71d39b2fdf1b3b", "fusion_lon": 0.0}, {"is_reserved": 0, "type": "electric_scooter", "bike_id": "bc4d4980c8cb45b25d7c0ecbe0eb4115", "lat": 38.900301666666664, "lon": -76.98765316666666, "rental_uris": {"android": "https://dc.lft.to/lastmile_qr_scan", "ios": "https://dc.lft.to/lastmile_qr_scan"}, "is_disabled": 0, "fusion_lat": 0.0, "name": "bc4d4980c8cb45b25d7c0ecbe0eb4115", "fusion_lon": 0.0}, {"is_reserved": 0, "type": "electric_scooter", "bike_id": "64f596c2403b6d509769e37122450592", "lat": 38.9095015, "lon": -77.02279916666667, "rental_uris": {"android": "https://dc.lft.to/lastmile_qr_scan", "ios": "https://dc.lft.to/lastmile_qr_scan"}, "is_disabled": 0, "fusion_lat": 0.0, "name": "64f596c2403b6d509769e37122450592", "fusion_lon": 0.0}, {"is_reserved": 0, "type": "electric_scooter", "bike_id": "8065f1cd60c2a4378aab6cfd94fb8846", "lat": 38.92867966666667, "lon": -77.03719033333333, "rental_uris": {"android": "https://dc.lft.to/lastmile_qr_scan", "ios": "https://dc.lft.to/lastmile_qr_scan"}, "is_disabled": 0, "fusion_lat": 0.0, "name": "8065f1cd60c2a4378aab6cfd94fb8846", "fusion_lon": 0.0}, {"is_reserved": 0, "type": "electric_scooter", "bike_id": "86ace796b293f0079f0dcb7a2225bd55", "lat": 38.935097166666665, "lon": -77.0735515, "rental_uris": {"android": "https://dc.lft.to/lastmile_qr_scan", "ios": "https://dc.lft.to/lastmile_qr_scan"}, "is_disabled": 0, "fusion_lat": 0.0, "name": "86ace796b293f0079f0dcb7a2225bd55", "fusion_lon": 0.0}, {"is_reserved": 0, "type": "electric_bike", "bike_id": "714615e518fbecd3b1b5dde6216e9f26", "lat": 38.94797716666667, "lon": -76.942528, "rental_uris": {"android": "https://dc.lft.to/lastmile_qr_scan", "ios": "https://dc.lft.to/lastmile_qr_scan"}, "is_disabled": 0, "fusion_lat": 0.0, "name": "714615e518fbecd3b1b5dde6216e9f26", "fusion_lon": 0.0}, {"is_reserved": 0, "type": "electric_bike", "bike_id": "4f1999bed8703d6e488d8dcf2b6564fa", "lat": 38.805599, "lon": -77.1322785, "rental_uris": {"android": "https://dc.lft.to/lastmile_qr_scan", "ios": "https://dc.lft.to/lastmile_qr_scan"}, "is_disabled": 0, "fusion_lat": 0.0, "name": "4f1999bed8703d6e488d8dcf2b6564fa", "fusion_lon": 0.0}, {"is_reserved": 0, "type": "electric_scooter", "bike_id": "7f796dbf6b7313aa2f25217dd5c612ef", "lat": 38.931098166666665, "lon": -77.02004866666667, "rental_uris": {"android": "https://dc.lft.to/lastmile_qr_scan", "ios": "https://dc.lft.to/lastmile_qr_scan"}, "is_disabled": 0, "fusion_lat": 0.0, "name": "7f796dbf6b7313aa2f25217dd5c612ef", "fusion_lon": 0.0}, {"is_reserved": 0, "type": "electric_scooter", "bike_id": "231057a68ac9f579b190c51cbed4e965", "lat": 38.8865015, "lon": -76.99613433333333, "rental_uris": {"android": "https://dc.lft.to/lastmile_qr_scan", "ios": "https://dc.lft.to/lastmile_qr_scan"}, "is_disabled": 0, "fusion_lat": 0.0, "name": "231057a68ac9f579b190c51cbed4e965", "fusion_lon": 0.0}, {"is_reserved": 0, "type": "electric_scooter", "bike_id": "6787303e305ed95dcf552ad26decd856", "lat": 38.9112025, "lon": -77.038242, "rental_uris": {"android": "https://dc.lft.to/lastmile_qr_scan", "ios": "https://dc.lft.to/lastmile_qr_scan"}, "is_disabled": 0, "fusion_lat": 0.0, "name": "6787303e305ed95dcf552ad26decd856", "fusion_lon": 0.0}, {"is_reserved": 0, "type": "electric_scooter", "bike_id": "ea1ec42d6fe7bc4e174c40805d8def28", "lat": 38.899344666666664, "lon": -77.00357583333333, "rental_uris": {"android": "https://dc.lft.to/lastmile_qr_scan", "ios": "https://dc.lft.to/lastmile_qr_scan"}, "is_disabled": 0, "fusion_lat": 0.0, "name": "ea1ec42d6fe7bc4e174c40805d8def28", "fusion_lon": 0.0}, {"is_reserved": 0, "type": "electric_scooter", "bike_id": "a220ca9002bc49176d804fc84aa2b52a", "lat": 38.90360966666667, "lon": -77.042531, "rental_uris": {"android": "https://dc.lft.to/lastmile_qr_scan", "ios": "https://dc.lft.to/lastmile_qr_scan"}, "is_disabled": 0, "fusion_lat": 0.0, "name": "a220ca9002bc49176d804fc84aa2b52a", "fusion_lon": 0.0}, {"is_reserved": 0, "type": "electric_scooter", "bike_id": "8cdbf0b38881ccad0f017f65ba904b23", "lat": 38.90562083333333, "lon": -76.98139116666667, "rental_uris": {"android": "https://dc.lft.to/lastmile_qr_scan", "ios": "https://dc.lft.to/lastmile_qr_scan"}, "is_disabled": 0, "fusion_lat": 0.0, "name": "8cdbf0b38881ccad0f017f65ba904b23", "fusion_lon": 0.0}, {"is_reserved": 0, "type": "electric_scooter", "bike_id": "5dfa1c073ffa6fc69711ae36b00f3fa5", "lat": 38.92412066666667, "lon": -77.02009033333333, "rental_uris": {"android": "https://dc.lft.to/lastmile_qr_scan", "ios": "https://dc.lft.to/lastmile_qr_scan"}, "is_disabled": 0, "fusion_lat": 0.0, "name": "5dfa1c073ffa6fc69711ae36b00f3fa5", "fusion_lon": 0.0}, {"is_reserved": 0, "type": "electric_scooter", "bike_id": "b0b2d1e700e4d2d84ccf9a57d97d3be3", "lat": 38.897248833333336, "lon": -77.0486015, "rental_uris": {"android": "https://dc.lft.to/lastmile_qr_scan", "ios": "https://dc.lft.to/lastmile_qr_scan"}, "is_disabled": 0, "fusion_lat": 0.0, "name": "b0b2d1e700e4d2d84ccf9a57d97d3be3", "fusion_lon": 0.0}, {"is_reserved": 0, "type": "electric_scooter", "bike_id": "17244fd3d1fc887b3cbb9d2e66b40e24", "lat": 38.87847266666667, "lon": -77.0087585, "rental_uris": {"android": "https://dc.lft.to/lastmile_qr_scan", "ios": "https://dc.lft.to/lastmile_qr_scan"}, "is_disabled": 0, "fusion_lat": 0.0, "name": "17244fd3d1fc887b3cbb9d2e66b40e24", "fusion_lon": 0.0}, {"is_reserved": 0, "type": "electric_scooter", "bike_id": "3fc5cd9810cdb7e7b802fcbaa08c35cb", "lat": 38.90025383333333, "lon": -76.9885675, "rental_uris": {"android": "https://dc.lft.to/lastmile_qr_scan", "ios": "https://dc.lft.to/lastmile_qr_scan"}, "is_disabled": 0, "fusion_lat": 0.0, "name": "3fc5cd9810cdb7e7b802fcbaa08c35cb", "fusion_lon": 0.0}, {"is_reserved": 0, "type": "electric_scooter", "bike_id": "b72bbd7b7acdc2717179291ed553ca33", "lat": 38.8923215, "lon": -77.048804, "rental_uris": {"android": "https://dc.lft.to/lastmile_qr_scan", "ios": "https://dc.lft.to/lastmile_qr_scan"}, "is_disabled": 0, "fusion_lat": 0.0, "name": "b72bbd7b7acdc2717179291ed553ca33", "fusion_lon": 0.0}, {"is_reserved": 0, "type": "electric_scooter", "bike_id": "80e4a48ffd67a586a8f4a93fe547432c", "lat": 38.89943316666667, "lon": -77.0259725, "rental_uris": {"android": "https://dc.lft.to/lastmile_qr_scan", "ios": "https://dc.lft.to/lastmile_qr_scan"}, "is_disabled": 0, "fusion_lat": 0.0, "name": "80e4a48ffd67a586a8f4a93fe547432c", "fusion_lon": 0.0}, {"is_reserved": 0, "type": "electric_scooter", "bike_id": "8faf710b82ebb78708dd402e94ecab4e", "lat": 38.921868833333335, "lon": -76.99624, "rental_uris": {"android": "https://dc.lft.to/lastmile_qr_scan", "ios": "https://dc.lft.to/lastmile_qr_scan"}, "is_disabled": 0, "fusion_lat": 0.0, "name": "8faf710b82ebb78708dd402e94ecab4e", "fusion_lon": 0.0}, {"is_reserved": 0, "type": "electric_scooter", "bike_id": "326c471219a038490a61a3acbcc8df52", "lat": 38.8877255, "lon": -76.93263783333333, "rental_uris": {"android": "https://dc.lft.to/lastmile_qr_scan", "ios": "https://dc.lft.to/lastmile_qr_scan"}, "is_disabled": 0, "fusion_lat": 0.0, "name": "326c471219a038490a61a3acbcc8df52", "fusion_lon": 0.0}, {"is_reserved": 0, "type": "electric_scooter", "bike_id": "f2ab569a52d731b660cba9c6770efd81", "lat": 38.931863166666666, "lon": -77.02632683333333, "rental_uris": {"android": "https://dc.lft.to/lastmile_qr_scan", "ios": "https://dc.lft.to/lastmile_qr_scan"}, "is_disabled": 0, "fusion_lat": 0.0, "name": "f2ab569a52d731b660cba9c6770efd81", "fusion_lon": 0.0}, {"is_reserved": 0, "type": "electric_scooter", "bike_id": "83f28969757bc4abdafb155eba848c17", "lat": 38.9169155, "lon": -77.03237366666667, "rental_uris": {"android": "https://dc.lft.to/lastmile_qr_scan", "ios": "https://dc.lft.to/lastmile_qr_scan"}, "is_disabled": 0, "fusion_lat": 0.0, "name": "83f28969757bc4abdafb155eba848c17", "fusion_lon": 0.0}, {"is_reserved": 0, "type": "electric_scooter", "bike_id": "db129d18fb9fd7fad06586282c13985d", "lat": 38.90370816666667, "lon": -77.0163265, "rental_uris": {"android": "https://dc.lft.to/lastmile_qr_scan", "ios": "https://dc.lft.to/lastmile_qr_scan"}, "is_disabled": 0, "fusion_lat": 0.0, "name": "db129d18fb9fd7fad06586282c13985d", "fusion_lon": 0.0}, {"is_reserved": 0, "type": "electric_scooter", "bike_id": "720880ee3f04c374d97afc9069b1403f", "lat": 38.930462, "lon": -77.02338183333333, "rental_uris": {"android": "https://dc.lft.to/lastmile_qr_scan", "ios": "https://dc.lft.to/lastmile_qr_scan"}, "is_disabled": 0, "fusion_lat": 0.0, "name": "720880ee3f04c374d97afc9069b1403f", "fusion_lon": 0.0}, {"is_reserved": 0, "type": "electric_scooter", "bike_id": "6bd36b64cf91089ece34e93e7e106da7", "lat": 38.91703566666666, "lon": -77.033945, "rental_uris": {"android": "https://dc.lft.to/lastmile_qr_scan", "ios": "https://dc.lft.to/lastmile_qr_scan"}, "is_disabled": 0, "fusion_lat": 0.0, "name": "6bd36b64cf91089ece34e93e7e106da7", "fusion_lon": 0.0}, {"is_reserved": 0, "type": "electric_scooter", "bike_id": "27bf68ea4f0b1704b65e2159eeb983ef", "lat": 38.88686783333333, "lon": -76.9901885, "rental_uris": {"android": "https://dc.lft.to/lastmile_qr_scan", "ios": "https://dc.lft.to/lastmile_qr_scan"}, "is_disabled": 0, "fusion_lat": 0.0, "name": "27bf68ea4f0b1704b65e2159eeb983ef", "fusion_lon": 0.0}, {"is_reserved": 0, "type": "electric_scooter", "bike_id": "ef0159606e2e66ec6f33b94c514d5b2a", "lat": 38.9306465, "lon": -77.03691116666667, "rental_uris": {"android": "https://dc.lft.to/lastmile_qr_scan", "ios": "https://dc.lft.to/lastmile_qr_scan"}, "is_disabled": 0, "fusion_lat": 0.0, "name": "ef0159606e2e66ec6f33b94c514d5b2a", "fusion_lon": 0.0}, {"is_reserved": 0, "type": "electric_scooter", "bike_id": "4dc80b284ce5cd2bd440066ad24ebfe4", "lat": 38.92139683333333, "lon": -77.01221216666667, "rental_uris": {"android": "https://dc.lft.to/lastmile_qr_scan", "ios": "https://dc.lft.to/lastmile_qr_scan"}, "is_disabled": 0, "fusion_lat": 0.0, "name": "4dc80b284ce5cd2bd440066ad24ebfe4", "fusion_lon": 0.0}, {"is_reserved": 0, "type": "electric_scooter", "bike_id": "75354b767e83b211cffb2c2b8704f2dd", "lat": 38.907322666666666, "lon": -77.04474266666666, "rental_uris": {"android": "https://dc.lft.to/lastmile_qr_scan", "ios": "https://dc.lft.to/lastmile_qr_scan"}, "is_disabled": 0, "fusion_lat": 0.0, "name": "75354b767e83b211cffb2c2b8704f2dd", "fusion_lon": 0.0}, {"is_reserved": 0, "type": "electric_scooter", "bike_id": "00fb73b0a1aa5325423a9a4b19994dcd", "lat": 38.917640666666664, "lon": -77.0317585, "rental_uris": {"android": "https://dc.lft.to/lastmile_qr_scan", "ios": "https://dc.lft.to/lastmile_qr_scan"}, "is_disabled": 0, "fusion_lat": 0.0, "name": "00fb73b0a1aa5325423a9a4b19994dcd", "fusion_lon": 0.0}, {"is_reserved": 0, "type": "electric_scooter", "bike_id": "60f7d8fd342fb5a1e4410da3c6a5debb", "lat": 38.924443333333336, "lon": -77.020207, "rental_uris": {"android": "https://dc.lft.to/lastmile_qr_scan", "ios": "https://dc.lft.to/lastmile_qr_scan"}, "is_disabled": 0, "fusion_lat": 0.0, "name": "60f7d8fd342fb5a1e4410da3c6a5debb", "fusion_lon": 0.0}, {"is_reserved": 0, "type": "electric_scooter", "bike_id": "28ac52d57e29a12b66350e0f75cdeb2b", "lat": 38.90410216666667, "lon": -77.06892283333333, "rental_uris": {"android": "https://dc.lft.to/lastmile_qr_scan", "ios": "https://dc.lft.to/lastmile_qr_scan"}, "is_disabled": 0, "fusion_lat": 0.0, "name": "28ac52d57e29a12b66350e0f75cdeb2b", "fusion_lon": 0.0}, {"is_reserved": 0, "type": "electric_scooter", "bike_id": "35d15a13d5b5fedf0e585cae5f3b7ba3", "lat": 38.93047816666667, "lon": -77.02334316666666, "rental_uris": {"android": "https://dc.lft.to/lastmile_qr_scan", "ios": "https://dc.lft.to/lastmile_qr_scan"}, "is_disabled": 0, "fusion_lat": 0.0, "name": "35d15a13d5b5fedf0e585cae5f3b7ba3", "fusion_lon": 0.0}, {"is_reserved": 0, "type": "electric_scooter", "bike_id": "f145404f23af7c4174f3134f10c1dcae", "lat": 38.892488, "lon": -77.0184725, "rental_uris": {"android": "https://dc.lft.to/lastmile_qr_scan", "ios": "https://dc.lft.to/lastmile_qr_scan"}, "is_disabled": 0, "fusion_lat": 0.0, "name": "f145404f23af7c4174f3134f10c1dcae", "fusion_lon": 0.0}, {"is_reserved": 0, "type": "electric_scooter", "bike_id": "cbc4642588112956af7ace818b1b7af5", "lat": 38.92535516666667, "lon": -77.02282533333333, "rental_uris": {"android": "https://dc.lft.to/lastmile_qr_scan", "ios": "https://dc.lft.to/lastmile_qr_scan"}, "is_disabled": 0, "fusion_lat": 0.0, "name": "cbc4642588112956af7ace818b1b7af5", "fusion_lon": 0.0}, {"is_reserved": 0, "type": "electric_scooter", "bike_id": "79ec1ff02dffb3541f24f3a5d251a94a", "lat": 38.909381333333336, "lon": -77.03200383333333, "rental_uris": {"android": "https://dc.lft.to/lastmile_qr_scan", "ios": "https://dc.lft.to/lastmile_qr_scan"}, "is_disabled": 0, "fusion_lat": 0.0, "name": "79ec1ff02dffb3541f24f3a5d251a94a", "fusion_lon": 0.0}, {"is_reserved": 0, "type": "electric_bike", "bike_id": "5d908166017d58eee146498363ceff5f", "lat": 38.9952235, "lon": -77.02885833333333, "rental_uris": {"android": "https://dc.lft.to/lastmile_qr_scan", "ios": "https://dc.lft.to/lastmile_qr_scan"}, "is_disabled": 0, "fusion_lat": 0.0, "name": "5d908166017d58eee146498363ceff5f", "fusion_lon": 0.0}, {"is_reserved": 0, "type": "electric_scooter", "bike_id": "cd5167876d5446fe26c077d82914de41", "lat": 38.899286833333335, "lon": -77.03212266666667, "rental_uris": {"android": "https://dc.lft.to/lastmile_qr_scan", "ios": "https://dc.lft.to/lastmile_qr_scan"}, "is_disabled": 0, "fusion_lat": 0.0, "name": "cd5167876d5446fe26c077d82914de41", "fusion_lon": 0.0}, {"is_reserved": 0, "type": "electric_scooter", "bike_id": "e5dccb0159c28be38da04e739fd393a2", "lat": 38.92364583333333, "lon": -77.036582, "rental_uris": {"android": "https://dc.lft.to/lastmile_qr_scan", "ios": "https://dc.lft.to/lastmile_qr_scan"}, "is_disabled": 0, "fusion_lat": 0.0, "name": "e5dccb0159c28be38da04e739fd393a2", "fusion_lon": 0.0}, {"is_reserved": 0, "type": "electric_scooter", "bike_id": "ccd5e2c38ac25d11d69e02413283e9b0", "lat": 38.91867166666667, "lon": -77.0356295, "rental_uris": {"android": "https://dc.lft.to/lastmile_qr_scan", "ios": "https://dc.lft.to/lastmile_qr_scan"}, "is_disabled": 0, "fusion_lat": 0.0, "name": "ccd5e2c38ac25d11d69e02413283e9b0", "fusion_lon": 0.0}, {"is_reserved": 0, "type": "electric_bike", "bike_id": "422eaf19568433eec76829d32f192cc6", "lat": 38.84053466666667, "lon": -77.055991, "rental_uris": {"android": "https://dc.lft.to/lastmile_qr_scan", "ios": "https://dc.lft.to/lastmile_qr_scan"}, "is_disabled": 0, "fusion_lat": 0.0, "name": "422eaf19568433eec76829d32f192cc6", "fusion_lon": 0.0}, {"is_reserved": 0, "type": "electric_scooter", "bike_id": "cf5427b04e28b72bded37ea7f91451ae", "lat": 38.91775633333334, "lon": -77.0241075, "rental_uris": {"android": "https://dc.lft.to/lastmile_qr_scan", "ios": "https://dc.lft.to/lastmile_qr_scan"}, "is_disabled": 0, "fusion_lat": 0.0, "name": "cf5427b04e28b72bded37ea7f91451ae", "fusion_lon": 0.0}, {"is_reserved": 0, "type": "electric_scooter", "bike_id": "39cf53491bf2ace615d52ccd64d6b59c", "lat": 38.9258535, "lon": -77.01221266666667, "rental_uris": {"android": "https://dc.lft.to/lastmile_qr_scan", "ios": "https://dc.lft.to/lastmile_qr_scan"}, "is_disabled": 0, "fusion_lat": 0.0, "name": "39cf53491bf2ace615d52ccd64d6b59c", "fusion_lon": 0.0}, {"is_reserved": 0, "type": "electric_scooter", "bike_id": "a5e7c2843f3c1c18519d7499d94c7863", "lat": 38.9206185, "lon": -77.04195066666666, "rental_uris": {"android": "https://dc.lft.to/lastmile_qr_scan", "ios": "https://dc.lft.to/lastmile_qr_scan"}, "is_disabled": 0, "fusion_lat": 0.0, "name": "a5e7c2843f3c1c18519d7499d94c7863", "fusion_lon": 0.0}, {"is_reserved": 0, "type": "electric_scooter", "bike_id": "49df1554efefa100e1b285a467b42886", "lat": 38.90514183333333, "lon": -77.06767283333333, "rental_uris": {"android": "https://dc.lft.to/lastmile_qr_scan", "ios": "https://dc.lft.to/lastmile_qr_scan"}, "is_disabled": 0, "fusion_lat": 0.0, "name": "49df1554efefa100e1b285a467b42886", "fusion_lon": 0.0}, {"is_reserved": 0, "type": "electric_scooter", "bike_id": "75c3035d86077aef86fbc87fc167e2a0", "lat": 38.89712466666667, "lon": -77.05357433333333, "rental_uris": {"android": "https://dc.lft.to/lastmile_qr_scan", "ios": "https://dc.lft.to/lastmile_qr_scan"}, "is_disabled": 0, "fusion_lat": 0.0, "name": "75c3035d86077aef86fbc87fc167e2a0", "fusion_lon": 0.0}, {"is_reserved": 0, "type": "electric_bike", "bike_id": "42b3f0237f39f3eba29371692bb151eb", "lat": 38.80729933333333, "lon": -76.992592, "rental_uris": {"android": "https://dc.lft.to/lastmile_qr_scan", "ios": "https://dc.lft.to/lastmile_qr_scan"}, "is_disabled": 0, "fusion_lat": 0.0, "name": "42b3f0237f39f3eba29371692bb151eb", "fusion_lon": 0.0}, {"is_reserved": 0, "type": "electric_scooter", "bike_id": "ec1c58e3734060265cd5c258491ff144", "lat": 38.87205566666667, "lon": -77.01552033333333, "rental_uris": {"android": "https://dc.lft.to/lastmile_qr_scan", "ios": "https://dc.lft.to/lastmile_qr_scan"}, "is_disabled": 0, "fusion_lat": 0.0, "name": "ec1c58e3734060265cd5c258491ff144", "fusion_lon": 0.0}, {"is_reserved": 0, "type": "electric_scooter", "bike_id": "7e72c52da7a0d3864a705ed34456b9e5", "lat": 38.92436433333334, "lon": -77.022471, "rental_uris": {"android": "https://dc.lft.to/lastmile_qr_scan", "ios": "https://dc.lft.to/lastmile_qr_scan"}, "is_disabled": 0, "fusion_lat": 0.0, "name": "7e72c52da7a0d3864a705ed34456b9e5", "fusion_lon": 0.0}, {"is_reserved": 0, "type": "electric_scooter", "bike_id": "b886f93a73b761d324908f2dac68c64f", "lat": 38.899049166666664, "lon": -77.0036265, "rental_uris": {"android": "https://dc.lft.to/lastmile_qr_scan", "ios": "https://dc.lft.to/lastmile_qr_scan"}, "is_disabled": 0, "fusion_lat": 0.0, "name": "b886f93a73b761d324908f2dac68c64f", "fusion_lon": 0.0}, {"is_reserved": 0, "type": "electric_bike", "bike_id": "b82c72889b5245b8adfc0b0da69f4eb0", "lat": 38.905335, "lon": -76.99801433333333, "rental_uris": {"android": "https://dc.lft.to/lastmile_qr_scan", "ios": "https://dc.lft.to/lastmile_qr_scan"}, "is_disabled": 0, "fusion_lat": 0.0, "name": "b82c72889b5245b8adfc0b0da69f4eb0", "fusion_lon": 0.0}, {"is_reserved": 0, "type": "electric_scooter", "bike_id": "0d8904f236352b669dbacb3de7587d62", "lat": 38.92246933333333, "lon": -77.02883483333333, "rental_uris": {"android": "https://dc.lft.to/lastmile_qr_scan", "ios": "https://dc.lft.to/lastmile_qr_scan"}, "is_disabled": 0, "fusion_lat": 0.0, "name": "0d8904f236352b669dbacb3de7587d62", "fusion_lon": 0.0}, {"is_reserved": 0, "type": "electric_scooter", "bike_id": "6985538868e01919c7c1e45a30ec63f5", "lat": 38.906847166666665, "lon": -77.062822, "rental_uris": {"android": "https://dc.lft.to/lastmile_qr_scan", "ios": "https://dc.lft.to/lastmile_qr_scan"}, "is_disabled": 0, "fusion_lat": 0.0, "name": "6985538868e01919c7c1e45a30ec63f5", "fusion_lon": 0.0}, {"is_reserved": 0, "type": "electric_scooter", "bike_id": "e73835f77a12e1d0d30a12a9270c9d74", "lat": 38.90177716666667, "lon": -76.92893483333333, "rental_uris": {"android": "https://dc.lft.to/lastmile_qr_scan", "ios": "https://dc.lft.to/lastmile_qr_scan"}, "is_disabled": 0, "fusion_lat": 0.0, "name": "e73835f77a12e1d0d30a12a9270c9d74", "fusion_lon": 0.0}, {"is_reserved": 0, "type": "electric_scooter", "bike_id": "29f10ee289aec19f31f5838204d3c0fd", "lat": 38.900309, "lon": -76.99606233333333, "rental_uris": {"android": "https://dc.lft.to/lastmile_qr_scan", "ios": "https://dc.lft.to/lastmile_qr_scan"}, "is_disabled": 0, "fusion_lat": 0.0, "name": "29f10ee289aec19f31f5838204d3c0fd", "fusion_lon": 0.0}, {"is_reserved": 0, "type": "electric_scooter", "bike_id": "ade136685535c51873fc443dcf016626", "lat": 38.9055775, "lon": -77.0569805, "rental_uris": {"android": "https://dc.lft.to/lastmile_qr_scan", "ios": "https://dc.lft.to/lastmile_qr_scan"}, "is_disabled": 0, "fusion_lat": 0.0, "name": "ade136685535c51873fc443dcf016626", "fusion_lon": 0.0}, {"is_reserved": 0, "type": "electric_scooter", "bike_id": "05ed115dcae9d8922142aab293640601", "lat": 38.91265966666667, "lon": -77.03871033333333, "rental_uris": {"android": "https://dc.lft.to/lastmile_qr_scan", "ios": "https://dc.lft.to/lastmile_qr_scan"}, "is_disabled": 0, "fusion_lat": 0.0, "name": "05ed115dcae9d8922142aab293640601", "fusion_lon": 0.0}, {"is_reserved": 0, "type": "electric_scooter", "bike_id": "c5923b89760c8f414dac16e32a1c2866", "lat": 38.8999245, "lon": -76.99485716666666, "rental_uris": {"android": "https://dc.lft.to/lastmile_qr_scan", "ios": "https://dc.lft.to/lastmile_qr_scan"}, "is_disabled": 0, "fusion_lat": 0.0, "name": "c5923b89760c8f414dac16e32a1c2866", "fusion_lon": 0.0}, {"is_reserved": 0, "type": "electric_scooter", "bike_id": "9746f524974ce4bfe84bcb02ba9ed23a", "lat": 38.903037833333336, "lon": -76.97651066666667, "rental_uris": {"android": "https://dc.lft.to/lastmile_qr_scan", "ios": "https://dc.lft.to/lastmile_qr_scan"}, "is_disabled": 0, "fusion_lat": 0.0, "name": "9746f524974ce4bfe84bcb02ba9ed23a", "fusion_lon": 0.0}, {"is_reserved": 0, "type": "electric_scooter", "bike_id": "cfb65a5725174e02ba1d2b89d4e2eee1", "lat": 38.901313, "lon": -77.03748866666666, "rental_uris": {"android": "https://dc.lft.to/lastmile_qr_scan", "ios": "https://dc.lft.to/lastmile_qr_scan"}, "is_disabled": 0, "fusion_lat": 0.0, "name": "cfb65a5725174e02ba1d2b89d4e2eee1", "fusion_lon": 0.0}, {"is_reserved": 0, "type": "electric_scooter", "bike_id": "e88df58ff94f43a42031c48c424b3f7c", "lat": 38.9170405, "lon": -77.02401983333333, "rental_uris": {"android": "https://dc.lft.to/lastmile_qr_scan", "ios": "https://dc.lft.to/lastmile_qr_scan"}, "is_disabled": 0, "fusion_lat": 0.0, "name": "e88df58ff94f43a42031c48c424b3f7c", "fusion_lon": 0.0}, {"is_reserved": 0, "type": "electric_scooter", "bike_id": "d97c8af69bac4c54bb1e439c1344fea0", "lat": 38.906286333333334, "lon": -77.031536, "rental_uris": {"android": "https://dc.lft.to/lastmile_qr_scan", "ios": "https://dc.lft.to/lastmile_qr_scan"}, "is_disabled": 0, "fusion_lat": 0.0, "name": "d97c8af69bac4c54bb1e439c1344fea0", "fusion_lon": 0.0}, {"is_reserved": 0, "type": "electric_scooter", "bike_id": "b97e2e1d404d9cad89ac3535b2f335a9", "lat": 38.91789983333334, "lon": -77.0321155, "rental_uris": {"android": "https://dc.lft.to/lastmile_qr_scan", "ios": "https://dc.lft.to/lastmile_qr_scan"}, "is_disabled": 0, "fusion_lat": 0.0, "name": "b97e2e1d404d9cad89ac3535b2f335a9", "fusion_lon": 0.0}, {"is_reserved": 0, "type": "electric_scooter", "bike_id": "dc572fab1d13ee654ecbb9b233cdcafa", "lat": 38.9359005, "lon": -77.0336875, "rental_uris": {"android": "https://dc.lft.to/lastmile_qr_scan", "ios": "https://dc.lft.to/lastmile_qr_scan"}, "is_disabled": 0, "fusion_lat": 0.0, "name": "dc572fab1d13ee654ecbb9b233cdcafa", "fusion_lon": 0.0}, {"is_reserved": 0, "type": "electric_scooter", "bike_id": "0c0ba4fb7b311e5b84e8fb7de540d990", "lat": 38.9154735, "lon": -77.03253983333333, "rental_uris": {"android": "https://dc.lft.to/lastmile_qr_scan", "ios": "https://dc.lft.to/lastmile_qr_scan"}, "is_disabled": 0, "fusion_lat": 0.0, "name": "0c0ba4fb7b311e5b84e8fb7de540d990", "fusion_lon": 0.0}, {"is_reserved": 0, "type": "electric_bike", "bike_id": "8cfa7bbf78f8559076b7a35cf65b4e8b", "lat": 38.97310866666667, "lon": -76.99488733333334, "rental_uris": {"android": "https://dc.lft.to/lastmile_qr_scan", "ios": "https://dc.lft.to/lastmile_qr_scan"}, "is_disabled": 0, "fusion_lat": 0.0, "name": "8cfa7bbf78f8559076b7a35cf65b4e8b", "fusion_lon": 0.0}, {"is_reserved": 0, "type": "electric_scooter", "bike_id": "e95f5a39b2ec2327c50e21d7ad10c30a", "lat": 38.934407, "lon": -77.072528, "rental_uris": {"android": "https://dc.lft.to/lastmile_qr_scan", "ios": "https://dc.lft.to/lastmile_qr_scan"}, "is_disabled": 0, "fusion_lat": 0.0, "name": "e95f5a39b2ec2327c50e21d7ad10c30a", "fusion_lon": 0.0}, {"is_reserved": 0, "type": "electric_scooter", "bike_id": "8fbd4302d112dcf7495169a39b27be8c", "lat": 38.920302, "lon": -77.01031333333333, "rental_uris": {"android": "https://dc.lft.to/lastmile_qr_scan", "ios": "https://dc.lft.to/lastmile_qr_scan"}, "is_disabled": 0, "fusion_lat": 0.0, "name": "8fbd4302d112dcf7495169a39b27be8c", "fusion_lon": 0.0}, {"is_reserved": 0, "type": "electric_scooter", "bike_id": "e47171eb11f633343c05318c73c348c0", "lat": 38.920730666666664, "lon": -77.07461733333334, "rental_uris": {"android": "https://dc.lft.to/lastmile_qr_scan", "ios": "https://dc.lft.to/lastmile_qr_scan"}, "is_disabled": 0, "fusion_lat": 0.0, "name": "e47171eb11f633343c05318c73c348c0", "fusion_lon": 0.0}, {"is_reserved": 0, "type": "electric_scooter", "bike_id": "032bfde5b9285262fa2cba05cba1e074", "lat": 38.900357, "lon": -77.0021005, "rental_uris": {"android": "https://dc.lft.to/lastmile_qr_scan", "ios": "https://dc.lft.to/lastmile_qr_scan"}, "is_disabled": 0, "fusion_lat": 0.0, "name": "032bfde5b9285262fa2cba05cba1e074", "fusion_lon": 0.0}, {"is_reserved": 0, "type": "electric_scooter", "bike_id": "bca26670879f4089cd12363ac6e15944", "lat": 38.895264833333336, "lon": -77.01119766666666, "rental_uris": {"android": "https://dc.lft.to/lastmile_qr_scan", "ios": "https://dc.lft.to/lastmile_qr_scan"}, "is_disabled": 0, "fusion_lat": 0.0, "name": "bca26670879f4089cd12363ac6e15944", "fusion_lon": 0.0}, {"is_reserved": 0, "type": "electric_scooter", "bike_id": "c7486ca45a62bc724dbc975530d6ff9b", "lat": 38.885039166666665, "lon": -77.01579866666667, "rental_uris": {"android": "https://dc.lft.to/lastmile_qr_scan", "ios": "https://dc.lft.to/lastmile_qr_scan"}, "is_disabled": 0, "fusion_lat": 0.0, "name": "c7486ca45a62bc724dbc975530d6ff9b", "fusion_lon": 0.0}, {"is_reserved": 0, "type": "electric_scooter", "bike_id": "672849abf56551c751fdcbcf776ef878", "lat": 38.91117083333334, "lon": -77.02339266666667, "rental_uris": {"android": "https://dc.lft.to/lastmile_qr_scan", "ios": "https://dc.lft.to/lastmile_qr_scan"}, "is_disabled": 0, "fusion_lat": 0.0, "name": "672849abf56551c751fdcbcf776ef878", "fusion_lon": 0.0}, {"is_reserved": 0, "type": "electric_scooter", "bike_id": "1b72c35856db9f1d4c5f2f516f42063f", "lat": 38.9252875, "lon": -77.0555825, "rental_uris": {"android": "https://dc.lft.to/lastmile_qr_scan", "ios": "https://dc.lft.to/lastmile_qr_scan"}, "is_disabled": 0, "fusion_lat": 0.0, "name": "1b72c35856db9f1d4c5f2f516f42063f", "fusion_lon": 0.0}, {"is_reserved": 0, "type": "electric_scooter", "bike_id": "f44004f738a2415e9567b0bc13c476a7", "lat": 38.902659166666666, "lon": -77.05393316666667, "rental_uris": {"android": "https://dc.lft.to/lastmile_qr_scan", "ios": "https://dc.lft.to/lastmile_qr_scan"}, "is_disabled": 0, "fusion_lat": 0.0, "name": "f44004f738a2415e9567b0bc13c476a7", "fusion_lon": 0.0}, {"is_reserved": 0, "type": "electric_scooter", "bike_id": "2ae8f6979e7b58ca81617c3dc134030d", "lat": 38.9210895, "lon": -77.03010366666666, "rental_uris": {"android": "https://dc.lft.to/lastmile_qr_scan", "ios": "https://dc.lft.to/lastmile_qr_scan"}, "is_disabled": 0, "fusion_lat": 0.0, "name": "2ae8f6979e7b58ca81617c3dc134030d", "fusion_lon": 0.0}, {"is_reserved": 0, "type": "electric_scooter", "bike_id": "a848a6ff395cfe4b4fa6eba387786718", "lat": 38.88397466666667, "lon": -76.98585983333334, "rental_uris": {"android": "https://dc.lft.to/lastmile_qr_scan", "ios": "https://dc.lft.to/lastmile_qr_scan"}, "is_disabled": 0, "fusion_lat": 0.0, "name": "a848a6ff395cfe4b4fa6eba387786718", "fusion_lon": 0.0}, {"is_reserved": 0, "type": "electric_scooter", "bike_id": "ab696dcee12475be96bfa863159f1513", "lat": 38.899408666666666, "lon": -77.02687, "rental_uris": {"android": "https://dc.lft.to/lastmile_qr_scan", "ios": "https://dc.lft.to/lastmile_qr_scan"}, "is_disabled": 0, "fusion_lat": 0.0, "name": "ab696dcee12475be96bfa863159f1513", "fusion_lon": 0.0}, {"is_reserved": 0, "type": "electric_bike", "bike_id": "5e26ac173a5ee728efee18a104cb960a", "lat": 38.985028166666666, "lon": -76.9820335, "rental_uris": {"android": "https://dc.lft.to/lastmile_qr_scan", "ios": "https://dc.lft.to/lastmile_qr_scan"}, "is_disabled": 0, "fusion_lat": 0.0, "name": "5e26ac173a5ee728efee18a104cb960a", "fusion_lon": 0.0}, {"is_reserved": 0, "type": "electric_scooter", "bike_id": "dfdc7eae880127c88e37a80cfc078081", "lat": 38.9193525, "lon": -77.0813815, "rental_uris": {"android": "https://dc.lft.to/lastmile_qr_scan", "ios": "https://dc.lft.to/lastmile_qr_scan"}, "is_disabled": 0, "fusion_lat": 0.0, "name": "dfdc7eae880127c88e37a80cfc078081", "fusion_lon": 0.0}, {"is_reserved": 0, "type": "electric_scooter", "bike_id": "ad896bda07da1d18d4a2a41b4ff760e5", "lat": 38.91340983333333, "lon": -77.0319775, "rental_uris": {"android": "https://dc.lft.to/lastmile_qr_scan", "ios": "https://dc.lft.to/lastmile_qr_scan"}, "is_disabled": 0, "fusion_lat": 0.0, "name": "ad896bda07da1d18d4a2a41b4ff760e5", "fusion_lon": 0.0}, {"is_reserved": 0, "type": "electric_scooter", "bike_id": "95d0878898e93b0c8d91dc8013c589ec", "lat": 38.91706116666667, "lon": -77.02845916666666, "rental_uris": {"android": "https://dc.lft.to/lastmile_qr_scan", "ios": "https://dc.lft.to/lastmile_qr_scan"}, "is_disabled": 0, "fusion_lat": 0.0, "name": "95d0878898e93b0c8d91dc8013c589ec", "fusion_lon": 0.0}, {"is_reserved": 0, "type": "electric_scooter", "bike_id": "855a296135ab5bcbccd7b9f636ce9d23", "lat": 38.89491683333333, "lon": -77.01760233333333, "rental_uris": {"android": "https://dc.lft.to/lastmile_qr_scan", "ios": "https://dc.lft.to/lastmile_qr_scan"}, "is_disabled": 0, "fusion_lat": 0.0, "name": "855a296135ab5bcbccd7b9f636ce9d23", "fusion_lon": 0.0}, {"is_reserved": 0, "type": "electric_scooter", "bike_id": "ef2b8a83fc7d1afd8d54d0d2dfb0e304", "lat": 38.89511533333334, "lon": -77.026939, "rental_uris": {"android": "https://dc.lft.to/lastmile_qr_scan", "ios": "https://dc.lft.to/lastmile_qr_scan"}, "is_disabled": 0, "fusion_lat": 0.0, "name": "ef2b8a83fc7d1afd8d54d0d2dfb0e304", "fusion_lon": 0.0}, {"is_reserved": 0, "type": "electric_scooter", "bike_id": "e9e65fecd5d137784fe726e33cfe3a01", "lat": 38.89692933333333, "lon": -77.0434325, "rental_uris": {"android": "https://dc.lft.to/lastmile_qr_scan", "ios": "https://dc.lft.to/lastmile_qr_scan"}, "is_disabled": 0, "fusion_lat": 0.0, "name": "e9e65fecd5d137784fe726e33cfe3a01", "fusion_lon": 0.0}, {"is_reserved": 0, "type": "electric_bike", "bike_id": "459ab6628624653747edf95b4d8c4734", "lat": 38.92036016666667, "lon": -76.9795565, "rental_uris": {"android": "https://dc.lft.to/lastmile_qr_scan", "ios": "https://dc.lft.to/lastmile_qr_scan"}, "is_disabled": 0, "fusion_lat": 0.0, "name": "459ab6628624653747edf95b4d8c4734", "fusion_lon": 0.0}, {"is_reserved": 0, "type": "electric_scooter", "bike_id": "79325e851e7f10577ce222de438bea10", "lat": 38.917608333333334, "lon": -77.00454683333334, "rental_uris": {"android": "https://dc.lft.to/lastmile_qr_scan", "ios": "https://dc.lft.to/lastmile_qr_scan"}, "is_disabled": 0, "fusion_lat": 0.0, "name": "79325e851e7f10577ce222de438bea10", "fusion_lon": 0.0}, {"is_reserved": 0, "type": "electric_scooter", "bike_id": "9ca48975ee73f1be04acf449f5611c36", "lat": 38.90317816666666, "lon": -77.01080966666666, "rental_uris": {"android": "https://dc.lft.to/lastmile_qr_scan", "ios": "https://dc.lft.to/lastmile_qr_scan"}, "is_disabled": 0, "fusion_lat": 0.0, "name": "9ca48975ee73f1be04acf449f5611c36", "fusion_lon": 0.0}, {"is_reserved": 0, "type": "electric_scooter", "bike_id": "f04c39a94a25f7c01ecf1fa793537f12", "lat": 38.912488833333335, "lon": -77.0453425, "rental_uris": {"android": "https://dc.lft.to/lastmile_qr_scan", "ios": "https://dc.lft.to/lastmile_qr_scan"}, "is_disabled": 0, "fusion_lat": 0.0, "name": "f04c39a94a25f7c01ecf1fa793537f12", "fusion_lon": 0.0}, {"is_reserved": 0, "type": "electric_scooter", "bike_id": "385568215ac41e28d345134845b515fe", "lat": 38.902818833333335, "lon": -77.03658966666667, "rental_uris": {"android": "https://dc.lft.to/lastmile_qr_scan", "ios": "https://dc.lft.to/lastmile_qr_scan"}, "is_disabled": 0, "fusion_lat": 0.0, "name": "385568215ac41e28d345134845b515fe", "fusion_lon": 0.0}, {"is_reserved": 0, "type": "electric_bike", "bike_id": "13e03cdaf5895c62baa93064398c8f35", "lat": 38.9170085, "lon": -77.05718933333333, "rental_uris": {"android": "https://dc.lft.to/lastmile_qr_scan", "ios": "https://dc.lft.to/lastmile_qr_scan"}, "is_disabled": 0, "fusion_lat": 0.0, "name": "13e03cdaf5895c62baa93064398c8f35", "fusion_lon": 0.0}, {"is_reserved": 0, "type": "electric_scooter", "bike_id": "642b397672b0ad4bda95d41bf33197c9", "lat": 38.9139555, "lon": -77.04331616666667, "rental_uris": {"android": "https://dc.lft.to/lastmile_qr_scan", "ios": "https://dc.lft.to/lastmile_qr_scan"}, "is_disabled": 0, "fusion_lat": 0.0, "name": "642b397672b0ad4bda95d41bf33197c9", "fusion_lon": 0.0}, {"is_reserved": 0, "type": "electric_bike", "bike_id": "febf8b7f0e61685dc335909a59fc4849", "lat": 38.92068883333334, "lon": -76.99584383333334, "rental_uris": {"android": "https://dc.lft.to/lastmile_qr_scan", "ios": "https://dc.lft.to/lastmile_qr_scan"}, "is_disabled": 0, "fusion_lat": 0.0, "name": "febf8b7f0e61685dc335909a59fc4849", "fusion_lon": 0.0}, {"is_reserved": 0, "type": "electric_scooter", "bike_id": "fa2e33a63e72cfdb5a23b0dcc5b520f9", "lat": 38.88303116666667, "lon": -77.0240495, "rental_uris": {"android": "https://dc.lft.to/lastmile_qr_scan", "ios": "https://dc.lft.to/lastmile_qr_scan"}, "is_disabled": 0, "fusion_lat": 0.0, "name": "fa2e33a63e72cfdb5a23b0dcc5b520f9", "fusion_lon": 0.0}, {"is_reserved": 0, "type": "electric_scooter", "bike_id": "0c63d319db4c05657ea039da840fffb0", "lat": 38.91127433333333, "lon": -77.01671183333333, "rental_uris": {"android": "https://dc.lft.to/lastmile_qr_scan", "ios": "https://dc.lft.to/lastmile_qr_scan"}, "is_disabled": 0, "fusion_lat": 0.0, "name": "0c63d319db4c05657ea039da840fffb0", "fusion_lon": 0.0}, {"is_reserved": 0, "type": "electric_scooter", "bike_id": "10ef6e78dba50abd646be89dc17c4de7", "lat": 38.931764666666666, "lon": -77.02815966666667, "rental_uris": {"android": "https://dc.lft.to/lastmile_qr_scan", "ios": "https://dc.lft.to/lastmile_qr_scan"}, "is_disabled": 0, "fusion_lat": 0.0, "name": "10ef6e78dba50abd646be89dc17c4de7", "fusion_lon": 0.0}, {"is_reserved": 0, "type": "electric_scooter", "bike_id": "7c5b3354c6138e611810b824d54788c5", "lat": 38.90736533333333, "lon": -77.031693, "rental_uris": {"android": "https://dc.lft.to/lastmile_qr_scan", "ios": "https://dc.lft.to/lastmile_qr_scan"}, "is_disabled": 0, "fusion_lat": 0.0, "name": "7c5b3354c6138e611810b824d54788c5", "fusion_lon": 0.0}, {"is_reserved": 0, "type": "electric_scooter", "bike_id": "badd42efab76e8c833f08826b4ec3432", "lat": 38.92083083333333, "lon": -77.07699016666666, "rental_uris": {"android": "https://dc.lft.to/lastmile_qr_scan", "ios": "https://dc.lft.to/lastmile_qr_scan"}, "is_disabled": 0, "fusion_lat": 0.0, "name": "badd42efab76e8c833f08826b4ec3432", "fusion_lon": 0.0}, {"is_reserved": 0, "type": "electric_scooter", "bike_id": "218efcfe85fb1bc4eb4d7d84d4962f89", "lat": 38.92068033333334, "lon": -77.04251816666667, "rental_uris": {"android": "https://dc.lft.to/lastmile_qr_scan", "ios": "https://dc.lft.to/lastmile_qr_scan"}, "is_disabled": 0, "fusion_lat": 0.0, "name": "218efcfe85fb1bc4eb4d7d84d4962f89", "fusion_lon": 0.0}, {"is_reserved": 0, "type": "electric_scooter", "bike_id": "503e4122f9c8faba0e03c316b942bc97", "lat": 38.92163816666667, "lon": -76.99421783333334, "rental_uris": {"android": "https://dc.lft.to/lastmile_qr_scan", "ios": "https://dc.lft.to/lastmile_qr_scan"}, "is_disabled": 0, "fusion_lat": 0.0, "name": "503e4122f9c8faba0e03c316b942bc97", "fusion_lon": 0.0}, {"is_reserved": 0, "type": "electric_scooter", "bike_id": "b0983b7d4b85eca7468d04bacb9795e6", "lat": 38.922676833333334, "lon": -77.036679, "rental_uris": {"android": "https://dc.lft.to/lastmile_qr_scan", "ios": "https://dc.lft.to/lastmile_qr_scan"}, "is_disabled": 0, "fusion_lat": 0.0, "name": "b0983b7d4b85eca7468d04bacb9795e6", "fusion_lon": 0.0}, {"is_reserved": 0, "type": "electric_bike", "bike_id": "f332a77643f159df9a2ea7b1b79d610e", "lat": 38.946778, "lon": -76.99331766666667, "rental_uris": {"android": "https://dc.lft.to/lastmile_qr_scan", "ios": "https://dc.lft.to/lastmile_qr_scan"}, "is_disabled": 0, "fusion_lat": 0.0, "name": "f332a77643f159df9a2ea7b1b79d610e", "fusion_lon": 0.0}, {"is_reserved": 0, "type": "electric_scooter", "bike_id": "49f8643645e763ca8f5c2ec6b84b3d51", "lat": 38.89381733333333, "lon": -76.97818266666667, "rental_uris": {"android": "https://dc.lft.to/lastmile_qr_scan", "ios": "https://dc.lft.to/lastmile_qr_scan"}, "is_disabled": 0, "fusion_lat": 0.0, "name": "49f8643645e763ca8f5c2ec6b84b3d51", "fusion_lon": 0.0}, {"is_reserved": 0, "type": "electric_scooter", "bike_id": "d57ec34cdb9049f9c3c3c632d23d93eb", "lat": 38.909583166666664, "lon": -77.02436866666666, "rental_uris": {"android": "https://dc.lft.to/lastmile_qr_scan", "ios": "https://dc.lft.to/lastmile_qr_scan"}, "is_disabled": 0, "fusion_lat": 0.0, "name": "d57ec34cdb9049f9c3c3c632d23d93eb", "fusion_lon": 0.0}, {"is_reserved": 0, "type": "electric_scooter", "bike_id": "12d3290206c9bf810dbbda40cc1c4d79", "lat": 38.92414266666667, "lon": -77.03548166666667, "rental_uris": {"android": "https://dc.lft.to/lastmile_qr_scan", "ios": "https://dc.lft.to/lastmile_qr_scan"}, "is_disabled": 0, "fusion_lat": 0.0, "name": "12d3290206c9bf810dbbda40cc1c4d79", "fusion_lon": 0.0}, {"is_reserved": 0, "type": "electric_scooter", "bike_id": "2e1602dd3f81b7706aa694a8e4efeb2a", "lat": 38.92603283333333, "lon": -77.0517695, "rental_uris": {"android": "https://dc.lft.to/lastmile_qr_scan", "ios": "https://dc.lft.to/lastmile_qr_scan"}, "is_disabled": 0, "fusion_lat": 0.0, "name": "2e1602dd3f81b7706aa694a8e4efeb2a", "fusion_lon": 0.0}, {"is_reserved": 0, "type": "electric_bike", "bike_id": "c98fc1bf7cda4c6264dc39061ac26346", "lat": 38.99103816666667, "lon": -76.88152533333333, "rental_uris": {"android": "https://dc.lft.to/lastmile_qr_scan", "ios": "https://dc.lft.to/lastmile_qr_scan"}, "is_disabled": 0, "fusion_lat": 0.0, "name": "c98fc1bf7cda4c6264dc39061ac26346", "fusion_lon": 0.0}, {"is_reserved": 0, "type": "electric_scooter", "bike_id": "63cd52016f55c95e40889bb8ddb21c3f", "lat": 38.9083115, "lon": -76.98722016666666, "rental_uris": {"android": "https://dc.lft.to/lastmile_qr_scan", "ios": "https://dc.lft.to/lastmile_qr_scan"}, "is_disabled": 0, "fusion_lat": 0.0, "name": "63cd52016f55c95e40889bb8ddb21c3f", "fusion_lon": 0.0}, {"is_reserved": 0, "type": "electric_scooter", "bike_id": "7a6e90fadab027c934b5ef963f9f7a97", "lat": 38.8874435, "lon": -77.02620316666666, "rental_uris": {"android": "https://dc.lft.to/lastmile_qr_scan", "ios": "https://dc.lft.to/lastmile_qr_scan"}, "is_disabled": 0, "fusion_lat": 0.0, "name": "7a6e90fadab027c934b5ef963f9f7a97", "fusion_lon": 0.0}, {"is_reserved": 0, "type": "electric_bike", "bike_id": "63c5833b54a1c586b608dad7c97dbd59", "lat": 38.87085066666667, "lon": -77.01192233333333, "rental_uris": {"android": "https://dc.lft.to/lastmile_qr_scan", "ios": "https://dc.lft.to/lastmile_qr_scan"}, "is_disabled": 0, "fusion_lat": 0.0, "name": "63c5833b54a1c586b608dad7c97dbd59", "fusion_lon": 0.0}, {"is_reserved": 0, "type": "electric_scooter", "bike_id": "7dfe6418be22e3067a6edd1c0890cb62", "lat": 38.916917, "lon": -77.03235383333333, "rental_uris": {"android": "https://dc.lft.to/lastmile_qr_scan", "ios": "https://dc.lft.to/lastmile_qr_scan"}, "is_disabled": 0, "fusion_lat": 0.0, "name": "7dfe6418be22e3067a6edd1c0890cb62", "fusion_lon": 0.0}, {"is_reserved": 0, "type": "electric_bike", "bike_id": "5294e089a177e3d4b5ccbc26d3f7ca3a", "lat": 38.843318333333336, "lon": -76.99737283333333, "rental_uris": {"android": "https://dc.lft.to/lastmile_qr_scan", "ios": "https://dc.lft.to/lastmile_qr_scan"}, "is_disabled": 0, "fusion_lat": 0.0, "name": "5294e089a177e3d4b5ccbc26d3f7ca3a", "fusion_lon": 0.0}, {"is_reserved": 0, "type": "electric_scooter", "bike_id": "060c011e149180e8e8792b01169fb924", "lat": 38.886291666666665, "lon": -77.015349, "rental_uris": {"android": "https://dc.lft.to/lastmile_qr_scan", "ios": "https://dc.lft.to/lastmile_qr_scan"}, "is_disabled": 0, "fusion_lat": 0.0, "name": "060c011e149180e8e8792b01169fb924", "fusion_lon": 0.0}, {"is_reserved": 0, "type": "electric_scooter", "bike_id": "4c0cda63d1405398dd5d14184ca6a3f2", "lat": 38.88603333333333, "lon": -77.00403666666666, "rental_uris": {"android": "https://dc.lft.to/lastmile_qr_scan", "ios": "https://dc.lft.to/lastmile_qr_scan"}, "is_disabled": 0, "fusion_lat": 0.0, "name": "4c0cda63d1405398dd5d14184ca6a3f2", "fusion_lon": 0.0}, {"is_reserved": 0, "type": "electric_scooter", "bike_id": "b6a9a0476498b4c50741afcb90a2f6d5", "lat": 38.890116, "lon": -77.03319466666666, "rental_uris": {"android": "https://dc.lft.to/lastmile_qr_scan", "ios": "https://dc.lft.to/lastmile_qr_scan"}, "is_disabled": 0, "fusion_lat": 0.0, "name": "b6a9a0476498b4c50741afcb90a2f6d5", "fusion_lon": 0.0}, {"is_reserved": 0, "type": "electric_scooter", "bike_id": "32c8e405c3f0308af350b82f97b67264", "lat": 38.920025333333335, "lon": -76.9850595, "rental_uris": {"android": "https://dc.lft.to/lastmile_qr_scan", "ios": "https://dc.lft.to/lastmile_qr_scan"}, "is_disabled": 0, "fusion_lat": 0.0, "name": "32c8e405c3f0308af350b82f97b67264", "fusion_lon": 0.0}, {"is_reserved": 0, "type": "electric_scooter", "bike_id": "6ed13e44d58c2e121e10f667893ff2e5", "lat": 38.904444166666664, "lon": -77.0629125, "rental_uris": {"android": "https://dc.lft.to/lastmile_qr_scan", "ios": "https://dc.lft.to/lastmile_qr_scan"}, "is_disabled": 0, "fusion_lat": 0.0, "name": "6ed13e44d58c2e121e10f667893ff2e5", "fusion_lon": 0.0}, {"is_reserved": 0, "type": "electric_scooter", "bike_id": "0db36b1db166a335017c1e0fdd29ae35", "lat": 38.90516683333333, "lon": -77.0020935, "rental_uris": {"android": "https://dc.lft.to/lastmile_qr_scan", "ios": "https://dc.lft.to/lastmile_qr_scan"}, "is_disabled": 0, "fusion_lat": 0.0, "name": "0db36b1db166a335017c1e0fdd29ae35", "fusion_lon": 0.0}, {"is_reserved": 0, "type": "electric_scooter", "bike_id": "83e923d1b8c07fc6d9e0d2132228d4ed", "lat": 38.924824666666666, "lon": -77.021402, "rental_uris": {"android": "https://dc.lft.to/lastmile_qr_scan", "ios": "https://dc.lft.to/lastmile_qr_scan"}, "is_disabled": 0, "fusion_lat": 0.0, "name": "83e923d1b8c07fc6d9e0d2132228d4ed", "fusion_lon": 0.0}, {"is_reserved": 0, "type": "electric_scooter", "bike_id": "8f282d9d3bb88d631767ac0450bcf8e9", "lat": 38.923464333333335, "lon": -77.01904916666666, "rental_uris": {"android": "https://dc.lft.to/lastmile_qr_scan", "ios": "https://dc.lft.to/lastmile_qr_scan"}, "is_disabled": 0, "fusion_lat": 0.0, "name": "8f282d9d3bb88d631767ac0450bcf8e9", "fusion_lon": 0.0}, {"is_reserved": 0, "type": "electric_scooter", "bike_id": "bb3cc36ff8c016f91d4f743554be8b67", "lat": 38.892769666666666, "lon": -76.9292005, "rental_uris": {"android": "https://dc.lft.to/lastmile_qr_scan", "ios": "https://dc.lft.to/lastmile_qr_scan"}, "is_disabled": 0, "fusion_lat": 0.0, "name": "bb3cc36ff8c016f91d4f743554be8b67", "fusion_lon": 0.0}, {"is_reserved": 0, "type": "electric_scooter", "bike_id": "d117b2e8e38f963568c2edd80a2d6621", "lat": 38.8934085, "lon": -77.02824683333333, "rental_uris": {"android": "https://dc.lft.to/lastmile_qr_scan", "ios": "https://dc.lft.to/lastmile_qr_scan"}, "is_disabled": 0, "fusion_lat": 0.0, "name": "d117b2e8e38f963568c2edd80a2d6621", "fusion_lon": 0.0}, {"is_reserved": 0, "type": "electric_scooter", "bike_id": "b940f4d7916c3716ab0f9d24caa7ef0e", "lat": 38.905701, "lon": -77.05913883333334, "rental_uris": {"android": "https://dc.lft.to/lastmile_qr_scan", "ios": "https://dc.lft.to/lastmile_qr_scan"}, "is_disabled": 0, "fusion_lat": 0.0, "name": "b940f4d7916c3716ab0f9d24caa7ef0e", "fusion_lon": 0.0}, {"is_reserved": 0, "type": "electric_scooter", "bike_id": "415bc9c397bed69457b58165156d61e2", "lat": 38.872935166666664, "lon": -77.015627, "rental_uris": {"android": "https://dc.lft.to/lastmile_qr_scan", "ios": "https://dc.lft.to/lastmile_qr_scan"}, "is_disabled": 0, "fusion_lat": 0.0, "name": "415bc9c397bed69457b58165156d61e2", "fusion_lon": 0.0}, {"is_reserved": 0, "type": "electric_bike", "bike_id": "5513d3355ad800dcc104bbd6e57535fe", "lat": 38.90303733333333, "lon": -76.98442266666666, "rental_uris": {"android": "https://dc.lft.to/lastmile_qr_scan", "ios": "https://dc.lft.to/lastmile_qr_scan"}, "is_disabled": 0, "fusion_lat": 0.0, "name": "5513d3355ad800dcc104bbd6e57535fe", "fusion_lon": 0.0}, {"is_reserved": 0, "type": "electric_scooter", "bike_id": "c728b63d2111818dcf6d5d30f0f2d69f", "lat": 38.9179415, "lon": -77.04023166666667, "rental_uris": {"android": "https://dc.lft.to/lastmile_qr_scan", "ios": "https://dc.lft.to/lastmile_qr_scan"}, "is_disabled": 0, "fusion_lat": 0.0, "name": "c728b63d2111818dcf6d5d30f0f2d69f", "fusion_lon": 0.0}, {"is_reserved": 0, "type": "electric_scooter", "bike_id": "2ab9ea017c0c92aaf659883c72f08c81", "lat": 38.9243035, "lon": -77.04458333333334, "rental_uris": {"android": "https://dc.lft.to/lastmile_qr_scan", "ios": "https://dc.lft.to/lastmile_qr_scan"}, "is_disabled": 0, "fusion_lat": 0.0, "name": "2ab9ea017c0c92aaf659883c72f08c81", "fusion_lon": 0.0}, {"is_reserved": 0, "type": "electric_scooter", "bike_id": "7c1b39ef052d831925a77b5ead316367", "lat": 38.922713, "lon": -77.02961316666666, "rental_uris": {"android": "https://dc.lft.to/lastmile_qr_scan", "ios": "https://dc.lft.to/lastmile_qr_scan"}, "is_disabled": 0, "fusion_lat": 0.0, "name": "7c1b39ef052d831925a77b5ead316367", "fusion_lon": 0.0}, {"is_reserved": 0, "type": "electric_scooter", "bike_id": "c50b95d134ab891eef7d752b54144bbb", "lat": 38.921046833333335, "lon": -77.032733, "rental_uris": {"android": "https://dc.lft.to/lastmile_qr_scan", "ios": "https://dc.lft.to/lastmile_qr_scan"}, "is_disabled": 0, "fusion_lat": 0.0, "name": "c50b95d134ab891eef7d752b54144bbb", "fusion_lon": 0.0}, {"is_reserved": 0, "type": "electric_scooter", "bike_id": "c05bf4b66ef81dcf8b19b6b3a587d717", "lat": 38.93230616666666, "lon": -77.03398166666666, "rental_uris": {"android": "https://dc.lft.to/lastmile_qr_scan", "ios": "https://dc.lft.to/lastmile_qr_scan"}, "is_disabled": 0, "fusion_lat": 0.0, "name": "c05bf4b66ef81dcf8b19b6b3a587d717", "fusion_lon": 0.0}, {"is_reserved": 0, "type": "electric_scooter", "bike_id": "577f62034ee85db59297495bad2d778e", "lat": 38.895636333333336, "lon": -77.01101783333333, "rental_uris": {"android": "https://dc.lft.to/lastmile_qr_scan", "ios": "https://dc.lft.to/lastmile_qr_scan"}, "is_disabled": 0, "fusion_lat": 0.0, "name": "577f62034ee85db59297495bad2d778e", "fusion_lon": 0.0}, {"is_reserved": 0, "type": "electric_scooter", "bike_id": "d85164a28a21b2293809ab79866fb8ad", "lat": 38.92881883333333, "lon": -77.03334216666667, "rental_uris": {"android": "https://dc.lft.to/lastmile_qr_scan", "ios": "https://dc.lft.to/lastmile_qr_scan"}, "is_disabled": 0, "fusion_lat": 0.0, "name": "d85164a28a21b2293809ab79866fb8ad", "fusion_lon": 0.0}, {"is_reserved": 0, "type": "electric_bike", "bike_id": "bf2f46763313f044ec24d9a8bf66366d", "lat": 38.83232866666667, "lon": -76.94620933333333, "rental_uris": {"android": "https://dc.lft.to/lastmile_qr_scan", "ios": "https://dc.lft.to/lastmile_qr_scan"}, "is_disabled": 0, "fusion_lat": 0.0, "name": "bf2f46763313f044ec24d9a8bf66366d", "fusion_lon": 0.0}, {"is_reserved": 0, "type": "electric_scooter", "bike_id": "c19e2a26aac867ea3677f0b662981278", "lat": 38.9320355, "lon": -77.027302, "rental_uris": {"android": "https://dc.lft.to/lastmile_qr_scan", "ios": "https://dc.lft.to/lastmile_qr_scan"}, "is_disabled": 0, "fusion_lat": 0.0, "name": "c19e2a26aac867ea3677f0b662981278", "fusion_lon": 0.0}, {"is_reserved": 0, "type": "electric_bike", "bike_id": "96bf9918fb1c6a92560f5c9457dec30e", "lat": 38.88387316666667, "lon": -76.95450516666666, "rental_uris": {"android": "https://dc.lft.to/lastmile_qr_scan", "ios": "https://dc.lft.to/lastmile_qr_scan"}, "is_disabled": 0, "fusion_lat": 0.0, "name": "96bf9918fb1c6a92560f5c9457dec30e", "fusion_lon": 0.0}, {"is_reserved": 0, "type": "electric_scooter", "bike_id": "576b95698a2ec1bfeb380b837b544505", "lat": 38.911257666666664, "lon": -76.9970015, "rental_uris": {"android": "https://dc.lft.to/lastmile_qr_scan", "ios": "https://dc.lft.to/lastmile_qr_scan"}, "is_disabled": 0, "fusion_lat": 0.0, "name": "576b95698a2ec1bfeb380b837b544505", "fusion_lon": 0.0}, {"is_reserved": 0, "type": "electric_bike", "bike_id": "cb6d109270545e681c0e81fe95fa0836", "lat": 38.906952, "lon": -76.95251116666667, "rental_uris": {"android": "https://dc.lft.to/lastmile_qr_scan", "ios": "https://dc.lft.to/lastmile_qr_scan"}, "is_disabled": 0, "fusion_lat": 0.0, "name": "cb6d109270545e681c0e81fe95fa0836", "fusion_lon": 0.0}, {"is_reserved": 0, "type": "electric_scooter", "bike_id": "a21ac7922c9120e05db0d9a557875e54", "lat": 38.94031283333333, "lon": -77.025023, "rental_uris": {"android": "https://dc.lft.to/lastmile_qr_scan", "ios": "https://dc.lft.to/lastmile_qr_scan"}, "is_disabled": 0, "fusion_lat": 0.0, "name": "a21ac7922c9120e05db0d9a557875e54", "fusion_lon": 0.0}, {"is_reserved": 0, "type": "electric_scooter", "bike_id": "d6c156090c8ed5d9a196aff9826acebf", "lat": 38.939740666666665, "lon": -77.05471666666666, "rental_uris": {"android": "https://dc.lft.to/lastmile_qr_scan", "ios": "https://dc.lft.to/lastmile_qr_scan"}, "is_disabled": 0, "fusion_lat": 0.0, "name": "d6c156090c8ed5d9a196aff9826acebf", "fusion_lon": 0.0}, {"is_reserved": 0, "type": "electric_scooter", "bike_id": "aad0783c24e6f71de0238b3db96dcd73", "lat": 38.91944616666667, "lon": -77.0288765, "rental_uris": {"android": "https://dc.lft.to/lastmile_qr_scan", "ios": "https://dc.lft.to/lastmile_qr_scan"}, "is_disabled": 0, "fusion_lat": 0.0, "name": "aad0783c24e6f71de0238b3db96dcd73", "fusion_lon": 0.0}, {"is_reserved": 0, "type": "electric_scooter", "bike_id": "17286cc67a09d86cfb52f4d5ff1f5a7f", "lat": 38.93266366666667, "lon": -77.03259966666667, "rental_uris": {"android": "https://dc.lft.to/lastmile_qr_scan", "ios": "https://dc.lft.to/lastmile_qr_scan"}, "is_disabled": 0, "fusion_lat": 0.0, "name": "17286cc67a09d86cfb52f4d5ff1f5a7f", "fusion_lon": 0.0}, {"is_reserved": 0, "type": "electric_scooter", "bike_id": "a8bcf537a16fc4361ef6e920041cfa0a", "lat": 38.9498035, "lon": -76.99332816666667, "rental_uris": {"android": "https://dc.lft.to/lastmile_qr_scan", "ios": "https://dc.lft.to/lastmile_qr_scan"}, "is_disabled": 0, "fusion_lat": 0.0, "name": "a8bcf537a16fc4361ef6e920041cfa0a", "fusion_lon": 0.0}, {"is_reserved": 0, "type": "electric_scooter", "bike_id": "66d591231b745da35957ace7746c907f", "lat": 38.894438666666666, "lon": -77.001962, "rental_uris": {"android": "https://dc.lft.to/lastmile_qr_scan", "ios": "https://dc.lft.to/lastmile_qr_scan"}, "is_disabled": 0, "fusion_lat": 0.0, "name": "66d591231b745da35957ace7746c907f", "fusion_lon": 0.0}, {"is_reserved": 0, "type": "electric_scooter", "bike_id": "34bd96e950de7c9d5919a4fa4855d11c", "lat": 38.9179665, "lon": -77.02706016666667, "rental_uris": {"android": "https://dc.lft.to/lastmile_qr_scan", "ios": "https://dc.lft.to/lastmile_qr_scan"}, "is_disabled": 0, "fusion_lat": 0.0, "name": "34bd96e950de7c9d5919a4fa4855d11c", "fusion_lon": 0.0}, {"is_reserved": 0, "type": "electric_scooter", "bike_id": "3babb72f08f575173a70c991c4fac4f6", "lat": 38.924716333333336, "lon": -77.022446, "rental_uris": {"android": "https://dc.lft.to/lastmile_qr_scan", "ios": "https://dc.lft.to/lastmile_qr_scan"}, "is_disabled": 0, "fusion_lat": 0.0, "name": "3babb72f08f575173a70c991c4fac4f6", "fusion_lon": 0.0}, {"is_reserved": 0, "type": "electric_scooter", "bike_id": "34c418d6c0a766330d58a6c7460c25ea", "lat": 38.9286965, "lon": -77.05657333333333, "rental_uris": {"android": "https://dc.lft.to/lastmile_qr_scan", "ios": "https://dc.lft.to/lastmile_qr_scan"}, "is_disabled": 0, "fusion_lat": 0.0, "name": "34c418d6c0a766330d58a6c7460c25ea", "fusion_lon": 0.0}, {"is_reserved": 0, "type": "electric_scooter", "bike_id": "cd9a8b6cf2e567dea1f09889f5cd5fec", "lat": 38.934572333333335, "lon": -77.07232183333333, "rental_uris": {"android": "https://dc.lft.to/lastmile_qr_scan", "ios": "https://dc.lft.to/lastmile_qr_scan"}, "is_disabled": 0, "fusion_lat": 0.0, "name": "cd9a8b6cf2e567dea1f09889f5cd5fec", "fusion_lon": 0.0}, {"is_reserved": 0, "type": "electric_scooter", "bike_id": "15a6ccdffaf980831444b52f08c193f6", "lat": 38.9148265, "lon": -77.031219, "rental_uris": {"android": "https://dc.lft.to/lastmile_qr_scan", "ios": "https://dc.lft.to/lastmile_qr_scan"}, "is_disabled": 0, "fusion_lat": 0.0, "name": "15a6ccdffaf980831444b52f08c193f6", "fusion_lon": 0.0}, {"is_reserved": 0, "type": "electric_scooter", "bike_id": "ed29cdf8450aa8fd44247d630b04367d", "lat": 38.92242666666667, "lon": -77.0425625, "rental_uris": {"android": "https://dc.lft.to/lastmile_qr_scan", "ios": "https://dc.lft.to/lastmile_qr_scan"}, "is_disabled": 0, "fusion_lat": 0.0, "name": "ed29cdf8450aa8fd44247d630b04367d", "fusion_lon": 0.0}, {"is_reserved": 0, "type": "electric_scooter", "bike_id": "c05a7b7507956b2086578c49521865da", "lat": 38.922319333333334, "lon": -77.042439, "rental_uris": {"android": "https://dc.lft.to/lastmile_qr_scan", "ios": "https://dc.lft.to/lastmile_qr_scan"}, "is_disabled": 0, "fusion_lat": 0.0, "name": "c05a7b7507956b2086578c49521865da", "fusion_lon": 0.0}, {"is_reserved": 0, "type": "electric_scooter", "bike_id": "e319e99b996c07046e0a627733396ccf", "lat": 38.91913016666667, "lon": -77.04803233333334, "rental_uris": {"android": "https://dc.lft.to/lastmile_qr_scan", "ios": "https://dc.lft.to/lastmile_qr_scan"}, "is_disabled": 0, "fusion_lat": 0.0, "name": "e319e99b996c07046e0a627733396ccf", "fusion_lon": 0.0}, {"is_reserved": 0, "type": "electric_bike", "bike_id": "226b4a276e4ca310b5102b412f8901c0", "lat": 38.83627466666667, "lon": -77.0027715, "rental_uris": {"android": "https://dc.lft.to/lastmile_qr_scan", "ios": "https://dc.lft.to/lastmile_qr_scan"}, "is_disabled": 0, "fusion_lat": 0.0, "name": "226b4a276e4ca310b5102b412f8901c0", "fusion_lon": 0.0}, {"is_reserved": 0, "type": "electric_scooter", "bike_id": "2ba8c784876b3337f565551eea58bf56", "lat": 38.90983266666667, "lon": -77.06453216666667, "rental_uris": {"android": "https://dc.lft.to/lastmile_qr_scan", "ios": "https://dc.lft.to/lastmile_qr_scan"}, "is_disabled": 0, "fusion_lat": 0.0, "name": "2ba8c784876b3337f565551eea58bf56", "fusion_lon": 0.0}, {"is_reserved": 0, "type": "electric_scooter", "bike_id": "f9d88deaca18f0d600734cec965b03ca", "lat": 38.881614, "lon": -77.02771566666667, "rental_uris": {"android": "https://dc.lft.to/lastmile_qr_scan", "ios": "https://dc.lft.to/lastmile_qr_scan"}, "is_disabled": 0, "fusion_lat": 0.0, "name": "f9d88deaca18f0d600734cec965b03ca", "fusion_lon": 0.0}, {"is_reserved": 0, "type": "electric_bike", "bike_id": "a4582a8cf093dddbcaaaf36222c40d6e", "lat": 38.90451133333333, "lon": -77.03218116666666, "rental_uris": {"android": "https://dc.lft.to/lastmile_qr_scan", "ios": "https://dc.lft.to/lastmile_qr_scan"}, "is_disabled": 0, "fusion_lat": 0.0, "name": "a4582a8cf093dddbcaaaf36222c40d6e", "fusion_lon": 0.0}, {"is_reserved": 0, "type": "electric_scooter", "bike_id": "976b180f3d74d7d3e5f3709185021ef2", "lat": 38.923029, "lon": -77.04128783333333, "rental_uris": {"android": "https://dc.lft.to/lastmile_qr_scan", "ios": "https://dc.lft.to/lastmile_qr_scan"}, "is_disabled": 0, "fusion_lat": 0.0, "name": "976b180f3d74d7d3e5f3709185021ef2", "fusion_lon": 0.0}, {"is_reserved": 0, "type": "electric_scooter", "bike_id": "f720064527ba957235a44371f566a819", "lat": 38.93130433333333, "lon": -77.02311166666667, "rental_uris": {"android": "https://dc.lft.to/lastmile_qr_scan", "ios": "https://dc.lft.to/lastmile_qr_scan"}, "is_disabled": 0, "fusion_lat": 0.0, "name": "f720064527ba957235a44371f566a819", "fusion_lon": 0.0}, {"is_reserved": 0, "type": "electric_scooter", "bike_id": "66e6589b73cafbed1a3fbd6b1fe7927a", "lat": 38.923005833333335, "lon": -77.042152, "rental_uris": {"android": "https://dc.lft.to/lastmile_qr_scan", "ios": "https://dc.lft.to/lastmile_qr_scan"}, "is_disabled": 0, "fusion_lat": 0.0, "name": "66e6589b73cafbed1a3fbd6b1fe7927a", "fusion_lon": 0.0}, {"is_reserved": 0, "type": "electric_scooter", "bike_id": "10d940175b07196da7cdf5217cc7fd55", "lat": 38.96031416666667, "lon": -77.0715835, "rental_uris": {"android": "https://dc.lft.to/lastmile_qr_scan", "ios": "https://dc.lft.to/lastmile_qr_scan"}, "is_disabled": 0, "fusion_lat": 0.0, "name": "10d940175b07196da7cdf5217cc7fd55", "fusion_lon": 0.0}, {"is_reserved": 0, "type": "electric_scooter", "bike_id": "962367800747e94a6360bacf553abda4", "lat": 38.93353416666667, "lon": -77.03423833333333, "rental_uris": {"android": "https://dc.lft.to/lastmile_qr_scan", "ios": "https://dc.lft.to/lastmile_qr_scan"}, "is_disabled": 0, "fusion_lat": 0.0, "name": "962367800747e94a6360bacf553abda4", "fusion_lon": 0.0}, {"is_reserved": 0, "type": "electric_scooter", "bike_id": "ea3b0c1fa00a5ec748c04af1f529d9a9", "lat": 38.89831316666667, "lon": -77.02848633333333, "rental_uris": {"android": "https://dc.lft.to/lastmile_qr_scan", "ios": "https://dc.lft.to/lastmile_qr_scan"}, "is_disabled": 0, "fusion_lat": 0.0, "name": "ea3b0c1fa00a5ec748c04af1f529d9a9", "fusion_lon": 0.0}, {"is_reserved": 0, "type": "electric_bike", "bike_id": "045c952235f795dc478ddb5f0690ffaf", "lat": 38.94634683333334, "lon": -77.01610583333333, "rental_uris": {"android": "https://dc.lft.to/lastmile_qr_scan", "ios": "https://dc.lft.to/lastmile_qr_scan"}, "is_disabled": 0, "fusion_lat": 0.0, "name": "045c952235f795dc478ddb5f0690ffaf", "fusion_lon": 0.0}, {"is_reserved": 0, "type": "electric_scooter", "bike_id": "f3c884350e03d229fcdf368084eb361b", "lat": 38.91346083333333, "lon": -77.04236966666667, "rental_uris": {"android": "https://dc.lft.to/lastmile_qr_scan", "ios": "https://dc.lft.to/lastmile_qr_scan"}, "is_disabled": 0, "fusion_lat": 0.0, "name": "f3c884350e03d229fcdf368084eb361b", "fusion_lon": 0.0}, {"is_reserved": 0, "type": "electric_scooter", "bike_id": "1732650b2a52fdf7a62a9f27da2e1b67", "lat": 38.91800083333333, "lon": -77.03206433333334, "rental_uris": {"android": "https://dc.lft.to/lastmile_qr_scan", "ios": "https://dc.lft.to/lastmile_qr_scan"}, "is_disabled": 0, "fusion_lat": 0.0, "name": "1732650b2a52fdf7a62a9f27da2e1b67", "fusion_lon": 0.0}, {"is_reserved": 0, "type": "electric_scooter", "bike_id": "40505508d7e963f1163a2ca0cf804941", "lat": 38.897286, "lon": -76.9951555, "rental_uris": {"android": "https://dc.lft.to/lastmile_qr_scan", "ios": "https://dc.lft.to/lastmile_qr_scan"}, "is_disabled": 0, "fusion_lat": 0.0, "name": "40505508d7e963f1163a2ca0cf804941", "fusion_lon": 0.0}, {"is_reserved": 0, "type": "electric_scooter", "bike_id": "8d7968d53b133b7e790fd8151f864789", "lat": 38.921075333333334, "lon": -77.01770383333333, "rental_uris": {"android": "https://dc.lft.to/lastmile_qr_scan", "ios": "https://dc.lft.to/lastmile_qr_scan"}, "is_disabled": 0, "fusion_lat": 0.0, "name": "8d7968d53b133b7e790fd8151f864789", "fusion_lon": 0.0}, {"is_reserved": 0, "type": "electric_bike", "bike_id": "cc3d048a02ba72d38e997f2002694951", "lat": 38.824277333333335, "lon": -77.12036783333333, "rental_uris": {"android": "https://dc.lft.to/lastmile_qr_scan", "ios": "https://dc.lft.to/lastmile_qr_scan"}, "is_disabled": 0, "fusion_lat": 0.0, "name": "cc3d048a02ba72d38e997f2002694951", "fusion_lon": 0.0}, {"is_reserved": 0, "type": "electric_scooter", "bike_id": "b5439abdc7a2be4d3aa27b70a8bd3c0c", "lat": 38.8748535, "lon": -77.00931033333333, "rental_uris": {"android": "https://dc.lft.to/lastmile_qr_scan", "ios": "https://dc.lft.to/lastmile_qr_scan"}, "is_disabled": 0, "fusion_lat": 0.0, "name": "b5439abdc7a2be4d3aa27b70a8bd3c0c", "fusion_lon": 0.0}, {"is_reserved": 0, "type": "electric_scooter", "bike_id": "da58b471b6e59c6f5cd1217a2b16e27e", "lat": 38.92919416666667, "lon": -77.034715, "rental_uris": {"android": "https://dc.lft.to/lastmile_qr_scan", "ios": "https://dc.lft.to/lastmile_qr_scan"}, "is_disabled": 0, "fusion_lat": 0.0, "name": "da58b471b6e59c6f5cd1217a2b16e27e", "fusion_lon": 0.0}, {"is_reserved": 0, "type": "electric_bike", "bike_id": "aa5c690f72bae3273582e437c8d08fb9", "lat": 38.858933, "lon": -77.095571, "rental_uris": {"android": "https://dc.lft.to/lastmile_qr_scan", "ios": "https://dc.lft.to/lastmile_qr_scan"}, "is_disabled": 0, "fusion_lat": 0.0, "name": "aa5c690f72bae3273582e437c8d08fb9", "fusion_lon": 0.0}, {"is_reserved": 0, "type": "electric_bike", "bike_id": "363aecba3e416fbf10478aafc9621018", "lat": 38.847796833333334, "lon": -77.0052025, "rental_uris": {"android": "https://dc.lft.to/lastmile_qr_scan", "ios": "https://dc.lft.to/lastmile_qr_scan"}, "is_disabled": 0, "fusion_lat": 0.0, "name": "363aecba3e416fbf10478aafc9621018", "fusion_lon": 0.0}, {"is_reserved": 0, "type": "electric_scooter", "bike_id": "13bbdc32ccfd83e616e8da1affa7ca84", "lat": 38.899668, "lon": -76.990313, "rental_uris": {"android": "https://dc.lft.to/lastmile_qr_scan", "ios": "https://dc.lft.to/lastmile_qr_scan"}, "is_disabled": 0, "fusion_lat": 0.0, "name": "13bbdc32ccfd83e616e8da1affa7ca84", "fusion_lon": 0.0}, {"is_reserved": 0, "type": "electric_scooter", "bike_id": "41a47445639072237301c5bd3b644b11", "lat": 38.90435866666667, "lon": -77.06011083333334, "rental_uris": {"android": "https://dc.lft.to/lastmile_qr_scan", "ios": "https://dc.lft.to/lastmile_qr_scan"}, "is_disabled": 0, "fusion_lat": 0.0, "name": "41a47445639072237301c5bd3b644b11", "fusion_lon": 0.0}, {"is_reserved": 0, "type": "electric_scooter", "bike_id": "327bfc27c1b9ad893c0ce6a271cb6182", "lat": 38.9217935, "lon": -77.0104215, "rental_uris": {"android": "https://dc.lft.to/lastmile_qr_scan", "ios": "https://dc.lft.to/lastmile_qr_scan"}, "is_disabled": 0, "fusion_lat": 0.0, "name": "327bfc27c1b9ad893c0ce6a271cb6182", "fusion_lon": 0.0}, {"is_reserved": 0, "type": "electric_scooter", "bike_id": "8158852be6db665e6883611b0067edf5", "lat": 38.92816883333333, "lon": -77.023222, "rental_uris": {"android": "https://dc.lft.to/lastmile_qr_scan", "ios": "https://dc.lft.to/lastmile_qr_scan"}, "is_disabled": 0, "fusion_lat": 0.0, "name": "8158852be6db665e6883611b0067edf5", "fusion_lon": 0.0}, {"is_reserved": 0, "type": "electric_scooter", "bike_id": "ec8992fc98ca24bb7d004d0b7e2f9088", "lat": 38.9226375, "lon": -77.0419625, "rental_uris": {"android": "https://dc.lft.to/lastmile_qr_scan", "ios": "https://dc.lft.to/lastmile_qr_scan"}, "is_disabled": 0, "fusion_lat": 0.0, "name": "ec8992fc98ca24bb7d004d0b7e2f9088", "fusion_lon": 0.0}, {"is_reserved": 0, "type": "electric_scooter", "bike_id": "eb1df74a4b3fa2c03387faf7897a76df", "lat": 38.88666166666667, "lon": -77.00202616666667, "rental_uris": {"android": "https://dc.lft.to/lastmile_qr_scan", "ios": "https://dc.lft.to/lastmile_qr_scan"}, "is_disabled": 0, "fusion_lat": 0.0, "name": "eb1df74a4b3fa2c03387faf7897a76df", "fusion_lon": 0.0}, {"is_reserved": 0, "type": "electric_scooter", "bike_id": "067f53e5e444714083e0498d81f6cd20", "lat": 38.92487233333333, "lon": -77.03198416666666, "rental_uris": {"android": "https://dc.lft.to/lastmile_qr_scan", "ios": "https://dc.lft.to/lastmile_qr_scan"}, "is_disabled": 0, "fusion_lat": 0.0, "name": "067f53e5e444714083e0498d81f6cd20", "fusion_lon": 0.0}, {"is_reserved": 0, "type": "electric_scooter", "bike_id": "f2213348c8cf0cd6770951b63ed63402", "lat": 38.90550483333333, "lon": -77.03249916666667, "rental_uris": {"android": "https://dc.lft.to/lastmile_qr_scan", "ios": "https://dc.lft.to/lastmile_qr_scan"}, "is_disabled": 0, "fusion_lat": 0.0, "name": "f2213348c8cf0cd6770951b63ed63402", "fusion_lon": 0.0}, {"is_reserved": 0, "type": "electric_scooter", "bike_id": "e9eece4470fdda4bc176f6febcf28afe", "lat": 38.922691, "lon": -77.0366675, "rental_uris": {"android": "https://dc.lft.to/lastmile_qr_scan", "ios": "https://dc.lft.to/lastmile_qr_scan"}, "is_disabled": 0, "fusion_lat": 0.0, "name": "e9eece4470fdda4bc176f6febcf28afe", "fusion_lon": 0.0}, {"is_reserved": 0, "type": "electric_scooter", "bike_id": "afb2d21932a519c3ce5ebd5888b91515", "lat": 38.9118335, "lon": -77.019939, "rental_uris": {"android": "https://dc.lft.to/lastmile_qr_scan", "ios": "https://dc.lft.to/lastmile_qr_scan"}, "is_disabled": 0, "fusion_lat": 0.0, "name": "afb2d21932a519c3ce5ebd5888b91515", "fusion_lon": 0.0}, {"is_reserved": 0, "type": "electric_bike", "bike_id": "127a38d444aa7104c8d092c190389068", "lat": 38.892534, "lon": -76.9705175, "rental_uris": {"android": "https://dc.lft.to/lastmile_qr_scan", "ios": "https://dc.lft.to/lastmile_qr_scan"}, "is_disabled": 0, "fusion_lat": 0.0, "name": "127a38d444aa7104c8d092c190389068", "fusion_lon": 0.0}, {"is_reserved": 0, "type": "electric_scooter", "bike_id": "6746c542b680562013da5ed75a162eb6", "lat": 38.93143033333333, "lon": -77.02986216666666, "rental_uris": {"android": "https://dc.lft.to/lastmile_qr_scan", "ios": "https://dc.lft.to/lastmile_qr_scan"}, "is_disabled": 0, "fusion_lat": 0.0, "name": "6746c542b680562013da5ed75a162eb6", "fusion_lon": 0.0}, {"is_reserved": 0, "type": "electric_scooter", "bike_id": "4abe626bd3533b756067b29654b1e392", "lat": 38.88633933333333, "lon": -77.01287366666666, "rental_uris": {"android": "https://dc.lft.to/lastmile_qr_scan", "ios": "https://dc.lft.to/lastmile_qr_scan"}, "is_disabled": 0, "fusion_lat": 0.0, "name": "4abe626bd3533b756067b29654b1e392", "fusion_lon": 0.0}, {"is_reserved": 0, "type": "electric_scooter", "bike_id": "94196e15ece395341e281a8bb881f17e", "lat": 38.925734, "lon": -77.078597, "rental_uris": {"android": "https://dc.lft.to/lastmile_qr_scan", "ios": "https://dc.lft.to/lastmile_qr_scan"}, "is_disabled": 0, "fusion_lat": 0.0, "name": "94196e15ece395341e281a8bb881f17e", "fusion_lon": 0.0}, {"is_reserved": 0, "type": "electric_scooter", "bike_id": "21223844b5978974cbd4de9cd5148d53", "lat": 38.929251, "lon": -77.02007316666666, "rental_uris": {"android": "https://dc.lft.to/lastmile_qr_scan", "ios": "https://dc.lft.to/lastmile_qr_scan"}, "is_disabled": 0, "fusion_lat": 0.0, "name": "21223844b5978974cbd4de9cd5148d53", "fusion_lon": 0.0}, {"is_reserved": 0, "type": "electric_scooter", "bike_id": "a0fa0b3a8e3cbf80c271fb9c524f1093", "lat": 38.9228305, "lon": -77.042242, "rental_uris": {"android": "https://dc.lft.to/lastmile_qr_scan", "ios": "https://dc.lft.to/lastmile_qr_scan"}, "is_disabled": 0, "fusion_lat": 0.0, "name": "a0fa0b3a8e3cbf80c271fb9c524f1093", "fusion_lon": 0.0}, {"is_reserved": 0, "type": "electric_scooter", "bike_id": "cc9acb6f7c387bbc4a0434ff27eaffc0", "lat": 38.92381116666667, "lon": -77.03662, "rental_uris": {"android": "https://dc.lft.to/lastmile_qr_scan", "ios": "https://dc.lft.to/lastmile_qr_scan"}, "is_disabled": 0, "fusion_lat": 0.0, "name": "cc9acb6f7c387bbc4a0434ff27eaffc0", "fusion_lon": 0.0}, {"is_reserved": 0, "type": "electric_scooter", "bike_id": "a098f38b300c1e6588b03411fb671864", "lat": 38.9038775, "lon": -77.035757, "rental_uris": {"android": "https://dc.lft.to/lastmile_qr_scan", "ios": "https://dc.lft.to/lastmile_qr_scan"}, "is_disabled": 0, "fusion_lat": 0.0, "name": "a098f38b300c1e6588b03411fb671864", "fusion_lon": 0.0}, {"is_reserved": 0, "type": "electric_scooter", "bike_id": "6b6e4833e08de53ddf620b7285d40ed7", "lat": 38.89604283333333, "lon": -77.04507333333333, "rental_uris": {"android": "https://dc.lft.to/lastmile_qr_scan", "ios": "https://dc.lft.to/lastmile_qr_scan"}, "is_disabled": 0, "fusion_lat": 0.0, "name": "6b6e4833e08de53ddf620b7285d40ed7", "fusion_lon": 0.0}, {"is_reserved": 0, "type": "electric_scooter", "bike_id": "ba71608ffbbb23fafa2ae487493d7bf8", "lat": 38.944398166666666, "lon": -77.029144, "rental_uris": {"android": "https://dc.lft.to/lastmile_qr_scan", "ios": "https://dc.lft.to/lastmile_qr_scan"}, "is_disabled": 0, "fusion_lat": 0.0, "name": "ba71608ffbbb23fafa2ae487493d7bf8", "fusion_lon": 0.0}, {"is_reserved": 0, "type": "electric_scooter", "bike_id": "502c90f76c3c8234120cdf94f1d68b93", "lat": 38.90041266666667, "lon": -76.98289466666667, "rental_uris": {"android": "https://dc.lft.to/lastmile_qr_scan", "ios": "https://dc.lft.to/lastmile_qr_scan"}, "is_disabled": 0, "fusion_lat": 0.0, "name": "502c90f76c3c8234120cdf94f1d68b93", "fusion_lon": 0.0}, {"is_reserved": 0, "type": "electric_scooter", "bike_id": "031eed4fb45cedf7eb0172fc251891b0", "lat": 38.9051715, "lon": -77.0476595, "rental_uris": {"android": "https://dc.lft.to/lastmile_qr_scan", "ios": "https://dc.lft.to/lastmile_qr_scan"}, "is_disabled": 0, "fusion_lat": 0.0, "name": "031eed4fb45cedf7eb0172fc251891b0", "fusion_lon": 0.0}, {"is_reserved": 0, "type": "electric_scooter", "bike_id": "581ca0bcf1fe5bc63947500aaa7899d0", "lat": 38.9035085, "lon": -77.02595833333334, "rental_uris": {"android": "https://dc.lft.to/lastmile_qr_scan", "ios": "https://dc.lft.to/lastmile_qr_scan"}, "is_disabled": 0, "fusion_lat": 0.0, "name": "581ca0bcf1fe5bc63947500aaa7899d0", "fusion_lon": 0.0}, {"is_reserved": 0, "type": "electric_scooter", "bike_id": "d18c372b736344f6bf9be634b49210b1", "lat": 38.926045, "lon": -77.02156183333334, "rental_uris": {"android": "https://dc.lft.to/lastmile_qr_scan", "ios": "https://dc.lft.to/lastmile_qr_scan"}, "is_disabled": 0, "fusion_lat": 0.0, "name": "d18c372b736344f6bf9be634b49210b1", "fusion_lon": 0.0}, {"is_reserved": 0, "type": "electric_scooter", "bike_id": "a35e06b9299a8035e8b3b655c1da6659", "lat": 38.915463, "lon": -77.03100783333333, "rental_uris": {"android": "https://dc.lft.to/lastmile_qr_scan", "ios": "https://dc.lft.to/lastmile_qr_scan"}, "is_disabled": 0, "fusion_lat": 0.0, "name": "a35e06b9299a8035e8b3b655c1da6659", "fusion_lon": 0.0}, {"is_reserved": 0, "type": "electric_scooter", "bike_id": "6537c2cda5ad7e81abc39a8f2cd445b9", "lat": 38.89232716666667, "lon": -77.02182916666666, "rental_uris": {"android": "https://dc.lft.to/lastmile_qr_scan", "ios": "https://dc.lft.to/lastmile_qr_scan"}, "is_disabled": 0, "fusion_lat": 0.0, "name": "6537c2cda5ad7e81abc39a8f2cd445b9", "fusion_lon": 0.0}, {"is_reserved": 0, "type": "electric_scooter", "bike_id": "3b2d1e851d523698b3067d387b01861f", "lat": 38.907467, "lon": -77.00309283333333, "rental_uris": {"android": "https://dc.lft.to/lastmile_qr_scan", "ios": "https://dc.lft.to/lastmile_qr_scan"}, "is_disabled": 0, "fusion_lat": 0.0, "name": "3b2d1e851d523698b3067d387b01861f", "fusion_lon": 0.0}, {"is_reserved": 0, "type": "electric_bike", "bike_id": "6f460af1b56d312a2d28498f0927ebee", "lat": 38.986745, "lon": -77.1006875, "rental_uris": {"android": "https://dc.lft.to/lastmile_qr_scan", "ios": "https://dc.lft.to/lastmile_qr_scan"}, "is_disabled": 0, "fusion_lat": 0.0, "name": "6f460af1b56d312a2d28498f0927ebee", "fusion_lon": 0.0}, {"is_reserved": 0, "type": "electric_scooter", "bike_id": "cf9f3db12676ad52a72a8df329171e0a", "lat": 38.920903833333334, "lon": -77.07186666666666, "rental_uris": {"android": "https://dc.lft.to/lastmile_qr_scan", "ios": "https://dc.lft.to/lastmile_qr_scan"}, "is_disabled": 0, "fusion_lat": 0.0, "name": "cf9f3db12676ad52a72a8df329171e0a", "fusion_lon": 0.0}, {"is_reserved": 0, "type": "electric_scooter", "bike_id": "74e4f2523b9f250d63875f16097c137a", "lat": 38.924589166666664, "lon": -77.00851566666667, "rental_uris": {"android": "https://dc.lft.to/lastmile_qr_scan", "ios": "https://dc.lft.to/lastmile_qr_scan"}, "is_disabled": 0, "fusion_lat": 0.0, "name": "74e4f2523b9f250d63875f16097c137a", "fusion_lon": 0.0}, {"is_reserved": 0, "type": "electric_scooter", "bike_id": "57fc055ce45c48f31c9cd59aee3d6b88", "lat": 38.952954166666665, "lon": -77.068626, "rental_uris": {"android": "https://dc.lft.to/lastmile_qr_scan", "ios": "https://dc.lft.to/lastmile_qr_scan"}, "is_disabled": 0, "fusion_lat": 0.0, "name": "57fc055ce45c48f31c9cd59aee3d6b88", "fusion_lon": 0.0}, {"is_reserved": 0, "type": "electric_scooter", "bike_id": "5e20a1fa6cad5f72e0d7729737b274ff", "lat": 38.945171333333334, "lon": -77.0211765, "rental_uris": {"android": "https://dc.lft.to/lastmile_qr_scan", "ios": "https://dc.lft.to/lastmile_qr_scan"}, "is_disabled": 0, "fusion_lat": 0.0, "name": "5e20a1fa6cad5f72e0d7729737b274ff", "fusion_lon": 0.0}, {"is_reserved": 0, "type": "electric_scooter", "bike_id": "7c652b6c608e6353f165cb656ae9305f", "lat": 38.893184, "lon": -77.02966666666667, "rental_uris": {"android": "https://dc.lft.to/lastmile_qr_scan", "ios": "https://dc.lft.to/lastmile_qr_scan"}, "is_disabled": 0, "fusion_lat": 0.0, "name": "7c652b6c608e6353f165cb656ae9305f", "fusion_lon": 0.0}, {"is_reserved": 0, "type": "electric_scooter", "bike_id": "55a4e238f48e7332825480ca7e17b322", "lat": 38.89338733333334, "lon": -77.02824483333333, "rental_uris": {"android": "https://dc.lft.to/lastmile_qr_scan", "ios": "https://dc.lft.to/lastmile_qr_scan"}, "is_disabled": 0, "fusion_lat": 0.0, "name": "55a4e238f48e7332825480ca7e17b322", "fusion_lon": 0.0}, {"is_reserved": 0, "type": "electric_scooter", "bike_id": "7dd6050b295b6d4e1063a50c5893e613", "lat": 38.9059615, "lon": -77.06420833333334, "rental_uris": {"android": "https://dc.lft.to/lastmile_qr_scan", "ios": "https://dc.lft.to/lastmile_qr_scan"}, "is_disabled": 0, "fusion_lat": 0.0, "name": "7dd6050b295b6d4e1063a50c5893e613", "fusion_lon": 0.0}, {"is_reserved": 0, "type": "electric_scooter", "bike_id": "e5bb4962c8a2d1046f837e69a44c693f", "lat": 38.92314016666667, "lon": -77.0412605, "rental_uris": {"android": "https://dc.lft.to/lastmile_qr_scan", "ios": "https://dc.lft.to/lastmile_qr_scan"}, "is_disabled": 0, "fusion_lat": 0.0, "name": "e5bb4962c8a2d1046f837e69a44c693f", "fusion_lon": 0.0}, {"is_reserved": 0, "type": "electric_scooter", "bike_id": "aff5bc379be0bb28ca7f0baf9c6ddc2d", "lat": 38.89348783333333, "lon": -77.02827766666667, "rental_uris": {"android": "https://dc.lft.to/lastmile_qr_scan", "ios": "https://dc.lft.to/lastmile_qr_scan"}, "is_disabled": 0, "fusion_lat": 0.0, "name": "aff5bc379be0bb28ca7f0baf9c6ddc2d", "fusion_lon": 0.0}, {"is_reserved": 0, "type": "electric_scooter", "bike_id": "9887bb7e8263aa2d114b17c90ec4ab84", "lat": 38.920851, "lon": -77.01369366666667, "rental_uris": {"android": "https://dc.lft.to/lastmile_qr_scan", "ios": "https://dc.lft.to/lastmile_qr_scan"}, "is_disabled": 0, "fusion_lat": 0.0, "name": "9887bb7e8263aa2d114b17c90ec4ab84", "fusion_lon": 0.0}, {"is_reserved": 0, "type": "electric_scooter", "bike_id": "6f2d553427f3036e929674f6794a1fff", "lat": 38.925731999999996, "lon": -76.99506516666666, "rental_uris": {"android": "https://dc.lft.to/lastmile_qr_scan", "ios": "https://dc.lft.to/lastmile_qr_scan"}, "is_disabled": 0, "fusion_lat": 0.0, "name": "6f2d553427f3036e929674f6794a1fff", "fusion_lon": 0.0}, {"is_reserved": 0, "type": "electric_scooter", "bike_id": "c59e388a659611f0a85f2f077248ee54", "lat": 38.91657766666667, "lon": -77.022824, "rental_uris": {"android": "https://dc.lft.to/lastmile_qr_scan", "ios": "https://dc.lft.to/lastmile_qr_scan"}, "is_disabled": 0, "fusion_lat": 0.0, "name": "c59e388a659611f0a85f2f077248ee54", "fusion_lon": 0.0}, {"is_reserved": 0, "type": "electric_bike", "bike_id": "bd1a32f0fb070ecee1a15b92f9e20f57", "lat": 38.882452, "lon": -76.96257333333334, "rental_uris": {"android": "https://dc.lft.to/lastmile_qr_scan", "ios": "https://dc.lft.to/lastmile_qr_scan"}, "is_disabled": 0, "fusion_lat": 0.0, "name": "bd1a32f0fb070ecee1a15b92f9e20f57", "fusion_lon": 0.0}, {"is_reserved": 0, "type": "electric_scooter", "bike_id": "5dd39493c8eac1c41678ac2110ea0678", "lat": 38.912620833333335, "lon": -77.03715366666667, "rental_uris": {"android": "https://dc.lft.to/lastmile_qr_scan", "ios": "https://dc.lft.to/lastmile_qr_scan"}, "is_disabled": 0, "fusion_lat": 0.0, "name": "5dd39493c8eac1c41678ac2110ea0678", "fusion_lon": 0.0}, {"is_reserved": 0, "type": "electric_bike", "bike_id": "ddcfb5f7bb9bc7bce870dd12546745ea", "lat": 38.9185725, "lon": -76.960859, "rental_uris": {"android": "https://dc.lft.to/lastmile_qr_scan", "ios": "https://dc.lft.to/lastmile_qr_scan"}, "is_disabled": 0, "fusion_lat": 0.0, "name": "ddcfb5f7bb9bc7bce870dd12546745ea", "fusion_lon": 0.0}, {"is_reserved": 0, "type": "electric_scooter", "bike_id": "3417f9c3037a121750164c7ae90a1951", "lat": 38.88989433333333, "lon": -77.0007535, "rental_uris": {"android": "https://dc.lft.to/lastmile_qr_scan", "ios": "https://dc.lft.to/lastmile_qr_scan"}, "is_disabled": 0, "fusion_lat": 0.0, "name": "3417f9c3037a121750164c7ae90a1951", "fusion_lon": 0.0}, {"is_reserved": 0, "type": "electric_scooter", "bike_id": "bedde0621823466126fce5c014c41fda", "lat": 38.903981333333334, "lon": -77.06775533333334, "rental_uris": {"android": "https://dc.lft.to/lastmile_qr_scan", "ios": "https://dc.lft.to/lastmile_qr_scan"}, "is_disabled": 0, "fusion_lat": 0.0, "name": "bedde0621823466126fce5c014c41fda", "fusion_lon": 0.0}, {"is_reserved": 0, "type": "electric_scooter", "bike_id": "f17bbdf40a59cab5ff2fb2473ca796d6", "lat": 38.911303833333335, "lon": -77.0318715, "rental_uris": {"android": "https://dc.lft.to/lastmile_qr_scan", "ios": "https://dc.lft.to/lastmile_qr_scan"}, "is_disabled": 0, "fusion_lat": 0.0, "name": "f17bbdf40a59cab5ff2fb2473ca796d6", "fusion_lon": 0.0}, {"is_reserved": 0, "type": "electric_scooter", "bike_id": "d6de3c5a0de59bbbfc7202d3b5b9928d", "lat": 38.901183, "lon": -77.04995416666667, "rental_uris": {"android": "https://dc.lft.to/lastmile_qr_scan", "ios": "https://dc.lft.to/lastmile_qr_scan"}, "is_disabled": 0, "fusion_lat": 0.0, "name": "d6de3c5a0de59bbbfc7202d3b5b9928d", "fusion_lon": 0.0}, {"is_reserved": 0, "type": "electric_scooter", "bike_id": "a9a36a3352345558004444a0e9fa09d0", "lat": 38.918260333333336, "lon": -77.02596766666667, "rental_uris": {"android": "https://dc.lft.to/lastmile_qr_scan", "ios": "https://dc.lft.to/lastmile_qr_scan"}, "is_disabled": 0, "fusion_lat": 0.0, "name": "a9a36a3352345558004444a0e9fa09d0", "fusion_lon": 0.0}, {"is_reserved": 0, "type": "electric_scooter", "bike_id": "c53e6ca9e352db5ed27ffe3ed28db4b5", "lat": 38.88405, "lon": -77.03036483333334, "rental_uris": {"android": "https://dc.lft.to/lastmile_qr_scan", "ios": "https://dc.lft.to/lastmile_qr_scan"}, "is_disabled": 0, "fusion_lat": 0.0, "name": "c53e6ca9e352db5ed27ffe3ed28db4b5", "fusion_lon": 0.0}, {"is_reserved": 0, "type": "electric_scooter", "bike_id": "fd0d25fa460285519ae7c493968ef6ee", "lat": 38.903830166666665, "lon": -77.0313205, "rental_uris": {"android": "https://dc.lft.to/lastmile_qr_scan", "ios": "https://dc.lft.to/lastmile_qr_scan"}, "is_disabled": 0, "fusion_lat": 0.0, "name": "fd0d25fa460285519ae7c493968ef6ee", "fusion_lon": 0.0}, {"is_reserved": 0, "type": "electric_scooter", "bike_id": "b1b7fd4303b84ea03da8a3fb21a5694f", "lat": 38.933764, "lon": -77.024146, "rental_uris": {"android": "https://dc.lft.to/lastmile_qr_scan", "ios": "https://dc.lft.to/lastmile_qr_scan"}, "is_disabled": 0, "fusion_lat": 0.0, "name": "b1b7fd4303b84ea03da8a3fb21a5694f", "fusion_lon": 0.0}, {"is_reserved": 0, "type": "electric_scooter", "bike_id": "ac8e43b0ec05abc10251a22d42e07730", "lat": 38.9157565, "lon": -77.0199765, "rental_uris": {"android": "https://dc.lft.to/lastmile_qr_scan", "ios": "https://dc.lft.to/lastmile_qr_scan"}, "is_disabled": 0, "fusion_lat": 0.0, "name": "ac8e43b0ec05abc10251a22d42e07730", "fusion_lon": 0.0}, {"is_reserved": 0, "type": "electric_scooter", "bike_id": "65b73fc3551c12936acac45170555e07", "lat": 38.908771, "lon": -77.04340416666666, "rental_uris": {"android": "https://dc.lft.to/lastmile_qr_scan", "ios": "https://dc.lft.to/lastmile_qr_scan"}, "is_disabled": 0, "fusion_lat": 0.0, "name": "65b73fc3551c12936acac45170555e07", "fusion_lon": 0.0}, {"is_reserved": 0, "type": "electric_scooter", "bike_id": "d1cabdbbf031836c390c3c19b9545725", "lat": 38.92005983333333, "lon": -77.07107166666667, "rental_uris": {"android": "https://dc.lft.to/lastmile_qr_scan", "ios": "https://dc.lft.to/lastmile_qr_scan"}, "is_disabled": 0, "fusion_lat": 0.0, "name": "d1cabdbbf031836c390c3c19b9545725", "fusion_lon": 0.0}, {"is_reserved": 0, "type": "electric_scooter", "bike_id": "0434f8b08d58745924aa34a4660c58a7", "lat": 38.87816816666667, "lon": -77.02232133333334, "rental_uris": {"android": "https://dc.lft.to/lastmile_qr_scan", "ios": "https://dc.lft.to/lastmile_qr_scan"}, "is_disabled": 0, "fusion_lat": 0.0, "name": "0434f8b08d58745924aa34a4660c58a7", "fusion_lon": 0.0}, {"is_reserved": 0, "type": "electric_scooter", "bike_id": "8fe78a1890e8afc1acac74bf8c0789c2", "lat": 38.923314166666664, "lon": -77.053933, "rental_uris": {"android": "https://dc.lft.to/lastmile_qr_scan", "ios": "https://dc.lft.to/lastmile_qr_scan"}, "is_disabled": 0, "fusion_lat": 0.0, "name": "8fe78a1890e8afc1acac74bf8c0789c2", "fusion_lon": 0.0}, {"is_reserved": 0, "type": "electric_scooter", "bike_id": "d6031fa23e860f74980b5b3e907905ff", "lat": 38.938809666666664, "lon": -77.02465983333333, "rental_uris": {"android": "https://dc.lft.to/lastmile_qr_scan", "ios": "https://dc.lft.to/lastmile_qr_scan"}, "is_disabled": 0, "fusion_lat": 0.0, "name": "d6031fa23e860f74980b5b3e907905ff", "fusion_lon": 0.0}, {"is_reserved": 0, "type": "electric_scooter", "bike_id": "320ee090b0cc2266d3bc052d907d1a74", "lat": 38.901751, "lon": -77.02475133333333, "rental_uris": {"android": "https://dc.lft.to/lastmile_qr_scan", "ios": "https://dc.lft.to/lastmile_qr_scan"}, "is_disabled": 0, "fusion_lat": 0.0, "name": "320ee090b0cc2266d3bc052d907d1a74", "fusion_lon": 0.0}, {"is_reserved": 0, "type": "electric_scooter", "bike_id": "2bfc938b3d0130ed52a1623d11dfdf27", "lat": 38.923628666666666, "lon": -77.04130816666667, "rental_uris": {"android": "https://dc.lft.to/lastmile_qr_scan", "ios": "https://dc.lft.to/lastmile_qr_scan"}, "is_disabled": 0, "fusion_lat": 0.0, "name": "2bfc938b3d0130ed52a1623d11dfdf27", "fusion_lon": 0.0}, {"is_reserved": 0, "type": "electric_scooter", "bike_id": "91ee8176b946b2fb6e9d831528f12ece", "lat": 38.92404833333333, "lon": -77.02973266666666, "rental_uris": {"android": "https://dc.lft.to/lastmile_qr_scan", "ios": "https://dc.lft.to/lastmile_qr_scan"}, "is_disabled": 0, "fusion_lat": 0.0, "name": "91ee8176b946b2fb6e9d831528f12ece", "fusion_lon": 0.0}, {"is_reserved": 0, "type": "electric_scooter", "bike_id": "34131b2171c7974e9d0b5ccaab3254ba", "lat": 38.87664383333333, "lon": -77.00746966666667, "rental_uris": {"android": "https://dc.lft.to/lastmile_qr_scan", "ios": "https://dc.lft.to/lastmile_qr_scan"}, "is_disabled": 0, "fusion_lat": 0.0, "name": "34131b2171c7974e9d0b5ccaab3254ba", "fusion_lon": 0.0}, {"is_reserved": 0, "type": "electric_scooter", "bike_id": "772a1ccb1cc404a1acdba707b9f5b3e2", "lat": 38.920244833333335, "lon": -77.01061533333333, "rental_uris": {"android": "https://dc.lft.to/lastmile_qr_scan", "ios": "https://dc.lft.to/lastmile_qr_scan"}, "is_disabled": 0, "fusion_lat": 0.0, "name": "772a1ccb1cc404a1acdba707b9f5b3e2", "fusion_lon": 0.0}, {"is_reserved": 0, "type": "electric_scooter", "bike_id": "39db88f63f9a6dcc860e9cb18a6e5650", "lat": 38.934629666666666, "lon": -77.05809366666666, "rental_uris": {"android": "https://dc.lft.to/lastmile_qr_scan", "ios": "https://dc.lft.to/lastmile_qr_scan"}, "is_disabled": 0, "fusion_lat": 0.0, "name": "39db88f63f9a6dcc860e9cb18a6e5650", "fusion_lon": 0.0}, {"is_reserved": 0, "type": "electric_scooter", "bike_id": "a0b4e3e29bbbad1ca86690955970a3f8", "lat": 38.9113425, "lon": -76.98467316666667, "rental_uris": {"android": "https://dc.lft.to/lastmile_qr_scan", "ios": "https://dc.lft.to/lastmile_qr_scan"}, "is_disabled": 0, "fusion_lat": 0.0, "name": "a0b4e3e29bbbad1ca86690955970a3f8", "fusion_lon": 0.0}, {"is_reserved": 0, "type": "electric_scooter", "bike_id": "619b72a9e3de125504f1fdb16ad2db52", "lat": 38.93249566666667, "lon": -77.03845233333334, "rental_uris": {"android": "https://dc.lft.to/lastmile_qr_scan", "ios": "https://dc.lft.to/lastmile_qr_scan"}, "is_disabled": 0, "fusion_lat": 0.0, "name": "619b72a9e3de125504f1fdb16ad2db52", "fusion_lon": 0.0}, {"is_reserved": 0, "type": "electric_scooter", "bike_id": "db84e111a353abd33b1c6f6f2ac2180e", "lat": 38.900773, "lon": -76.98007966666667, "rental_uris": {"android": "https://dc.lft.to/lastmile_qr_scan", "ios": "https://dc.lft.to/lastmile_qr_scan"}, "is_disabled": 0, "fusion_lat": 0.0, "name": "db84e111a353abd33b1c6f6f2ac2180e", "fusion_lon": 0.0}, {"is_reserved": 0, "type": "electric_scooter", "bike_id": "905a95df9b8653519731bc6af5f3dfb3", "lat": 38.87370133333334, "lon": -77.00090033333333, "rental_uris": {"android": "https://dc.lft.to/lastmile_qr_scan", "ios": "https://dc.lft.to/lastmile_qr_scan"}, "is_disabled": 0, "fusion_lat": 0.0, "name": "905a95df9b8653519731bc6af5f3dfb3", "fusion_lon": 0.0}, {"is_reserved": 0, "type": "electric_bike", "bike_id": "08b0deb158e8775ebcb78cc19defb36a", "lat": 39.04234533333333, "lon": -76.997385, "rental_uris": {"android": "https://dc.lft.to/lastmile_qr_scan", "ios": "https://dc.lft.to/lastmile_qr_scan"}, "is_disabled": 0, "fusion_lat": 0.0, "name": "08b0deb158e8775ebcb78cc19defb36a", "fusion_lon": 0.0}, {"is_reserved": 0, "type": "electric_bike", "bike_id": "d917b316ec60752fc03feabed511884f", "lat": 38.973339833333334, "lon": -76.99591983333333, "rental_uris": {"android": "https://dc.lft.to/lastmile_qr_scan", "ios": "https://dc.lft.to/lastmile_qr_scan"}, "is_disabled": 0, "fusion_lat": 0.0, "name": "d917b316ec60752fc03feabed511884f", "fusion_lon": 0.0}, {"is_reserved": 0, "type": "electric_scooter", "bike_id": "feb05a5c5c4ea923bcee35c957d0d49b", "lat": 38.895032666666665, "lon": -76.93477366666667, "rental_uris": {"android": "https://dc.lft.to/lastmile_qr_scan", "ios": "https://dc.lft.to/lastmile_qr_scan"}, "is_disabled": 0, "fusion_lat": 0.0, "name": "feb05a5c5c4ea923bcee35c957d0d49b", "fusion_lon": 0.0}, {"is_reserved": 0, "type": "electric_scooter", "bike_id": "908ee1dcaea366622cd94b9606bed709", "lat": 38.9183635, "lon": -77.02278466666667, "rental_uris": {"android": "https://dc.lft.to/lastmile_qr_scan", "ios": "https://dc.lft.to/lastmile_qr_scan"}, "is_disabled": 0, "fusion_lat": 0.0, "name": "908ee1dcaea366622cd94b9606bed709", "fusion_lon": 0.0}, {"is_reserved": 0, "type": "electric_scooter", "bike_id": "66fc6b8e9af3cc6d3c96caf059fffe00", "lat": 38.897404333333334, "lon": -77.025958, "rental_uris": {"android": "https://dc.lft.to/lastmile_qr_scan", "ios": "https://dc.lft.to/lastmile_qr_scan"}, "is_disabled": 0, "fusion_lat": 0.0, "name": "66fc6b8e9af3cc6d3c96caf059fffe00", "fusion_lon": 0.0}, {"is_reserved": 0, "type": "electric_scooter", "bike_id": "018bbab1c49e665f24296b7af3b5bf10", "lat": 38.91706716666667, "lon": -77.02407383333333, "rental_uris": {"android": "https://dc.lft.to/lastmile_qr_scan", "ios": "https://dc.lft.to/lastmile_qr_scan"}, "is_disabled": 0, "fusion_lat": 0.0, "name": "018bbab1c49e665f24296b7af3b5bf10", "fusion_lon": 0.0}, {"is_reserved": 0, "type": "electric_scooter", "bike_id": "c516783edea9508f7b45280faca09fd1", "lat": 38.935365166666664, "lon": -77.0582435, "rental_uris": {"android": "https://dc.lft.to/lastmile_qr_scan", "ios": "https://dc.lft.to/lastmile_qr_scan"}, "is_disabled": 0, "fusion_lat": 0.0, "name": "c516783edea9508f7b45280faca09fd1", "fusion_lon": 0.0}, {"is_reserved": 0, "type": "electric_scooter", "bike_id": "2bbd13f20f94f59d6b5d48e9b08267e6", "lat": 38.90278433333334, "lon": -77.036468, "rental_uris": {"android": "https://dc.lft.to/lastmile_qr_scan", "ios": "https://dc.lft.to/lastmile_qr_scan"}, "is_disabled": 0, "fusion_lat": 0.0, "name": "2bbd13f20f94f59d6b5d48e9b08267e6", "fusion_lon": 0.0}, {"is_reserved": 0, "type": "electric_scooter", "bike_id": "984a8e3025f3ce01fd34254fae9b1e35", "lat": 38.898774, "lon": -77.05284066666667, "rental_uris": {"android": "https://dc.lft.to/lastmile_qr_scan", "ios": "https://dc.lft.to/lastmile_qr_scan"}, "is_disabled": 0, "fusion_lat": 0.0, "name": "984a8e3025f3ce01fd34254fae9b1e35", "fusion_lon": 0.0}, {"is_reserved": 0, "type": "electric_bike", "bike_id": "a13e50541b5dfc73ca60f58472fad6cd", "lat": 38.80866483333333, "lon": -77.11255166666666, "rental_uris": {"android": "https://dc.lft.to/lastmile_qr_scan", "ios": "https://dc.lft.to/lastmile_qr_scan"}, "is_disabled": 0, "fusion_lat": 0.0, "name": "a13e50541b5dfc73ca60f58472fad6cd", "fusion_lon": 0.0}, {"is_reserved": 0, "type": "electric_scooter", "bike_id": "0311a89d535c803c0df6c5db007b0cd7", "lat": 38.900810666666665, "lon": -77.03652633333333, "rental_uris": {"android": "https://dc.lft.to/lastmile_qr_scan", "ios": "https://dc.lft.to/lastmile_qr_scan"}, "is_disabled": 0, "fusion_lat": 0.0, "name": "0311a89d535c803c0df6c5db007b0cd7", "fusion_lon": 0.0}, {"is_reserved": 0, "type": "electric_bike", "bike_id": "d320ae42049af72a15fc261a320f4fde", "lat": 38.95208183333333, "lon": -76.96588, "rental_uris": {"android": "https://dc.lft.to/lastmile_qr_scan", "ios": "https://dc.lft.to/lastmile_qr_scan"}, "is_disabled": 0, "fusion_lat": 0.0, "name": "d320ae42049af72a15fc261a320f4fde", "fusion_lon": 0.0}, {"is_reserved": 0, "type": "electric_scooter", "bike_id": "3da6a5dba43a295130e5d25f6a6513e6", "lat": 38.90080716666667, "lon": -77.016155, "rental_uris": {"android": "https://dc.lft.to/lastmile_qr_scan", "ios": "https://dc.lft.to/lastmile_qr_scan"}, "is_disabled": 0, "fusion_lat": 0.0, "name": "3da6a5dba43a295130e5d25f6a6513e6", "fusion_lon": 0.0}, {"is_reserved": 0, "type": "electric_scooter", "bike_id": "2e4719f7119e001d20446fd7cb024d36", "lat": 38.935231333333334, "lon": -77.019536, "rental_uris": {"android": "https://dc.lft.to/lastmile_qr_scan", "ios": "https://dc.lft.to/lastmile_qr_scan"}, "is_disabled": 0, "fusion_lat": 0.0, "name": "2e4719f7119e001d20446fd7cb024d36", "fusion_lon": 0.0}, {"is_reserved": 0, "type": "electric_scooter", "bike_id": "f8e7596ceb9e140e2bcae1f93806e4eb", "lat": 38.9055645, "lon": -77.00608533333333, "rental_uris": {"android": "https://dc.lft.to/lastmile_qr_scan", "ios": "https://dc.lft.to/lastmile_qr_scan"}, "is_disabled": 0, "fusion_lat": 0.0, "name": "f8e7596ceb9e140e2bcae1f93806e4eb", "fusion_lon": 0.0}, {"is_reserved": 0, "type": "electric_scooter", "bike_id": "ea3fb9c99cd529a27a3a39b5bb9dce75", "lat": 38.89309816666667, "lon": -77.02211266666667, "rental_uris": {"android": "https://dc.lft.to/lastmile_qr_scan", "ios": "https://dc.lft.to/lastmile_qr_scan"}, "is_disabled": 0, "fusion_lat": 0.0, "name": "ea3fb9c99cd529a27a3a39b5bb9dce75", "fusion_lon": 0.0}, {"is_reserved": 0, "type": "electric_scooter", "bike_id": "b04a6559148293fbd901ea139471a36d", "lat": 38.92567966666667, "lon": -77.03100616666667, "rental_uris": {"android": "https://dc.lft.to/lastmile_qr_scan", "ios": "https://dc.lft.to/lastmile_qr_scan"}, "is_disabled": 0, "fusion_lat": 0.0, "name": "b04a6559148293fbd901ea139471a36d", "fusion_lon": 0.0}, {"is_reserved": 0, "type": "electric_scooter", "bike_id": "6881051d4f5b6287ab699fde2af0fb64", "lat": 38.904109, "lon": -77.0676375, "rental_uris": {"android": "https://dc.lft.to/lastmile_qr_scan", "ios": "https://dc.lft.to/lastmile_qr_scan"}, "is_disabled": 0, "fusion_lat": 0.0, "name": "6881051d4f5b6287ab699fde2af0fb64", "fusion_lon": 0.0}, {"is_reserved": 0, "type": "electric_scooter", "bike_id": "44538ffcf49565fb419b39605dc2c812", "lat": 38.909599, "lon": -77.03631016666667, "rental_uris": {"android": "https://dc.lft.to/lastmile_qr_scan", "ios": "https://dc.lft.to/lastmile_qr_scan"}, "is_disabled": 0, "fusion_lat": 0.0, "name": "44538ffcf49565fb419b39605dc2c812", "fusion_lon": 0.0}, {"is_reserved": 0, "type": "electric_scooter", "bike_id": "0678e1371b6926e6dc8738b107f2af9a", "lat": 38.919822833333335, "lon": -77.0093405, "rental_uris": {"android": "https://dc.lft.to/lastmile_qr_scan", "ios": "https://dc.lft.to/lastmile_qr_scan"}, "is_disabled": 0, "fusion_lat": 0.0, "name": "0678e1371b6926e6dc8738b107f2af9a", "fusion_lon": 0.0}, {"is_reserved": 0, "type": "electric_scooter", "bike_id": "29fb7deb31f9e7f4bff1e1c10f6b1b12", "lat": 38.906853166666664, "lon": -77.0625715, "rental_uris": {"android": "https://dc.lft.to/lastmile_qr_scan", "ios": "https://dc.lft.to/lastmile_qr_scan"}, "is_disabled": 0, "fusion_lat": 0.0, "name": "29fb7deb31f9e7f4bff1e1c10f6b1b12", "fusion_lon": 0.0}, {"is_reserved": 0, "type": "electric_scooter", "bike_id": "ea28d23f677944e073cc4c1409ff4b4d", "lat": 38.91596883333333, "lon": -77.0121925, "rental_uris": {"android": "https://dc.lft.to/lastmile_qr_scan", "ios": "https://dc.lft.to/lastmile_qr_scan"}, "is_disabled": 0, "fusion_lat": 0.0, "name": "ea28d23f677944e073cc4c1409ff4b4d", "fusion_lon": 0.0}, {"is_reserved": 0, "type": "electric_scooter", "bike_id": "14c3674bd3097ee864e40254826d7b36", "lat": 38.87253416666667, "lon": -77.01649283333333, "rental_uris": {"android": "https://dc.lft.to/lastmile_qr_scan", "ios": "https://dc.lft.to/lastmile_qr_scan"}, "is_disabled": 0, "fusion_lat": 0.0, "name": "14c3674bd3097ee864e40254826d7b36", "fusion_lon": 0.0}, {"is_reserved": 0, "type": "electric_scooter", "bike_id": "ca49e3c38da8f68d9ba54cac7437dcf7", "lat": 38.90743366666667, "lon": -77.04133266666666, "rental_uris": {"android": "https://dc.lft.to/lastmile_qr_scan", "ios": "https://dc.lft.to/lastmile_qr_scan"}, "is_disabled": 0, "fusion_lat": 0.0, "name": "ca49e3c38da8f68d9ba54cac7437dcf7", "fusion_lon": 0.0}, {"is_reserved": 0, "type": "electric_scooter", "bike_id": "cdbeca141227ad8772d5c9820982e139", "lat": 38.905578, "lon": -76.99777016666667, "rental_uris": {"android": "https://dc.lft.to/lastmile_qr_scan", "ios": "https://dc.lft.to/lastmile_qr_scan"}, "is_disabled": 0, "fusion_lat": 0.0, "name": "cdbeca141227ad8772d5c9820982e139", "fusion_lon": 0.0}, {"is_reserved": 0, "type": "electric_scooter", "bike_id": "030d9bdd2872fd9c1acb9bdaa1192d3a", "lat": 38.92152466666667, "lon": -77.03869, "rental_uris": {"android": "https://dc.lft.to/lastmile_qr_scan", "ios": "https://dc.lft.to/lastmile_qr_scan"}, "is_disabled": 0, "fusion_lat": 0.0, "name": "030d9bdd2872fd9c1acb9bdaa1192d3a", "fusion_lon": 0.0}, {"is_reserved": 0, "type": "electric_scooter", "bike_id": "dda95a29543b5b8211b1563145ea8615", "lat": 38.904572333333334, "lon": -77.00330166666667, "rental_uris": {"android": "https://dc.lft.to/lastmile_qr_scan", "ios": "https://dc.lft.to/lastmile_qr_scan"}, "is_disabled": 0, "fusion_lat": 0.0, "name": "dda95a29543b5b8211b1563145ea8615", "fusion_lon": 0.0}, {"is_reserved": 0, "type": "electric_bike", "bike_id": "9fd3bf5d5f6cb57ea54a8a31b7170368", "lat": 38.955951166666665, "lon": -76.995378, "rental_uris": {"android": "https://dc.lft.to/lastmile_qr_scan", "ios": "https://dc.lft.to/lastmile_qr_scan"}, "is_disabled": 0, "fusion_lat": 0.0, "name": "9fd3bf5d5f6cb57ea54a8a31b7170368", "fusion_lon": 0.0}, {"is_reserved": 0, "type": "electric_scooter", "bike_id": "2bf9911d24e746ede7871693c1d50a75", "lat": 38.90099983333333, "lon": -77.0162235, "rental_uris": {"android": "https://dc.lft.to/lastmile_qr_scan", "ios": "https://dc.lft.to/lastmile_qr_scan"}, "is_disabled": 0, "fusion_lat": 0.0, "name": "2bf9911d24e746ede7871693c1d50a75", "fusion_lon": 0.0}, {"is_reserved": 0, "type": "electric_scooter", "bike_id": "2812b778ab06640341843a6c7be7a8e6", "lat": 38.937783833333334, "lon": -77.07446633333333, "rental_uris": {"android": "https://dc.lft.to/lastmile_qr_scan", "ios": "https://dc.lft.to/lastmile_qr_scan"}, "is_disabled": 0, "fusion_lat": 0.0, "name": "2812b778ab06640341843a6c7be7a8e6", "fusion_lon": 0.0}, {"is_reserved": 0, "type": "electric_scooter", "bike_id": "3561856fd9bfdf02415e2391f0ea8c5e", "lat": 38.90713983333333, "lon": -77.05583516666667, "rental_uris": {"android": "https://dc.lft.to/lastmile_qr_scan", "ios": "https://dc.lft.to/lastmile_qr_scan"}, "is_disabled": 0, "fusion_lat": 0.0, "name": "3561856fd9bfdf02415e2391f0ea8c5e", "fusion_lon": 0.0}, {"is_reserved": 0, "type": "electric_scooter", "bike_id": "401d948b69b53b196264b5d9b33de3b9", "lat": 38.90647966666667, "lon": -77.01426433333333, "rental_uris": {"android": "https://dc.lft.to/lastmile_qr_scan", "ios": "https://dc.lft.to/lastmile_qr_scan"}, "is_disabled": 0, "fusion_lat": 0.0, "name": "401d948b69b53b196264b5d9b33de3b9", "fusion_lon": 0.0}, {"is_reserved": 0, "type": "electric_scooter", "bike_id": "2001830a65d77d9a707681740dc45fd0", "lat": 38.91238966666667, "lon": -77.03854966666667, "rental_uris": {"android": "https://dc.lft.to/lastmile_qr_scan", "ios": "https://dc.lft.to/lastmile_qr_scan"}, "is_disabled": 0, "fusion_lat": 0.0, "name": "2001830a65d77d9a707681740dc45fd0", "fusion_lon": 0.0}, {"is_reserved": 0, "type": "electric_scooter", "bike_id": "139f5b3654b58bf20df028406a7afadc", "lat": 38.926178, "lon": -77.05648533333333, "rental_uris": {"android": "https://dc.lft.to/lastmile_qr_scan", "ios": "https://dc.lft.to/lastmile_qr_scan"},