{"data": {"bikes": [{"lat": 38.91778816666667, "is_disabled": 0, "type": "electric_scooter", "lon": -77.0226065, "bike_id": "05f77818983955a116545de7109ec68f", "fusion_lat": 0.0, "name": "05f77818983955a116545de7109ec68f", "is_reserved": 0, "rental_uris": {"android": "https://dc.lft.to/lastmile_qr_scan", "ios": "https://dc.lft.to/lastmile_qr_scan"}, "fusion_lon": 0.0}, {"lat": 38.91419916666667, "is_disabled": 0, "type": "electric_scooter", "lon": -77.02235983333334, "bike_id": "a1578426de400fd155bc9875738b9608", "fusion_lat": 0.0, "name": "a1578426de400fd155bc9875738b9608", "is_reserved": 0, "rental_uris": {"android": "https://dc.lft.to/lastmile_qr_scan", "ios": "https://dc.lft.to/lastmile_qr_scan"}, "fusion_lon": 0.0}, {"lat": 38.906310500000004, "is_disabled": 0, "type": "electric_scooter", "lon": -77.062828, "bike_id": "1b292befcf796eb5adfb15656927ef4a", "fusion_lat": 0.0, "name": "1b292befcf796eb5adfb15656927ef4a", "is_reserved": 0, "rental_uris": {"android": "https://dc.lft.to/lastmile_qr_scan", "ios": "https://dc.lft.to/lastmile_qr_scan"}, "fusion_lon": 0.0}, {"lat": 38.910705, "is_disabled": 0, "type": "electric_scooter", "lon": -77.04241283333333, "bike_id": "8f2d38c0ba0c076a2e87964a3314cdd4", "fusion_lat": 0.0, "name": "8f2d38c0ba0c076a2e87964a3314cdd4", "is_reserved": 0, "rental_uris": {"android": "https://dc.lft.to/lastmile_qr_scan", "ios": "https://dc.lft.to/lastmile_qr_scan"}, "fusion_lon": 0.0}, {"lat": 38.96708233333333, "is_disabled": 0, "type": "electric_bike", "lon": -77.10219666666667, "bike_id": "ba10ed17ae6cc70f1402772237dfc50e", "fusion_lat": 0.0, "name": "ba10ed17ae6cc70f1402772237dfc50e", "is_reserved": 0, "rental_uris": {"android": "https://dc.lft.to/lastmile_qr_scan", "ios": "https://dc.lft.to/lastmile_qr_scan"}, "fusion_lon": 0.0}, {"lat": 38.861631, "is_disabled": 0, "type": "electric_bike", "lon": -77.13094916666667, "bike_id": "490dc93ccf7b3efaf9ef269cbb9711e6", "fusion_lat": 0.0, "name": "490dc93ccf7b3efaf9ef269cbb9711e6", "is_reserved": 0, "rental_uris": {"android": "https://dc.lft.to/lastmile_qr_scan", "ios": "https://dc.lft.to/lastmile_qr_scan"}, "fusion_lon": 0.0}, {"lat": 38.90880283333333, "is_disabled": 0, "type": "electric_scooter", "lon": -77.0435245, "bike_id": "44dd03e71921cba607d54ef3d865c993", "fusion_lat": 0.0, "name": "44dd03e71921cba607d54ef3d865c993", "is_reserved": 0, "rental_uris": {"android": "https://dc.lft.to/lastmile_qr_scan", "ios": "https://dc.lft.to/lastmile_qr_scan"}, "fusion_lon": 0.0}, {"lat": 38.920577, "is_disabled": 0, "type": "electric_scooter", "lon": -77.03292666666667, "bike_id": "5076f2a86961bd4ac792cc22f1f03a23", "fusion_lat": 0.0, "name": "5076f2a86961bd4ac792cc22f1f03a23", "is_reserved": 0, "rental_uris": {"android": "https://dc.lft.to/lastmile_qr_scan", "ios": "https://dc.lft.to/lastmile_qr_scan"}, "fusion_lon": 0.0}, {"lat": 38.91060366666667, "is_disabled": 0, "type": "electric_scooter", "lon": -77.0265715, "bike_id": "ffdcc39558ad38186e66582da9fe9945", "fusion_lat": 0.0, "name": "ffdcc39558ad38186e66582da9fe9945", "is_reserved": 0, "rental_uris": {"android": "https://dc.lft.to/lastmile_qr_scan", "ios": "https://dc.lft.to/lastmile_qr_scan"}, "fusion_lon": 0.0}, {"lat": 38.90543566666667, "is_disabled": 0, "type": "electric_scooter", "lon": -77.02221783333333, "bike_id": "c92b8bfbd0921505b77d50f0fc199702", "fusion_lat": 0.0, "name": "c92b8bfbd0921505b77d50f0fc199702", "is_reserved": 0, "rental_uris": {"android": "https://dc.lft.to/lastmile_qr_scan", "ios": "https://dc.lft.to/lastmile_qr_scan"}, "fusion_lon": 0.0}, {"lat": 38.889287333333336, "is_disabled": 0, "type": "electric_scooter", "lon": -76.97371883333334, "bike_id": "30d92b51192f28cfe5f59f64db34578d", "fusion_lat": 0.0, "name": "30d92b51192f28cfe5f59f64db34578d", "is_reserved": 0, "rental_uris": {"android": "https://dc.lft.to/lastmile_qr_scan", "ios": "https://dc.lft.to/lastmile_qr_scan"}, "fusion_lon": 0.0}, {"lat": 38.9420235, "is_disabled": 0, "type": "electric_scooter", "lon": -77.018283, "bike_id": "3c08fbea916cabdc0c75d10cbeedc3ad", "fusion_lat": 0.0, "name": "3c08fbea916cabdc0c75d10cbeedc3ad", "is_reserved": 0, "rental_uris": {"android": "https://dc.lft.to/lastmile_qr_scan", "ios": "https://dc.lft.to/lastmile_qr_scan"}, "fusion_lon": 0.0}, {"lat": 38.938764, "is_disabled": 0, "type": "electric_scooter", "lon": -77.024402, "bike_id": "68ed5c8550afee339c1ca6234d649ab4", "fusion_lat": 0.0, "name": "68ed5c8550afee339c1ca6234d649ab4", "is_reserved": 0, "rental_uris": {"android": "https://dc.lft.to/lastmile_qr_scan", "ios": "https://dc.lft.to/lastmile_qr_scan"}, "fusion_lon": 0.0}, {"lat": 38.90919066666667, "is_disabled": 0, "type": "electric_scooter", "lon": -77.03643933333333, "bike_id": "df1537f46f47b61778c8bc873cbd4b81", "fusion_lat": 0.0, "name": "df1537f46f47b61778c8bc873cbd4b81", "is_reserved": 0, "rental_uris": {"android": "https://dc.lft.to/lastmile_qr_scan", "ios": "https://dc.lft.to/lastmile_qr_scan"}, "fusion_lon": 0.0}, {"lat": 38.88185983333333, "is_disabled": 0, "type": "electric_scooter", "lon": -76.99506383333333, "bike_id": "7052c1409b81668377d1289e587cc1d3", "fusion_lat": 0.0, "name": "7052c1409b81668377d1289e587cc1d3", "is_reserved": 0, "rental_uris": {"android": "https://dc.lft.to/lastmile_qr_scan", "ios": "https://dc.lft.to/lastmile_qr_scan"}, "fusion_lon": 0.0}, {"lat": 38.95564066666667, "is_disabled": 0, "type": "electric_scooter", "lon": -77.022385, "bike_id": "80c6c165c91af82f52a6960f2c9d0d3b", "fusion_lat": 0.0, "name": "80c6c165c91af82f52a6960f2c9d0d3b", "is_reserved": 0, "rental_uris": {"android": "https://dc.lft.to/lastmile_qr_scan", "ios": "https://dc.lft.to/lastmile_qr_scan"}, "fusion_lon": 0.0}, {"lat": 38.865637, "is_disabled": 0, "type": "electric_scooter", "lon": -76.98950383333333, "bike_id": "46a47dca7a0df0c553a1842f2054619e", "fusion_lat": 0.0, "name": "46a47dca7a0df0c553a1842f2054619e", "is_reserved": 0, "rental_uris": {"android": "https://dc.lft.to/lastmile_qr_scan", "ios": "https://dc.lft.to/lastmile_qr_scan"}, "fusion_lon": 0.0}, {"lat": 38.90098416666667, "is_disabled": 0, "type": "electric_scooter", "lon": -77.0033135, "bike_id": "ed2b3ec29ebdbb1052919a633b4cf657", "fusion_lat": 0.0, "name": "ed2b3ec29ebdbb1052919a633b4cf657", "is_reserved": 0, "rental_uris": {"android": "https://dc.lft.to/lastmile_qr_scan", "ios": "https://dc.lft.to/lastmile_qr_scan"}, "fusion_lon": 0.0}, {"lat": 38.9071515, "is_disabled": 0, "type": "electric_scooter", "lon": -76.99828016666666, "bike_id": "fed8cf735437419d7afa2e14b1acaeee", "fusion_lat": 0.0, "name": "fed8cf735437419d7afa2e14b1acaeee", "is_reserved": 0, "rental_uris": {"android": "https://dc.lft.to/lastmile_qr_scan", "ios": "https://dc.lft.to/lastmile_qr_scan"}, "fusion_lon": 0.0}, {"lat": 38.87235233333333, "is_disabled": 0, "type": "electric_bike", "lon": -77.01181316666667, "bike_id": "70950b4fd1a1a9ebb654048187f20622", "fusion_lat": 0.0, "name": "70950b4fd1a1a9ebb654048187f20622", "is_reserved": 0, "rental_uris": {"android": "https://dc.lft.to/lastmile_qr_scan", "ios": "https://dc.lft.to/lastmile_qr_scan"}, "fusion_lon": 0.0}, {"lat": 38.861737833333336, "is_disabled": 0, "type": "electric_bike", "lon": -77.13145033333333, "bike_id": "6b0d6da420f7a98db2b2c9aee4ad221e", "fusion_lat": 0.0, "name": "6b0d6da420f7a98db2b2c9aee4ad221e", "is_reserved": 0, "rental_uris": {"android": "https://dc.lft.to/lastmile_qr_scan", "ios": "https://dc.lft.to/lastmile_qr_scan"}, "fusion_lon": 0.0}, {"lat": 38.90246233333333, "is_disabled": 0, "type": "electric_scooter", "lon": -77.026879, "bike_id": "e8504c821bd7e7e2c428ab7b4e9c0115", "fusion_lat": 0.0, "name": "e8504c821bd7e7e2c428ab7b4e9c0115", "is_reserved": 0, "rental_uris": {"android": "https://dc.lft.to/lastmile_qr_scan", "ios": "https://dc.lft.to/lastmile_qr_scan"}, "fusion_lon": 0.0}, {"lat": 38.921624666666666, "is_disabled": 0, "type": "electric_scooter", "lon": -77.03383416666667, "bike_id": "f42add248a75b0fabe6cbaf6068a100f", "fusion_lat": 0.0, "name": "f42add248a75b0fabe6cbaf6068a100f", "is_reserved": 0, "rental_uris": {"android": "https://dc.lft.to/lastmile_qr_scan", "ios": "https://dc.lft.to/lastmile_qr_scan"}, "fusion_lon": 0.0}, {"lat": 38.95094733333333, "is_disabled": 0, "type": "electric_scooter", "lon": -77.0233715, "bike_id": "3ed20a07eba8bab1c2001f13ba7f2922", "fusion_lat": 0.0, "name": "3ed20a07eba8bab1c2001f13ba7f2922", "is_reserved": 0, "rental_uris": {"android": "https://dc.lft.to/lastmile_qr_scan", "ios": "https://dc.lft.to/lastmile_qr_scan"}, "fusion_lon": 0.0}, {"lat": 38.91012383333333, "is_disabled": 0, "type": "electric_scooter", "lon": -77.08894766666667, "bike_id": "e074cb28777184af82ad7874893e5674", "fusion_lat": 0.0, "name": "e074cb28777184af82ad7874893e5674", "is_reserved": 0, "rental_uris": {"android": "https://dc.lft.to/lastmile_qr_scan", "ios": "https://dc.lft.to/lastmile_qr_scan"}, "fusion_lon": 0.0}, {"lat": 38.92092933333333, "is_disabled": 0, "type": "electric_bike", "lon": -76.983722, "bike_id": "bdab21a70f85ffd75989fa82897e52a3", "fusion_lat": 0.0, "name": "bdab21a70f85ffd75989fa82897e52a3", "is_reserved": 0, "rental_uris": {"android": "https://dc.lft.to/lastmile_qr_scan", "ios": "https://dc.lft.to/lastmile_qr_scan"}, "fusion_lon": 0.0}, {"lat": 38.90182866666667, "is_disabled": 0, "type": "electric_scooter", "lon": -77.05022216666667, "bike_id": "3bc8baaad87d5be9def4f52b519b682f", "fusion_lat": 0.0, "name": "3bc8baaad87d5be9def4f52b519b682f", "is_reserved": 0, "rental_uris": {"android": "https://dc.lft.to/lastmile_qr_scan", "ios": "https://dc.lft.to/lastmile_qr_scan"}, "fusion_lon": 0.0}, {"lat": 38.9211175, "is_disabled": 0, "type": "electric_scooter", "lon": -77.04222683333333, "bike_id": "a6546bf02632725d4a2b4a6351ad5b76", "fusion_lat": 0.0, "name": "a6546bf02632725d4a2b4a6351ad5b76", "is_reserved": 0, "rental_uris": {"android": "https://dc.lft.to/lastmile_qr_scan", "ios": "https://dc.lft.to/lastmile_qr_scan"}, "fusion_lon": 0.0}, {"lat": 38.893697833333334, "is_disabled": 0, "type": "electric_scooter", "lon": -76.99109516666667, "bike_id": "05cf1fb21d45c343630e3f70ced58ba8", "fusion_lat": 0.0, "name": "05cf1fb21d45c343630e3f70ced58ba8", "is_reserved": 0, "rental_uris": {"android": "https://dc.lft.to/lastmile_qr_scan", "ios": "https://dc.lft.to/lastmile_qr_scan"}, "fusion_lon": 0.0}, {"lat": 38.92609516666667, "is_disabled": 0, "type": "electric_scooter", "lon": -77.05694433333333, "bike_id": "fbf0ce1dc857d84c8c135e6078cf16db", "fusion_lat": 0.0, "name": "fbf0ce1dc857d84c8c135e6078cf16db", "is_reserved": 0, "rental_uris": {"android": "https://dc.lft.to/lastmile_qr_scan", "ios": "https://dc.lft.to/lastmile_qr_scan"}, "fusion_lon": 0.0}, {"lat": 38.9155435, "is_disabled": 0, "type": "electric_scooter", "lon": -77.00977733333333, "bike_id": "08707217215a42d9f8eda7fc63e5fb5e", "fusion_lat": 0.0, "name": "08707217215a42d9f8eda7fc63e5fb5e", "is_reserved": 0, "rental_uris": {"android": "https://dc.lft.to/lastmile_qr_scan", "ios": "https://dc.lft.to/lastmile_qr_scan"}, "fusion_lon": 0.0}, {"lat": 38.923829833333336, "is_disabled": 0, "type": "electric_scooter", "lon": -77.02756966666666, "bike_id": "f73c87b6e787af30ec340f236b41f06e", "fusion_lat": 0.0, "name": "f73c87b6e787af30ec340f236b41f06e", "is_reserved": 0, "rental_uris": {"android": "https://dc.lft.to/lastmile_qr_scan", "ios": "https://dc.lft.to/lastmile_qr_scan"}, "fusion_lon": 0.0}, {"lat": 38.84426416666667, "is_disabled": 0, "type": "electric_scooter", "lon": -76.99776833333334, "bike_id": "a82eb8fb30f560adb64930db1fe173b2", "fusion_lat": 0.0, "name": "a82eb8fb30f560adb64930db1fe173b2", "is_reserved": 0, "rental_uris": {"android": "https://dc.lft.to/lastmile_qr_scan", "ios": "https://dc.lft.to/lastmile_qr_scan"}, "fusion_lon": 0.0}, {"lat": 38.85431583333333, "is_disabled": 0, "type": "electric_bike", "lon": -76.9096835, "bike_id": "fe97595086721b1f1541c3eea50fe375", "fusion_lat": 0.0, "name": "fe97595086721b1f1541c3eea50fe375", "is_reserved": 0, "rental_uris": {"android": "https://dc.lft.to/lastmile_qr_scan", "ios": "https://dc.lft.to/lastmile_qr_scan"}, "fusion_lon": 0.0}, {"lat": 38.810514, "is_disabled": 0, "type": "electric_bike", "lon": -77.085106, "bike_id": "dcd5dd72ada2d6da63ae827461f36e20", "fusion_lat": 0.0, "name": "dcd5dd72ada2d6da63ae827461f36e20", "is_reserved": 0, "rental_uris": {"android": "https://dc.lft.to/lastmile_qr_scan", "ios": "https://dc.lft.to/lastmile_qr_scan"}, "fusion_lon": 0.0}, {"lat": 38.930533, "is_disabled": 0, "type": "electric_bike", "lon": -77.03195233333334, "bike_id": "06ce87ccd2b64f2851c577c1d5f19804", "fusion_lat": 0.0, "name": "06ce87ccd2b64f2851c577c1d5f19804", "is_reserved": 0, "rental_uris": {"android": "https://dc.lft.to/lastmile_qr_scan", "ios": "https://dc.lft.to/lastmile_qr_scan"}, "fusion_lon": 0.0}, {"lat": 38.90488883333333, "is_disabled": 0, "type": "electric_scooter", "lon": -76.99544916666666, "bike_id": "aa7c82ad901a956ee20d4ddf2dfe1340", "fusion_lat": 0.0, "name": "aa7c82ad901a956ee20d4ddf2dfe1340", "is_reserved": 0, "rental_uris": {"android": "https://dc.lft.to/lastmile_qr_scan", "ios": "https://dc.lft.to/lastmile_qr_scan"}, "fusion_lon": 0.0}, {"lat": 38.91532483333334, "is_disabled": 0, "type": "electric_scooter", "lon": -77.03844366666667, "bike_id": "c042f04480c225665d127ba7b77bb5c6", "fusion_lat": 0.0, "name": "c042f04480c225665d127ba7b77bb5c6", "is_reserved": 0, "rental_uris": {"android": "https://dc.lft.to/lastmile_qr_scan", "ios": "https://dc.lft.to/lastmile_qr_scan"}, "fusion_lon": 0.0}, {"lat": 38.91981033333333, "is_disabled": 0, "type": "electric_scooter", "lon": -77.02396366666666, "bike_id": "8a26cb08db37eb9ffeb36615eaa1888e", "fusion_lat": 0.0, "name": "8a26cb08db37eb9ffeb36615eaa1888e", "is_reserved": 0, "rental_uris": {"android": "https://dc.lft.to/lastmile_qr_scan", "ios": "https://dc.lft.to/lastmile_qr_scan"}, "fusion_lon": 0.0}, {"lat": 38.9460495, "is_disabled": 0, "type": "electric_scooter", "lon": -77.07035383333333, "bike_id": "d295f1cefe41d581384931aac21d7ef5", "fusion_lat": 0.0, "name": "d295f1cefe41d581384931aac21d7ef5", "is_reserved": 0, "rental_uris": {"android": "https://dc.lft.to/lastmile_qr_scan", "ios": "https://dc.lft.to/lastmile_qr_scan"}, "fusion_lon": 0.0}, {"lat": 38.90775166666667, "is_disabled": 0, "type": "electric_scooter", "lon": -77.03861916666666, "bike_id": "76f7a95b1f79d4f2f90b1a134699f1e8", "fusion_lat": 0.0, "name": "76f7a95b1f79d4f2f90b1a134699f1e8", "is_reserved": 0, "rental_uris": {"android": "https://dc.lft.to/lastmile_qr_scan", "ios": "https://dc.lft.to/lastmile_qr_scan"}, "fusion_lon": 0.0}, {"lat": 38.90019916666667, "is_disabled": 0, "type": "electric_scooter", "lon": -76.99871083333333, "bike_id": "fc5edd50b11ceeb489d473ac6f1ebcb0", "fusion_lat": 0.0, "name": "fc5edd50b11ceeb489d473ac6f1ebcb0", "is_reserved": 0, "rental_uris": {"android": "https://dc.lft.to/lastmile_qr_scan", "ios": "https://dc.lft.to/lastmile_qr_scan"}, "fusion_lon": 0.0}, {"lat": 38.917046, "is_disabled": 0, "type": "electric_scooter", "lon": -77.03707683333333, "bike_id": "d848db077eabf6a40fddde0953a6ea27", "fusion_lat": 0.0, "name": "d848db077eabf6a40fddde0953a6ea27", "is_reserved": 0, "rental_uris": {"android": "https://dc.lft.to/lastmile_qr_scan", "ios": "https://dc.lft.to/lastmile_qr_scan"}, "fusion_lon": 0.0}, {"lat": 38.9236835, "is_disabled": 0, "type": "electric_scooter", "lon": -77.0403295, "bike_id": "7667d77ee2c145c0ae5ea3ab7775638d", "fusion_lat": 0.0, "name": "7667d77ee2c145c0ae5ea3ab7775638d", "is_reserved": 0, "rental_uris": {"android": "https://dc.lft.to/lastmile_qr_scan", "ios": "https://dc.lft.to/lastmile_qr_scan"}, "fusion_lon": 0.0}, {"lat": 38.9163825, "is_disabled": 0, "type": "electric_scooter", "lon": -77.022978, "bike_id": "46c3d4085fd705e63bcd3143ec55945c", "fusion_lat": 0.0, "name": "46c3d4085fd705e63bcd3143ec55945c", "is_reserved": 0, "rental_uris": {"android": "https://dc.lft.to/lastmile_qr_scan", "ios": "https://dc.lft.to/lastmile_qr_scan"}, "fusion_lon": 0.0}, {"lat": 38.8328135, "is_disabled": 0, "type": "electric_bike", "lon": -76.944238, "bike_id": "7b4db0c3e9dd0a35bd8bb2c680add9b0", "fusion_lat": 0.0, "name": "7b4db0c3e9dd0a35bd8bb2c680add9b0", "is_reserved": 0, "rental_uris": {"android": "https://dc.lft.to/lastmile_qr_scan", "ios": "https://dc.lft.to/lastmile_qr_scan"}, "fusion_lon": 0.0}, {"lat": 38.978366333333334, "is_disabled": 0, "type": "electric_bike", "lon": -77.026477, "bike_id": "a0f2d450e579e22559cb5e207c9e06f8", "fusion_lat": 0.0, "name": "a0f2d450e579e22559cb5e207c9e06f8", "is_reserved": 0, "rental_uris": {"android": "https://dc.lft.to/lastmile_qr_scan", "ios": "https://dc.lft.to/lastmile_qr_scan"}, "fusion_lon": 0.0}, {"lat": 38.863801333333335, "is_disabled": 0, "type": "electric_scooter", "lon": -76.9924465, "bike_id": "05c8b9697bfa034cb55ef227ec6d3682", "fusion_lat": 0.0, "name": "05c8b9697bfa034cb55ef227ec6d3682", "is_reserved": 0, "rental_uris": {"android": "https://dc.lft.to/lastmile_qr_scan", "ios": "https://dc.lft.to/lastmile_qr_scan"}, "fusion_lon": 0.0}, {"lat": 38.86095983333333, "is_disabled": 0, "type": "electric_scooter", "lon": -76.9837945, "bike_id": "49b8c569145a388ac4a34bbdbd03a558", "fusion_lat": 0.0, "name": "49b8c569145a388ac4a34bbdbd03a558", "is_reserved": 0, "rental_uris": {"android": "https://dc.lft.to/lastmile_qr_scan", "ios": "https://dc.lft.to/lastmile_qr_scan"}, "fusion_lon": 0.0}, {"lat": 38.9001385, "is_disabled": 0, "type": "electric_scooter", "lon": -76.99215466666666, "bike_id": "fe94b99f1c5ff8c4a9fc250a48f31b70", "fusion_lat": 0.0, "name": "fe94b99f1c5ff8c4a9fc250a48f31b70", "is_reserved": 0, "rental_uris": {"android": "https://dc.lft.to/lastmile_qr_scan", "ios": "https://dc.lft.to/lastmile_qr_scan"}, "fusion_lon": 0.0}, {"lat": 38.90418483333333, "is_disabled": 0, "type": "electric_scooter", "lon": -77.02943766666667, "bike_id": "7ef84c950b0f30fb8c666ee89e12ac0b", "fusion_lat": 0.0, "name": "7ef84c950b0f30fb8c666ee89e12ac0b", "is_reserved": 0, "rental_uris": {"android": "https://dc.lft.to/lastmile_qr_scan", "ios": "https://dc.lft.to/lastmile_qr_scan"}, "fusion_lon": 0.0}, {"lat": 38.9245165, "is_disabled": 0, "type": "electric_scooter", "lon": -77.020315, "bike_id": "1fd22a8ae6de6b70aa2707a7265020c1", "fusion_lat": 0.0, "name": "1fd22a8ae6de6b70aa2707a7265020c1", "is_reserved": 0, "rental_uris": {"android": "https://dc.lft.to/lastmile_qr_scan", "ios": "https://dc.lft.to/lastmile_qr_scan"}, "fusion_lon": 0.0}, {"lat": 38.85518916666667, "is_disabled": 0, "type": "electric_bike", "lon": -77.120658, "bike_id": "7891313460916ebd268b715f7d7ea4b3", "fusion_lat": 0.0, "name": "7891313460916ebd268b715f7d7ea4b3", "is_reserved": 0, "rental_uris": {"android": "https://dc.lft.to/lastmile_qr_scan", "ios": "https://dc.lft.to/lastmile_qr_scan"}, "fusion_lon": 0.0}, {"lat": 38.94306783333333, "is_disabled": 0, "type": "electric_scooter", "lon": -77.0592455, "bike_id": "6ce7bef29f6d21fa77818b9d0a822e5d", "fusion_lat": 0.0, "name": "6ce7bef29f6d21fa77818b9d0a822e5d", "is_reserved": 0, "rental_uris": {"android": "https://dc.lft.to/lastmile_qr_scan", "ios": "https://dc.lft.to/lastmile_qr_scan"}, "fusion_lon": 0.0}, {"lat": 38.917067, "is_disabled": 0, "type": "electric_scooter", "lon": -77.03032083333333, "bike_id": "ab228265bd5be97b8e1b9bac781e6997", "fusion_lat": 0.0, "name": "ab228265bd5be97b8e1b9bac781e6997", "is_reserved": 0, "rental_uris": {"android": "https://dc.lft.to/lastmile_qr_scan", "ios": "https://dc.lft.to/lastmile_qr_scan"}, "fusion_lon": 0.0}, {"lat": 38.88139233333333, "is_disabled": 0, "type": "electric_scooter", "lon": -76.98720316666666, "bike_id": "4c1e1d5ef66271c972e23efb9d62f2dd", "fusion_lat": 0.0, "name": "4c1e1d5ef66271c972e23efb9d62f2dd", "is_reserved": 0, "rental_uris": {"android": "https://dc.lft.to/lastmile_qr_scan", "ios": "https://dc.lft.to/lastmile_qr_scan"}, "fusion_lon": 0.0}, {"lat": 38.92840866666667, "is_disabled": 0, "type": "electric_scooter", "lon": -77.05422516666667, "bike_id": "7cc8d4b40063041bde9f275bd5521a3a", "fusion_lat": 0.0, "name": "7cc8d4b40063041bde9f275bd5521a3a", "is_reserved": 0, "rental_uris": {"android": "https://dc.lft.to/lastmile_qr_scan", "ios": "https://dc.lft.to/lastmile_qr_scan"}, "fusion_lon": 0.0}, {"lat": 38.909919333333335, "is_disabled": 0, "type": "electric_scooter", "lon": -76.99739566666666, "bike_id": "159184f58563c954d63e34cfd7b7e266", "fusion_lat": 0.0, "name": "159184f58563c954d63e34cfd7b7e266", "is_reserved": 0, "rental_uris": {"android": "https://dc.lft.to/lastmile_qr_scan", "ios": "https://dc.lft.to/lastmile_qr_scan"}, "fusion_lon": 0.0}, {"lat": 38.866571666666665, "is_disabled": 0, "type": "electric_scooter", "lon": -76.98907533333333, "bike_id": "3d50f71bb59e3b11b138252c3771d844", "fusion_lat": 0.0, "name": "3d50f71bb59e3b11b138252c3771d844", "is_reserved": 0, "rental_uris": {"android": "https://dc.lft.to/lastmile_qr_scan", "ios": "https://dc.lft.to/lastmile_qr_scan"}, "fusion_lon": 0.0}, {"lat": 38.910138833333335, "is_disabled": 0, "type": "electric_scooter", "lon": -77.03017083333333, "bike_id": "fab9aa45d38417aa171fe0b2829764f9", "fusion_lat": 0.0, "name": "fab9aa45d38417aa171fe0b2829764f9", "is_reserved": 0, "rental_uris": {"android": "https://dc.lft.to/lastmile_qr_scan", "ios": "https://dc.lft.to/lastmile_qr_scan"}, "fusion_lon": 0.0}, {"lat": 38.931406, "is_disabled": 0, "type": "electric_scooter", "lon": -77.02133683333334, "bike_id": "e09cedb9b5fcdc20044493d6df436b7d", "fusion_lat": 0.0, "name": "e09cedb9b5fcdc20044493d6df436b7d", "is_reserved": 0, "rental_uris": {"android": "https://dc.lft.to/lastmile_qr_scan", "ios": "https://dc.lft.to/lastmile_qr_scan"}, "fusion_lon": 0.0}, {"lat": 38.930583, "is_disabled": 0, "type": "electric_scooter", "lon": -77.03672633333333, "bike_id": "dfd523d559903a0f1cf2f295fb625832", "fusion_lat": 0.0, "name": "dfd523d559903a0f1cf2f295fb625832", "is_reserved": 0, "rental_uris": {"android": "https://dc.lft.to/lastmile_qr_scan", "ios": "https://dc.lft.to/lastmile_qr_scan"}, "fusion_lon": 0.0}, {"lat": 38.91710666666667, "is_disabled": 0, "type": "electric_scooter", "lon": -77.0289735, "bike_id": "178470e587b27a01c269acd475cdffb0", "fusion_lat": 0.0, "name": "178470e587b27a01c269acd475cdffb0", "is_reserved": 0, "rental_uris": {"android": "https://dc.lft.to/lastmile_qr_scan", "ios": "https://dc.lft.to/lastmile_qr_scan"}, "fusion_lon": 0.0}, {"lat": 38.89645433333333, "is_disabled": 0, "type": "electric_scooter", "lon": -77.04669783333334, "bike_id": "675dc4a623975a85e9117f6101f628ba", "fusion_lat": 0.0, "name": "675dc4a623975a85e9117f6101f628ba", "is_reserved": 0, "rental_uris": {"android": "https://dc.lft.to/lastmile_qr_scan", "ios": "https://dc.lft.to/lastmile_qr_scan"}, "fusion_lon": 0.0}, {"lat": 38.90653916666667, "is_disabled": 0, "type": "electric_scooter", "lon": -77.0083015, "bike_id": "8f44d460eec92a09dc4155d178cfa305", "fusion_lat": 0.0, "name": "8f44d460eec92a09dc4155d178cfa305", "is_reserved": 0, "rental_uris": {"android": "https://dc.lft.to/lastmile_qr_scan", "ios": "https://dc.lft.to/lastmile_qr_scan"}, "fusion_lon": 0.0}, {"lat": 38.9384475, "is_disabled": 0, "type": "electric_scooter", "lon": -77.033989, "bike_id": "b927b464e0506ec47d1a2fe4526ed063", "fusion_lat": 0.0, "name": "b927b464e0506ec47d1a2fe4526ed063", "is_reserved": 0, "rental_uris": {"android": "https://dc.lft.to/lastmile_qr_scan", "ios": "https://dc.lft.to/lastmile_qr_scan"}, "fusion_lon": 0.0}, {"lat": 38.86662883333333, "is_disabled": 0, "type": "electric_scooter", "lon": -76.990142, "bike_id": "9026ab7d7c85f42543a8232258230920", "fusion_lat": 0.0, "name": "9026ab7d7c85f42543a8232258230920", "is_reserved": 0, "rental_uris": {"android": "https://dc.lft.to/lastmile_qr_scan", "ios": "https://dc.lft.to/lastmile_qr_scan"}, "fusion_lon": 0.0}, {"lat": 38.9004665, "is_disabled": 0, "type": "electric_scooter", "lon": -76.9950245, "bike_id": "4bd5a27b9bfab49d4161141127f01f20", "fusion_lat": 0.0, "name": "4bd5a27b9bfab49d4161141127f01f20", "is_reserved": 0, "rental_uris": {"android": "https://dc.lft.to/lastmile_qr_scan", "ios": "https://dc.lft.to/lastmile_qr_scan"}, "fusion_lon": 0.0}, {"lat": 38.904649166666665, "is_disabled": 0, "type": "electric_scooter", "lon": -77.0295055, "bike_id": "3c3e75241da70bbe55afb0491e57c825", "fusion_lat": 0.0, "name": "3c3e75241da70bbe55afb0491e57c825", "is_reserved": 0, "rental_uris": {"android": "https://dc.lft.to/lastmile_qr_scan", "ios": "https://dc.lft.to/lastmile_qr_scan"}, "fusion_lon": 0.0}, {"lat": 38.908267, "is_disabled": 0, "type": "electric_scooter", "lon": -76.9414705, "bike_id": "014d793cc7b23ce6e3389e6f34f7f3a5", "fusion_lat": 0.0, "name": "014d793cc7b23ce6e3389e6f34f7f3a5", "is_reserved": 0, "rental_uris": {"android": "https://dc.lft.to/lastmile_qr_scan", "ios": "https://dc.lft.to/lastmile_qr_scan"}, "fusion_lon": 0.0}, {"lat": 38.88409683333333, "is_disabled": 0, "type": "electric_bike", "lon": -76.96056816666666, "bike_id": "0989e629bc034c996c7b1087167fa297", "fusion_lat": 0.0, "name": "0989e629bc034c996c7b1087167fa297", "is_reserved": 0, "rental_uris": {"android": "https://dc.lft.to/lastmile_qr_scan", "ios": "https://dc.lft.to/lastmile_qr_scan"}, "fusion_lon": 0.0}, {"lat": 38.92482066666667, "is_disabled": 0, "type": "electric_scooter", "lon": -77.02721966666667, "bike_id": "edacfabfc2a1d06ea6472270d9c1e439", "fusion_lat": 0.0, "name": "edacfabfc2a1d06ea6472270d9c1e439", "is_reserved": 0, "rental_uris": {"android": "https://dc.lft.to/lastmile_qr_scan", "ios": "https://dc.lft.to/lastmile_qr_scan"}, "fusion_lon": 0.0}, {"lat": 38.8398615, "is_disabled": 0, "type": "electric_bike", "lon": -77.005645, "bike_id": "2bd861e56a1b6270249704ca3c7136bc", "fusion_lat": 0.0, "name": "2bd861e56a1b6270249704ca3c7136bc", "is_reserved": 0, "rental_uris": {"android": "https://dc.lft.to/lastmile_qr_scan", "ios": "https://dc.lft.to/lastmile_qr_scan"}, "fusion_lon": 0.0}, {"lat": 38.91733933333333, "is_disabled": 0, "type": "electric_scooter", "lon": -77.04099683333334, "bike_id": "15e18169628a05596a6070b28e9dadbe", "fusion_lat": 0.0, "name": "15e18169628a05596a6070b28e9dadbe", "is_reserved": 0, "rental_uris": {"android": "https://dc.lft.to/lastmile_qr_scan", "ios": "https://dc.lft.to/lastmile_qr_scan"}, "fusion_lon": 0.0}, {"lat": 38.84577616666667, "is_disabled": 0, "type": "electric_bike", "lon": -77.09620633333333, "bike_id": "1864b9003f4b5b7813d7a27b1beb2635", "fusion_lat": 0.0, "name": "1864b9003f4b5b7813d7a27b1beb2635", "is_reserved": 0, "rental_uris": {"android": "https://dc.lft.to/lastmile_qr_scan", "ios": "https://dc.lft.to/lastmile_qr_scan"}, "fusion_lon": 0.0}, {"lat": 38.9126015, "is_disabled": 0, "type": "electric_scooter", "lon": -77.01356266666667, "bike_id": "d83488f6defc1d37103d7e7cbd8354f9", "fusion_lat": 0.0, "name": "d83488f6defc1d37103d7e7cbd8354f9", "is_reserved": 0, "rental_uris": {"android": "https://dc.lft.to/lastmile_qr_scan", "ios": "https://dc.lft.to/lastmile_qr_scan"}, "fusion_lon": 0.0}, {"lat": 38.91612166666667, "is_disabled": 0, "type": "electric_scooter", "lon": -77.03279566666667, "bike_id": "e35c1a66c327a7b1e24dadda3d7580d8", "fusion_lat": 0.0, "name": "e35c1a66c327a7b1e24dadda3d7580d8", "is_reserved": 0, "rental_uris": {"android": "https://dc.lft.to/lastmile_qr_scan", "ios": "https://dc.lft.to/lastmile_qr_scan"}, "fusion_lon": 0.0}, {"lat": 38.91113633333333, "is_disabled": 0, "type": "electric_scooter", "lon": -77.02154733333333, "bike_id": "68b92827afffb6c209b8841d992d33b2", "fusion_lat": 0.0, "name": "68b92827afffb6c209b8841d992d33b2", "is_reserved": 0, "rental_uris": {"android": "https://dc.lft.to/lastmile_qr_scan", "ios": "https://dc.lft.to/lastmile_qr_scan"}, "fusion_lon": 0.0}, {"lat": 38.91184066666667, "is_disabled": 0, "type": "electric_bike", "lon": -77.00268116666666, "bike_id": "f990b978dcfd529fe6f5f1ae0c76b107", "fusion_lat": 0.0, "name": "f990b978dcfd529fe6f5f1ae0c76b107", "is_reserved": 0, "rental_uris": {"android": "https://dc.lft.to/lastmile_qr_scan", "ios": "https://dc.lft.to/lastmile_qr_scan"}, "fusion_lon": 0.0}, {"lat": 38.930926666666664, "is_disabled": 0, "type": "electric_scooter", "lon": -77.0250795, "bike_id": "2ea2773768fdaaccd8b9efab2ed714bb", "fusion_lat": 0.0, "name": "2ea2773768fdaaccd8b9efab2ed714bb", "is_reserved": 0, "rental_uris": {"android": "https://dc.lft.to/lastmile_qr_scan", "ios": "https://dc.lft.to/lastmile_qr_scan"}, "fusion_lon": 0.0}, {"lat": 38.91405566666667, "is_disabled": 0, "type": "electric_scooter", "lon": -77.03224933333334, "bike_id": "a6603f3625438f68a6448fefa159564e", "fusion_lat": 0.0, "name": "a6603f3625438f68a6448fefa159564e", "is_reserved": 0, "rental_uris": {"android": "https://dc.lft.to/lastmile_qr_scan", "ios": "https://dc.lft.to/lastmile_qr_scan"}, "fusion_lon": 0.0}, {"lat": 38.900281166666666, "is_disabled": 0, "type": "electric_scooter", "lon": -76.98803116666667, "bike_id": "7c117f7c2fd62cecdafd2cdbfa075b77", "fusion_lat": 0.0, "name": "7c117f7c2fd62cecdafd2cdbfa075b77", "is_reserved": 0, "rental_uris": {"android": "https://dc.lft.to/lastmile_qr_scan", "ios": "https://dc.lft.to/lastmile_qr_scan"}, "fusion_lon": 0.0}, {"lat": 38.907304, "is_disabled": 0, "type": "electric_scooter", "lon": -77.03209266666667, "bike_id": "f20cbdf5111d362076ad93f484a0f0fd", "fusion_lat": 0.0, "name": "f20cbdf5111d362076ad93f484a0f0fd", "is_reserved": 0, "rental_uris": {"android": "https://dc.lft.to/lastmile_qr_scan", "ios": "https://dc.lft.to/lastmile_qr_scan"}, "fusion_lon": 0.0}, {"lat": 38.867152833333336, "is_disabled": 0, "type": "electric_scooter", "lon": -76.9872345, "bike_id": "c2fab5a90d7cee33c86f02bcf1c46a70", "fusion_lat": 0.0, "name": "c2fab5a90d7cee33c86f02bcf1c46a70", "is_reserved": 0, "rental_uris": {"android": "https://dc.lft.to/lastmile_qr_scan", "ios": "https://dc.lft.to/lastmile_qr_scan"}, "fusion_lon": 0.0}, {"lat": 38.927043166666664, "is_disabled": 0, "type": "electric_scooter", "lon": -77.02096033333333, "bike_id": "ac97cdbb31f0b2843060023b8a6fa67f", "fusion_lat": 0.0, "name": "ac97cdbb31f0b2843060023b8a6fa67f", "is_reserved": 0, "rental_uris": {"android": "https://dc.lft.to/lastmile_qr_scan", "ios": "https://dc.lft.to/lastmile_qr_scan"}, "fusion_lon": 0.0}, {"lat": 38.902692333333334, "is_disabled": 0, "type": "electric_scooter", "lon": -77.03953966666667, "bike_id": "dae26175e92e8de7bc21fdc9ed7a86c0", "fusion_lat": 0.0, "name": "dae26175e92e8de7bc21fdc9ed7a86c0", "is_reserved": 0, "rental_uris": {"android": "https://dc.lft.to/lastmile_qr_scan", "ios": "https://dc.lft.to/lastmile_qr_scan"}, "fusion_lon": 0.0}, {"lat": 38.9024045, "is_disabled": 0, "type": "electric_scooter", "lon": -77.053406, "bike_id": "3cc3abd616b198d87885a262406c4f88", "fusion_lat": 0.0, "name": "3cc3abd616b198d87885a262406c4f88", "is_reserved": 0, "rental_uris": {"android": "https://dc.lft.to/lastmile_qr_scan", "ios": "https://dc.lft.to/lastmile_qr_scan"}, "fusion_lon": 0.0}, {"lat": 38.8714215, "is_disabled": 0, "type": "electric_bike", "lon": -76.9369915, "bike_id": "97a3f67c521fc5a11dd8f3334eb0c3db", "fusion_lat": 0.0, "name": "97a3f67c521fc5a11dd8f3334eb0c3db", "is_reserved": 0, "rental_uris": {"android": "https://dc.lft.to/lastmile_qr_scan", "ios": "https://dc.lft.to/lastmile_qr_scan"}, "fusion_lon": 0.0}, {"lat": 38.906024, "is_disabled": 0, "type": "electric_scooter", "lon": -77.04692633333333, "bike_id": "d5a65303d163012bed2a8822b9151066", "fusion_lat": 0.0, "name": "d5a65303d163012bed2a8822b9151066", "is_reserved": 0, "rental_uris": {"android": "https://dc.lft.to/lastmile_qr_scan", "ios": "https://dc.lft.to/lastmile_qr_scan"}, "fusion_lon": 0.0}, {"lat": 38.926801166666664, "is_disabled": 0, "type": "electric_scooter", "lon": -77.007412, "bike_id": "e3ae23d0df113aa97184ca59abcef1d4", "fusion_lat": 0.0, "name": "e3ae23d0df113aa97184ca59abcef1d4", "is_reserved": 0, "rental_uris": {"android": "https://dc.lft.to/lastmile_qr_scan", "ios": "https://dc.lft.to/lastmile_qr_scan"}, "fusion_lon": 0.0}, {"lat": 38.8846445, "is_disabled": 0, "type": "electric_scooter", "lon": -77.015398, "bike_id": "a800994cf1fdbd733ff2cd3d43ba44ad", "fusion_lat": 0.0, "name": "a800994cf1fdbd733ff2cd3d43ba44ad", "is_reserved": 0, "rental_uris": {"android": "https://dc.lft.to/lastmile_qr_scan", "ios": "https://dc.lft.to/lastmile_qr_scan"}, "fusion_lon": 0.0}, {"lat": 38.891463, "is_disabled": 0, "type": "electric_bike", "lon": -77.11307, "bike_id": "71116c41063f42be41fc5b0c38309517", "fusion_lat": 0.0, "name": "71116c41063f42be41fc5b0c38309517", "is_reserved": 0, "rental_uris": {"android": "https://dc.lft.to/lastmile_qr_scan", "ios": "https://dc.lft.to/lastmile_qr_scan"}, "fusion_lon": 0.0}, {"lat": 38.90032566666667, "is_disabled": 0, "type": "electric_scooter", "lon": -77.00194116666667, "bike_id": "fd452d4e34ec8ad0638b9bde1427ef80", "fusion_lat": 0.0, "name": "fd452d4e34ec8ad0638b9bde1427ef80", "is_reserved": 0, "rental_uris": {"android": "https://dc.lft.to/lastmile_qr_scan", "ios": "https://dc.lft.to/lastmile_qr_scan"}, "fusion_lon": 0.0}, {"lat": 38.892241166666665, "is_disabled": 0, "type": "electric_bike", "lon": -77.10781116666666, "bike_id": "6b73f3655e118383b884e4317586ea97", "fusion_lat": 0.0, "name": "6b73f3655e118383b884e4317586ea97", "is_reserved": 0, "rental_uris": {"android": "https://dc.lft.to/lastmile_qr_scan", "ios": "https://dc.lft.to/lastmile_qr_scan"}, "fusion_lon": 0.0}, {"lat": 38.920231666666666, "is_disabled": 0, "type": "electric_scooter", "lon": -77.03123316666667, "bike_id": "357efaaa497d7776ff3c962d083bfc43", "fusion_lat": 0.0, "name": "357efaaa497d7776ff3c962d083bfc43", "is_reserved": 0, "rental_uris": {"android": "https://dc.lft.to/lastmile_qr_scan", "ios": "https://dc.lft.to/lastmile_qr_scan"}, "fusion_lon": 0.0}, {"lat": 38.898325166666666, "is_disabled": 0, "type": "electric_scooter", "lon": -77.00740683333333, "bike_id": "016bff30b2d0bca642b51c37d42d0ccf", "fusion_lat": 0.0, "name": "016bff30b2d0bca642b51c37d42d0ccf", "is_reserved": 0, "rental_uris": {"android": "https://dc.lft.to/lastmile_qr_scan", "ios": "https://dc.lft.to/lastmile_qr_scan"}, "fusion_lon": 0.0}, {"lat": 38.908222333333335, "is_disabled": 0, "type": "electric_scooter", "lon": -76.99673283333334, "bike_id": "7412365e982622571e03180bdabbaca3", "fusion_lat": 0.0, "name": "7412365e982622571e03180bdabbaca3", "is_reserved": 0, "rental_uris": {"android": "https://dc.lft.to/lastmile_qr_scan", "ios": "https://dc.lft.to/lastmile_qr_scan"}, "fusion_lon": 0.0}, {"lat": 38.9173805, "is_disabled": 0, "type": "electric_scooter", "lon": -77.03661283333334, "bike_id": "afd5e73c7ee9751f6a490507bc6c1dbd", "fusion_lat": 0.0, "name": "afd5e73c7ee9751f6a490507bc6c1dbd", "is_reserved": 0, "rental_uris": {"android": "https://dc.lft.to/lastmile_qr_scan", "ios": "https://dc.lft.to/lastmile_qr_scan"}, "fusion_lon": 0.0}, {"lat": 38.90038233333333, "is_disabled": 0, "type": "electric_scooter", "lon": -77.00537283333334, "bike_id": "9febac825d35e9fc989eab8864c8deba", "fusion_lat": 0.0, "name": "9febac825d35e9fc989eab8864c8deba", "is_reserved": 0, "rental_uris": {"android": "https://dc.lft.to/lastmile_qr_scan", "ios": "https://dc.lft.to/lastmile_qr_scan"}, "fusion_lon": 0.0}, {"lat": 38.957442, "is_disabled": 0, "type": "electric_bike", "lon": -77.0232065, "bike_id": "e0e1e3cae9106a28b050c9faf86cae3b", "fusion_lat": 0.0, "name": "e0e1e3cae9106a28b050c9faf86cae3b", "is_reserved": 0, "rental_uris": {"android": "https://dc.lft.to/lastmile_qr_scan", "ios": "https://dc.lft.to/lastmile_qr_scan"}, "fusion_lon": 0.0}, {"lat": 38.924801, "is_disabled": 0, "type": "electric_scooter", "lon": -77.02838333333334, "bike_id": "c0f276327029207190968403c32a26e5", "fusion_lat": 0.0, "name": "c0f276327029207190968403c32a26e5", "is_reserved": 0, "rental_uris": {"android": "https://dc.lft.to/lastmile_qr_scan", "ios": "https://dc.lft.to/lastmile_qr_scan"}, "fusion_lon": 0.0}, {"lat": 38.898231833333334, "is_disabled": 0, "type": "electric_scooter", "lon": -76.9969135, "bike_id": "90f2b276f3722b997ba98b0537d53a2c", "fusion_lat": 0.0, "name": "90f2b276f3722b997ba98b0537d53a2c", "is_reserved": 0, "rental_uris": {"android": "https://dc.lft.to/lastmile_qr_scan", "ios": "https://dc.lft.to/lastmile_qr_scan"}, "fusion_lon": 0.0}, {"lat": 38.917490666666666, "is_disabled": 0, "type": "electric_scooter", "lon": -77.03190216666667, "bike_id": "8312a2ad8180be0158596a0aeeecc398", "fusion_lat": 0.0, "name": "8312a2ad8180be0158596a0aeeecc398", "is_reserved": 0, "rental_uris": {"android": "https://dc.lft.to/lastmile_qr_scan", "ios": "https://dc.lft.to/lastmile_qr_scan"}, "fusion_lon": 0.0}, {"lat": 38.927572833333336, "is_disabled": 0, "type": "electric_scooter", "lon": -77.03217633333334, "bike_id": "6f08fc62ae99917e71b809e4a00163fe", "fusion_lat": 0.0, "name": "6f08fc62ae99917e71b809e4a00163fe", "is_reserved": 0, "rental_uris": {"android": "https://dc.lft.to/lastmile_qr_scan", "ios": "https://dc.lft.to/lastmile_qr_scan"}, "fusion_lon": 0.0}, {"lat": 38.923616833333334, "is_disabled": 0, "type": "electric_scooter", "lon": -77.04127033333333, "bike_id": "5f1941ca0705b050e925dc2d34ed9cd8", "fusion_lat": 0.0, "name": "5f1941ca0705b050e925dc2d34ed9cd8", "is_reserved": 0, "rental_uris": {"android": "https://dc.lft.to/lastmile_qr_scan", "ios": "https://dc.lft.to/lastmile_qr_scan"}, "fusion_lon": 0.0}, {"lat": 38.906280333333335, "is_disabled": 0, "type": "electric_scooter", "lon": -77.0397655, "bike_id": "f8a760d8f390a68ef72f4d1e1af5c060", "fusion_lat": 0.0, "name": "f8a760d8f390a68ef72f4d1e1af5c060", "is_reserved": 0, "rental_uris": {"android": "https://dc.lft.to/lastmile_qr_scan", "ios": "https://dc.lft.to/lastmile_qr_scan"}, "fusion_lon": 0.0}, {"lat": 38.9172555, "is_disabled": 0, "type": "electric_scooter", "lon": -77.0271155, "bike_id": "ddf7aeea09436b578e8342e7dc7cb4d2", "fusion_lat": 0.0, "name": "ddf7aeea09436b578e8342e7dc7cb4d2", "is_reserved": 0, "rental_uris": {"android": "https://dc.lft.to/lastmile_qr_scan", "ios": "https://dc.lft.to/lastmile_qr_scan"}, "fusion_lon": 0.0}, {"lat": 38.886406666666666, "is_disabled": 0, "type": "electric_bike", "lon": -76.95470366666666, "bike_id": "c897d1a838b30e4057f18b38a98f3dab", "fusion_lat": 0.0, "name": "c897d1a838b30e4057f18b38a98f3dab", "is_reserved": 0, "rental_uris": {"android": "https://dc.lft.to/lastmile_qr_scan", "ios": "https://dc.lft.to/lastmile_qr_scan"}, "fusion_lon": 0.0}, {"lat": 38.91483933333333, "is_disabled": 0, "type": "electric_scooter", "lon": -77.0094055, "bike_id": "d89c5472193b8924129ea5241d40b5ac", "fusion_lat": 0.0, "name": "d89c5472193b8924129ea5241d40b5ac", "is_reserved": 0, "rental_uris": {"android": "https://dc.lft.to/lastmile_qr_scan", "ios": "https://dc.lft.to/lastmile_qr_scan"}, "fusion_lon": 0.0}, {"lat": 38.862340333333336, "is_disabled": 0, "type": "electric_scooter", "lon": -76.9954675, "bike_id": "f2ee0e6080545f1c8cc5f96a6c371a2b", "fusion_lat": 0.0, "name": "f2ee0e6080545f1c8cc5f96a6c371a2b", "is_reserved": 0, "rental_uris": {"android": "https://dc.lft.to/lastmile_qr_scan", "ios": "https://dc.lft.to/lastmile_qr_scan"}, "fusion_lon": 0.0}, {"lat": 38.9615565, "is_disabled": 0, "type": "electric_scooter", "lon": -77.02769783333333, "bike_id": "b6d955dc6e1a274bee9ed4e074ec4484", "fusion_lat": 0.0, "name": "b6d955dc6e1a274bee9ed4e074ec4484", "is_reserved": 0, "rental_uris": {"android": "https://dc.lft.to/lastmile_qr_scan", "ios": "https://dc.lft.to/lastmile_qr_scan"}, "fusion_lon": 0.0}, {"lat": 39.05634216666667, "is_disabled": 0, "type": "electric_bike", "lon": -77.12527933333334, "bike_id": "ffdab40428527ab2e91f3882a411c732", "fusion_lat": 0.0, "name": "ffdab40428527ab2e91f3882a411c732", "is_reserved": 0, "rental_uris": {"android": "https://dc.lft.to/lastmile_qr_scan", "ios": "https://dc.lft.to/lastmile_qr_scan"}, "fusion_lon": 0.0}, {"lat": 38.88580366666667, "is_disabled": 0, "type": "electric_scooter", "lon": -76.9190985, "bike_id": "cdd6503af5ca5065948b58bdf0f65447", "fusion_lat": 0.0, "name": "cdd6503af5ca5065948b58bdf0f65447", "is_reserved": 0, "rental_uris": {"android": "https://dc.lft.to/lastmile_qr_scan", "ios": "https://dc.lft.to/lastmile_qr_scan"}, "fusion_lon": 0.0}, {"lat": 38.90597316666667, "is_disabled": 0, "type": "electric_scooter", "lon": -77.05807733333333, "bike_id": "8809e2508cbc5325f0c5366730c8bb52", "fusion_lat": 0.0, "name": "8809e2508cbc5325f0c5366730c8bb52", "is_reserved": 0, "rental_uris": {"android": "https://dc.lft.to/lastmile_qr_scan", "ios": "https://dc.lft.to/lastmile_qr_scan"}, "fusion_lon": 0.0}, {"lat": 38.90441916666666, "is_disabled": 0, "type": "electric_scooter", "lon": -77.06117966666666, "bike_id": "7b5c66c2bbf2aca46b4b42f094593443", "fusion_lat": 0.0, "name": "7b5c66c2bbf2aca46b4b42f094593443", "is_reserved": 0, "rental_uris": {"android": "https://dc.lft.to/lastmile_qr_scan", "ios": "https://dc.lft.to/lastmile_qr_scan"}, "fusion_lon": 0.0}, {"lat": 38.89919716666667, "is_disabled": 0, "type": "electric_scooter", "lon": -76.933817, "bike_id": "29d0e47f56acd464a813d937288a7838", "fusion_lat": 0.0, "name": "29d0e47f56acd464a813d937288a7838", "is_reserved": 0, "rental_uris": {"android": "https://dc.lft.to/lastmile_qr_scan", "ios": "https://dc.lft.to/lastmile_qr_scan"}, "fusion_lon": 0.0}, {"lat": 38.863507166666665, "is_disabled": 0, "type": "electric_scooter", "lon": -76.98998483333334, "bike_id": "d4e780d13ca01e5f76ad878ec739a20c", "fusion_lat": 0.0, "name": "d4e780d13ca01e5f76ad878ec739a20c", "is_reserved": 0, "rental_uris": {"android": "https://dc.lft.to/lastmile_qr_scan", "ios": "https://dc.lft.to/lastmile_qr_scan"}, "fusion_lon": 0.0}, {"lat": 38.842969833333335, "is_disabled": 0, "type": "electric_scooter", "lon": -76.99948716666667, "bike_id": "ca95f801701ee3b02e5b1b93d371b642", "fusion_lat": 0.0, "name": "ca95f801701ee3b02e5b1b93d371b642", "is_reserved": 0, "rental_uris": {"android": "https://dc.lft.to/lastmile_qr_scan", "ios": "https://dc.lft.to/lastmile_qr_scan"}, "fusion_lon": 0.0}, {"lat": 38.8965675, "is_disabled": 0, "type": "electric_scooter", "lon": -77.01980116666667, "bike_id": "4116ab9c318779ccbd95324cc2e67d87", "fusion_lat": 0.0, "name": "4116ab9c318779ccbd95324cc2e67d87", "is_reserved": 0, "rental_uris": {"android": "https://dc.lft.to/lastmile_qr_scan", "ios": "https://dc.lft.to/lastmile_qr_scan"}, "fusion_lon": 0.0}, {"lat": 38.912689666666665, "is_disabled": 0, "type": "electric_scooter", "lon": -77.01304966666666, "bike_id": "b0924ac8e2b617abbce133976d21c95c", "fusion_lat": 0.0, "name": "b0924ac8e2b617abbce133976d21c95c", "is_reserved": 0, "rental_uris": {"android": "https://dc.lft.to/lastmile_qr_scan", "ios": "https://dc.lft.to/lastmile_qr_scan"}, "fusion_lon": 0.0}, {"lat": 38.958779166666666, "is_disabled": 0, "type": "electric_scooter", "lon": -77.02735083333333, "bike_id": "7a50c7f31f48ad5b25c50156cc9bd5a9", "fusion_lat": 0.0, "name": "7a50c7f31f48ad5b25c50156cc9bd5a9", "is_reserved": 0, "rental_uris": {"android": "https://dc.lft.to/lastmile_qr_scan", "ios": "https://dc.lft.to/lastmile_qr_scan"}, "fusion_lon": 0.0}, {"lat": 38.955600833333335, "is_disabled": 0, "type": "electric_bike", "lon": -76.93542633333334, "bike_id": "24c56fe5b09c1fd1e8b5f1a88a790365", "fusion_lat": 0.0, "name": "24c56fe5b09c1fd1e8b5f1a88a790365", "is_reserved": 0, "rental_uris": {"android": "https://dc.lft.to/lastmile_qr_scan", "ios": "https://dc.lft.to/lastmile_qr_scan"}, "fusion_lon": 0.0}, {"lat": 38.898800333333334, "is_disabled": 0, "type": "electric_bike", "lon": -77.02134466666666, "bike_id": "de6da541a2dbb881507ec7c06f87f8e8", "fusion_lat": 0.0, "name": "de6da541a2dbb881507ec7c06f87f8e8", "is_reserved": 0, "rental_uris": {"android": "https://dc.lft.to/lastmile_qr_scan", "ios": "https://dc.lft.to/lastmile_qr_scan"}, "fusion_lon": 0.0}, {"lat": 38.92689016666667, "is_disabled": 0, "type": "electric_scooter", "lon": -77.05104916666667, "bike_id": "5afe2cbb9b5b762c4bea8841acd5326d", "fusion_lat": 0.0, "name": "5afe2cbb9b5b762c4bea8841acd5326d", "is_reserved": 0, "rental_uris": {"android": "https://dc.lft.to/lastmile_qr_scan", "ios": "https://dc.lft.to/lastmile_qr_scan"}, "fusion_lon": 0.0}, {"lat": 38.9111265, "is_disabled": 0, "type": "electric_scooter", "lon": -77.02171283333334, "bike_id": "6a61acd4f1057f54484b1cd8e126b8df", "fusion_lat": 0.0, "name": "6a61acd4f1057f54484b1cd8e126b8df", "is_reserved": 0, "rental_uris": {"android": "https://dc.lft.to/lastmile_qr_scan", "ios": "https://dc.lft.to/lastmile_qr_scan"}, "fusion_lon": 0.0}, {"lat": 38.866575166666664, "is_disabled": 0, "type": "electric_scooter", "lon": -76.988858, "bike_id": "64f760b6ec3e586aefa64ad45968bb5a", "fusion_lat": 0.0, "name": "64f760b6ec3e586aefa64ad45968bb5a", "is_reserved": 0, "rental_uris": {"android": "https://dc.lft.to/lastmile_qr_scan", "ios": "https://dc.lft.to/lastmile_qr_scan"}, "fusion_lon": 0.0}, {"lat": 38.920699, "is_disabled": 0, "type": "electric_scooter", "lon": -77.02492733333334, "bike_id": "2de3153a525ffda4e2d736bb95ddfaae", "fusion_lat": 0.0, "name": "2de3153a525ffda4e2d736bb95ddfaae", "is_reserved": 0, "rental_uris": {"android": "https://dc.lft.to/lastmile_qr_scan", "ios": "https://dc.lft.to/lastmile_qr_scan"}, "fusion_lon": 0.0}, {"lat": 38.90051416666667, "is_disabled": 0, "type": "electric_scooter", "lon": -77.02911033333334, "bike_id": "4b16e6c931e1d44a29b724fb32be9b3d", "fusion_lat": 0.0, "name": "4b16e6c931e1d44a29b724fb32be9b3d", "is_reserved": 0, "rental_uris": {"android": "https://dc.lft.to/lastmile_qr_scan", "ios": "https://dc.lft.to/lastmile_qr_scan"}, "fusion_lon": 0.0}, {"lat": 38.89519116666666, "is_disabled": 0, "type": "electric_scooter", "lon": -76.97731616666667, "bike_id": "f1cd50e55f45820172a940d69ac955ae", "fusion_lat": 0.0, "name": "f1cd50e55f45820172a940d69ac955ae", "is_reserved": 0, "rental_uris": {"android": "https://dc.lft.to/lastmile_qr_scan", "ios": "https://dc.lft.to/lastmile_qr_scan"}, "fusion_lon": 0.0}, {"lat": 38.89218533333333, "is_disabled": 0, "type": "electric_scooter", "lon": -77.02158616666667, "bike_id": "1d379636e8508caabd9b31de071840d4", "fusion_lat": 0.0, "name": "1d379636e8508caabd9b31de071840d4", "is_reserved": 0, "rental_uris": {"android": "https://dc.lft.to/lastmile_qr_scan", "ios": "https://dc.lft.to/lastmile_qr_scan"}, "fusion_lon": 0.0}, {"lat": 38.921973666666666, "is_disabled": 0, "type": "electric_scooter", "lon": -77.041329, "bike_id": "74b7e07e93f446f5db96a78650442308", "fusion_lat": 0.0, "name": "74b7e07e93f446f5db96a78650442308", "is_reserved": 0, "rental_uris": {"android": "https://dc.lft.to/lastmile_qr_scan", "ios": "https://dc.lft.to/lastmile_qr_scan"}, "fusion_lon": 0.0}, {"lat": 38.912928666666666, "is_disabled": 0, "type": "electric_scooter", "lon": -77.0451245, "bike_id": "07c6e6e6afd66cb1905b35d47abb9b1a", "fusion_lat": 0.0, "name": "07c6e6e6afd66cb1905b35d47abb9b1a", "is_reserved": 0, "rental_uris": {"android": "https://dc.lft.to/lastmile_qr_scan", "ios": "https://dc.lft.to/lastmile_qr_scan"}, "fusion_lon": 0.0}, {"lat": 38.9550155, "is_disabled": 0, "type": "electric_scooter", "lon": -77.0656815, "bike_id": "3ed6d302a31a739e3384cd0fe6249da0", "fusion_lat": 0.0, "name": "3ed6d302a31a739e3384cd0fe6249da0", "is_reserved": 0, "rental_uris": {"android": "https://dc.lft.to/lastmile_qr_scan", "ios": "https://dc.lft.to/lastmile_qr_scan"}, "fusion_lon": 0.0}, {"lat": 38.89400766666667, "is_disabled": 0, "type": "electric_scooter", "lon": -77.0558795, "bike_id": "663e25b0ee433a44ada7c6892208539b", "fusion_lat": 0.0, "name": "663e25b0ee433a44ada7c6892208539b", "is_reserved": 0, "rental_uris": {"android": "https://dc.lft.to/lastmile_qr_scan", "ios": "https://dc.lft.to/lastmile_qr_scan"}, "fusion_lon": 0.0}, {"lat": 38.9152565, "is_disabled": 0, "type": "electric_scooter", "lon": -77.0384005, "bike_id": "f1b150560894d8b5e921346413fc700a", "fusion_lat": 0.0, "name": "f1b150560894d8b5e921346413fc700a", "is_reserved": 0, "rental_uris": {"android": "https://dc.lft.to/lastmile_qr_scan", "ios": "https://dc.lft.to/lastmile_qr_scan"}, "fusion_lon": 0.0}, {"lat": 38.930670666666664, "is_disabled": 0, "type": "electric_scooter", "lon": -77.04176383333333, "bike_id": "484672ff59372dceda0c4a32395dc1e6", "fusion_lat": 0.0, "name": "484672ff59372dceda0c4a32395dc1e6", "is_reserved": 0, "rental_uris": {"android": "https://dc.lft.to/lastmile_qr_scan", "ios": "https://dc.lft.to/lastmile_qr_scan"}, "fusion_lon": 0.0}, {"lat": 38.85910533333333, "is_disabled": 0, "type": "electric_scooter", "lon": -76.991457, "bike_id": "d67c5ffe426a4bb4cfb05a0f5dc67881", "fusion_lat": 0.0, "name": "d67c5ffe426a4bb4cfb05a0f5dc67881", "is_reserved": 0, "rental_uris": {"android": "https://dc.lft.to/lastmile_qr_scan", "ios": "https://dc.lft.to/lastmile_qr_scan"}, "fusion_lon": 0.0}, {"lat": 38.93171233333333, "is_disabled": 0, "type": "electric_scooter", "lon": -77.02830416666667, "bike_id": "095eb1bb901e1582adbb71c84691a4be", "fusion_lat": 0.0, "name": "095eb1bb901e1582adbb71c84691a4be", "is_reserved": 0, "rental_uris": {"android": "https://dc.lft.to/lastmile_qr_scan", "ios": "https://dc.lft.to/lastmile_qr_scan"}, "fusion_lon": 0.0}, {"lat": 38.91269966666667, "is_disabled": 0, "type": "electric_scooter", "lon": -77.02267566666667, "bike_id": "4e1ad5b75cc6d54660e50d70357f6669", "fusion_lat": 0.0, "name": "4e1ad5b75cc6d54660e50d70357f6669", "is_reserved": 0, "rental_uris": {"android": "https://dc.lft.to/lastmile_qr_scan", "ios": "https://dc.lft.to/lastmile_qr_scan"}, "fusion_lon": 0.0}, {"lat": 38.90581383333333, "is_disabled": 0, "type": "electric_scooter", "lon": -77.062788, "bike_id": "aab4a948af8a8dd66cb0a77428d08b6e", "fusion_lat": 0.0, "name": "aab4a948af8a8dd66cb0a77428d08b6e", "is_reserved": 0, "rental_uris": {"android": "https://dc.lft.to/lastmile_qr_scan", "ios": "https://dc.lft.to/lastmile_qr_scan"}, "fusion_lon": 0.0}, {"lat": 38.907630166666664, "is_disabled": 0, "type": "electric_scooter", "lon": -77.04354366666666, "bike_id": "36947ee55a52cbbe2d4e009278c6be12", "fusion_lat": 0.0, "name": "36947ee55a52cbbe2d4e009278c6be12", "is_reserved": 0, "rental_uris": {"android": "https://dc.lft.to/lastmile_qr_scan", "ios": "https://dc.lft.to/lastmile_qr_scan"}, "fusion_lon": 0.0}, {"lat": 38.8928015, "is_disabled": 0, "type": "electric_scooter", "lon": -77.025997, "bike_id": "3a121384ea76ae87122604fb1a2d9fad", "fusion_lat": 0.0, "name": "3a121384ea76ae87122604fb1a2d9fad", "is_reserved": 0, "rental_uris": {"android": "https://dc.lft.to/lastmile_qr_scan", "ios": "https://dc.lft.to/lastmile_qr_scan"}, "fusion_lon": 0.0}, {"lat": 38.913560333333336, "is_disabled": 0, "type": "electric_scooter", "lon": -77.03187133333333, "bike_id": "8c834fffdfda07a62498a15117c5d6e3", "fusion_lat": 0.0, "name": "8c834fffdfda07a62498a15117c5d6e3", "is_reserved": 0, "rental_uris": {"android": "https://dc.lft.to/lastmile_qr_scan", "ios": "https://dc.lft.to/lastmile_qr_scan"}, "fusion_lon": 0.0}, {"lat": 38.8912665, "is_disabled": 0, "type": "electric_scooter", "lon": -76.94388933333333, "bike_id": "5dab276b2da972ef63d849a9bb62efe5", "fusion_lat": 0.0, "name": "5dab276b2da972ef63d849a9bb62efe5", "is_reserved": 0, "rental_uris": {"android": "https://dc.lft.to/lastmile_qr_scan", "ios": "https://dc.lft.to/lastmile_qr_scan"}, "fusion_lon": 0.0}, {"lat": 38.91700616666667, "is_disabled": 0, "type": "electric_scooter", "lon": -77.0081325, "bike_id": "ee0551a0d98cea277de32e8dc8dcdbe2", "fusion_lat": 0.0, "name": "ee0551a0d98cea277de32e8dc8dcdbe2", "is_reserved": 0, "rental_uris": {"android": "https://dc.lft.to/lastmile_qr_scan", "ios": "https://dc.lft.to/lastmile_qr_scan"}, "fusion_lon": 0.0}, {"lat": 38.936341666666664, "is_disabled": 0, "type": "electric_scooter", "lon": -77.058776, "bike_id": "2440aaca45dc3fced3d5498b6a5d1fe0", "fusion_lat": 0.0, "name": "2440aaca45dc3fced3d5498b6a5d1fe0", "is_reserved": 0, "rental_uris": {"android": "https://dc.lft.to/lastmile_qr_scan", "ios": "https://dc.lft.to/lastmile_qr_scan"}, "fusion_lon": 0.0}, {"lat": 38.93215933333333, "is_disabled": 0, "type": "electric_scooter", "lon": -77.03655733333333, "bike_id": "672363497f0dda885e675c7e5ea62240", "fusion_lat": 0.0, "name": "672363497f0dda885e675c7e5ea62240", "is_reserved": 0, "rental_uris": {"android": "https://dc.lft.to/lastmile_qr_scan", "ios": "https://dc.lft.to/lastmile_qr_scan"}, "fusion_lon": 0.0}, {"lat": 38.907381, "is_disabled": 0, "type": "electric_scooter", "lon": -77.00334683333334, "bike_id": "86ef8c96c8ddf324c93d9985c80b6df7", "fusion_lat": 0.0, "name": "86ef8c96c8ddf324c93d9985c80b6df7", "is_reserved": 0, "rental_uris": {"android": "https://dc.lft.to/lastmile_qr_scan", "ios": "https://dc.lft.to/lastmile_qr_scan"}, "fusion_lon": 0.0}, {"lat": 38.906256166666665, "is_disabled": 0, "type": "electric_scooter", "lon": -76.98983516666667, "bike_id": "4c2acae3d32ba34da1dbf14e9338a6ff", "fusion_lat": 0.0, "name": "4c2acae3d32ba34da1dbf14e9338a6ff", "is_reserved": 0, "rental_uris": {"android": "https://dc.lft.to/lastmile_qr_scan", "ios": "https://dc.lft.to/lastmile_qr_scan"}, "fusion_lon": 0.0}, {"lat": 38.89908883333333, "is_disabled": 0, "type": "electric_scooter", "lon": -76.9335595, "bike_id": "af7a17a4a4840d5e59ad6f526b292d17", "fusion_lat": 0.0, "name": "af7a17a4a4840d5e59ad6f526b292d17", "is_reserved": 0, "rental_uris": {"android": "https://dc.lft.to/lastmile_qr_scan", "ios": "https://dc.lft.to/lastmile_qr_scan"}, "fusion_lon": 0.0}, {"lat": 38.91559383333333, "is_disabled": 0, "type": "electric_scooter", "lon": -77.03168166666667, "bike_id": "c4cfa5af1a8acc2dcd7b62bf13f4628d", "fusion_lat": 0.0, "name": "c4cfa5af1a8acc2dcd7b62bf13f4628d", "is_reserved": 0, "rental_uris": {"android": "https://dc.lft.to/lastmile_qr_scan", "ios": "https://dc.lft.to/lastmile_qr_scan"}, "fusion_lon": 0.0}, {"lat": 38.91014466666667, "is_disabled": 0, "type": "electric_scooter", "lon": -76.99391316666667, "bike_id": "71653cb885918b9306e5c231f417b8c9", "fusion_lat": 0.0, "name": "71653cb885918b9306e5c231f417b8c9", "is_reserved": 0, "rental_uris": {"android": "https://dc.lft.to/lastmile_qr_scan", "ios": "https://dc.lft.to/lastmile_qr_scan"}, "fusion_lon": 0.0}, {"lat": 38.9182635, "is_disabled": 0, "type": "electric_scooter", "lon": -77.03439233333333, "bike_id": "a411b2d9dfb816350ba324303e0111ce", "fusion_lat": 0.0, "name": "a411b2d9dfb816350ba324303e0111ce", "is_reserved": 0, "rental_uris": {"android": "https://dc.lft.to/lastmile_qr_scan", "ios": "https://dc.lft.to/lastmile_qr_scan"}, "fusion_lon": 0.0}, {"lat": 38.904112, "is_disabled": 0, "type": "electric_scooter", "lon": -77.02502916666667, "bike_id": "e7bd501a21d3e0ed7a0377e8fb07b1c1", "fusion_lat": 0.0, "name": "e7bd501a21d3e0ed7a0377e8fb07b1c1", "is_reserved": 0, "rental_uris": {"android": "https://dc.lft.to/lastmile_qr_scan", "ios": "https://dc.lft.to/lastmile_qr_scan"}, "fusion_lon": 0.0}, {"lat": 38.923447333333336, "is_disabled": 0, "type": "electric_scooter", "lon": -77.01906533333333, "bike_id": "dde2aa1f0e42b01fd81de516f5dd562e", "fusion_lat": 0.0, "name": "dde2aa1f0e42b01fd81de516f5dd562e", "is_reserved": 0, "rental_uris": {"android": "https://dc.lft.to/lastmile_qr_scan", "ios": "https://dc.lft.to/lastmile_qr_scan"}, "fusion_lon": 0.0}, {"lat": 38.89826266666667, "is_disabled": 0, "type": "electric_scooter", "lon": -77.02997066666667, "bike_id": "36257b1997be7064a51b4692b1b2743c", "fusion_lat": 0.0, "name": "36257b1997be7064a51b4692b1b2743c", "is_reserved": 0, "rental_uris": {"android": "https://dc.lft.to/lastmile_qr_scan", "ios": "https://dc.lft.to/lastmile_qr_scan"}, "fusion_lon": 0.0}, {"lat": 38.90974583333333, "is_disabled": 0, "type": "electric_scooter", "lon": -77.02166616666666, "bike_id": "226c4ffa8573f46478244f01338b1c08", "fusion_lat": 0.0, "name": "226c4ffa8573f46478244f01338b1c08", "is_reserved": 0, "rental_uris": {"android": "https://dc.lft.to/lastmile_qr_scan", "ios": "https://dc.lft.to/lastmile_qr_scan"}, "fusion_lon": 0.0}, {"lat": 38.883385, "is_disabled": 0, "type": "electric_scooter", "lon": -77.03144516666667, "bike_id": "a074d0738eafcd5a927837211ec97c69", "fusion_lat": 0.0, "name": "a074d0738eafcd5a927837211ec97c69", "is_reserved": 0, "rental_uris": {"android": "https://dc.lft.to/lastmile_qr_scan", "ios": "https://dc.lft.to/lastmile_qr_scan"}, "fusion_lon": 0.0}, {"lat": 38.861077333333334, "is_disabled": 0, "type": "electric_scooter", "lon": -76.98356416666667, "bike_id": "59bbf32a5501eac188302b8f29dacac1", "fusion_lat": 0.0, "name": "59bbf32a5501eac188302b8f29dacac1", "is_reserved": 0, "rental_uris": {"android": "https://dc.lft.to/lastmile_qr_scan", "ios": "https://dc.lft.to/lastmile_qr_scan"}, "fusion_lon": 0.0}, {"lat": 38.9155725, "is_disabled": 0, "type": "electric_scooter", "lon": -77.038319, "bike_id": "953deb339d245a859fe086b9f21aee03", "fusion_lat": 0.0, "name": "953deb339d245a859fe086b9f21aee03", "is_reserved": 0, "rental_uris": {"android": "https://dc.lft.to/lastmile_qr_scan", "ios": "https://dc.lft.to/lastmile_qr_scan"}, "fusion_lon": 0.0}, {"lat": 38.920997, "is_disabled": 0, "type": "electric_scooter", "lon": -77.0252265, "bike_id": "9ab4aa52faafaf1f7f03c4d59ca4f271", "fusion_lat": 0.0, "name": "9ab4aa52faafaf1f7f03c4d59ca4f271", "is_reserved": 0, "rental_uris": {"android": "https://dc.lft.to/lastmile_qr_scan", "ios": "https://dc.lft.to/lastmile_qr_scan"}, "fusion_lon": 0.0}, {"lat": 38.897338500000004, "is_disabled": 0, "type": "electric_scooter", "lon": -77.05521616666667, "bike_id": "6d4d7a18cf471498d92516695da4df12", "fusion_lat": 0.0, "name": "6d4d7a18cf471498d92516695da4df12", "is_reserved": 0, "rental_uris": {"android": "https://dc.lft.to/lastmile_qr_scan", "ios": "https://dc.lft.to/lastmile_qr_scan"}, "fusion_lon": 0.0}, {"lat": 38.900948, "is_disabled": 0, "type": "electric_scooter", "lon": -77.04990766666667, "bike_id": "fc1b2034b2acc47017cd71db11da0899", "fusion_lat": 0.0, "name": "fc1b2034b2acc47017cd71db11da0899", "is_reserved": 0, "rental_uris": {"android": "https://dc.lft.to/lastmile_qr_scan", "ios": "https://dc.lft.to/lastmile_qr_scan"}, "fusion_lon": 0.0}, {"lat": 38.9083085, "is_disabled": 0, "type": "electric_scooter", "lon": -76.9970405, "bike_id": "bd163b96612b42b6c5430fc3d264d179", "fusion_lat": 0.0, "name": "bd163b96612b42b6c5430fc3d264d179", "is_reserved": 0, "rental_uris": {"android": "https://dc.lft.to/lastmile_qr_scan", "ios": "https://dc.lft.to/lastmile_qr_scan"}, "fusion_lon": 0.0}, {"lat": 38.913398, "is_disabled": 0, "type": "electric_scooter", "lon": -77.002195, "bike_id": "83aa33fef34a0affc35b1a4989cd307a", "fusion_lat": 0.0, "name": "83aa33fef34a0affc35b1a4989cd307a", "is_reserved": 0, "rental_uris": {"android": "https://dc.lft.to/lastmile_qr_scan", "ios": "https://dc.lft.to/lastmile_qr_scan"}, "fusion_lon": 0.0}, {"lat": 38.923914333333336, "is_disabled": 0, "type": "electric_scooter", "lon": -77.00067483333333, "bike_id": "c8a006ba7fd0d2ccf26e32ac59975f52", "fusion_lat": 0.0, "name": "c8a006ba7fd0d2ccf26e32ac59975f52", "is_reserved": 0, "rental_uris": {"android": "https://dc.lft.to/lastmile_qr_scan", "ios": "https://dc.lft.to/lastmile_qr_scan"}, "fusion_lon": 0.0}, {"lat": 38.921522333333336, "is_disabled": 0, "type": "electric_scooter", "lon": -77.03505916666667, "bike_id": "0d6f624daa53f199bc797d115b7e9042", "fusion_lat": 0.0, "name": "0d6f624daa53f199bc797d115b7e9042", "is_reserved": 0, "rental_uris": {"android": "https://dc.lft.to/lastmile_qr_scan", "ios": "https://dc.lft.to/lastmile_qr_scan"}, "fusion_lon": 0.0}, {"lat": 38.84292466666667, "is_disabled": 0, "type": "electric_scooter", "lon": -76.99947666666667, "bike_id": "e3e67f62f2ade5e48798ea0dee5e5d26", "fusion_lat": 0.0, "name": "e3e67f62f2ade5e48798ea0dee5e5d26", "is_reserved": 0, "rental_uris": {"android": "https://dc.lft.to/lastmile_qr_scan", "ios": "https://dc.lft.to/lastmile_qr_scan"}, "fusion_lon": 0.0}, {"lat": 38.921900666666666, "is_disabled": 0, "type": "electric_scooter", "lon": -76.99622533333333, "bike_id": "76ad107c646c29379d9beb847661ced8", "fusion_lat": 0.0, "name": "76ad107c646c29379d9beb847661ced8", "is_reserved": 0, "rental_uris": {"android": "https://dc.lft.to/lastmile_qr_scan", "ios": "https://dc.lft.to/lastmile_qr_scan"}, "fusion_lon": 0.0}, {"lat": 38.9253035, "is_disabled": 0, "type": "electric_scooter", "lon": -77.00757483333334, "bike_id": "ceb8c76277ec4d64763e0f214dbc8a4d", "fusion_lat": 0.0, "name": "ceb8c76277ec4d64763e0f214dbc8a4d", "is_reserved": 0, "rental_uris": {"android": "https://dc.lft.to/lastmile_qr_scan", "ios": "https://dc.lft.to/lastmile_qr_scan"}, "fusion_lon": 0.0}, {"lat": 38.92096433333333, "is_disabled": 0, "type": "electric_scooter", "lon": -77.021829, "bike_id": "aab7fddb7cc152a94dd46f05d62cf932", "fusion_lat": 0.0, "name": "aab7fddb7cc152a94dd46f05d62cf932", "is_reserved": 0, "rental_uris": {"android": "https://dc.lft.to/lastmile_qr_scan", "ios": "https://dc.lft.to/lastmile_qr_scan"}, "fusion_lon": 0.0}, {"lat": 38.8848865, "is_disabled": 0, "type": "electric_scooter", "lon": -77.00710883333333, "bike_id": "6ace1aeebdd177e9f8b87e34480e9702", "fusion_lat": 0.0, "name": "6ace1aeebdd177e9f8b87e34480e9702", "is_reserved": 0, "rental_uris": {"android": "https://dc.lft.to/lastmile_qr_scan", "ios": "https://dc.lft.to/lastmile_qr_scan"}, "fusion_lon": 0.0}, {"lat": 38.91783383333333, "is_disabled": 0, "type": "electric_scooter", "lon": -77.02307616666667, "bike_id": "5201577203dc77861a9bee850e29fa85", "fusion_lat": 0.0, "name": "5201577203dc77861a9bee850e29fa85", "is_reserved": 0, "rental_uris": {"android": "https://dc.lft.to/lastmile_qr_scan", "ios": "https://dc.lft.to/lastmile_qr_scan"}, "fusion_lon": 0.0}, {"lat": 38.9064525, "is_disabled": 0, "type": "electric_scooter", "lon": -77.04674033333333, "bike_id": "9320e5d0ed62915ebfdbb3c4901571ae", "fusion_lat": 0.0, "name": "9320e5d0ed62915ebfdbb3c4901571ae", "is_reserved": 0, "rental_uris": {"android": "https://dc.lft.to/lastmile_qr_scan", "ios": "https://dc.lft.to/lastmile_qr_scan"}, "fusion_lon": 0.0}, {"lat": 38.90166933333333, "is_disabled": 0, "type": "electric_scooter", "lon": -76.98059966666666, "bike_id": "17773445ad4079fe904d3324a1e8fece", "fusion_lat": 0.0, "name": "17773445ad4079fe904d3324a1e8fece", "is_reserved": 0, "rental_uris": {"android": "https://dc.lft.to/lastmile_qr_scan", "ios": "https://dc.lft.to/lastmile_qr_scan"}, "fusion_lon": 0.0}, {"lat": 38.902621, "is_disabled": 0, "type": "electric_scooter", "lon": -77.01811866666667, "bike_id": "5db12cd28ba6bcc42b505e25a26375cc", "fusion_lat": 0.0, "name": "5db12cd28ba6bcc42b505e25a26375cc", "is_reserved": 0, "rental_uris": {"android": "https://dc.lft.to/lastmile_qr_scan", "ios": "https://dc.lft.to/lastmile_qr_scan"}, "fusion_lon": 0.0}, {"lat": 38.916687833333334, "is_disabled": 0, "type": "electric_scooter", "lon": -77.006594, "bike_id": "45bc016a9f4de0f24e021b795c612021", "fusion_lat": 0.0, "name": "45bc016a9f4de0f24e021b795c612021", "is_reserved": 0, "rental_uris": {"android": "https://dc.lft.to/lastmile_qr_scan", "ios": "https://dc.lft.to/lastmile_qr_scan"}, "fusion_lon": 0.0}, {"lat": 38.89919166666667, "is_disabled": 0, "type": "electric_scooter", "lon": -77.013765, "bike_id": "4c12495c758b2d906a3fbfe9f1e5e002", "fusion_lat": 0.0, "name": "4c12495c758b2d906a3fbfe9f1e5e002", "is_reserved": 0, "rental_uris": {"android": "https://dc.lft.to/lastmile_qr_scan", "ios": "https://dc.lft.to/lastmile_qr_scan"}, "fusion_lon": 0.0}, {"lat": 38.89682766666667, "is_disabled": 0, "type": "electric_scooter", "lon": -76.9360885, "bike_id": "316f4b710bbf91b04cc1456d175541c0", "fusion_lat": 0.0, "name": "316f4b710bbf91b04cc1456d175541c0", "is_reserved": 0, "rental_uris": {"android": "https://dc.lft.to/lastmile_qr_scan", "ios": "https://dc.lft.to/lastmile_qr_scan"}, "fusion_lon": 0.0}, {"lat": 38.916498, "is_disabled": 0, "type": "electric_scooter", "lon": -77.01588183333334, "bike_id": "bb819267a2131185d46d98681dac6117", "fusion_lat": 0.0, "name": "bb819267a2131185d46d98681dac6117", "is_reserved": 0, "rental_uris": {"android": "https://dc.lft.to/lastmile_qr_scan", "ios": "https://dc.lft.to/lastmile_qr_scan"}, "fusion_lon": 0.0}, {"lat": 38.90720966666667, "is_disabled": 0, "type": "electric_scooter", "lon": -77.02538983333334, "bike_id": "3e24dd0e912e8e010d37d8336c5976af", "fusion_lat": 0.0, "name": "3e24dd0e912e8e010d37d8336c5976af", "is_reserved": 0, "rental_uris": {"android": "https://dc.lft.to/lastmile_qr_scan", "ios": "https://dc.lft.to/lastmile_qr_scan"}, "fusion_lon": 0.0}, {"lat": 38.91361083333334, "is_disabled": 0, "type": "electric_scooter", "lon": -77.04586883333333, "bike_id": "2f846bdea3814f12d1ed2e338523dfd5", "fusion_lat": 0.0, "name": "2f846bdea3814f12d1ed2e338523dfd5", "is_reserved": 0, "rental_uris": {"android": "https://dc.lft.to/lastmile_qr_scan", "ios": "https://dc.lft.to/lastmile_qr_scan"}, "fusion_lon": 0.0}, {"lat": 38.88730266666666, "is_disabled": 0, "type": "electric_scooter", "lon": -76.95479666666667, "bike_id": "153ac3a099790551f7abfa8680b16ccb", "fusion_lat": 0.0, "name": "153ac3a099790551f7abfa8680b16ccb", "is_reserved": 0, "rental_uris": {"android": "https://dc.lft.to/lastmile_qr_scan", "ios": "https://dc.lft.to/lastmile_qr_scan"}, "fusion_lon": 0.0}, {"lat": 38.8718545, "is_disabled": 0, "type": "electric_bike", "lon": -77.005949, "bike_id": "c626dd0747998819bde4d407f306317d", "fusion_lat": 0.0, "name": "c626dd0747998819bde4d407f306317d", "is_reserved": 0, "rental_uris": {"android": "https://dc.lft.to/lastmile_qr_scan", "ios": "https://dc.lft.to/lastmile_qr_scan"}, "fusion_lon": 0.0}, {"lat": 38.914264, "is_disabled": 0, "type": "electric_scooter", "lon": -77.04156683333333, "bike_id": "9705f8cbb866887685bf1f809d3bb866", "fusion_lat": 0.0, "name": "9705f8cbb866887685bf1f809d3bb866", "is_reserved": 0, "rental_uris": {"android": "https://dc.lft.to/lastmile_qr_scan", "ios": "https://dc.lft.to/lastmile_qr_scan"}, "fusion_lon": 0.0}, {"lat": 38.90131066666667, "is_disabled": 0, "type": "electric_scooter", "lon": -77.01625283333334, "bike_id": "61c8be1c722f8ca7c38ba8b75be92a9e", "fusion_lat": 0.0, "name": "61c8be1c722f8ca7c38ba8b75be92a9e", "is_reserved": 0, "rental_uris": {"android": "https://dc.lft.to/lastmile_qr_scan", "ios": "https://dc.lft.to/lastmile_qr_scan"}, "fusion_lon": 0.0}, {"lat": 38.909735833333336, "is_disabled": 0, "type": "electric_scooter", "lon": -77.04516583333333, "bike_id": "84e29f9fa064ade5c34a6672d11ed673", "fusion_lat": 0.0, "name": "84e29f9fa064ade5c34a6672d11ed673", "is_reserved": 0, "rental_uris": {"android": "https://dc.lft.to/lastmile_qr_scan", "ios": "https://dc.lft.to/lastmile_qr_scan"}, "fusion_lon": 0.0}, {"lat": 38.913303166666665, "is_disabled": 0, "type": "electric_scooter", "lon": -77.0482125, "bike_id": "b6d58a09bad3ef99575f18d2248ea93e", "fusion_lat": 0.0, "name": "b6d58a09bad3ef99575f18d2248ea93e", "is_reserved": 0, "rental_uris": {"android": "https://dc.lft.to/lastmile_qr_scan", "ios": "https://dc.lft.to/lastmile_qr_scan"}, "fusion_lon": 0.0}, {"lat": 38.9028055, "is_disabled": 0, "type": "electric_scooter", "lon": -77.045971, "bike_id": "5ae8468a68bd8c0d75b2cf4b24e34126", "fusion_lat": 0.0, "name": "5ae8468a68bd8c0d75b2cf4b24e34126", "is_reserved": 0, "rental_uris": {"android": "https://dc.lft.to/lastmile_qr_scan", "ios": "https://dc.lft.to/lastmile_qr_scan"}, "fusion_lon": 0.0}, {"lat": 38.907237333333335, "is_disabled": 0, "type": "electric_scooter", "lon": -76.998236, "bike_id": "3638e83970b90a5d71c8d26abfc11638", "fusion_lat": 0.0, "name": "3638e83970b90a5d71c8d26abfc11638", "is_reserved": 0, "rental_uris": {"android": "https://dc.lft.to/lastmile_qr_scan", "ios": "https://dc.lft.to/lastmile_qr_scan"}, "fusion_lon": 0.0}, {"lat": 38.88777366666667, "is_disabled": 0, "type": "electric_scooter", "lon": -76.9764385, "bike_id": "f361459e5ac7882f3d854398a39750ae", "fusion_lat": 0.0, "name": "f361459e5ac7882f3d854398a39750ae", "is_reserved": 0, "rental_uris": {"android": "https://dc.lft.to/lastmile_qr_scan", "ios": "https://dc.lft.to/lastmile_qr_scan"}, "fusion_lon": 0.0}, {"lat": 38.86422666666667, "is_disabled": 0, "type": "electric_bike", "lon": -76.974382, "bike_id": "007120a6cd8f91ef05fc071bfc1c8864", "fusion_lat": 0.0, "name": "007120a6cd8f91ef05fc071bfc1c8864", "is_reserved": 0, "rental_uris": {"android": "https://dc.lft.to/lastmile_qr_scan", "ios": "https://dc.lft.to/lastmile_qr_scan"}, "fusion_lon": 0.0}, {"lat": 38.95400166666667, "is_disabled": 0, "type": "electric_scooter", "lon": -77.02796683333334, "bike_id": "9bfffd0019c21d0f86226bca939c120a", "fusion_lat": 0.0, "name": "9bfffd0019c21d0f86226bca939c120a", "is_reserved": 0, "rental_uris": {"android": "https://dc.lft.to/lastmile_qr_scan", "ios": "https://dc.lft.to/lastmile_qr_scan"}, "fusion_lon": 0.0}, {"lat": 38.99613133333333, "is_disabled": 0, "type": "electric_scooter", "lon": -77.03225183333333, "bike_id": "24e91a799afba7083f2dde49e3cf1921", "fusion_lat": 0.0, "name": "24e91a799afba7083f2dde49e3cf1921", "is_reserved": 0, "rental_uris": {"android": "https://dc.lft.to/lastmile_qr_scan", "ios": "https://dc.lft.to/lastmile_qr_scan"}, "fusion_lon": 0.0}, {"lat": 38.888175833333335, "is_disabled": 0, "type": "electric_scooter", "lon": -77.0480955, "bike_id": "fc80a1cf0b33a578b0a0ec3acea3ea19", "fusion_lat": 0.0, "name": "fc80a1cf0b33a578b0a0ec3acea3ea19", "is_reserved": 0, "rental_uris": {"android": "https://dc.lft.to/lastmile_qr_scan", "ios": "https://dc.lft.to/lastmile_qr_scan"}, "fusion_lon": 0.0}, {"lat": 38.9271135, "is_disabled": 0, "type": "electric_scooter", "lon": -77.02084633333334, "bike_id": "73d59fc8d7064fa6ca24035261ad221c", "fusion_lat": 0.0, "name": "73d59fc8d7064fa6ca24035261ad221c", "is_reserved": 0, "rental_uris": {"android": "https://dc.lft.to/lastmile_qr_scan", "ios": "https://dc.lft.to/lastmile_qr_scan"}, "fusion_lon": 0.0}, {"lat": 38.91471883333333, "is_disabled": 0, "type": "electric_scooter", "lon": -77.01897083333333, "bike_id": "87dd289975866f887859859bb274795f", "fusion_lat": 0.0, "name": "87dd289975866f887859859bb274795f", "is_reserved": 0, "rental_uris": {"android": "https://dc.lft.to/lastmile_qr_scan", "ios": "https://dc.lft.to/lastmile_qr_scan"}, "fusion_lon": 0.0}, {"lat": 38.886554, "is_disabled": 0, "type": "electric_scooter", "lon": -76.996348, "bike_id": "4f5006446902e2f116e0b22086f960df", "fusion_lat": 0.0, "name": "4f5006446902e2f116e0b22086f960df", "is_reserved": 0, "rental_uris": {"android": "https://dc.lft.to/lastmile_qr_scan", "ios": "https://dc.lft.to/lastmile_qr_scan"}, "fusion_lon": 0.0}, {"lat": 38.91678233333333, "is_disabled": 0, "type": "electric_scooter", "lon": -77.02978483333334, "bike_id": "a40fb73e605f0771de511dea8211bea0", "fusion_lat": 0.0, "name": "a40fb73e605f0771de511dea8211bea0", "is_reserved": 0, "rental_uris": {"android": "https://dc.lft.to/lastmile_qr_scan", "ios": "https://dc.lft.to/lastmile_qr_scan"}, "fusion_lon": 0.0}, {"lat": 38.884276166666666, "is_disabled": 0, "type": "electric_bike", "lon": -76.98087366666667, "bike_id": "4a94d4910bb90d02f53467944f7060c7", "fusion_lat": 0.0, "name": "4a94d4910bb90d02f53467944f7060c7", "is_reserved": 0, "rental_uris": {"android": "https://dc.lft.to/lastmile_qr_scan", "ios": "https://dc.lft.to/lastmile_qr_scan"}, "fusion_lon": 0.0}, {"lat": 38.892049166666666, "is_disabled": 0, "type": "electric_bike", "lon": -76.97049716666666, "bike_id": "73e363f94fab6d305014ebd4ca7a42b2", "fusion_lat": 0.0, "name": "73e363f94fab6d305014ebd4ca7a42b2", "is_reserved": 0, "rental_uris": {"android": "https://dc.lft.to/lastmile_qr_scan", "ios": "https://dc.lft.to/lastmile_qr_scan"}, "fusion_lon": 0.0}, {"lat": 38.90625883333333, "is_disabled": 0, "type": "electric_scooter", "lon": -77.039706, "bike_id": "b8da1018ec5ef29ae99f83343216abe0", "fusion_lat": 0.0, "name": "b8da1018ec5ef29ae99f83343216abe0", "is_reserved": 0, "rental_uris": {"android": "https://dc.lft.to/lastmile_qr_scan", "ios": "https://dc.lft.to/lastmile_qr_scan"}, "fusion_lon": 0.0}, {"lat": 38.90604183333333, "is_disabled": 0, "type": "electric_scooter", "lon": -77.05858033333334, "bike_id": "9483e0bb51b8a2318eab0f92a2c98010", "fusion_lat": 0.0, "name": "9483e0bb51b8a2318eab0f92a2c98010", "is_reserved": 0, "rental_uris": {"android": "https://dc.lft.to/lastmile_qr_scan", "ios": "https://dc.lft.to/lastmile_qr_scan"}, "fusion_lon": 0.0}, {"lat": 38.9244805, "is_disabled": 0, "type": "electric_scooter", "lon": -77.040309, "bike_id": "ed1065a8074326c5afbf7faebf3528b5", "fusion_lat": 0.0, "name": "ed1065a8074326c5afbf7faebf3528b5", "is_reserved": 0, "rental_uris": {"android": "https://dc.lft.to/lastmile_qr_scan", "ios": "https://dc.lft.to/lastmile_qr_scan"}, "fusion_lon": 0.0}, {"lat": 38.904519, "is_disabled": 0, "type": "electric_scooter", "lon": -77.02886033333333, "bike_id": "df9750918c2524689032e1612db2106e", "fusion_lat": 0.0, "name": "df9750918c2524689032e1612db2106e", "is_reserved": 0, "rental_uris": {"android": "https://dc.lft.to/lastmile_qr_scan", "ios": "https://dc.lft.to/lastmile_qr_scan"}, "fusion_lon": 0.0}, {"lat": 38.89528333333333, "is_disabled": 0, "type": "electric_scooter", "lon": -77.01132783333334, "bike_id": "5e726555656369c974ce386fd689262e", "fusion_lat": 0.0, "name": "5e726555656369c974ce386fd689262e", "is_reserved": 0, "rental_uris": {"android": "https://dc.lft.to/lastmile_qr_scan", "ios": "https://dc.lft.to/lastmile_qr_scan"}, "fusion_lon": 0.0}, {"lat": 38.91558333333333, "is_disabled": 0, "type": "electric_scooter", "lon": -77.03238933333333, "bike_id": "53d86cffb7bdf94ee2d87a89e62e836b", "fusion_lat": 0.0, "name": "53d86cffb7bdf94ee2d87a89e62e836b", "is_reserved": 0, "rental_uris": {"android": "https://dc.lft.to/lastmile_qr_scan", "ios": "https://dc.lft.to/lastmile_qr_scan"}, "fusion_lon": 0.0}, {"lat": 38.9142445, "is_disabled": 0, "type": "electric_scooter", "lon": -77.03207083333334, "bike_id": "8bce47eebc1a469bf742e2ced89d38f8", "fusion_lat": 0.0, "name": "8bce47eebc1a469bf742e2ced89d38f8", "is_reserved": 0, "rental_uris": {"android": "https://dc.lft.to/lastmile_qr_scan", "ios": "https://dc.lft.to/lastmile_qr_scan"}, "fusion_lon": 0.0}, {"lat": 38.908032, "is_disabled": 0, "type": "electric_scooter", "lon": -77.00391466666666, "bike_id": "06535c68ee7a46900b957ea03ababaf4", "fusion_lat": 0.0, "name": "06535c68ee7a46900b957ea03ababaf4", "is_reserved": 0, "rental_uris": {"android": "https://dc.lft.to/lastmile_qr_scan", "ios": "https://dc.lft.to/lastmile_qr_scan"}, "fusion_lon": 0.0}, {"lat": 38.9219265, "is_disabled": 0, "type": "electric_scooter", "lon": -77.02417483333333, "bike_id": "19eccd2a4fc4f4397e375301849e8790", "fusion_lat": 0.0, "name": "19eccd2a4fc4f4397e375301849e8790", "is_reserved": 0, "rental_uris": {"android": "https://dc.lft.to/lastmile_qr_scan", "ios": "https://dc.lft.to/lastmile_qr_scan"}, "fusion_lon": 0.0}, {"lat": 38.852149833333335, "is_disabled": 0, "type": "electric_bike", "lon": -76.99575916666667, "bike_id": "a62161f416db54b637d116c800be4b24", "fusion_lat": 0.0, "name": "a62161f416db54b637d116c800be4b24", "is_reserved": 0, "rental_uris": {"android": "https://dc.lft.to/lastmile_qr_scan", "ios": "https://dc.lft.to/lastmile_qr_scan"}, "fusion_lon": 0.0}, {"lat": 38.805060833333336, "is_disabled": 0, "type": "electric_bike", "lon": -77.041411, "bike_id": "50019c256ddbb4904978c1a0ec9fd214", "fusion_lat": 0.0, "name": "50019c256ddbb4904978c1a0ec9fd214", "is_reserved": 0, "rental_uris": {"android": "https://dc.lft.to/lastmile_qr_scan", "ios": "https://dc.lft.to/lastmile_qr_scan"}, "fusion_lon": 0.0}, {"lat": 38.91414066666667, "is_disabled": 0, "type": "electric_scooter", "lon": -77.03165933333334, "bike_id": "6eae525482f8ad0b39f75d718cf3ec65", "fusion_lat": 0.0, "name": "6eae525482f8ad0b39f75d718cf3ec65", "is_reserved": 0, "rental_uris": {"android": "https://dc.lft.to/lastmile_qr_scan", "ios": "https://dc.lft.to/lastmile_qr_scan"}, "fusion_lon": 0.0}, {"lat": 38.91351983333333, "is_disabled": 0, "type": "electric_scooter", "lon": -77.03208983333333, "bike_id": "1e1ff06fac078bc52a73e25e100f6b61", "fusion_lat": 0.0, "name": "1e1ff06fac078bc52a73e25e100f6b61", "is_reserved": 0, "rental_uris": {"android": "https://dc.lft.to/lastmile_qr_scan", "ios": "https://dc.lft.to/lastmile_qr_scan"}, "fusion_lon": 0.0}, {"lat": 38.844286833333335, "is_disabled": 0, "type": "electric_scooter", "lon": -76.99779516666666, "bike_id": "017688d36d0e65887ebed879b601b412", "fusion_lat": 0.0, "name": "017688d36d0e65887ebed879b601b412", "is_reserved": 0, "rental_uris": {"android": "https://dc.lft.to/lastmile_qr_scan", "ios": "https://dc.lft.to/lastmile_qr_scan"}, "fusion_lon": 0.0}, {"lat": 38.9533115, "is_disabled": 0, "type": "electric_bike", "lon": -76.9882205, "bike_id": "409308a9f96cbedad01afbc96f3ad15e", "fusion_lat": 0.0, "name": "409308a9f96cbedad01afbc96f3ad15e", "is_reserved": 0, "rental_uris": {"android": "https://dc.lft.to/lastmile_qr_scan", "ios": "https://dc.lft.to/lastmile_qr_scan"}, "fusion_lon": 0.0}, {"lat": 38.917113666666665, "is_disabled": 0, "type": "electric_scooter", "lon": -77.01102733333333, "bike_id": "9ba3415522c5953d77f945bda34d210a", "fusion_lat": 0.0, "name": "9ba3415522c5953d77f945bda34d210a", "is_reserved": 0, "rental_uris": {"android": "https://dc.lft.to/lastmile_qr_scan", "ios": "https://dc.lft.to/lastmile_qr_scan"}, "fusion_lon": 0.0}, {"lat": 38.9226435, "is_disabled": 0, "type": "electric_scooter", "lon": -77.03878283333333, "bike_id": "b60062031d05be82a010506de8626af4", "fusion_lat": 0.0, "name": "b60062031d05be82a010506de8626af4", "is_reserved": 0, "rental_uris": {"android": "https://dc.lft.to/lastmile_qr_scan", "ios": "https://dc.lft.to/lastmile_qr_scan"}, "fusion_lon": 0.0}, {"lat": 38.86619683333333, "is_disabled": 0, "type": "electric_scooter", "lon": -76.9864385, "bike_id": "7147f5003e503a3f54f1861ffd1a98df", "fusion_lat": 0.0, "name": "7147f5003e503a3f54f1861ffd1a98df", "is_reserved": 0, "rental_uris": {"android": "https://dc.lft.to/lastmile_qr_scan", "ios": "https://dc.lft.to/lastmile_qr_scan"}, "fusion_lon": 0.0}, {"lat": 38.917093333333334, "is_disabled": 0, "type": "electric_scooter", "lon": -77.03864, "bike_id": "e78fede5d7cd3fc0a96d751a483e7a4f", "fusion_lat": 0.0, "name": "e78fede5d7cd3fc0a96d751a483e7a4f", "is_reserved": 0, "rental_uris": {"android": "https://dc.lft.to/lastmile_qr_scan", "ios": "https://dc.lft.to/lastmile_qr_scan"}, "fusion_lon": 0.0}, {"lat": 38.921495666666665, "is_disabled": 0, "type": "electric_scooter", "lon": -77.03504, "bike_id": "fbf2331eba4b24e634dfa5fda42a8f87", "fusion_lat": 0.0, "name": "fbf2331eba4b24e634dfa5fda42a8f87", "is_reserved": 0, "rental_uris": {"android": "https://dc.lft.to/lastmile_qr_scan", "ios": "https://dc.lft.to/lastmile_qr_scan"}, "fusion_lon": 0.0}, {"lat": 38.904731, "is_disabled": 0, "type": "electric_scooter", "lon": -77.00777816666667, "bike_id": "72daaf8483e55e85aa6fb15003368126", "fusion_lat": 0.0, "name": "72daaf8483e55e85aa6fb15003368126", "is_reserved": 0, "rental_uris": {"android": "https://dc.lft.to/lastmile_qr_scan", "ios": "https://dc.lft.to/lastmile_qr_scan"}, "fusion_lon": 0.0}, {"lat": 38.93885133333333, "is_disabled": 0, "type": "electric_scooter", "lon": -77.0322775, "bike_id": "5f5baf9d733c395192ad5b0d52b5cf98", "fusion_lat": 0.0, "name": "5f5baf9d733c395192ad5b0d52b5cf98", "is_reserved": 0, "rental_uris": {"android": "https://dc.lft.to/lastmile_qr_scan", "ios": "https://dc.lft.to/lastmile_qr_scan"}, "fusion_lon": 0.0}, {"lat": 38.91060916666667, "is_disabled": 0, "type": "electric_scooter", "lon": -77.04579116666666, "bike_id": "387b57bdffdb2e8eb5833de15276cf05", "fusion_lat": 0.0, "name": "387b57bdffdb2e8eb5833de15276cf05", "is_reserved": 0, "rental_uris": {"android": "https://dc.lft.to/lastmile_qr_scan", "ios": "https://dc.lft.to/lastmile_qr_scan"}, "fusion_lon": 0.0}, {"lat": 38.8925215, "is_disabled": 0, "type": "electric_scooter", "lon": -77.02001683333333, "bike_id": "40c6d632548b54a8622dc1c0a1dbe515", "fusion_lat": 0.0, "name": "40c6d632548b54a8622dc1c0a1dbe515", "is_reserved": 0, "rental_uris": {"android": "https://dc.lft.to/lastmile_qr_scan", "ios": "https://dc.lft.to/lastmile_qr_scan"}, "fusion_lon": 0.0}, {"lat": 38.902713, "is_disabled": 0, "type": "electric_scooter", "lon": -77.01759583333333, "bike_id": "17970298319f4ddbea1dea7d922ea9d9", "fusion_lat": 0.0, "name": "17970298319f4ddbea1dea7d922ea9d9", "is_reserved": 0, "rental_uris": {"android": "https://dc.lft.to/lastmile_qr_scan", "ios": "https://dc.lft.to/lastmile_qr_scan"}, "fusion_lon": 0.0}, {"lat": 38.9014995, "is_disabled": 0, "type": "electric_scooter", "lon": -77.041602, "bike_id": "e9e6cc75fc624b8521359e84b3028db8", "fusion_lat": 0.0, "name": "e9e6cc75fc624b8521359e84b3028db8", "is_reserved": 0, "rental_uris": {"android": "https://dc.lft.to/lastmile_qr_scan", "ios": "https://dc.lft.to/lastmile_qr_scan"}, "fusion_lon": 0.0}, {"lat": 38.900163, "is_disabled": 0, "type": "electric_scooter", "lon": -76.99873766666667, "bike_id": "a9443b54f271a9415462e57b80ad9309", "fusion_lat": 0.0, "name": "a9443b54f271a9415462e57b80ad9309", "is_reserved": 0, "rental_uris": {"android": "https://dc.lft.to/lastmile_qr_scan", "ios": "https://dc.lft.to/lastmile_qr_scan"}, "fusion_lon": 0.0}, {"lat": 38.92636916666667, "is_disabled": 0, "type": "electric_scooter", "lon": -77.03614366666666, "bike_id": "1bb21831774782078974063203ed0558", "fusion_lat": 0.0, "name": "1bb21831774782078974063203ed0558", "is_reserved": 0, "rental_uris": {"android": "https://dc.lft.to/lastmile_qr_scan", "ios": "https://dc.lft.to/lastmile_qr_scan"}, "fusion_lon": 0.0}, {"lat": 38.905149333333334, "is_disabled": 0, "type": "electric_scooter", "lon": -77.0647665, "bike_id": "b0985df58a597c6ed9b2a500844f5a4b", "fusion_lat": 0.0, "name": "b0985df58a597c6ed9b2a500844f5a4b", "is_reserved": 0, "rental_uris": {"android": "https://dc.lft.to/lastmile_qr_scan", "ios": "https://dc.lft.to/lastmile_qr_scan"}, "fusion_lon": 0.0}, {"lat": 38.89617616666666, "is_disabled": 0, "type": "electric_scooter", "lon": -76.95598116666666, "bike_id": "fed88553ca1e235fa38c7bd8019f470c", "fusion_lat": 0.0, "name": "fed88553ca1e235fa38c7bd8019f470c", "is_reserved": 0, "rental_uris": {"android": "https://dc.lft.to/lastmile_qr_scan", "ios": "https://dc.lft.to/lastmile_qr_scan"}, "fusion_lon": 0.0}, {"lat": 38.91887666666667, "is_disabled": 0, "type": "electric_scooter", "lon": -77.03921333333334, "bike_id": "1d23e1a7f41e551ec118d5ca79b4642b", "fusion_lat": 0.0, "name": "1d23e1a7f41e551ec118d5ca79b4642b", "is_reserved": 0, "rental_uris": {"android": "https://dc.lft.to/lastmile_qr_scan", "ios": "https://dc.lft.to/lastmile_qr_scan"}, "fusion_lon": 0.0}, {"lat": 38.93356566666667, "is_disabled": 0, "type": "electric_scooter", "lon": -77.05700166666666, "bike_id": "247f840181d4a83db70bf609bc88fcb8", "fusion_lat": 0.0, "name": "247f840181d4a83db70bf609bc88fcb8", "is_reserved": 0, "rental_uris": {"android": "https://dc.lft.to/lastmile_qr_scan", "ios": "https://dc.lft.to/lastmile_qr_scan"}, "fusion_lon": 0.0}, {"lat": 38.88661833333333, "is_disabled": 0, "type": "electric_bike", "lon": -77.16224, "bike_id": "221eaf159b1d529e8c419d8c5f27ee99", "fusion_lat": 0.0, "name": "221eaf159b1d529e8c419d8c5f27ee99", "is_reserved": 0, "rental_uris": {"android": "https://dc.lft.to/lastmile_qr_scan", "ios": "https://dc.lft.to/lastmile_qr_scan"}, "fusion_lon": 0.0}, {"lat": 38.959283, "is_disabled": 0, "type": "electric_bike", "lon": -77.03114066666667, "bike_id": "9b4ed940bdfe30ece6994bcb791f66b2", "fusion_lat": 0.0, "name": "9b4ed940bdfe30ece6994bcb791f66b2", "is_reserved": 0, "rental_uris": {"android": "https://dc.lft.to/lastmile_qr_scan", "ios": "https://dc.lft.to/lastmile_qr_scan"}, "fusion_lon": 0.0}, {"lat": 38.905406666666664, "is_disabled": 0, "type": "electric_scooter", "lon": -77.0221275, "bike_id": "83d8f2b46fd0571e26e3f3db3709c97e", "fusion_lat": 0.0, "name": "83d8f2b46fd0571e26e3f3db3709c97e", "is_reserved": 0, "rental_uris": {"android": "https://dc.lft.to/lastmile_qr_scan", "ios": "https://dc.lft.to/lastmile_qr_scan"}, "fusion_lon": 0.0}, {"lat": 38.89965016666667, "is_disabled": 0, "type": "electric_bike", "lon": -77.05516433333334, "bike_id": "f8841a7f9176d6f52c16bab7946679ca", "fusion_lat": 0.0, "name": "f8841a7f9176d6f52c16bab7946679ca", "is_reserved": 0, "rental_uris": {"android": "https://dc.lft.to/lastmile_qr_scan", "ios": "https://dc.lft.to/lastmile_qr_scan"}, "fusion_lon": 0.0}, {"lat": 38.876389333333336, "is_disabled": 0, "type": "electric_scooter", "lon": -76.99319883333334, "bike_id": "4fadea4a2e8e85947dd19dc14b0b3cc1", "fusion_lat": 0.0, "name": "4fadea4a2e8e85947dd19dc14b0b3cc1", "is_reserved": 0, "rental_uris": {"android": "https://dc.lft.to/lastmile_qr_scan", "ios": "https://dc.lft.to/lastmile_qr_scan"}, "fusion_lon": 0.0}, {"lat": 38.917796, "is_disabled": 0, "type": "electric_scooter", "lon": -77.0287685, "bike_id": "c01ece7ff199478a2c7552fd5dc89704", "fusion_lat": 0.0, "name": "c01ece7ff199478a2c7552fd5dc89704", "is_reserved": 0, "rental_uris": {"android": "https://dc.lft.to/lastmile_qr_scan", "ios": "https://dc.lft.to/lastmile_qr_scan"}, "fusion_lon": 0.0}, {"lat": 38.926118, "is_disabled": 0, "type": "electric_scooter", "lon": -77.02440916666667, "bike_id": "9da11bca2300fab356d63461c59ef203", "fusion_lat": 0.0, "name": "9da11bca2300fab356d63461c59ef203", "is_reserved": 0, "rental_uris": {"android": "https://dc.lft.to/lastmile_qr_scan", "ios": "https://dc.lft.to/lastmile_qr_scan"}, "fusion_lon": 0.0}, {"lat": 38.88195316666667, "is_disabled": 0, "type": "electric_scooter", "lon": -76.99502333333334, "bike_id": "7f7742fca3fac8bc2abc119c6666ab34", "fusion_lat": 0.0, "name": "7f7742fca3fac8bc2abc119c6666ab34", "is_reserved": 0, "rental_uris": {"android": "https://dc.lft.to/lastmile_qr_scan", "ios": "https://dc.lft.to/lastmile_qr_scan"}, "fusion_lon": 0.0}, {"lat": 38.916334, "is_disabled": 0, "type": "electric_scooter", "lon": -77.0462315, "bike_id": "346ba3911ccfc15a0d4723532960d840", "fusion_lat": 0.0, "name": "346ba3911ccfc15a0d4723532960d840", "is_reserved": 0, "rental_uris": {"android": "https://dc.lft.to/lastmile_qr_scan", "ios": "https://dc.lft.to/lastmile_qr_scan"}, "fusion_lon": 0.0}, {"lat": 38.892678, "is_disabled": 0, "type": "electric_scooter", "lon": -77.02611466666667, "bike_id": "3289e77045a1733247f85d49d29378ac", "fusion_lat": 0.0, "name": "3289e77045a1733247f85d49d29378ac", "is_reserved": 0, "rental_uris": {"android": "https://dc.lft.to/lastmile_qr_scan", "ios": "https://dc.lft.to/lastmile_qr_scan"}, "fusion_lon": 0.0}, {"lat": 38.92306133333334, "is_disabled": 0, "type": "electric_bike", "lon": -77.0235165, "bike_id": "45f4bc8c4decdbcdd79d00240ba62cf1", "fusion_lat": 0.0, "name": "45f4bc8c4decdbcdd79d00240ba62cf1", "is_reserved": 0, "rental_uris": {"android": "https://dc.lft.to/lastmile_qr_scan", "ios": "https://dc.lft.to/lastmile_qr_scan"}, "fusion_lon": 0.0}, {"lat": 38.90234233333334, "is_disabled": 0, "type": "electric_scooter", "lon": -77.04354433333333, "bike_id": "7e7951673ac579a3d420e2a24b93af49", "fusion_lat": 0.0, "name": "7e7951673ac579a3d420e2a24b93af49", "is_reserved": 0, "rental_uris": {"android": "https://dc.lft.to/lastmile_qr_scan", "ios": "https://dc.lft.to/lastmile_qr_scan"}, "fusion_lon": 0.0}, {"lat": 38.928531166666666, "is_disabled": 0, "type": "electric_bike", "lon": -77.2222025, "bike_id": "9bec446385873fe853f5fbfcc42ae693", "fusion_lat": 0.0, "name": "9bec446385873fe853f5fbfcc42ae693", "is_reserved": 0, "rental_uris": {"android": "https://dc.lft.to/lastmile_qr_scan", "ios": "https://dc.lft.to/lastmile_qr_scan"}, "fusion_lon": 0.0}, {"lat": 39.08865516666667, "is_disabled": 0, "type": "electric_bike", "lon": -77.17838666666667, "bike_id": "e5a4a73388ab9119e86dde0831648391", "fusion_lat": 0.0, "name": "e5a4a73388ab9119e86dde0831648391", "is_reserved": 0, "rental_uris": {"android": "https://dc.lft.to/lastmile_qr_scan", "ios": "https://dc.lft.to/lastmile_qr_scan"}, "fusion_lon": 0.0}, {"lat": 38.89606833333333, "is_disabled": 0, "type": "electric_scooter", "lon": -77.02905233333334, "bike_id": "742973a4b819b1d0b581dbc176608ea9", "fusion_lat": 0.0, "name": "742973a4b819b1d0b581dbc176608ea9", "is_reserved": 0, "rental_uris": {"android": "https://dc.lft.to/lastmile_qr_scan", "ios": "https://dc.lft.to/lastmile_qr_scan"}, "fusion_lon": 0.0}, {"lat": 38.972354, "is_disabled": 0, "type": "electric_bike", "lon": -76.99339066666667, "bike_id": "b8dd77a27161e8744263d236dc36e39c", "fusion_lat": 0.0, "name": "b8dd77a27161e8744263d236dc36e39c", "is_reserved": 0, "rental_uris": {"android": "https://dc.lft.to/lastmile_qr_scan", "ios": "https://dc.lft.to/lastmile_qr_scan"}, "fusion_lon": 0.0}, {"lat": 38.903136333333336, "is_disabled": 0, "type": "electric_scooter", "lon": -77.03766433333334, "bike_id": "a4b5abbd32d63d29dc2c861150f7c72c", "fusion_lat": 0.0, "name": "a4b5abbd32d63d29dc2c861150f7c72c", "is_reserved": 0, "rental_uris": {"android": "https://dc.lft.to/lastmile_qr_scan", "ios": "https://dc.lft.to/lastmile_qr_scan"}, "fusion_lon": 0.0}, {"lat": 38.86061816666667, "is_disabled": 0, "type": "electric_scooter", "lon": -77.05757433333333, "bike_id": "86b1877f8b3c2cd02f88a04ba8a7e9f4", "fusion_lat": 0.0, "name": "86b1877f8b3c2cd02f88a04ba8a7e9f4", "is_reserved": 0, "rental_uris": {"android": "https://dc.lft.to/lastmile_qr_scan", "ios": "https://dc.lft.to/lastmile_qr_scan"}, "fusion_lon": 0.0}, {"lat": 38.895644833333336, "is_disabled": 0, "type": "electric_scooter", "lon": -77.01107066666667, "bike_id": "139bebbc2f17cc8749adb6b780c744ee", "fusion_lat": 0.0, "name": "139bebbc2f17cc8749adb6b780c744ee", "is_reserved": 0, "rental_uris": {"android": "https://dc.lft.to/lastmile_qr_scan", "ios": "https://dc.lft.to/lastmile_qr_scan"}, "fusion_lon": 0.0}, {"lat": 38.91617883333333, "is_disabled": 0, "type": "electric_scooter", "lon": -77.04862866666667, "bike_id": "fad868ab6328090c75819d868c7e283f", "fusion_lat": 0.0, "name": "fad868ab6328090c75819d868c7e283f", "is_reserved": 0, "rental_uris": {"android": "https://dc.lft.to/lastmile_qr_scan", "ios": "https://dc.lft.to/lastmile_qr_scan"}, "fusion_lon": 0.0}, {"lat": 38.92237216666667, "is_disabled": 0, "type": "electric_scooter", "lon": -77.04573833333333, "bike_id": "71225c5910a7eb878da3f948f7ace1be", "fusion_lat": 0.0, "name": "71225c5910a7eb878da3f948f7ace1be", "is_reserved": 0, "rental_uris": {"android": "https://dc.lft.to/lastmile_qr_scan", "ios": "https://dc.lft.to/lastmile_qr_scan"}, "fusion_lon": 0.0}, {"lat": 38.9161075, "is_disabled": 0, "type": "electric_scooter", "lon": -77.03860083333333, "bike_id": "5abf1e5f3ce1eed5a2a406a48754a7a7", "fusion_lat": 0.0, "name": "5abf1e5f3ce1eed5a2a406a48754a7a7", "is_reserved": 0, "rental_uris": {"android": "https://dc.lft.to/lastmile_qr_scan", "ios": "https://dc.lft.to/lastmile_qr_scan"}, "fusion_lon": 0.0}, {"lat": 38.886569333333334, "is_disabled": 0, "type": "electric_scooter", "lon": -77.033801, "bike_id": "276f072e21f95b496c8eb00c73c529fe", "fusion_lat": 0.0, "name": "276f072e21f95b496c8eb00c73c529fe", "is_reserved": 0, "rental_uris": {"android": "https://dc.lft.to/lastmile_qr_scan", "ios": "https://dc.lft.to/lastmile_qr_scan"}, "fusion_lon": 0.0}, {"lat": 38.918595, "is_disabled": 0, "type": "electric_scooter", "lon": -77.04596316666667, "bike_id": "59d64818b34f869668433c1897a52eb9", "fusion_lat": 0.0, "name": "59d64818b34f869668433c1897a52eb9", "is_reserved": 0, "rental_uris": {"android": "https://dc.lft.to/lastmile_qr_scan", "ios": "https://dc.lft.to/lastmile_qr_scan"}, "fusion_lon": 0.0}, {"lat": 38.93870183333333, "is_disabled": 0, "type": "electric_scooter", "lon": -77.02563133333334, "bike_id": "e5a84055c7cfcca70d9c2e085a6b8d7e", "fusion_lat": 0.0, "name": "e5a84055c7cfcca70d9c2e085a6b8d7e", "is_reserved": 0, "rental_uris": {"android": "https://dc.lft.to/lastmile_qr_scan", "ios": "https://dc.lft.to/lastmile_qr_scan"}, "fusion_lon": 0.0}, {"lat": 38.9192575, "is_disabled": 0, "type": "electric_scooter", "lon": -77.03389916666667, "bike_id": "8432813bf5ed410ef3d7303db15173e1", "fusion_lat": 0.0, "name": "8432813bf5ed410ef3d7303db15173e1", "is_reserved": 0, "rental_uris": {"android": "https://dc.lft.to/lastmile_qr_scan", "ios": "https://dc.lft.to/lastmile_qr_scan"}, "fusion_lon": 0.0}, {"lat": 38.919535, "is_disabled": 0, "type": "electric_scooter", "lon": -76.98078, "bike_id": "4b1ee4edc685eb32e7c03f2c98ddb858", "fusion_lat": 0.0, "name": "4b1ee4edc685eb32e7c03f2c98ddb858", "is_reserved": 0, "rental_uris": {"android": "https://dc.lft.to/lastmile_qr_scan", "ios": "https://dc.lft.to/lastmile_qr_scan"}, "fusion_lon": 0.0}, {"lat": 38.90569833333333, "is_disabled": 0, "type": "electric_scooter", "lon": -77.03464033333333, "bike_id": "ac3329d20f9377fca0db34a8fc02ed85", "fusion_lat": 0.0, "name": "ac3329d20f9377fca0db34a8fc02ed85", "is_reserved": 0, "rental_uris": {"android": "https://dc.lft.to/lastmile_qr_scan", "ios": "https://dc.lft.to/lastmile_qr_scan"}, "fusion_lon": 0.0}, {"lat": 38.945154333333335, "is_disabled": 0, "type": "electric_bike", "lon": -77.0067085, "bike_id": "b4dd555d68285cb4c3aa9153b2e58932", "fusion_lat": 0.0, "name": "b4dd555d68285cb4c3aa9153b2e58932", "is_reserved": 0, "rental_uris": {"android": "https://dc.lft.to/lastmile_qr_scan", "ios": "https://dc.lft.to/lastmile_qr_scan"}, "fusion_lon": 0.0}, {"lat": 38.94326233333334, "is_disabled": 0, "type": "electric_scooter", "lon": -77.073824, "bike_id": "c7e50e937cdb933432f2d366505e9822", "fusion_lat": 0.0, "name": "c7e50e937cdb933432f2d366505e9822", "is_reserved": 0, "rental_uris": {"android": "https://dc.lft.to/lastmile_qr_scan", "ios": "https://dc.lft.to/lastmile_qr_scan"}, "fusion_lon": 0.0}, {"lat": 38.928396166666666, "is_disabled": 0, "type": "electric_scooter", "lon": -76.99851983333333, "bike_id": "d234c4127db6ade1317f6599052dc40d", "fusion_lat": 0.0, "name": "d234c4127db6ade1317f6599052dc40d", "is_reserved": 0, "rental_uris": {"android": "https://dc.lft.to/lastmile_qr_scan", "ios": "https://dc.lft.to/lastmile_qr_scan"}, "fusion_lon": 0.0}, {"lat": 38.93615783333333, "is_disabled": 0, "type": "electric_scooter", "lon": -77.05757316666667, "bike_id": "da0e8683c3402bc2ffbf8871d12b2189", "fusion_lat": 0.0, "name": "da0e8683c3402bc2ffbf8871d12b2189", "is_reserved": 0, "rental_uris": {"android": "https://dc.lft.to/lastmile_qr_scan", "ios": "https://dc.lft.to/lastmile_qr_scan"}, "fusion_lon": 0.0}, {"lat": 38.92594833333333, "is_disabled": 0, "type": "electric_scooter", "lon": -77.03749666666667, "bike_id": "46138f10b6572c4fc3857bf0f77f7ebc", "fusion_lat": 0.0, "name": "46138f10b6572c4fc3857bf0f77f7ebc", "is_reserved": 0, "rental_uris": {"android": "https://dc.lft.to/lastmile_qr_scan", "ios": "https://dc.lft.to/lastmile_qr_scan"}, "fusion_lon": 0.0}, {"lat": 38.8870285, "is_disabled": 0, "type": "electric_scooter", "lon": -77.03204833333334, "bike_id": "fff3747c2dbcf842e87874d88e220341", "fusion_lat": 0.0, "name": "fff3747c2dbcf842e87874d88e220341", "is_reserved": 0, "rental_uris": {"android": "https://dc.lft.to/lastmile_qr_scan", "ios": "https://dc.lft.to/lastmile_qr_scan"}, "fusion_lon": 0.0}, {"lat": 38.89986233333333, "is_disabled": 0, "type": "electric_scooter", "lon": -77.052416, "bike_id": "1e58c8b9ddfac74701738ab7480fd210", "fusion_lat": 0.0, "name": "1e58c8b9ddfac74701738ab7480fd210", "is_reserved": 0, "rental_uris": {"android": "https://dc.lft.to/lastmile_qr_scan", "ios": "https://dc.lft.to/lastmile_qr_scan"}, "fusion_lon": 0.0}, {"lat": 38.914755666666665, "is_disabled": 0, "type": "electric_scooter", "lon": -77.0035705, "bike_id": "306803a48433c23d72df2ebd1e255853", "fusion_lat": 0.0, "name": "306803a48433c23d72df2ebd1e255853", "is_reserved": 0, "rental_uris": {"android": "https://dc.lft.to/lastmile_qr_scan", "ios": "https://dc.lft.to/lastmile_qr_scan"}, "fusion_lon": 0.0}, {"lat": 38.9042375, "is_disabled": 0, "type": "electric_scooter", "lon": -77.0533725, "bike_id": "06f220632150f699f801149e7395af60", "fusion_lat": 0.0, "name": "06f220632150f699f801149e7395af60", "is_reserved": 0, "rental_uris": {"android": "https://dc.lft.to/lastmile_qr_scan", "ios": "https://dc.lft.to/lastmile_qr_scan"}, "fusion_lon": 0.0}, {"lat": 38.916981166666666, "is_disabled": 0, "type": "electric_scooter", "lon": -77.0227875, "bike_id": "989ba4778c8768b24c3c710d4983b775", "fusion_lat": 0.0, "name": "989ba4778c8768b24c3c710d4983b775", "is_reserved": 0, "rental_uris": {"android": "https://dc.lft.to/lastmile_qr_scan", "ios": "https://dc.lft.to/lastmile_qr_scan"}, "fusion_lon": 0.0}, {"lat": 38.900356333333335, "is_disabled": 0, "type": "electric_scooter", "lon": -77.00191783333334, "bike_id": "811f8cb60b0d002cb6254f5d5678d02f", "fusion_lat": 0.0, "name": "811f8cb60b0d002cb6254f5d5678d02f", "is_reserved": 0, "rental_uris": {"android": "https://dc.lft.to/lastmile_qr_scan", "ios": "https://dc.lft.to/lastmile_qr_scan"}, "fusion_lon": 0.0}, {"lat": 38.95720216666667, "is_disabled": 0, "type": "electric_scooter", "lon": -77.0708965, "bike_id": "9beadcf579317c4b0628a5a59c0421ce", "fusion_lat": 0.0, "name": "9beadcf579317c4b0628a5a59c0421ce", "is_reserved": 0, "rental_uris": {"android": "https://dc.lft.to/lastmile_qr_scan", "ios": "https://dc.lft.to/lastmile_qr_scan"}, "fusion_lon": 0.0}, {"lat": 38.92472, "is_disabled": 0, "type": "electric_scooter", "lon": -77.052317, "bike_id": "8f4e8edbabd8130e391d2aadd7c18e9c", "fusion_lat": 0.0, "name": "8f4e8edbabd8130e391d2aadd7c18e9c", "is_reserved": 0, "rental_uris": {"android": "https://dc.lft.to/lastmile_qr_scan", "ios": "https://dc.lft.to/lastmile_qr_scan"}, "fusion_lon": 0.0}, {"lat": 38.90164033333333, "is_disabled": 0, "type": "electric_scooter", "lon": -76.98630983333334, "bike_id": "e6f032261bc8995da3e9cac57d06ae63", "fusion_lat": 0.0, "name": "e6f032261bc8995da3e9cac57d06ae63", "is_reserved": 0, "rental_uris": {"android": "https://dc.lft.to/lastmile_qr_scan", "ios": "https://dc.lft.to/lastmile_qr_scan"}, "fusion_lon": 0.0}, {"lat": 38.86628416666667, "is_disabled": 0, "type": "electric_scooter", "lon": -76.98713066666667, "bike_id": "48096fbfebe47052d4dbc9e468f1c2ed", "fusion_lat": 0.0, "name": "48096fbfebe47052d4dbc9e468f1c2ed", "is_reserved": 0, "rental_uris": {"android": "https://dc.lft.to/lastmile_qr_scan", "ios": "https://dc.lft.to/lastmile_qr_scan"}, "fusion_lon": 0.0}, {"lat": 38.89241883333333, "is_disabled": 0, "type": "electric_scooter", "lon": -77.02813433333333, "bike_id": "bd766a90c80b19541d0321574dcc7056", "fusion_lat": 0.0, "name": "bd766a90c80b19541d0321574dcc7056", "is_reserved": 0, "rental_uris": {"android": "https://dc.lft.to/lastmile_qr_scan", "ios": "https://dc.lft.to/lastmile_qr_scan"}, "fusion_lon": 0.0}, {"lat": 38.88523083333333, "is_disabled": 0, "type": "electric_scooter", "lon": -77.00271533333333, "bike_id": "0704e8b220c4dfd7168646073aed187b", "fusion_lat": 0.0, "name": "0704e8b220c4dfd7168646073aed187b", "is_reserved": 0, "rental_uris": {"android": "https://dc.lft.to/lastmile_qr_scan", "ios": "https://dc.lft.to/lastmile_qr_scan"}, "fusion_lon": 0.0}, {"lat": 38.897839833333336, "is_disabled": 0, "type": "electric_bike", "lon": -76.90438583333334, "bike_id": "698bef50d97e5e3b1fa6e9de886f8d67", "fusion_lat": 0.0, "name": "698bef50d97e5e3b1fa6e9de886f8d67", "is_reserved": 0, "rental_uris": {"android": "https://dc.lft.to/lastmile_qr_scan", "ios": "https://dc.lft.to/lastmile_qr_scan"}, "fusion_lon": 0.0}, {"lat": 38.842801, "is_disabled": 0, "type": "electric_bike", "lon": -76.988435, "bike_id": "97dc379a8ad10a53360bb92e61a324c6", "fusion_lat": 0.0, "name": "97dc379a8ad10a53360bb92e61a324c6", "is_reserved": 0, "rental_uris": {"android": "https://dc.lft.to/lastmile_qr_scan", "ios": "https://dc.lft.to/lastmile_qr_scan"}, "fusion_lon": 0.0}, {"lat": 38.9003945, "is_disabled": 0, "type": "electric_scooter", "lon": -76.988347, "bike_id": "8429d942d2fcd6c2f52a29b079b556f6", "fusion_lat": 0.0, "name": "8429d942d2fcd6c2f52a29b079b556f6", "is_reserved": 0, "rental_uris": {"android": "https://dc.lft.to/lastmile_qr_scan", "ios": "https://dc.lft.to/lastmile_qr_scan"}, "fusion_lon": 0.0}, {"lat": 38.90041683333333, "is_disabled": 0, "type": "electric_scooter", "lon": -77.007496, "bike_id": "d8c9f76e031b40aad768f13cf231d726", "fusion_lat": 0.0, "name": "d8c9f76e031b40aad768f13cf231d726", "is_reserved": 0, "rental_uris": {"android": "https://dc.lft.to/lastmile_qr_scan", "ios": "https://dc.lft.to/lastmile_qr_scan"}, "fusion_lon": 0.0},