{"data": {"bikes": [{"fusion_lat": 0.0, "type": "electric_scooter", "name": "2964a8a79485df17858c62bb0c35c426", "fusion_lon": 0.0, "bike_id": "2964a8a79485df17858c62bb0c35c426", "is_reserved": 0, "rental_uris": {"android": "https://dc.lft.to/lastmile_qr_scan", "ios": "https://dc.lft.to/lastmile_qr_scan"}, "lat": 38.897345333333334, "is_disabled": 0, "lon": -77.0131195}, {"fusion_lat": 0.0, "type": "electric_bike", "name": "f533b9e4eb0c16a571b17d634a733900", "fusion_lon": 0.0, "bike_id": "f533b9e4eb0c16a571b17d634a733900", "is_reserved": 0, "rental_uris": {"android": "https://dc.lft.to/lastmile_qr_scan", "ios": "https://dc.lft.to/lastmile_qr_scan"}, "lat": 38.9621705, "is_disabled": 0, "lon": -77.026322}, {"fusion_lat": 0.0, "type": "electric_scooter", "name": "9613c06fe7576d83769a4f3c4918b357", "fusion_lon": 0.0, "bike_id": "9613c06fe7576d83769a4f3c4918b357", "is_reserved": 0, "rental_uris": {"android": "https://dc.lft.to/lastmile_qr_scan", "ios": "https://dc.lft.to/lastmile_qr_scan"}, "lat": 38.888254, "is_disabled": 0, "lon": -76.99367633333334}, {"fusion_lat": 0.0, "type": "electric_scooter", "name": "e9cecd5bff0a7818c79c1d2584941b48", "fusion_lon": 0.0, "bike_id": "e9cecd5bff0a7818c79c1d2584941b48", "is_reserved": 0, "rental_uris": {"android": "https://dc.lft.to/lastmile_qr_scan", "ios": "https://dc.lft.to/lastmile_qr_scan"}, "lat": 38.9085835, "is_disabled": 0, "lon": -77.04264133333334}, {"fusion_lat": 0.0, "type": "electric_scooter", "name": "60ae2b67c16a8e708321deceb22f846d", "fusion_lon": 0.0, "bike_id": "60ae2b67c16a8e708321deceb22f846d", "is_reserved": 0, "rental_uris": {"android": "https://dc.lft.to/lastmile_qr_scan", "ios": "https://dc.lft.to/lastmile_qr_scan"}, "lat": 38.927467666666665, "is_disabled": 0, "lon": -77.02532466666666}, {"fusion_lat": 0.0, "type": "electric_scooter", "name": "6031535310af54726c4eb708820d0b13", "fusion_lon": 0.0, "bike_id": "6031535310af54726c4eb708820d0b13", "is_reserved": 0, "rental_uris": {"android": "https://dc.lft.to/lastmile_qr_scan", "ios": "https://dc.lft.to/lastmile_qr_scan"}, "lat": 38.866845, "is_disabled": 0, "lon": -76.9859305}, {"fusion_lat": 0.0, "type": "electric_scooter", "name": "39b6171c4c51971f90f7a8e72dda973e", "fusion_lon": 0.0, "bike_id": "39b6171c4c51971f90f7a8e72dda973e", "is_reserved": 0, "rental_uris": {"android": "https://dc.lft.to/lastmile_qr_scan", "ios": "https://dc.lft.to/lastmile_qr_scan"}, "lat": 38.900019, "is_disabled": 0, "lon": -76.99305116666666}, {"fusion_lat": 0.0, "type": "electric_scooter", "name": "7ef694f293edb3dd0cbc605c5e9d3e1a", "fusion_lon": 0.0, "bike_id": "7ef694f293edb3dd0cbc605c5e9d3e1a", "is_reserved": 0, "rental_uris": {"android": "https://dc.lft.to/lastmile_qr_scan", "ios": "https://dc.lft.to/lastmile_qr_scan"}, "lat": 38.92365233333334, "is_disabled": 0, "lon": -77.02797466666667}, {"fusion_lat": 0.0, "type": "electric_scooter", "name": "987ced876a012eb8bd1839b4c8b3c886", "fusion_lon": 0.0, "bike_id": "987ced876a012eb8bd1839b4c8b3c886", "is_reserved": 0, "rental_uris": {"android": "https://dc.lft.to/lastmile_qr_scan", "ios": "https://dc.lft.to/lastmile_qr_scan"}, "lat": 38.93698, "is_disabled": 0, "lon": -77.06102216666666}, {"fusion_lat": 0.0, "type": "electric_scooter", "name": "f498df18bae1cd4dca2252a5bf188837", "fusion_lon": 0.0, "bike_id": "f498df18bae1cd4dca2252a5bf188837", "is_reserved": 0, "rental_uris": {"android": "https://dc.lft.to/lastmile_qr_scan", "ios": "https://dc.lft.to/lastmile_qr_scan"}, "lat": 38.902339833333336, "is_disabled": 0, "lon": -77.03331816666666}, {"fusion_lat": 0.0, "type": "electric_bike", "name": "5f2c2300400b4549ed2264aea57a1e35", "fusion_lon": 0.0, "bike_id": "5f2c2300400b4549ed2264aea57a1e35", "is_reserved": 0, "rental_uris": {"android": "https://dc.lft.to/lastmile_qr_scan", "ios": "https://dc.lft.to/lastmile_qr_scan"}, "lat": 38.911713666666664, "is_disabled": 0, "lon": -77.08809916666667}, {"fusion_lat": 0.0, "type": "electric_scooter", "name": "73a10fe3ae9e33c71a01de113e965480", "fusion_lon": 0.0, "bike_id": "73a10fe3ae9e33c71a01de113e965480", "is_reserved": 0, "rental_uris": {"android": "https://dc.lft.to/lastmile_qr_scan", "ios": "https://dc.lft.to/lastmile_qr_scan"}, "lat": 38.900392333333336, "is_disabled": 0, "lon": -77.0320495}, {"fusion_lat": 0.0, "type": "electric_scooter", "name": "e4c927cc636afb83eb1c33c343df90b8", "fusion_lon": 0.0, "bike_id": "e4c927cc636afb83eb1c33c343df90b8", "is_reserved": 0, "rental_uris": {"android": "https://dc.lft.to/lastmile_qr_scan", "ios": "https://dc.lft.to/lastmile_qr_scan"}, "lat": 38.834904333333334, "is_disabled": 0, "lon": -77.006775}, {"fusion_lat": 0.0, "type": "electric_bike", "name": "4431b834f5066122a86fab0d38bd75d5", "fusion_lon": 0.0, "bike_id": "4431b834f5066122a86fab0d38bd75d5", "is_reserved": 0, "rental_uris": {"android": "https://dc.lft.to/lastmile_qr_scan", "ios": "https://dc.lft.to/lastmile_qr_scan"}, "lat": 38.97705116666667, "is_disabled": 0, "lon": -77.09296866666666}, {"fusion_lat": 0.0, "type": "electric_scooter", "name": "bb7c5555b8f3a46b38709a7c4efd219b", "fusion_lon": 0.0, "bike_id": "bb7c5555b8f3a46b38709a7c4efd219b", "is_reserved": 0, "rental_uris": {"android": "https://dc.lft.to/lastmile_qr_scan", "ios": "https://dc.lft.to/lastmile_qr_scan"}, "lat": 38.894931, "is_disabled": 0, "lon": -77.01085733333333}, {"fusion_lat": 0.0, "type": "electric_scooter", "name": "6d28b609a58e20450c0790a53f58cf77", "fusion_lon": 0.0, "bike_id": "6d28b609a58e20450c0790a53f58cf77", "is_reserved": 0, "rental_uris": {"android": "https://dc.lft.to/lastmile_qr_scan", "ios": "https://dc.lft.to/lastmile_qr_scan"}, "lat": 38.89013583333333, "is_disabled": 0, "lon": -76.93729883333333}, {"fusion_lat": 0.0, "type": "electric_bike", "name": "d3e8fadd21f0332f0a6715ea0fab079c", "fusion_lon": 0.0, "bike_id": "d3e8fadd21f0332f0a6715ea0fab079c", "is_reserved": 0, "rental_uris": {"android": "https://dc.lft.to/lastmile_qr_scan", "ios": "https://dc.lft.to/lastmile_qr_scan"}, "lat": 38.837869, "is_disabled": 0, "lon": -76.99758233333333}, {"fusion_lat": 0.0, "type": "electric_scooter", "name": "357101c4895e5db71552a8c209a3a48e", "fusion_lon": 0.0, "bike_id": "357101c4895e5db71552a8c209a3a48e", "is_reserved": 0, "rental_uris": {"android": "https://dc.lft.to/lastmile_qr_scan", "ios": "https://dc.lft.to/lastmile_qr_scan"}, "lat": 38.88144066666667, "is_disabled": 0, "lon": -76.99486}, {"fusion_lat": 0.0, "type": "electric_scooter", "name": "e2992fde0225e8e0ac1a40a3c718e806", "fusion_lon": 0.0, "bike_id": "e2992fde0225e8e0ac1a40a3c718e806", "is_reserved": 0, "rental_uris": {"android": "https://dc.lft.to/lastmile_qr_scan", "ios": "https://dc.lft.to/lastmile_qr_scan"}, "lat": 38.916985833333335, "is_disabled": 0, "lon": -77.04173783333333}, {"fusion_lat": 0.0, "type": "electric_bike", "name": "c5a9923cbf656630fee55ba2c43f092b", "fusion_lon": 0.0, "bike_id": "c5a9923cbf656630fee55ba2c43f092b", "is_reserved": 0, "rental_uris": {"android": "https://dc.lft.to/lastmile_qr_scan", "ios": "https://dc.lft.to/lastmile_qr_scan"}, "lat": 38.936813, "is_disabled": 0, "lon": -77.033332}, {"fusion_lat": 0.0, "type": "electric_bike", "name": "863e1e9a9ba4e7699398ba3b3f0220a7", "fusion_lon": 0.0, "bike_id": "863e1e9a9ba4e7699398ba3b3f0220a7", "is_reserved": 0, "rental_uris": {"android": "https://dc.lft.to/lastmile_qr_scan", "ios": "https://dc.lft.to/lastmile_qr_scan"}, "lat": 38.90121, "is_disabled": 0, "lon": -77.0466385}, {"fusion_lat": 0.0, "type": "electric_scooter", "name": "443e393b3a7f35a25befdf778e3dc1ad", "fusion_lon": 0.0, "bike_id": "443e393b3a7f35a25befdf778e3dc1ad", "is_reserved": 0, "rental_uris": {"android": "https://dc.lft.to/lastmile_qr_scan", "ios": "https://dc.lft.to/lastmile_qr_scan"}, "lat": 38.8989695, "is_disabled": 0, "lon": -76.993855}, {"fusion_lat": 0.0, "type": "electric_scooter", "name": "716602d6be970bdbeca9a7e0bfb06e66", "fusion_lon": 0.0, "bike_id": "716602d6be970bdbeca9a7e0bfb06e66", "is_reserved": 0, "rental_uris": {"android": "https://dc.lft.to/lastmile_qr_scan", "ios": "https://dc.lft.to/lastmile_qr_scan"}, "lat": 38.924604, "is_disabled": 0, "lon": -77.02974816666666}, {"fusion_lat": 0.0, "type": "electric_scooter", "name": "e89dbb2c3c1fe3e5354995cde21f6393", "fusion_lon": 0.0, "bike_id": "e89dbb2c3c1fe3e5354995cde21f6393", "is_reserved": 0, "rental_uris": {"android": "https://dc.lft.to/lastmile_qr_scan", "ios": "https://dc.lft.to/lastmile_qr_scan"}, "lat": 38.911260166666665, "is_disabled": 0, "lon": -77.02202516666667}, {"fusion_lat": 0.0, "type": "electric_scooter", "name": "24a484ed3ab8aefcef4935029a2788c9", "fusion_lon": 0.0, "bike_id": "24a484ed3ab8aefcef4935029a2788c9", "is_reserved": 0, "rental_uris": {"android": "https://dc.lft.to/lastmile_qr_scan", "ios": "https://dc.lft.to/lastmile_qr_scan"}, "lat": 38.89606833333333, "is_disabled": 0, "lon": -77.04985883333333}, {"fusion_lat": 0.0, "type": "electric_scooter", "name": "21d415a673c77c83801fe5707776f102", "fusion_lon": 0.0, "bike_id": "21d415a673c77c83801fe5707776f102", "is_reserved": 0, "rental_uris": {"android": "https://dc.lft.to/lastmile_qr_scan", "ios": "https://dc.lft.to/lastmile_qr_scan"}, "lat": 38.892276333333335, "is_disabled": 0, "lon": -77.0499905}, {"fusion_lat": 0.0, "type": "electric_scooter", "name": "a526d7def70d56271b10e53b17007de5", "fusion_lon": 0.0, "bike_id": "a526d7def70d56271b10e53b17007de5", "is_reserved": 0, "rental_uris": {"android": "https://dc.lft.to/lastmile_qr_scan", "ios": "https://dc.lft.to/lastmile_qr_scan"}, "lat": 38.8962555, "is_disabled": 0, "lon": -77.03197566666667}, {"fusion_lat": 0.0, "type": "electric_scooter", "name": "e61ba06848acbabf0a065f3ba6df04c4", "fusion_lon": 0.0, "bike_id": "e61ba06848acbabf0a065f3ba6df04c4", "is_reserved": 0, "rental_uris": {"android": "https://dc.lft.to/lastmile_qr_scan", "ios": "https://dc.lft.to/lastmile_qr_scan"}, "lat": 38.952714666666665, "is_disabled": 0, "lon": -77.068576}, {"fusion_lat": 0.0, "type": "electric_scooter", "name": "723936f52587493aaa23e316dbae2ff6", "fusion_lon": 0.0, "bike_id": "723936f52587493aaa23e316dbae2ff6", "is_reserved": 0, "rental_uris": {"android": "https://dc.lft.to/lastmile_qr_scan", "ios": "https://dc.lft.to/lastmile_qr_scan"}, "lat": 38.92616433333333, "is_disabled": 0, "lon": -77.04314416666666}, {"fusion_lat": 0.0, "type": "electric_scooter", "name": "aa36c27da80af94f76622bf9a0a419af", "fusion_lon": 0.0, "bike_id": "aa36c27da80af94f76622bf9a0a419af", "is_reserved": 0, "rental_uris": {"android": "https://dc.lft.to/lastmile_qr_scan", "ios": "https://dc.lft.to/lastmile_qr_scan"}, "lat": 38.924746666666664, "is_disabled": 0, "lon": -77.0266435}, {"fusion_lat": 0.0, "type": "electric_scooter", "name": "b1c26865399574771815d57d0ce80e4f", "fusion_lon": 0.0, "bike_id": "b1c26865399574771815d57d0ce80e4f", "is_reserved": 0, "rental_uris": {"android": "https://dc.lft.to/lastmile_qr_scan", "ios": "https://dc.lft.to/lastmile_qr_scan"}, "lat": 38.95183866666667, "is_disabled": 0, "lon": -77.02612833333333}, {"fusion_lat": 0.0, "type": "electric_scooter", "name": "825cfefed72ab0b33eb938a569219b4d", "fusion_lon": 0.0, "bike_id": "825cfefed72ab0b33eb938a569219b4d", "is_reserved": 0, "rental_uris": {"android": "https://dc.lft.to/lastmile_qr_scan", "ios": "https://dc.lft.to/lastmile_qr_scan"}, "lat": 38.9216525, "is_disabled": 0, "lon": -77.0338125}, {"fusion_lat": 0.0, "type": "electric_scooter", "name": "289c72b37b1fd297f8f2ce6539cc83a0", "fusion_lon": 0.0, "bike_id": "289c72b37b1fd297f8f2ce6539cc83a0", "is_reserved": 0, "rental_uris": {"android": "https://dc.lft.to/lastmile_qr_scan", "ios": "https://dc.lft.to/lastmile_qr_scan"}, "lat": 38.9183535, "is_disabled": 0, "lon": -77.05951866666666}, {"fusion_lat": 0.0, "type": "electric_scooter", "name": "b0deb771fe10b17709b007727ba281c6", "fusion_lon": 0.0, "bike_id": "b0deb771fe10b17709b007727ba281c6", "is_reserved": 0, "rental_uris": {"android": "https://dc.lft.to/lastmile_qr_scan", "ios": "https://dc.lft.to/lastmile_qr_scan"}, "lat": 38.913742166666665, "is_disabled": 0, "lon": -77.0314505}, {"fusion_lat": 0.0, "type": "electric_bike", "name": "b0da307fd62ab008970f7be6373910b9", "fusion_lon": 0.0, "bike_id": "b0da307fd62ab008970f7be6373910b9", "is_reserved": 0, "rental_uris": {"android": "https://dc.lft.to/lastmile_qr_scan", "ios": "https://dc.lft.to/lastmile_qr_scan"}, "lat": 38.953238999999996, "is_disabled": 0, "lon": -76.9543435}, {"fusion_lat": 0.0, "type": "electric_scooter", "name": "28e6c306b7f661ce043b6bf1975287c9", "fusion_lon": 0.0, "bike_id": "28e6c306b7f661ce043b6bf1975287c9", "is_reserved": 0, "rental_uris": {"android": "https://dc.lft.to/lastmile_qr_scan", "ios": "https://dc.lft.to/lastmile_qr_scan"}, "lat": 38.889052, "is_disabled": 0, "lon": -77.049197}, {"fusion_lat": 0.0, "type": "electric_scooter", "name": "fe698e1f2dcd184d1b43ca3490f6f1d7", "fusion_lon": 0.0, "bike_id": "fe698e1f2dcd184d1b43ca3490f6f1d7", "is_reserved": 0, "rental_uris": {"android": "https://dc.lft.to/lastmile_qr_scan", "ios": "https://dc.lft.to/lastmile_qr_scan"}, "lat": 38.90565183333333, "is_disabled": 0, "lon": -77.04611366666667}, {"fusion_lat": 0.0, "type": "electric_bike", "name": "4a31674893bbccca8d58fd9ab2341da5", "fusion_lon": 0.0, "bike_id": "4a31674893bbccca8d58fd9ab2341da5", "is_reserved": 0, "rental_uris": {"android": "https://dc.lft.to/lastmile_qr_scan", "ios": "https://dc.lft.to/lastmile_qr_scan"}, "lat": 38.932236333333336, "is_disabled": 0, "lon": -77.18121883333333}, {"fusion_lat": 0.0, "type": "electric_scooter", "name": "b19e112f7d268915240cde86c3a9b1c7", "fusion_lon": 0.0, "bike_id": "b19e112f7d268915240cde86c3a9b1c7", "is_reserved": 0, "rental_uris": {"android": "https://dc.lft.to/lastmile_qr_scan", "ios": "https://dc.lft.to/lastmile_qr_scan"}, "lat": 38.916361, "is_disabled": 0, "lon": -77.04789466666666}, {"fusion_lat": 0.0, "type": "electric_scooter", "name": "431d20f61e7092f3c535d19190225b1c", "fusion_lon": 0.0, "bike_id": "431d20f61e7092f3c535d19190225b1c", "is_reserved": 0, "rental_uris": {"android": "https://dc.lft.to/lastmile_qr_scan", "ios": "https://dc.lft.to/lastmile_qr_scan"}, "lat": 38.923506333333336, "is_disabled": 0, "lon": -77.0351965}, {"fusion_lat": 0.0, "type": "electric_scooter", "name": "009ce7ef10f30ed62e8124ec0da01746", "fusion_lon": 0.0, "bike_id": "009ce7ef10f30ed62e8124ec0da01746", "is_reserved": 0, "rental_uris": {"android": "https://dc.lft.to/lastmile_qr_scan", "ios": "https://dc.lft.to/lastmile_qr_scan"}, "lat": 38.8650145, "is_disabled": 0, "lon": -76.9900575}, {"fusion_lat": 0.0, "type": "electric_scooter", "name": "fe052934bb08878b71c3926307bb9bad", "fusion_lon": 0.0, "bike_id": "fe052934bb08878b71c3926307bb9bad", "is_reserved": 0, "rental_uris": {"android": "https://dc.lft.to/lastmile_qr_scan", "ios": "https://dc.lft.to/lastmile_qr_scan"}, "lat": 38.8930565, "is_disabled": 0, "lon": -76.9291885}, {"fusion_lat": 0.0, "type": "electric_scooter", "name": "04697eb73d5b54f7977daa6f252418bb", "fusion_lon": 0.0, "bike_id": "04697eb73d5b54f7977daa6f252418bb", "is_reserved": 0, "rental_uris": {"android": "https://dc.lft.to/lastmile_qr_scan", "ios": "https://dc.lft.to/lastmile_qr_scan"}, "lat": 38.926621, "is_disabled": 0, "lon": -77.02296516666667}, {"fusion_lat": 0.0, "type": "electric_scooter", "name": "f6559aa0cfa13394f6d0aab57bcb46df", "fusion_lon": 0.0, "bike_id": "f6559aa0cfa13394f6d0aab57bcb46df", "is_reserved": 0, "rental_uris": {"android": "https://dc.lft.to/lastmile_qr_scan", "ios": "https://dc.lft.to/lastmile_qr_scan"}, "lat": 38.92749216666667, "is_disabled": 0, "lon": -77.03279233333333}, {"fusion_lat": 0.0, "type": "electric_scooter", "name": "40fc7612c6774e1176487b793e2b7fc4", "fusion_lon": 0.0, "bike_id": "40fc7612c6774e1176487b793e2b7fc4", "is_reserved": 0, "rental_uris": {"android": "https://dc.lft.to/lastmile_qr_scan", "ios": "https://dc.lft.to/lastmile_qr_scan"}, "lat": 38.927345833333334, "is_disabled": 0, "lon": -77.02265666666666}, {"fusion_lat": 0.0, "type": "electric_scooter", "name": "51e108bccf7fe3676155e237ad7722c2", "fusion_lon": 0.0, "bike_id": "51e108bccf7fe3676155e237ad7722c2", "is_reserved": 0, "rental_uris": {"android": "https://dc.lft.to/lastmile_qr_scan", "ios": "https://dc.lft.to/lastmile_qr_scan"}, "lat": 38.895517166666664, "is_disabled": 0, "lon": -77.00915183333333}, {"fusion_lat": 0.0, "type": "electric_scooter", "name": "69cb515f4d2dd53795f80d907399c80e", "fusion_lon": 0.0, "bike_id": "69cb515f4d2dd53795f80d907399c80e", "is_reserved": 0, "rental_uris": {"android": "https://dc.lft.to/lastmile_qr_scan", "ios": "https://dc.lft.to/lastmile_qr_scan"}, "lat": 38.89809733333333, "is_disabled": 0, "lon": -77.03312383333333}, {"fusion_lat": 0.0, "type": "electric_bike", "name": "22fd52153f073fcea5e9506eaef45459", "fusion_lon": 0.0, "bike_id": "22fd52153f073fcea5e9506eaef45459", "is_reserved": 0, "rental_uris": {"android": "https://dc.lft.to/lastmile_qr_scan", "ios": "https://dc.lft.to/lastmile_qr_scan"}, "lat": 38.811997166666664, "is_disabled": 0, "lon": -77.108403}, {"fusion_lat": 0.0, "type": "electric_scooter", "name": "235724db721d8386f020fcdc396059f6", "fusion_lon": 0.0, "bike_id": "235724db721d8386f020fcdc396059f6", "is_reserved": 0, "rental_uris": {"android": "https://dc.lft.to/lastmile_qr_scan", "ios": "https://dc.lft.to/lastmile_qr_scan"}, "lat": 38.90219116666667, "is_disabled": 0, "lon": -77.0235775}, {"fusion_lat": 0.0, "type": "electric_scooter", "name": "e6e12900229375b6ce32bad46e0b00f1", "fusion_lon": 0.0, "bike_id": "e6e12900229375b6ce32bad46e0b00f1", "is_reserved": 0, "rental_uris": {"android": "https://dc.lft.to/lastmile_qr_scan", "ios": "https://dc.lft.to/lastmile_qr_scan"}, "lat": 38.8717425, "is_disabled": 0, "lon": -77.00624066666667}, {"fusion_lat": 0.0, "type": "electric_scooter", "name": "687392fd768640455c1a7c250849781b", "fusion_lon": 0.0, "bike_id": "687392fd768640455c1a7c250849781b", "is_reserved": 0, "rental_uris": {"android": "https://dc.lft.to/lastmile_qr_scan", "ios": "https://dc.lft.to/lastmile_qr_scan"}, "lat": 38.90386933333333, "is_disabled": 0, "lon": -77.04199816666667}, {"fusion_lat": 0.0, "type": "electric_scooter", "name": "b850d9734f4a1b04e3855013a85742e8", "fusion_lon": 0.0, "bike_id": "b850d9734f4a1b04e3855013a85742e8", "is_reserved": 0, "rental_uris": {"android": "https://dc.lft.to/lastmile_qr_scan", "ios": "https://dc.lft.to/lastmile_qr_scan"}, "lat": 38.92271183333333, "is_disabled": 0, "lon": -77.0341245}, {"fusion_lat": 0.0, "type": "electric_scooter", "name": "65eb87d373bfc0adc87b67e778087945", "fusion_lon": 0.0, "bike_id": "65eb87d373bfc0adc87b67e778087945", "is_reserved": 0, "rental_uris": {"android": "https://dc.lft.to/lastmile_qr_scan", "ios": "https://dc.lft.to/lastmile_qr_scan"}, "lat": 38.957300000000004, "is_disabled": 0, "lon": -77.0240185}, {"fusion_lat": 0.0, "type": "electric_scooter", "name": "ea4583e3c868dd1d4b75b1895b60c546", "fusion_lon": 0.0, "bike_id": "ea4583e3c868dd1d4b75b1895b60c546", "is_reserved": 0, "rental_uris": {"android": "https://dc.lft.to/lastmile_qr_scan", "ios": "https://dc.lft.to/lastmile_qr_scan"}, "lat": 38.92945183333333, "is_disabled": 0, "lon": -77.01643783333333}, {"fusion_lat": 0.0, "type": "electric_scooter", "name": "b0d138ac98dedf10687c3054a4bd6e48", "fusion_lon": 0.0, "bike_id": "b0d138ac98dedf10687c3054a4bd6e48", "is_reserved": 0, "rental_uris": {"android": "https://dc.lft.to/lastmile_qr_scan", "ios": "https://dc.lft.to/lastmile_qr_scan"}, "lat": 38.893545833333334, "is_disabled": 0, "lon": -77.0033475}, {"fusion_lat": 0.0, "type": "electric_scooter", "name": "eee888fe94d528e01a48cde4a2e7fd39", "fusion_lon": 0.0, "bike_id": "eee888fe94d528e01a48cde4a2e7fd39", "is_reserved": 0, "rental_uris": {"android": "https://dc.lft.to/lastmile_qr_scan", "ios": "https://dc.lft.to/lastmile_qr_scan"}, "lat": 38.93703466666667, "is_disabled": 0, "lon": -77.02401083333334}, {"fusion_lat": 0.0, "type": "electric_scooter", "name": "a29d87a3a12f561999b21be17a708fde", "fusion_lon": 0.0, "bike_id": "a29d87a3a12f561999b21be17a708fde", "is_reserved": 0, "rental_uris": {"android": "https://dc.lft.to/lastmile_qr_scan", "ios": "https://dc.lft.to/lastmile_qr_scan"}, "lat": 38.910701833333334, "is_disabled": 0, "lon": -77.03459783333334}, {"fusion_lat": 0.0, "type": "electric_scooter", "name": "83c7478bd6bdeaed47726de78d691939", "fusion_lon": 0.0, "bike_id": "83c7478bd6bdeaed47726de78d691939", "is_reserved": 0, "rental_uris": {"android": "https://dc.lft.to/lastmile_qr_scan", "ios": "https://dc.lft.to/lastmile_qr_scan"}, "lat": 38.9029235, "is_disabled": 0, "lon": -77.03856}, {"fusion_lat": 0.0, "type": "electric_scooter", "name": "f1c187c345bdf31a02a95c3d01f2b118", "fusion_lon": 0.0, "bike_id": "f1c187c345bdf31a02a95c3d01f2b118", "is_reserved": 0, "rental_uris": {"android": "https://dc.lft.to/lastmile_qr_scan", "ios": "https://dc.lft.to/lastmile_qr_scan"}, "lat": 38.88616066666667, "is_disabled": 0, "lon": -77.0006385}, {"fusion_lat": 0.0, "type": "electric_scooter", "name": "69c88e0b9b66c4379d1aad95ab26ee16", "fusion_lon": 0.0, "bike_id": "69c88e0b9b66c4379d1aad95ab26ee16", "is_reserved": 0, "rental_uris": {"android": "https://dc.lft.to/lastmile_qr_scan", "ios": "https://dc.lft.to/lastmile_qr_scan"}, "lat": 38.903520666666665, "is_disabled": 0, "lon": -77.045163}, {"fusion_lat": 0.0, "type": "electric_scooter", "name": "6265198c8089777f98c00ed900a1ecca", "fusion_lon": 0.0, "bike_id": "6265198c8089777f98c00ed900a1ecca", "is_reserved": 0, "rental_uris": {"android": "https://dc.lft.to/lastmile_qr_scan", "ios": "https://dc.lft.to/lastmile_qr_scan"}, "lat": 38.92360716666666, "is_disabled": 0, "lon": -77.05130466666667}, {"fusion_lat": 0.0, "type": "electric_bike", "name": "abad3f3c658846acc6716f14f8e15f8a", "fusion_lon": 0.0, "bike_id": "abad3f3c658846acc6716f14f8e15f8a", "is_reserved": 0, "rental_uris": {"android": "https://dc.lft.to/lastmile_qr_scan", "ios": "https://dc.lft.to/lastmile_qr_scan"}, "lat": 38.903783833333335, "is_disabled": 0, "lon": -77.06276333333334}, {"fusion_lat": 0.0, "type": "electric_scooter", "name": "3e0a6773f9bc7475747f1cf2704c4ec9", "fusion_lon": 0.0, "bike_id": "3e0a6773f9bc7475747f1cf2704c4ec9", "is_reserved": 0, "rental_uris": {"android": "https://dc.lft.to/lastmile_qr_scan", "ios": "https://dc.lft.to/lastmile_qr_scan"}, "lat": 38.974499, "is_disabled": 0, "lon": -77.017936}, {"fusion_lat": 0.0, "type": "electric_scooter", "name": "7d508c1e492ddf10a90900cf5c979f11", "fusion_lon": 0.0, "bike_id": "7d508c1e492ddf10a90900cf5c979f11", "is_reserved": 0, "rental_uris": {"android": "https://dc.lft.to/lastmile_qr_scan", "ios": "https://dc.lft.to/lastmile_qr_scan"}, "lat": 38.892945, "is_disabled": 0, "lon": -77.01234083333334}, {"fusion_lat": 0.0, "type": "electric_scooter", "name": "7212c1a13fd380580a65f721a4e35902", "fusion_lon": 0.0, "bike_id": "7212c1a13fd380580a65f721a4e35902", "is_reserved": 0, "rental_uris": {"android": "https://dc.lft.to/lastmile_qr_scan", "ios": "https://dc.lft.to/lastmile_qr_scan"}, "lat": 38.898180333333336, "is_disabled": 0, "lon": -77.032709}, {"fusion_lat": 0.0, "type": "electric_scooter", "name": "5492c854e20b2dd009804a2eb2eb0d71", "fusion_lon": 0.0, "bike_id": "5492c854e20b2dd009804a2eb2eb0d71", "is_reserved": 0, "rental_uris": {"android": "https://dc.lft.to/lastmile_qr_scan", "ios": "https://dc.lft.to/lastmile_qr_scan"}, "lat": 38.9188645, "is_disabled": 0, "lon": -77.04830083333333}, {"fusion_lat": 0.0, "type": "electric_scooter", "name": "577db0f5daf7e7507ed485a50851bd1e", "fusion_lon": 0.0, "bike_id": "577db0f5daf7e7507ed485a50851bd1e", "is_reserved": 0, "rental_uris": {"android": "https://dc.lft.to/lastmile_qr_scan", "ios": "https://dc.lft.to/lastmile_qr_scan"}, "lat": 38.90266183333333, "is_disabled": 0, "lon": -77.03645583333333}, {"fusion_lat": 0.0, "type": "electric_bike", "name": "bef414191ff8205939c1d5697e457cd5", "fusion_lon": 0.0, "bike_id": "bef414191ff8205939c1d5697e457cd5", "is_reserved": 0, "rental_uris": {"android": "https://dc.lft.to/lastmile_qr_scan", "ios": "https://dc.lft.to/lastmile_qr_scan"}, "lat": 38.92874233333333, "is_disabled": 0, "lon": -77.01238733333334}, {"fusion_lat": 0.0, "type": "electric_scooter", "name": "6b4dbd5bc74ca1800435d74dbbee5685", "fusion_lon": 0.0, "bike_id": "6b4dbd5bc74ca1800435d74dbbee5685", "is_reserved": 0, "rental_uris": {"android": "https://dc.lft.to/lastmile_qr_scan", "ios": "https://dc.lft.to/lastmile_qr_scan"}, "lat": 38.9141945, "is_disabled": 0, "lon": -77.02594483333333}, {"fusion_lat": 0.0, "type": "electric_scooter", "name": "c4546f639c3cc5b36c658303ad040664", "fusion_lon": 0.0, "bike_id": "c4546f639c3cc5b36c658303ad040664", "is_reserved": 0, "rental_uris": {"android": "https://dc.lft.to/lastmile_qr_scan", "ios": "https://dc.lft.to/lastmile_qr_scan"}, "lat": 38.908137333333336, "is_disabled": 0, "lon": -77.039514}, {"fusion_lat": 0.0, "type": "electric_scooter", "name": "005af0d3a3b61be3708bf9784988aa52", "fusion_lon": 0.0, "bike_id": "005af0d3a3b61be3708bf9784988aa52", "is_reserved": 0, "rental_uris": {"android": "https://dc.lft.to/lastmile_qr_scan", "ios": "https://dc.lft.to/lastmile_qr_scan"}, "lat": 38.908083166666664, "is_disabled": 0, "lon": -77.04337366666667}, {"fusion_lat": 0.0, "type": "electric_scooter", "name": "acc1d96479a710efedb8f70639a6807d", "fusion_lon": 0.0, "bike_id": "acc1d96479a710efedb8f70639a6807d", "is_reserved": 0, "rental_uris": {"android": "https://dc.lft.to/lastmile_qr_scan", "ios": "https://dc.lft.to/lastmile_qr_scan"}, "lat": 38.9242535, "is_disabled": 0, "lon": -77.0446025}, {"fusion_lat": 0.0, "type": "electric_scooter", "name": "ec2dac70f75ef942634d052628eb5503", "fusion_lon": 0.0, "bike_id": "ec2dac70f75ef942634d052628eb5503", "is_reserved": 0, "rental_uris": {"android": "https://dc.lft.to/lastmile_qr_scan", "ios": "https://dc.lft.to/lastmile_qr_scan"}, "lat": 38.89306233333333, "is_disabled": 0, "lon": -77.02162933333334}, {"fusion_lat": 0.0, "type": "electric_scooter", "name": "c2d1c86b1ee20a63f9e89818c175c7a7", "fusion_lon": 0.0, "bike_id": "c2d1c86b1ee20a63f9e89818c175c7a7", "is_reserved": 0, "rental_uris": {"android": "https://dc.lft.to/lastmile_qr_scan", "ios": "https://dc.lft.to/lastmile_qr_scan"}, "lat": 38.920186, "is_disabled": 0, "lon": -76.99568666666667}, {"fusion_lat": 0.0, "type": "electric_scooter", "name": "0c31b24d8eafa0da5113afe9460e5959", "fusion_lon": 0.0, "bike_id": "0c31b24d8eafa0da5113afe9460e5959", "is_reserved": 0, "rental_uris": {"android": "https://dc.lft.to/lastmile_qr_scan", "ios": "https://dc.lft.to/lastmile_qr_scan"}, "lat": 38.883165166666664, "is_disabled": 0, "lon": -77.017523}, {"fusion_lat": 0.0, "type": "electric_scooter", "name": "79a1d5470d7c942e06156af1af413f7e", "fusion_lon": 0.0, "bike_id": "79a1d5470d7c942e06156af1af413f7e", "is_reserved": 0, "rental_uris": {"android": "https://dc.lft.to/lastmile_qr_scan", "ios": "https://dc.lft.to/lastmile_qr_scan"}, "lat": 38.924145333333335, "is_disabled": 0, "lon": -77.01947633333333}, {"fusion_lat": 0.0, "type": "electric_scooter", "name": "07b6e9f044bc84fda9db3ca68be1ca59", "fusion_lon": 0.0, "bike_id": "07b6e9f044bc84fda9db3ca68be1ca59", "is_reserved": 0, "rental_uris": {"android": "https://dc.lft.to/lastmile_qr_scan", "ios": "https://dc.lft.to/lastmile_qr_scan"}, "lat": 38.92758366666666, "is_disabled": 0, "lon": -77.03280566666666}, {"fusion_lat": 0.0, "type": "electric_scooter", "name": "e62b71c51359ae133a1a0d10451b1a6b", "fusion_lon": 0.0, "bike_id": "e62b71c51359ae133a1a0d10451b1a6b", "is_reserved": 0, "rental_uris": {"android": "https://dc.lft.to/lastmile_qr_scan", "ios": "https://dc.lft.to/lastmile_qr_scan"}, "lat": 38.95792483333334, "is_disabled": 0, "lon": -77.02005933333334}, {"fusion_lat": 0.0, "type": "electric_scooter", "name": "a9b67dbcb52b3385688008b5513b0db1", "fusion_lon": 0.0, "bike_id": "a9b67dbcb52b3385688008b5513b0db1", "is_reserved": 0, "rental_uris": {"android": "https://dc.lft.to/lastmile_qr_scan", "ios": "https://dc.lft.to/lastmile_qr_scan"}, "lat": 38.90500883333333, "is_disabled": 0, "lon": -77.06859}, {"fusion_lat": 0.0, "type": "electric_scooter", "name": "811e1b5c39f0d7bfbbc894ed92a826d3", "fusion_lon": 0.0, "bike_id": "811e1b5c39f0d7bfbbc894ed92a826d3", "is_reserved": 0, "rental_uris": {"android": "https://dc.lft.to/lastmile_qr_scan", "ios": "https://dc.lft.to/lastmile_qr_scan"}, "lat": 38.871955, "is_disabled": 0, "lon": -77.01073466666666}, {"fusion_lat": 0.0, "type": "electric_scooter", "name": "6d92c58ebd240f9857eda6864ef21ffd", "fusion_lon": 0.0, "bike_id": "6d92c58ebd240f9857eda6864ef21ffd", "is_reserved": 0, "rental_uris": {"android": "https://dc.lft.to/lastmile_qr_scan", "ios": "https://dc.lft.to/lastmile_qr_scan"}, "lat": 38.8973275, "is_disabled": 0, "lon": -77.043608}, {"fusion_lat": 0.0, "type": "electric_scooter", "name": "e44e784791dd5e37024a5df55d9ef0b0", "fusion_lon": 0.0, "bike_id": "e44e784791dd5e37024a5df55d9ef0b0", "is_reserved": 0, "rental_uris": {"android": "https://dc.lft.to/lastmile_qr_scan", "ios": "https://dc.lft.to/lastmile_qr_scan"}, "lat": 38.98449266666667, "is_disabled": 0, "lon": -77.026431}, {"fusion_lat": 0.0, "type": "electric_scooter", "name": "24157296dbf9a7948afc9167d9b64c36", "fusion_lon": 0.0, "bike_id": "24157296dbf9a7948afc9167d9b64c36", "is_reserved": 0, "rental_uris": {"android": "https://dc.lft.to/lastmile_qr_scan", "ios": "https://dc.lft.to/lastmile_qr_scan"}, "lat": 38.90855116666667, "is_disabled": 0, "lon": -77.04568433333333}, {"fusion_lat": 0.0, "type": "electric_scooter", "name": "aeab749682cfa770c65dbddf09761bb5", "fusion_lon": 0.0, "bike_id": "aeab749682cfa770c65dbddf09761bb5", "is_reserved": 0, "rental_uris": {"android": "https://dc.lft.to/lastmile_qr_scan", "ios": "https://dc.lft.to/lastmile_qr_scan"}, "lat": 38.8698805, "is_disabled": 0, "lon": -76.97587383333334}, {"fusion_lat": 0.0, "type": "electric_scooter", "name": "1bb935c7b56ff63817bdd3cc268c3029", "fusion_lon": 0.0, "bike_id": "1bb935c7b56ff63817bdd3cc268c3029", "is_reserved": 0, "rental_uris": {"android": "https://dc.lft.to/lastmile_qr_scan", "ios": "https://dc.lft.to/lastmile_qr_scan"}, "lat": 38.878273166666666, "is_disabled": 0, "lon": -76.96308233333333}, {"fusion_lat": 0.0, "type": "electric_bike", "name": "c6943b2213deb57629e7db2a5dd7aadc", "fusion_lon": 0.0, "bike_id": "c6943b2213deb57629e7db2a5dd7aadc", "is_reserved": 0, "rental_uris": {"android": "https://dc.lft.to/lastmile_qr_scan", "ios": "https://dc.lft.to/lastmile_qr_scan"}, "lat": 39.0527755, "is_disabled": 0, "lon": -77.08065283333333}, {"fusion_lat": 0.0, "type": "electric_scooter", "name": "f7039be91e568cdd0e084a2dfe301d39", "fusion_lon": 0.0, "bike_id": "f7039be91e568cdd0e084a2dfe301d39", "is_reserved": 0, "rental_uris": {"android": "https://dc.lft.to/lastmile_qr_scan", "ios": "https://dc.lft.to/lastmile_qr_scan"}, "lat": 38.887257166666664, "is_disabled": 0, "lon": -77.02822733333333}, {"fusion_lat": 0.0, "type": "electric_scooter", "name": "e714fbcbeb73c794c2b2d4fcfa1113d8", "fusion_lon": 0.0, "bike_id": "e714fbcbeb73c794c2b2d4fcfa1113d8", "is_reserved": 0, "rental_uris": {"android": "https://dc.lft.to/lastmile_qr_scan", "ios": "https://dc.lft.to/lastmile_qr_scan"}, "lat": 38.90255233333333, "is_disabled": 0, "lon": -76.99553}, {"fusion_lat": 0.0, "type": "electric_scooter", "name": "5ea0f09d7ef75e337094acb50258ca07", "fusion_lon": 0.0, "bike_id": "5ea0f09d7ef75e337094acb50258ca07", "is_reserved": 0, "rental_uris": {"android": "https://dc.lft.to/lastmile_qr_scan", "ios": "https://dc.lft.to/lastmile_qr_scan"}, "lat": 38.9203515, "is_disabled": 0, "lon": -77.0167685}, {"fusion_lat": 0.0, "type": "electric_scooter", "name": "79ab83579fff5ed03aaf060b631d677b", "fusion_lon": 0.0, "bike_id": "79ab83579fff5ed03aaf060b631d677b", "is_reserved": 0, "rental_uris": {"android": "https://dc.lft.to/lastmile_qr_scan", "ios": "https://dc.lft.to/lastmile_qr_scan"}, "lat": 38.876982, "is_disabled": 0, "lon": -77.0042085}, {"fusion_lat": 0.0, "type": "electric_scooter", "name": "c46cc6fe90a3df3294c74666a6cf6237", "fusion_lon": 0.0, "bike_id": "c46cc6fe90a3df3294c74666a6cf6237", "is_reserved": 0, "rental_uris": {"android": "https://dc.lft.to/lastmile_qr_scan", "ios": "https://dc.lft.to/lastmile_qr_scan"}, "lat": 38.931226, "is_disabled": 0, "lon": -77.02823933333333}, {"fusion_lat": 0.0, "type": "electric_scooter", "name": "6a3a9ec4489bb29a033a3817dba5950a", "fusion_lon": 0.0, "bike_id": "6a3a9ec4489bb29a033a3817dba5950a", "is_reserved": 0, "rental_uris": {"android": "https://dc.lft.to/lastmile_qr_scan", "ios": "https://dc.lft.to/lastmile_qr_scan"}, "lat": 38.92416166666667, "is_disabled": 0, "lon": -77.01944283333333}, {"fusion_lat": 0.0, "type": "electric_bike", "name": "d5895ab9642641c72f462c630e268d0e", "fusion_lon": 0.0, "bike_id": "d5895ab9642641c72f462c630e268d0e", "is_reserved": 0, "rental_uris": {"android": "https://dc.lft.to/lastmile_qr_scan", "ios": "https://dc.lft.to/lastmile_qr_scan"}, "lat": 38.96100333333333, "is_disabled": 0, "lon": -76.92811566666667}, {"fusion_lat": 0.0, "type": "electric_scooter", "name": "ba5c5d9232b0085ed80a2ac78faf1d55", "fusion_lon": 0.0, "bike_id": "ba5c5d9232b0085ed80a2ac78faf1d55", "is_reserved": 0, "rental_uris": {"android": "https://dc.lft.to/lastmile_qr_scan", "ios": "https://dc.lft.to/lastmile_qr_scan"}, "lat": 38.911055166666664, "is_disabled": 0, "lon": -77.044769}, {"fusion_lat": 0.0, "type": "electric_scooter", "name": "d77633e83356a291258be2f772c011d9", "fusion_lon": 0.0, "bike_id": "d77633e83356a291258be2f772c011d9", "is_reserved": 0, "rental_uris": {"android": "https://dc.lft.to/lastmile_qr_scan", "ios": "https://dc.lft.to/lastmile_qr_scan"}, "lat": 38.89326233333333, "is_disabled": 0, "lon": -77.012096}, {"fusion_lat": 0.0, "type": "electric_scooter", "name": "15a8f8a346ca20763377ee20277e9c28", "fusion_lon": 0.0, "bike_id": "15a8f8a346ca20763377ee20277e9c28", "is_reserved": 0, "rental_uris": {"android": "https://dc.lft.to/lastmile_qr_scan", "ios": "https://dc.lft.to/lastmile_qr_scan"}, "lat": 38.8881485, "is_disabled": 0, "lon": -76.933439}, {"fusion_lat": 0.0, "type": "electric_scooter", "name": "b97985205e54dc96e6bdbef5d0736ff2", "fusion_lon": 0.0, "bike_id": "b97985205e54dc96e6bdbef5d0736ff2", "is_reserved": 0, "rental_uris": {"android": "https://dc.lft.to/lastmile_qr_scan", "ios": "https://dc.lft.to/lastmile_qr_scan"}, "lat": 38.92359283333333, "is_disabled": 0, "lon": -77.02113083333333}, {"fusion_lat": 0.0, "type": "electric_scooter", "name": "90ec820e306f32b3da2e8142f20eaeaf", "fusion_lon": 0.0, "bike_id": "90ec820e306f32b3da2e8142f20eaeaf", "is_reserved": 0, "rental_uris": {"android": "https://dc.lft.to/lastmile_qr_scan", "ios": "https://dc.lft.to/lastmile_qr_scan"}, "lat": 38.91017083333333, "is_disabled": 0, "lon": -77.04246433333333}, {"fusion_lat": 0.0, "type": "electric_scooter", "name": "59e9abffcacfca96888357ee03e06819", "fusion_lon": 0.0, "bike_id": "59e9abffcacfca96888357ee03e06819", "is_reserved": 0, "rental_uris": {"android": "https://dc.lft.to/lastmile_qr_scan", "ios": "https://dc.lft.to/lastmile_qr_scan"}, "lat": 38.892215, "is_disabled": 0, "lon": -77.03192483333333}, {"fusion_lat": 0.0, "type": "electric_scooter", "name": "8db3142133fc18e1a6bd39df88f7d163", "fusion_lon": 0.0, "bike_id": "8db3142133fc18e1a6bd39df88f7d163", "is_reserved": 0, "rental_uris": {"android": "https://dc.lft.to/lastmile_qr_scan", "ios": "https://dc.lft.to/lastmile_qr_scan"}, "lat": 38.917041, "is_disabled": 0, "lon": -77.03511816666666}, {"fusion_lat": 0.0, "type": "electric_scooter", "name": "640924958dbc3df6b80b5d211a24cfe8", "fusion_lon": 0.0, "bike_id": "640924958dbc3df6b80b5d211a24cfe8", "is_reserved": 0, "rental_uris": {"android": "https://dc.lft.to/lastmile_qr_scan", "ios": "https://dc.lft.to/lastmile_qr_scan"}, "lat": 38.92108283333334, "is_disabled": 0, "lon": -77.04208516666667}, {"fusion_lat": 0.0, "type": "electric_scooter", "name": "f9f4b8bbd6673b263b766a5ea6243837", "fusion_lon": 0.0, "bike_id": "f9f4b8bbd6673b263b766a5ea6243837", "is_reserved": 0, "rental_uris": {"android": "https://dc.lft.to/lastmile_qr_scan", "ios": "https://dc.lft.to/lastmile_qr_scan"}, "lat": 38.89882866666667, "is_disabled": 0, "lon": -77.033189}, {"fusion_lat": 0.0, "type": "electric_scooter", "name": "7f410812e4845b640cc278c4beb471e2", "fusion_lon": 0.0, "bike_id": "7f410812e4845b640cc278c4beb471e2", "is_reserved": 0, "rental_uris": {"android": "https://dc.lft.to/lastmile_qr_scan", "ios": "https://dc.lft.to/lastmile_qr_scan"}, "lat": 38.905498, "is_disabled": 0, "lon": -77.00555866666667}, {"fusion_lat": 0.0, "type": "electric_scooter", "name": "1c979e28c5ffd0658a9e870f6059d67a", "fusion_lon": 0.0, "bike_id": "1c979e28c5ffd0658a9e870f6059d67a", "is_reserved": 0, "rental_uris": {"android": "https://dc.lft.to/lastmile_qr_scan", "ios": "https://dc.lft.to/lastmile_qr_scan"}, "lat": 38.90969483333333, "is_disabled": 0, "lon": -77.024207}, {"fusion_lat": 0.0, "type": "electric_scooter", "name": "ab68efb621690b798df87512c20ad3d7", "fusion_lon": 0.0, "bike_id": "ab68efb621690b798df87512c20ad3d7", "is_reserved": 0, "rental_uris": {"android": "https://dc.lft.to/lastmile_qr_scan", "ios": "https://dc.lft.to/lastmile_qr_scan"}, "lat": 38.86641916666667, "is_disabled": 0, "lon": -76.985299}, {"fusion_lat": 0.0, "type": "electric_scooter", "name": "55ba0ff020fa98fd370ab452cb4fe8fb", "fusion_lon": 0.0, "bike_id": "55ba0ff020fa98fd370ab452cb4fe8fb", "is_reserved": 0, "rental_uris": {"android": "https://dc.lft.to/lastmile_qr_scan", "ios": "https://dc.lft.to/lastmile_qr_scan"}, "lat": 38.933729166666666, "is_disabled": 0, "lon": -77.02355783333333}, {"fusion_lat": 0.0, "type": "electric_scooter", "name": "ededef010501dec0e18811800d9ee7b4", "fusion_lon": 0.0, "bike_id": "ededef010501dec0e18811800d9ee7b4", "is_reserved": 0, "rental_uris": {"android": "https://dc.lft.to/lastmile_qr_scan", "ios": "https://dc.lft.to/lastmile_qr_scan"}, "lat": 38.873145, "is_disabled": 0, "lon": -77.00577116666666}, {"fusion_lat": 0.0, "type": "electric_scooter", "name": "3bebe620893163506592b378373af4b8", "fusion_lon": 0.0, "bike_id": "3bebe620893163506592b378373af4b8", "is_reserved": 0, "rental_uris": {"android": "https://dc.lft.to/lastmile_qr_scan", "ios": "https://dc.lft.to/lastmile_qr_scan"}, "lat": 38.89685166666667, "is_disabled": 0, "lon": -77.00500033333333}, {"fusion_lat": 0.0, "type": "electric_scooter", "name": "37d04ebb941ae9b4fd499c8a082a287e", "fusion_lon": 0.0, "bike_id": "37d04ebb941ae9b4fd499c8a082a287e", "is_reserved": 0, "rental_uris": {"android": "https://dc.lft.to/lastmile_qr_scan", "ios": "https://dc.lft.to/lastmile_qr_scan"}, "lat": 38.92883966666667, "is_disabled": 0, "lon": -77.033032}, {"fusion_lat": 0.0, "type": "electric_scooter", "name": "2c927cb4aa1e54a6d26f6a6a12ab389a", "fusion_lon": 0.0, "bike_id": "2c927cb4aa1e54a6d26f6a6a12ab389a", "is_reserved": 0, "rental_uris": {"android": "https://dc.lft.to/lastmile_qr_scan", "ios": "https://dc.lft.to/lastmile_qr_scan"}, "lat": 38.8922185, "is_disabled": 0, "lon": -77.02617566666666}, {"fusion_lat": 0.0, "type": "electric_scooter", "name": "69dc34bbdae83b69b86fbf96da4719c1", "fusion_lon": 0.0, "bike_id": "69dc34bbdae83b69b86fbf96da4719c1", "is_reserved": 0, "rental_uris": {"android": "https://dc.lft.to/lastmile_qr_scan", "ios": "https://dc.lft.to/lastmile_qr_scan"}, "lat": 38.93759683333333, "is_disabled": 0, "lon": -77.0219895}, {"fusion_lat": 0.0, "type": "electric_scooter", "name": "d71d36faa31fb9625de5fa5d2de55c37", "fusion_lon": 0.0, "bike_id": "d71d36faa31fb9625de5fa5d2de55c37", "is_reserved": 0, "rental_uris": {"android": "https://dc.lft.to/lastmile_qr_scan", "ios": "https://dc.lft.to/lastmile_qr_scan"}, "lat": 38.880193166666665, "is_disabled": 0, "lon": -77.02657}, {"fusion_lat": 0.0, "type": "electric_scooter", "name": "6af2d3c3425118bdeb4ff4dd3b15d2ab", "fusion_lon": 0.0, "bike_id": "6af2d3c3425118bdeb4ff4dd3b15d2ab", "is_reserved": 0, "rental_uris": {"android": "https://dc.lft.to/lastmile_qr_scan", "ios": "https://dc.lft.to/lastmile_qr_scan"}, "lat": 38.9158285, "is_disabled": 0, "lon": -77.04164016666667}, {"fusion_lat": 0.0, "type": "electric_scooter", "name": "65b1a1b70ade39dba501a73a532bbbcc", "fusion_lon": 0.0, "bike_id": "65b1a1b70ade39dba501a73a532bbbcc", "is_reserved": 0, "rental_uris": {"android": "https://dc.lft.to/lastmile_qr_scan", "ios": "https://dc.lft.to/lastmile_qr_scan"}, "lat": 38.929020333333334, "is_disabled": 0, "lon": -77.03749716666667}, {"fusion_lat": 0.0, "type": "electric_scooter", "name": "ea85d3d150a81b87788929f7271f2b3a", "fusion_lon": 0.0, "bike_id": "ea85d3d150a81b87788929f7271f2b3a", "is_reserved": 0, "rental_uris": {"android": "https://dc.lft.to/lastmile_qr_scan", "ios": "https://dc.lft.to/lastmile_qr_scan"}, "lat": 38.9224965, "is_disabled": 0, "lon": -77.072309}, {"fusion_lat": 0.0, "type": "electric_bike", "name": "296f87095cbd8e47ecf682d49d6ba111", "fusion_lon": 0.0, "bike_id": "296f87095cbd8e47ecf682d49d6ba111", "is_reserved": 0, "rental_uris": {"android": "https://dc.lft.to/lastmile_qr_scan", "ios": "https://dc.lft.to/lastmile_qr_scan"}, "lat": 38.88715, "is_disabled": 0, "lon": -77.1330465}, {"fusion_lat": 0.0, "type": "electric_scooter", "name": "50c126ba45d67a1f6ebaf7f71e8e8ced", "fusion_lon": 0.0, "bike_id": "50c126ba45d67a1f6ebaf7f71e8e8ced", "is_reserved": 0, "rental_uris": {"android": "https://dc.lft.to/lastmile_qr_scan", "ios": "https://dc.lft.to/lastmile_qr_scan"}, "lat": 38.9233465, "is_disabled": 0, "lon": -77.02145733333333}, {"fusion_lat": 0.0, "type": "electric_scooter", "name": "4708572e46fa0de1495a8cf925556eef", "fusion_lon": 0.0, "bike_id": "4708572e46fa0de1495a8cf925556eef", "is_reserved": 0, "rental_uris": {"android": "https://dc.lft.to/lastmile_qr_scan", "ios": "https://dc.lft.to/lastmile_qr_scan"}, "lat": 38.910501, "is_disabled": 0, "lon": -77.03681666666667}, {"fusion_lat": 0.0, "type": "electric_scooter", "name": "37259a25d068728a3969e9d290b552d7", "fusion_lon": 0.0, "bike_id": "37259a25d068728a3969e9d290b552d7", "is_reserved": 0, "rental_uris": {"android": "https://dc.lft.to/lastmile_qr_scan", "ios": "https://dc.lft.to/lastmile_qr_scan"}, "lat": 38.923161666666665, "is_disabled": 0, "lon": -77.03398166666666}, {"fusion_lat": 0.0, "type": "electric_scooter", "name": "06093df60c28d8134fcc8ce86aa8b929", "fusion_lon": 0.0, "bike_id": "06093df60c28d8134fcc8ce86aa8b929", "is_reserved": 0, "rental_uris": {"android": "https://dc.lft.to/lastmile_qr_scan", "ios": "https://dc.lft.to/lastmile_qr_scan"}, "lat": 38.91433333333333, "is_disabled": 0, "lon": -77.01705433333333}, {"fusion_lat": 0.0, "type": "electric_scooter", "name": "78c759eb89681fbf2d003beaf1968628", "fusion_lon": 0.0, "bike_id": "78c759eb89681fbf2d003beaf1968628", "is_reserved": 0, "rental_uris": {"android": "https://dc.lft.to/lastmile_qr_scan", "ios": "https://dc.lft.to/lastmile_qr_scan"}, "lat": 38.9072, "is_disabled": 0, "lon": -77.04350433333333}, {"fusion_lat": 0.0, "type": "electric_scooter", "name": "f1beb58ba62a7f5bf7d08b1e4d6b0d98", "fusion_lon": 0.0, "bike_id": "f1beb58ba62a7f5bf7d08b1e4d6b0d98", "is_reserved": 0, "rental_uris": {"android": "https://dc.lft.to/lastmile_qr_scan", "ios": "https://dc.lft.to/lastmile_qr_scan"}, "lat": 38.93046866666667, "is_disabled": 0, "lon": -77.03789733333333}, {"fusion_lat": 0.0, "type": "electric_scooter", "name": "d51b57bd6bf18d9e147fe13c09f9b168", "fusion_lon": 0.0, "bike_id": "d51b57bd6bf18d9e147fe13c09f9b168", "is_reserved": 0, "rental_uris": {"android": "https://dc.lft.to/lastmile_qr_scan", "ios": "https://dc.lft.to/lastmile_qr_scan"}, "lat": 38.88007016666667, "is_disabled": 0, "lon": -77.02482416666666}, {"fusion_lat": 0.0, "type": "electric_scooter", "name": "73cf6943eb7788af3ccc7ecf17d2f42a", "fusion_lon": 0.0, "bike_id": "73cf6943eb7788af3ccc7ecf17d2f42a", "is_reserved": 0, "rental_uris": {"android": "https://dc.lft.to/lastmile_qr_scan", "ios": "https://dc.lft.to/lastmile_qr_scan"}, "lat": 38.9253415, "is_disabled": 0, "lon": -76.9721955}, {"fusion_lat": 0.0, "type": "electric_scooter", "name": "04ed4e3df8cd5027b3238b6ed8948ad9", "fusion_lon": 0.0, "bike_id": "04ed4e3df8cd5027b3238b6ed8948ad9", "is_reserved": 0, "rental_uris": {"android": "https://dc.lft.to/lastmile_qr_scan", "ios": "https://dc.lft.to/lastmile_qr_scan"}, "lat": 38.89742, "is_disabled": 0, "lon": -77.02715683333334}, {"fusion_lat": 0.0, "type": "electric_scooter", "name": "bcfdf51fa8becc81dc857281a02fae11", "fusion_lon": 0.0, "bike_id": "bcfdf51fa8becc81dc857281a02fae11", "is_reserved": 0, "rental_uris": {"android": "https://dc.lft.to/lastmile_qr_scan", "ios": "https://dc.lft.to/lastmile_qr_scan"}, "lat": 38.89218183333333, "is_disabled": 0, "lon": -77.03217066666667}, {"fusion_lat": 0.0, "type": "electric_scooter", "name": "1f70d2b8188cff8778ab98cde53fc314", "fusion_lon": 0.0, "bike_id": "1f70d2b8188cff8778ab98cde53fc314", "is_reserved": 0, "rental_uris": {"android": "https://dc.lft.to/lastmile_qr_scan", "ios": "https://dc.lft.to/lastmile_qr_scan"}, "lat": 38.9097755, "is_disabled": 0, "lon": -77.0216575}, {"fusion_lat": 0.0, "type": "electric_scooter", "name": "3c55d21872d8b83c1306390682813861", "fusion_lon": 0.0, "bike_id": "3c55d21872d8b83c1306390682813861", "is_reserved": 0, "rental_uris": {"android": "https://dc.lft.to/lastmile_qr_scan", "ios": "https://dc.lft.to/lastmile_qr_scan"}, "lat": 38.9097, "is_disabled": 0, "lon": -77.034721}, {"fusion_lat": 0.0, "type": "electric_scooter", "name": "9ae2b6ec01023ba8004d319a66918308", "fusion_lon": 0.0, "bike_id": "9ae2b6ec01023ba8004d319a66918308", "is_reserved": 0, "rental_uris": {"android": "https://dc.lft.to/lastmile_qr_scan", "ios": "https://dc.lft.to/lastmile_qr_scan"}, "lat": 38.924410333333334, "is_disabled": 0, "lon": -77.034025}, {"fusion_lat": 0.0, "type": "electric_scooter", "name": "3b18841439cb2c033a0bd36d091ee814", "fusion_lon": 0.0, "bike_id": "3b18841439cb2c033a0bd36d091ee814", "is_reserved": 0, "rental_uris": {"android": "https://dc.lft.to/lastmile_qr_scan", "ios": "https://dc.lft.to/lastmile_qr_scan"}, "lat": 38.866980833333336, "is_disabled": 0, "lon": -76.98593633333333}, {"fusion_lat": 0.0, "type": "electric_scooter", "name": "0a2550cc611ec7074dc3b1353db5ff1f", "fusion_lon": 0.0, "bike_id": "0a2550cc611ec7074dc3b1353db5ff1f", "is_reserved": 0, "rental_uris": {"android": "https://dc.lft.to/lastmile_qr_scan", "ios": "https://dc.lft.to/lastmile_qr_scan"}, "lat": 38.900082166666664, "is_disabled": 0, "lon": -76.9302815}, {"fusion_lat": 0.0, "type": "electric_scooter", "name": "d6a9417492d665c05b9acf34dd8dc6bd", "fusion_lon": 0.0, "bike_id": "d6a9417492d665c05b9acf34dd8dc6bd", "is_reserved": 0, "rental_uris": {"android": "https://dc.lft.to/lastmile_qr_scan", "ios": "https://dc.lft.to/lastmile_qr_scan"}, "lat": 38.90746333333333, "is_disabled": 0, "lon": -77.04531933333334}, {"fusion_lat": 0.0, "type": "electric_scooter", "name": "072c7c2601a84604d41f4f2f63b179e9", "fusion_lon": 0.0, "bike_id": "072c7c2601a84604d41f4f2f63b179e9", "is_reserved": 0, "rental_uris": {"android": "https://dc.lft.to/lastmile_qr_scan", "ios": "https://dc.lft.to/lastmile_qr_scan"}, "lat": 38.919105, "is_disabled": 0, "lon": -77.03147033333333}, {"fusion_lat": 0.0, "type": "electric_scooter", "name": "106f78498042d64c22e0852240c37755", "fusion_lon": 0.0, "bike_id": "106f78498042d64c22e0852240c37755", "is_reserved": 0, "rental_uris": {"android": "https://dc.lft.to/lastmile_qr_scan", "ios": "https://dc.lft.to/lastmile_qr_scan"}, "lat": 38.891710333333336, "is_disabled": 0, "lon": -77.01546333333333}, {"fusion_lat": 0.0, "type": "electric_scooter", "name": "f675ce46f90e8d3a1462c789472fbd72", "fusion_lon": 0.0, "bike_id": "f675ce46f90e8d3a1462c789472fbd72", "is_reserved": 0, "rental_uris": {"android": "https://dc.lft.to/lastmile_qr_scan", "ios": "https://dc.lft.to/lastmile_qr_scan"}, "lat": 38.8934915, "is_disabled": 0, "lon": -77.00333283333333}, {"fusion_lat": 0.0, "type": "electric_scooter", "name": "5cfc1624d7bc932c30915a5c85c82568", "fusion_lon": 0.0, "bike_id": "5cfc1624d7bc932c30915a5c85c82568", "is_reserved": 0, "rental_uris": {"android": "https://dc.lft.to/lastmile_qr_scan", "ios": "https://dc.lft.to/lastmile_qr_scan"}, "lat": 38.906315, "is_disabled": 0, "lon": -77.04813216666666}, {"fusion_lat": 0.0, "type": "electric_scooter", "name": "04ec34fe31a2a099f07e625982363278", "fusion_lon": 0.0, "bike_id": "04ec34fe31a2a099f07e625982363278", "is_reserved": 0, "rental_uris": {"android": "https://dc.lft.to/lastmile_qr_scan", "ios": "https://dc.lft.to/lastmile_qr_scan"}, "lat": 38.9111695, "is_disabled": 0, "lon": -77.00605683333333}, {"fusion_lat": 0.0, "type": "electric_scooter", "name": "c27231f5ec2169b229e28538585d9814", "fusion_lon": 0.0, "bike_id": "c27231f5ec2169b229e28538585d9814", "is_reserved": 0, "rental_uris": {"android": "https://dc.lft.to/lastmile_qr_scan", "ios": "https://dc.lft.to/lastmile_qr_scan"}, "lat": 38.9417905, "is_disabled": 0, "lon": -77.027453}, {"fusion_lat": 0.0, "type": "electric_scooter", "name": "149205f7d532351f6532ff54a4e62894", "fusion_lon": 0.0, "bike_id": "149205f7d532351f6532ff54a4e62894", "is_reserved": 0, "rental_uris": {"android": "https://dc.lft.to/lastmile_qr_scan", "ios": "https://dc.lft.to/lastmile_qr_scan"}, "lat": 38.908388, "is_disabled": 0, "lon": -77.002094}, {"fusion_lat": 0.0, "type": "electric_scooter", "name": "b4513e87d84277195d5c5aa643db1c4c", "fusion_lon": 0.0, "bike_id": "b4513e87d84277195d5c5aa643db1c4c", "is_reserved": 0, "rental_uris": {"android": "https://dc.lft.to/lastmile_qr_scan", "ios": "https://dc.lft.to/lastmile_qr_scan"}, "lat": 38.90493466666667, "is_disabled": 0, "lon": -77.04494616666666}, {"fusion_lat": 0.0, "type": "electric_scooter", "name": "c1bbdb1983a6ed153ab3cf5b32758bdf", "fusion_lon": 0.0, "bike_id": "c1bbdb1983a6ed153ab3cf5b32758bdf", "is_reserved": 0, "rental_uris": {"android": "https://dc.lft.to/lastmile_qr_scan", "ios": "https://dc.lft.to/lastmile_qr_scan"}, "lat": 38.940829666666666, "is_disabled": 0, "lon": -77.027237}, {"fusion_lat": 0.0, "type": "electric_scooter", "name": "e8be59fb4abcf9479a3532b863c2ae58", "fusion_lon": 0.0, "bike_id": "e8be59fb4abcf9479a3532b863c2ae58", "is_reserved": 0, "rental_uris": {"android": "https://dc.lft.to/lastmile_qr_scan", "ios": "https://dc.lft.to/lastmile_qr_scan"}, "lat": 38.89558916666667, "is_disabled": 0, "lon": -77.04677716666667}, {"fusion_lat": 0.0, "type": "electric_scooter", "name": "c7a8c0b421004b3d77e776172b9ccde4", "fusion_lon": 0.0, "bike_id": "c7a8c0b421004b3d77e776172b9ccde4", "is_reserved": 0, "rental_uris": {"android": "https://dc.lft.to/lastmile_qr_scan", "ios": "https://dc.lft.to/lastmile_qr_scan"}, "lat": 38.9022385, "is_disabled": 0, "lon": -77.04517366666667}, {"fusion_lat": 0.0, "type": "electric_scooter", "name": "1ce78c3e15c124dd752458bcc9f2048e", "fusion_lon": 0.0, "bike_id": "1ce78c3e15c124dd752458bcc9f2048e", "is_reserved": 0, "rental_uris": {"android": "https://dc.lft.to/lastmile_qr_scan", "ios": "https://dc.lft.to/lastmile_qr_scan"}, "lat": 38.893983, "is_disabled": 0, "lon": -76.9462805}, {"fusion_lat": 0.0, "type": "electric_scooter", "name": "e6a5f4ea4f76d99a4ddb6e63d3880c08", "fusion_lon": 0.0, "bike_id": "e6a5f4ea4f76d99a4ddb6e63d3880c08", "is_reserved": 0, "rental_uris": {"android": "https://dc.lft.to/lastmile_qr_scan", "ios": "https://dc.lft.to/lastmile_qr_scan"}, "lat": 38.91988533333333, "is_disabled": 0, "lon": -77.02146166666667}, {"fusion_lat": 0.0, "type": "electric_scooter", "name": "fd3f8ea3271ea49029d660771f1f3409", "fusion_lon": 0.0, "bike_id": "fd3f8ea3271ea49029d660771f1f3409", "is_reserved": 0, "rental_uris": {"android": "https://dc.lft.to/lastmile_qr_scan", "ios": "https://dc.lft.to/lastmile_qr_scan"}, "lat": 38.90415183333333, "is_disabled": 0, "lon": -77.02943433333333}, {"fusion_lat": 0.0, "type": "electric_scooter", "name": "53b6fcb9da84b5ee6b6b373fed15bd9a", "fusion_lon": 0.0, "bike_id": "53b6fcb9da84b5ee6b6b373fed15bd9a", "is_reserved": 0, "rental_uris": {"android": "https://dc.lft.to/lastmile_qr_scan", "ios": "https://dc.lft.to/lastmile_qr_scan"}, "lat": 38.91117083333334, "is_disabled": 0, "lon": -77.06527283333334}, {"fusion_lat": 0.0, "type": "electric_bike", "name": "6d17feed709ed32e7cf33d7e8fd428a8", "fusion_lon": 0.0, "bike_id": "6d17feed709ed32e7cf33d7e8fd428a8", "is_reserved": 0, "rental_uris": {"android": "https://dc.lft.to/lastmile_qr_scan", "ios": "https://dc.lft.to/lastmile_qr_scan"}, "lat": 38.89809616666667, "is_disabled": 0, "lon": -76.99064316666667}, {"fusion_lat": 0.0, "type": "electric_scooter", "name": "96396d279b8ebb9dc63ecfec27417a0c", "fusion_lon": 0.0, "bike_id": "96396d279b8ebb9dc63ecfec27417a0c", "is_reserved": 0, "rental_uris": {"android": "https://dc.lft.to/lastmile_qr_scan", "ios": "https://dc.lft.to/lastmile_qr_scan"}, "lat": 38.907113, "is_disabled": 0, "lon": -77.000668}, {"fusion_lat": 0.0, "type": "electric_scooter", "name": "15f501a18d3657b56fd358c14f615d8d", "fusion_lon": 0.0, "bike_id": "15f501a18d3657b56fd358c14f615d8d", "is_reserved": 0, "rental_uris": {"android": "https://dc.lft.to/lastmile_qr_scan", "ios": "https://dc.lft.to/lastmile_qr_scan"}, "lat": 38.8519605, "is_disabled": 0, "lon": -76.97073466666667}, {"fusion_lat": 0.0, "type": "electric_scooter", "name": "72361b3f94f5bd0e4a804e6adf027e9d", "fusion_lon": 0.0, "bike_id": "72361b3f94f5bd0e4a804e6adf027e9d", "is_reserved": 0, "rental_uris": {"android": "https://dc.lft.to/lastmile_qr_scan", "ios": "https://dc.lft.to/lastmile_qr_scan"}, "lat": 38.892236833333335, "is_disabled": 0, "lon": -77.03187116666666}, {"fusion_lat": 0.0, "type": "electric_scooter", "name": "aedb33399b0d9ed001bfd89c2b7cee01", "fusion_lon": 0.0, "bike_id": "aedb33399b0d9ed001bfd89c2b7cee01", "is_reserved": 0, "rental_uris": {"android": "https://dc.lft.to/lastmile_qr_scan", "ios": "https://dc.lft.to/lastmile_qr_scan"}, "lat": 38.900855, "is_disabled": 0, "lon": -77.02702383333333}, {"fusion_lat": 0.0, "type": "electric_scooter", "name": "5a1adc495ad4f2f2f9649e2b33744ac5", "fusion_lon": 0.0, "bike_id": "5a1adc495ad4f2f2f9649e2b33744ac5", "is_reserved": 0, "rental_uris": {"android": "https://dc.lft.to/lastmile_qr_scan", "ios": "https://dc.lft.to/lastmile_qr_scan"}, "lat": 38.9337205, "is_disabled": 0, "lon": -77.0355735}, {"fusion_lat": 0.0, "type": "electric_scooter", "name": "fc0e7dc62ed1ba904f2f950cbe15e37e", "fusion_lon": 0.0, "bike_id": "fc0e7dc62ed1ba904f2f950cbe15e37e", "is_reserved": 0, "rental_uris": {"android": "https://dc.lft.to/lastmile_qr_scan", "ios": "https://dc.lft.to/lastmile_qr_scan"}, "lat": 38.89214033333333, "is_disabled": 0, "lon": -77.02235883333333}, {"fusion_lat": 0.0, "type": "electric_bike", "name": "410b2ebd3eb80a84bda525d8d09f5290", "fusion_lon": 0.0, "bike_id": "410b2ebd3eb80a84bda525d8d09f5290", "is_reserved": 0, "rental_uris": {"android": "https://dc.lft.to/lastmile_qr_scan", "ios": "https://dc.lft.to/lastmile_qr_scan"}, "lat": 38.961374666666664, "is_disabled": 0, "lon": -77.02287733333333}, {"fusion_lat": 0.0, "type": "electric_scooter", "name": "e288d69abb45c8179b8e9a2ba1de2aaf", "fusion_lon": 0.0, "bike_id": "e288d69abb45c8179b8e9a2ba1de2aaf", "is_reserved": 0, "rental_uris": {"android": "https://dc.lft.to/lastmile_qr_scan", "ios": "https://dc.lft.to/lastmile_qr_scan"}, "lat": 38.9420015, "is_disabled": 0, "lon": -77.02503083333333}, {"fusion_lat": 0.0, "type": "electric_scooter", "name": "ba2ade3e88522de63c229b3932865748", "fusion_lon": 0.0, "bike_id": "ba2ade3e88522de63c229b3932865748", "is_reserved": 0, "rental_uris": {"android": "https://dc.lft.to/lastmile_qr_scan", "ios": "https://dc.lft.to/lastmile_qr_scan"}, "lat": 38.86537233333333, "is_disabled": 0, "lon": -76.98705}, {"fusion_lat": 0.0, "type": "electric_scooter", "name": "a4d460a558e676d785858b6f79da999b", "fusion_lon": 0.0, "bike_id": "a4d460a558e676d785858b6f79da999b", "is_reserved": 0, "rental_uris": {"android": "https://dc.lft.to/lastmile_qr_scan", "ios": "https://dc.lft.to/lastmile_qr_scan"}, "lat": 38.892955666666666, "is_disabled": 0, "lon": -77.0122495}, {"fusion_lat": 0.0, "type": "electric_scooter", "name": "27a3f3bab7f5877db254194408ca951f", "fusion_lon": 0.0, "bike_id": "27a3f3bab7f5877db254194408ca951f", "is_reserved": 0, "rental_uris": {"android": "https://dc.lft.to/lastmile_qr_scan", "ios": "https://dc.lft.to/lastmile_qr_scan"}, "lat": 38.922442833333335, "is_disabled": 0, "lon": -77.02124083333334}, {"fusion_lat": 0.0, "type": "electric_scooter", "name": "b2e1bd942305e1be66bafb2316afcda5", "fusion_lon": 0.0, "bike_id": "b2e1bd942305e1be66bafb2316afcda5", "is_reserved": 0, "rental_uris": {"android": "https://dc.lft.to/lastmile_qr_scan", "ios": "https://dc.lft.to/lastmile_qr_scan"}, "lat": 38.927428, "is_disabled": 0, "lon": -77.0356155}, {"fusion_lat": 0.0, "type": "electric_scooter", "name": "7983d797c59f8e13a06d9d9017b667f2", "fusion_lon": 0.0, "bike_id": "7983d797c59f8e13a06d9d9017b667f2", "is_reserved": 0, "rental_uris": {"android": "https://dc.lft.to/lastmile_qr_scan", "ios": "https://dc.lft.to/lastmile_qr_scan"}, "lat": 38.89851066666667, "is_disabled": 0, "lon": -77.039483}, {"fusion_lat": 0.0, "type": "electric_scooter", "name": "a1f891f86b27fa7a16300333e9a8f5ef", "fusion_lon": 0.0, "bike_id": "a1f891f86b27fa7a16300333e9a8f5ef", "is_reserved": 0, "rental_uris": {"android": "https://dc.lft.to/lastmile_qr_scan", "ios": "https://dc.lft.to/lastmile_qr_scan"}, "lat": 38.900435333333334, "is_disabled": 0, "lon": -77.00538183333333}, {"fusion_lat": 0.0, "type": "electric_scooter", "name": "dcaf2748b4abd1c9ee29ed219614ac99", "fusion_lon": 0.0, "bike_id": "dcaf2748b4abd1c9ee29ed219614ac99", "is_reserved": 0, "rental_uris": {"android": "https://dc.lft.to/lastmile_qr_scan", "ios": "https://dc.lft.to/lastmile_qr_scan"}, "lat": 38.866961333333336, "is_disabled": 0, "lon": -76.985921}, {"fusion_lat": 0.0, "type": "electric_scooter", "name": "2c27fe4638cd2a45b18c52f4065088de", "fusion_lon": 0.0, "bike_id": "2c27fe4638cd2a45b18c52f4065088de", "is_reserved": 0, "rental_uris": {"android": "https://dc.lft.to/lastmile_qr_scan", "ios": "https://dc.lft.to/lastmile_qr_scan"}, "lat": 38.921493, "is_disabled": 0, "lon": -77.04212616666666}, {"fusion_lat": 0.0, "type": "electric_scooter", "name": "6ac3f685a85c878ee118b6b3b24f6468", "fusion_lon": 0.0, "bike_id": "6ac3f685a85c878ee118b6b3b24f6468", "is_reserved": 0, "rental_uris": {"android": "https://dc.lft.to/lastmile_qr_scan", "ios": "https://dc.lft.to/lastmile_qr_scan"}, "lat": 38.92095533333333, "is_disabled": 0, "lon": -77.0317705}, {"fusion_lat": 0.0, "type": "electric_scooter", "name": "afa0ceb3523f1dddbad14ccbc2cfadba", "fusion_lon": 0.0, "bike_id": "afa0ceb3523f1dddbad14ccbc2cfadba", "is_reserved": 0, "rental_uris": {"android": "https://dc.lft.to/lastmile_qr_scan", "ios": "https://dc.lft.to/lastmile_qr_scan"}, "lat": 38.89218233333333, "is_disabled": 0, "lon": -77.0236885}, {"fusion_lat": 0.0, "type": "electric_bike", "name": "56af66bcdaa8859dbd93a1b181b224f0", "fusion_lon": 0.0, "bike_id": "56af66bcdaa8859dbd93a1b181b224f0", "is_reserved": 0, "rental_uris": {"android": "https://dc.lft.to/lastmile_qr_scan", "ios": "https://dc.lft.to/lastmile_qr_scan"}, "lat": 38.91010816666667, "is_disabled": 0, "lon": -77.22795983333333}, {"fusion_lat": 0.0, "type": "electric_scooter", "name": "e84adb77f9a56da5e0456d8c952b7cee", "fusion_lon": 0.0, "bike_id": "e84adb77f9a56da5e0456d8c952b7cee", "is_reserved": 0, "rental_uris": {"android": "https://dc.lft.to/lastmile_qr_scan", "ios": "https://dc.lft.to/lastmile_qr_scan"}, "lat": 38.918515166666666, "is_disabled": 0, "lon": -77.01670116666666}, {"fusion_lat": 0.0, "type": "electric_bike", "name": "439e44273c7ba9ede6265cc1335650a5", "fusion_lon": 0.0, "bike_id": "439e44273c7ba9ede6265cc1335650a5", "is_reserved": 0, "rental_uris": {"android": "https://dc.lft.to/lastmile_qr_scan", "ios": "https://dc.lft.to/lastmile_qr_scan"}, "lat": 38.94228616666667, "is_disabled": 0, "lon": -76.96618733333334}, {"fusion_lat": 0.0, "type": "electric_scooter", "name": "58f05063000859c9656e8efc179aa139", "fusion_lon": 0.0, "bike_id": "58f05063000859c9656e8efc179aa139", "is_reserved": 0, "rental_uris": {"android": "https://dc.lft.to/lastmile_qr_scan", "ios": "https://dc.lft.to/lastmile_qr_scan"}, "lat": 38.887267666666666, "is_disabled": 0, "lon": -77.0282515}, {"fusion_lat": 0.0, "type": "electric_scooter", "name": "582ad8fee08eb585a989feffa1735e52", "fusion_lon": 0.0, "bike_id": "582ad8fee08eb585a989feffa1735e52", "is_reserved": 0, "rental_uris": {"android": "https://dc.lft.to/lastmile_qr_scan", "ios": "https://dc.lft.to/lastmile_qr_scan"}, "lat": 38.89493316666667, "is_disabled": 0, "lon": -77.021476}, {"fusion_lat": 0.0, "type": "electric_scooter", "name": "410c576b2d068b47341ffb4c9c3a8004", "fusion_lon": 0.0, "bike_id": "410c576b2d068b47341ffb4c9c3a8004", "is_reserved": 0, "rental_uris": {"android": "https://dc.lft.to/lastmile_qr_scan", "ios": "https://dc.lft.to/lastmile_qr_scan"}, "lat": 38.866969166666664, "is_disabled": 0, "lon": -76.98710816666667}, {"fusion_lat": 0.0, "type": "electric_scooter", "name": "b120fb7465f883427f198ba25b2f868e", "fusion_lon": 0.0, "bike_id": "b120fb7465f883427f198ba25b2f868e", "is_reserved": 0, "rental_uris": {"android": "https://dc.lft.to/lastmile_qr_scan", "ios": "https://dc.lft.to/lastmile_qr_scan"}, "lat": 38.93081333333333, "is_disabled": 0, "lon": -77.00410316666667}, {"fusion_lat": 0.0, "type": "electric_scooter", "name": "c8c323b65f5d8bb953cbcd3d36e1cca2", "fusion_lon": 0.0, "bike_id": "c8c323b65f5d8bb953cbcd3d36e1cca2", "is_reserved": 0, "rental_uris": {"android": "https://dc.lft.to/lastmile_qr_scan", "ios": "https://dc.lft.to/lastmile_qr_scan"}, "lat": 38.901386333333335, "is_disabled": 0, "lon": -77.02295533333333}, {"fusion_lat": 0.0, "type": "electric_bike", "name": "ab7e3830b41de1f4e6e67f7b474a8926", "fusion_lon": 0.0, "bike_id": "ab7e3830b41de1f4e6e67f7b474a8926", "is_reserved": 0, "rental_uris": {"android": "https://dc.lft.to/lastmile_qr_scan", "ios": "https://dc.lft.to/lastmile_qr_scan"}, "lat": 38.9593085, "is_disabled": 0, "lon": -76.92534616666667}, {"fusion_lat": 0.0, "type": "electric_scooter", "name": "e52b22ab14dec2b118c724688a9885a4", "fusion_lon": 0.0, "bike_id": "e52b22ab14dec2b118c724688a9885a4", "is_reserved": 0, "rental_uris": {"android": "https://dc.lft.to/lastmile_qr_scan", "ios": "https://dc.lft.to/lastmile_qr_scan"}, "lat": 38.893662, "is_disabled": 0, "lon": -76.949978}, {"fusion_lat": 0.0, "type": "electric_scooter", "name": "0274f3f080cbe0bc30f6f451b14a1e35", "fusion_lon": 0.0, "bike_id": "0274f3f080cbe0bc30f6f451b14a1e35", "is_reserved": 0, "rental_uris": {"android": "https://dc.lft.to/lastmile_qr_scan", "ios": "https://dc.lft.to/lastmile_qr_scan"}, "lat": 38.8771295, "is_disabled": 0, "lon": -77.01767866666667}, {"fusion_lat": 0.0, "type": "electric_scooter", "name": "11babd6333d707ff6cbe460d2e34bbdb", "fusion_lon": 0.0, "bike_id": "11babd6333d707ff6cbe460d2e34bbdb", "is_reserved": 0, "rental_uris": {"android": "https://dc.lft.to/lastmile_qr_scan", "ios": "https://dc.lft.to/lastmile_qr_scan"}, "lat": 38.9023145, "is_disabled": 0, "lon": -77.04346566666666}, {"fusion_lat": 0.0, "type": "electric_scooter", "name": "1da3292424173d6f9ef5e6cb71994ef1", "fusion_lon": 0.0, "bike_id": "1da3292424173d6f9ef5e6cb71994ef1", "is_reserved": 0, "rental_uris": {"android": "https://dc.lft.to/lastmile_qr_scan", "ios": "https://dc.lft.to/lastmile_qr_scan"}, "lat": 38.953365, "is_disabled": 0, "lon": -77.00965383333333}, {"fusion_lat": 0.0, "type": "electric_scooter", "name": "89b4590d626568b49748e53f99d78d92", "fusion_lon": 0.0, "bike_id": "89b4590d626568b49748e53f99d78d92", "is_reserved": 0, "rental_uris": {"android": "https://dc.lft.to/lastmile_qr_scan", "ios": "https://dc.lft.to/lastmile_qr_scan"}, "lat": 38.89217033333333, "is_disabled": 0, "lon": -77.04375583333334}, {"fusion_lat": 0.0, "type": "electric_scooter", "name": "4a8d715ef44f074f322a189088c37be0", "fusion_lon": 0.0, "bike_id": "4a8d715ef44f074f322a189088c37be0", "is_reserved": 0, "rental_uris": {"android": "https://dc.lft.to/lastmile_qr_scan", "ios": "https://dc.lft.to/lastmile_qr_scan"}, "lat": 38.89343616666667, "is_disabled": 0, "lon": -77.04191633333333}, {"fusion_lat": 0.0, "type": "electric_scooter", "name": "5316b69b5506247b92040781c5cea2b2", "fusion_lon": 0.0, "bike_id": "5316b69b5506247b92040781c5cea2b2", "is_reserved": 0, "rental_uris": {"android": "https://dc.lft.to/lastmile_qr_scan", "ios": "https://dc.lft.to/lastmile_qr_scan"}, "lat": 38.904711, "is_disabled": 0, "lon": -77.02815366666667}, {"fusion_lat": 0.0, "type": "electric_scooter", "name": "360b237fc24508cba62f649fbac2fce7", "fusion_lon": 0.0, "bike_id": "360b237fc24508cba62f649fbac2fce7", "is_reserved": 0, "rental_uris": {"android": "https://dc.lft.to/lastmile_qr_scan", "ios": "https://dc.lft.to/lastmile_qr_scan"}, "lat": 38.92062633333333, "is_disabled": 0, "lon": -77.04217366666667}, {"fusion_lat": 0.0, "type": "electric_scooter", "name": "6bff9d3b444b1853d8858e0b4a0ea436", "fusion_lon": 0.0, "bike_id": "6bff9d3b444b1853d8858e0b4a0ea436", "is_reserved": 0, "rental_uris": {"android": "https://dc.lft.to/lastmile_qr_scan", "ios": "https://dc.lft.to/lastmile_qr_scan"}, "lat": 38.93552316666667, "is_disabled": 0, "lon": -77.02226533333334}, {"fusion_lat": 0.0, "type": "electric_scooter", "name": "16d3ff4035d2eb3210b925bd524dcda3", "fusion_lon": 0.0, "bike_id": "16d3ff4035d2eb3210b925bd524dcda3", "is_reserved": 0, "rental_uris": {"android": "https://dc.lft.to/lastmile_qr_scan", "ios": "https://dc.lft.to/lastmile_qr_scan"}, "lat": 38.868947666666664, "is_disabled": 0, "lon": -76.98222433333333}, {"fusion_lat": 0.0, "type": "electric_scooter", "name": "98726386042d254df95d87d9204638dc", "fusion_lon": 0.0, "bike_id": "98726386042d254df95d87d9204638dc", "is_reserved": 0, "rental_uris": {"android": "https://dc.lft.to/lastmile_qr_scan", "ios": "https://dc.lft.to/lastmile_qr_scan"}, "lat": 38.903885333333335, "is_disabled": 0, "lon": -77.03854516666667}, {"fusion_lat": 0.0, "type": "electric_scooter", "name": "e92207bdab952f4852c8d2ba95f11fc3", "fusion_lon": 0.0, "bike_id": "e92207bdab952f4852c8d2ba95f11fc3", "is_reserved": 0, "rental_uris": {"android": "https://dc.lft.to/lastmile_qr_scan", "ios": "https://dc.lft.to/lastmile_qr_scan"}, "lat": 38.89867533333334, "is_disabled": 0, "lon": -77.02707816666667}, {"fusion_lat": 0.0, "type": "electric_scooter", "name": "6da8c9e1790b8c0b4c9f63c537a86e30", "fusion_lon": 0.0, "bike_id": "6da8c9e1790b8c0b4c9f63c537a86e30", "is_reserved": 0, "rental_uris": {"android": "https://dc.lft.to/lastmile_qr_scan", "ios": "https://dc.lft.to/lastmile_qr_scan"}, "lat": 38.8922195, "is_disabled": 0, "lon": -77.0438245}, {"fusion_lat": 0.0, "type": "electric_scooter", "name": "b01a6572e6ce665a83be7c0cd0375df5", "fusion_lon": 0.0, "bike_id": "b01a6572e6ce665a83be7c0cd0375df5", "is_reserved": 0, "rental_uris": {"android": "https://dc.lft.to/lastmile_qr_scan", "ios": "https://dc.lft.to/lastmile_qr_scan"}, "lat": 38.88729983333333, "is_disabled": 0, "lon": -77.025771}, {"fusion_lat": 0.0, "type": "electric_scooter", "name": "154de4a2147aedad5ac91deecee857c9", "fusion_lon": 0.0, "bike_id": "154de4a2147aedad5ac91deecee857c9", "is_reserved": 0, "rental_uris": {"android": "https://dc.lft.to/lastmile_qr_scan", "ios": "https://dc.lft.to/lastmile_qr_scan"}, "lat": 38.92836583333333, "is_disabled": 0, "lon": -77.01407133333333}, {"fusion_lat": 0.0, "type": "electric_scooter", "name": "ae7f4152d6fc7e1111e88dee39ba965b", "fusion_lon": 0.0, "bike_id": "ae7f4152d6fc7e1111e88dee39ba965b", "is_reserved": 0, "rental_uris": {"android": "https://dc.lft.to/lastmile_qr_scan", "ios": "https://dc.lft.to/lastmile_qr_scan"}, "lat": 38.911895333333334, "is_disabled": 0, "lon": -77.03022616666667}, {"fusion_lat": 0.0, "type": "electric_scooter", "name": "cb8fddfaac88fa9bac6e899f218a8fc3", "fusion_lon": 0.0, "bike_id": "cb8fddfaac88fa9bac6e899f218a8fc3", "is_reserved": 0, "rental_uris": {"android": "https://dc.lft.to/lastmile_qr_scan", "ios": "https://dc.lft.to/lastmile_qr_scan"}, "lat": 38.9243405, "is_disabled": 0, "lon": -77.0520265}, {"fusion_lat": 0.0, "type": "electric_bike", "name": "d770a744846ef63b0031b3366cd452c7", "fusion_lon": 0.0, "bike_id": "d770a744846ef63b0031b3366cd452c7", "is_reserved": 0, "rental_uris": {"android": "https://dc.lft.to/lastmile_qr_scan", "ios": "https://dc.lft.to/lastmile_qr_scan"}, "lat": 38.968132, "is_disabled": 0, "lon": -77.07225716666666}, {"fusion_lat": 0.0, "type": "electric_scooter", "name": "df64d6609cb0deccc3c4d4dfc176eacb", "fusion_lon": 0.0, "bike_id": "df64d6609cb0deccc3c4d4dfc176eacb", "is_reserved": 0, "rental_uris": {"android": "https://dc.lft.to/lastmile_qr_scan", "ios": "https://dc.lft.to/lastmile_qr_scan"}, "lat": 38.9221745, "is_disabled": 0, "lon": -77.04246983333333}, {"fusion_lat": 0.0, "type": "electric_scooter", "name": "a16ceeef5103568fc5af3b74fc1cb87b", "fusion_lon": 0.0, "bike_id": "a16ceeef5103568fc5af3b74fc1cb87b", "is_reserved": 0, "rental_uris": {"android": "https://dc.lft.to/lastmile_qr_scan", "ios": "https://dc.lft.to/lastmile_qr_scan"}, "lat": 38.917149, "is_disabled": 0, "lon": -77.04154833333334}, {"fusion_lat": 0.0, "type": "electric_scooter", "name": "cba24b7c50db308f8ab47dfe0888ded3", "fusion_lon": 0.0, "bike_id": "cba24b7c50db308f8ab47dfe0888ded3", "is_reserved": 0, "rental_uris": {"android": "https://dc.lft.to/lastmile_qr_scan", "ios": "https://dc.lft.to/lastmile_qr_scan"}, "lat": 38.91456383333333, "is_disabled": 0, "lon": -77.01887533333333}, {"fusion_lat": 0.0, "type": "electric_scooter", "name": "d8d628e7f931da2258503e13388ba943", "fusion_lon": 0.0, "bike_id": "d8d628e7f931da2258503e13388ba943", "is_reserved": 0, "rental_uris": {"android": "https://dc.lft.to/lastmile_qr_scan", "ios": "https://dc.lft.to/lastmile_qr_scan"}, "lat": 38.909434166666664, "is_disabled": 0, "lon": -77.046721}, {"fusion_lat": 0.0, "type": "electric_scooter", "name": "d3cc2171a38ad262c9fa663f06427089", "fusion_lon": 0.0, "bike_id": "d3cc2171a38ad262c9fa663f06427089", "is_reserved": 0, "rental_uris": {"android": "https://dc.lft.to/lastmile_qr_scan", "ios": "https://dc.lft.to/lastmile_qr_scan"}, "lat": 38.8995865, "is_disabled": 0, "lon": -77.0150905}, {"fusion_lat": 0.0, "type": "electric_scooter", "name": "aab4573be948974fd2610672be026201", "fusion_lon": 0.0, "bike_id": "aab4573be948974fd2610672be026201", "is_reserved": 0, "rental_uris": {"android": "https://dc.lft.to/lastmile_qr_scan", "ios": "https://dc.lft.to/lastmile_qr_scan"}, "lat": 38.90780016666667, "is_disabled": 0, "lon": -77.0450685}, {"fusion_lat": 0.0, "type": "electric_scooter", "name": "cd2145e79efff686963eb8f716ee5c87", "fusion_lon": 0.0, "bike_id": "cd2145e79efff686963eb8f716ee5c87", "is_reserved": 0, "rental_uris": {"android": "https://dc.lft.to/lastmile_qr_scan", "ios": "https://dc.lft.to/lastmile_qr_scan"}, "lat": 38.90305083333333, "is_disabled": 0, "lon": -77.02366216666667}, {"fusion_lat": 0.0, "type": "electric_scooter", "name": "75aedfac323d3418983c610f3690f4c3", "fusion_lon": 0.0, "bike_id": "75aedfac323d3418983c610f3690f4c3", "is_reserved": 0, "rental_uris": {"android": "https://dc.lft.to/lastmile_qr_scan", "ios": "https://dc.lft.to/lastmile_qr_scan"}, "lat": 38.904364666666666, "is_disabled": 0, "lon": -76.98486750000001}, {"fusion_lat": 0.0, "type": "electric_scooter", "name": "d38c30a72fad02320328c9100b26ca3e", "fusion_lon": 0.0, "bike_id": "d38c30a72fad02320328c9100b26ca3e", "is_reserved": 0, "rental_uris": {"android": "https://dc.lft.to/lastmile_qr_scan", "ios": "https://dc.lft.to/lastmile_qr_scan"}, "lat": 38.922452666666665, "is_disabled": 0, "lon": -77.03527816666667}, {"fusion_lat": 0.0, "type": "electric_bike", "name": "47cecf92f225151b618840a0642bf410", "fusion_lon": 0.0, "bike_id": "47cecf92f225151b618840a0642bf410", "is_reserved": 0, "rental_uris": {"android": "https://dc.lft.to/lastmile_qr_scan", "ios": "https://dc.lft.to/lastmile_qr_scan"}, "lat": 38.9491835, "is_disabled": 0, "lon": -77.00799466666666}, {"fusion_lat": 0.0, "type": "electric_bike", "name": "26b1b40d93c081fbfb89cc1ce44e1840", "fusion_lon": 0.0, "bike_id": "26b1b40d93c081fbfb89cc1ce44e1840", "is_reserved": 0, "rental_uris": {"android": "https://dc.lft.to/lastmile_qr_scan", "ios": "https://dc.lft.to/lastmile_qr_scan"}, "lat": 38.918562666666666, "is_disabled": 0, "lon": -76.9609145}, {"fusion_lat": 0.0, "type": "electric_scooter", "name": "5c135f1bc79e6651215285e85809427d", "fusion_lon": 0.0, "bike_id": "5c135f1bc79e6651215285e85809427d", "is_reserved": 0, "rental_uris": {"android": "https://dc.lft.to/lastmile_qr_scan", "ios": "https://dc.lft.to/lastmile_qr_scan"}, "lat": 38.907791833333334, "is_disabled": 0, "lon": -77.038585}, {"fusion_lat": 0.0, "type": "electric_scooter", "name": "fa6b38e9fb9230bc7b165e5c958c646e", "fusion_lon": 0.0, "bike_id": "fa6b38e9fb9230bc7b165e5c958c646e", "is_reserved": 0, "rental_uris": {"android": "https://dc.lft.to/lastmile_qr_scan", "ios": "https://dc.lft.to/lastmile_qr_scan"}, "lat": 38.9068905, "is_disabled": 0, "lon": -77.0358975}, {"fusion_lat": 0.0, "type": "electric_scooter", "name": "292dab27337a181e1610291281921fdd", "fusion_lon": 0.0, "bike_id": "292dab27337a181e1610291281921fdd", "is_reserved": 0, "rental_uris": {"android": "https://dc.lft.to/lastmile_qr_scan", "ios": "https://dc.lft.to/lastmile_qr_scan"}, "lat": 38.896078833333334, "is_disabled": 0, "lon": -77.05034666666667}, {"fusion_lat": 0.0, "type": "electric_scooter", "name": "0191550a3d37840f574be7f84befacfd", "fusion_lon": 0.0, "bike_id": "0191550a3d37840f574be7f84befacfd", "is_reserved": 0, "rental_uris": {"android": "https://dc.lft.to/lastmile_qr_scan", "ios": "https://dc.lft.to/lastmile_qr_scan"}, "lat": 38.935582833333335, "is_disabled": 0, "lon": -77.0820285}, {"fusion_lat": 0.0, "type": "electric_scooter", "name": "fdaa5bb571c5a6497da795b6c43e645e", "fusion_lon": 0.0, "bike_id": "fdaa5bb571c5a6497da795b6c43e645e", "is_reserved": 0, "rental_uris": {"android": "https://dc.lft.to/lastmile_qr_scan", "ios": "https://dc.lft.to/lastmile_qr_scan"}, "lat": 38.90022916666667, "is_disabled": 0, "lon": -77.0021715}, {"fusion_lat": 0.0, "type": "electric_bike", "name": "d5736a9dff4e2adce8aa9c8dc1d0fd6d", "fusion_lon": 0.0, "bike_id": "d5736a9dff4e2adce8aa9c8dc1d0fd6d", "is_reserved": 0, "rental_uris": {"android": "https://dc.lft.to/lastmile_qr_scan", "ios": "https://dc.lft.to/lastmile_qr_scan"}, "lat": 38.869375833333336, "is_disabled": 0, "lon": -77.09466133333333}, {"fusion_lat": 0.0, "type": "electric_scooter", "name": "a031de88f94eeb0db1672d5e1d50432c", "fusion_lon": 0.0, "bike_id": "a031de88f94eeb0db1672d5e1d50432c", "is_reserved": 0, "rental_uris": {"android": "https://dc.lft.to/lastmile_qr_scan", "ios": "https://dc.lft.to/lastmile_qr_scan"}, "lat": 38.90265083333333, "is_disabled": 0, "lon": -77.03868066666666}, {"fusion_lat": 0.0, "type": "electric_scooter", "name": "ba346e6c1165ecd19301a721ddf11cf6", "fusion_lon": 0.0, "bike_id": "ba346e6c1165ecd19301a721ddf11cf6", "is_reserved": 0, "rental_uris": {"android": "https://dc.lft.to/lastmile_qr_scan", "ios": "https://dc.lft.to/lastmile_qr_scan"}, "lat": 38.8971355, "is_disabled": 0, "lon": -77.00799766666667}, {"fusion_lat": 0.0, "type": "electric_scooter", "name": "8ca37c76e544939147c1af3213d22d38", "fusion_lon": 0.0, "bike_id": "8ca37c76e544939147c1af3213d22d38", "is_reserved": 0, "rental_uris": {"android": "https://dc.lft.to/lastmile_qr_scan", "ios": "https://dc.lft.to/lastmile_qr_scan"}, "lat": 38.93100183333333, "is_disabled": 0, "lon": -77.03259966666667}, {"fusion_lat": 0.0, "type": "electric_scooter", "name": "24e7c8fbcc23a3a041ff89a5bb83e10e", "fusion_lon": 0.0, "bike_id": "24e7c8fbcc23a3a041ff89a5bb83e10e", "is_reserved": 0, "rental_uris": {"android": "https://dc.lft.to/lastmile_qr_scan", "ios": "https://dc.lft.to/lastmile_qr_scan"}, "lat": 38.892801, "is_disabled": 0, "lon": -77.031735}, {"fusion_lat": 0.0, "type": "electric_scooter", "name": "63b1f7c7b96d963e35cb973c9e454ee4", "fusion_lon": 0.0, "bike_id": "63b1f7c7b96d963e35cb973c9e454ee4", "is_reserved": 0, "rental_uris": {"android": "https://dc.lft.to/lastmile_qr_scan", "ios": "https://dc.lft.to/lastmile_qr_scan"}, "lat": 38.885887333333336, "is_disabled": 0, "lon": -77.012315}, {"fusion_lat": 0.0, "type": "electric_scooter", "name": "44470fe3c3d16877e276b076f73b571e", "fusion_lon": 0.0, "bike_id": "44470fe3c3d16877e276b076f73b571e", "is_reserved": 0, "rental_uris": {"android": "https://dc.lft.to/lastmile_qr_scan", "ios": "https://dc.lft.to/lastmile_qr_scan"}, "lat": 38.9052065, "is_disabled": 0, "lon": -77.06857966666666}, {"fusion_lat": 0.0, "type": "electric_scooter", "name": "b9c3286faba98014c250210335557dab", "fusion_lon": 0.0, "bike_id": "b9c3286faba98014c250210335557dab", "is_reserved": 0, "rental_uris": {"android": "https://dc.lft.to/lastmile_qr_scan", "ios": "https://dc.lft.to/lastmile_qr_scan"}, "lat": 38.89219833333333, "is_disabled": 0, "lon": -77.0234615}, {"fusion_lat": 0.0, "type": "electric_scooter", "name": "f66bdd0f95668af31338abfd3bd2b7b2", "fusion_lon": 0.0, "bike_id": "f66bdd0f95668af31338abfd3bd2b7b2", "is_reserved": 0, "rental_uris": {"android": "https://dc.lft.to/lastmile_qr_scan", "ios": "https://dc.lft.to/lastmile_qr_scan"}, "lat": 38.901304833333334, "is_disabled": 0, "lon": -77.04431383333333}, {"fusion_lat": 0.0, "type": "electric_scooter", "name": "ad5e5aaedccdf23e0537fb578f0fe066", "fusion_lon": 0.0, "bike_id": "ad5e5aaedccdf23e0537fb578f0fe066", "is_reserved": 0, "rental_uris": {"android": "https://dc.lft.to/lastmile_qr_scan", "ios": "https://dc.lft.to/lastmile_qr_scan"}, "lat": 38.888481666666664, "is_disabled": 0, "lon": -76.92682583333334}, {"fusion_lat": 0.0, "type": "electric_scooter", "name": "de1720e85eca3a3620a0fedd7407d6bb", "fusion_lon": 0.0, "bike_id": "de1720e85eca3a3620a0fedd7407d6bb", "is_reserved": 0, "rental_uris": {"android": "https://dc.lft.to/lastmile_qr_scan", "ios": "https://dc.lft.to/lastmile_qr_scan"}, "lat": 38.90499766666667, "is_disabled": 0, "lon": -77.0482105}, {"fusion_lat": 0.0, "type": "electric_scooter", "name": "fb6987854655e00b43bd94643a15264c", "fusion_lon": 0.0, "bike_id": "fb6987854655e00b43bd94643a15264c", "is_reserved": 0, "rental_uris": {"android": "https://dc.lft.to/lastmile_qr_scan", "ios": "https://dc.lft.to/lastmile_qr_scan"}, "lat": 38.9164595, "is_disabled": 0, "lon": -77.03658516666667}, {"fusion_lat": 0.0, "type": "electric_scooter", "name": "0180de9ba6f2b87fad416aa5c903c5d8", "fusion_lon": 0.0, "bike_id": "0180de9ba6f2b87fad416aa5c903c5d8", "is_reserved": 0, "rental_uris": {"android": "https://dc.lft.to/lastmile_qr_scan", "ios": "https://dc.lft.to/lastmile_qr_scan"}, "lat": 38.90726133333333, "is_disabled": 0, "lon": -77.04346333333334}, {"fusion_lat": 0.0, "type": "electric_bike", "name": "fc5d4ad24816fd609c5f842259519c78", "fusion_lon": 0.0, "bike_id": "fc5d4ad24816fd609c5f842259519c78", "is_reserved": 0, "rental_uris": {"android": "https://dc.lft.to/lastmile_qr_scan", "ios": "https://dc.lft.to/lastmile_qr_scan"}, "lat": 38.9967035, "is_disabled": 0, "lon": -77.037751}, {"fusion_lat": 0.0, "type": "electric_scooter", "name": "379eacd7b0b450e0e8cd052a31036d17", "fusion_lon": 0.0, "bike_id": "379eacd7b0b450e0e8cd052a31036d17", "is_reserved": 0, "rental_uris": {"android": "https://dc.lft.to/lastmile_qr_scan", "ios": "https://dc.lft.to/lastmile_qr_scan"}, "lat": 38.91817833333333, "is_disabled": 0, "lon": -77.03353866666667}, {"fusion_lat": 0.0, "type": "electric_scooter", "name": "ede5b95ef66bbdde2fdcac1733e3b91a", "fusion_lon": 0.0, "bike_id": "ede5b95ef66bbdde2fdcac1733e3b91a", "is_reserved": 0, "rental_uris": {"android": "https://dc.lft.to/lastmile_qr_scan", "ios": "https://dc.lft.to/lastmile_qr_scan"}, "lat": 38.9225245, "is_disabled": 0, "lon": -77.01951866666667}, {"fusion_lat": 0.0, "type": "electric_scooter", "name": "a62ed199cb588459f0818f3ea63c716c", "fusion_lon": 0.0, "bike_id": "a62ed199cb588459f0818f3ea63c716c", "is_reserved": 0, "rental_uris": {"android": "https://dc.lft.to/lastmile_qr_scan", "ios": "https://dc.lft.to/lastmile_qr_scan"}, "lat": 38.871941, "is_disabled": 0, "lon": -77.0057375}, {"fusion_lat": 0.0, "type": "electric_scooter", "name": "a71a8a6c60a12af715d2f4a014f025e8", "fusion_lon": 0.0, "bike_id": "a71a8a6c60a12af715d2f4a014f025e8", "is_reserved": 0, "rental_uris": {"android": "https://dc.lft.to/lastmile_qr_scan", "ios": "https://dc.lft.to/lastmile_qr_scan"}, "lat": 38.899574, "is_disabled": 0, "lon": -77.02581983333333}, {"fusion_lat": 0.0, "type": "electric_bike", "name": "0d1c70aae8169b31d118fdf18b32aa75", "fusion_lon": 0.0, "bike_id": "0d1c70aae8169b31d118fdf18b32aa75", "is_reserved": 0, "rental_uris": {"android": "https://dc.lft.to/lastmile_qr_scan", "ios": "https://dc.lft.to/lastmile_qr_scan"}, "lat": 38.985474333333336, "is_disabled": 0, "lon": -77.00397816666667}, {"fusion_lat": 0.0, "type": "electric_scooter", "name": "580c50b382bf3b4dc9df9931210273ab", "fusion_lon": 0.0, "bike_id": "580c50b382bf3b4dc9df9931210273ab", "is_reserved": 0, "rental_uris": {"android": "https://dc.lft.to/lastmile_qr_scan", "ios": "https://dc.lft.to/lastmile_qr_scan"}, "lat": 38.8723495, "is_disabled": 0, "lon": -77.01184766666667}, {"fusion_lat": 0.0, "type": "electric_scooter", "name": "ed5899b249cf81f964cba27b58215a45", "fusion_lon": 0.0, "bike_id": "ed5899b249cf81f964cba27b58215a45", "is_reserved": 0, "rental_uris": {"android": "https://dc.lft.to/lastmile_qr_scan", "ios": "https://dc.lft.to/lastmile_qr_scan"}, "lat": 38.909735166666664, "is_disabled": 0, "lon": -77.04757283333333}, {"fusion_lat": 0.0, "type": "electric_scooter", "name": "bdc56b96737f24a9c8438a3ea88ddd79", "fusion_lon": 0.0, "bike_id": "bdc56b96737f24a9c8438a3ea88ddd79", "is_reserved": 0, "rental_uris": {"android": "https://dc.lft.to/lastmile_qr_scan", "ios": "https://dc.lft.to/lastmile_qr_scan"}, "lat": 38.928134166666666, "is_disabled": 0, "lon": -77.03360866666667}, {"fusion_lat": 0.0, "type": "electric_scooter", "name": "a74c1bfc3a8ffbcbcfd5afed53100e58", "fusion_lon": 0.0, "bike_id": "a74c1bfc3a8ffbcbcfd5afed53100e58", "is_reserved": 0, "rental_uris": {"android": "https://dc.lft.to/lastmile_qr_scan", "ios": "https://dc.lft.to/lastmile_qr_scan"}, "lat": 38.89892116666667, "is_disabled": 0, "lon": -77.039944}, {"fusion_lat": 0.0, "type": "electric_scooter", "name": "0511316f118a95e229b40b59af294036", "fusion_lon": 0.0, "bike_id": "0511316f118a95e229b40b59af294036", "is_reserved": 0, "rental_uris": {"android": "https://dc.lft.to/lastmile_qr_scan", "ios": "https://dc.lft.to/lastmile_qr_scan"}, "lat": 38.897157666666665, "is_disabled": 0, "lon": -77.03077666666667}, {"fusion_lat": 0.0, "type": "electric_scooter", "name": "f2c9eee6adb55b7ffd6c6b8d9695b6a2", "fusion_lon": 0.0, "bike_id": "f2c9eee6adb55b7ffd6c6b8d9695b6a2", "is_reserved": 0, "rental_uris": {"android": "https://dc.lft.to/lastmile_qr_scan", "ios": "https://dc.lft.to/lastmile_qr_scan"}, "lat": 38.9362325, "is_disabled": 0, "lon": -77.08158933333333}, {"fusion_lat": 0.0, "type": "electric_scooter", "name": "01068ae04fcb3c32134f7c4a5a9a5977", "fusion_lon": 0.0, "bike_id": "01068ae04fcb3c32134f7c4a5a9a5977", "is_reserved": 0, "rental_uris": {"android": "https://dc.lft.to/lastmile_qr_scan", "ios": "https://dc.lft.to/lastmile_qr_scan"}, "lat": 38.90087066666667, "is_disabled": 0, "lon": -76.93873716666667}, {"fusion_lat": 0.0, "type": "electric_scooter", "name": "f5603e4694671f9879e461999c67b527", "fusion_lon": 0.0, "bike_id": "f5603e4694671f9879e461999c67b527", "is_reserved": 0, "rental_uris": {"android": "https://dc.lft.to/lastmile_qr_scan", "ios": "https://dc.lft.to/lastmile_qr_scan"}, "lat": 38.918142833333334, "is_disabled": 0, "lon": -77.0337235}, {"fusion_lat": 0.0, "type": "electric_scooter", "name": "785bc0fd6647ea1bc4b473260f18d931", "fusion_lon": 0.0, "bike_id": "785bc0fd6647ea1bc4b473260f18d931", "is_reserved": 0, "rental_uris": {"android": "https://dc.lft.to/lastmile_qr_scan", "ios": "https://dc.lft.to/lastmile_qr_scan"}, "lat": 38.914255, "is_disabled": 0, "lon": -77.03925383333333}, {"fusion_lat": 0.0, "type": "electric_scooter", "name": "0c6cf346d00ab6484d296859e726cbeb", "fusion_lon": 0.0, "bike_id": "0c6cf346d00ab6484d296859e726cbeb", "is_reserved": 0, "rental_uris": {"android": "https://dc.lft.to/lastmile_qr_scan", "ios": "https://dc.lft.to/lastmile_qr_scan"}, "lat": 38.91403183333333, "is_disabled": 0, "lon": -77.04549883333334}, {"fusion_lat": 0.0, "type": "electric_bike", "name": "375954a4b1ea463b0a58d479d94472fe", "fusion_lon": 0.0, "bike_id": "375954a4b1ea463b0a58d479d94472fe", "is_reserved": 0, "rental_uris": {"android": "https://dc.lft.to/lastmile_qr_scan", "ios": "https://dc.lft.to/lastmile_qr_scan"}, "lat": 38.996424833333336, "is_disabled": 0, "lon": -77.0400185}, {"fusion_lat": 0.0, "type": "electric_scooter", "name": "204dca4241c1eae864c34e69a4e462d7", "fusion_lon": 0.0, "bike_id": "204dca4241c1eae864c34e69a4e462d7", "is_reserved": 0, "rental_uris": {"android": "https://dc.lft.to/lastmile_qr_scan", "ios": "https://dc.lft.to/lastmile_qr_scan"}, "lat": 38.921916, "is_disabled": 0, "lon": -76.9887245}, {"fusion_lat": 0.0, "type": "electric_scooter", "name": "6d929aa69c90345d41998fc2d72f0de6", "fusion_lon": 0.0, "bike_id": "6d929aa69c90345d41998fc2d72f0de6", "is_reserved": 0, "rental_uris": {"android": "https://dc.lft.to/lastmile_qr_scan", "ios": "https://dc.lft.to/lastmile_qr_scan"}, "lat": 38.92611516666667, "is_disabled": 0, "lon": -77.02162216666666}, {"fusion_lat": 0.0, "type": "electric_scooter", "name": "0ce4ea74401480755a8477d2b6244af0", "fusion_lon": 0.0, "bike_id": "0ce4ea74401480755a8477d2b6244af0", "is_reserved": 0, "rental_uris": {"android": "https://dc.lft.to/lastmile_qr_scan", "ios": "https://dc.lft.to/lastmile_qr_scan"}, "lat": 38.866991166666665, "is_disabled": 0, "lon": -76.98710966666667}, {"fusion_lat": 0.0, "type": "electric_scooter", "name": "a2de90220d51c32033e7fcc061a63a58", "fusion_lon": 0.0, "bike_id": "a2de90220d51c32033e7fcc061a63a58", "is_reserved": 0, "rental_uris": {"android": "https://dc.lft.to/lastmile_qr_scan", "ios": "https://dc.lft.to/lastmile_qr_scan"}, "lat": 38.93980833333333, "is_disabled": 0, "lon": -77.032635}, {"fusion_lat": 0.0, "type": "electric_bike", "name": "bf5f299bb8c52c36fe0b68cde64d4ec0", "fusion_lon": 0.0, "bike_id": "bf5f299bb8c52c36fe0b68cde64d4ec0", "is_reserved": 0, "rental_uris": {"android": "https://dc.lft.to/lastmile_qr_scan", "ios": "https://dc.lft.to/lastmile_qr_scan"}, "lat": 38.9031385, "is_disabled": 0, "lon": -76.91210966666667}, {"fusion_lat": 0.0, "type": "electric_scooter", "name": "d724a58cac5b469baa0c407e3ded46fb", "fusion_lon": 0.0, "bike_id": "d724a58cac5b469baa0c407e3ded46fb", "is_reserved": 0, "rental_uris": {"android": "https://dc.lft.to/lastmile_qr_scan", "ios": "https://dc.lft.to/lastmile_qr_scan"}, "lat": 38.8764755, "is_disabled": 0, "lon": -76.96508716666666}, {"fusion_lat": 0.0, "type": "electric_scooter", "name": "d472ea4e5b0f437cfb7487fb6553d437", "fusion_lon": 0.0, "bike_id": "d472ea4e5b0f437cfb7487fb6553d437", "is_reserved": 0, "rental_uris": {"android": "https://dc.lft.to/lastmile_qr_scan", "ios": "https://dc.lft.to/lastmile_qr_scan"}, "lat": 38.86467866666667, "is_disabled": 0, "lon": -76.977448}, {"fusion_lat": 0.0, "type": "electric_scooter", "name": "27edd054e176e5523a1b4788a67e873a", "fusion_lon": 0.0, "bike_id": "27edd054e176e5523a1b4788a67e873a", "is_reserved": 0, "rental_uris": {"android": "https://dc.lft.to/lastmile_qr_scan", "ios": "https://dc.lft.to/lastmile_qr_scan"}, "lat": 38.9290205, "is_disabled": 0, "lon": -77.0375105}, {"fusion_lat": 0.0, "type": "electric_scooter", "name": "700a0262b9536a81b972e84706728f20", "fusion_lon": 0.0, "bike_id": "700a0262b9536a81b972e84706728f20", "is_reserved": 0, "rental_uris": {"android": "https://dc.lft.to/lastmile_qr_scan", "ios": "https://dc.lft.to/lastmile_qr_scan"}, "lat": 38.9267195, "is_disabled": 0, "lon": -77.02301233333333}, {"fusion_lat": 0.0, "type": "electric_scooter", "name": "f9fb518d89314bb525dc4f208154bc9e", "fusion_lon": 0.0, "bike_id": "f9fb518d89314bb525dc4f208154bc9e", "is_reserved": 0, "rental_uris": {"android": "https://dc.lft.to/lastmile_qr_scan", "ios": "https://dc.lft.to/lastmile_qr_scan"}, "lat": 38.89150033333333, "is_disabled": 0, "lon": -77.005826}, {"fusion_lat": 0.0, "type": "electric_scooter", "name": "1ed8a1833bdd8dc0937058b908e475be", "fusion_lon": 0.0, "bike_id": "1ed8a1833bdd8dc0937058b908e475be", "is_reserved": 0, "rental_uris": {"android": "https://dc.lft.to/lastmile_qr_scan", "ios": "https://dc.lft.to/lastmile_qr_scan"}, "lat": 38.92235566666667, "is_disabled": 0, "lon": -77.02128416666666}, {"fusion_lat": 0.0, "type": "electric_scooter", "name": "9ccbac2a1c3262a13cfcbaff1f667069", "fusion_lon": 0.0, "bike_id": "9ccbac2a1c3262a13cfcbaff1f667069", "is_reserved": 0, "rental_uris": {"android": "https://dc.lft.to/lastmile_qr_scan", "ios": "https://dc.lft.to/lastmile_qr_scan"}, "lat": 38.907082333333335, "is_disabled": 0, "lon": -77.032828}, {"fusion_lat": 0.0, "type": "electric_bike", "name": "41ad0425bfe33b950196b5b9658bd029", "fusion_lon": 0.0, "bike_id": "41ad0425bfe33b950196b5b9658bd029", "is_reserved": 0, "rental_uris": {"android": "https://dc.lft.to/lastmile_qr_scan", "ios": "https://dc.lft.to/lastmile_qr_scan"}, "lat": 38.983596166666665, "is_disabled": 0, "lon": -76.97220916666667}, {"fusion_lat": 0.0, "type": "electric_scooter", "name": "d99c2e1e3c4cf122601368210c4d3066", "fusion_lon": 0.0, "bike_id": "d99c2e1e3c4cf122601368210c4d3066", "is_reserved": 0, "rental_uris": {"android": "https://dc.lft.to/lastmile_qr_scan", "ios": "https://dc.lft.to/lastmile_qr_scan"}, "lat": 38.89722866666666, "is_disabled": 0, "lon": -77.01373483333333}, {"fusion_lat": 0.0, "type": "electric_scooter", "name": "121fadc73a3561e62bbb344d184dd8d0", "fusion_lon": 0.0, "bike_id": "121fadc73a3561e62bbb344d184dd8d0", "is_reserved": 0, "rental_uris": {"android": "https://dc.lft.to/lastmile_qr_scan", "ios": "https://dc.lft.to/lastmile_qr_scan"}, "lat": 38.89954, "is_disabled": 0, "lon": -76.9753305}, {"fusion_lat": 0.0, "type": "electric_scooter", "name": "5d8ef8cc8d1908b09a1edb636a10bcea", "fusion_lon": 0.0, "bike_id": "5d8ef8cc8d1908b09a1edb636a10bcea", "is_reserved": 0, "rental_uris": {"android": "https://dc.lft.to/lastmile_qr_scan", "ios": "https://dc.lft.to/lastmile_qr_scan"}, "lat": 38.8665395, "is_disabled": 0, "lon": -76.9888245}, {"fusion_lat": 0.0, "type": "electric_scooter", "name": "5df9fc1aab0ddebfa579cac2ab3e9c6c", "fusion_lon": 0.0, "bike_id": "5df9fc1aab0ddebfa579cac2ab3e9c6c", "is_reserved": 0, "rental_uris": {"android": "https://dc.lft.to/lastmile_qr_scan", "ios": "https://dc.lft.to/lastmile_qr_scan"}, "lat": 38.957463833333335, "is_disabled": 0, "lon": -77.02065016666667}, {"fusion_lat": 0.0, "type": "electric_scooter", "name": "27d7e801dcb5c8a026c77a823c8f5d38", "fusion_lon": 0.0, "bike_id": "27d7e801dcb5c8a026c77a823c8f5d38", "is_reserved": 0, "rental_uris": {"android": "https://dc.lft.to/lastmile_qr_scan", "ios": "https://dc.lft.to/lastmile_qr_scan"}, "lat": 38.891939, "is_disabled": 0, "lon": -76.988561}, {"fusion_lat": 0.0, "type": "electric_scooter", "name": "86bb229b04c68da7b48f256666288fcd", "fusion_lon": 0.0, "bike_id": "86bb229b04c68da7b48f256666288fcd", "is_reserved": 0, "rental_uris": {"android": "https://dc.lft.to/lastmile_qr_scan", "ios": "https://dc.lft.to/lastmile_qr_scan"}, "lat": 38.92447333333333, "is_disabled": 0, "lon": -77.02157}, {"fusion_lat": 0.0, "type": "electric_scooter", "name": "aa9c723a148ca84fb9eb20cc7acb08f5", "fusion_lon": 0.0, "bike_id": "aa9c723a148ca84fb9eb20cc7acb08f5", "is_reserved": 0, "rental_uris": {"android": "https://dc.lft.to/lastmile_qr_scan", "ios": "https://dc.lft.to/lastmile_qr_scan"}, "lat": 38.914994666666665, "is_disabled": 0, "lon": -77.00776116666667}, {"fusion_lat": 0.0, "type": "electric_scooter", "name": "3c88f62fc90720af94a7e3064c886adb", "fusion_lon": 0.0, "bike_id": "3c88f62fc90720af94a7e3064c886adb", "is_reserved": 0, "rental_uris": {"android": "https://dc.lft.to/lastmile_qr_scan", "ios": "https://dc.lft.to/lastmile_qr_scan"}, "lat": 38.92441516666667, "is_disabled": 0, "lon": -77.0332565}, {"fusion_lat": 0.0, "type": "electric_bike", "name": "790f5d30d66a186875d5debe31ea21b7", "fusion_lon": 0.0, "bike_id": "790f5d30d66a186875d5debe31ea21b7", "is_reserved": 0, "rental_uris": {"android": "https://dc.lft.to/lastmile_qr_scan", "ios": "https://dc.lft.to/lastmile_qr_scan"}, "lat": 38.92336616666667, "is_disabled": 0, "lon": -76.97143133333333}, {"fusion_lat": 0.0, "type": "electric_scooter", "name": "a624ff38371cf404eccfd4a67cb11a0c", "fusion_lon": 0.0, "bike_id": "a624ff38371cf404eccfd4a67cb11a0c", "is_reserved": 0, "rental_uris": {"android": "https://dc.lft.to/lastmile_qr_scan", "ios": "https://dc.lft.to/lastmile_qr_scan"}, "lat": 38.87391216666666, "is_disabled": 0, "lon": -77.001924}, {"fusion_lat": 0.0, "type": "electric_scooter", "name": "72f679c2b8ab83d150d918179edb121b", "fusion_lon": 0.0, "bike_id": "72f679c2b8ab83d150d918179edb121b", "is_reserved": 0, "rental_uris": {"android": "https://dc.lft.to/lastmile_qr_scan", "ios": "https://dc.lft.to/lastmile_qr_scan"}, "lat": 38.875439, "is_disabled": 0, "lon": -77.00601333333333}, {"fusion_lat": 0.0, "type": "electric_bike", "name": "bbe9f7d007e0a000cbcc193ca158af83", "fusion_lon": 0.0, "bike_id": "bbe9f7d007e0a000cbcc193ca158af83", "is_reserved": 0, "rental_uris": {"android": "https://dc.lft.to/lastmile_qr_scan", "ios": "https://dc.lft.to/lastmile_qr_scan"}, "lat": 38.9815785, "is_disabled": 0, "lon": -77.0263995}, {"fusion_lat": 0.0, "type": "electric_scooter", "name": "b23df3fe0bbebfb33b529c0d695f5d5d", "fusion_lon": 0.0, "bike_id": "b23df3fe0bbebfb33b529c0d695f5d5d", "is_reserved": 0, "rental_uris": {"android": "https://dc.lft.to/lastmile_qr_scan", "ios": "https://dc.lft.to/lastmile_qr_scan"}, "lat": 38.92152866666667, "is_disabled": 0, "lon": -77.03387383333333}, {"fusion_lat": 0.0, "type": "electric_scooter", "name": "3680a6bb119a2d5c363794acf182f867", "fusion_lon": 0.0, "bike_id": "3680a6bb119a2d5c363794acf182f867", "is_reserved": 0, "rental_uris": {"android": "https://dc.lft.to/lastmile_qr_scan", "ios": "https://dc.lft.to/lastmile_qr_scan"}, "lat": 38.913607, "is_disabled": 0, "lon": -77.045653}, {"fusion_lat": 0.0, "type": "electric_scooter", "name": "17e448632e763cebdfb555f1c5095140", "fusion_lon": 0.0, "bike_id": "17e448632e763cebdfb555f1c5095140", "is_reserved": 0, "rental_uris": {"android": "https://dc.lft.to/lastmile_qr_scan", "ios": "https://dc.lft.to/lastmile_qr_scan"}, "lat": 38.88604683333333, "is_disabled": 0, "lon": -77.001362}, {"fusion_lat": 0.0, "type": "electric_scooter", "name": "d01ac3baf63c835ce387a93f446f966a", "fusion_lon": 0.0, "bike_id": "d01ac3baf63c835ce387a93f446f966a", "is_reserved": 0, "rental_uris": {"android": "https://dc.lft.to/lastmile_qr_scan", "ios": "https://dc.lft.to/lastmile_qr_scan"}, "lat": 38.949878166666664, "is_disabled": 0, "lon": -77.02704016666667}, {"fusion_lat": 0.0, "type": "electric_scooter", "name": "62a64a54d1ed383206a99ab15e5aaa23", "fusion_lon": 0.0, "bike_id": "62a64a54d1ed383206a99ab15e5aaa23", "is_reserved": 0, "rental_uris": {"android": "https://dc.lft.to/lastmile_qr_scan", "ios": "https://dc.lft.to/lastmile_qr_scan"}, "lat": 38.887113666666664, "is_disabled": 0, "lon": -77.02204633333334}, {"fusion_lat": 0.0, "type": "electric_scooter", "name": "c0477d2403e2875eef17a19270949e68", "fusion_lon": 0.0, "bike_id": "c0477d2403e2875eef17a19270949e68", "is_reserved": 0, "rental_uris": {"android": "https://dc.lft.to/lastmile_qr_scan", "ios": "https://dc.lft.to/lastmile_qr_scan"}, "lat": 38.864716666666666, "is_disabled": 0, "lon": -76.98228116666667}, {"fusion_lat": 0.0, "type": "electric_bike", "name": "b0a24062a8ff0b0a348ebfef29fc94a9", "fusion_lon": 0.0, "bike_id": "b0a24062a8ff0b0a348ebfef29fc94a9", "is_reserved": 0, "rental_uris": {"android": "https://dc.lft.to/lastmile_qr_scan", "ios": "https://dc.lft.to/lastmile_qr_scan"}, "lat": 38.85933816666667, "is_disabled": 0, "lon": -77.1182985}, {"fusion_lat": 0.0, "type": "electric_scooter", "name": "a5bfe185899bd3831dd2ce768a191185", "fusion_lon": 0.0, "bike_id": "a5bfe185899bd3831dd2ce768a191185", "is_reserved": 0, "rental_uris": {"android": "https://dc.lft.to/lastmile_qr_scan", "ios": "https://dc.lft.to/lastmile_qr_scan"}, "lat": 38.90691, "is_disabled": 0, "lon": -77.03689816666666}, {"fusion_lat": 0.0, "type": "electric_scooter", "name": "80fb438db896d9102e3bd91d1341971b", "fusion_lon": 0.0, "bike_id": "80fb438db896d9102e3bd91d1341971b", "is_reserved": 0, "rental_uris": {"android": "https://dc.lft.to/lastmile_qr_scan", "ios": "https://dc.lft.to/lastmile_qr_scan"}, "lat": 38.90705633333334, "is_disabled": 0, "lon": -77.02690966666667}, {"fusion_lat": 0.0, "type": "electric_scooter", "name": "1eb4f2106d41ee4b66bb0ba3633a3d52", "fusion_lon": 0.0, "bike_id": "1eb4f2106d41ee4b66bb0ba3633a3d52", "is_reserved": 0, "rental_uris": {"android": "https://dc.lft.to/lastmile_qr_scan", "ios": "https://dc.lft.to/lastmile_qr_scan"}, "lat": 38.9011245, "is_disabled": 0, "lon": -77.04379116666667}, {"fusion_lat": 0.0, "type": "electric_scooter", "name": "a4f2b8862218f6e1015ff26839b89e01", "fusion_lon": 0.0, "bike_id": "a4f2b8862218f6e1015ff26839b89e01", "is_reserved": 0, "rental_uris": {"android": "https://dc.lft.to/lastmile_qr_scan", "ios": "https://dc.lft.to/lastmile_qr_scan"}, "lat": 38.8665525, "is_disabled": 0, "lon": -76.98515283333333}, {"fusion_lat": 0.0, "type": "electric_scooter", "name": "22a7da1865279a045fd274a93338fc54", "fusion_lon": 0.0, "bike_id": "22a7da1865279a045fd274a93338fc54", "is_reserved": 0, "rental_uris": {"android": "https://dc.lft.to/lastmile_qr_scan", "ios": "https://dc.lft.to/lastmile_qr_scan"}, "lat": 38.892319, "is_disabled": 0, "lon": -77.01978833333334}, {"fusion_lat": 0.0, "type": "electric_scooter", "name": "09e5d5379756a0dcf7459235306d4aa0", "fusion_lon": 0.0, "bike_id": "09e5d5379756a0dcf7459235306d4aa0", "is_reserved": 0, "rental_uris": {"android": "https://dc.lft.to/lastmile_qr_scan", "ios": "https://dc.lft.to/lastmile_qr_scan"}, "lat": 38.930066333333336, "is_disabled": 0, "lon": -77.055234}, {"fusion_lat": 0.0, "type": "electric_scooter", "name": "b2f8ca43d4aca1326874bc779147680f", "fusion_lon": 0.0, "bike_id": "b2f8ca43d4aca1326874bc779147680f", "is_reserved": 0, "rental_uris": {"android": "https://dc.lft.to/lastmile_qr_scan", "ios": "https://dc.lft.to/lastmile_qr_scan"}, "lat": 38.89296233333334, "is_disabled": 0, "lon": -77.012289}, {"fusion_lat": 0.0, "type": "electric_scooter", "name": "a9a7a50b6e724ddea4eaf2a5dc34437a", "fusion_lon": 0.0, "bike_id": "a9a7a50b6e724ddea4eaf2a5dc34437a", "is_reserved": 0, "rental_uris": {"android": "https://dc.lft.to/lastmile_qr_scan", "ios": "https://dc.lft.to/lastmile_qr_scan"}, "lat": 38.8665555, "is_disabled": 0, "lon": -76.98882183333333}, {"fusion_lat": 0.0, "type": "electric_scooter", "name": "00f01e6efeafb275d064e2eea840cdac", "fusion_lon": 0.0, "bike_id": "00f01e6efeafb275d064e2eea840cdac", "is_reserved": 0, "rental_uris": {"android": "https://dc.lft.to/lastmile_qr_scan", "ios": "https://dc.lft.to/lastmile_qr_scan"}, "lat": 38.90272133333333, "is_disabled": 0, "lon": -77.04602916666667}, {"fusion_lat": 0.0, "type": "electric_scooter", "name": "31a4a6f70a165bc4142f71dd828c7e9c", "fusion_lon": 0.0, "bike_id": "31a4a6f70a165bc4142f71dd828c7e9c", "is_reserved": 0, "rental_uris": {"android": "https://dc.lft.to/lastmile_qr_scan", "ios": "https://dc.lft.to/lastmile_qr_scan"}, "lat": 38.924277000000004, "is_disabled": 0, "lon": -77.04246866666666}, {"fusion_lat": 0.0, "type": "electric_bike", "name": "98db1eb7e9b6c76866f04a495e8075bf", "fusion_lon": 0.0, "bike_id": "98db1eb7e9b6c76866f04a495e8075bf", "is_reserved": 0, "rental_uris": {"android": "https://dc.lft.to/lastmile_qr_scan", "ios": "https://dc.lft.to/lastmile_qr_scan"}, "lat": 38.8460675, "is_disabled": 0, "lon": -77.08969866666666}, {"fusion_lat": 0.0, "type": "electric_scooter", "name": "0ee4232a6d579f6b9a53c8476fe49536", "fusion_lon": 0.0, "bike_id": "0ee4232a6d579f6b9a53c8476fe49536", "is_reserved": 0, "rental_uris": {"android": "https://dc.lft.to/lastmile_qr_scan", "ios": "https://dc.lft.to/lastmile_qr_scan"}, "lat": 38.9223665, "is_disabled": 0, "lon": -77.04246333333333},