{"data": {"bikes": [{"bike_id": "9035e2442e8fe2283eef8e7f4abf6432", "type": "electric_scooter", "is_disabled": 0, "lat": 38.9141695, "rental_uris": {"ios": "https://dc.lft.to/lastmile_qr_scan", "android": "https://dc.lft.to/lastmile_qr_scan"}, "is_reserved": 0, "fusion_lon": 0.0, "fusion_lat": 0.0, "lon": -77.03953366666667, "name": "9035e2442e8fe2283eef8e7f4abf6432"}, {"bike_id": "5b499d7ea61678ce2e69277ae16136a9", "type": "electric_scooter", "is_disabled": 0, "lat": 38.9420435, "rental_uris": {"ios": "https://dc.lft.to/lastmile_qr_scan", "android": "https://dc.lft.to/lastmile_qr_scan"}, "is_reserved": 0, "fusion_lon": 0.0, "fusion_lat": 0.0, "lon": -77.02540866666666, "name": "5b499d7ea61678ce2e69277ae16136a9"}, {"bike_id": "42b351a7a2d5503190f34264d2d9b62b", "type": "electric_scooter", "is_disabled": 0, "lat": 38.924890833333336, "rental_uris": {"ios": "https://dc.lft.to/lastmile_qr_scan", "android": "https://dc.lft.to/lastmile_qr_scan"}, "is_reserved": 0, "fusion_lon": 0.0, "fusion_lat": 0.0, "lon": -77.02960633333333, "name": "42b351a7a2d5503190f34264d2d9b62b"}, {"bike_id": "bcd84035eee82d1c143ce8d4b5476b5e", "type": "electric_scooter", "is_disabled": 0, "lat": 38.858126, "rental_uris": {"ios": "https://dc.lft.to/lastmile_qr_scan", "android": "https://dc.lft.to/lastmile_qr_scan"}, "is_reserved": 0, "fusion_lon": 0.0, "fusion_lat": 0.0, "lon": -76.98920683333333, "name": "bcd84035eee82d1c143ce8d4b5476b5e"}, {"bike_id": "ad08958f72ebc5298bb22c367ac4225a", "type": "electric_scooter", "is_disabled": 0, "lat": 38.9171295, "rental_uris": {"ios": "https://dc.lft.to/lastmile_qr_scan", "android": "https://dc.lft.to/lastmile_qr_scan"}, "is_reserved": 0, "fusion_lon": 0.0, "fusion_lat": 0.0, "lon": -77.02884016666667, "name": "ad08958f72ebc5298bb22c367ac4225a"}, {"bike_id": "a3f4c6201afe55108f256d68cf3d997a", "type": "electric_scooter", "is_disabled": 0, "lat": 38.9079125, "rental_uris": {"ios": "https://dc.lft.to/lastmile_qr_scan", "android": "https://dc.lft.to/lastmile_qr_scan"}, "is_reserved": 0, "fusion_lon": 0.0, "fusion_lat": 0.0, "lon": -76.9942345, "name": "a3f4c6201afe55108f256d68cf3d997a"}, {"bike_id": "ae0c42ec0dee2b3dc62a836448c693fa", "type": "electric_scooter", "is_disabled": 0, "lat": 38.89972383333333, "rental_uris": {"ios": "https://dc.lft.to/lastmile_qr_scan", "android": "https://dc.lft.to/lastmile_qr_scan"}, "is_reserved": 0, "fusion_lon": 0.0, "fusion_lat": 0.0, "lon": -76.9830105, "name": "ae0c42ec0dee2b3dc62a836448c693fa"}, {"bike_id": "194322c406aa0d62f44f397b240cccee", "type": "electric_scooter", "is_disabled": 0, "lat": 38.86630483333333, "rental_uris": {"ios": "https://dc.lft.to/lastmile_qr_scan", "android": "https://dc.lft.to/lastmile_qr_scan"}, "is_reserved": 0, "fusion_lon": 0.0, "fusion_lat": 0.0, "lon": -76.98714033333333, "name": "194322c406aa0d62f44f397b240cccee"}, {"bike_id": "7bed25d45b9c26596b24bf7e51083094", "type": "electric_scooter", "is_disabled": 0, "lat": 38.939036, "rental_uris": {"ios": "https://dc.lft.to/lastmile_qr_scan", "android": "https://dc.lft.to/lastmile_qr_scan"}, "is_reserved": 0, "fusion_lon": 0.0, "fusion_lat": 0.0, "lon": -77.03321283333334, "name": "7bed25d45b9c26596b24bf7e51083094"}, {"bike_id": "b560d1f2262dcd56a5698a477a24cb1b", "type": "electric_bike", "is_disabled": 0, "lat": 38.80756233333334, "rental_uris": {"ios": "https://dc.lft.to/lastmile_qr_scan", "android": "https://dc.lft.to/lastmile_qr_scan"}, "is_reserved": 0, "fusion_lon": 0.0, "fusion_lat": 0.0, "lon": -77.09452466666667, "name": "b560d1f2262dcd56a5698a477a24cb1b"}, {"bike_id": "d1c49e386ddb718e263006b6394c220b", "type": "electric_scooter", "is_disabled": 0, "lat": 38.894843, "rental_uris": {"ios": "https://dc.lft.to/lastmile_qr_scan", "android": "https://dc.lft.to/lastmile_qr_scan"}, "is_reserved": 0, "fusion_lon": 0.0, "fusion_lat": 0.0, "lon": -76.98781066666666, "name": "d1c49e386ddb718e263006b6394c220b"}, {"bike_id": "1f82c47307b686fc39c9ef6d8de30917", "type": "electric_scooter", "is_disabled": 0, "lat": 38.870715, "rental_uris": {"ios": "https://dc.lft.to/lastmile_qr_scan", "android": "https://dc.lft.to/lastmile_qr_scan"}, "is_reserved": 0, "fusion_lon": 0.0, "fusion_lat": 0.0, "lon": -76.98127066666666, "name": "1f82c47307b686fc39c9ef6d8de30917"}, {"bike_id": "bdde61ccf28a86090769d12539198693", "type": "electric_bike", "is_disabled": 0, "lat": 38.864859, "rental_uris": {"ios": "https://dc.lft.to/lastmile_qr_scan", "android": "https://dc.lft.to/lastmile_qr_scan"}, "is_reserved": 0, "fusion_lon": 0.0, "fusion_lat": 0.0, "lon": -76.9773325, "name": "bdde61ccf28a86090769d12539198693"}, {"bike_id": "3ab9aa8e4703b7354c0d63568cba1192", "type": "electric_scooter", "is_disabled": 0, "lat": 38.939843, "rental_uris": {"ios": "https://dc.lft.to/lastmile_qr_scan", "android": "https://dc.lft.to/lastmile_qr_scan"}, "is_reserved": 0, "fusion_lon": 0.0, "fusion_lat": 0.0, "lon": -77.028726, "name": "3ab9aa8e4703b7354c0d63568cba1192"}, {"bike_id": "d82d1d92d35648f685de730fe8f9556f", "type": "electric_scooter", "is_disabled": 0, "lat": 38.89291083333333, "rental_uris": {"ios": "https://dc.lft.to/lastmile_qr_scan", "android": "https://dc.lft.to/lastmile_qr_scan"}, "is_reserved": 0, "fusion_lon": 0.0, "fusion_lat": 0.0, "lon": -77.02021116666667, "name": "d82d1d92d35648f685de730fe8f9556f"}, {"bike_id": "87f47887d77c3025198e8cf30b676947", "type": "electric_scooter", "is_disabled": 0, "lat": 38.923307, "rental_uris": {"ios": "https://dc.lft.to/lastmile_qr_scan", "android": "https://dc.lft.to/lastmile_qr_scan"}, "is_reserved": 0, "fusion_lon": 0.0, "fusion_lat": 0.0, "lon": -77.00048866666667, "name": "87f47887d77c3025198e8cf30b676947"}, {"bike_id": "eb229c19d10f1abc42d5dcb062335c31", "type": "electric_scooter", "is_disabled": 0, "lat": 38.917320833333335, "rental_uris": {"ios": "https://dc.lft.to/lastmile_qr_scan", "android": "https://dc.lft.to/lastmile_qr_scan"}, "is_reserved": 0, "fusion_lon": 0.0, "fusion_lat": 0.0, "lon": -77.0081495, "name": "eb229c19d10f1abc42d5dcb062335c31"}, {"bike_id": "fb2f9a57a05db98fa4ae7b350bb616b3", "type": "electric_bike", "is_disabled": 0, "lat": 38.9596385, "rental_uris": {"ios": "https://dc.lft.to/lastmile_qr_scan", "android": "https://dc.lft.to/lastmile_qr_scan"}, "is_reserved": 0, "fusion_lon": 0.0, "fusion_lat": 0.0, "lon": -76.98160133333333, "name": "fb2f9a57a05db98fa4ae7b350bb616b3"}, {"bike_id": "5cdefc797cd547105774ac10482a1210", "type": "electric_scooter", "is_disabled": 0, "lat": 38.936577, "rental_uris": {"ios": "https://dc.lft.to/lastmile_qr_scan", "android": "https://dc.lft.to/lastmile_qr_scan"}, "is_reserved": 0, "fusion_lon": 0.0, "fusion_lat": 0.0, "lon": -77.026357, "name": "5cdefc797cd547105774ac10482a1210"}, {"bike_id": "a34beae607543b65a111736263c6dd04", "type": "electric_scooter", "is_disabled": 0, "lat": 38.92759866666667, "rental_uris": {"ios": "https://dc.lft.to/lastmile_qr_scan", "android": "https://dc.lft.to/lastmile_qr_scan"}, "is_reserved": 0, "fusion_lon": 0.0, "fusion_lat": 0.0, "lon": -77.0564125, "name": "a34beae607543b65a111736263c6dd04"}, {"bike_id": "c1f08068dcd2f81ea78dae2edd816a2b", "type": "electric_scooter", "is_disabled": 0, "lat": 38.911081, "rental_uris": {"ios": "https://dc.lft.to/lastmile_qr_scan", "android": "https://dc.lft.to/lastmile_qr_scan"}, "is_reserved": 0, "fusion_lon": 0.0, "fusion_lat": 0.0, "lon": -77.00210583333333, "name": "c1f08068dcd2f81ea78dae2edd816a2b"}, {"bike_id": "e8c3958a9c1036a531ccfba2c38f0b28", "type": "electric_scooter", "is_disabled": 0, "lat": 38.909759666666666, "rental_uris": {"ios": "https://dc.lft.to/lastmile_qr_scan", "android": "https://dc.lft.to/lastmile_qr_scan"}, "is_reserved": 0, "fusion_lon": 0.0, "fusion_lat": 0.0, "lon": -77.02800966666666, "name": "e8c3958a9c1036a531ccfba2c38f0b28"}, {"bike_id": "b94f495b0cc283c1bae2af00e9a458ee", "type": "electric_scooter", "is_disabled": 0, "lat": 38.9028745, "rental_uris": {"ios": "https://dc.lft.to/lastmile_qr_scan", "android": "https://dc.lft.to/lastmile_qr_scan"}, "is_reserved": 0, "fusion_lon": 0.0, "fusion_lat": 0.0, "lon": -77.03647483333333, "name": "b94f495b0cc283c1bae2af00e9a458ee"}, {"bike_id": "dc1a68256bf8f460ee7b2574f92db119", "type": "electric_scooter", "is_disabled": 0, "lat": 38.8843395, "rental_uris": {"ios": "https://dc.lft.to/lastmile_qr_scan", "android": "https://dc.lft.to/lastmile_qr_scan"}, "is_reserved": 0, "fusion_lon": 0.0, "fusion_lat": 0.0, "lon": -76.95746433333333, "name": "dc1a68256bf8f460ee7b2574f92db119"}, {"bike_id": "3264462be3bf049f085ac7e89f39280a", "type": "electric_scooter", "is_disabled": 0, "lat": 38.9285995, "rental_uris": {"ios": "https://dc.lft.to/lastmile_qr_scan", "android": "https://dc.lft.to/lastmile_qr_scan"}, "is_reserved": 0, "fusion_lon": 0.0, "fusion_lat": 0.0, "lon": -77.0230205, "name": "3264462be3bf049f085ac7e89f39280a"}, {"bike_id": "30611144a923aaca4978981ed9bdaabb", "type": "electric_scooter", "is_disabled": 0, "lat": 38.874728166666664, "rental_uris": {"ios": "https://dc.lft.to/lastmile_qr_scan", "android": "https://dc.lft.to/lastmile_qr_scan"}, "is_reserved": 0, "fusion_lon": 0.0, "fusion_lat": 0.0, "lon": -77.01071133333333, "name": "30611144a923aaca4978981ed9bdaabb"}, {"bike_id": "170490c5a9844258db5125828c5a3dec", "type": "electric_scooter", "is_disabled": 0, "lat": 38.95737166666667, "rental_uris": {"ios": "https://dc.lft.to/lastmile_qr_scan", "android": "https://dc.lft.to/lastmile_qr_scan"}, "is_reserved": 0, "fusion_lon": 0.0, "fusion_lat": 0.0, "lon": -77.02418083333333, "name": "170490c5a9844258db5125828c5a3dec"}, {"bike_id": "45b5636346d47d96bc81fceba3f5ee18", "type": "electric_scooter", "is_disabled": 0, "lat": 38.88740933333333, "rental_uris": {"ios": "https://dc.lft.to/lastmile_qr_scan", "android": "https://dc.lft.to/lastmile_qr_scan"}, "is_reserved": 0, "fusion_lon": 0.0, "fusion_lat": 0.0, "lon": -77.01529466666666, "name": "45b5636346d47d96bc81fceba3f5ee18"}, {"bike_id": "4d6fe8c1f72b262249d7a075b68440ac", "type": "electric_scooter", "is_disabled": 0, "lat": 38.917525833333336, "rental_uris": {"ios": "https://dc.lft.to/lastmile_qr_scan", "android": "https://dc.lft.to/lastmile_qr_scan"}, "is_reserved": 0, "fusion_lon": 0.0, "fusion_lat": 0.0, "lon": -77.03184733333333, "name": "4d6fe8c1f72b262249d7a075b68440ac"}, {"bike_id": "0197b9a4b270b6be025f4584d34b54ab", "type": "electric_bike", "is_disabled": 0, "lat": 38.838551333333335, "rental_uris": {"ios": "https://dc.lft.to/lastmile_qr_scan", "android": "https://dc.lft.to/lastmile_qr_scan"}, "is_reserved": 0, "fusion_lon": 0.0, "fusion_lat": 0.0, "lon": -77.05024283333333, "name": "0197b9a4b270b6be025f4584d34b54ab"}, {"bike_id": "d715a8f819d385e74d09e4a57ea74f5e", "type": "electric_scooter", "is_disabled": 0, "lat": 38.91112916666667, "rental_uris": {"ios": "https://dc.lft.to/lastmile_qr_scan", "android": "https://dc.lft.to/lastmile_qr_scan"}, "is_reserved": 0, "fusion_lon": 0.0, "fusion_lat": 0.0, "lon": -77.01004366666666, "name": "d715a8f819d385e74d09e4a57ea74f5e"}, {"bike_id": "53610cf1aa5cc74bfe867987a952768f", "type": "electric_scooter", "is_disabled": 0, "lat": 38.903829333333334, "rental_uris": {"ios": "https://dc.lft.to/lastmile_qr_scan", "android": "https://dc.lft.to/lastmile_qr_scan"}, "is_reserved": 0, "fusion_lon": 0.0, "fusion_lat": 0.0, "lon": -76.98197083333334, "name": "53610cf1aa5cc74bfe867987a952768f"}, {"bike_id": "0b3e32c635e95616d893d472fe7e24b4", "type": "electric_scooter", "is_disabled": 0, "lat": 38.93762266666667, "rental_uris": {"ios": "https://dc.lft.to/lastmile_qr_scan", "android": "https://dc.lft.to/lastmile_qr_scan"}, "is_reserved": 0, "fusion_lon": 0.0, "fusion_lat": 0.0, "lon": -77.02472233333333, "name": "0b3e32c635e95616d893d472fe7e24b4"}, {"bike_id": "76b6945c3f0f29e8368ed8aaf4ec5903", "type": "electric_bike", "is_disabled": 0, "lat": 38.807618, "rental_uris": {"ios": "https://dc.lft.to/lastmile_qr_scan", "android": "https://dc.lft.to/lastmile_qr_scan"}, "is_reserved": 0, "fusion_lon": 0.0, "fusion_lat": 0.0, "lon": -77.09465433333334, "name": "76b6945c3f0f29e8368ed8aaf4ec5903"}, {"bike_id": "eafe8a45193b5d29cd0519fab598f934", "type": "electric_scooter", "is_disabled": 0, "lat": 38.8650575, "rental_uris": {"ios": "https://dc.lft.to/lastmile_qr_scan", "android": "https://dc.lft.to/lastmile_qr_scan"}, "is_reserved": 0, "fusion_lon": 0.0, "fusion_lat": 0.0, "lon": -76.99002066666667, "name": "eafe8a45193b5d29cd0519fab598f934"}, {"bike_id": "e8257c30480c5cbac69ed90f44d4fb54", "type": "electric_scooter", "is_disabled": 0, "lat": 38.919934833333336, "rental_uris": {"ios": "https://dc.lft.to/lastmile_qr_scan", "android": "https://dc.lft.to/lastmile_qr_scan"}, "is_reserved": 0, "fusion_lon": 0.0, "fusion_lat": 0.0, "lon": -77.017896, "name": "e8257c30480c5cbac69ed90f44d4fb54"}, {"bike_id": "9589c9e36636222627a7cfa00e2621cb", "type": "electric_scooter", "is_disabled": 0, "lat": 38.91607116666667, "rental_uris": {"ios": "https://dc.lft.to/lastmile_qr_scan", "android": "https://dc.lft.to/lastmile_qr_scan"}, "is_reserved": 0, "fusion_lon": 0.0, "fusion_lat": 0.0, "lon": -77.0339435, "name": "9589c9e36636222627a7cfa00e2621cb"}, {"bike_id": "09735a6e2b95fd5da68ab916af2e627e", "type": "electric_scooter", "is_disabled": 0, "lat": 38.922617, "rental_uris": {"ios": "https://dc.lft.to/lastmile_qr_scan", "android": "https://dc.lft.to/lastmile_qr_scan"}, "is_reserved": 0, "fusion_lon": 0.0, "fusion_lat": 0.0, "lon": -77.03514983333334, "name": "09735a6e2b95fd5da68ab916af2e627e"}, {"bike_id": "40322d9d40fe6b9d75b72e0b55c9259e", "type": "electric_scooter", "is_disabled": 0, "lat": 38.9134335, "rental_uris": {"ios": "https://dc.lft.to/lastmile_qr_scan", "android": "https://dc.lft.to/lastmile_qr_scan"}, "is_reserved": 0, "fusion_lon": 0.0, "fusion_lat": 0.0, "lon": -77.039848, "name": "40322d9d40fe6b9d75b72e0b55c9259e"}, {"bike_id": "3fc16f298c16b61351ddd39f5f5f2abf", "type": "electric_scooter", "is_disabled": 0, "lat": 38.92388616666667, "rental_uris": {"ios": "https://dc.lft.to/lastmile_qr_scan", "android": "https://dc.lft.to/lastmile_qr_scan"}, "is_reserved": 0, "fusion_lon": 0.0, "fusion_lat": 0.0, "lon": -77.04472633333333, "name": "3fc16f298c16b61351ddd39f5f5f2abf"}, {"bike_id": "b3d59bc3088fe77602fdf6a120001ff7", "type": "electric_scooter", "is_disabled": 0, "lat": 38.91781016666667, "rental_uris": {"ios": "https://dc.lft.to/lastmile_qr_scan", "android": "https://dc.lft.to/lastmile_qr_scan"}, "is_reserved": 0, "fusion_lon": 0.0, "fusion_lat": 0.0, "lon": -77.0232045, "name": "b3d59bc3088fe77602fdf6a120001ff7"}, {"bike_id": "374d01cfb0e5f35795ef40dd1181e84e", "type": "electric_bike", "is_disabled": 0, "lat": 38.961798, "rental_uris": {"ios": "https://dc.lft.to/lastmile_qr_scan", "android": "https://dc.lft.to/lastmile_qr_scan"}, "is_reserved": 0, "fusion_lon": 0.0, "fusion_lat": 0.0, "lon": -77.032252, "name": "374d01cfb0e5f35795ef40dd1181e84e"}, {"bike_id": "c0f0cd0b4f59e3bfb2d6e486a49986e3", "type": "electric_scooter", "is_disabled": 0, "lat": 38.9095585, "rental_uris": {"ios": "https://dc.lft.to/lastmile_qr_scan", "android": "https://dc.lft.to/lastmile_qr_scan"}, "is_reserved": 0, "fusion_lon": 0.0, "fusion_lat": 0.0, "lon": -77.02715933333333, "name": "c0f0cd0b4f59e3bfb2d6e486a49986e3"}, {"bike_id": "ab732f721d69f044f5b0d2ff4d5a83d8", "type": "electric_scooter", "is_disabled": 0, "lat": 38.90035016666667, "rental_uris": {"ios": "https://dc.lft.to/lastmile_qr_scan", "android": "https://dc.lft.to/lastmile_qr_scan"}, "is_reserved": 0, "fusion_lon": 0.0, "fusion_lat": 0.0, "lon": -77.00187916666667, "name": "ab732f721d69f044f5b0d2ff4d5a83d8"}, {"bike_id": "95400a749a6c533efefb2a51014f54e3", "type": "electric_scooter", "is_disabled": 0, "lat": 38.869795833333335, "rental_uris": {"ios": "https://dc.lft.to/lastmile_qr_scan", "android": "https://dc.lft.to/lastmile_qr_scan"}, "is_reserved": 0, "fusion_lon": 0.0, "fusion_lat": 0.0, "lon": -76.9817035, "name": "95400a749a6c533efefb2a51014f54e3"}, {"bike_id": "fabce9d3aa20ef2f44e3d523aa4ad411", "type": "electric_bike", "is_disabled": 0, "lat": 38.872779333333334, "rental_uris": {"ios": "https://dc.lft.to/lastmile_qr_scan", "android": "https://dc.lft.to/lastmile_qr_scan"}, "is_reserved": 0, "fusion_lon": 0.0, "fusion_lat": 0.0, "lon": -77.23319666666667, "name": "fabce9d3aa20ef2f44e3d523aa4ad411"}, {"bike_id": "653dac8b48e97dcbacef58d9c65f7493", "type": "electric_bike", "is_disabled": 0, "lat": 38.880628, "rental_uris": {"ios": "https://dc.lft.to/lastmile_qr_scan", "android": "https://dc.lft.to/lastmile_qr_scan"}, "is_reserved": 0, "fusion_lon": 0.0, "fusion_lat": 0.0, "lon": -76.96237833333333, "name": "653dac8b48e97dcbacef58d9c65f7493"}, {"bike_id": "d6d559976936027752b82bce4c906b9f", "type": "electric_scooter", "is_disabled": 0, "lat": 38.882213, "rental_uris": {"ios": "https://dc.lft.to/lastmile_qr_scan", "android": "https://dc.lft.to/lastmile_qr_scan"}, "is_reserved": 0, "fusion_lon": 0.0, "fusion_lat": 0.0, "lon": -76.9266415, "name": "d6d559976936027752b82bce4c906b9f"}, {"bike_id": "95e38bcac4b11c01395ce59e55c594c2", "type": "electric_scooter", "is_disabled": 0, "lat": 38.947902, "rental_uris": {"ios": "https://dc.lft.to/lastmile_qr_scan", "android": "https://dc.lft.to/lastmile_qr_scan"}, "is_reserved": 0, "fusion_lon": 0.0, "fusion_lat": 0.0, "lon": -77.02134116666667, "name": "95e38bcac4b11c01395ce59e55c594c2"}, {"bike_id": "6d2e68e0727ca89b1d19092bab0bfcfd", "type": "electric_scooter", "is_disabled": 0, "lat": 38.9236855, "rental_uris": {"ios": "https://dc.lft.to/lastmile_qr_scan", "android": "https://dc.lft.to/lastmile_qr_scan"}, "is_reserved": 0, "fusion_lon": 0.0, "fusion_lat": 0.0, "lon": -77.03057216666667, "name": "6d2e68e0727ca89b1d19092bab0bfcfd"}, {"bike_id": "30fe568c9a270d6bebf06253017c7100", "type": "electric_scooter", "is_disabled": 0, "lat": 38.933029166666664, "rental_uris": {"ios": "https://dc.lft.to/lastmile_qr_scan", "android": "https://dc.lft.to/lastmile_qr_scan"}, "is_reserved": 0, "fusion_lon": 0.0, "fusion_lat": 0.0, "lon": -77.03266266666667, "name": "30fe568c9a270d6bebf06253017c7100"}, {"bike_id": "a16edf53e50179bf8e4b72cc73dc90e5", "type": "electric_scooter", "is_disabled": 0, "lat": 38.914240166666666, "rental_uris": {"ios": "https://dc.lft.to/lastmile_qr_scan", "android": "https://dc.lft.to/lastmile_qr_scan"}, "is_reserved": 0, "fusion_lon": 0.0, "fusion_lat": 0.0, "lon": -77.04806266666667, "name": "a16edf53e50179bf8e4b72cc73dc90e5"}, {"bike_id": "4c707acfe9451d2a463bdfeffe616e74", "type": "electric_bike", "is_disabled": 0, "lat": 38.910166833333335, "rental_uris": {"ios": "https://dc.lft.to/lastmile_qr_scan", "android": "https://dc.lft.to/lastmile_qr_scan"}, "is_reserved": 0, "fusion_lon": 0.0, "fusion_lat": 0.0, "lon": -77.22798783333333, "name": "4c707acfe9451d2a463bdfeffe616e74"}, {"bike_id": "384fc463076d8285f2dc86755e030fe3", "type": "electric_scooter", "is_disabled": 0, "lat": 38.91300433333333, "rental_uris": {"ios": "https://dc.lft.to/lastmile_qr_scan", "android": "https://dc.lft.to/lastmile_qr_scan"}, "is_reserved": 0, "fusion_lon": 0.0, "fusion_lat": 0.0, "lon": -77.045434, "name": "384fc463076d8285f2dc86755e030fe3"}, {"bike_id": "1785d762b4a4cc39cc1ec795da7bafef", "type": "electric_scooter", "is_disabled": 0, "lat": 38.91029666666667, "rental_uris": {"ios": "https://dc.lft.to/lastmile_qr_scan", "android": "https://dc.lft.to/lastmile_qr_scan"}, "is_reserved": 0, "fusion_lon": 0.0, "fusion_lat": 0.0, "lon": -77.0075535, "name": "1785d762b4a4cc39cc1ec795da7bafef"}, {"bike_id": "537911ee0904cdd8069cca21bbf656c4", "type": "electric_scooter", "is_disabled": 0, "lat": 38.9024625, "rental_uris": {"ios": "https://dc.lft.to/lastmile_qr_scan", "android": "https://dc.lft.to/lastmile_qr_scan"}, "is_reserved": 0, "fusion_lon": 0.0, "fusion_lat": 0.0, "lon": -77.04045066666667, "name": "537911ee0904cdd8069cca21bbf656c4"}, {"bike_id": "79bee49a4e91c117955d473ded3c8e61", "type": "electric_scooter", "is_disabled": 0, "lat": 38.91849, "rental_uris": {"ios": "https://dc.lft.to/lastmile_qr_scan", "android": "https://dc.lft.to/lastmile_qr_scan"}, "is_reserved": 0, "fusion_lon": 0.0, "fusion_lat": 0.0, "lon": -77.02453283333334, "name": "79bee49a4e91c117955d473ded3c8e61"}, {"bike_id": "c5da1e8539eebc44cad787467e413dee", "type": "electric_scooter", "is_disabled": 0, "lat": 38.966085166666666, "rental_uris": {"ios": "https://dc.lft.to/lastmile_qr_scan", "android": "https://dc.lft.to/lastmile_qr_scan"}, "is_reserved": 0, "fusion_lon": 0.0, "fusion_lat": 0.0, "lon": -77.0197, "name": "c5da1e8539eebc44cad787467e413dee"}, {"bike_id": "55f617bb9a25b516a283271735a645c7", "type": "electric_scooter", "is_disabled": 0, "lat": 38.904227, "rental_uris": {"ios": "https://dc.lft.to/lastmile_qr_scan", "android": "https://dc.lft.to/lastmile_qr_scan"}, "is_reserved": 0, "fusion_lon": 0.0, "fusion_lat": 0.0, "lon": -77.02506066666666, "name": "55f617bb9a25b516a283271735a645c7"}, {"bike_id": "9830ca82840df49263e72f5e6ebacb1c", "type": "electric_scooter", "is_disabled": 0, "lat": 38.911769166666666, "rental_uris": {"ios": "https://dc.lft.to/lastmile_qr_scan", "android": "https://dc.lft.to/lastmile_qr_scan"}, "is_reserved": 0, "fusion_lon": 0.0, "fusion_lat": 0.0, "lon": -77.00217433333333, "name": "9830ca82840df49263e72f5e6ebacb1c"}, {"bike_id": "d05fa0623f41c23231cee455d61d2695", "type": "electric_scooter", "is_disabled": 0, "lat": 38.905654166666665, "rental_uris": {"ios": "https://dc.lft.to/lastmile_qr_scan", "android": "https://dc.lft.to/lastmile_qr_scan"}, "is_reserved": 0, "fusion_lon": 0.0, "fusion_lat": 0.0, "lon": -77.04401933333334, "name": "d05fa0623f41c23231cee455d61d2695"}, {"bike_id": "04e94e61834ecfbabf4a02bac8fb8d58", "type": "electric_scooter", "is_disabled": 0, "lat": 38.931081166666665, "rental_uris": {"ios": "https://dc.lft.to/lastmile_qr_scan", "android": "https://dc.lft.to/lastmile_qr_scan"}, "is_reserved": 0, "fusion_lon": 0.0, "fusion_lat": 0.0, "lon": -77.0346895, "name": "04e94e61834ecfbabf4a02bac8fb8d58"}, {"bike_id": "1f4a63884520c4937ff32dcb5edad996", "type": "electric_scooter", "is_disabled": 0, "lat": 38.90898466666667, "rental_uris": {"ios": "https://dc.lft.to/lastmile_qr_scan", "android": "https://dc.lft.to/lastmile_qr_scan"}, "is_reserved": 0, "fusion_lon": 0.0, "fusion_lat": 0.0, "lon": -77.04498883333333, "name": "1f4a63884520c4937ff32dcb5edad996"}, {"bike_id": "6e07b32bce610aae7002cfcaed7d4020", "type": "electric_scooter", "is_disabled": 0, "lat": 38.91589416666667, "rental_uris": {"ios": "https://dc.lft.to/lastmile_qr_scan", "android": "https://dc.lft.to/lastmile_qr_scan"}, "is_reserved": 0, "fusion_lon": 0.0, "fusion_lat": 0.0, "lon": -77.01143833333333, "name": "6e07b32bce610aae7002cfcaed7d4020"}, {"bike_id": "3094ef0e352c4218a610e559c0e1c3c1", "type": "electric_scooter", "is_disabled": 0, "lat": 38.932665666666665, "rental_uris": {"ios": "https://dc.lft.to/lastmile_qr_scan", "android": "https://dc.lft.to/lastmile_qr_scan"}, "is_reserved": 0, "fusion_lon": 0.0, "fusion_lat": 0.0, "lon": -77.0389215, "name": "3094ef0e352c4218a610e559c0e1c3c1"}, {"bike_id": "9f091baa5264ecebd6a6ad8f80522f33", "type": "electric_scooter", "is_disabled": 0, "lat": 38.91578583333333, "rental_uris": {"ios": "https://dc.lft.to/lastmile_qr_scan", "android": "https://dc.lft.to/lastmile_qr_scan"}, "is_reserved": 0, "fusion_lon": 0.0, "fusion_lat": 0.0, "lon": -77.0345895, "name": "9f091baa5264ecebd6a6ad8f80522f33"}, {"bike_id": "fc1dacfa60d2f532c108583bd93cf56e", "type": "electric_scooter", "is_disabled": 0, "lat": 38.922874166666666, "rental_uris": {"ios": "https://dc.lft.to/lastmile_qr_scan", "android": "https://dc.lft.to/lastmile_qr_scan"}, "is_reserved": 0, "fusion_lon": 0.0, "fusion_lat": 0.0, "lon": -77.073142, "name": "fc1dacfa60d2f532c108583bd93cf56e"}, {"bike_id": "31fc4585744fa2f52e51ff2bf6bed26a", "type": "electric_bike", "is_disabled": 0, "lat": 38.896961833333336, "rental_uris": {"ios": "https://dc.lft.to/lastmile_qr_scan", "android": "https://dc.lft.to/lastmile_qr_scan"}, "is_reserved": 0, "fusion_lon": 0.0, "fusion_lat": 0.0, "lon": -77.08642216666667, "name": "31fc4585744fa2f52e51ff2bf6bed26a"}, {"bike_id": "4e346756a396d4f0a4286bb72100117e", "type": "electric_scooter", "is_disabled": 0, "lat": 38.9368675, "rental_uris": {"ios": "https://dc.lft.to/lastmile_qr_scan", "android": "https://dc.lft.to/lastmile_qr_scan"}, "is_reserved": 0, "fusion_lon": 0.0, "fusion_lat": 0.0, "lon": -77.06619683333334, "name": "4e346756a396d4f0a4286bb72100117e"}, {"bike_id": "3b51e097b8fe642e5fcf24bd091a6153", "type": "electric_scooter", "is_disabled": 0, "lat": 38.923281833333334, "rental_uris": {"ios": "https://dc.lft.to/lastmile_qr_scan", "android": "https://dc.lft.to/lastmile_qr_scan"}, "is_reserved": 0, "fusion_lon": 0.0, "fusion_lat": 0.0, "lon": -77.02968283333334, "name": "3b51e097b8fe642e5fcf24bd091a6153"}, {"bike_id": "cc4095d002e9f99753bf51721d7f3b0c", "type": "electric_scooter", "is_disabled": 0, "lat": 38.933739833333334, "rental_uris": {"ios": "https://dc.lft.to/lastmile_qr_scan", "android": "https://dc.lft.to/lastmile_qr_scan"}, "is_reserved": 0, "fusion_lon": 0.0, "fusion_lat": 0.0, "lon": -77.057291, "name": "cc4095d002e9f99753bf51721d7f3b0c"}, {"bike_id": "65616313099390e7ea6c485b79750a84", "type": "electric_scooter", "is_disabled": 0, "lat": 38.933549666666664, "rental_uris": {"ios": "https://dc.lft.to/lastmile_qr_scan", "android": "https://dc.lft.to/lastmile_qr_scan"}, "is_reserved": 0, "fusion_lon": 0.0, "fusion_lat": 0.0, "lon": -76.99253666666667, "name": "65616313099390e7ea6c485b79750a84"}, {"bike_id": "a75643322c6d6aa192d1d4bb4e875407", "type": "electric_scooter", "is_disabled": 0, "lat": 38.8991295, "rental_uris": {"ios": "https://dc.lft.to/lastmile_qr_scan", "android": "https://dc.lft.to/lastmile_qr_scan"}, "is_reserved": 0, "fusion_lon": 0.0, "fusion_lat": 0.0, "lon": -76.981737, "name": "a75643322c6d6aa192d1d4bb4e875407"}, {"bike_id": "b3b35aefad1da4cad938e1364662c62b", "type": "electric_scooter", "is_disabled": 0, "lat": 38.9423085, "rental_uris": {"ios": "https://dc.lft.to/lastmile_qr_scan", "android": "https://dc.lft.to/lastmile_qr_scan"}, "is_reserved": 0, "fusion_lon": 0.0, "fusion_lat": 0.0, "lon": -77.01437116666666, "name": "b3b35aefad1da4cad938e1364662c62b"}, {"bike_id": "a85b4b0c48275b8e2d3d6482c4a9696b", "type": "electric_scooter", "is_disabled": 0, "lat": 38.86685033333333, "rental_uris": {"ios": "https://dc.lft.to/lastmile_qr_scan", "android": "https://dc.lft.to/lastmile_qr_scan"}, "is_reserved": 0, "fusion_lon": 0.0, "fusion_lat": 0.0, "lon": -76.985772, "name": "a85b4b0c48275b8e2d3d6482c4a9696b"}, {"bike_id": "30a85be3b1b66c5de4b40c235c12f06f", "type": "electric_scooter", "is_disabled": 0, "lat": 38.907493333333335, "rental_uris": {"ios": "https://dc.lft.to/lastmile_qr_scan", "android": "https://dc.lft.to/lastmile_qr_scan"}, "is_reserved": 0, "fusion_lon": 0.0, "fusion_lat": 0.0, "lon": -77.00378566666667, "name": "30a85be3b1b66c5de4b40c235c12f06f"}, {"bike_id": "00d79f88703f62b6056808213670107a", "type": "electric_scooter", "is_disabled": 0, "lat": 38.921948666666665, "rental_uris": {"ios": "https://dc.lft.to/lastmile_qr_scan", "android": "https://dc.lft.to/lastmile_qr_scan"}, "is_reserved": 0, "fusion_lon": 0.0, "fusion_lat": 0.0, "lon": -77.03779, "name": "00d79f88703f62b6056808213670107a"}, {"bike_id": "0c0e5c9f5294b593ce3b9f4000f0d96f", "type": "electric_scooter", "is_disabled": 0, "lat": 38.90207133333333, "rental_uris": {"ios": "https://dc.lft.to/lastmile_qr_scan", "android": "https://dc.lft.to/lastmile_qr_scan"}, "is_reserved": 0, "fusion_lon": 0.0, "fusion_lat": 0.0, "lon": -77.0239835, "name": "0c0e5c9f5294b593ce3b9f4000f0d96f"}, {"bike_id": "017e2e694e64a572b348e2a49719b4e7", "type": "electric_scooter", "is_disabled": 0, "lat": 38.86683516666667, "rental_uris": {"ios": "https://dc.lft.to/lastmile_qr_scan", "android": "https://dc.lft.to/lastmile_qr_scan"}, "is_reserved": 0, "fusion_lon": 0.0, "fusion_lat": 0.0, "lon": -76.98588883333333, "name": "017e2e694e64a572b348e2a49719b4e7"}, {"bike_id": "7120d7713a7917c999a7b262ec4d3cd3", "type": "electric_scooter", "is_disabled": 0, "lat": 38.9050835, "rental_uris": {"ios": "https://dc.lft.to/lastmile_qr_scan", "android": "https://dc.lft.to/lastmile_qr_scan"}, "is_reserved": 0, "fusion_lon": 0.0, "fusion_lat": 0.0, "lon": -77.01983633333333, "name": "7120d7713a7917c999a7b262ec4d3cd3"}, {"bike_id": "e141d530688f43b68fc13d4c67acc4e7", "type": "electric_scooter", "is_disabled": 0, "lat": 38.91192516666667, "rental_uris": {"ios": "https://dc.lft.to/lastmile_qr_scan", "android": "https://dc.lft.to/lastmile_qr_scan"}, "is_reserved": 0, "fusion_lon": 0.0, "fusion_lat": 0.0, "lon": -77.045428, "name": "e141d530688f43b68fc13d4c67acc4e7"}, {"bike_id": "9d6ee3e36433d714583c300287fb6838", "type": "electric_scooter", "is_disabled": 0, "lat": 38.9177235, "rental_uris": {"ios": "https://dc.lft.to/lastmile_qr_scan", "android": "https://dc.lft.to/lastmile_qr_scan"}, "is_reserved": 0, "fusion_lon": 0.0, "fusion_lat": 0.0, "lon": -77.04771, "name": "9d6ee3e36433d714583c300287fb6838"}, {"bike_id": "2c98ba4339559cf98ab10c63d7e4eca1", "type": "electric_scooter", "is_disabled": 0, "lat": 38.924563666666664, "rental_uris": {"ios": "https://dc.lft.to/lastmile_qr_scan", "android": "https://dc.lft.to/lastmile_qr_scan"}, "is_reserved": 0, "fusion_lon": 0.0, "fusion_lat": 0.0, "lon": -77.03255583333333, "name": "2c98ba4339559cf98ab10c63d7e4eca1"}, {"bike_id": "23f02a4ac59f6e394804e538be4c0de8", "type": "electric_scooter", "is_disabled": 0, "lat": 38.92346766666667, "rental_uris": {"ios": "https://dc.lft.to/lastmile_qr_scan", "android": "https://dc.lft.to/lastmile_qr_scan"}, "is_reserved": 0, "fusion_lon": 0.0, "fusion_lat": 0.0, "lon": -77.03905983333334, "name": "23f02a4ac59f6e394804e538be4c0de8"}, {"bike_id": "e284951b2dc0f0c6ece57eb782c2caca", "type": "electric_bike", "is_disabled": 0, "lat": 38.943661, "rental_uris": {"ios": "https://dc.lft.to/lastmile_qr_scan", "android": "https://dc.lft.to/lastmile_qr_scan"}, "is_reserved": 0, "fusion_lon": 0.0, "fusion_lat": 0.0, "lon": -76.96781083333333, "name": "e284951b2dc0f0c6ece57eb782c2caca"}, {"bike_id": "9db780f5ca4fafee4b05ecdfa5edd79a", "type": "electric_scooter", "is_disabled": 0, "lat": 38.86211616666667, "rental_uris": {"ios": "https://dc.lft.to/lastmile_qr_scan", "android": "https://dc.lft.to/lastmile_qr_scan"}, "is_reserved": 0, "fusion_lon": 0.0, "fusion_lat": 0.0, "lon": -76.994696, "name": "9db780f5ca4fafee4b05ecdfa5edd79a"}, {"bike_id": "96f6b3077fea8169682b8a91bc06b98f", "type": "electric_scooter", "is_disabled": 0, "lat": 38.89542216666667, "rental_uris": {"ios": "https://dc.lft.to/lastmile_qr_scan", "android": "https://dc.lft.to/lastmile_qr_scan"}, "is_reserved": 0, "fusion_lon": 0.0, "fusion_lat": 0.0, "lon": -76.949302, "name": "96f6b3077fea8169682b8a91bc06b98f"}, {"bike_id": "481a95c0f9b7d5b3e05767cf0e4f826b", "type": "electric_scooter", "is_disabled": 0, "lat": 38.938363833333334, "rental_uris": {"ios": "https://dc.lft.to/lastmile_qr_scan", "android": "https://dc.lft.to/lastmile_qr_scan"}, "is_reserved": 0, "fusion_lon": 0.0, "fusion_lat": 0.0, "lon": -77.03365516666666, "name": "481a95c0f9b7d5b3e05767cf0e4f826b"}, {"bike_id": "06c71cd4f9c2f4e16045a7ebddb09f28", "type": "electric_scooter", "is_disabled": 0, "lat": 38.91675266666667, "rental_uris": {"ios": "https://dc.lft.to/lastmile_qr_scan", "android": "https://dc.lft.to/lastmile_qr_scan"}, "is_reserved": 0, "fusion_lon": 0.0, "fusion_lat": 0.0, "lon": -77.02389083333334, "name": "06c71cd4f9c2f4e16045a7ebddb09f28"}, {"bike_id": "e7d59c075795dc5ea04dc8f4bb5e0c12", "type": "electric_scooter", "is_disabled": 0, "lat": 38.9451505, "rental_uris": {"ios": "https://dc.lft.to/lastmile_qr_scan", "android": "https://dc.lft.to/lastmile_qr_scan"}, "is_reserved": 0, "fusion_lon": 0.0, "fusion_lat": 0.0, "lon": -77.02171133333333, "name": "e7d59c075795dc5ea04dc8f4bb5e0c12"}, {"bike_id": "25a4a0d17962fce1dd5b688ed8d33628", "type": "electric_scooter", "is_disabled": 0, "lat": 38.9047055, "rental_uris": {"ios": "https://dc.lft.to/lastmile_qr_scan", "android": "https://dc.lft.to/lastmile_qr_scan"}, "is_reserved": 0, "fusion_lon": 0.0, "fusion_lat": 0.0, "lon": -77.02949816666667, "name": "25a4a0d17962fce1dd5b688ed8d33628"}, {"bike_id": "cc8761b4087f928e124230a0b0b2ce1b", "type": "electric_scooter", "is_disabled": 0, "lat": 38.906424333333334, "rental_uris": {"ios": "https://dc.lft.to/lastmile_qr_scan", "android": "https://dc.lft.to/lastmile_qr_scan"}, "is_reserved": 0, "fusion_lon": 0.0, "fusion_lat": 0.0, "lon": -77.05149566666667, "name": "cc8761b4087f928e124230a0b0b2ce1b"}, {"bike_id": "9347aea973074d23bc17b5e76267d4ac", "type": "electric_scooter", "is_disabled": 0, "lat": 38.8756525, "rental_uris": {"ios": "https://dc.lft.to/lastmile_qr_scan", "android": "https://dc.lft.to/lastmile_qr_scan"}, "is_reserved": 0, "fusion_lon": 0.0, "fusion_lat": 0.0, "lon": -76.95863583333333, "name": "9347aea973074d23bc17b5e76267d4ac"}, {"bike_id": "a9dd3f420a4c0e3cbf7c913733b903a9", "type": "electric_scooter", "is_disabled": 0, "lat": 38.915668333333336, "rental_uris": {"ios": "https://dc.lft.to/lastmile_qr_scan", "android": "https://dc.lft.to/lastmile_qr_scan"}, "is_reserved": 0, "fusion_lon": 0.0, "fusion_lat": 0.0, "lon": -77.03728116666667, "name": "a9dd3f420a4c0e3cbf7c913733b903a9"}, {"bike_id": "6dca5cb6c36c753d93699c79f64f0bb0", "type": "electric_scooter", "is_disabled": 0, "lat": 38.92251, "rental_uris": {"ios": "https://dc.lft.to/lastmile_qr_scan", "android": "https://dc.lft.to/lastmile_qr_scan"}, "is_reserved": 0, "fusion_lon": 0.0, "fusion_lat": 0.0, "lon": -77.030223, "name": "6dca5cb6c36c753d93699c79f64f0bb0"}, {"bike_id": "ea0fd1e3e4f1576d7646f4382ad084fa", "type": "electric_scooter", "is_disabled": 0, "lat": 38.934885, "rental_uris": {"ios": "https://dc.lft.to/lastmile_qr_scan", "android": "https://dc.lft.to/lastmile_qr_scan"}, "is_reserved": 0, "fusion_lon": 0.0, "fusion_lat": 0.0, "lon": -77.03426516666667, "name": "ea0fd1e3e4f1576d7646f4382ad084fa"}, {"bike_id": "49fd80cea3eca90071e1705e288dccd4", "type": "electric_scooter", "is_disabled": 0, "lat": 38.939255333333335, "rental_uris": {"ios": "https://dc.lft.to/lastmile_qr_scan", "android": "https://dc.lft.to/lastmile_qr_scan"}, "is_reserved": 0, "fusion_lon": 0.0, "fusion_lat": 0.0, "lon": -77.06049633333333, "name": "49fd80cea3eca90071e1705e288dccd4"}, {"bike_id": "2cb083762d4023563427fc67d0132c86", "type": "electric_bike", "is_disabled": 0, "lat": 39.036955666666664, "rental_uris": {"ios": "https://dc.lft.to/lastmile_qr_scan", "android": "https://dc.lft.to/lastmile_qr_scan"}, "is_reserved": 0, "fusion_lon": 0.0, "fusion_lat": 0.0, "lon": -77.0286145, "name": "2cb083762d4023563427fc67d0132c86"}, {"bike_id": "c857b395bbae077adbbf82cc4f99395e", "type": "electric_scooter", "is_disabled": 0, "lat": 38.896823499999996, "rental_uris": {"ios": "https://dc.lft.to/lastmile_qr_scan", "android": "https://dc.lft.to/lastmile_qr_scan"}, "is_reserved": 0, "fusion_lon": 0.0, "fusion_lat": 0.0, "lon": -77.02403116666666, "name": "c857b395bbae077adbbf82cc4f99395e"}, {"bike_id": "bd431001cd59789a8ef8e23fd9a4634e", "type": "electric_scooter", "is_disabled": 0, "lat": 38.885835666666665, "rental_uris": {"ios": "https://dc.lft.to/lastmile_qr_scan", "android": "https://dc.lft.to/lastmile_qr_scan"}, "is_reserved": 0, "fusion_lon": 0.0, "fusion_lat": 0.0, "lon": -77.02837833333334, "name": "bd431001cd59789a8ef8e23fd9a4634e"}, {"bike_id": "e1d4bd1ccef1f7d43da2cd494d7d7aeb", "type": "electric_scooter", "is_disabled": 0, "lat": 38.838308, "rental_uris": {"ios": "https://dc.lft.to/lastmile_qr_scan", "android": "https://dc.lft.to/lastmile_qr_scan"}, "is_reserved": 0, "fusion_lon": 0.0, "fusion_lat": 0.0, "lon": -77.00264133333333, "name": "e1d4bd1ccef1f7d43da2cd494d7d7aeb"}, {"bike_id": "8a6c74554d1b818039e37ebcc83edb39", "type": "electric_scooter", "is_disabled": 0, "lat": 38.914949, "rental_uris": {"ios": "https://dc.lft.to/lastmile_qr_scan", "android": "https://dc.lft.to/lastmile_qr_scan"}, "is_reserved": 0, "fusion_lon": 0.0, "fusion_lat": 0.0, "lon": -76.9857505, "name": "8a6c74554d1b818039e37ebcc83edb39"}, {"bike_id": "d42656b6c47525d2df491004ce9b0ac2", "type": "electric_scooter", "is_disabled": 0, "lat": 38.9071845, "rental_uris": {"ios": "https://dc.lft.to/lastmile_qr_scan", "android": "https://dc.lft.to/lastmile_qr_scan"}, "is_reserved": 0, "fusion_lon": 0.0, "fusion_lat": 0.0, "lon": -77.0343655, "name": "d42656b6c47525d2df491004ce9b0ac2"}, {"bike_id": "0c8a620524bef13865a3ff43f8f09926", "type": "electric_scooter", "is_disabled": 0, "lat": 38.921545, "rental_uris": {"ios": "https://dc.lft.to/lastmile_qr_scan", "android": "https://dc.lft.to/lastmile_qr_scan"}, "is_reserved": 0, "fusion_lon": 0.0, "fusion_lat": 0.0, "lon": -77.0331765, "name": "0c8a620524bef13865a3ff43f8f09926"}, {"bike_id": "e08baea792c714cc6e1c338eafadf3e7", "type": "electric_scooter", "is_disabled": 0, "lat": 38.922519333333334, "rental_uris": {"ios": "https://dc.lft.to/lastmile_qr_scan", "android": "https://dc.lft.to/lastmile_qr_scan"}, "is_reserved": 0, "fusion_lon": 0.0, "fusion_lat": 0.0, "lon": -77.028336, "name": "e08baea792c714cc6e1c338eafadf3e7"}, {"bike_id": "d631ca820fc3ded89b56041e600f0e2d", "type": "electric_scooter", "is_disabled": 0, "lat": 38.90005383333333, "rental_uris": {"ios": "https://dc.lft.to/lastmile_qr_scan", "android": "https://dc.lft.to/lastmile_qr_scan"}, "is_reserved": 0, "fusion_lon": 0.0, "fusion_lat": 0.0, "lon": -77.01028816666667, "name": "d631ca820fc3ded89b56041e600f0e2d"}, {"bike_id": "921a44b4e5056cb9db2c43009a837066", "type": "electric_scooter", "is_disabled": 0, "lat": 38.902548833333334, "rental_uris": {"ios": "https://dc.lft.to/lastmile_qr_scan", "android": "https://dc.lft.to/lastmile_qr_scan"}, "is_reserved": 0, "fusion_lon": 0.0, "fusion_lat": 0.0, "lon": -76.98668166666667, "name": "921a44b4e5056cb9db2c43009a837066"}, {"bike_id": "6b75afd7e37ccefeea12ab41355229b2", "type": "electric_bike", "is_disabled": 0, "lat": 38.954049833333336, "rental_uris": {"ios": "https://dc.lft.to/lastmile_qr_scan", "android": "https://dc.lft.to/lastmile_qr_scan"}, "is_reserved": 0, "fusion_lon": 0.0, "fusion_lat": 0.0, "lon": -76.98051033333333, "name": "6b75afd7e37ccefeea12ab41355229b2"}, {"bike_id": "7c5dfb8f5c23012fbc98fec3fd3704b8", "type": "electric_scooter", "is_disabled": 0, "lat": 38.914598166666664, "rental_uris": {"ios": "https://dc.lft.to/lastmile_qr_scan", "android": "https://dc.lft.to/lastmile_qr_scan"}, "is_reserved": 0, "fusion_lon": 0.0, "fusion_lat": 0.0, "lon": -77.0710555, "name": "7c5dfb8f5c23012fbc98fec3fd3704b8"}, {"bike_id": "d6a5f04b282fe8286a1df740675edcb1", "type": "electric_scooter", "is_disabled": 0, "lat": 38.92541766666667, "rental_uris": {"ios": "https://dc.lft.to/lastmile_qr_scan", "android": "https://dc.lft.to/lastmile_qr_scan"}, "is_reserved": 0, "fusion_lon": 0.0, "fusion_lat": 0.0, "lon": -77.04123616666666, "name": "d6a5f04b282fe8286a1df740675edcb1"}, {"bike_id": "01a2d5a739c7b7a73c23df2bef5f5717", "type": "electric_scooter", "is_disabled": 0, "lat": 38.93906, "rental_uris": {"ios": "https://dc.lft.to/lastmile_qr_scan", "android": "https://dc.lft.to/lastmile_qr_scan"}, "is_reserved": 0, "fusion_lon": 0.0, "fusion_lat": 0.0, "lon": -77.016691, "name": "01a2d5a739c7b7a73c23df2bef5f5717"}, {"bike_id": "d5f16bf22e87d3905ccddd936424cf77", "type": "electric_scooter", "is_disabled": 0, "lat": 38.90490883333333, "rental_uris": {"ios": "https://dc.lft.to/lastmile_qr_scan", "android": "https://dc.lft.to/lastmile_qr_scan"}, "is_reserved": 0, "fusion_lon": 0.0, "fusion_lat": 0.0, "lon": -77.05371383333333, "name": "d5f16bf22e87d3905ccddd936424cf77"}, {"bike_id": "245d977acbc819fc9d63b1897097c38d", "type": "electric_bike", "is_disabled": 0, "lat": 38.83551033333333, "rental_uris": {"ios": "https://dc.lft.to/lastmile_qr_scan", "android": "https://dc.lft.to/lastmile_qr_scan"}, "is_reserved": 0, "fusion_lon": 0.0, "fusion_lat": 0.0, "lon": -77.00115466666666, "name": "245d977acbc819fc9d63b1897097c38d"}, {"bike_id": "b4c62313f0d674b32cb88ac62dc161b5", "type": "electric_scooter", "is_disabled": 0, "lat": 38.896063166666664, "rental_uris": {"ios": "https://dc.lft.to/lastmile_qr_scan", "android": "https://dc.lft.to/lastmile_qr_scan"}, "is_reserved": 0, "fusion_lon": 0.0, "fusion_lat": 0.0, "lon": -77.00333216666667, "name": "b4c62313f0d674b32cb88ac62dc161b5"}, {"bike_id": "b9c190b1e582e6eca95f0b78e30a6743", "type": "electric_scooter", "is_disabled": 0, "lat": 38.922, "rental_uris": {"ios": "https://dc.lft.to/lastmile_qr_scan", "android": "https://dc.lft.to/lastmile_qr_scan"}, "is_reserved": 0, "fusion_lon": 0.0, "fusion_lat": 0.0, "lon": -77.020259, "name": "b9c190b1e582e6eca95f0b78e30a6743"}, {"bike_id": "1c4208b5f9d8a980fef05037d080ff16", "type": "electric_scooter", "is_disabled": 0, "lat": 38.898928166666664, "rental_uris": {"ios": "https://dc.lft.to/lastmile_qr_scan", "android": "https://dc.lft.to/lastmile_qr_scan"}, "is_reserved": 0, "fusion_lon": 0.0, "fusion_lat": 0.0, "lon": -76.97694033333333, "name": "1c4208b5f9d8a980fef05037d080ff16"}, {"bike_id": "c476d102feabd247baca07a29d775fbc", "type": "electric_scooter", "is_disabled": 0, "lat": 38.91873566666666, "rental_uris": {"ios": "https://dc.lft.to/lastmile_qr_scan", "android": "https://dc.lft.to/lastmile_qr_scan"}, "is_reserved": 0, "fusion_lon": 0.0, "fusion_lat": 0.0, "lon": -77.0121125, "name": "c476d102feabd247baca07a29d775fbc"}, {"bike_id": "20aa297d1f882d30e6464f495c119251", "type": "electric_scooter", "is_disabled": 0, "lat": 38.9188205, "rental_uris": {"ios": "https://dc.lft.to/lastmile_qr_scan", "android": "https://dc.lft.to/lastmile_qr_scan"}, "is_reserved": 0, "fusion_lon": 0.0, "fusion_lat": 0.0, "lon": -77.035024, "name": "20aa297d1f882d30e6464f495c119251"}, {"bike_id": "851cd1d956b8c9f3bcb84640009e1d0e", "type": "electric_scooter", "is_disabled": 0, "lat": 38.906377666666664, "rental_uris": {"ios": "https://dc.lft.to/lastmile_qr_scan", "android": "https://dc.lft.to/lastmile_qr_scan"}, "is_reserved": 0, "fusion_lon": 0.0, "fusion_lat": 0.0, "lon": -77.02502866666667, "name": "851cd1d956b8c9f3bcb84640009e1d0e"}, {"bike_id": "4e89e17b870abdc18cbc2c8cab108250", "type": "electric_scooter", "is_disabled": 0, "lat": 38.907662333333334, "rental_uris": {"ios": "https://dc.lft.to/lastmile_qr_scan", "android": "https://dc.lft.to/lastmile_qr_scan"}, "is_reserved": 0, "fusion_lon": 0.0, "fusion_lat": 0.0, "lon": -77.038571, "name": "4e89e17b870abdc18cbc2c8cab108250"}, {"bike_id": "c822835b58408178061ac99070369981", "type": "electric_scooter", "is_disabled": 0, "lat": 38.89514783333333, "rental_uris": {"ios": "https://dc.lft.to/lastmile_qr_scan", "android": "https://dc.lft.to/lastmile_qr_scan"}, "is_reserved": 0, "fusion_lon": 0.0, "fusion_lat": 0.0, "lon": -77.0433805, "name": "c822835b58408178061ac99070369981"}, {"bike_id": "7445833c990b8a6aa0964d06de069f4f", "type": "electric_bike", "is_disabled": 0, "lat": 38.96211, "rental_uris": {"ios": "https://dc.lft.to/lastmile_qr_scan", "android": "https://dc.lft.to/lastmile_qr_scan"}, "is_reserved": 0, "fusion_lon": 0.0, "fusion_lat": 0.0, "lon": -77.02241883333333, "name": "7445833c990b8a6aa0964d06de069f4f"}, {"bike_id": "da5a5549a2e6aff8355b920baf7bda53", "type": "electric_scooter", "is_disabled": 0, "lat": 38.903506, "rental_uris": {"ios": "https://dc.lft.to/lastmile_qr_scan", "android": "https://dc.lft.to/lastmile_qr_scan"}, "is_reserved": 0, "fusion_lon": 0.0, "fusion_lat": 0.0, "lon": -76.99223133333334, "name": "da5a5549a2e6aff8355b920baf7bda53"}, {"bike_id": "2dd8b806c11a0617d71ffb8413a6cffa", "type": "electric_scooter", "is_disabled": 0, "lat": 38.911125166666665, "rental_uris": {"ios": "https://dc.lft.to/lastmile_qr_scan", "android": "https://dc.lft.to/lastmile_qr_scan"}, "is_reserved": 0, "fusion_lon": 0.0, "fusion_lat": 0.0, "lon": -77.02766383333334, "name": "2dd8b806c11a0617d71ffb8413a6cffa"}, {"bike_id": "4e1fd1a905002c0d1a0a170bbf8daaa8", "type": "electric_scooter", "is_disabled": 0, "lat": 38.93320216666667, "rental_uris": {"ios": "https://dc.lft.to/lastmile_qr_scan", "android": "https://dc.lft.to/lastmile_qr_scan"}, "is_reserved": 0, "fusion_lon": 0.0, "fusion_lat": 0.0, "lon": -77.02748133333333, "name": "4e1fd1a905002c0d1a0a170bbf8daaa8"}, {"bike_id": "c09137fb92e46cf1414e81ca5bd95729", "type": "electric_scooter", "is_disabled": 0, "lat": 38.9223165, "rental_uris": {"ios": "https://dc.lft.to/lastmile_qr_scan", "android": "https://dc.lft.to/lastmile_qr_scan"}, "is_reserved": 0, "fusion_lon": 0.0, "fusion_lat": 0.0, "lon": -76.975319, "name": "c09137fb92e46cf1414e81ca5bd95729"}, {"bike_id": "24e0b2a35f76bb2a830ba4d93275ef68", "type": "electric_bike", "is_disabled": 0, "lat": 39.05102566666667, "rental_uris": {"ios": "https://dc.lft.to/lastmile_qr_scan", "android": "https://dc.lft.to/lastmile_qr_scan"}, "is_reserved": 0, "fusion_lon": 0.0, "fusion_lat": 0.0, "lon": -77.117576, "name": "24e0b2a35f76bb2a830ba4d93275ef68"}, {"bike_id": "75f42c37dae0f90cc7f16ae9939b8906", "type": "electric_scooter", "is_disabled": 0, "lat": 38.866878, "rental_uris": {"ios": "https://dc.lft.to/lastmile_qr_scan", "android": "https://dc.lft.to/lastmile_qr_scan"}, "is_reserved": 0, "fusion_lon": 0.0, "fusion_lat": 0.0, "lon": -76.985837, "name": "75f42c37dae0f90cc7f16ae9939b8906"}, {"bike_id": "cc5aa167b6a7f04a785dbb88675ac24c", "type": "electric_bike", "is_disabled": 0, "lat": 38.93773016666667, "rental_uris": {"ios": "https://dc.lft.to/lastmile_qr_scan", "android": "https://dc.lft.to/lastmile_qr_scan"}, "is_reserved": 0, "fusion_lon": 0.0, "fusion_lat": 0.0, "lon": -77.01880933333334, "name": "cc5aa167b6a7f04a785dbb88675ac24c"}, {"bike_id": "5d9c90996d34e1b1e48e0f8ada8aab5a", "type": "electric_scooter", "is_disabled": 0, "lat": 38.897370333333335, "rental_uris": {"ios": "https://dc.lft.to/lastmile_qr_scan", "android": "https://dc.lft.to/lastmile_qr_scan"}, "is_reserved": 0, "fusion_lon": 0.0, "fusion_lat": 0.0, "lon": -77.04602383333334, "name": "5d9c90996d34e1b1e48e0f8ada8aab5a"}, {"bike_id": "3c742b9e92fde1d84e7cfe8f079664e7", "type": "electric_scooter", "is_disabled": 0, "lat": 38.93459133333333, "rental_uris": {"ios": "https://dc.lft.to/lastmile_qr_scan", "android": "https://dc.lft.to/lastmile_qr_scan"}, "is_reserved": 0, "fusion_lon": 0.0, "fusion_lat": 0.0, "lon": -77.02765833333333, "name": "3c742b9e92fde1d84e7cfe8f079664e7"}, {"bike_id": "b7b783d437af95948ff75fffe75a0462", "type": "electric_bike", "is_disabled": 0, "lat": 38.98363766666667, "rental_uris": {"ios": "https://dc.lft.to/lastmile_qr_scan", "android": "https://dc.lft.to/lastmile_qr_scan"}, "is_reserved": 0, "fusion_lon": 0.0, "fusion_lat": 0.0, "lon": -76.97210333333334, "name": "b7b783d437af95948ff75fffe75a0462"}, {"bike_id": "c21577c4b40169d73f9b8e92828e1bb1", "type": "electric_scooter", "is_disabled": 0, "lat": 38.962066166666666, "rental_uris": {"ios": "https://dc.lft.to/lastmile_qr_scan", "android": "https://dc.lft.to/lastmile_qr_scan"}, "is_reserved": 0, "fusion_lon": 0.0, "fusion_lat": 0.0, "lon": -77.02235666666667, "name": "c21577c4b40169d73f9b8e92828e1bb1"}, {"bike_id": "69e422c9e03edd4bdf2bc7f512e7e0ab", "type": "electric_scooter", "is_disabled": 0, "lat": 38.866506666666666, "rental_uris": {"ios": "https://dc.lft.to/lastmile_qr_scan", "android": "https://dc.lft.to/lastmile_qr_scan"}, "is_reserved": 0, "fusion_lon": 0.0, "fusion_lat": 0.0, "lon": -76.98818766666666, "name": "69e422c9e03edd4bdf2bc7f512e7e0ab"}, {"bike_id": "9b798e23681279e0db3188f1e916347f", "type": "electric_scooter", "is_disabled": 0, "lat": 38.927520333333334, "rental_uris": {"ios": "https://dc.lft.to/lastmile_qr_scan", "android": "https://dc.lft.to/lastmile_qr_scan"}, "is_reserved": 0, "fusion_lon": 0.0, "fusion_lat": 0.0, "lon": -77.02534366666667, "name": "9b798e23681279e0db3188f1e916347f"}, {"bike_id": "f9cbf628a5ddf77467239910d5c30d53", "type": "electric_scooter", "is_disabled": 0, "lat": 38.904119333333334, "rental_uris": {"ios": "https://dc.lft.to/lastmile_qr_scan", "android": "https://dc.lft.to/lastmile_qr_scan"}, "is_reserved": 0, "fusion_lon": 0.0, "fusion_lat": 0.0, "lon": -76.973243, "name": "f9cbf628a5ddf77467239910d5c30d53"}, {"bike_id": "f3d68c336c1d934415bde2fec20fdc56", "type": "electric_scooter", "is_disabled": 0, "lat": 38.86687516666667, "rental_uris": {"ios": "https://dc.lft.to/lastmile_qr_scan", "android": "https://dc.lft.to/lastmile_qr_scan"}, "is_reserved": 0, "fusion_lon": 0.0, "fusion_lat": 0.0, "lon": -76.9858525, "name": "f3d68c336c1d934415bde2fec20fdc56"}, {"bike_id": "63cbea9da7aed5f71e804f01694e073b", "type": "electric_scooter", "is_disabled": 0, "lat": 38.89624283333333, "rental_uris": {"ios": "https://dc.lft.to/lastmile_qr_scan", "android": "https://dc.lft.to/lastmile_qr_scan"}, "is_reserved": 0, "fusion_lon": 0.0, "fusion_lat": 0.0, "lon": -77.01072183333333, "name": "63cbea9da7aed5f71e804f01694e073b"}, {"bike_id": "bd2d43077c31ab67b98123e96db1c63d", "type": "electric_scooter", "is_disabled": 0, "lat": 38.89838533333333, "rental_uris": {"ios": "https://dc.lft.to/lastmile_qr_scan", "android": "https://dc.lft.to/lastmile_qr_scan"}, "is_reserved": 0, "fusion_lon": 0.0, "fusion_lat": 0.0, "lon": -76.91949383333333, "name": "bd2d43077c31ab67b98123e96db1c63d"}, {"bike_id": "14ea0d771ec7d520899c58db8d9f7c16", "type": "electric_scooter", "is_disabled": 0, "lat": 38.923245, "rental_uris": {"ios": "https://dc.lft.to/lastmile_qr_scan", "android": "https://dc.lft.to/lastmile_qr_scan"}, "is_reserved": 0, "fusion_lon": 0.0, "fusion_lat": 0.0, "lon": -77.02135966666667, "name": "14ea0d771ec7d520899c58db8d9f7c16"}, {"bike_id": "453f8bb95bdd7b1c3b6d7cabc3feaf89", "type": "electric_scooter", "is_disabled": 0, "lat": 38.9239115, "rental_uris": {"ios": "https://dc.lft.to/lastmile_qr_scan", "android": "https://dc.lft.to/lastmile_qr_scan"}, "is_reserved": 0, "fusion_lon": 0.0, "fusion_lat": 0.0, "lon": -77.044656, "name": "453f8bb95bdd7b1c3b6d7cabc3feaf89"}, {"bike_id": "0a3051592022579b169b24c4f44f6cea", "type": "electric_scooter", "is_disabled": 0, "lat": 38.917085, "rental_uris": {"ios": "https://dc.lft.to/lastmile_qr_scan", "android": "https://dc.lft.to/lastmile_qr_scan"}, "is_reserved": 0, "fusion_lon": 0.0, "fusion_lat": 0.0, "lon": -77.09578833333333, "name": "0a3051592022579b169b24c4f44f6cea"}, {"bike_id": "29310049e36a3053f635edf475de95ec", "type": "electric_scooter", "is_disabled": 0, "lat": 38.92011766666667, "rental_uris": {"ios": "https://dc.lft.to/lastmile_qr_scan", "android": "https://dc.lft.to/lastmile_qr_scan"}, "is_reserved": 0, "fusion_lon": 0.0, "fusion_lat": 0.0, "lon": -76.98494933333333, "name": "29310049e36a3053f635edf475de95ec"}, {"bike_id": "21392639ed4c9cc6f845d7d5317adbe0", "type": "electric_scooter", "is_disabled": 0, "lat": 38.88392666666667, "rental_uris": {"ios": "https://dc.lft.to/lastmile_qr_scan", "android": "https://dc.lft.to/lastmile_qr_scan"}, "is_reserved": 0, "fusion_lon": 0.0, "fusion_lat": 0.0, "lon": -77.01779666666667, "name": "21392639ed4c9cc6f845d7d5317adbe0"}, {"bike_id": "b8127fd7a85fb4a8a05377873a1764d4", "type": "electric_bike", "is_disabled": 0, "lat": 38.912505833333334, "rental_uris": {"ios": "https://dc.lft.to/lastmile_qr_scan", "android": "https://dc.lft.to/lastmile_qr_scan"}, "is_reserved": 0, "fusion_lon": 0.0, "fusion_lat": 0.0, "lon": -77.08736516666667, "name": "b8127fd7a85fb4a8a05377873a1764d4"}, {"bike_id": "ca49799522c3781a8a02c802339fa3a8", "type": "electric_scooter", "is_disabled": 0, "lat": 38.92811616666667, "rental_uris": {"ios": "https://dc.lft.to/lastmile_qr_scan", "android": "https://dc.lft.to/lastmile_qr_scan"}, "is_reserved": 0, "fusion_lon": 0.0, "fusion_lat": 0.0, "lon": -77.03597416666666, "name": "ca49799522c3781a8a02c802339fa3a8"}, {"bike_id": "74084c8284b0d6fd9fde073698ecc26f", "type": "electric_scooter", "is_disabled": 0, "lat": 38.926051333333334, "rental_uris": {"ios": "https://dc.lft.to/lastmile_qr_scan", "android": "https://dc.lft.to/lastmile_qr_scan"}, "is_reserved": 0, "fusion_lon": 0.0, "fusion_lat": 0.0, "lon": -77.0375945, "name": "74084c8284b0d6fd9fde073698ecc26f"}, {"bike_id": "40de8e559d4de184865d2a196c501426", "type": "electric_scooter", "is_disabled": 0, "lat": 38.9573325, "rental_uris": {"ios": "https://dc.lft.to/lastmile_qr_scan", "android": "https://dc.lft.to/lastmile_qr_scan"}, "is_reserved": 0, "fusion_lon": 0.0, "fusion_lat": 0.0, "lon": -77.02399933333334, "name": "40de8e559d4de184865d2a196c501426"}, {"bike_id": "e724637352f886aaed82045fe8493f8d", "type": "electric_bike", "is_disabled": 0, "lat": 38.93776116666667, "rental_uris": {"ios": "https://dc.lft.to/lastmile_qr_scan", "android": "https://dc.lft.to/lastmile_qr_scan"}, "is_reserved": 0, "fusion_lon": 0.0, "fusion_lat": 0.0, "lon": -77.01909716666667, "name": "e724637352f886aaed82045fe8493f8d"}, {"bike_id": "0ec0a1bedd890ae49c38e228bfbd58e8", "type": "electric_scooter", "is_disabled": 0, "lat": 38.9228235, "rental_uris": {"ios": "https://dc.lft.to/lastmile_qr_scan", "android": "https://dc.lft.to/lastmile_qr_scan"}, "is_reserved": 0, "fusion_lon": 0.0, "fusion_lat": 0.0, "lon": -76.99463966666667, "name": "0ec0a1bedd890ae49c38e228bfbd58e8"}, {"bike_id": "957e15aa876c6e97e564a80741bf0a25", "type": "electric_scooter", "is_disabled": 0, "lat": 38.927728, "rental_uris": {"ios": "https://dc.lft.to/lastmile_qr_scan", "android": "https://dc.lft.to/lastmile_qr_scan"}, "is_reserved": 0, "fusion_lon": 0.0, "fusion_lat": 0.0, "lon": -76.98754583333333, "name": "957e15aa876c6e97e564a80741bf0a25"}, {"bike_id": "04382cdfdf2473eb41f3bd7cbcb147f8", "type": "electric_scooter", "is_disabled": 0, "lat": 38.90601183333333, "rental_uris": {"ios": "https://dc.lft.to/lastmile_qr_scan", "android": "https://dc.lft.to/lastmile_qr_scan"}, "is_reserved": 0, "fusion_lon": 0.0, "fusion_lat": 0.0, "lon": -77.0735095, "name": "04382cdfdf2473eb41f3bd7cbcb147f8"}, {"bike_id": "60ec7f8677d11d8c1362dee17ac96005", "type": "electric_scooter", "is_disabled": 0, "lat": 38.92477483333333, "rental_uris": {"ios": "https://dc.lft.to/lastmile_qr_scan", "android": "https://dc.lft.to/lastmile_qr_scan"}, "is_reserved": 0, "fusion_lon": 0.0, "fusion_lat": 0.0, "lon": -77.0283975, "name": "60ec7f8677d11d8c1362dee17ac96005"}, {"bike_id": "3cbc540860755c3423cca8a35fa4c931", "type": "electric_scooter", "is_disabled": 0, "lat": 38.90494116666667, "rental_uris": {"ios": "https://dc.lft.to/lastmile_qr_scan", "android": "https://dc.lft.to/lastmile_qr_scan"}, "is_reserved": 0, "fusion_lon": 0.0, "fusion_lat": 0.0, "lon": -76.94960733333333, "name": "3cbc540860755c3423cca8a35fa4c931"}, {"bike_id": "d689dc2cd39247dc5e9d9e1ac169df38", "type": "electric_scooter", "is_disabled": 0, "lat": 38.922141333333336, "rental_uris": {"ios": "https://dc.lft.to/lastmile_qr_scan", "android": "https://dc.lft.to/lastmile_qr_scan"}, "is_reserved": 0, "fusion_lon": 0.0, "fusion_lat": 0.0, "lon": -77.03658716666666, "name": "d689dc2cd39247dc5e9d9e1ac169df38"}, {"bike_id": "8bf2956216d7f8427df1d798a28c9ea6", "type": "electric_scooter", "is_disabled": 0, "lat": 38.910754833333336, "rental_uris": {"ios": "https://dc.lft.to/lastmile_qr_scan", "android": "https://dc.lft.to/lastmile_qr_scan"}, "is_reserved": 0, "fusion_lon": 0.0, "fusion_lat": 0.0, "lon": -77.02715416666666, "name": "8bf2956216d7f8427df1d798a28c9ea6"}, {"bike_id": "7c36e36614d658ede6bc3a82dfbe4b32", "type": "electric_scooter", "is_disabled": 0, "lat": 38.863747000000004, "rental_uris": {"ios": "https://dc.lft.to/lastmile_qr_scan", "android": "https://dc.lft.to/lastmile_qr_scan"}, "is_reserved": 0, "fusion_lon": 0.0, "fusion_lat": 0.0, "lon": -76.99060083333333, "name": "7c36e36614d658ede6bc3a82dfbe4b32"}, {"bike_id": "d496ac8828454a3c8cbf8f49a8e407fe", "type": "electric_scooter", "is_disabled": 0, "lat": 38.8669265, "rental_uris": {"ios": "https://dc.lft.to/lastmile_qr_scan", "android": "https://dc.lft.to/lastmile_qr_scan"}, "is_reserved": 0, "fusion_lon": 0.0, "fusion_lat": 0.0, "lon": -76.98552033333333, "name": "d496ac8828454a3c8cbf8f49a8e407fe"}, {"bike_id": "89ce1e322beaa47875f4644b4c4a069e", "type": "electric_scooter", "is_disabled": 0, "lat": 38.92199333333333, "rental_uris": {"ios": "https://dc.lft.to/lastmile_qr_scan", "android": "https://dc.lft.to/lastmile_qr_scan"}, "is_reserved": 0, "fusion_lon": 0.0, "fusion_lat": 0.0, "lon": -77.04692283333333, "name": "89ce1e322beaa47875f4644b4c4a069e"}, {"bike_id": "4074382a6272956dc6d3a820c83f7510", "type": "electric_scooter", "is_disabled": 0, "lat": 38.9233585, "rental_uris": {"ios": "https://dc.lft.to/lastmile_qr_scan", "android": "https://dc.lft.to/lastmile_qr_scan"}, "is_reserved": 0, "fusion_lon": 0.0, "fusion_lat": 0.0, "lon": -77.03619016666667, "name": "4074382a6272956dc6d3a820c83f7510"}, {"bike_id": "6e39dc51db5347a8c5c75aa0ce839ab1", "type": "electric_scooter", "is_disabled": 0, "lat": 38.9079845, "rental_uris": {"ios": "https://dc.lft.to/lastmile_qr_scan", "android": "https://dc.lft.to/lastmile_qr_scan"}, "is_reserved": 0, "fusion_lon": 0.0, "fusion_lat": 0.0, "lon": -77.001898, "name": "6e39dc51db5347a8c5c75aa0ce839ab1"}, {"bike_id": "78b464271bf7feb24c16773da30a564c", "type": "electric_scooter", "is_disabled": 0, "lat": 38.929547, "rental_uris": {"ios": "https://dc.lft.to/lastmile_qr_scan", "android": "https://dc.lft.to/lastmile_qr_scan"}, "is_reserved": 0, "fusion_lon": 0.0, "fusion_lat": 0.0, "lon": -77.01843483333333, "name": "78b464271bf7feb24c16773da30a564c"}, {"bike_id": "3e62103930a2c0d3df1707453794e9c6", "type": "electric_scooter", "is_disabled": 0, "lat": 38.887472833333334, "rental_uris": {"ios": "https://dc.lft.to/lastmile_qr_scan", "android": "https://dc.lft.to/lastmile_qr_scan"}, "is_reserved": 0, "fusion_lon": 0.0, "fusion_lat": 0.0, "lon": -76.99626166666667, "name": "3e62103930a2c0d3df1707453794e9c6"}, {"bike_id": "9c7cb51ec333d9f057749c00e6c6d2e7", "type": "electric_scooter", "is_disabled": 0, "lat": 38.93340166666667, "rental_uris": {"ios": "https://dc.lft.to/lastmile_qr_scan", "android": "https://dc.lft.to/lastmile_qr_scan"}, "is_reserved": 0, "fusion_lon": 0.0, "fusion_lat": 0.0, "lon": -77.03986783333333, "name": "9c7cb51ec333d9f057749c00e6c6d2e7"}, {"bike_id": "814cfbf1a4b0357c65e750317a7261db", "type": "electric_scooter", "is_disabled": 0, "lat": 38.865675333333336, "rental_uris": {"ios": "https://dc.lft.to/lastmile_qr_scan", "android": "https://dc.lft.to/lastmile_qr_scan"}, "is_reserved": 0, "fusion_lon": 0.0, "fusion_lat": 0.0, "lon": -76.982121, "name": "814cfbf1a4b0357c65e750317a7261db"}, {"bike_id": "a6a3680fd571a44e509bbf7e6a5b46c2", "type": "electric_bike", "is_disabled": 0, "lat": 38.854264666666666, "rental_uris": {"ios": "https://dc.lft.to/lastmile_qr_scan", "android": "https://dc.lft.to/lastmile_qr_scan"}, "is_reserved": 0, "fusion_lon": 0.0, "fusion_lat": 0.0, "lon": -77.12076, "name": "a6a3680fd571a44e509bbf7e6a5b46c2"}, {"bike_id": "516c8cc0b2ed25f45805dd2a4b101ba8", "type": "electric_scooter", "is_disabled": 0, "lat": 38.905292333333335, "rental_uris": {"ios": "https://dc.lft.to/lastmile_qr_scan", "android": "https://dc.lft.to/lastmile_qr_scan"}, "is_reserved": 0, "fusion_lon": 0.0, "fusion_lat": 0.0, "lon": -76.996337, "name": "516c8cc0b2ed25f45805dd2a4b101ba8"}, {"bike_id": "b182dba12e253ae909b26fdf41a09767", "type": "electric_scooter", "is_disabled": 0, "lat": 38.901765, "rental_uris": {"ios": "https://dc.lft.to/lastmile_qr_scan", "android": "https://dc.lft.to/lastmile_qr_scan"}, "is_reserved": 0, "fusion_lon": 0.0, "fusion_lat": 0.0, "lon": -76.98450383333333, "name": "b182dba12e253ae909b26fdf41a09767"}, {"bike_id": "c908852c7e43ef3c34187a6b3b15bfec", "type": "electric_scooter", "is_disabled": 0, "lat": 38.934042, "rental_uris": {"ios": "https://dc.lft.to/lastmile_qr_scan", "android": "https://dc.lft.to/lastmile_qr_scan"}, "is_reserved": 0, "fusion_lon": 0.0, "fusion_lat": 0.0, "lon": -77.03914933333333, "name": "c908852c7e43ef3c34187a6b3b15bfec"}, {"bike_id": "65e8c9e0d120864851bbeca87b82583e", "type": "electric_scooter", "is_disabled": 0, "lat": 38.942975, "rental_uris": {"ios": "https://dc.lft.to/lastmile_qr_scan", "android": "https://dc.lft.to/lastmile_qr_scan"}, "is_reserved": 0, "fusion_lon": 0.0, "fusion_lat": 0.0, "lon": -77.02163733333333, "name": "65e8c9e0d120864851bbeca87b82583e"}, {"bike_id": "2613886465fff215d7e1a30e4bb8c7e3", "type": "electric_scooter", "is_disabled": 0, "lat": 38.948409166666664, "rental_uris": {"ios": "https://dc.lft.to/lastmile_qr_scan", "android": "https://dc.lft.to/lastmile_qr_scan"}, "is_reserved": 0, "fusion_lon": 0.0, "fusion_lat": 0.0, "lon": -77.025477, "name": "2613886465fff215d7e1a30e4bb8c7e3"}, {"bike_id": "425379019cc75a2ff9ee342ea75c141a", "type": "electric_scooter", "is_disabled": 0, "lat": 38.862349, "rental_uris": {"ios": "https://dc.lft.to/lastmile_qr_scan", "android": "https://dc.lft.to/lastmile_qr_scan"}, "is_reserved": 0, "fusion_lon": 0.0, "fusion_lat": 0.0, "lon": -76.99498, "name": "425379019cc75a2ff9ee342ea75c141a"}, {"bike_id": "e6e1431e074d1ea6ede860a31bfca8a6", "type": "electric_scooter", "is_disabled": 0, "lat": 38.924511333333335, "rental_uris": {"ios": "https://dc.lft.to/lastmile_qr_scan", "android": "https://dc.lft.to/lastmile_qr_scan"}, "is_reserved": 0, "fusion_lon": 0.0, "fusion_lat": 0.0, "lon": -77.02413733333333, "name": "e6e1431e074d1ea6ede860a31bfca8a6"}, {"bike_id": "71d53c5123a925c848778436fa9f5528", "type": "electric_scooter", "is_disabled": 0, "lat": 38.904216166666664, "rental_uris": {"ios": "https://dc.lft.to/lastmile_qr_scan", "android": "https://dc.lft.to/lastmile_qr_scan"}, "is_reserved": 0, "fusion_lon": 0.0, "fusion_lat": 0.0, "lon": -76.97373783333333, "name": "71d53c5123a925c848778436fa9f5528"}, {"bike_id": "07e432746328e7799e338200e3202f43", "type": "electric_scooter", "is_disabled": 0, "lat": 38.954785666666666, "rental_uris": {"ios": "https://dc.lft.to/lastmile_qr_scan", "android": "https://dc.lft.to/lastmile_qr_scan"}, "is_reserved": 0, "fusion_lon": 0.0, "fusion_lat": 0.0, "lon": -77.092511, "name": "07e432746328e7799e338200e3202f43"}, {"bike_id": "e3e9f7e7cf82ef5079ec6eef0c263472", "type": "electric_scooter", "is_disabled": 0, "lat": 38.8888535, "rental_uris": {"ios": "https://dc.lft.to/lastmile_qr_scan", "android": "https://dc.lft.to/lastmile_qr_scan"}, "is_reserved": 0, "fusion_lon": 0.0, "fusion_lat": 0.0, "lon": -76.990261, "name": "e3e9f7e7cf82ef5079ec6eef0c263472"}, {"bike_id": "8b4bfe7bef83c258940fa438ee52c10e", "type": "electric_scooter", "is_disabled": 0, "lat": 38.9152225, "rental_uris": {"ios": "https://dc.lft.to/lastmile_qr_scan", "android": "https://dc.lft.to/lastmile_qr_scan"}, "is_reserved": 0, "fusion_lon": 0.0, "fusion_lat": 0.0, "lon": -77.012228, "name": "8b4bfe7bef83c258940fa438ee52c10e"}, {"bike_id": "12a03b9bdb97069dd01a13df700c802a", "type": "electric_scooter", "is_disabled": 0, "lat": 38.900727833333335, "rental_uris": {"ios": "https://dc.lft.to/lastmile_qr_scan", "android": "https://dc.lft.to/lastmile_qr_scan"}, "is_reserved": 0, "fusion_lon": 0.0, "fusion_lat": 0.0, "lon": -77.03644233333333, "name": "12a03b9bdb97069dd01a13df700c802a"}, {"bike_id": "79aa54f764bcf0d731c4e546a3109d08", "type": "electric_scooter", "is_disabled": 0, "lat": 38.90381033333333, "rental_uris": {"ios": "https://dc.lft.to/lastmile_qr_scan", "android": "https://dc.lft.to/lastmile_qr_scan"}, "is_reserved": 0, "fusion_lon": 0.0, "fusion_lat": 0.0, "lon": -77.03829133333333, "name": "79aa54f764bcf0d731c4e546a3109d08"}, {"bike_id": "bb6af6e22c0c10e681397a16a5d88511", "type": "electric_scooter", "is_disabled": 0, "lat": 38.91710633333334, "rental_uris": {"ios": "https://dc.lft.to/lastmile_qr_scan", "android": "https://dc.lft.to/lastmile_qr_scan"}, "is_reserved": 0, "fusion_lon": 0.0, "fusion_lat": 0.0, "lon": -77.0461025, "name": "bb6af6e22c0c10e681397a16a5d88511"}, {"bike_id": "b8f497c534378c52b1326fe8ad812e94", "type": "electric_scooter", "is_disabled": 0, "lat": 38.94022983333333, "rental_uris": {"ios": "https://dc.lft.to/lastmile_qr_scan", "android": "https://dc.lft.to/lastmile_qr_scan"}, "is_reserved": 0, "fusion_lon": 0.0, "fusion_lat": 0.0, "lon": -77.0276605, "name": "b8f497c534378c52b1326fe8ad812e94"}, {"bike_id": "cc15374af243cedcd11828593cd2f65b", "type": "electric_scooter", "is_disabled": 0, "lat": 38.921000666666664, "rental_uris": {"ios": "https://dc.lft.to/lastmile_qr_scan", "android": "https://dc.lft.to/lastmile_qr_scan"}, "is_reserved": 0, "fusion_lon": 0.0, "fusion_lat": 0.0, "lon": -77.025227, "name": "cc15374af243cedcd11828593cd2f65b"}, {"bike_id": "0af2db46e0719b1e6abeb9baf3dafabb", "type": "electric_scooter", "is_disabled": 0, "lat": 38.92224, "rental_uris": {"ios": "https://dc.lft.to/lastmile_qr_scan", "android": "https://dc.lft.to/lastmile_qr_scan"}, "is_reserved": 0, "fusion_lon": 0.0, "fusion_lat": 0.0, "lon": -77.03456966666667, "name": "0af2db46e0719b1e6abeb9baf3dafabb"}, {"bike_id": "f47840a8f38b37c7b53196737ba7b2e3", "type": "electric_bike", "is_disabled": 0, "lat": 39.03994183333333, "rental_uris": {"ios": "https://dc.lft.to/lastmile_qr_scan", "android": "https://dc.lft.to/lastmile_qr_scan"}, "is_reserved": 0, "fusion_lon": 0.0, "fusion_lat": 0.0, "lon": -76.99923683333333, "name": "f47840a8f38b37c7b53196737ba7b2e3"}, {"bike_id": "1b7398db46f9af2f5f719eb424d215b9", "type": "electric_scooter", "is_disabled": 0, "lat": 38.90570866666667, "rental_uris": {"ios": "https://dc.lft.to/lastmile_qr_scan", "android": "https://dc.lft.to/lastmile_qr_scan"}, "is_reserved": 0, "fusion_lon": 0.0, "fusion_lat": 0.0, "lon": -77.02214933333333, "name": "1b7398db46f9af2f5f719eb424d215b9"}, {"bike_id": "063ed7204773d7a6806e573da8066284", "type": "electric_scooter", "is_disabled": 0, "lat": 38.90256566666667, "rental_uris": {"ios": "https://dc.lft.to/lastmile_qr_scan", "android": "https://dc.lft.to/lastmile_qr_scan"}, "is_reserved": 0, "fusion_lon": 0.0, "fusion_lat": 0.0, "lon": -76.97543983333334, "name": "063ed7204773d7a6806e573da8066284"}, {"bike_id": "c9cef66c33564fc259861ef2688a1cc4", "type": "electric_scooter", "is_disabled": 0, "lat": 38.905831666666664, "rental_uris": {"ios": "https://dc.lft.to/lastmile_qr_scan", "android": "https://dc.lft.to/lastmile_qr_scan"}, "is_reserved": 0, "fusion_lon": 0.0, "fusion_lat": 0.0, "lon": -77.02689733333334, "name": "c9cef66c33564fc259861ef2688a1cc4"}, {"bike_id": "67c55cf3c8a874d6493e1dc7c7732b9a", "type": "electric_scooter", "is_disabled": 0, "lat": 38.885300666666666, "rental_uris": {"ios": "https://dc.lft.to/lastmile_qr_scan", "android": "https://dc.lft.to/lastmile_qr_scan"}, "is_reserved": 0, "fusion_lon": 0.0, "fusion_lat": 0.0, "lon": -76.99824683333334, "name": "67c55cf3c8a874d6493e1dc7c7732b9a"}, {"bike_id": "41d7d0e613b6ef272bc72765407e5a44", "type": "electric_scooter", "is_disabled": 0, "lat": 38.90121716666667, "rental_uris": {"ios": "https://dc.lft.to/lastmile_qr_scan", "android": "https://dc.lft.to/lastmile_qr_scan"}, "is_reserved": 0, "fusion_lon": 0.0, "fusion_lat": 0.0, "lon": -76.9295315, "name": "41d7d0e613b6ef272bc72765407e5a44"}, {"bike_id": "339c4bbf7814a23c1c720af71393b7f8", "type": "electric_scooter", "is_disabled": 0, "lat": 38.897759666666666, "rental_uris": {"ios": "https://dc.lft.to/lastmile_qr_scan", "android": "https://dc.lft.to/lastmile_qr_scan"}, "is_reserved": 0, "fusion_lon": 0.0, "fusion_lat": 0.0, "lon": -77.05157533333333, "name": "339c4bbf7814a23c1c720af71393b7f8"}, {"bike_id": "7d2c5ca8e44eb2400df72c806af4ec09", "type": "electric_scooter", "is_disabled": 0, "lat": 38.9562965, "rental_uris": {"ios": "https://dc.lft.to/lastmile_qr_scan", "android": "https://dc.lft.to/lastmile_qr_scan"}, "is_reserved": 0, "fusion_lon": 0.0, "fusion_lat": 0.0, "lon": -77.03615, "name": "7d2c5ca8e44eb2400df72c806af4ec09"}, {"bike_id": "6836d3d85d7876409a47e590e7755583", "type": "electric_scooter", "is_disabled": 0, "lat": 38.898999, "rental_uris": {"ios": "https://dc.lft.to/lastmile_qr_scan", "android": "https://dc.lft.to/lastmile_qr_scan"}, "is_reserved": 0, "fusion_lon": 0.0, "fusion_lat": 0.0, "lon": -77.03932633333334, "name": "6836d3d85d7876409a47e590e7755583"}, {"bike_id": "1d95612b943d233327f2302ee9de9a93", "type": "electric_scooter", "is_disabled": 0, "lat": 38.92331983333333, "rental_uris": {"ios": "https://dc.lft.to/lastmile_qr_scan", "android": "https://dc.lft.to/lastmile_qr_scan"}, "is_reserved": 0, "fusion_lon": 0.0, "fusion_lat": 0.0, "lon": -77.03774366666667, "name": "1d95612b943d233327f2302ee9de9a93"}, {"bike_id": "e1df78ad94746c08c96cccbb68489177", "type": "electric_bike", "is_disabled": 0, "lat": 38.9317535, "rental_uris": {"ios": "https://dc.lft.to/lastmile_qr_scan", "android": "https://dc.lft.to/lastmile_qr_scan"}, "is_reserved": 0, "fusion_lon": 0.0, "fusion_lat": 0.0, "lon": -77.03551866666666, "name": "e1df78ad94746c08c96cccbb68489177"}, {"bike_id": "4303ecba3681509e9a791af3b84aff6b", "type": "electric_scooter", "is_disabled": 0, "lat": 38.92326583333333, "rental_uris": {"ios": "https://dc.lft.to/lastmile_qr_scan", "android": "https://dc.lft.to/lastmile_qr_scan"}, "is_reserved": 0, "fusion_lon": 0.0, "fusion_lat": 0.0, "lon": -77.03543433333333, "name": "4303ecba3681509e9a791af3b84aff6b"}, {"bike_id": "c43f71d9d1c3f8aee4f77e2d3f425797", "type": "electric_scooter", "is_disabled": 0, "lat": 38.9031045, "rental_uris": {"ios": "https://dc.lft.to/lastmile_qr_scan", "android": "https://dc.lft.to/lastmile_qr_scan"}, "is_reserved": 0, "fusion_lon": 0.0, "fusion_lat": 0.0, "lon": -77.065184, "name": "c43f71d9d1c3f8aee4f77e2d3f425797"}, {"bike_id": "025b7fcc86980d096a51c4831ffabe19", "type": "electric_bike", "is_disabled": 0, "lat": 38.97404016666667, "rental_uris": {"ios": "https://dc.lft.to/lastmile_qr_scan", "android": "https://dc.lft.to/lastmile_qr_scan"}, "is_reserved": 0, "fusion_lon": 0.0, "fusion_lat": 0.0, "lon": -77.06449083333334, "name": "025b7fcc86980d096a51c4831ffabe19"}, {"bike_id": "54c955a11ec34ff39052d7b752bc9d6c", "type": "electric_scooter", "is_disabled": 0, "lat": 38.90080416666667, "rental_uris": {"ios": "https://dc.lft.to/lastmile_qr_scan", "android": "https://dc.lft.to/lastmile_qr_scan"}, "is_reserved": 0, "fusion_lon": 0.0, "fusion_lat": 0.0, "lon": -77.03095666666667, "name": "54c955a11ec34ff39052d7b752bc9d6c"}, {"bike_id": "5f1b50bbe8ffb68adc2fa7bbab33e403", "type": "electric_scooter", "is_disabled": 0, "lat": 38.9135, "rental_uris": {"ios": "https://dc.lft.to/lastmile_qr_scan", "android": "https://dc.lft.to/lastmile_qr_scan"}, "is_reserved": 0, "fusion_lon": 0.0, "fusion_lat": 0.0, "lon": -77.00890516666666, "name": "5f1b50bbe8ffb68adc2fa7bbab33e403"}, {"bike_id": "b6d104929b147eb7e50ed0f7b6e4af22", "type": "electric_scooter", "is_disabled": 0, "lat": 38.9025415, "rental_uris": {"ios": "https://dc.lft.to/lastmile_qr_scan", "android": "https://dc.lft.to/lastmile_qr_scan"}, "is_reserved": 0, "fusion_lon": 0.0, "fusion_lat": 0.0, "lon": -77.01856233333334, "name": "b6d104929b147eb7e50ed0f7b6e4af22"}, {"bike_id": "7e228a07620ae6a19a26594af9497283", "type": "electric_scooter", "is_disabled": 0, "lat": 38.92375416666667, "rental_uris": {"ios": "https://dc.lft.to/lastmile_qr_scan", "android": "https://dc.lft.to/lastmile_qr_scan"}, "is_reserved": 0, "fusion_lon": 0.0, "fusion_lat": 0.0, "lon": -77.05027366666667, "name": "7e228a07620ae6a19a26594af9497283"}, {"bike_id": "3b93c67f2e0d290cc407f538bbd9ef82", "type": "electric_scooter", "is_disabled": 0, "lat": 38.89860483333333, "rental_uris": {"ios": "https://dc.lft.to/lastmile_qr_scan", "android": "https://dc.lft.to/lastmile_qr_scan"}, "is_reserved": 0, "fusion_lon": 0.0, "fusion_lat": 0.0, "lon": -77.02212333333334, "name": "3b93c67f2e0d290cc407f538bbd9ef82"}, {"bike_id": "65e523039fe2c615121231496cb69c25", "type": "electric_scooter", "is_disabled": 0, "lat": 38.92047566666667, "rental_uris": {"ios": "https://dc.lft.to/lastmile_qr_scan", "android": "https://dc.lft.to/lastmile_qr_scan"}, "is_reserved": 0, "fusion_lon": 0.0, "fusion_lat": 0.0, "lon": -77.0341225, "name": "65e523039fe2c615121231496cb69c25"}, {"bike_id": "c53871777b7bdb23921fe71920b4b215", "type": "electric_scooter", "is_disabled": 0, "lat": 38.909692166666666, "rental_uris": {"ios": "https://dc.lft.to/lastmile_qr_scan", "android": "https://dc.lft.to/lastmile_qr_scan"}, "is_reserved": 0, "fusion_lon": 0.0, "fusion_lat": 0.0, "lon": -77.045484, "name": "c53871777b7bdb23921fe71920b4b215"}, {"bike_id": "2b737d01f861af5c2b3610b81aadf59d", "type": "electric_scooter", "is_disabled": 0, "lat": 38.9462555, "rental_uris": {"ios": "https://dc.lft.to/lastmile_qr_scan", "android": "https://dc.lft.to/lastmile_qr_scan"}, "is_reserved": 0, "fusion_lon": 0.0, "fusion_lat": 0.0, "lon": -77.0723145, "name": "2b737d01f861af5c2b3610b81aadf59d"}, {"bike_id": "20247c8be3d0c663ed60cf3df3dda7b8", "type": "electric_scooter", "is_disabled": 0, "lat": 38.897301166666665, "rental_uris": {"ios": "https://dc.lft.to/lastmile_qr_scan", "android": "https://dc.lft.to/lastmile_qr_scan"}, "is_reserved": 0, "fusion_lon": 0.0, "fusion_lat": 0.0, "lon": -77.02494716666666, "name": "20247c8be3d0c663ed60cf3df3dda7b8"}, {"bike_id": "08445887868782e0eefd8f8bb36a098a", "type": "electric_bike", "is_disabled": 0, "lat": 38.831617, "rental_uris": {"ios": "https://dc.lft.to/lastmile_qr_scan", "android": "https://dc.lft.to/lastmile_qr_scan"}, "is_reserved": 0, "fusion_lon": 0.0, "fusion_lat": 0.0, "lon": -76.99544966666667, "name": "08445887868782e0eefd8f8bb36a098a"}, {"bike_id": "90778dadf3cd66908f1ba0b3c52720f8", "type": "electric_scooter", "is_disabled": 0, "lat": 38.91150733333333, "rental_uris": {"ios": "https://dc.lft.to/lastmile_qr_scan", "android": "https://dc.lft.to/lastmile_qr_scan"}, "is_reserved": 0, "fusion_lon": 0.0, "fusion_lat": 0.0, "lon": -77.02951266666666, "name": "90778dadf3cd66908f1ba0b3c52720f8"}, {"bike_id": "3b74a5e964619bf0013d5ed626d93492", "type": "electric_scooter", "is_disabled": 0, "lat": 38.90839616666667, "rental_uris": {"ios": "https://dc.lft.to/lastmile_qr_scan", "android": "https://dc.lft.to/lastmile_qr_scan"}, "is_reserved": 0, "fusion_lon": 0.0, "fusion_lat": 0.0, "lon": -77.03336016666667, "name": "3b74a5e964619bf0013d5ed626d93492"}, {"bike_id": "db2b8ee324bd3b22d1aa9547167bd9fe", "type": "electric_scooter", "is_disabled": 0, "lat": 38.916654333333334, "rental_uris": {"ios": "https://dc.lft.to/lastmile_qr_scan", "android": "https://dc.lft.to/lastmile_qr_scan"}, "is_reserved": 0, "fusion_lon": 0.0, "fusion_lat": 0.0, "lon": -77.0467745, "name": "db2b8ee324bd3b22d1aa9547167bd9fe"}, {"bike_id": "d0e809cfa21f03732a00294a4c7a9543", "type": "electric_scooter", "is_disabled": 0, "lat": 38.8950685, "rental_uris": {"ios": "https://dc.lft.to/lastmile_qr_scan", "android": "https://dc.lft.to/lastmile_qr_scan"}, "is_reserved": 0, "fusion_lon": 0.0, "fusion_lat": 0.0, "lon": -76.93476966666667, "name": "d0e809cfa21f03732a00294a4c7a9543"}, {"bike_id": "665777c00f8b389cf6ba6b2a4ba0dcb6", "type": "electric_bike", "is_disabled": 0, "lat": 38.848435333333335, "rental_uris": {"ios": "https://dc.lft.to/lastmile_qr_scan", "android": "https://dc.lft.to/lastmile_qr_scan"}, "is_reserved": 0, "fusion_lon": 0.0, "fusion_lat": 0.0, "lon": -77.07913733333334, "name": "665777c00f8b389cf6ba6b2a4ba0dcb6"}, {"bike_id": "56faee38c5b89832501920a54e0a1c79", "type": "electric_bike", "is_disabled": 0, "lat": 38.94264016666666, "rental_uris": {"ios": "https://dc.lft.to/lastmile_qr_scan", "android": "https://dc.lft.to/lastmile_qr_scan"}, "is_reserved": 0, "fusion_lon": 0.0, "fusion_lat": 0.0, "lon": -76.99071133333334, "name": "56faee38c5b89832501920a54e0a1c79"}, {"bike_id": "09338ec23484b9191aa26bb6eefb81ae", "type": "electric_scooter", "is_disabled": 0, "lat": 38.95115233333333, "rental_uris": {"ios": "https://dc.lft.to/lastmile_qr_scan", "android": "https://dc.lft.to/lastmile_qr_scan"}, "is_reserved": 0, "fusion_lon": 0.0, "fusion_lat": 0.0, "lon": -77.014287, "name": "09338ec23484b9191aa26bb6eefb81ae"}, {"bike_id": "c9fd224c6239753d06f557dc38327174", "type": "electric_scooter", "is_disabled": 0, "lat": 38.9286835, "rental_uris": {"ios": "https://dc.lft.to/lastmile_qr_scan", "android": "https://dc.lft.to/lastmile_qr_scan"}, "is_reserved": 0, "fusion_lon": 0.0, "fusion_lat": 0.0, "lon": -77.03704, "name": "c9fd224c6239753d06f557dc38327174"}, {"bike_id": "1d0834b3e967593d1856478ce8236c9c", "type": "electric_scooter", "is_disabled": 0, "lat": 38.925521, "rental_uris": {"ios": "https://dc.lft.to/lastmile_qr_scan", "android": "https://dc.lft.to/lastmile_qr_scan"}, "is_reserved": 0, "fusion_lon": 0.0, "fusion_lat": 0.0, "lon": -77.03355133333334, "name": "1d0834b3e967593d1856478ce8236c9c"}, {"bike_id": "89a79893db84614a49852ba1a35282fa", "type": "electric_scooter", "is_disabled": 0, "lat": 38.9488825, "rental_uris": {"ios": "https://dc.lft.to/lastmile_qr_scan", "android": "https://dc.lft.to/lastmile_qr_scan"}, "is_reserved": 0, "fusion_lon": 0.0, "fusion_lat": 0.0, "lon": -77.06528666666667, "name": "89a79893db84614a49852ba1a35282fa"}, {"bike_id": "ca79348d6c5320eda8fe62b07c2593c0", "type": "electric_scooter", "is_disabled": 0, "lat": 38.86695733333333, "rental_uris": {"ios": "https://dc.lft.to/lastmile_qr_scan", "android": "https://dc.lft.to/lastmile_qr_scan"}, "is_reserved": 0, "fusion_lon": 0.0, "fusion_lat": 0.0, "lon": -76.98557766666667, "name": "ca79348d6c5320eda8fe62b07c2593c0"}, {"bike_id": "b70a444c6591ed70b021fe3d8b72a3e4", "type": "electric_scooter", "is_disabled": 0, "lat": 38.92772183333334, "rental_uris": {"ios": "https://dc.lft.to/lastmile_qr_scan", "android": "https://dc.lft.to/lastmile_qr_scan"}, "is_reserved": 0, "fusion_lon": 0.0, "fusion_lat": 0.0, "lon": -76.96099533333333, "name": "b70a444c6591ed70b021fe3d8b72a3e4"}, {"bike_id": "44fcfcd8d328007dd200192346637ebb", "type": "electric_scooter", "is_disabled": 0, "lat": 38.887280833333335, "rental_uris": {"ios": "https://dc.lft.to/lastmile_qr_scan", "android": "https://dc.lft.to/lastmile_qr_scan"}, "is_reserved": 0, "fusion_lon": 0.0, "fusion_lat": 0.0, "lon": -77.02793566666666, "name": "44fcfcd8d328007dd200192346637ebb"}, {"bike_id": "ec849ab5ce6028af66366c89fb8228fe", "type": "electric_scooter", "is_disabled": 0, "lat": 38.86736283333333, "rental_uris": {"ios": "https://dc.lft.to/lastmile_qr_scan", "android": "https://dc.lft.to/lastmile_qr_scan"}, "is_reserved": 0, "fusion_lon": 0.0, "fusion_lat": 0.0, "lon": -76.97863100000001, "name": "ec849ab5ce6028af66366c89fb8228fe"}, {"bike_id": "e2b633eed9f8bd9d54f3cd9d1e2a9e8a", "type": "electric_scooter", "is_disabled": 0, "lat": 38.9004945, "rental_uris": {"ios": "https://dc.lft.to/lastmile_qr_scan", "android": "https://dc.lft.to/lastmile_qr_scan"}, "is_reserved": 0, "fusion_lon": 0.0, "fusion_lat": 0.0, "lon": -77.01668733333334, "name": "e2b633eed9f8bd9d54f3cd9d1e2a9e8a"}, {"bike_id": "f8a82bbe75666cca6c294c92f8c3ca36", "type": "electric_scooter", "is_disabled": 0, "lat": 38.914183333333334, "rental_uris": {"ios": "https://dc.lft.to/lastmile_qr_scan", "android": "https://dc.lft.to/lastmile_qr_scan"}, "is_reserved": 0, "fusion_lon": 0.0, "fusion_lat": 0.0, "lon": -77.02098433333333, "name": "f8a82bbe75666cca6c294c92f8c3ca36"}, {"bike_id": "d16ba619609b79aaa9a0a33580a2149b", "type": "electric_scooter", "is_disabled": 0, "lat": 38.926010166666664, "rental_uris": {"ios": "https://dc.lft.to/lastmile_qr_scan", "android": "https://dc.lft.to/lastmile_qr_scan"}, "is_reserved": 0, "fusion_lon": 0.0, "fusion_lat": 0.0, "lon": -77.0239075, "name": "d16ba619609b79aaa9a0a33580a2149b"}, {"bike_id": "9da8dc9b684816f0c2a1af259d3fbfa9", "type": "electric_scooter", "is_disabled": 0, "lat": 38.9094365, "rental_uris": {"ios": "https://dc.lft.to/lastmile_qr_scan", "android": "https://dc.lft.to/lastmile_qr_scan"}, "is_reserved": 0, "fusion_lon": 0.0, "fusion_lat": 0.0, "lon": -77.0556515, "name": "9da8dc9b684816f0c2a1af259d3fbfa9"}, {"bike_id": "f1eaf0f1760ae9c35f57348cd0d8e1ea", "type": "electric_bike", "is_disabled": 0, "lat": 38.9206245, "rental_uris": {"ios": "https://dc.lft.to/lastmile_qr_scan", "android": "https://dc.lft.to/lastmile_qr_scan"}, "is_reserved": 0, "fusion_lon": 0.0, "fusion_lat": 0.0, "lon": -77.0744915, "name": "f1eaf0f1760ae9c35f57348cd0d8e1ea"}, {"bike_id": "692fbccf29340ad56cad020b100b2022", "type": "electric_scooter", "is_disabled": 0, "lat": 38.831050833333336, "rental_uris": {"ios": "https://dc.lft.to/lastmile_qr_scan", "android": "https://dc.lft.to/lastmile_qr_scan"}, "is_reserved": 0, "fusion_lon": 0.0, "fusion_lat": 0.0, "lon": -77.05150233333333, "name": "692fbccf29340ad56cad020b100b2022"}, {"bike_id": "dee2fd93cef2181c135740e391cdeecf", "type": "electric_scooter", "is_disabled": 0, "lat": 38.91767216666667, "rental_uris": {"ios": "https://dc.lft.to/lastmile_qr_scan", "android": "https://dc.lft.to/lastmile_qr_scan"}, "is_reserved": 0, "fusion_lon": 0.0, "fusion_lat": 0.0, "lon": -77.03435066666667, "name": "dee2fd93cef2181c135740e391cdeecf"}, {"bike_id": "152aa705ece47e874963eb583c66259a", "type": "electric_scooter", "is_disabled": 0, "lat": 38.92324466666667, "rental_uris": {"ios": "https://dc.lft.to/lastmile_qr_scan", "android": "https://dc.lft.to/lastmile_qr_scan"}, "is_reserved": 0, "fusion_lon": 0.0, "fusion_lat": 0.0, "lon": -77.03803916666666, "name": "152aa705ece47e874963eb583c66259a"}, {"bike_id": "16fa03872c000892ef81573361518ed3", "type": "electric_scooter", "is_disabled": 0, "lat": 38.91417583333333, "rental_uris": {"ios": "https://dc.lft.to/lastmile_qr_scan", "android": "https://dc.lft.to/lastmile_qr_scan"}, "is_reserved": 0, "fusion_lon": 0.0, "fusion_lat": 0.0, "lon": -77.02214316666667, "name": "16fa03872c000892ef81573361518ed3"}, {"bike_id": "d2d2743ca0d782771e26e2849c4b17c4", "type": "electric_scooter", "is_disabled": 0, "lat": 38.909777, "rental_uris": {"ios": "https://dc.lft.to/lastmile_qr_scan", "android": "https://dc.lft.to/lastmile_qr_scan"}, "is_reserved": 0, "fusion_lon": 0.0, "fusion_lat": 0.0, "lon": -77.033415, "name": "d2d2743ca0d782771e26e2849c4b17c4"}, {"bike_id": "c99f98b6972d21b3988c14bebe8d7466", "type": "electric_scooter", "is_disabled": 0, "lat": 38.89495683333333, "rental_uris": {"ios": "https://dc.lft.to/lastmile_qr_scan", "android": "https://dc.lft.to/lastmile_qr_scan"}, "is_reserved": 0, "fusion_lon": 0.0, "fusion_lat": 0.0, "lon": -77.00062133333333, "name": "c99f98b6972d21b3988c14bebe8d7466"}, {"bike_id": "6c9e8dd876dad99aeb8b390148feb6c9", "type": "electric_scooter", "is_disabled": 0, "lat": 38.897476, "rental_uris": {"ios": "https://dc.lft.to/lastmile_qr_scan", "android": "https://dc.lft.to/lastmile_qr_scan"}, "is_reserved": 0, "fusion_lon": 0.0, "fusion_lat": 0.0, "lon": -77.00005583333333, "name": "6c9e8dd876dad99aeb8b390148feb6c9"}, {"bike_id": "bd40b2f54145af5a32acb3fb57a09cba", "type": "electric_scooter", "is_disabled": 0, "lat": 38.89546383333333, "rental_uris": {"ios": "https://dc.lft.to/lastmile_qr_scan", "android": "https://dc.lft.to/lastmile_qr_scan"}, "is_reserved": 0, "fusion_lon": 0.0, "fusion_lat": 0.0, "lon": -76.92953083333333, "name": "bd40b2f54145af5a32acb3fb57a09cba"}, {"bike_id": "905bbb8f9c936b3a1719bde940047359", "type": "electric_scooter", "is_disabled": 0, "lat": 38.93117, "rental_uris": {"ios": "https://dc.lft.to/lastmile_qr_scan", "android": "https://dc.lft.to/lastmile_qr_scan"}, "is_reserved": 0, "fusion_lon": 0.0, "fusion_lat": 0.0, "lon": -77.03041433333334, "name": "905bbb8f9c936b3a1719bde940047359"}, {"bike_id": "092475e45417fed41599eb10f93f6026", "type": "electric_scooter", "is_disabled": 0, "lat": 38.872896, "rental_uris": {"ios": "https://dc.lft.to/lastmile_qr_scan", "android": "https://dc.lft.to/lastmile_qr_scan"}, "is_reserved": 0, "fusion_lon": 0.0, "fusion_lat": 0.0, "lon": -76.9772895, "name": "092475e45417fed41599eb10f93f6026"}, {"bike_id": "266fce46b685e220414b40521ab3725c", "type": "electric_scooter", "is_disabled": 0, "lat": 38.92049766666667, "rental_uris": {"ios": "https://dc.lft.to/lastmile_qr_scan", "android": "https://dc.lft.to/lastmile_qr_scan"}, "is_reserved": 0, "fusion_lon": 0.0, "fusion_lat": 0.0, "lon": -77.03396416666666, "name": "266fce46b685e220414b40521ab3725c"}, {"bike_id": "db6d28f094b4baed2d0d22e7eaaeaf20", "type": "electric_scooter", "is_disabled": 0, "lat": 38.91304216666666, "rental_uris": {"ios": "https://dc.lft.to/lastmile_qr_scan", "android": "https://dc.lft.to/lastmile_qr_scan"}, "is_reserved": 0, "fusion_lon": 0.0, "fusion_lat": 0.0, "lon": -77.046651, "name": "db6d28f094b4baed2d0d22e7eaaeaf20"}, {"bike_id": "945757a277ddcda572c0c3b0e35c1aaf", "type": "electric_scooter", "is_disabled": 0, "lat": 38.9251685, "rental_uris": {"ios": "https://dc.lft.to/lastmile_qr_scan", "android": "https://dc.lft.to/lastmile_qr_scan"}, "is_reserved": 0, "fusion_lon": 0.0, "fusion_lat": 0.0, "lon": -77.02252183333333, "name": "945757a277ddcda572c0c3b0e35c1aaf"}, {"bike_id": "6003382b03d075a030419f5a22f44c9a", "type": "electric_scooter", "is_disabled": 0, "lat": 38.917976333333336, "rental_uris": {"ios": "https://dc.lft.to/lastmile_qr_scan", "android": "https://dc.lft.to/lastmile_qr_scan"}, "is_reserved": 0, "fusion_lon": 0.0, "fusion_lat": 0.0, "lon": -77.02434866666667, "name": "6003382b03d075a030419f5a22f44c9a"}, {"bike_id": "67d0b0468883cc8b6260475c3b3839a2", "type": "electric_scooter", "is_disabled": 0, "lat": 38.89225483333333, "rental_uris": {"ios": "https://dc.lft.to/lastmile_qr_scan", "android": "https://dc.lft.to/lastmile_qr_scan"}, "is_reserved": 0, "fusion_lon": 0.0, "fusion_lat": 0.0, "lon": -77.03975483333333, "name": "67d0b0468883cc8b6260475c3b3839a2"}, {"bike_id": "66d9f65255b6c51354decde82fc226f1", "type": "electric_scooter", "is_disabled": 0, "lat": 38.898311, "rental_uris": {"ios": "https://dc.lft.to/lastmile_qr_scan", "android": "https://dc.lft.to/lastmile_qr_scan"}, "is_reserved": 0, "fusion_lon": 0.0, "fusion_lat": 0.0, "lon": -77.0455295, "name": "66d9f65255b6c51354decde82fc226f1"}, {"bike_id": "756e47fac5f56cda79f66f82b5685a9b", "type": "electric_scooter", "is_disabled": 0, "lat": 38.91080066666667, "rental_uris": {"ios": "https://dc.lft.to/lastmile_qr_scan", "android": "https://dc.lft.to/lastmile_qr_scan"}, "is_reserved": 0, "fusion_lon": 0.0, "fusion_lat": 0.0, "lon": -77.02191233333333, "name": "756e47fac5f56cda79f66f82b5685a9b"}, {"bike_id": "25b36e21b1090fab3c9110ca844d18e0", "type": "electric_scooter", "is_disabled": 0, "lat": 38.921553, "rental_uris": {"ios": "https://dc.lft.to/lastmile_qr_scan", "android": "https://dc.lft.to/lastmile_qr_scan"}, "is_reserved": 0, "fusion_lon": 0.0, "fusion_lat": 0.0, "lon": -77.03874416666666, "name": "25b36e21b1090fab3c9110ca844d18e0"}, {"bike_id": "11324c7b2de0bd1ed3d36ab1d9fdd4dd", "type": "electric_scooter", "is_disabled": 0, "lat": 38.929037666666666, "rental_uris": {"ios": "https://dc.lft.to/lastmile_qr_scan", "android": "https://dc.lft.to/lastmile_qr_scan"}, "is_reserved": 0, "fusion_lon": 0.0, "fusion_lat": 0.0, "lon": -77.03248383333333, "name": "11324c7b2de0bd1ed3d36ab1d9fdd4dd"}, {"bike_id": "7575869dcefa5de1de1f091bffd9b199", "type": "electric_bike", "is_disabled": 0, "lat": 38.941197333333335, "rental_uris": {"ios": "https://dc.lft.to/lastmile_qr_scan", "android": "https://dc.lft.to/lastmile_qr_scan"}, "is_reserved": 0, "fusion_lon": 0.0, "fusion_lat": 0.0, "lon": -77.06186516666666, "name": "7575869dcefa5de1de1f091bffd9b199"}, {"bike_id": "77ae66f9293cb8035c223f1bf2c8abf4", "type": "electric_scooter", "is_disabled": 0, "lat": 38.922686166666665, "rental_uris": {"ios": "https://dc.lft.to/lastmile_qr_scan", "android": "https://dc.lft.to/lastmile_qr_scan"}, "is_reserved": 0, "fusion_lon": 0.0, "fusion_lat": 0.0, "lon": -77.033957, "name": "77ae66f9293cb8035c223f1bf2c8abf4"}, {"bike_id": "ecf55d0923c498ad4ea6ac5a703571e5", "type": "electric_scooter", "is_disabled": 0, "lat": 38.90720533333333, "rental_uris": {"ios": "https://dc.lft.to/lastmile_qr_scan", "android": "https://dc.lft.to/lastmile_qr_scan"}, "is_reserved": 0, "fusion_lon": 0.0, "fusion_lat": 0.0, "lon": -77.03438816666667, "name": "ecf55d0923c498ad4ea6ac5a703571e5"}, {"bike_id": "d7cdd56ada84ab8d718c97deb2f94197", "type": "electric_scooter", "is_disabled": 0, "lat": 38.905726333333334, "rental_uris": {"ios": "https://dc.lft.to/lastmile_qr_scan", "android": "https://dc.lft.to/lastmile_qr_scan"}, "is_reserved": 0, "fusion_lon": 0.0, "fusion_lat": 0.0, "lon": -77.02209083333334, "name": "d7cdd56ada84ab8d718c97deb2f94197"}, {"bike_id": "6869e7bde53fcab2d32b1ddd77c8f24f", "type": "electric_scooter", "is_disabled": 0, "lat": 38.900441666666666, "rental_uris": {"ios": "https://dc.lft.to/lastmile_qr_scan", "android": "https://dc.lft.to/lastmile_qr_scan"}, "is_reserved": 0, "fusion_lon": 0.0, "fusion_lat": 0.0, "lon": -77.0351555, "name": "6869e7bde53fcab2d32b1ddd77c8f24f"}, {"bike_id": "79a418291f3210735dbd198f4acd41c9", "type": "electric_scooter", "is_disabled": 0, "lat": 38.910282, "rental_uris": {"ios": "https://dc.lft.to/lastmile_qr_scan", "android": "https://dc.lft.to/lastmile_qr_scan"}, "is_reserved": 0, "fusion_lon": 0.0, "fusion_lat": 0.0, "lon": -77.0281025, "name": "79a418291f3210735dbd198f4acd41c9"}, {"bike_id": "d89a1e322a01fd6acbc430e2bb27ddaa", "type": "electric_scooter", "is_disabled": 0, "lat": 38.90798916666667, "rental_uris": {"ios": "https://dc.lft.to/lastmile_qr_scan", "android": "https://dc.lft.to/lastmile_qr_scan"}, "is_reserved": 0, "fusion_lon": 0.0, "fusion_lat": 0.0, "lon": -77.047942, "name": "d89a1e322a01fd6acbc430e2bb27ddaa"}, {"bike_id": "c89e5f961e86c6289ca757f5b29b86b9", "type": "electric_scooter", "is_disabled": 0, "lat": 38.928456, "rental_uris": {"ios": "https://dc.lft.to/lastmile_qr_scan", "android": "https://dc.lft.to/lastmile_qr_scan"}, "is_reserved": 0, "fusion_lon": 0.0, "fusion_lat": 0.0, "lon": -77.02004433333333, "name": "c89e5f961e86c6289ca757f5b29b86b9"}, {"bike_id": "e043c67cdd5db46d2034feac969d6309", "type": "electric_scooter", "is_disabled": 0, "lat": 38.920251666666665, "rental_uris": {"ios": "https://dc.lft.to/lastmile_qr_scan", "android": "https://dc.lft.to/lastmile_qr_scan"}, "is_reserved": 0, "fusion_lon": 0.0, "fusion_lat": 0.0, "lon": -77.0231415, "name": "e043c67cdd5db46d2034feac969d6309"}, {"bike_id": "2f22e96833930095a7a3ddf2d899ccf3", "type": "electric_scooter", "is_disabled": 0, "lat": 38.923238166666664, "rental_uris": {"ios": "https://dc.lft.to/lastmile_qr_scan", "android": "https://dc.lft.to/lastmile_qr_scan"}, "is_reserved": 0, "fusion_lon": 0.0, "fusion_lat": 0.0, "lon": -77.02135833333334, "name": "2f22e96833930095a7a3ddf2d899ccf3"}, {"bike_id": "720701b93cf241e209835df350bf546c", "type": "electric_scooter", "is_disabled": 0, "lat": 38.936824, "rental_uris": {"ios": "https://dc.lft.to/lastmile_qr_scan", "android": "https://dc.lft.to/lastmile_qr_scan"}, "is_reserved": 0, "fusion_lon": 0.0, "fusion_lat": 0.0, "lon": -77.0245545, "name": "720701b93cf241e209835df350bf546c"}, {"bike_id": "fc08006ccbbfb0dd945ea18ce34fa3e3", "type": "electric_scooter", "is_disabled": 0, "lat": 38.916171166666665, "rental_uris": {"ios": "https://dc.lft.to/lastmile_qr_scan", "android": "https://dc.lft.to/lastmile_qr_scan"}, "is_reserved": 0, "fusion_lon": 0.0, "fusion_lat": 0.0, "lon": -77.03640683333333, "name": "fc08006ccbbfb0dd945ea18ce34fa3e3"}, {"bike_id": "b407c05262d8dfdad62ff0d5b29e1f8e", "type": "electric_bike", "is_disabled": 0, "lat": 38.845274833333335, "rental_uris": {"ios": "https://dc.lft.to/lastmile_qr_scan", "android": "https://dc.lft.to/lastmile_qr_scan"}, "is_reserved": 0, "fusion_lon": 0.0, "fusion_lat": 0.0, "lon": -76.97395466666667, "name": "b407c05262d8dfdad62ff0d5b29e1f8e"}, {"bike_id": "0671c8307fab16e930aabf7a18f2803c", "type": "electric_scooter", "is_disabled": 0, "lat": 38.919260666666666, "rental_uris": {"ios": "https://dc.lft.to/lastmile_qr_scan", "android": "https://dc.lft.to/lastmile_qr_scan"}, "is_reserved": 0, "fusion_lon": 0.0, "fusion_lat": 0.0, "lon": -77.0341715, "name": "0671c8307fab16e930aabf7a18f2803c"}, {"bike_id": "7650f8d00ec17223e5a558c7fdc50d23", "type": "electric_scooter", "is_disabled": 0, "lat": 38.90721333333333, "rental_uris": {"ios": "https://dc.lft.to/lastmile_qr_scan", "android": "https://dc.lft.to/lastmile_qr_scan"}, "is_reserved": 0, "fusion_lon": 0.0, "fusion_lat": 0.0, "lon": -77.028928, "name": "7650f8d00ec17223e5a558c7fdc50d23"}, {"bike_id": "fa894706aa246407ac6f12596880e3e2", "type": "electric_scooter", "is_disabled": 0, "lat": 38.932196, "rental_uris": {"ios": "https://dc.lft.to/lastmile_qr_scan", "android": "https://dc.lft.to/lastmile_qr_scan"}, "is_reserved": 0, "fusion_lon": 0.0, "fusion_lat": 0.0, "lon": -77.03512783333333, "name": "fa894706aa246407ac6f12596880e3e2"}, {"bike_id": "83908582cebcc7e7ba42e06f18fb93c9", "type": "electric_scooter", "is_disabled": 0, "lat": 38.92621166666667, "rental_uris": {"ios": "https://dc.lft.to/lastmile_qr_scan", "android": "https://dc.lft.to/lastmile_qr_scan"}, "is_reserved": 0, "fusion_lon": 0.0, "fusion_lat": 0.0, "lon": -77.04194266666667, "name": "83908582cebcc7e7ba42e06f18fb93c9"}, {"bike_id": "bd3364ff9932d0f97e36b0cfb2314411", "type": "electric_scooter", "is_disabled": 0, "lat": 38.92688783333333, "rental_uris": {"ios": "https://dc.lft.to/lastmile_qr_scan", "android": "https://dc.lft.to/lastmile_qr_scan"}, "is_reserved": 0, "fusion_lon": 0.0, "fusion_lat": 0.0, "lon": -77.02976233333334, "name": "bd3364ff9932d0f97e36b0cfb2314411"}, {"bike_id": "24de4145456cf311bb257d8f71302f91", "type": "electric_scooter", "is_disabled": 0, "lat": 38.94718233333333, "rental_uris": {"ios": "https://dc.lft.to/lastmile_qr_scan", "android": "https://dc.lft.to/lastmile_qr_scan"}, "is_reserved": 0, "fusion_lon": 0.0, "fusion_lat": 0.0, "lon": -77.0332215, "name": "24de4145456cf311bb257d8f71302f91"}, {"bike_id": "1759ecc41c051a284c2b33965e41b600", "type": "electric_scooter", "is_disabled": 0, "lat": 38.89856616666667, "rental_uris": {"ios": "https://dc.lft.to/lastmile_qr_scan", "android": "https://dc.lft.to/lastmile_qr_scan"}, "is_reserved": 0, "fusion_lon": 0.0, "fusion_lat": 0.0, "lon": -77.04083266666666, "name": "1759ecc41c051a284c2b33965e41b600"}, {"bike_id": "3b4d82cd490969b4ef9fdf8f068476c1", "type": "electric_scooter", "is_disabled": 0, "lat": 38.9038395, "rental_uris": {"ios": "https://dc.lft.to/lastmile_qr_scan", "android": "https://dc.lft.to/lastmile_qr_scan"}, "is_reserved": 0, "fusion_lon": 0.0, "fusion_lat": 0.0, "lon": -77.05332666666666, "name": "3b4d82cd490969b4ef9fdf8f068476c1"}, {"bike_id": "3e6a32c4ff7f4555302d8e6483bcc81d", "type": "electric_scooter", "is_disabled": 0, "lat": 38.91748333333334, "rental_uris": {"ios": "https://dc.lft.to/lastmile_qr_scan", "android": "https://dc.lft.to/lastmile_qr_scan"}, "is_reserved": 0, "fusion_lon": 0.0, "fusion_lat": 0.0, "lon": -77.03183333333334, "name": "3e6a32c4ff7f4555302d8e6483bcc81d"}, {"bike_id": "f3f11be785e9a58b9ebcca1a1c9ad0ce", "type": "electric_scooter", "is_disabled": 0, "lat": 38.911871, "rental_uris": {"ios": "https://dc.lft.to/lastmile_qr_scan", "android": "https://dc.lft.to/lastmile_qr_scan"}, "is_reserved": 0, "fusion_lon": 0.0, "fusion_lat": 0.0, "lon": -77.01012333333334, "name": "f3f11be785e9a58b9ebcca1a1c9ad0ce"}, {"bike_id": "73439c1a8f49a9616683d31fc45a74c5", "type": "electric_scooter", "is_disabled": 0, "lat": 38.923630833333334, "rental_uris": {"ios": "https://dc.lft.to/lastmile_qr_scan", "android": "https://dc.lft.to/lastmile_qr_scan"}, "is_reserved": 0, "fusion_lon": 0.0, "fusion_lat": 0.0, "lon": -77.03906333333333, "name": "73439c1a8f49a9616683d31fc45a74c5"}, {"bike_id": "9caadeff7dd3bfddafcdba313c629603", "type": "electric_scooter", "is_disabled": 0, "lat": 38.928654, "rental_uris": {"ios": "https://dc.lft.to/lastmile_qr_scan", "android": "https://dc.lft.to/lastmile_qr_scan"}, "is_reserved": 0, "fusion_lon": 0.0, "fusion_lat": 0.0, "lon": -77.02177666666667, "name": "9caadeff7dd3bfddafcdba313c629603"}, {"bike_id": "07d4eb833e1a6c1f73f1a61a094c9981", "type": "electric_scooter", "is_disabled": 0, "lat": 38.964450666666664, "rental_uris": {"ios": "https://dc.lft.to/lastmile_qr_scan", "android": "https://dc.lft.to/lastmile_qr_scan"}, "is_reserved": 0, "fusion_lon": 0.0, "fusion_lat": 0.0, "lon": -77.02068916666667, "name": "07d4eb833e1a6c1f73f1a61a094c9981"}, {"bike_id": "66410e52f269fdfcdfd0b67ea702c6e8", "type": "electric_scooter", "is_disabled": 0, "lat": 38.952221333333334, "rental_uris": {"ios": "https://dc.lft.to/lastmile_qr_scan", "android": "https://dc.lft.to/lastmile_qr_scan"}, "is_reserved": 0, "fusion_lon": 0.0, "fusion_lat": 0.0, "lon": -77.07066, "name": "66410e52f269fdfcdfd0b67ea702c6e8"}, {"bike_id": "2081e9cf601116f792c8c2e7a1e97491", "type": "electric_scooter", "is_disabled": 0, "lat": 38.89794583333333, "rental_uris": {"ios": "https://dc.lft.to/lastmile_qr_scan", "android": "https://dc.lft.to/lastmile_qr_scan"}, "is_reserved": 0, "fusion_lon": 0.0, "fusion_lat": 0.0, "lon": -77.02198116666666, "name": "2081e9cf601116f792c8c2e7a1e97491"}, {"bike_id": "35a6d34baa5851c7bc7a95a6532dc92f", "type": "electric_scooter", "is_disabled": 0, "lat": 38.90182733333333, "rental_uris": {"ios": "https://dc.lft.to/lastmile_qr_scan", "android": "https://dc.lft.to/lastmile_qr_scan"}, "is_reserved": 0, "fusion_lon": 0.0, "fusion_lat": 0.0, "lon": -77.03937066666667, "name": "35a6d34baa5851c7bc7a95a6532dc92f"}, {"bike_id": "952b4687a717007a9648ef57c03cb334", "type": "electric_scooter", "is_disabled": 0, "lat": 38.974213, "rental_uris": {"ios": "https://dc.lft.to/lastmile_qr_scan", "android": "https://dc.lft.to/lastmile_qr_scan"}, "is_reserved": 0, "fusion_lon": 0.0, "fusion_lat": 0.0, "lon": -77.01272783333333, "name": "952b4687a717007a9648ef57c03cb334"}, {"bike_id": "9e55973adc1fbc6d3a30061341ae061d", "type": "electric_bike", "is_disabled": 0, "lat": 38.946661666666664, "rental_uris": {"ios": "https://dc.lft.to/lastmile_qr_scan", "android": "https://dc.lft.to/lastmile_qr_scan"}, "is_reserved": 0, "fusion_lon": 0.0, "fusion_lat": 0.0, "lon": -76.95667816666666, "name": "9e55973adc1fbc6d3a30061341ae061d"}, {"bike_id": "074bb43167aea2e9cf8dfed2bb9207c2", "type": "electric_scooter", "is_disabled": 0, "lat": 38.90654583333333, "rental_uris": {"ios": "https://dc.lft.to/lastmile_qr_scan", "android": "https://dc.lft.to/lastmile_qr_scan"}, "is_reserved": 0, "fusion_lon": 0.0, "fusion_lat": 0.0, "lon": -77.009769, "name": "074bb43167aea2e9cf8dfed2bb9207c2"}, {"bike_id": "f9cd08d1445ebf05461ac932e8710318", "type": "electric_scooter", "is_disabled": 0, "lat": 38.942017, "rental_uris": {"ios": "https://dc.lft.to/lastmile_qr_scan", "android": "https://dc.lft.to/lastmile_qr_scan"}, "is_reserved": 0, "fusion_lon": 0.0, "fusion_lat": 0.0, "lon": -77.02431966666667, "name": "f9cd08d1445ebf05461ac932e8710318"}, {"bike_id": "128ae41467edf758ea1d7d27b50087b3", "type": "electric_scooter", "is_disabled": 0, "lat": 38.90372, "rental_uris": {"ios": "https://dc.lft.to/lastmile_qr_scan", "android": "https://dc.lft.to/lastmile_qr_scan"}, "is_reserved": 0, "fusion_lon": 0.0, "fusion_lat": 0.0, "lon": -77.02936933333334, "name": "128ae41467edf758ea1d7d27b50087b3"}, {"bike_id": "72fb5833c0b16712a433f539877b8c76", "type": "electric_bike", "is_disabled": 0, "lat": 38.924507, "rental_uris": {"ios": "https://dc.lft.to/lastmile_qr_scan", "android": "https://dc.lft.to/lastmile_qr_scan"}, "is_reserved": 0, "fusion_lon": 0.0, "fusion_lat": 0.0, "lon": -77.22566066666667, "name": "72fb5833c0b16712a433f539877b8c76"}, {"bike_id": "08bfa56bd4f0659a36afa6946a1dbbff", "type": "electric_bike", "is_disabled": 0, "lat": 38.9492465, "rental_uris": {"ios": "https://dc.lft.to/lastmile_qr_scan", "android": "https://dc.lft.to/lastmile_qr_scan"}, "is_reserved": 0, "fusion_lon": 0.0, "fusion_lat": 0.0, "lon": -77.00794566666667, "name": "08bfa56bd4f0659a36afa6946a1dbbff"}, {"bike_id": "e527241b8ab466a82ea188c1e92f0ff5", "type": "electric_scooter", "is_disabled": 0, "lat": 38.914604, "rental_uris": {"ios": "https://dc.lft.to/lastmile_qr_scan", "android": "https://dc.lft.to/lastmile_qr_scan"}, "is_reserved": 0, "fusion_lon": 0.0, "fusion_lat": 0.0, "lon": -77.02285283333333, "name": "e527241b8ab466a82ea188c1e92f0ff5"}, {"bike_id": "a0ae2135339b6db8229a8f970948992e", "type": "electric_scooter", "is_disabled": 0, "lat": 38.92659366666667, "rental_uris": {"ios": "https://dc.lft.to/lastmile_qr_scan", "android": "https://dc.lft.to/lastmile_qr_scan"},