{"data": {"bikes": [{"type": "electric_scooter", "name": "c0bb7740e7696b3551e8d9e044b1c9b3", "rental_uris": {"ios": "https://dc.lft.to/lastmile_qr_scan", "android": "https://dc.lft.to/lastmile_qr_scan"}, "fusion_lon": 0.0, "lat": 38.909638666666666, "is_disabled": 0, "bike_id": "c0bb7740e7696b3551e8d9e044b1c9b3", "fusion_lat": 0.0, "is_reserved": 0, "lon": -77.03319916666666}, {"type": "electric_scooter", "name": "5ab2d20ba19432e38f32d31c8d4b002e", "rental_uris": {"ios": "https://dc.lft.to/lastmile_qr_scan", "android": "https://dc.lft.to/lastmile_qr_scan"}, "fusion_lon": 0.0, "lat": 38.9175685, "is_disabled": 0, "bike_id": "5ab2d20ba19432e38f32d31c8d4b002e", "fusion_lat": 0.0, "is_reserved": 0, "lon": -77.01216533333333}, {"type": "electric_scooter", "name": "487eafa2c42e57a78c4f1a3ac3c29973", "rental_uris": {"ios": "https://dc.lft.to/lastmile_qr_scan", "android": "https://dc.lft.to/lastmile_qr_scan"}, "fusion_lon": 0.0, "lat": 38.91715266666667, "is_disabled": 0, "bike_id": "487eafa2c42e57a78c4f1a3ac3c29973", "fusion_lat": 0.0, "is_reserved": 0, "lon": -77.038688}, {"type": "electric_scooter", "name": "50c3d834c425c24da31d2f6c020e83f5", "rental_uris": {"ios": "https://dc.lft.to/lastmile_qr_scan", "android": "https://dc.lft.to/lastmile_qr_scan"}, "fusion_lon": 0.0, "lat": 38.915675666666665, "is_disabled": 0, "bike_id": "50c3d834c425c24da31d2f6c020e83f5", "fusion_lat": 0.0, "is_reserved": 0, "lon": -77.02126383333334}, {"type": "electric_scooter", "name": "6d6aba4d915a4c6ba30e458c35fc08c4", "rental_uris": {"ios": "https://dc.lft.to/lastmile_qr_scan", "android": "https://dc.lft.to/lastmile_qr_scan"}, "fusion_lon": 0.0, "lat": 38.89222783333334, "is_disabled": 0, "bike_id": "6d6aba4d915a4c6ba30e458c35fc08c4", "fusion_lat": 0.0, "is_reserved": 0, "lon": -77.04771483333333}, {"type": "electric_scooter", "name": "9eb8588c47d33e7008f831d868c06f3b", "rental_uris": {"ios": "https://dc.lft.to/lastmile_qr_scan", "android": "https://dc.lft.to/lastmile_qr_scan"}, "fusion_lon": 0.0, "lat": 38.88608383333333, "is_disabled": 0, "bike_id": "9eb8588c47d33e7008f831d868c06f3b", "fusion_lat": 0.0, "is_reserved": 0, "lon": -77.03212483333333}, {"type": "electric_scooter", "name": "64f553e079df0d3d329283f4b64562ee", "rental_uris": {"ios": "https://dc.lft.to/lastmile_qr_scan", "android": "https://dc.lft.to/lastmile_qr_scan"}, "fusion_lon": 0.0, "lat": 38.90729866666667, "is_disabled": 0, "bike_id": "64f553e079df0d3d329283f4b64562ee", "fusion_lat": 0.0, "is_reserved": 0, "lon": -77.02989166666667}, {"type": "electric_scooter", "name": "b79571c38acbe9c535222da06b8952a6", "rental_uris": {"ios": "https://dc.lft.to/lastmile_qr_scan", "android": "https://dc.lft.to/lastmile_qr_scan"}, "fusion_lon": 0.0, "lat": 38.918424, "is_disabled": 0, "bike_id": "b79571c38acbe9c535222da06b8952a6", "fusion_lat": 0.0, "is_reserved": 0, "lon": -77.02314383333334}, {"type": "electric_scooter", "name": "45363be106e6ccc4d27928d28529f6f9", "rental_uris": {"ios": "https://dc.lft.to/lastmile_qr_scan", "android": "https://dc.lft.to/lastmile_qr_scan"}, "fusion_lon": 0.0, "lat": 38.88735116666667, "is_disabled": 0, "bike_id": "45363be106e6ccc4d27928d28529f6f9", "fusion_lat": 0.0, "is_reserved": 0, "lon": -77.02585683333334}, {"type": "electric_scooter", "name": "3d47e1a16922c333affcf81c29464a77", "rental_uris": {"ios": "https://dc.lft.to/lastmile_qr_scan", "android": "https://dc.lft.to/lastmile_qr_scan"}, "fusion_lon": 0.0, "lat": 38.924653, "is_disabled": 0, "bike_id": "3d47e1a16922c333affcf81c29464a77", "fusion_lat": 0.0, "is_reserved": 0, "lon": -77.05231433333333}, {"type": "electric_scooter", "name": "f5363a14368836fa5cda608491181126", "rental_uris": {"ios": "https://dc.lft.to/lastmile_qr_scan", "android": "https://dc.lft.to/lastmile_qr_scan"}, "fusion_lon": 0.0, "lat": 38.923808, "is_disabled": 0, "bike_id": "f5363a14368836fa5cda608491181126", "fusion_lat": 0.0, "is_reserved": 0, "lon": -77.01980983333333}, {"type": "electric_bike", "name": "dd6d31a9b5bc7f7cf16b68052595a5cb", "rental_uris": {"ios": "https://dc.lft.to/lastmile_qr_scan", "android": "https://dc.lft.to/lastmile_qr_scan"}, "fusion_lon": 0.0, "lat": 38.839412833333334, "is_disabled": 0, "bike_id": "dd6d31a9b5bc7f7cf16b68052595a5cb", "fusion_lat": 0.0, "is_reserved": 0, "lon": -77.0790705}, {"type": "electric_bike", "name": "50673a4d5d272ac08a45284417a8fce6", "rental_uris": {"ios": "https://dc.lft.to/lastmile_qr_scan", "android": "https://dc.lft.to/lastmile_qr_scan"}, "fusion_lon": 0.0, "lat": 38.954865166666664, "is_disabled": 0, "bike_id": "50673a4d5d272ac08a45284417a8fce6", "fusion_lat": 0.0, "is_reserved": 0, "lon": -77.02669916666666}, {"type": "electric_scooter", "name": "1ce9e95b7dfcf0411906272cc3c0d946", "rental_uris": {"ios": "https://dc.lft.to/lastmile_qr_scan", "android": "https://dc.lft.to/lastmile_qr_scan"}, "fusion_lon": 0.0, "lat": 38.897527333333336, "is_disabled": 0, "bike_id": "1ce9e95b7dfcf0411906272cc3c0d946", "fusion_lat": 0.0, "is_reserved": 0, "lon": -77.03245016666666}, {"type": "electric_scooter", "name": "f45d24610bbed5a92c2c40fbad4024db", "rental_uris": {"ios": "https://dc.lft.to/lastmile_qr_scan", "android": "https://dc.lft.to/lastmile_qr_scan"}, "fusion_lon": 0.0, "lat": 38.9072775, "is_disabled": 0, "bike_id": "f45d24610bbed5a92c2c40fbad4024db", "fusion_lat": 0.0, "is_reserved": 0, "lon": -76.99767616666666}, {"type": "electric_bike", "name": "31a2a53010ef80e32c4fbd8574a69a95", "rental_uris": {"ios": "https://dc.lft.to/lastmile_qr_scan", "android": "https://dc.lft.to/lastmile_qr_scan"}, "fusion_lon": 0.0, "lat": 38.97882283333333, "is_disabled": 0, "bike_id": "31a2a53010ef80e32c4fbd8574a69a95", "fusion_lat": 0.0, "is_reserved": 0, "lon": -77.06031233333333}, {"type": "electric_scooter", "name": "154ad1f773fd58479e2a9523fd84006c", "rental_uris": {"ios": "https://dc.lft.to/lastmile_qr_scan", "android": "https://dc.lft.to/lastmile_qr_scan"}, "fusion_lon": 0.0, "lat": 38.92603033333333, "is_disabled": 0, "bike_id": "154ad1f773fd58479e2a9523fd84006c", "fusion_lat": 0.0, "is_reserved": 0, "lon": -77.0238835}, {"type": "electric_scooter", "name": "3f2852422c31f64a8b8de16490037291", "rental_uris": {"ios": "https://dc.lft.to/lastmile_qr_scan", "android": "https://dc.lft.to/lastmile_qr_scan"}, "fusion_lon": 0.0, "lat": 38.937014833333336, "is_disabled": 0, "bike_id": "3f2852422c31f64a8b8de16490037291", "fusion_lat": 0.0, "is_reserved": 0, "lon": -77.05599333333333}, {"type": "electric_scooter", "name": "437e9336eda77bafd7df8664d187021a", "rental_uris": {"ios": "https://dc.lft.to/lastmile_qr_scan", "android": "https://dc.lft.to/lastmile_qr_scan"}, "fusion_lon": 0.0, "lat": 38.89952616666667, "is_disabled": 0, "bike_id": "437e9336eda77bafd7df8664d187021a", "fusion_lat": 0.0, "is_reserved": 0, "lon": -76.98162016666667}, {"type": "electric_scooter", "name": "3ae9c72346a08cc81f5f16e6a5be1faf", "rental_uris": {"ios": "https://dc.lft.to/lastmile_qr_scan", "android": "https://dc.lft.to/lastmile_qr_scan"}, "fusion_lon": 0.0, "lat": 38.92384416666667, "is_disabled": 0, "bike_id": "3ae9c72346a08cc81f5f16e6a5be1faf", "fusion_lat": 0.0, "is_reserved": 0, "lon": -77.0309385}, {"type": "electric_bike", "name": "4fc957e095710d34fb3608f222dae9a2", "rental_uris": {"ios": "https://dc.lft.to/lastmile_qr_scan", "android": "https://dc.lft.to/lastmile_qr_scan"}, "fusion_lon": 0.0, "lat": 38.79703333333333, "is_disabled": 0, "bike_id": "4fc957e095710d34fb3608f222dae9a2", "fusion_lat": 0.0, "is_reserved": 0, "lon": -77.00369483333333}, {"type": "electric_scooter", "name": "99249a1a204651dff19ef07985b239d4", "rental_uris": {"ios": "https://dc.lft.to/lastmile_qr_scan", "android": "https://dc.lft.to/lastmile_qr_scan"}, "fusion_lon": 0.0, "lat": 38.922192333333335, "is_disabled": 0, "bike_id": "99249a1a204651dff19ef07985b239d4", "fusion_lat": 0.0, "is_reserved": 0, "lon": -77.0424465}, {"type": "electric_scooter", "name": "6548504fb1824bbe768edbcf86db2ff4", "rental_uris": {"ios": "https://dc.lft.to/lastmile_qr_scan", "android": "https://dc.lft.to/lastmile_qr_scan"}, "fusion_lon": 0.0, "lat": 38.93056683333333, "is_disabled": 0, "bike_id": "6548504fb1824bbe768edbcf86db2ff4", "fusion_lat": 0.0, "is_reserved": 0, "lon": -77.01859616666667}, {"type": "electric_scooter", "name": "282930979b66882c2e3b7dbed97a341f", "rental_uris": {"ios": "https://dc.lft.to/lastmile_qr_scan", "android": "https://dc.lft.to/lastmile_qr_scan"}, "fusion_lon": 0.0, "lat": 38.92446316666667, "is_disabled": 0, "bike_id": "282930979b66882c2e3b7dbed97a341f", "fusion_lat": 0.0, "is_reserved": 0, "lon": -77.0215205}, {"type": "electric_scooter", "name": "31ccef9205f5691abc025e410cbbc78b", "rental_uris": {"ios": "https://dc.lft.to/lastmile_qr_scan", "android": "https://dc.lft.to/lastmile_qr_scan"}, "fusion_lon": 0.0, "lat": 38.8841775, "is_disabled": 0, "bike_id": "31ccef9205f5691abc025e410cbbc78b", "fusion_lat": 0.0, "is_reserved": 0, "lon": -76.95760616666666}, {"type": "electric_scooter", "name": "f84af9e0d72ff5eb0e892157348de371", "rental_uris": {"ios": "https://dc.lft.to/lastmile_qr_scan", "android": "https://dc.lft.to/lastmile_qr_scan"}, "fusion_lon": 0.0, "lat": 38.9184955, "is_disabled": 0, "bike_id": "f84af9e0d72ff5eb0e892157348de371", "fusion_lat": 0.0, "is_reserved": 0, "lon": -77.02592016666667}, {"type": "electric_scooter", "name": "27d69563ca5a2bc99f55be8412375852", "rental_uris": {"ios": "https://dc.lft.to/lastmile_qr_scan", "android": "https://dc.lft.to/lastmile_qr_scan"}, "fusion_lon": 0.0, "lat": 38.92788016666667, "is_disabled": 0, "bike_id": "27d69563ca5a2bc99f55be8412375852", "fusion_lat": 0.0, "is_reserved": 0, "lon": -77.0209925}, {"type": "electric_scooter", "name": "40ed2897db0e17999917e93fcd943b7e", "rental_uris": {"ios": "https://dc.lft.to/lastmile_qr_scan", "android": "https://dc.lft.to/lastmile_qr_scan"}, "fusion_lon": 0.0, "lat": 38.916297666666665, "is_disabled": 0, "bike_id": "40ed2897db0e17999917e93fcd943b7e", "fusion_lat": 0.0, "is_reserved": 0, "lon": -77.03181016666667}, {"type": "electric_scooter", "name": "4361b12b16ab6237c411c9f0badb6618", "rental_uris": {"ios": "https://dc.lft.to/lastmile_qr_scan", "android": "https://dc.lft.to/lastmile_qr_scan"}, "fusion_lon": 0.0, "lat": 38.88728783333333, "is_disabled": 0, "bike_id": "4361b12b16ab6237c411c9f0badb6618", "fusion_lat": 0.0, "is_reserved": 0, "lon": -76.99686183333333}, {"type": "electric_scooter", "name": "994a98d357dc6bf70ab4956b26484397", "rental_uris": {"ios": "https://dc.lft.to/lastmile_qr_scan", "android": "https://dc.lft.to/lastmile_qr_scan"}, "fusion_lon": 0.0, "lat": 38.865566, "is_disabled": 0, "bike_id": "994a98d357dc6bf70ab4956b26484397", "fusion_lat": 0.0, "is_reserved": 0, "lon": -76.97859416666667}, {"type": "electric_scooter", "name": "075d5947984126d901bb0c98158fc0b4", "rental_uris": {"ios": "https://dc.lft.to/lastmile_qr_scan", "android": "https://dc.lft.to/lastmile_qr_scan"}, "fusion_lon": 0.0, "lat": 38.91696316666667, "is_disabled": 0, "bike_id": "075d5947984126d901bb0c98158fc0b4", "fusion_lat": 0.0, "is_reserved": 0, "lon": -77.03723116666667}, {"type": "electric_scooter", "name": "eb25251f507ec2a8742acf2f6b4f6e1c", "rental_uris": {"ios": "https://dc.lft.to/lastmile_qr_scan", "android": "https://dc.lft.to/lastmile_qr_scan"}, "fusion_lon": 0.0, "lat": 38.9038475, "is_disabled": 0, "bike_id": "eb25251f507ec2a8742acf2f6b4f6e1c", "fusion_lat": 0.0, "is_reserved": 0, "lon": -77.016427}, {"type": "electric_scooter", "name": "c76916a7dfe3b8c4f3ff257bbcb0ad70", "rental_uris": {"ios": "https://dc.lft.to/lastmile_qr_scan", "android": "https://dc.lft.to/lastmile_qr_scan"}, "fusion_lon": 0.0, "lat": 38.88403266666667, "is_disabled": 0, "bike_id": "c76916a7dfe3b8c4f3ff257bbcb0ad70", "fusion_lat": 0.0, "is_reserved": 0, "lon": -76.98615716666667}, {"type": "electric_scooter", "name": "2997c0db487d2716bcb177fa942acd82", "rental_uris": {"ios": "https://dc.lft.to/lastmile_qr_scan", "android": "https://dc.lft.to/lastmile_qr_scan"}, "fusion_lon": 0.0, "lat": 38.924425666666664, "is_disabled": 0, "bike_id": "2997c0db487d2716bcb177fa942acd82", "fusion_lat": 0.0, "is_reserved": 0, "lon": -77.03404566666667}, {"type": "electric_scooter", "name": "9c0cc1a568a7a08034e81d187a162200", "rental_uris": {"ios": "https://dc.lft.to/lastmile_qr_scan", "android": "https://dc.lft.to/lastmile_qr_scan"}, "fusion_lon": 0.0, "lat": 38.89726616666667, "is_disabled": 0, "bike_id": "9c0cc1a568a7a08034e81d187a162200", "fusion_lat": 0.0, "is_reserved": 0, "lon": -77.04630666666667}, {"type": "electric_scooter", "name": "8ab177e47f4238ec8f39218fe77a0223", "rental_uris": {"ios": "https://dc.lft.to/lastmile_qr_scan", "android": "https://dc.lft.to/lastmile_qr_scan"}, "fusion_lon": 0.0, "lat": 38.902812, "is_disabled": 0, "bike_id": "8ab177e47f4238ec8f39218fe77a0223", "fusion_lat": 0.0, "is_reserved": 0, "lon": -77.0381825}, {"type": "electric_scooter", "name": "24c464b0d81afb717637067c90b62f6b", "rental_uris": {"ios": "https://dc.lft.to/lastmile_qr_scan", "android": "https://dc.lft.to/lastmile_qr_scan"}, "fusion_lon": 0.0, "lat": 38.91814883333333, "is_disabled": 0, "bike_id": "24c464b0d81afb717637067c90b62f6b", "fusion_lat": 0.0, "is_reserved": 0, "lon": -77.037199}, {"type": "electric_bike", "name": "0bf3abb2f6d51ede64b779de3aa94326", "rental_uris": {"ios": "https://dc.lft.to/lastmile_qr_scan", "android": "https://dc.lft.to/lastmile_qr_scan"}, "fusion_lon": 0.0, "lat": 38.93566633333333, "is_disabled": 0, "bike_id": "0bf3abb2f6d51ede64b779de3aa94326", "fusion_lat": 0.0, "is_reserved": 0, "lon": -77.037038}, {"type": "electric_scooter", "name": "ec213c29fb6ed2def9367202954d5ab4", "rental_uris": {"ios": "https://dc.lft.to/lastmile_qr_scan", "android": "https://dc.lft.to/lastmile_qr_scan"}, "fusion_lon": 0.0, "lat": 38.935389666666666, "is_disabled": 0, "bike_id": "ec213c29fb6ed2def9367202954d5ab4", "fusion_lat": 0.0, "is_reserved": 0, "lon": -77.02353483333333}, {"type": "electric_scooter", "name": "4a21cd0372f6d79ebdb77e16301c7c7e", "rental_uris": {"ios": "https://dc.lft.to/lastmile_qr_scan", "android": "https://dc.lft.to/lastmile_qr_scan"}, "fusion_lon": 0.0, "lat": 38.87901266666667, "is_disabled": 0, "bike_id": "4a21cd0372f6d79ebdb77e16301c7c7e", "fusion_lat": 0.0, "is_reserved": 0, "lon": -77.01363766666667}, {"type": "electric_scooter", "name": "dfd64d10b279fbee64b1400675cd3bb8", "rental_uris": {"ios": "https://dc.lft.to/lastmile_qr_scan", "android": "https://dc.lft.to/lastmile_qr_scan"}, "fusion_lon": 0.0, "lat": 38.90267083333333, "is_disabled": 0, "bike_id": "dfd64d10b279fbee64b1400675cd3bb8", "fusion_lat": 0.0, "is_reserved": 0, "lon": -77.01765983333334}, {"type": "electric_scooter", "name": "d594184a7930fc5e578d98bd2874c6ae", "rental_uris": {"ios": "https://dc.lft.to/lastmile_qr_scan", "android": "https://dc.lft.to/lastmile_qr_scan"}, "fusion_lon": 0.0, "lat": 38.92964766666667, "is_disabled": 0, "bike_id": "d594184a7930fc5e578d98bd2874c6ae", "fusion_lat": 0.0, "is_reserved": 0, "lon": -77.03101616666666}, {"type": "electric_scooter", "name": "358d46509185d22ea8ae07c910f9d312", "rental_uris": {"ios": "https://dc.lft.to/lastmile_qr_scan", "android": "https://dc.lft.to/lastmile_qr_scan"}, "fusion_lon": 0.0, "lat": 38.937386333333336, "is_disabled": 0, "bike_id": "358d46509185d22ea8ae07c910f9d312", "fusion_lat": 0.0, "is_reserved": 0, "lon": -77.032684}, {"type": "electric_scooter", "name": "3761f73450947046f70e6653ddc0f0ca", "rental_uris": {"ios": "https://dc.lft.to/lastmile_qr_scan", "android": "https://dc.lft.to/lastmile_qr_scan"}, "fusion_lon": 0.0, "lat": 38.92441566666667, "is_disabled": 0, "bike_id": "3761f73450947046f70e6653ddc0f0ca", "fusion_lat": 0.0, "is_reserved": 0, "lon": -77.0520915}, {"type": "electric_scooter", "name": "cb245eee4837b44bc22210783c089917", "rental_uris": {"ios": "https://dc.lft.to/lastmile_qr_scan", "android": "https://dc.lft.to/lastmile_qr_scan"}, "fusion_lon": 0.0, "lat": 38.934285, "is_disabled": 0, "bike_id": "cb245eee4837b44bc22210783c089917", "fusion_lat": 0.0, "is_reserved": 0, "lon": -77.03998916666667}, {"type": "electric_scooter", "name": "4defa5b38890b6fd3cc32f54842b86b8", "rental_uris": {"ios": "https://dc.lft.to/lastmile_qr_scan", "android": "https://dc.lft.to/lastmile_qr_scan"}, "fusion_lon": 0.0, "lat": 38.9723835, "is_disabled": 0, "bike_id": "4defa5b38890b6fd3cc32f54842b86b8", "fusion_lat": 0.0, "is_reserved": 0, "lon": -77.02712716666667}, {"type": "electric_scooter", "name": "921e44767bca63f53f21e0817b164459", "rental_uris": {"ios": "https://dc.lft.to/lastmile_qr_scan", "android": "https://dc.lft.to/lastmile_qr_scan"}, "fusion_lon": 0.0, "lat": 38.91986766666667, "is_disabled": 0, "bike_id": "921e44767bca63f53f21e0817b164459", "fusion_lat": 0.0, "is_reserved": 0, "lon": -76.973128}, {"type": "electric_scooter", "name": "eb88e6a78776cf99b13b8f73e870e452", "rental_uris": {"ios": "https://dc.lft.to/lastmile_qr_scan", "android": "https://dc.lft.to/lastmile_qr_scan"}, "fusion_lon": 0.0, "lat": 38.917158, "is_disabled": 0, "bike_id": "eb88e6a78776cf99b13b8f73e870e452", "fusion_lat": 0.0, "is_reserved": 0, "lon": -77.04159333333334}, {"type": "electric_scooter", "name": "adba92f18e6514496127e6d71beb1300", "rental_uris": {"ios": "https://dc.lft.to/lastmile_qr_scan", "android": "https://dc.lft.to/lastmile_qr_scan"}, "fusion_lon": 0.0, "lat": 38.90405666666667, "is_disabled": 0, "bike_id": "adba92f18e6514496127e6d71beb1300", "fusion_lat": 0.0, "is_reserved": 0, "lon": -76.9846235}, {"type": "electric_scooter", "name": "1d456cfced46f651140d01fccd469490", "rental_uris": {"ios": "https://dc.lft.to/lastmile_qr_scan", "android": "https://dc.lft.to/lastmile_qr_scan"}, "fusion_lon": 0.0, "lat": 38.92138966666667, "is_disabled": 0, "bike_id": "1d456cfced46f651140d01fccd469490", "fusion_lat": 0.0, "is_reserved": 0, "lon": -77.01920666666666}, {"type": "electric_scooter", "name": "6dde046df0634ea088f1b14667ad82ab", "rental_uris": {"ios": "https://dc.lft.to/lastmile_qr_scan", "android": "https://dc.lft.to/lastmile_qr_scan"}, "fusion_lon": 0.0, "lat": 38.91992833333333, "is_disabled": 0, "bike_id": "6dde046df0634ea088f1b14667ad82ab", "fusion_lat": 0.0, "is_reserved": 0, "lon": -77.0178635}, {"type": "electric_scooter", "name": "c9baa1780f4a4b27c9237f0f26bbe06e", "rental_uris": {"ios": "https://dc.lft.to/lastmile_qr_scan", "android": "https://dc.lft.to/lastmile_qr_scan"}, "fusion_lon": 0.0, "lat": 38.904343833333336, "is_disabled": 0, "bike_id": "c9baa1780f4a4b27c9237f0f26bbe06e", "fusion_lat": 0.0, "is_reserved": 0, "lon": -77.04368533333333}, {"type": "electric_scooter", "name": "611c31e47163283a52566e11388e1351", "rental_uris": {"ios": "https://dc.lft.to/lastmile_qr_scan", "android": "https://dc.lft.to/lastmile_qr_scan"}, "fusion_lon": 0.0, "lat": 38.88179383333333, "is_disabled": 0, "bike_id": "611c31e47163283a52566e11388e1351", "fusion_lat": 0.0, "is_reserved": 0, "lon": -76.95898216666667}, {"type": "electric_scooter", "name": "0687fa1d6e533ecafe40c26b11194991", "rental_uris": {"ios": "https://dc.lft.to/lastmile_qr_scan", "android": "https://dc.lft.to/lastmile_qr_scan"}, "fusion_lon": 0.0, "lat": 38.9318565, "is_disabled": 0, "bike_id": "0687fa1d6e533ecafe40c26b11194991", "fusion_lat": 0.0, "is_reserved": 0, "lon": -77.04303}, {"type": "electric_scooter", "name": "1ce452fdfd137293e750c94dc742254b", "rental_uris": {"ios": "https://dc.lft.to/lastmile_qr_scan", "android": "https://dc.lft.to/lastmile_qr_scan"}, "fusion_lon": 0.0, "lat": 38.9361205, "is_disabled": 0, "bike_id": "1ce452fdfd137293e750c94dc742254b", "fusion_lat": 0.0, "is_reserved": 0, "lon": -77.03789333333333}, {"type": "electric_scooter", "name": "ddc42ddd237c4f02a9d64dd8c995848e", "rental_uris": {"ios": "https://dc.lft.to/lastmile_qr_scan", "android": "https://dc.lft.to/lastmile_qr_scan"}, "fusion_lon": 0.0, "lat": 38.89791366666667, "is_disabled": 0, "bike_id": "ddc42ddd237c4f02a9d64dd8c995848e", "fusion_lat": 0.0, "is_reserved": 0, "lon": -77.02729816666667}, {"type": "electric_scooter", "name": "9ce6ff02ff6b0b8820d0918247ddbde4", "rental_uris": {"ios": "https://dc.lft.to/lastmile_qr_scan", "android": "https://dc.lft.to/lastmile_qr_scan"}, "fusion_lon": 0.0, "lat": 38.93200083333333, "is_disabled": 0, "bike_id": "9ce6ff02ff6b0b8820d0918247ddbde4", "fusion_lat": 0.0, "is_reserved": 0, "lon": -77.02354316666667}, {"type": "electric_scooter", "name": "f01c643f4ccd39f65215deb89942bcc3", "rental_uris": {"ios": "https://dc.lft.to/lastmile_qr_scan", "android": "https://dc.lft.to/lastmile_qr_scan"}, "fusion_lon": 0.0, "lat": 38.86685933333333, "is_disabled": 0, "bike_id": "f01c643f4ccd39f65215deb89942bcc3", "fusion_lat": 0.0, "is_reserved": 0, "lon": -76.9856725}, {"type": "electric_scooter", "name": "15cc993e9df57b488e88816ebcf895be", "rental_uris": {"ios": "https://dc.lft.to/lastmile_qr_scan", "android": "https://dc.lft.to/lastmile_qr_scan"}, "fusion_lon": 0.0, "lat": 38.87686016666667, "is_disabled": 0, "bike_id": "15cc993e9df57b488e88816ebcf895be", "fusion_lat": 0.0, "is_reserved": 0, "lon": -77.007371}, {"type": "electric_scooter", "name": "50b54cce2605f31344e20ec37ca24fec", "rental_uris": {"ios": "https://dc.lft.to/lastmile_qr_scan", "android": "https://dc.lft.to/lastmile_qr_scan"}, "fusion_lon": 0.0, "lat": 38.899751, "is_disabled": 0, "bike_id": "50b54cce2605f31344e20ec37ca24fec", "fusion_lat": 0.0, "is_reserved": 0, "lon": -77.009261}, {"type": "electric_scooter", "name": "19d6063eebe093a9b2d4106b175cafc0", "rental_uris": {"ios": "https://dc.lft.to/lastmile_qr_scan", "android": "https://dc.lft.to/lastmile_qr_scan"}, "fusion_lon": 0.0, "lat": 38.909613, "is_disabled": 0, "bike_id": "19d6063eebe093a9b2d4106b175cafc0", "fusion_lat": 0.0, "is_reserved": 0, "lon": -77.022789}, {"type": "electric_scooter", "name": "ccfaaa40f1997d64a0251c43d44f8527", "rental_uris": {"ios": "https://dc.lft.to/lastmile_qr_scan", "android": "https://dc.lft.to/lastmile_qr_scan"}, "fusion_lon": 0.0, "lat": 38.921578333333336, "is_disabled": 0, "bike_id": "ccfaaa40f1997d64a0251c43d44f8527", "fusion_lat": 0.0, "is_reserved": 0, "lon": -77.0331665}, {"type": "electric_scooter", "name": "37163a6a72c3e72b488d03b0af71f659", "rental_uris": {"ios": "https://dc.lft.to/lastmile_qr_scan", "android": "https://dc.lft.to/lastmile_qr_scan"}, "fusion_lon": 0.0, "lat": 38.9143055, "is_disabled": 0, "bike_id": "37163a6a72c3e72b488d03b0af71f659", "fusion_lat": 0.0, "is_reserved": 0, "lon": -77.0642405}, {"type": "electric_scooter", "name": "4da0857fddab0b766c93ef4a0d80d32c", "rental_uris": {"ios": "https://dc.lft.to/lastmile_qr_scan", "android": "https://dc.lft.to/lastmile_qr_scan"}, "fusion_lon": 0.0, "lat": 38.8955975, "is_disabled": 0, "bike_id": "4da0857fddab0b766c93ef4a0d80d32c", "fusion_lat": 0.0, "is_reserved": 0, "lon": -76.99844916666666}, {"type": "electric_scooter", "name": "cfb795df026ece698b47f9aabb70459a", "rental_uris": {"ios": "https://dc.lft.to/lastmile_qr_scan", "android": "https://dc.lft.to/lastmile_qr_scan"}, "fusion_lon": 0.0, "lat": 38.9015485, "is_disabled": 0, "bike_id": "cfb795df026ece698b47f9aabb70459a", "fusion_lat": 0.0, "is_reserved": 0, "lon": -77.04634383333334}, {"type": "electric_bike", "name": "1eb33456e5b19cb1593c7b0f57cf7734", "rental_uris": {"ios": "https://dc.lft.to/lastmile_qr_scan", "android": "https://dc.lft.to/lastmile_qr_scan"}, "fusion_lon": 0.0, "lat": 38.98504116666667, "is_disabled": 0, "bike_id": "1eb33456e5b19cb1593c7b0f57cf7734", "fusion_lat": 0.0, "is_reserved": 0, "lon": -76.98195566666666}, {"type": "electric_scooter", "name": "cdd02d7fcfbb404a31c5b133921ec280", "rental_uris": {"ios": "https://dc.lft.to/lastmile_qr_scan", "android": "https://dc.lft.to/lastmile_qr_scan"}, "fusion_lon": 0.0, "lat": 38.91470533333333, "is_disabled": 0, "bike_id": "cdd02d7fcfbb404a31c5b133921ec280", "fusion_lat": 0.0, "is_reserved": 0, "lon": -77.02967233333334}, {"type": "electric_scooter", "name": "0d60e936b3ad3a542f86481b60e83782", "rental_uris": {"ios": "https://dc.lft.to/lastmile_qr_scan", "android": "https://dc.lft.to/lastmile_qr_scan"}, "fusion_lon": 0.0, "lat": 38.88494883333333, "is_disabled": 0, "bike_id": "0d60e936b3ad3a542f86481b60e83782", "fusion_lat": 0.0, "is_reserved": 0, "lon": -77.00733483333333}, {"type": "electric_scooter", "name": "49c35f5ce91fcc3854e7fee4d89f50a0", "rental_uris": {"ios": "https://dc.lft.to/lastmile_qr_scan", "android": "https://dc.lft.to/lastmile_qr_scan"}, "fusion_lon": 0.0, "lat": 38.88516883333333, "is_disabled": 0, "bike_id": "49c35f5ce91fcc3854e7fee4d89f50a0", "fusion_lat": 0.0, "is_reserved": 0, "lon": -77.0151005}, {"type": "electric_scooter", "name": "8794cdd3ef71b0c65fe60c89ea81b90a", "rental_uris": {"ios": "https://dc.lft.to/lastmile_qr_scan", "android": "https://dc.lft.to/lastmile_qr_scan"}, "fusion_lon": 0.0, "lat": 38.903167833333335, "is_disabled": 0, "bike_id": "8794cdd3ef71b0c65fe60c89ea81b90a", "fusion_lat": 0.0, "is_reserved": 0, "lon": -77.024942}, {"type": "electric_scooter", "name": "f5d9716aa0451545db422e6f64a62ad0", "rental_uris": {"ios": "https://dc.lft.to/lastmile_qr_scan", "android": "https://dc.lft.to/lastmile_qr_scan"}, "fusion_lon": 0.0, "lat": 38.874612666666664, "is_disabled": 0, "bike_id": "f5d9716aa0451545db422e6f64a62ad0", "fusion_lat": 0.0, "is_reserved": 0, "lon": -77.00968116666667}, {"type": "electric_scooter", "name": "585a73367f3dbb53f7b213325fea7372", "rental_uris": {"ios": "https://dc.lft.to/lastmile_qr_scan", "android": "https://dc.lft.to/lastmile_qr_scan"}, "fusion_lon": 0.0, "lat": 38.93842766666667, "is_disabled": 0, "bike_id": "585a73367f3dbb53f7b213325fea7372", "fusion_lat": 0.0, "is_reserved": 0, "lon": -77.03378566666666}, {"type": "electric_scooter", "name": "42796291328b9e4be8fca67cd5e4980b", "rental_uris": {"ios": "https://dc.lft.to/lastmile_qr_scan", "android": "https://dc.lft.to/lastmile_qr_scan"}, "fusion_lon": 0.0, "lat": 38.8606635, "is_disabled": 0, "bike_id": "42796291328b9e4be8fca67cd5e4980b", "fusion_lat": 0.0, "is_reserved": 0, "lon": -76.9850105}, {"type": "electric_scooter", "name": "c33d517f71316a3ea171849763c3945b", "rental_uris": {"ios": "https://dc.lft.to/lastmile_qr_scan", "android": "https://dc.lft.to/lastmile_qr_scan"}, "fusion_lon": 0.0, "lat": 38.928729833333335, "is_disabled": 0, "bike_id": "c33d517f71316a3ea171849763c3945b", "fusion_lat": 0.0, "is_reserved": 0, "lon": -77.03304383333334}, {"type": "electric_scooter", "name": "31d6b94c7fd10a7f2fa3e4b83505e4d4", "rental_uris": {"ios": "https://dc.lft.to/lastmile_qr_scan", "android": "https://dc.lft.to/lastmile_qr_scan"}, "fusion_lon": 0.0, "lat": 38.91767983333333, "is_disabled": 0, "bike_id": "31d6b94c7fd10a7f2fa3e4b83505e4d4", "fusion_lat": 0.0, "is_reserved": 0, "lon": -77.01222216666666}, {"type": "electric_scooter", "name": "8942521bb117e08defaec52d4849e30b", "rental_uris": {"ios": "https://dc.lft.to/lastmile_qr_scan", "android": "https://dc.lft.to/lastmile_qr_scan"}, "fusion_lon": 0.0, "lat": 38.904545166666665, "is_disabled": 0, "bike_id": "8942521bb117e08defaec52d4849e30b", "fusion_lat": 0.0, "is_reserved": 0, "lon": -76.9961885}, {"type": "electric_scooter", "name": "8c74fba15ed2d11260e81df50560657c", "rental_uris": {"ios": "https://dc.lft.to/lastmile_qr_scan", "android": "https://dc.lft.to/lastmile_qr_scan"}, "fusion_lon": 0.0, "lat": 38.887495666666666, "is_disabled": 0, "bike_id": "8c74fba15ed2d11260e81df50560657c", "fusion_lat": 0.0, "is_reserved": 0, "lon": -77.01728266666667}, {"type": "electric_scooter", "name": "9e12bfa6c7c0026e4b4dd2fbc276a00c", "rental_uris": {"ios": "https://dc.lft.to/lastmile_qr_scan", "android": "https://dc.lft.to/lastmile_qr_scan"}, "fusion_lon": 0.0, "lat": 38.9172015, "is_disabled": 0, "bike_id": "9e12bfa6c7c0026e4b4dd2fbc276a00c", "fusion_lat": 0.0, "is_reserved": 0, "lon": -77.04159133333333}, {"type": "electric_scooter", "name": "2ed0aab5ca4cd68d0a51cfee4fad972e", "rental_uris": {"ios": "https://dc.lft.to/lastmile_qr_scan", "android": "https://dc.lft.to/lastmile_qr_scan"}, "fusion_lon": 0.0, "lat": 38.924217666666664, "is_disabled": 0, "bike_id": "2ed0aab5ca4cd68d0a51cfee4fad972e", "fusion_lat": 0.0, "is_reserved": 0, "lon": -77.05172683333333}, {"type": "electric_scooter", "name": "970e1fe72bd31ad7aaeddab23ced0f92", "rental_uris": {"ios": "https://dc.lft.to/lastmile_qr_scan", "android": "https://dc.lft.to/lastmile_qr_scan"}, "fusion_lon": 0.0, "lat": 38.884903, "is_disabled": 0, "bike_id": "970e1fe72bd31ad7aaeddab23ced0f92", "fusion_lat": 0.0, "is_reserved": 0, "lon": -77.00711466666667}, {"type": "electric_scooter", "name": "9e4ba49599ac37af8aea49f211b1acce", "rental_uris": {"ios": "https://dc.lft.to/lastmile_qr_scan", "android": "https://dc.lft.to/lastmile_qr_scan"}, "fusion_lon": 0.0, "lat": 38.883962333333336, "is_disabled": 0, "bike_id": "9e4ba49599ac37af8aea49f211b1acce", "fusion_lat": 0.0, "is_reserved": 0, "lon": -76.985842}, {"type": "electric_scooter", "name": "fc98c25f82d8a4968f7574e0ddd0826c", "rental_uris": {"ios": "https://dc.lft.to/lastmile_qr_scan", "android": "https://dc.lft.to/lastmile_qr_scan"}, "fusion_lon": 0.0, "lat": 38.91326466666666, "is_disabled": 0, "bike_id": "fc98c25f82d8a4968f7574e0ddd0826c", "fusion_lat": 0.0, "is_reserved": 0, "lon": -77.01740983333333}, {"type": "electric_scooter", "name": "7e2f82d377787053b4399d31db76e19e", "rental_uris": {"ios": "https://dc.lft.to/lastmile_qr_scan", "android": "https://dc.lft.to/lastmile_qr_scan"}, "fusion_lon": 0.0, "lat": 38.89621916666667, "is_disabled": 0, "bike_id": "7e2f82d377787053b4399d31db76e19e", "fusion_lat": 0.0, "is_reserved": 0, "lon": -77.00920583333334}, {"type": "electric_scooter", "name": "5ec934229ade79463748031512fa3287", "rental_uris": {"ios": "https://dc.lft.to/lastmile_qr_scan", "android": "https://dc.lft.to/lastmile_qr_scan"}, "fusion_lon": 0.0, "lat": 38.90646533333334, "is_disabled": 0, "bike_id": "5ec934229ade79463748031512fa3287", "fusion_lat": 0.0, "is_reserved": 0, "lon": -77.03454566666667}, {"type": "electric_scooter", "name": "3717da0c32af76731d125391da863c91", "rental_uris": {"ios": "https://dc.lft.to/lastmile_qr_scan", "android": "https://dc.lft.to/lastmile_qr_scan"}, "fusion_lon": 0.0, "lat": 38.8849355, "is_disabled": 0, "bike_id": "3717da0c32af76731d125391da863c91", "fusion_lat": 0.0, "is_reserved": 0, "lon": -76.9565135}, {"type": "electric_scooter", "name": "99445ec3ae3aa6f3b0430767330a06bb", "rental_uris": {"ios": "https://dc.lft.to/lastmile_qr_scan", "android": "https://dc.lft.to/lastmile_qr_scan"}, "fusion_lon": 0.0, "lat": 38.921241333333334, "is_disabled": 0, "bike_id": "99445ec3ae3aa6f3b0430767330a06bb", "fusion_lat": 0.0, "is_reserved": 0, "lon": -77.04116866666666}, {"type": "electric_scooter", "name": "e6eb16e82e1fdec21f60303bc56ef94d", "rental_uris": {"ios": "https://dc.lft.to/lastmile_qr_scan", "android": "https://dc.lft.to/lastmile_qr_scan"}, "fusion_lon": 0.0, "lat": 38.92828133333333, "is_disabled": 0, "bike_id": "e6eb16e82e1fdec21f60303bc56ef94d", "fusion_lat": 0.0, "is_reserved": 0, "lon": -77.026264}, {"type": "electric_scooter", "name": "8eca89ce8796c6cd2674be38d8260b2e", "rental_uris": {"ios": "https://dc.lft.to/lastmile_qr_scan", "android": "https://dc.lft.to/lastmile_qr_scan"}, "fusion_lon": 0.0, "lat": 38.90681466666667, "is_disabled": 0, "bike_id": "8eca89ce8796c6cd2674be38d8260b2e", "fusion_lat": 0.0, "is_reserved": 0, "lon": -77.04160016666667}, {"type": "electric_scooter", "name": "4f68c86434b06f0bd15cd71a772e43b5", "rental_uris": {"ios": "https://dc.lft.to/lastmile_qr_scan", "android": "https://dc.lft.to/lastmile_qr_scan"}, "fusion_lon": 0.0, "lat": 38.901137, "is_disabled": 0, "bike_id": "4f68c86434b06f0bd15cd71a772e43b5", "fusion_lat": 0.0, "is_reserved": 0, "lon": -77.03167533333334}, {"type": "electric_scooter", "name": "8a3039b0befaf4d1a1190b20c65c0712", "rental_uris": {"ios": "https://dc.lft.to/lastmile_qr_scan", "android": "https://dc.lft.to/lastmile_qr_scan"}, "fusion_lon": 0.0, "lat": 38.843081, "is_disabled": 0, "bike_id": "8a3039b0befaf4d1a1190b20c65c0712", "fusion_lat": 0.0, "is_reserved": 0, "lon": -76.9953175}, {"type": "electric_scooter", "name": "36347a1cc5fc3f48704893911466e855", "rental_uris": {"ios": "https://dc.lft.to/lastmile_qr_scan", "android": "https://dc.lft.to/lastmile_qr_scan"}, "fusion_lon": 0.0, "lat": 38.93667816666667, "is_disabled": 0, "bike_id": "36347a1cc5fc3f48704893911466e855", "fusion_lat": 0.0, "is_reserved": 0, "lon": -77.02400866666666}, {"type": "electric_scooter", "name": "8c782f8eac51f44d7ae7c3ff415ce2dd", "rental_uris": {"ios": "https://dc.lft.to/lastmile_qr_scan", "android": "https://dc.lft.to/lastmile_qr_scan"}, "fusion_lon": 0.0, "lat": 38.927079666666664, "is_disabled": 0, "bike_id": "8c782f8eac51f44d7ae7c3ff415ce2dd", "fusion_lat": 0.0, "is_reserved": 0, "lon": -77.02433833333333}, {"type": "electric_scooter", "name": "eeec29bce0f9def3852be3a39382816c", "rental_uris": {"ios": "https://dc.lft.to/lastmile_qr_scan", "android": "https://dc.lft.to/lastmile_qr_scan"}, "fusion_lon": 0.0, "lat": 38.909398, "is_disabled": 0, "bike_id": "eeec29bce0f9def3852be3a39382816c", "fusion_lat": 0.0, "is_reserved": 0, "lon": -77.023825}, {"type": "electric_scooter", "name": "b11810d4d2437f7d0adc77695baad74b", "rental_uris": {"ios": "https://dc.lft.to/lastmile_qr_scan", "android": "https://dc.lft.to/lastmile_qr_scan"}, "fusion_lon": 0.0, "lat": 38.911449, "is_disabled": 0, "bike_id": "b11810d4d2437f7d0adc77695baad74b", "fusion_lat": 0.0, "is_reserved": 0, "lon": -77.02806483333333}, {"type": "electric_scooter", "name": "3e97e3927e8c96b50d8a6eb3b4969110", "rental_uris": {"ios": "https://dc.lft.to/lastmile_qr_scan", "android": "https://dc.lft.to/lastmile_qr_scan"}, "fusion_lon": 0.0, "lat": 38.90557066666667, "is_disabled": 0, "bike_id": "3e97e3927e8c96b50d8a6eb3b4969110", "fusion_lat": 0.0, "is_reserved": 0, "lon": -77.00406316666667}, {"type": "electric_scooter", "name": "beac13a43fb24a4734dfe5168b6b00fc", "rental_uris": {"ios": "https://dc.lft.to/lastmile_qr_scan", "android": "https://dc.lft.to/lastmile_qr_scan"}, "fusion_lon": 0.0, "lat": 38.923221833333336, "is_disabled": 0, "bike_id": "beac13a43fb24a4734dfe5168b6b00fc", "fusion_lat": 0.0, "is_reserved": 0, "lon": -77.04520633333334}, {"type": "electric_bike", "name": "46dad639d81770f4213ff95b52a68b67", "rental_uris": {"ios": "https://dc.lft.to/lastmile_qr_scan", "android": "https://dc.lft.to/lastmile_qr_scan"}, "fusion_lon": 0.0, "lat": 38.83940916666667, "is_disabled": 0, "bike_id": "46dad639d81770f4213ff95b52a68b67", "fusion_lat": 0.0, "is_reserved": 0, "lon": -77.0874915}, {"type": "electric_scooter", "name": "17bcc47cce9c5db4e7d5972042becf16", "rental_uris": {"ios": "https://dc.lft.to/lastmile_qr_scan", "android": "https://dc.lft.to/lastmile_qr_scan"}, "fusion_lon": 0.0, "lat": 38.87391566666667, "is_disabled": 0, "bike_id": "17bcc47cce9c5db4e7d5972042becf16", "fusion_lat": 0.0, "is_reserved": 0, "lon": -76.99995066666666}, {"type": "electric_scooter", "name": "c39596cfb423c04a168d614b6c6b2360", "rental_uris": {"ios": "https://dc.lft.to/lastmile_qr_scan", "android": "https://dc.lft.to/lastmile_qr_scan"}, "fusion_lon": 0.0, "lat": 38.877047, "is_disabled": 0, "bike_id": "c39596cfb423c04a168d614b6c6b2360", "fusion_lat": 0.0, "is_reserved": 0, "lon": -77.00419816666667}, {"type": "electric_scooter", "name": "a65bc920faeaa6910d8c5ee9117c088c", "rental_uris": {"ios": "https://dc.lft.to/lastmile_qr_scan", "android": "https://dc.lft.to/lastmile_qr_scan"}, "fusion_lon": 0.0, "lat": 38.89530516666667, "is_disabled": 0, "bike_id": "a65bc920faeaa6910d8c5ee9117c088c", "fusion_lat": 0.0, "is_reserved": 0, "lon": -77.04846183333333}, {"type": "electric_scooter", "name": "82aee7af4a7029b7d65309be7b26c446", "rental_uris": {"ios": "https://dc.lft.to/lastmile_qr_scan", "android": "https://dc.lft.to/lastmile_qr_scan"}, "fusion_lon": 0.0, "lat": 38.887464666666666, "is_disabled": 0, "bike_id": "82aee7af4a7029b7d65309be7b26c446", "fusion_lat": 0.0, "is_reserved": 0, "lon": -77.0284705}, {"type": "electric_scooter", "name": "9d84d2857e992a22276e760c6e3f75cf", "rental_uris": {"ios": "https://dc.lft.to/lastmile_qr_scan", "android": "https://dc.lft.to/lastmile_qr_scan"}, "fusion_lon": 0.0, "lat": 38.9192865, "is_disabled": 0, "bike_id": "9d84d2857e992a22276e760c6e3f75cf", "fusion_lat": 0.0, "is_reserved": 0, "lon": -77.009865}, {"type": "electric_scooter", "name": "e2d5bf464d3caba7fc844f38fb386880", "rental_uris": {"ios": "https://dc.lft.to/lastmile_qr_scan", "android": "https://dc.lft.to/lastmile_qr_scan"}, "fusion_lon": 0.0, "lat": 38.941621166666664, "is_disabled": 0, "bike_id": "e2d5bf464d3caba7fc844f38fb386880", "fusion_lat": 0.0, "is_reserved": 0, "lon": -77.092745}, {"type": "electric_scooter", "name": "3e598adb0a5e30cd90e9a98aa3945f74", "rental_uris": {"ios": "https://dc.lft.to/lastmile_qr_scan", "android": "https://dc.lft.to/lastmile_qr_scan"}, "fusion_lon": 0.0, "lat": 38.939282666666664, "is_disabled": 0, "bike_id": "3e598adb0a5e30cd90e9a98aa3945f74", "fusion_lat": 0.0, "is_reserved": 0, "lon": -77.02791583333334}, {"type": "electric_scooter", "name": "2cff1395c64900a636c7d2a5a2dd7c93", "rental_uris": {"ios": "https://dc.lft.to/lastmile_qr_scan", "android": "https://dc.lft.to/lastmile_qr_scan"}, "fusion_lon": 0.0, "lat": 38.92078466666667, "is_disabled": 0, "bike_id": "2cff1395c64900a636c7d2a5a2dd7c93", "fusion_lat": 0.0, "is_reserved": 0, "lon": -77.0251235}, {"type": "electric_scooter", "name": "2c42417710dbe84d32f6e5889b82a134", "rental_uris": {"ios": "https://dc.lft.to/lastmile_qr_scan", "android": "https://dc.lft.to/lastmile_qr_scan"}, "fusion_lon": 0.0, "lat": 38.87708766666667, "is_disabled": 0, "bike_id": "2c42417710dbe84d32f6e5889b82a134", "fusion_lat": 0.0, "is_reserved": 0, "lon": -77.00399983333334}, {"type": "electric_scooter", "name": "cbe578f2591107fe2e95c016875ccc2b", "rental_uris": {"ios": "https://dc.lft.to/lastmile_qr_scan", "android": "https://dc.lft.to/lastmile_qr_scan"}, "fusion_lon": 0.0, "lat": 38.90630516666667, "is_disabled": 0, "bike_id": "cbe578f2591107fe2e95c016875ccc2b", "fusion_lat": 0.0, "is_reserved": 0, "lon": -77.01024683333333}, {"type": "electric_scooter", "name": "e76306eb5d52c79e87e7e417748cb496", "rental_uris": {"ios": "https://dc.lft.to/lastmile_qr_scan", "android": "https://dc.lft.to/lastmile_qr_scan"}, "fusion_lon": 0.0, "lat": 38.934309999999996, "is_disabled": 0, "bike_id": "e76306eb5d52c79e87e7e417748cb496", "fusion_lat": 0.0, "is_reserved": 0, "lon": -77.055869}, {"type": "electric_bike", "name": "0849fd2359cb1e534d52e24a0670b431", "rental_uris": {"ios": "https://dc.lft.to/lastmile_qr_scan", "android": "https://dc.lft.to/lastmile_qr_scan"}, "fusion_lon": 0.0, "lat": 38.864525666666665, "is_disabled": 0, "bike_id": "0849fd2359cb1e534d52e24a0670b431", "fusion_lat": 0.0, "is_reserved": 0, "lon": -77.10685533333333}, {"type": "electric_scooter", "name": "2dc9846e2594026aa2868b6d5b6cf740", "rental_uris": {"ios": "https://dc.lft.to/lastmile_qr_scan", "android": "https://dc.lft.to/lastmile_qr_scan"}, "fusion_lon": 0.0, "lat": 38.87644566666667, "is_disabled": 0, "bike_id": "2dc9846e2594026aa2868b6d5b6cf740", "fusion_lat": 0.0, "is_reserved": 0, "lon": -77.0157895}, {"type": "electric_scooter", "name": "a30b98709044f8209f3d49f89811173e", "rental_uris": {"ios": "https://dc.lft.to/lastmile_qr_scan", "android": "https://dc.lft.to/lastmile_qr_scan"}, "fusion_lon": 0.0, "lat": 38.918232833333334, "is_disabled": 0, "bike_id": "a30b98709044f8209f3d49f89811173e", "fusion_lat": 0.0, "is_reserved": 0, "lon": -77.02717383333334}, {"type": "electric_scooter", "name": "000d9b1224d350612869e6574e8f2c11", "rental_uris": {"ios": "https://dc.lft.to/lastmile_qr_scan", "android": "https://dc.lft.to/lastmile_qr_scan"}, "fusion_lon": 0.0, "lat": 38.930170333333336, "is_disabled": 0, "bike_id": "000d9b1224d350612869e6574e8f2c11", "fusion_lat": 0.0, "is_reserved": 0, "lon": -77.0209785}, {"type": "electric_scooter", "name": "73abd1639cb84efa26db093cd5f4e056", "rental_uris": {"ios": "https://dc.lft.to/lastmile_qr_scan", "android": "https://dc.lft.to/lastmile_qr_scan"}, "fusion_lon": 0.0, "lat": 38.90430166666667, "is_disabled": 0, "bike_id": "73abd1639cb84efa26db093cd5f4e056", "fusion_lat": 0.0, "is_reserved": 0, "lon": -77.04366383333333}, {"type": "electric_scooter", "name": "f74506b0556f6306b377cb18ae7020d3", "rental_uris": {"ios": "https://dc.lft.to/lastmile_qr_scan", "android": "https://dc.lft.to/lastmile_qr_scan"}, "fusion_lon": 0.0, "lat": 38.91709216666667, "is_disabled": 0, "bike_id": "f74506b0556f6306b377cb18ae7020d3", "fusion_lat": 0.0, "is_reserved": 0, "lon": -77.02895033333333}, {"type": "electric_bike", "name": "0b887c01e31d3cf3d7532ed02d652e07", "rental_uris": {"ios": "https://dc.lft.to/lastmile_qr_scan", "android": "https://dc.lft.to/lastmile_qr_scan"}, "fusion_lon": 0.0, "lat": 38.85323066666667, "is_disabled": 0, "bike_id": "0b887c01e31d3cf3d7532ed02d652e07", "fusion_lat": 0.0, "is_reserved": 0, "lon": -76.98008083333333}, {"type": "electric_scooter", "name": "2be4f2c434e246e629cba1c07208cc78", "rental_uris": {"ios": "https://dc.lft.to/lastmile_qr_scan", "android": "https://dc.lft.to/lastmile_qr_scan"}, "fusion_lon": 0.0, "lat": 38.891382166666666, "is_disabled": 0, "bike_id": "2be4f2c434e246e629cba1c07208cc78", "fusion_lat": 0.0, "is_reserved": 0, "lon": -76.99088566666667}, {"type": "electric_scooter", "name": "a6139446526e8468dad8fd58bed64072", "rental_uris": {"ios": "https://dc.lft.to/lastmile_qr_scan", "android": "https://dc.lft.to/lastmile_qr_scan"}, "fusion_lon": 0.0, "lat": 38.906409833333335, "is_disabled": 0, "bike_id": "a6139446526e8468dad8fd58bed64072", "fusion_lat": 0.0, "is_reserved": 0, "lon": -77.04141016666667}, {"type": "electric_scooter", "name": "9af59eb63f394159eeb85816bbafb2ee", "rental_uris": {"ios": "https://dc.lft.to/lastmile_qr_scan", "android": "https://dc.lft.to/lastmile_qr_scan"}, "fusion_lon": 0.0, "lat": 38.91848383333333, "is_disabled": 0, "bike_id": "9af59eb63f394159eeb85816bbafb2ee", "fusion_lat": 0.0, "is_reserved": 0, "lon": -77.023202}, {"type": "electric_bike", "name": "794798b443c2d0e16ecda766efcb70c0", "rental_uris": {"ios": "https://dc.lft.to/lastmile_qr_scan", "android": "https://dc.lft.to/lastmile_qr_scan"}, "fusion_lon": 0.0, "lat": 38.98464, "is_disabled": 0, "bike_id": "794798b443c2d0e16ecda766efcb70c0", "fusion_lat": 0.0, "is_reserved": 0, "lon": -76.970622}, {"type": "electric_bike", "name": "2a672b122e7e8dc3a1cb0449ebecae07", "rental_uris": {"ios": "https://dc.lft.to/lastmile_qr_scan", "android": "https://dc.lft.to/lastmile_qr_scan"}, "fusion_lon": 0.0, "lat": 38.88262233333333, "is_disabled": 0, "bike_id": "2a672b122e7e8dc3a1cb0449ebecae07", "fusion_lat": 0.0, "is_reserved": 0, "lon": -76.91039133333334}, {"type": "electric_scooter", "name": "3d82f99843892da1f3ae2d6d5845296d", "rental_uris": {"ios": "https://dc.lft.to/lastmile_qr_scan", "android": "https://dc.lft.to/lastmile_qr_scan"}, "fusion_lon": 0.0, "lat": 38.91010083333333, "is_disabled": 0, "bike_id": "3d82f99843892da1f3ae2d6d5845296d", "fusion_lat": 0.0, "is_reserved": 0, "lon": -77.04434083333334}, {"type": "electric_scooter", "name": "458dea57decf74aade91f154856b63d4", "rental_uris": {"ios": "https://dc.lft.to/lastmile_qr_scan", "android": "https://dc.lft.to/lastmile_qr_scan"}, "fusion_lon": 0.0, "lat": 38.938673, "is_disabled": 0, "bike_id": "458dea57decf74aade91f154856b63d4", "fusion_lat": 0.0, "is_reserved": 0, "lon": -77.02631366666667}, {"type": "electric_scooter", "name": "97fabae7ef35ee72ad88a9d61c24962a", "rental_uris": {"ios": "https://dc.lft.to/lastmile_qr_scan", "android": "https://dc.lft.to/lastmile_qr_scan"}, "fusion_lon": 0.0, "lat": 38.93994566666667, "is_disabled": 0, "bike_id": "97fabae7ef35ee72ad88a9d61c24962a", "fusion_lat": 0.0, "is_reserved": 0, "lon": -77.03266066666667}, {"type": "electric_scooter", "name": "25958cecb08a350907c09c24b6c1ea6c", "rental_uris": {"ios": "https://dc.lft.to/lastmile_qr_scan", "android": "https://dc.lft.to/lastmile_qr_scan"}, "fusion_lon": 0.0, "lat": 38.927490166666665, "is_disabled": 0, "bike_id": "25958cecb08a350907c09c24b6c1ea6c", "fusion_lat": 0.0, "is_reserved": 0, "lon": -77.02490216666666}, {"type": "electric_scooter", "name": "490b6d6f92778f0120d87fb4f2faac2c", "rental_uris": {"ios": "https://dc.lft.to/lastmile_qr_scan", "android": "https://dc.lft.to/lastmile_qr_scan"}, "fusion_lon": 0.0, "lat": 38.928693333333335, "is_disabled": 0, "bike_id": "490b6d6f92778f0120d87fb4f2faac2c", "fusion_lat": 0.0, "is_reserved": 0, "lon": -77.03524666666667}, {"type": "electric_scooter", "name": "45000563a2b446cc8eaf584d20422e4b", "rental_uris": {"ios": "https://dc.lft.to/lastmile_qr_scan", "android": "https://dc.lft.to/lastmile_qr_scan"}, "fusion_lon": 0.0, "lat": 38.87286783333333, "is_disabled": 0, "bike_id": "45000563a2b446cc8eaf584d20422e4b", "fusion_lat": 0.0, "is_reserved": 0, "lon": -76.99956633333333}, {"type": "electric_scooter", "name": "c2d64f6ca67228c80ea48997f300818a", "rental_uris": {"ios": "https://dc.lft.to/lastmile_qr_scan", "android": "https://dc.lft.to/lastmile_qr_scan"}, "fusion_lon": 0.0, "lat": 38.91122166666667, "is_disabled": 0, "bike_id": "c2d64f6ca67228c80ea48997f300818a", "fusion_lat": 0.0, "is_reserved": 0, "lon": -76.9976825}, {"type": "electric_scooter", "name": "952452065d4bc4b2ac4085cafd6c2fd8", "rental_uris": {"ios": "https://dc.lft.to/lastmile_qr_scan", "android": "https://dc.lft.to/lastmile_qr_scan"}, "fusion_lon": 0.0, "lat": 38.93875416666667, "is_disabled": 0, "bike_id": "952452065d4bc4b2ac4085cafd6c2fd8", "fusion_lat": 0.0, "is_reserved": 0, "lon": -77.0246285}, {"type": "electric_scooter", "name": "855da61a27de324d92fe62c1307c9d6c", "rental_uris": {"ios": "https://dc.lft.to/lastmile_qr_scan", "android": "https://dc.lft.to/lastmile_qr_scan"}, "fusion_lon": 0.0, "lat": 38.8571725, "is_disabled": 0, "bike_id": "855da61a27de324d92fe62c1307c9d6c", "fusion_lat": 0.0, "is_reserved": 0, "lon": -76.99599383333333}, {"type": "electric_scooter", "name": "f4d663dfa910668eb698127c99af7b20", "rental_uris": {"ios": "https://dc.lft.to/lastmile_qr_scan", "android": "https://dc.lft.to/lastmile_qr_scan"}, "fusion_lon": 0.0, "lat": 38.91697283333333, "is_disabled": 0, "bike_id": "f4d663dfa910668eb698127c99af7b20", "fusion_lat": 0.0, "is_reserved": 0, "lon": -77.02896033333333}, {"type": "electric_scooter", "name": "85fe3983f4c29c72b18ebb64cd090b2d", "rental_uris": {"ios": "https://dc.lft.to/lastmile_qr_scan", "android": "https://dc.lft.to/lastmile_qr_scan"}, "fusion_lon": 0.0, "lat": 38.9182705, "is_disabled": 0, "bike_id": "85fe3983f4c29c72b18ebb64cd090b2d", "fusion_lat": 0.0, "is_reserved": 0, "lon": -77.04018}, {"type": "electric_scooter", "name": "daeda8f7aafb79c778ce0dd96c0a3f68", "rental_uris": {"ios": "https://dc.lft.to/lastmile_qr_scan", "android": "https://dc.lft.to/lastmile_qr_scan"}, "fusion_lon": 0.0, "lat": 38.92633983333333, "is_disabled": 0, "bike_id": "daeda8f7aafb79c778ce0dd96c0a3f68", "fusion_lat": 0.0, "is_reserved": 0, "lon": -77.0353825}, {"type": "electric_bike", "name": "c092ff5ec3957187c693cf8929eef857", "rental_uris": {"ios": "https://dc.lft.to/lastmile_qr_scan", "android": "https://dc.lft.to/lastmile_qr_scan"}, "fusion_lon": 0.0, "lat": 38.972368, "is_disabled": 0, "bike_id": "c092ff5ec3957187c693cf8929eef857", "fusion_lat": 0.0, "is_reserved": 0, "lon": -77.02712466666667}, {"type": "electric_bike", "name": "edaf72c3ba254747d333074e06f6aefe", "rental_uris": {"ios": "https://dc.lft.to/lastmile_qr_scan", "android": "https://dc.lft.to/lastmile_qr_scan"}, "fusion_lon": 0.0, "lat": 38.994444333333334, "is_disabled": 0, "bike_id": "edaf72c3ba254747d333074e06f6aefe", "fusion_lat": 0.0, "is_reserved": 0, "lon": -76.995946}, {"type": "electric_scooter", "name": "bbbc986e953eceec7c69793ecd6bb527", "rental_uris": {"ios": "https://dc.lft.to/lastmile_qr_scan", "android": "https://dc.lft.to/lastmile_qr_scan"}, "fusion_lon": 0.0, "lat": 38.91412316666667, "is_disabled": 0, "bike_id": "bbbc986e953eceec7c69793ecd6bb527", "fusion_lat": 0.0, "is_reserved": 0, "lon": -77.024593}, {"type": "electric_scooter", "name": "3d668bcf8cf749fed93540058442e80c", "rental_uris": {"ios": "https://dc.lft.to/lastmile_qr_scan", "android": "https://dc.lft.to/lastmile_qr_scan"}, "fusion_lon": 0.0, "lat": 38.92296416666667, "is_disabled": 0, "bike_id": "3d668bcf8cf749fed93540058442e80c", "fusion_lat": 0.0, "is_reserved": 0, "lon": -77.029755}, {"type": "electric_bike", "name": "74242d699e10b5a45af0f56830edb255", "rental_uris": {"ios": "https://dc.lft.to/lastmile_qr_scan", "android": "https://dc.lft.to/lastmile_qr_scan"}, "fusion_lon": 0.0, "lat": 38.94046266666667, "is_disabled": 0, "bike_id": "74242d699e10b5a45af0f56830edb255", "fusion_lat": 0.0, "is_reserved": 0, "lon": -76.90420016666667}, {"type": "electric_scooter", "name": "38a773d25d7d334d58fbc8a4d3f5efaa", "rental_uris": {"ios": "https://dc.lft.to/lastmile_qr_scan", "android": "https://dc.lft.to/lastmile_qr_scan"}, "fusion_lon": 0.0, "lat": 38.9025315, "is_disabled": 0, "bike_id": "38a773d25d7d334d58fbc8a4d3f5efaa", "fusion_lat": 0.0, "is_reserved": 0, "lon": -77.040223}, {"type": "electric_scooter", "name": "b56f484385c3c602f8e649b2c5575cbc", "rental_uris": {"ios": "https://dc.lft.to/lastmile_qr_scan", "android": "https://dc.lft.to/lastmile_qr_scan"}, "fusion_lon": 0.0, "lat": 38.9013915, "is_disabled": 0, "bike_id": "b56f484385c3c602f8e649b2c5575cbc", "fusion_lat": 0.0, "is_reserved": 0, "lon": -77.03472916666666}, {"type": "electric_scooter", "name": "2396516dde8736a5e94bdfb14c755284", "rental_uris": {"ios": "https://dc.lft.to/lastmile_qr_scan", "android": "https://dc.lft.to/lastmile_qr_scan"}, "fusion_lon": 0.0, "lat": 38.87995883333333, "is_disabled": 0, "bike_id": "2396516dde8736a5e94bdfb14c755284", "fusion_lat": 0.0, "is_reserved": 0, "lon": -76.99500783333333}, {"type": "electric_scooter", "name": "67c69bfd2840794b96cb3e8502b033d6", "rental_uris": {"ios": "https://dc.lft.to/lastmile_qr_scan", "android": "https://dc.lft.to/lastmile_qr_scan"}, "fusion_lon": 0.0, "lat": 38.887181, "is_disabled": 0, "bike_id": "67c69bfd2840794b96cb3e8502b033d6", "fusion_lat": 0.0, "is_reserved": 0, "lon": -76.98351666666667}, {"type": "electric_scooter", "name": "74e3567c6ef742f2a436a911231b1bf9", "rental_uris": {"ios": "https://dc.lft.to/lastmile_qr_scan", "android": "https://dc.lft.to/lastmile_qr_scan"}, "fusion_lon": 0.0, "lat": 38.923458333333336, "is_disabled": 0, "bike_id": "74e3567c6ef742f2a436a911231b1bf9", "fusion_lat": 0.0, "is_reserved": 0, "lon": -77.05350283333334}, {"type": "electric_scooter", "name": "2c38eefb5e923f0da70a7284464fe254", "rental_uris": {"ios": "https://dc.lft.to/lastmile_qr_scan", "android": "https://dc.lft.to/lastmile_qr_scan"}, "fusion_lon": 0.0, "lat": 38.8925325, "is_disabled": 0, "bike_id": "2c38eefb5e923f0da70a7284464fe254", "fusion_lat": 0.0, "is_reserved": 0, "lon": -77.03956816666667}, {"type": "electric_scooter", "name": "a31089b0eb68cf46e692e98a7fe89b4e", "rental_uris": {"ios": "https://dc.lft.to/lastmile_qr_scan", "android": "https://dc.lft.to/lastmile_qr_scan"}, "fusion_lon": 0.0, "lat": 38.892752333333334, "is_disabled": 0, "bike_id": "a31089b0eb68cf46e692e98a7fe89b4e", "fusion_lat": 0.0, "is_reserved": 0, "lon": -77.05031916666667}, {"type": "electric_scooter", "name": "26bf1ec35de365518db5457efd86f1c0", "rental_uris": {"ios": "https://dc.lft.to/lastmile_qr_scan", "android": "https://dc.lft.to/lastmile_qr_scan"}, "fusion_lon": 0.0, "lat": 38.917518, "is_disabled": 0, "bike_id": "26bf1ec35de365518db5457efd86f1c0", "fusion_lat": 0.0, "is_reserved": 0, "lon": -77.028042}, {"type": "electric_scooter", "name": "de6e326b61ddfeb10dd9223ce89867a0", "rental_uris": {"ios": "https://dc.lft.to/lastmile_qr_scan", "android": "https://dc.lft.to/lastmile_qr_scan"}, "fusion_lon": 0.0, "lat": 38.885328333333334, "is_disabled": 0, "bike_id": "de6e326b61ddfeb10dd9223ce89867a0", "fusion_lat": 0.0, "is_reserved": 0, "lon": -76.92902416666666}, {"type": "electric_scooter", "name": "7c2dc1384cbe71d4b4bf6089169370b0", "rental_uris": {"ios": "https://dc.lft.to/lastmile_qr_scan", "android": "https://dc.lft.to/lastmile_qr_scan"}, "fusion_lon": 0.0, "lat": 38.896211666666666, "is_disabled": 0, "bike_id": "7c2dc1384cbe71d4b4bf6089169370b0", "fusion_lat": 0.0, "is_reserved": 0, "lon": -77.026208}, {"type": "electric_scooter", "name": "1375c1b15daf86c42dd35bbbea050fa9", "rental_uris": {"ios": "https://dc.lft.to/lastmile_qr_scan", "android": "https://dc.lft.to/lastmile_qr_scan"}, "fusion_lon": 0.0, "lat": 38.930013333333335, "is_disabled": 0, "bike_id": "1375c1b15daf86c42dd35bbbea050fa9", "fusion_lat": 0.0, "is_reserved": 0, "lon": -77.0380585}, {"type": "electric_bike", "name": "c5491820d9af3085a56bc9f74d043947", "rental_uris": {"ios": "https://dc.lft.to/lastmile_qr_scan", "android": "https://dc.lft.to/lastmile_qr_scan"}, "fusion_lon": 0.0, "lat": 38.87581983333333, "is_disabled": 0, "bike_id": "c5491820d9af3085a56bc9f74d043947", "fusion_lat": 0.0, "is_reserved": 0, "lon": -77.23410266666667}, {"type": "electric_scooter", "name": "3d1a931ebb81d4ed09a4fcde2148f47e", "rental_uris": {"ios": "https://dc.lft.to/lastmile_qr_scan", "android": "https://dc.lft.to/lastmile_qr_scan"}, "fusion_lon": 0.0, "lat": 38.916170666666666, "is_disabled": 0, "bike_id": "3d1a931ebb81d4ed09a4fcde2148f47e", "fusion_lat": 0.0, "is_reserved": 0, "lon": -77.03124216666667}, {"type": "electric_scooter", "name": "1b3a061d4b8390d661a85651cc15f9b4", "rental_uris": {"ios": "https://dc.lft.to/lastmile_qr_scan", "android": "https://dc.lft.to/lastmile_qr_scan"}, "fusion_lon": 0.0, "lat": 38.914110666666666, "is_disabled": 0, "bike_id": "1b3a061d4b8390d661a85651cc15f9b4", "fusion_lat": 0.0, "is_reserved": 0, "lon": -77.03350633333334}, {"type": "electric_bike", "name": "3d25f410fa49e5206f6822189f398f3e", "rental_uris": {"ios": "https://dc.lft.to/lastmile_qr_scan", "android": "https://dc.lft.to/lastmile_qr_scan"}, "fusion_lon": 0.0, "lat": 38.90354383333333, "is_disabled": 0, "bike_id": "3d25f410fa49e5206f6822189f398f3e", "fusion_lat": 0.0, "is_reserved": 0, "lon": -77.01628483333333}, {"type": "electric_scooter", "name": "540e2445923dc1f3a36d2d4041998015", "rental_uris": {"ios": "https://dc.lft.to/lastmile_qr_scan", "android": "https://dc.lft.to/lastmile_qr_scan"}, "fusion_lon": 0.0, "lat": 38.901379666666664, "is_disabled": 0, "bike_id": "540e2445923dc1f3a36d2d4041998015", "fusion_lat": 0.0, "is_reserved": 0, "lon": -77.03251016666667}, {"type": "electric_scooter", "name": "4c9474ac01b8c39d410fd11e9aaea897", "rental_uris": {"ios": "https://dc.lft.to/lastmile_qr_scan", "android": "https://dc.lft.to/lastmile_qr_scan"}, "fusion_lon": 0.0, "lat": 38.90510183333333, "is_disabled": 0, "bike_id": "4c9474ac01b8c39d410fd11e9aaea897", "fusion_lat": 0.0, "is_reserved": 0, "lon": -77.06102166666666}, {"type": "electric_scooter", "name": "998260c455a7b12a05abcde5ea73c017", "rental_uris": {"ios": "https://dc.lft.to/lastmile_qr_scan", "android": "https://dc.lft.to/lastmile_qr_scan"}, "fusion_lon": 0.0, "lat": 38.8771, "is_disabled": 0, "bike_id": "998260c455a7b12a05abcde5ea73c017", "fusion_lat": 0.0, "is_reserved": 0, "lon": -77.00409183333333}, {"type": "electric_scooter", "name": "28d5b3f200871aa62b900ef4d06eb495", "rental_uris": {"ios": "https://dc.lft.to/lastmile_qr_scan", "android": "https://dc.lft.to/lastmile_qr_scan"}, "fusion_lon": 0.0, "lat": 38.923945, "is_disabled": 0, "bike_id": "28d5b3f200871aa62b900ef4d06eb495", "fusion_lat": 0.0, "is_reserved": 0, "lon": -77.0248815}, {"type": "electric_bike", "name": "3012855b86b22c7ee749496c25261b11", "rental_uris": {"ios": "https://dc.lft.to/lastmile_qr_scan", "android": "https://dc.lft.to/lastmile_qr_scan"}, "fusion_lon": 0.0, "lat": 38.93631666666667, "is_disabled": 0, "bike_id": "3012855b86b22c7ee749496c25261b11", "fusion_lat": 0.0, "is_reserved": 0, "lon": -77.03655666666667}, {"type": "electric_scooter", "name": "64097526d32e20a033c6f05673199c72", "rental_uris": {"ios": "https://dc.lft.to/lastmile_qr_scan", "android": "https://dc.lft.to/lastmile_qr_scan"}, "fusion_lon": 0.0, "lat": 38.92273016666667, "is_disabled": 0, "bike_id": "64097526d32e20a033c6f05673199c72", "fusion_lat": 0.0, "is_reserved": 0, "lon": -77.03262566666666}, {"type": "electric_scooter", "name": "e5b2db5f8a426c33fadb8b37403442bc", "rental_uris": {"ios": "https://dc.lft.to/lastmile_qr_scan", "android": "https://dc.lft.to/lastmile_qr_scan"}, "fusion_lon": 0.0, "lat": 38.9041885, "is_disabled": 0, "bike_id": "e5b2db5f8a426c33fadb8b37403442bc", "fusion_lat": 0.0, "is_reserved": 0, "lon": -77.043738}, {"type": "electric_scooter", "name": "ab2e27b37eac8d17254ff967fb19e8f0", "rental_uris": {"ios": "https://dc.lft.to/lastmile_qr_scan", "android": "https://dc.lft.to/lastmile_qr_scan"}, "fusion_lon": 0.0, "lat": 38.90466283333333, "is_disabled": 0, "bike_id": "ab2e27b37eac8d17254ff967fb19e8f0", "fusion_lat": 0.0, "is_reserved": 0, "lon": -77.0347635}, {"type": "electric_scooter", "name": "85d950d6811615d2322b05f1fc00c82f", "rental_uris": {"ios": "https://dc.lft.to/lastmile_qr_scan", "android": "https://dc.lft.to/lastmile_qr_scan"}, "fusion_lon": 0.0, "lat": 38.883646666666664, "is_disabled": 0, "bike_id": "85d950d6811615d2322b05f1fc00c82f", "fusion_lat": 0.0, "is_reserved": 0, "lon": -76.9415495}, {"type": "electric_bike", "name": "3fbe7a79b16edc366c1752395286561c", "rental_uris": {"ios": "https://dc.lft.to/lastmile_qr_scan", "android": "https://dc.lft.to/lastmile_qr_scan"}, "fusion_lon": 0.0, "lat": 38.89042166666667, "is_disabled": 0, "bike_id": "3fbe7a79b16edc366c1752395286561c", "fusion_lat": 0.0, "is_reserved": 0, "lon": -77.18397283333333}, {"type": "electric_scooter", "name": "69e22a8a8ec23cabc24bda8dbc0dc02d", "rental_uris": {"ios": "https://dc.lft.to/lastmile_qr_scan", "android": "https://dc.lft.to/lastmile_qr_scan"}, "fusion_lon": 0.0, "lat": 38.90002483333333, "is_disabled": 0, "bike_id": "69e22a8a8ec23cabc24bda8dbc0dc02d", "fusion_lat": 0.0, "is_reserved": 0, "lon": -77.01976083333334}, {"type": "electric_scooter", "name": "fe7de61e49c576bae6b3052f4b29ad02", "rental_uris": {"ios": "https://dc.lft.to/lastmile_qr_scan", "android": "https://dc.lft.to/lastmile_qr_scan"}, "fusion_lon": 0.0, "lat": 38.907146, "is_disabled": 0, "bike_id": "fe7de61e49c576bae6b3052f4b29ad02", "fusion_lat": 0.0, "is_reserved": 0, "lon": -77.029444}, {"type": "electric_scooter", "name": "57c6ffa961523366a89e97f10bc5960f", "rental_uris": {"ios": "https://dc.lft.to/lastmile_qr_scan", "android": "https://dc.lft.to/lastmile_qr_scan"}, "fusion_lon": 0.0, "lat": 38.8736885, "is_disabled": 0, "bike_id": "57c6ffa961523366a89e97f10bc5960f", "fusion_lat": 0.0, "is_reserved": 0, "lon": -77.00598466666666}, {"type": "electric_scooter", "name": "22e574e623101fc04fc873b350da1aae", "rental_uris": {"ios": "https://dc.lft.to/lastmile_qr_scan", "android": "https://dc.lft.to/lastmile_qr_scan"}, "fusion_lon": 0.0, "lat": 38.914176166666664, "is_disabled": 0, "bike_id": "22e574e623101fc04fc873b350da1aae", "fusion_lat": 0.0, "is_reserved": 0, "lon": -77.03873016666667}, {"type": "electric_bike", "name": "f479866a9461466d52df5028aa8dd67a", "rental_uris": {"ios": "https://dc.lft.to/lastmile_qr_scan", "android": "https://dc.lft.to/lastmile_qr_scan"}, "fusion_lon": 0.0, "lat": 38.820032166666664, "is_disabled": 0, "bike_id": "f479866a9461466d52df5028aa8dd67a", "fusion_lat": 0.0, "is_reserved": 0, "lon": -76.9981765}, {"type": "electric_scooter", "name": "4399c12ad7775e512a253500876f9754", "rental_uris": {"ios": "https://dc.lft.to/lastmile_qr_scan", "android": "https://dc.lft.to/lastmile_qr_scan"}, "fusion_lon": 0.0, "lat": 38.90305333333333, "is_disabled": 0, "bike_id": "4399c12ad7775e512a253500876f9754", "fusion_lat": 0.0, "is_reserved": 0, "lon": -77.060278}, {"type": "electric_scooter", "name": "a662c0b9636d7052117c9bde75b45840", "rental_uris": {"ios": "https://dc.lft.to/lastmile_qr_scan", "android": "https://dc.lft.to/lastmile_qr_scan"}, "fusion_lon": 0.0, "lat": 38.931128333333334, "is_disabled": 0, "bike_id": "a662c0b9636d7052117c9bde75b45840", "fusion_lat": 0.0, "is_reserved": 0, "lon": -77.03465483333333}, {"type": "electric_scooter", "name": "5f36c544a22e5e6e332ef61c8bba149d", "rental_uris": {"ios": "https://dc.lft.to/lastmile_qr_scan", "android": "https://dc.lft.to/lastmile_qr_scan"}, "fusion_lon": 0.0, "lat": 38.87866283333334, "is_disabled": 0, "bike_id": "5f36c544a22e5e6e332ef61c8bba149d", "fusion_lat": 0.0, "is_reserved": 0, "lon": -77.01911366666667}, {"type": "electric_scooter", "name": "3cb92a2d4e32f2e1947278084b0c25b2", "rental_uris": {"ios": "https://dc.lft.to/lastmile_qr_scan", "android": "https://dc.lft.to/lastmile_qr_scan"}, "fusion_lon": 0.0, "lat": 38.866327, "is_disabled": 0, "bike_id": "3cb92a2d4e32f2e1947278084b0c25b2", "fusion_lat": 0.0, "is_reserved": 0, "lon": -76.98716316666666}, {"type": "electric_scooter", "name": "47f4caa430cd11db5bfb2003c54470c3", "rental_uris": {"ios": "https://dc.lft.to/lastmile_qr_scan", "android": "https://dc.lft.to/lastmile_qr_scan"}, "fusion_lon": 0.0, "lat": 38.90532733333333, "is_disabled": 0, "bike_id": "47f4caa430cd11db5bfb2003c54470c3", "fusion_lat": 0.0, "is_reserved": 0, "lon": -77.057646}, {"type": "electric_scooter", "name": "f4734ef6d27e3bde7577797796151d01", "rental_uris": {"ios": "https://dc.lft.to/lastmile_qr_scan", "android": "https://dc.lft.to/lastmile_qr_scan"}, "fusion_lon": 0.0, "lat": 38.9275865, "is_disabled": 0, "bike_id": "f4734ef6d27e3bde7577797796151d01", "fusion_lat": 0.0, "is_reserved": 0, "lon": -77.0211415}, {"type": "electric_scooter", "name": "69cf74d1986010b7b8bafeb5617c38af", "rental_uris": {"ios": "https://dc.lft.to/lastmile_qr_scan", "android": "https://dc.lft.to/lastmile_qr_scan"}, "fusion_lon": 0.0, "lat": 38.876761, "is_disabled": 0, "bike_id": "69cf74d1986010b7b8bafeb5617c38af", "fusion_lat": 0.0, "is_reserved": 0, "lon": -77.00885266666667}, {"type": "electric_scooter", "name": "0a34faf307c9f1a0b800b73a4139310f", "rental_uris": {"ios": "https://dc.lft.to/lastmile_qr_scan", "android": "https://dc.lft.to/lastmile_qr_scan"}, "fusion_lon": 0.0, "lat": 38.920819333333334, "is_disabled": 0, "bike_id": "0a34faf307c9f1a0b800b73a4139310f", "fusion_lat": 0.0, "is_reserved": 0, "lon": -77.01394316666666}, {"type": "electric_scooter", "name": "c2ad01f62b211fa0a3d79ed681d2d8c9", "rental_uris": {"ios": "https://dc.lft.to/lastmile_qr_scan", "android": "https://dc.lft.to/lastmile_qr_scan"}, "fusion_lon": 0.0, "lat": 38.900674333333335, "is_disabled": 0, "bike_id": "c2ad01f62b211fa0a3d79ed681d2d8c9", "fusion_lat": 0.0, "is_reserved": 0, "lon": -77.04538916666667}, {"type": "electric_scooter", "name": "96dd2ff479602796a4e4bf1a7009b97f", "rental_uris": {"ios": "https://dc.lft.to/lastmile_qr_scan", "android": "https://dc.lft.to/lastmile_qr_scan"}, "fusion_lon": 0.0, "lat": 38.92365683333333, "is_disabled": 0, "bike_id": "96dd2ff479602796a4e4bf1a7009b97f", "fusion_lat": 0.0, "is_reserved": 0, "lon": -77.05047783333333}, {"type": "electric_scooter", "name": "b90a2d2745fd9c2dbaeae221fc0b2086", "rental_uris": {"ios": "https://dc.lft.to/lastmile_qr_scan", "android": "https://dc.lft.to/lastmile_qr_scan"}, "fusion_lon": 0.0, "lat": 38.9023375, "is_disabled": 0, "bike_id": "b90a2d2745fd9c2dbaeae221fc0b2086", "fusion_lat": 0.0, "is_reserved": 0, "lon": -77.05947583333334}, {"type": "electric_scooter", "name": "4d68562b82528a4aa7e6eb7caca11755", "rental_uris": {"ios": "https://dc.lft.to/lastmile_qr_scan", "android": "https://dc.lft.to/lastmile_qr_scan"}, "fusion_lon": 0.0, "lat": 38.92775616666667, "is_disabled": 0, "bike_id": "4d68562b82528a4aa7e6eb7caca11755", "fusion_lat": 0.0, "is_reserved": 0, "lon": -77.02707}, {"type": "electric_scooter", "name": "de98ba40220e10940d8f06b3aa51f28d", "rental_uris": {"ios": "https://dc.lft.to/lastmile_qr_scan", "android": "https://dc.lft.to/lastmile_qr_scan"}, "fusion_lon": 0.0, "lat": 38.88514383333333, "is_disabled": 0, "bike_id": "de98ba40220e10940d8f06b3aa51f28d", "fusion_lat": 0.0, "is_reserved": 0, "lon": -77.01507716666667}, {"type": "electric_scooter", "name": "280115e07e584b345faa6d7366e3dbb9", "rental_uris": {"ios": "https://dc.lft.to/lastmile_qr_scan", "android": "https://dc.lft.to/lastmile_qr_scan"}, "fusion_lon": 0.0, "lat": 38.887222333333334, "is_disabled": 0, "bike_id": "280115e07e584b345faa6d7366e3dbb9", "fusion_lat": 0.0, "is_reserved": 0, "lon": -76.996879}, {"type": "electric_scooter", "name": "6bc23ff4d0e1b34ddf70bf385373add1", "rental_uris": {"ios": "https://dc.lft.to/lastmile_qr_scan", "android": "https://dc.lft.to/lastmile_qr_scan"}, "fusion_lon": 0.0, "lat": 38.9080865, "is_disabled": 0, "bike_id": "6bc23ff4d0e1b34ddf70bf385373add1", "fusion_lat": 0.0, "is_reserved": 0, "lon": -77.03456166666666}, {"type": "electric_scooter", "name": "f05e0321566cb0848ec9d2537842531e", "rental_uris": {"ios": "https://dc.lft.to/lastmile_qr_scan", "android": "https://dc.lft.to/lastmile_qr_scan"}, "fusion_lon": 0.0, "lat": 38.91004733333333, "is_disabled": 0, "bike_id": "f05e0321566cb0848ec9d2537842531e", "fusion_lat": 0.0, "is_reserved": 0, "lon": -76.99407266666667}, {"type": "electric_scooter", "name": "ed365b750097ebf24b823690adceed67", "rental_uris": {"ios": "https://dc.lft.to/lastmile_qr_scan", "android": "https://dc.lft.to/lastmile_qr_scan"}, "fusion_lon": 0.0, "lat": 38.87392083333334, "is_disabled": 0, "bike_id": "ed365b750097ebf24b823690adceed67", "fusion_lat": 0.0, "is_reserved": 0, "lon": -77.00030983333333}, {"type": "electric_scooter", "name": "a42e7f1418b6972b03a23ebac1bb14ee", "rental_uris": {"ios": "https://dc.lft.to/lastmile_qr_scan", "android": "https://dc.lft.to/lastmile_qr_scan"}, "fusion_lon": 0.0, "lat": 38.87763366666667, "is_disabled": 0, "bike_id": "a42e7f1418b6972b03a23ebac1bb14ee", "fusion_lat": 0.0, "is_reserved": 0, "lon": -77.00708183333333}, {"type": "electric_scooter", "name": "c57cce30b824bdddb49dfa92b7f4b2f1", "rental_uris": {"ios": "https://dc.lft.to/lastmile_qr_scan", "android": "https://dc.lft.to/lastmile_qr_scan"}, "fusion_lon": 0.0, "lat": 38.89795, "is_disabled": 0, "bike_id": "c57cce30b824bdddb49dfa92b7f4b2f1", "fusion_lat": 0.0, "is_reserved": 0, "lon": -77.02209466666666}, {"type": "electric_scooter", "name": "81f790da07cecfa553382c464de7e241", "rental_uris": {"ios": "https://dc.lft.to/lastmile_qr_scan", "android": "https://dc.lft.to/lastmile_qr_scan"}, "fusion_lon": 0.0, "lat": 38.91775283333333, "is_disabled": 0, "bike_id": "81f790da07cecfa553382c464de7e241", "fusion_lat": 0.0, "is_reserved": 0, "lon": -77.0192895}, {"type": "electric_scooter", "name": "3a2de3a5167826e0995d64dfd65bd215", "rental_uris": {"ios": "https://dc.lft.to/lastmile_qr_scan", "android": "https://dc.lft.to/lastmile_qr_scan"}, "fusion_lon": 0.0, "lat": 38.920551333333336, "is_disabled": 0, "bike_id": "3a2de3a5167826e0995d64dfd65bd215", "fusion_lat": 0.0, "is_reserved": 0, "lon": -77.03299316666667}, {"type": "electric_scooter", "name": "f1c07db9f69990168f49b8dec635128d", "rental_uris": {"ios": "https://dc.lft.to/lastmile_qr_scan", "android": "https://dc.lft.to/lastmile_qr_scan"}, "fusion_lon": 0.0, "lat": 38.865604833333336, "is_disabled": 0, "bike_id": "f1c07db9f69990168f49b8dec635128d", "fusion_lat": 0.0, "is_reserved": 0, "lon": -76.98352983333334}, {"type": "electric_scooter", "name": "f68ce181e91a6cc95ce630871c52191a", "rental_uris": {"ios": "https://dc.lft.to/lastmile_qr_scan", "android": "https://dc.lft.to/lastmile_qr_scan"}, "fusion_lon": 0.0, "lat": 38.89229733333333, "is_disabled": 0, "bike_id": "f68ce181e91a6cc95ce630871c52191a", "fusion_lat": 0.0, "is_reserved": 0, "lon": -77.04517083333333}, {"type": "electric_scooter", "name": "f86ec41c34e454c21db51bc58eca85e8", "rental_uris": {"ios": "https://dc.lft.to/lastmile_qr_scan", "android": "https://dc.lft.to/lastmile_qr_scan"}, "fusion_lon": 0.0, "lat": 38.892268666666666, "is_disabled": 0, "bike_id": "f86ec41c34e454c21db51bc58eca85e8", "fusion_lat": 0.0, "is_reserved": 0, "lon": -77.04773866666666}, {"type": "electric_scooter", "name": "797d480c2300376639f56d563be84169", "rental_uris": {"ios": "https://dc.lft.to/lastmile_qr_scan", "android": "https://dc.lft.to/lastmile_qr_scan"}, "fusion_lon": 0.0, "lat": 38.89947216666667, "is_disabled": 0, "bike_id": "797d480c2300376639f56d563be84169", "fusion_lat": 0.0, "is_reserved": 0, "lon": -77.04195466666667}, {"type": "electric_scooter", "name": "1c3d55a168c5924c3290a508d71e5cb0", "rental_uris": {"ios": "https://dc.lft.to/lastmile_qr_scan", "android": "https://dc.lft.to/lastmile_qr_scan"}, "fusion_lon": 0.0, "lat": 38.88258316666667, "is_disabled": 0, "bike_id": "1c3d55a168c5924c3290a508d71e5cb0", "fusion_lat": 0.0, "is_reserved": 0, "lon": -76.99485416666667}, {"type": "electric_scooter", "name": "cefa5e7cb9ae31fdf01d852ae4d8a96b", "rental_uris": {"ios": "https://dc.lft.to/lastmile_qr_scan", "android": "https://dc.lft.to/lastmile_qr_scan"}, "fusion_lon": 0.0, "lat": 38.8996705, "is_disabled": 0, "bike_id": "cefa5e7cb9ae31fdf01d852ae4d8a96b", "fusion_lat": 0.0, "is_reserved": 0, "lon": -77.00686683333333}, {"type": "electric_scooter", "name": "07e7a764d6844cd5a093dec3d5b20e22", "rental_uris": {"ios": "https://dc.lft.to/lastmile_qr_scan", "android": "https://dc.lft.to/lastmile_qr_scan"}, "fusion_lon": 0.0, "lat": 38.912441333333334, "is_disabled": 0, "bike_id": "07e7a764d6844cd5a093dec3d5b20e22", "fusion_lat": 0.0, "is_reserved": 0, "lon": -77.04521266666667}, {"type": "electric_scooter", "name": "90916a77d8de6d19e54e56b0ebbf235f", "rental_uris": {"ios": "https://dc.lft.to/lastmile_qr_scan", "android": "https://dc.lft.to/lastmile_qr_scan"}, "fusion_lon": 0.0, "lat": 38.923224166666664, "is_disabled": 0, "bike_id": "90916a77d8de6d19e54e56b0ebbf235f", "fusion_lat": 0.0, "is_reserved": 0, "lon": -77.041909}, {"type": "electric_scooter", "name": "03e8a56bc207e9180ae654746b6e4522", "rental_uris": {"ios": "https://dc.lft.to/lastmile_qr_scan", "android": "https://dc.lft.to/lastmile_qr_scan"}, "fusion_lon": 0.0, "lat": 38.93428566666667, "is_disabled": 0, "bike_id": "03e8a56bc207e9180ae654746b6e4522", "fusion_lat": 0.0, "is_reserved": 0, "lon": -77.04410616666667}, {"type": "electric_scooter", "name": "c8fab109852487ce719dfe24dc379a9c", "rental_uris": {"ios": "https://dc.lft.to/lastmile_qr_scan", "android": "https://dc.lft.to/lastmile_qr_scan"}, "fusion_lon": 0.0, "lat": 38.9071955, "is_disabled": 0, "bike_id": "c8fab109852487ce719dfe24dc379a9c", "fusion_lat": 0.0, "is_reserved": 0, "lon": -77.029532}, {"type": "electric_scooter", "name": "36f85ece3c675e64146c7d9ad36c69c7", "rental_uris": {"ios": "https://dc.lft.to/lastmile_qr_scan", "android": "https://dc.lft.to/lastmile_qr_scan"}, "fusion_lon": 0.0, "lat": 38.90420116666667, "is_disabled": 0, "bike_id": "36f85ece3c675e64146c7d9ad36c69c7", "fusion_lat": 0.0, "is_reserved": 0, "lon": -77.0533705}, {"type": "electric_scooter", "name": "940160eb3f6ad78f346c6b3c82b983cc", "rental_uris": {"ios": "https://dc.lft.to/lastmile_qr_scan", "android": "https://dc.lft.to/lastmile_qr_scan"}, "fusion_lon": 0.0, "lat": 38.896745833333334, "is_disabled": 0, "bike_id": "940160eb3f6ad78f346c6b3c82b983cc", "fusion_lat": 0.0, "is_reserved": 0, "lon": -77.05467666666667}, {"type": "electric_scooter", "name": "e9d5cc1c6e3334a3180485d0022c30ee", "rental_uris": {"ios": "https://dc.lft.to/lastmile_qr_scan", "android": "https://dc.lft.to/lastmile_qr_scan"}, "fusion_lon": 0.0, "lat": 38.921128333333336, "is_disabled": 0, "bike_id": "e9d5cc1c6e3334a3180485d0022c30ee", "fusion_lat": 0.0, "is_reserved": 0, "lon": -77.00919583333334}, {"type": "electric_scooter", "name": "a642e6fa00dcf17b3052452bb4368a9d", "rental_uris": {"ios": "https://dc.lft.to/lastmile_qr_scan", "android": "https://dc.lft.to/lastmile_qr_scan"}, "fusion_lon": 0.0, "lat": 38.935405, "is_disabled": 0, "bike_id": "a642e6fa00dcf17b3052452bb4368a9d", "fusion_lat": 0.0, "is_reserved": 0, "lon": -77.02349916666667}, {"type": "electric_scooter", "name": "d0ac40b2d1c66cacaa3018b8e1f70a92", "rental_uris": {"ios": "https://dc.lft.to/lastmile_qr_scan", "android": "https://dc.lft.to/lastmile_qr_scan"}, "fusion_lon": 0.0, "lat": 38.9079455, "is_disabled": 0, "bike_id": "d0ac40b2d1c66cacaa3018b8e1f70a92", "fusion_lat": 0.0, "is_reserved": 0, "lon": -76.99421233333334}, {"type": "electric_scooter", "name": "6084bf45518eafa03b38b55c70697c76", "rental_uris": {"ios": "https://dc.lft.to/lastmile_qr_scan", "android": "https://dc.lft.to/lastmile_qr_scan"}, "fusion_lon": 0.0, "lat": 38.91116533333334, "is_disabled": 0, "bike_id": "6084bf45518eafa03b38b55c70697c76", "fusion_lat": 0.0, "is_reserved": 0, "lon": -77.003968}, {"type": "electric_scooter", "name": "9165a900de83317e39c324be7757b03b", "rental_uris": {"ios": "https://dc.lft.to/lastmile_qr_scan", "android": "https://dc.lft.to/lastmile_qr_scan"}, "fusion_lon": 0.0, "lat": 38.898459, "is_disabled": 0, "bike_id": "9165a900de83317e39c324be7757b03b", "fusion_lat": 0.0, "is_reserved": 0, "lon": -77.03326683333333}, {"type": "electric_scooter", "name": "64c63916d670cfc7b141aafe4ec04b98", "rental_uris": {"ios": "https://dc.lft.to/lastmile_qr_scan", "android": "https://dc.lft.to/lastmile_qr_scan"}, "fusion_lon": 0.0, "lat": 38.901572, "is_disabled": 0, "bike_id": "64c63916d670cfc7b141aafe4ec04b98", "fusion_lat": 0.0, "is_reserved": 0, "lon": -76.990288}, {"type": "electric_scooter", "name": "3b85df60ff5ff0f6aff24963dc8b8bba", "rental_uris": {"ios": "https://dc.lft.to/lastmile_qr_scan", "android": "https://dc.lft.to/lastmile_qr_scan"}, "fusion_lon": 0.0, "lat": 38.89534, "is_disabled": 0, "bike_id": "3b85df60ff5ff0f6aff24963dc8b8bba", "fusion_lat": 0.0, "is_reserved": 0, "lon": -76.94880266666667}, {"type": "electric_scooter", "name": "21a0900ca5745091097be2fdd05e3758", "rental_uris": {"ios": "https://dc.lft.to/lastmile_qr_scan", "android": "https://dc.lft.to/lastmile_qr_scan"}, "fusion_lon": 0.0, "lat": 38.92347866666667, "is_disabled": 0, "bike_id": "21a0900ca5745091097be2fdd05e3758", "fusion_lat": 0.0, "is_reserved": 0, "lon": -77.05241833333334}, {"type": "electric_bike", "name": "10d9b0adef0f902fefac63be353245eb", "rental_uris": {"ios": "https://dc.lft.to/lastmile_qr_scan", "android": "https://dc.lft.to/lastmile_qr_scan"}, "fusion_lon": 0.0, "lat": 38.9096605, "is_disabled": 0, "bike_id": "10d9b0adef0f902fefac63be353245eb", "fusion_lat": 0.0, "is_reserved": 0, "lon": -77.22894033333333}, {"type": "electric_scooter", "name": "87bc6a10d93da286d78ec775d8075d16", "rental_uris": {"ios": "https://dc.lft.to/lastmile_qr_scan", "android": "https://dc.lft.to/lastmile_qr_scan"}, "fusion_lon": 0.0, "lat": 38.88523966666666, "is_disabled": 0, "bike_id": "87bc6a10d93da286d78ec775d8075d16", "fusion_lat": 0.0, "is_reserved": 0, "lon": -76.97708883333334}, {"type": "electric_scooter", "name": "172d221843ed2aa6c9a8c0d084681d8d", "rental_uris": {"ios": "https://dc.lft.to/lastmile_qr_scan", "android": "https://dc.lft.to/lastmile_qr_scan"}, "fusion_lon": 0.0, "lat": 38.943024, "is_disabled": 0, "bike_id": "172d221843ed2aa6c9a8c0d084681d8d", "fusion_lat": 0.0, "is_reserved": 0, "lon": -77.02948033333334}, {"type": "electric_scooter", "name": "92bf0a6cfc97efed85886ba81baf786e", "rental_uris": {"ios": "https://dc.lft.to/lastmile_qr_scan", "android": "https://dc.lft.to/lastmile_qr_scan"}, "fusion_lon": 0.0, "lat": 38.898204166666666, "is_disabled": 0, "bike_id": "92bf0a6cfc97efed85886ba81baf786e", "fusion_lat": 0.0, "is_reserved": 0, "lon": -77.00738566666666}, {"type": "electric_scooter", "name": "20a83fb87a35759e8fa749fe75de8e03", "rental_uris": {"ios": "https://dc.lft.to/lastmile_qr_scan", "android": "https://dc.lft.to/lastmile_qr_scan"}, "fusion_lon": 0.0, "lat": 38.920776833333335, "is_disabled": 0, "bike_id": "20a83fb87a35759e8fa749fe75de8e03", "fusion_lat": 0.0, "is_reserved": 0, "lon": -77.02534383333334}, {"type": "electric_scooter", "name": "a12c16498916fa626f9e51758f58538b", "rental_uris": {"ios": "https://dc.lft.to/lastmile_qr_scan", "android": "https://dc.lft.to/lastmile_qr_scan"}, "fusion_lon": 0.0, "lat": 38.9056305, "is_disabled": 0, "bike_id": "a12c16498916fa626f9e51758f58538b", "fusion_lat": 0.0, "is_reserved": 0, "lon": -77.00331183333333}, {"type": "electric_scooter", "name": "b6e742b0551c67dd38ca3593980a7289", "rental_uris": {"ios": "https://dc.lft.to/lastmile_qr_scan", "android": "https://dc.lft.to/lastmile_qr_scan"}, "fusion_lon": 0.0, "lat": 38.93877283333333, "is_disabled": 0, "bike_id": "b6e742b0551c67dd38ca3593980a7289", "fusion_lat": 0.0, "is_reserved": 0, "lon": -77.0246665}, {"type": "electric_scooter", "name": "01075ddd90c64c39d399771874deb121", "rental_uris": {"ios": "https://dc.lft.to/lastmile_qr_scan", "android": "https://dc.lft.to/lastmile_qr_scan"}, "fusion_lon": 0.0, "lat": 38.902581833333336, "is_disabled": 0, "bike_id": "01075ddd90c64c39d399771874deb121", "fusion_lat": 0.0, "is_reserved": 0, "lon": -77.03447016666667}, {"type": "electric_scooter", "name": "83997072dcabdf820964280516aa4d0f", "rental_uris": {"ios": "https://dc.lft.to/lastmile_qr_scan", "android": "https://dc.lft.to/lastmile_qr_scan"}, "fusion_lon": 0.0, "lat": 38.907406, "is_disabled": 0, "bike_id": "83997072dcabdf820964280516aa4d0f", "fusion_lat": 0.0, "is_reserved": 0, "lon": -77.00768083333334}, {"type": "electric_scooter", "name": "923ad97ab3bf33f35a7479f449e1e48e", "rental_uris": {"ios": "https://dc.lft.to/lastmile_qr_scan", "android": "https://dc.lft.to/lastmile_qr_scan"}, "fusion_lon": 0.0, "lat": 38.88152083333333, "is_disabled": 0, "bike_id": "923ad97ab3bf33f35a7479f449e1e48e", "fusion_lat": 0.0, "is_reserved": 0, "lon": -77.02741166666667}, {"type": "electric_bike", "name": "2852e2342d5e382ffd9b04415a116e7d", "rental_uris": {"ios": "https://dc.lft.to/lastmile_qr_scan", "android": "https://dc.lft.to/lastmile_qr_scan"}, "fusion_lon": 0.0, "lat": 38.8849385, "is_disabled": 0, "bike_id": "2852e2342d5e382ffd9b04415a116e7d", "fusion_lat": 0.0, "is_reserved": 0, "lon": -76.9566655}, {"type": "electric_bike", "name": "25126c47a5816102ab46ea50031dde79", "rental_uris": {"ios": "https://dc.lft.to/lastmile_qr_scan", "android": "https://dc.lft.to/lastmile_qr_scan"}, "fusion_lon": 0.0, "lat": 38.88084716666667, "is_disabled": 0, "bike_id": "25126c47a5816102ab46ea50031dde79", "fusion_lat": 0.0, "is_reserved": 0, "lon": -76.98533966666666}, {"type": "electric_scooter", "name": "8d17769e05264ee1b991157d8c761d35", "rental_uris": {"ios": "https://dc.lft.to/lastmile_qr_scan", "android": "https://dc.lft.to/lastmile_qr_scan"}, "fusion_lon": 0.0, "lat": 38.905725333333336, "is_disabled": 0, "bike_id": "8d17769e05264ee1b991157d8c761d35", "fusion_lat": 0.0, "is_reserved": 0, "lon": -77.026597}, {"type": "electric_scooter", "name": "dbfa0700fb518ac5962a93249003e2a8", "rental_uris": {"ios": "https://dc.lft.to/lastmile_qr_scan", "android": "https://dc.lft.to/lastmile_qr_scan"}, "fusion_lon": 0.0, "lat": 38.923331, "is_disabled": 0, "bike_id": "dbfa0700fb518ac5962a93249003e2a8", "fusion_lat": 0.0, "is_reserved": 0, "lon": -77.0288925}, {"type": "electric_scooter", "name": "93741c35cb56ed7e5fdafddbf04d14d5", "rental_uris": {"ios": "https://dc.lft.to/lastmile_qr_scan", "android": "https://dc.lft.to/lastmile_qr_scan"}, "fusion_lon": 0.0, "lat": 38.883045, "is_disabled": 0, "bike_id": "93741c35cb56ed7e5fdafddbf04d14d5", "fusion_lat": 0.0, "is_reserved": 0, "lon": -77.01745}, {"type": "electric_scooter", "name": "81e62e12f62849686d4965765ce161e8", "rental_uris": {"ios": "https://dc.lft.to/lastmile_qr_scan", "android": "https://dc.lft.to/lastmile_qr_scan"}, "fusion_lon": 0.0, "lat": 38.89471566666667, "is_disabled": 0, "bike_id": "81e62e12f62849686d4965765ce161e8", "fusion_lat": 0.0, "is_reserved": 0, "lon": -77.01661483333334}, {"type": "electric_scooter", "name": "4971f4af157e856c5c23d1f79a18d225", "rental_uris": {"ios": "https://dc.lft.to/lastmile_qr_scan", "android": "https://dc.lft.to/lastmile_qr_scan"}, "fusion_lon": 0.0, "lat": 38.8861575, "is_disabled": 0, "bike_id": "4971f4af157e856c5c23d1f79a18d225", "fusion_lat": 0.0, "is_reserved": 0, "lon": -77.012524}, {"type": "electric_scooter", "name": "4a0e354190b1e744c36c3f9dbed49102", "rental_uris": {"ios": "https://dc.lft.to/lastmile_qr_scan", "android": "https://dc.lft.to/lastmile_qr_scan"}, "fusion_lon": 0.0, "lat": 38.90100433333333, "is_disabled": 0, "bike_id": "4a0e354190b1e744c36c3f9dbed49102", "fusion_lat": 0.0, "is_reserved": 0, "lon": -77.0261675}, {"type": "electric_scooter", "name": "ffbb712e46a210f2e4b5c6d3ae882009", "rental_uris": {"ios": "https://dc.lft.to/lastmile_qr_scan", "android": "https://dc.lft.to/lastmile_qr_scan"}, "fusion_lon": 0.0, "lat": 38.88718316666667, "is_disabled": 0, "bike_id": "ffbb712e46a210f2e4b5c6d3ae882009", "fusion_lat": 0.0, "is_reserved": 0, "lon": -76.983529}, {"type": "electric_scooter", "name": "cefb80972960685ee22aeae27aded441", "rental_uris": {"ios": "https://dc.lft.to/lastmile_qr_scan", "android": "https://dc.lft.to/lastmile_qr_scan"}, "fusion_lon": 0.0, "lat": 38.91196266666667, "is_disabled": 0, "bike_id": "cefb80972960685ee22aeae27aded441", "fusion_lat": 0.0, "is_reserved": 0, "lon": -77.00264833333334}, {"type": "electric_scooter", "name": "174faa3007166eacc5b7e9846e960007", "rental_uris": {"ios": "https://dc.lft.to/lastmile_qr_scan", "android": "https://dc.lft.to/lastmile_qr_scan"}, "fusion_lon": 0.0, "lat": 38.910412666666666, "is_disabled": 0, "bike_id": "174faa3007166eacc5b7e9846e960007", "fusion_lat": 0.0, "is_reserved": 0, "lon": -77.07571016666667}, {"type": "electric_scooter", "name": "0d0a053848ed46f6c8f2f9fafe5642cc", "rental_uris": {"ios": "https://dc.lft.to/lastmile_qr_scan", "android": "https://dc.lft.to/lastmile_qr_scan"}, "fusion_lon": 0.0, "lat": 38.90065533333333, "is_disabled": 0, "bike_id": "0d0a053848ed46f6c8f2f9fafe5642cc", "fusion_lat": 0.0, "is_reserved": 0, "lon": -77.0542895}, {"type": "electric_scooter", "name": "5eff19f4d4d7163c587b85c22f864fb7", "rental_uris": {"ios": "https://dc.lft.to/lastmile_qr_scan", "android": "https://dc.lft.to/lastmile_qr_scan"}, "fusion_lon": 0.0, "lat": 38.917274166666665, "is_disabled": 0, "bike_id": "5eff19f4d4d7163c587b85c22f864fb7", "fusion_lat": 0.0, "is_reserved": 0, "lon": -77.02580766666667}, {"type": "electric_scooter", "name": "0e97345666b67f6c807c31a86b495ab1", "rental_uris": {"ios": "https://dc.lft.to/lastmile_qr_scan", "android": "https://dc.lft.to/lastmile_qr_scan"}, "fusion_lon": 0.0, "lat": 38.9032345, "is_disabled": 0, "bike_id": "0e97345666b67f6c807c31a86b495ab1", "fusion_lat": 0.0, "is_reserved": 0, "lon": -76.994295}, {"type": "electric_scooter", "name": "2eafc63f8ca12fd206d4fdd2185eff4c", "rental_uris": {"ios": "https://dc.lft.to/lastmile_qr_scan", "android": "https://dc.lft.to/lastmile_qr_scan"}, "fusion_lon": 0.0, "lat": 38.93402916666667, "is_disabled": 0, "bike_id": "2eafc63f8ca12fd206d4fdd2185eff4c", "fusion_lat": 0.0, "is_reserved": 0, "lon": -77.05748116666666}, {"type": "electric_scooter", "name": "698ba952cb426d29081aa08d788639ed", "rental_uris": {"ios": "https://dc.lft.to/lastmile_qr_scan", "android": "https://dc.lft.to/lastmile_qr_scan"}, "fusion_lon": 0.0, "lat": 38.914204833333336, "is_disabled": 0, "bike_id": "698ba952cb426d29081aa08d788639ed", "fusion_lat": 0.0, "is_reserved": 0, "lon": -77.023664}, {"type": "electric_scooter", "name": "d98f3f032c80f648fcc1fb7a5606ce51", "rental_uris": {"ios": "https://dc.lft.to/lastmile_qr_scan", "android": "https://dc.lft.to/lastmile_qr_scan"}, "fusion_lon": 0.0, "lat": 38.90134583333333, "is_disabled": 0, "bike_id": "d98f3f032c80f648fcc1fb7a5606ce51", "fusion_lat": 0.0, "is_reserved": 0, "lon": -77.02802416666667}, {"type": "electric_scooter", "name": "bca414cb2e78f25af296bd31abb2991d", "rental_uris": {"ios": "https://dc.lft.to/lastmile_qr_scan", "android": "https://dc.lft.to/lastmile_qr_scan"}, "fusion_lon": 0.0, "lat": 38.91608083333333, "is_disabled": 0, "bike_id": "bca414cb2e78f25af296bd31abb2991d", "fusion_lat": 0.0, "is_reserved": 0, "lon": -77.04636966666666}, {"type": "electric_scooter", "name": "9c2d741f42edf036b7a566a416a04d90", "rental_uris": {"ios": "https://dc.lft.to/lastmile_qr_scan", "android": "https://dc.lft.to/lastmile_qr_scan"}, "fusion_lon": 0.0, "lat": 38.926851166666665, "is_disabled": 0, "bike_id": "9c2d741f42edf036b7a566a416a04d90", "fusion_lat": 0.0, "is_reserved": 0, "lon": -77.03792616666667}, {"type": "electric_scooter", "name": "84fb3bb8b89918cc1e8ee70dd6860b81", "rental_uris": {"ios": "https://dc.lft.to/lastmile_qr_scan", "android": "https://dc.lft.to/lastmile_qr_scan"}, "fusion_lon": 0.0, "lat": 38.90809183333333, "is_disabled": 0, "bike_id": "84fb3bb8b89918cc1e8ee70dd6860b81", "fusion_lat": 0.0, "is_reserved": 0, "lon": -77.03446383333333}, {"type": "electric_scooter", "name": "41a014c7584ef2b204d1f788f4cf75ee", "rental_uris": {"ios": "https://dc.lft.to/lastmile_qr_scan", "android": "https://dc.lft.to/lastmile_qr_scan"}, "fusion_lon": 0.0, "lat": 38.914848, "is_disabled": 0, "bike_id": "41a014c7584ef2b204d1f788f4cf75ee", "fusion_lat": 0.0, "is_reserved": 0, "lon": -77.0087805}, {"type": "electric_bike", "name": "e3baf991ef7b35b9b893076a473f0ce5", "rental_uris": {"ios": "https://dc.lft.to/lastmile_qr_scan", "android": "https://dc.lft.to/lastmile_qr_scan"}, "fusion_lon": 0.0, "lat": 38.9524095, "is_disabled": 0, "bike_id": "e3baf991ef7b35b9b893076a473f0ce5", "fusion_lat": 0.0, "is_reserved": 0, "lon": -77.00272483333333}, {"type": "electric_scooter", "name": "bba934708281fcd65cf4d3dd140e20e4", "rental_uris": {"ios": "https://dc.lft.to/lastmile_qr_scan", "android": "https://dc.lft.to/lastmile_qr_scan"}, "fusion_lon": 0.0, "lat": 38.887472833333334, "is_disabled": 0, "bike_id": "bba934708281fcd65cf4d3dd140e20e4", "fusion_lat": 0.0, "is_reserved": 0, "lon": -76.994963}, {"type": "electric_scooter", "name": "3bb70a0bbe2d02b76c4497a256a7c557", "rental_uris": {"ios": "https://dc.lft.to/lastmile_qr_scan", "android": "https://dc.lft.to/lastmile_qr_scan"}, "fusion_lon": 0.0, "lat": 38.90729116666667, "is_disabled": 0, "bike_id": "3bb70a0bbe2d02b76c4497a256a7c557", "fusion_lat": 0.0, "is_reserved": 0, "lon": -77.028912}, {"type": "electric_scooter", "name": "ce0ad5be0257e37eb8b68eaf525e45b1", "rental_uris": {"ios": "https://dc.lft.to/lastmile_qr_scan", "android": "https://dc.lft.to/lastmile_qr_scan"}, "fusion_lon": 0.0, "lat": 38.93539616666666, "is_disabled": 0, "bike_id": "ce0ad5be0257e37eb8b68eaf525e45b1", "fusion_lat": 0.0, "is_reserved": 0, "lon": -77.0582685}, {"type": "electric_bike", "name": "c617d4eb59d25e7b23e2405e59eb8948", "rental_uris": {"ios": "https://dc.lft.to/lastmile_qr_scan", "android": "https://dc.lft.to/lastmile_qr_scan"}, "fusion_lon": 0.0, "lat": 39.084494666666664, "is_disabled": 0, "bike_id": "c617d4eb59d25e7b23e2405e59eb8948", "fusion_lat": 0.0, "is_reserved": 0, "lon": -76.95199816666667}, {"type": "electric_scooter", "name": "8d043deb14da047776a110be5cd62e15", "rental_uris": {"ios": "https://dc.lft.to/lastmile_qr_scan", "android": "https://dc.lft.to/lastmile_qr_scan"}, "fusion_lon": 0.0, "lat": 38.937192333333336, "is_disabled": 0, "bike_id": "8d043deb14da047776a110be5cd62e15", "fusion_lat": 0.0, "is_reserved": 0, "lon": -77.02461933333333}, {"type": "electric_scooter", "name": "ef4c83225c6a1f142dd68efa398526ca", "rental_uris": {"ios": "https://dc.lft.to/lastmile_qr_scan", "android": "https://dc.lft.to/lastmile_qr_scan"}, "fusion_lon": 0.0, "lat": 38.9069325, "is_disabled": 0, "bike_id": "ef4c83225c6a1f142dd68efa398526ca", "fusion_lat": 0.0, "is_reserved": 0, "lon": -77.0572615}, {"type": "electric_scooter", "name": "3585d6329a07ab1e30181777337aa07f", "rental_uris": {"ios": "https://dc.lft.to/lastmile_qr_scan", "android": "https://dc.lft.to/lastmile_qr_scan"}, "fusion_lon": 0.0, "lat": 38.934868, "is_disabled": 0, "bike_id": "3585d6329a07ab1e30181777337aa07f", "fusion_lat": 0.0, "is_reserved": 0, "lon": -77.045324}, {"type": "electric_scooter", "name": "3afab6f1897fe8163a5db006f08b0f5a", "rental_uris": {"ios": "https://dc.lft.to/lastmile_qr_scan", "android": "https://dc.lft.to/lastmile_qr_scan"}, "fusion_lon": 0.0, "lat": 38.832048666666665, "is_disabled": 0, "bike_id": "3afab6f1897fe8163a5db006f08b0f5a", "fusion_lat": 0.0, "is_reserved": 0, "lon": -77.00971016666666}, {"type": "electric_scooter", "name": "153e29bf83a7bfec7f6a645112fb6e13", "rental_uris": {"ios": "https://dc.lft.to/lastmile_qr_scan", "android": "https://dc.lft.to/lastmile_qr_scan"}, "fusion_lon": 0.0, "lat": 38.898762833333336, "is_disabled": 0, "bike_id": "153e29bf83a7bfec7f6a645112fb6e13", "fusion_lat": 0.0, "is_reserved": 0, "lon": -76.93184916666667}, {"type": "electric_scooter", "name": "53081706d9ca0facef6e37208224346c", "rental_uris": {"ios": "https://dc.lft.to/lastmile_qr_scan", "android": "https://dc.lft.to/lastmile_qr_scan"}, "fusion_lon": 0.0, "lat": 38.91879466666666, "is_disabled": 0, "bike_id": "53081706d9ca0facef6e37208224346c", "fusion_lat": 0.0, "is_reserved": 0, "lon": -77.04184716666667}, {"type": "electric_scooter", "name": "c5ad106f0e5fdc03bf75122050b3ae9a", "rental_uris": {"ios": "https://dc.lft.to/lastmile_qr_scan", "android": "https://dc.lft.to/lastmile_qr_scan"}, "fusion_lon": 0.0, "lat": 38.916663, "is_disabled": 0, "bike_id": "c5ad106f0e5fdc03bf75122050b3ae9a", "fusion_lat": 0.0, "is_reserved": 0, "lon": -77.0239565}, {"type": "electric_scooter", "name": "4e82fac9f3a210816b0bffd088619432", "rental_uris": {"ios": "https://dc.lft.to/lastmile_qr_scan", "android": "https://dc.lft.to/lastmile_qr_scan"}, "fusion_lon": 0.0, "lat": 38.90018416666667, "is_disabled": 0, "bike_id": "4e82fac9f3a210816b0bffd088619432", "fusion_lat": 0.0, "is_reserved": 0, "lon": -76.98793433333333}, {"type": "electric_scooter", "name": "9e42ebf7abc6bae9d9b24c651e529202", "rental_uris": {"ios": "https://dc.lft.to/lastmile_qr_scan", "android": "https://dc.lft.to/lastmile_qr_scan"}, "fusion_lon": 0.0, "lat": 38.920434166666666, "is_disabled": 0, "bike_id": "9e42ebf7abc6bae9d9b24c651e529202", "fusion_lat": 0.0, "is_reserved": 0, "lon": -77.03392033333333}, {"type": "electric_scooter", "name": "43c411ebcc2d05c8eb395aff32931f9e", "rental_uris": {"ios": "https://dc.lft.to/lastmile_qr_scan", "android": "https://dc.lft.to/lastmile_qr_scan"}, "fusion_lon": 0.0, "lat": 38.929768833333334, "is_disabled": 0, "bike_id": "43c411ebcc2d05c8eb395aff32931f9e", "fusion_lat": 0.0, "is_reserved": 0, "lon": -77.03189016666667}, {"type": "electric_scooter", "name": "8e9de13e9f3d525262522f9813a8f282", "rental_uris": {"ios": "https://dc.lft.to/lastmile_qr_scan", "android": "https://dc.lft.to/lastmile_qr_scan"}, "fusion_lon": 0.0, "lat": 38.92662416666667, "is_disabled": 0, "bike_id": "8e9de13e9f3d525262522f9813a8f282", "fusion_lat": 0.0, "is_reserved": 0, "lon": -77.04311216666666}, {"type": "electric_scooter", "name": "d4c1f6a7d88a2679959bda033b699297", "rental_uris": {"ios": "https://dc.lft.to/lastmile_qr_scan", "android": "https://dc.lft.to/lastmile_qr_scan"}, "fusion_lon": 0.0, "lat": 38.920691, "is_disabled": 0, "bike_id": "d4c1f6a7d88a2679959bda033b699297", "fusion_lat": 0.0, "is_reserved": 0, "lon": -77.04225716666667}, {"type": "electric_scooter", "name": "2d8cfb18b2bec6c232b25aa5f4b43b05", "rental_uris": {"ios": "https://dc.lft.to/lastmile_qr_scan", "android": "https://dc.lft.to/lastmile_qr_scan"}, "fusion_lon": 0.0, "lat": 38.894034, "is_disabled": 0, "bike_id": "2d8cfb18b2bec6c232b25aa5f4b43b05", "fusion_lat": 0.0, "is_reserved": 0, "lon": -76.99162583333333}, {"type": "electric_scooter", "name": "6f423f6cdf62192433f7d64f7bcdf322", "rental_uris": {"ios": "https://dc.lft.to/lastmile_qr_scan", "android": "https://dc.lft.to/lastmile_qr_scan"}, "fusion_lon": 0.0, "lat": 38.89244, "is_disabled": 0, "bike_id": "6f423f6cdf62192433f7d64f7bcdf322", "fusion_lat": 0.0, "is_reserved": 0, "lon": -77.039567}, {"type": "electric_scooter", "name": "e41d6245bb59f792cd4500af72530e80", "rental_uris": {"ios": "https://dc.lft.to/lastmile_qr_scan", "android": "https://dc.lft.to/lastmile_qr_scan"}, "fusion_lon": 0.0, "lat": 38.88434066666667, "is_disabled": 0, "bike_id": "e41d6245bb59f792cd4500af72530e80", "fusion_lat": 0.0, "is_reserved": 0, "lon": -77.0151895}, {"type": "electric_scooter", "name": "a21509b4ed6f3818baaf4695f6a410c9", "rental_uris": {"ios": "https://dc.lft.to/lastmile_qr_scan", "android": "https://dc.lft.to/lastmile_qr_scan"}, "fusion_lon": 0.0, "lat": 38.9389865, "is_disabled": 0, "bike_id": "a21509b4ed6f3818baaf4695f6a410c9", "fusion_lat": 0.0, "is_reserved": 0, "lon": -77.03306933333333}, {"type": "electric_scooter", "name": "211674923e9a6f214731767a1fdd4a63", "rental_uris": {"ios": "https://dc.lft.to/lastmile_qr_scan", "android": "https://dc.lft.to/lastmile_qr_scan"}, "fusion_lon": 0.0, "lat": 38.90042033333334, "is_disabled": 0, "bike_id": "211674923e9a6f214731767a1fdd4a63", "fusion_lat": 0.0, "is_reserved": 0, "lon": -76.98743133333333}, {"type": "electric_scooter", "name": "f9484debaa368b8072941cc9a66f792e", "rental_uris": {"ios": "https://dc.lft.to/lastmile_qr_scan", "android": "https://dc.lft.to/lastmile_qr_scan"}, "fusion_lon": 0.0, "lat": 38.92520866666667, "is_disabled": 0, "bike_id": "f9484debaa368b8072941cc9a66f792e", "fusion_lat": 0.0, "is_reserved": 0, "lon": -77.051296}, {"type": "electric_scooter", "name": "b31f3393291d7f65a7b4f5e1c1ccaf99", "rental_uris": {"ios": "https://dc.lft.to/lastmile_qr_scan", "android": "https://dc.lft.to/lastmile_qr_scan"}, "fusion_lon": 0.0, "lat": 38.90036533333333, "is_disabled": 0, "bike_id": "b31f3393291d7f65a7b4f5e1c1ccaf99", "fusion_lat": 0.0, "is_reserved": 0, "lon": -76.98901233333333}, {"type": "electric_scooter", "name": "b74334ad127b956a14ac841bc85317c6", "rental_uris": {"ios": "https://dc.lft.to/lastmile_qr_scan", "android": "https://dc.lft.to/lastmile_qr_scan"}, "fusion_lon": 0.0, "lat": 38.896765, "is_disabled": 0, "bike_id": "b74334ad127b956a14ac841bc85317c6", "fusion_lat": 0.0, "is_reserved": 0, "lon": -77.03198933333333}, {"type": "electric_scooter", "name": "279c2fb41b2d9cdec00192a605fbcb8d", "rental_uris": {"ios": "https://dc.lft.to/lastmile_qr_scan", "android": "https://dc.lft.to/lastmile_qr_scan"}, "fusion_lon": 0.0, "lat": 38.927998, "is_disabled": 0, "bike_id": "279c2fb41b2d9cdec00192a605fbcb8d", "fusion_lat": 0.0, "is_reserved": 0, "lon": -77.032074}, {"type": "electric_scooter", "name": "57718be440e9e3dbf9a3aacd0ea5c537", "rental_uris": {"ios": "https://dc.lft.to/lastmile_qr_scan", "android": "https://dc.lft.to/lastmile_qr_scan"}, "fusion_lon": 0.0, "lat": 38.89359966666667, "is_disabled": 0, "bike_id": "57718be440e9e3dbf9a3aacd0ea5c537", "fusion_lat": 0.0, "is_reserved": 0, "lon": -77.01977783333334}, {"type": "electric_scooter", "name": "76081f8c33dd9a7f101afa681f99111d", "rental_uris": {"ios": "https://dc.lft.to/lastmile_qr_scan", "android": "https://dc.lft.to/lastmile_qr_scan"}, "fusion_lon": 0.0, "lat": 38.941364166666666, "is_disabled": 0, "bike_id": "76081f8c33dd9a7f101afa681f99111d", "fusion_lat": 0.0, "is_reserved": 0, "lon": -77.01546683333333}, {"type": "electric_scooter", "name": "1665696d8a9d6a53f2da153f9af609a9", "rental_uris": {"ios": "https://dc.lft.to/lastmile_qr_scan", "android": "https://dc.lft.to/lastmile_qr_scan"}, "fusion_lon": 0.0, "lat": 38.9110145, "is_disabled": 0, "bike_id": "1665696d8a9d6a53f2da153f9af609a9", "fusion_lat": 0.0, "is_reserved": 0, "lon": -77.0272195}, {"type": "electric_scooter", "name": "9960e3bdf2160801485bfb9b21ae8e61", "rental_uris": {"ios": "https://dc.lft.to/lastmile_qr_scan", "android": "https://dc.lft.to/lastmile_qr_scan"}, "fusion_lon": 0.0, "lat": 38.9168475, "is_disabled": 0, "bike_id": "9960e3bdf2160801485bfb9b21ae8e61", "fusion_lat": 0.0, "is_reserved": 0, "lon": -77.04141966666667}, {"type": "electric_scooter", "name": "e619c18ac4c6c03cfbbe4057ac4c90ce", "rental_uris": {"ios": "https://dc.lft.to/lastmile_qr_scan", "android": "https://dc.lft.to/lastmile_qr_scan"}, "fusion_lon": 0.0, "lat": 38.8777015, "is_disabled": 0, "bike_id": "e619c18ac4c6c03cfbbe4057ac4c90ce", "fusion_lat": 0.0, "is_reserved": 0, "lon": -77.00818916666667}, {"type": "electric_scooter", "name": "2fdd89f6ba546f980e91f85f01eeb23f", "rental_uris": {"ios": "https://dc.lft.to/lastmile_qr_scan", "android": "https://dc.lft.to/lastmile_qr_scan"}, "fusion_lon": 0.0, "lat": 38.84731683333333, "is_disabled": 0, "bike_id": "2fdd89f6ba546f980e91f85f01eeb23f", "fusion_lat": 0.0, "is_reserved": 0, "lon": -76.98248383333333}, {"type": "electric_scooter", "name": "19dc5d1329a53da766d996ac429224ee", "rental_uris": {"ios": "https://dc.lft.to/lastmile_qr_scan", "android": "https://dc.lft.to/lastmile_qr_scan"}, "fusion_lon": 0.0, "lat": 38.92225966666667, "is_disabled": 0, "bike_id": "19dc5d1329a53da766d996ac429224ee", "fusion_lat": 0.0, "is_reserved": 0, "lon": -77.02212966666667}, {"type": "electric_scooter", "name": "e737c9c751108ef12abf870b129f233a", "rental_uris": {"ios": "https://dc.lft.to/lastmile_qr_scan", "android": "https://dc.lft.to/lastmile_qr_scan"}, "fusion_lon": 0.0, "lat": 38.87589233333333, "is_disabled": 0, "bike_id": "e737c9c751108ef12abf870b129f233a", "fusion_lat": 0.0, "is_reserved": 0, "lon": -77.00420916666667}, {"type": "electric_scooter", "name": "4855949317602697d490ed42a0a547f0", "rental_uris": {"ios": "https://dc.lft.to/lastmile_qr_scan", "android": "https://dc.lft.to/lastmile_qr_scan"}, "fusion_lon": 0.0, "lat": 38.93758716666667, "is_disabled": 0, "bike_id": "4855949317602697d490ed42a0a547f0", "fusion_lat": 0.0, "is_reserved": 0, "lon": -77.0255185}, {"type": "electric_scooter", "name": "3918506fcf19501e8df3464f0f4513d9", "rental_uris": {"ios": "https://dc.lft.to/lastmile_qr_scan", "android": "https://dc.lft.to/lastmile_qr_scan"}, "fusion_lon": 0.0, "lat": 38.864437833333334, "is_disabled": 0, "bike_id": "3918506fcf19501e8df3464f0f4513d9", "fusion_lat": 0.0, "is_reserved": 0, "lon": -76.97999683333333}, {"type": "electric_scooter", "name": "691e3d39d0845a51e1687924aed9eecb", "rental_uris": {"ios": "https://dc.lft.to/lastmile_qr_scan", "android": "https://dc.lft.to/lastmile_qr_scan"}, "fusion_lon": 0.0, "lat": 38.896338166666666, "is_disabled": 0, "bike_id": "691e3d39d0845a51e1687924aed9eecb", "fusion_lat": 0.0, "is_reserved": 0, "lon": -77.04014883333333}, {"type": "electric_scooter", "name": "6bc24ba91219ad38a7923427f0e9f7bd", "rental_uris": {"ios": "https://dc.lft.to/lastmile_qr_scan", "android": "https://dc.lft.to/lastmile_qr_scan"}, "fusion_lon": 0.0, "lat": 38.89294016666667, "is_disabled": 0, "bike_id": "6bc24ba91219ad38a7923427f0e9f7bd", "fusion_lat": 0.0, "is_reserved": 0, "lon": -76.949834}, {"type": "electric_scooter", "name": "66608e7ce6fdb5e2cde261fde94e9e17", "rental_uris": {"ios": "https://dc.lft.to/lastmile_qr_scan", "android": "https://dc.lft.to/lastmile_qr_scan"}, "fusion_lon": 0.0, "lat": 38.902822, "is_disabled": 0, "bike_id": "66608e7ce6fdb5e2cde261fde94e9e17", "fusion_lat": 0.0, "is_reserved": 0, "lon": -77.0383195}, {"type": "electric_scooter", "name": "c96a848633b3b455bc6ce666ebe31ee9", "rental_uris": {"ios": "https://dc.lft.to/lastmile_qr_scan", "android": "https://dc.lft.to/lastmile_qr_scan"}, "fusion_lon": 0.0, "lat": 38.90454233333333, "is_disabled": 0, "bike_id": "c96a848633b3b455bc6ce666ebe31ee9", "fusion_lat": 0.0, "is_reserved": 0, "lon": -77.03256816666666}, {"type": "electric_scooter", "name": "11dc0cf7793c3d40376ac73d446c5b7e", "rental_uris": {"ios": "https://dc.lft.to/lastmile_qr_scan", "android": "https://dc.lft.to/lastmile_qr_scan"}, "fusion_lon": 0.0, "lat": 38.9216055, "is_disabled": 0, "bike_id": "11dc0cf7793c3d40376ac73d446c5b7e", "fusion_lat": 0.0, "is_reserved": 0, "lon": -77.0338045}, {"type": "electric_scooter", "name": "ad97736d3ec2c9e979c507de79f57633", "rental_uris": {"ios": "https://dc.lft.to/lastmile_qr_scan", "android": "https://dc.lft.to/lastmile_qr_scan"}, "fusion_lon": 0.0, "lat": 38.90965833333333, "is_disabled": 0, "bike_id": "ad97736d3ec2c9e979c507de79f57633", "fusion_lat": 0.0, "is_reserved": 0, "lon": -77.032958}, {"type": "electric_bike", "name": "86c7befa4421bd39545841d4548c1b0f", "rental_uris": {"ios": "https://dc.lft.to/lastmile_qr_scan", "android": "https://dc.lft.to/lastmile_qr_scan"}, "fusion_lon": 0.0, "lat": 38.800219166666665, "is_disabled": 0, "bike_id": "86c7befa4421bd39545841d4548c1b0f", "fusion_lat": 0.0, "is_reserved": 0, "lon": -77.05484666666666},