{"data": {"bikes": [{"rental_uris": {"ios": "https://dc.lft.to/lastmile_qr_scan", "android": "https://dc.lft.to/lastmile_qr_scan"}, "lon": -76.93182866666666, "type": "electric_scooter", "fusion_lat": 0.0, "lat": 38.89876533333333, "name": "67fc17b845c3c8508c54918a4631e11d", "fusion_lon": 0.0, "bike_id": "67fc17b845c3c8508c54918a4631e11d", "is_disabled": 0, "is_reserved": 0}, {"rental_uris": {"ios": "https://dc.lft.to/lastmile_qr_scan", "android": "https://dc.lft.to/lastmile_qr_scan"}, "lon": -77.0013395, "type": "electric_scooter", "fusion_lat": 0.0, "lat": 38.9041065, "name": "a6d0f0640b41c79a070352bda1e7261c", "fusion_lon": 0.0, "bike_id": "a6d0f0640b41c79a070352bda1e7261c", "is_disabled": 0, "is_reserved": 0}, {"rental_uris": {"ios": "https://dc.lft.to/lastmile_qr_scan", "android": "https://dc.lft.to/lastmile_qr_scan"}, "lon": -77.03214183333333, "type": "electric_scooter", "fusion_lat": 0.0, "lat": 38.9200185, "name": "41f070df9e63f418e4fb4fd045c26e8c", "fusion_lon": 0.0, "bike_id": "41f070df9e63f418e4fb4fd045c26e8c", "is_disabled": 0, "is_reserved": 0}, {"rental_uris": {"ios": "https://dc.lft.to/lastmile_qr_scan", "android": "https://dc.lft.to/lastmile_qr_scan"}, "lon": -76.95207733333334, "type": "electric_bike", "fusion_lat": 0.0, "lat": 38.936707, "name": "658e5a51b0b4e92fb915d189f8a973e2", "fusion_lon": 0.0, "bike_id": "658e5a51b0b4e92fb915d189f8a973e2", "is_disabled": 0, "is_reserved": 0}, {"rental_uris": {"ios": "https://dc.lft.to/lastmile_qr_scan", "android": "https://dc.lft.to/lastmile_qr_scan"}, "lon": -77.0344315, "type": "electric_scooter", "fusion_lat": 0.0, "lat": 38.918435, "name": "dcbb92f59f0645ea123b2389959bd9d8", "fusion_lon": 0.0, "bike_id": "dcbb92f59f0645ea123b2389959bd9d8", "is_disabled": 0, "is_reserved": 0}, {"rental_uris": {"ios": "https://dc.lft.to/lastmile_qr_scan", "android": "https://dc.lft.to/lastmile_qr_scan"}, "lon": -76.99061133333333, "type": "electric_scooter", "fusion_lat": 0.0, "lat": 38.90026566666667, "name": "0dd67e5cdff9f96db45e2fdff3bb14bd", "fusion_lon": 0.0, "bike_id": "0dd67e5cdff9f96db45e2fdff3bb14bd", "is_disabled": 0, "is_reserved": 0}, {"rental_uris": {"ios": "https://dc.lft.to/lastmile_qr_scan", "android": "https://dc.lft.to/lastmile_qr_scan"}, "lon": -76.985049, "type": "electric_bike", "fusion_lat": 0.0, "lat": 38.88081733333333, "name": "d23c46bf18aedd1e9f57b21720f60398", "fusion_lon": 0.0, "bike_id": "d23c46bf18aedd1e9f57b21720f60398", "is_disabled": 0, "is_reserved": 0}, {"rental_uris": {"ios": "https://dc.lft.to/lastmile_qr_scan", "android": "https://dc.lft.to/lastmile_qr_scan"}, "lon": -77.02835466666667, "type": "electric_scooter", "fusion_lat": 0.0, "lat": 38.89509966666667, "name": "5cdb69035a1b1e8e1a45ea4707bf7f75", "fusion_lon": 0.0, "bike_id": "5cdb69035a1b1e8e1a45ea4707bf7f75", "is_disabled": 0, "is_reserved": 0}, {"rental_uris": {"ios": "https://dc.lft.to/lastmile_qr_scan", "android": "https://dc.lft.to/lastmile_qr_scan"}, "lon": -77.0484765, "type": "electric_scooter", "fusion_lat": 0.0, "lat": 38.904385833333336, "name": "2374e4e1959b882ac7e51b7191e767dc", "fusion_lon": 0.0, "bike_id": "2374e4e1959b882ac7e51b7191e767dc", "is_disabled": 0, "is_reserved": 0}, {"rental_uris": {"ios": "https://dc.lft.to/lastmile_qr_scan", "android": "https://dc.lft.to/lastmile_qr_scan"}, "lon": -77.0333595, "type": "electric_scooter", "fusion_lat": 0.0, "lat": 38.9216925, "name": "9d910e5012228f29c2d9a3064bdfc4c6", "fusion_lon": 0.0, "bike_id": "9d910e5012228f29c2d9a3064bdfc4c6", "is_disabled": 0, "is_reserved": 0}, {"rental_uris": {"ios": "https://dc.lft.to/lastmile_qr_scan", "android": "https://dc.lft.to/lastmile_qr_scan"}, "lon": -77.022108, "type": "electric_scooter", "fusion_lat": 0.0, "lat": 38.91414983333333, "name": "b14f54ce9acb9a0f3df74e92090698e3", "fusion_lon": 0.0, "bike_id": "b14f54ce9acb9a0f3df74e92090698e3", "is_disabled": 0, "is_reserved": 0}, {"rental_uris": {"ios": "https://dc.lft.to/lastmile_qr_scan", "android": "https://dc.lft.to/lastmile_qr_scan"}, "lon": -77.02390766666667, "type": "electric_scooter", "fusion_lat": 0.0, "lat": 38.915962666666665, "name": "4f4f3a5e9ff1c99c29c71007ca442640", "fusion_lon": 0.0, "bike_id": "4f4f3a5e9ff1c99c29c71007ca442640", "is_disabled": 0, "is_reserved": 0}, {"rental_uris": {"ios": "https://dc.lft.to/lastmile_qr_scan", "android": "https://dc.lft.to/lastmile_qr_scan"}, "lon": -76.99935, "type": "electric_scooter", "fusion_lat": 0.0, "lat": 38.896209666666664, "name": "e0cc78b52a5eaa549b06432b91a904d1", "fusion_lon": 0.0, "bike_id": "e0cc78b52a5eaa549b06432b91a904d1", "is_disabled": 0, "is_reserved": 0}, {"rental_uris": {"ios": "https://dc.lft.to/lastmile_qr_scan", "android": "https://dc.lft.to/lastmile_qr_scan"}, "lon": -77.01969783333334, "type": "electric_scooter", "fusion_lat": 0.0, "lat": 38.87834216666667, "name": "79b815b564c11b13a91c0e31dc3c831f", "fusion_lon": 0.0, "bike_id": "79b815b564c11b13a91c0e31dc3c831f", "is_disabled": 0, "is_reserved": 0}, {"rental_uris": {"ios": "https://dc.lft.to/lastmile_qr_scan", "android": "https://dc.lft.to/lastmile_qr_scan"}, "lon": -77.07151883333333, "type": "electric_scooter", "fusion_lat": 0.0, "lat": 38.9074535, "name": "d2734374fc08ad391a9e9d375a43ef4a", "fusion_lon": 0.0, "bike_id": "d2734374fc08ad391a9e9d375a43ef4a", "is_disabled": 0, "is_reserved": 0}, {"rental_uris": {"ios": "https://dc.lft.to/lastmile_qr_scan", "android": "https://dc.lft.to/lastmile_qr_scan"}, "lon": -77.0320455, "type": "electric_scooter", "fusion_lat": 0.0, "lat": 38.9200425, "name": "7f541294eb8984b6a247a5c255c476fb", "fusion_lon": 0.0, "bike_id": "7f541294eb8984b6a247a5c255c476fb", "is_disabled": 0, "is_reserved": 0}, {"rental_uris": {"ios": "https://dc.lft.to/lastmile_qr_scan", "android": "https://dc.lft.to/lastmile_qr_scan"}, "lon": -77.028264, "type": "electric_scooter", "fusion_lat": 0.0, "lat": 38.9170865, "name": "837b48bb8fadd5bb2625dddb77eaaaf2", "fusion_lon": 0.0, "bike_id": "837b48bb8fadd5bb2625dddb77eaaaf2", "is_disabled": 0, "is_reserved": 0}, {"rental_uris": {"ios": "https://dc.lft.to/lastmile_qr_scan", "android": "https://dc.lft.to/lastmile_qr_scan"}, "lon": -77.03184866666666, "type": "electric_scooter", "fusion_lat": 0.0, "lat": 38.9132925, "name": "886a8f63de11c1509a14c931ca514b8a", "fusion_lon": 0.0, "bike_id": "886a8f63de11c1509a14c931ca514b8a", "is_disabled": 0, "is_reserved": 0}, {"rental_uris": {"ios": "https://dc.lft.to/lastmile_qr_scan", "android": "https://dc.lft.to/lastmile_qr_scan"}, "lon": -77.02352166666667, "type": "electric_scooter", "fusion_lat": 0.0, "lat": 38.9227325, "name": "8f846e5f18c02ec1593f9fc208dac051", "fusion_lon": 0.0, "bike_id": "8f846e5f18c02ec1593f9fc208dac051", "is_disabled": 0, "is_reserved": 0}, {"rental_uris": {"ios": "https://dc.lft.to/lastmile_qr_scan", "android": "https://dc.lft.to/lastmile_qr_scan"}, "lon": -77.06779633333333, "type": "electric_scooter", "fusion_lat": 0.0, "lat": 38.952174, "name": "450105020632973685ee7a9ae5fe9e5c", "fusion_lon": 0.0, "bike_id": "450105020632973685ee7a9ae5fe9e5c", "is_disabled": 0, "is_reserved": 0}, {"rental_uris": {"ios": "https://dc.lft.to/lastmile_qr_scan", "android": "https://dc.lft.to/lastmile_qr_scan"}, "lon": -77.03209233333334, "type": "electric_scooter", "fusion_lat": 0.0, "lat": 38.92012666666667, "name": "64d657b16a1faf78893850b8d9f770f6", "fusion_lon": 0.0, "bike_id": "64d657b16a1faf78893850b8d9f770f6", "is_disabled": 0, "is_reserved": 0}, {"rental_uris": {"ios": "https://dc.lft.to/lastmile_qr_scan", "android": "https://dc.lft.to/lastmile_qr_scan"}, "lon": -77.0385545, "type": "electric_scooter", "fusion_lat": 0.0, "lat": 38.93199516666667, "name": "ba967d291bb1ef3104d3fea8e6e41dda", "fusion_lon": 0.0, "bike_id": "ba967d291bb1ef3104d3fea8e6e41dda", "is_disabled": 0, "is_reserved": 0}, {"rental_uris": {"ios": "https://dc.lft.to/lastmile_qr_scan", "android": "https://dc.lft.to/lastmile_qr_scan"}, "lon": -77.032352, "type": "electric_scooter", "fusion_lat": 0.0, "lat": 38.92173, "name": "1580289f941b64707c9587a54f7b5044", "fusion_lon": 0.0, "bike_id": "1580289f941b64707c9587a54f7b5044", "is_disabled": 0, "is_reserved": 0}, {"rental_uris": {"ios": "https://dc.lft.to/lastmile_qr_scan", "android": "https://dc.lft.to/lastmile_qr_scan"}, "lon": -77.002113, "type": "electric_scooter", "fusion_lat": 0.0, "lat": 38.902218500000004, "name": "739146e34a4bdd93f1f0b8541ba3e188", "fusion_lon": 0.0, "bike_id": "739146e34a4bdd93f1f0b8541ba3e188", "is_disabled": 0, "is_reserved": 0}, {"rental_uris": {"ios": "https://dc.lft.to/lastmile_qr_scan", "android": "https://dc.lft.to/lastmile_qr_scan"}, "lon": -77.03255333333334, "type": "electric_scooter", "fusion_lat": 0.0, "lat": 38.935622, "name": "f12785b8ee6b75c74238cfc9d7b92ef5", "fusion_lon": 0.0, "bike_id": "f12785b8ee6b75c74238cfc9d7b92ef5", "is_disabled": 0, "is_reserved": 0}, {"rental_uris": {"ios": "https://dc.lft.to/lastmile_qr_scan", "android": "https://dc.lft.to/lastmile_qr_scan"}, "lon": -77.00738566666666, "type": "electric_scooter", "fusion_lat": 0.0, "lat": 38.95521266666667, "name": "f0964cbcc7ac68fe96a6779964f77e4a", "fusion_lon": 0.0, "bike_id": "f0964cbcc7ac68fe96a6779964f77e4a", "is_disabled": 0, "is_reserved": 0}, {"rental_uris": {"ios": "https://dc.lft.to/lastmile_qr_scan", "android": "https://dc.lft.to/lastmile_qr_scan"}, "lon": -77.0250785, "type": "electric_scooter", "fusion_lat": 0.0, "lat": 38.93960833333333, "name": "07321f4fb78a9a46a4775d9cb2d3b40c", "fusion_lon": 0.0, "bike_id": "07321f4fb78a9a46a4775d9cb2d3b40c", "is_disabled": 0, "is_reserved": 0}, {"rental_uris": {"ios": "https://dc.lft.to/lastmile_qr_scan", "android": "https://dc.lft.to/lastmile_qr_scan"}, "lon": -77.0259665, "type": "electric_scooter", "fusion_lat": 0.0, "lat": 38.9051825, "name": "efb1b75334882f056327345e315b891d", "fusion_lon": 0.0, "bike_id": "efb1b75334882f056327345e315b891d", "is_disabled": 0, "is_reserved": 0}, {"rental_uris": {"ios": "https://dc.lft.to/lastmile_qr_scan", "android": "https://dc.lft.to/lastmile_qr_scan"}, "lon": -77.06532316666667, "type": "electric_scooter", "fusion_lat": 0.0, "lat": 38.934802, "name": "8d5ea80cf35a2e583bce76968758411e", "fusion_lon": 0.0, "bike_id": "8d5ea80cf35a2e583bce76968758411e", "is_disabled": 0, "is_reserved": 0}, {"rental_uris": {"ios": "https://dc.lft.to/lastmile_qr_scan", "android": "https://dc.lft.to/lastmile_qr_scan"}, "lon": -77.04815666666667, "type": "electric_scooter", "fusion_lat": 0.0, "lat": 38.913338333333336, "name": "52e3925da09f73f266c2566a00fe8c80", "fusion_lon": 0.0, "bike_id": "52e3925da09f73f266c2566a00fe8c80", "is_disabled": 0, "is_reserved": 0}, {"rental_uris": {"ios": "https://dc.lft.to/lastmile_qr_scan", "android": "https://dc.lft.to/lastmile_qr_scan"}, "lon": -77.03201583333333, "type": "electric_scooter", "fusion_lat": 0.0, "lat": 38.929726333333335, "name": "ee5747d6da273ce0f9cf4b81ef29d401", "fusion_lon": 0.0, "bike_id": "ee5747d6da273ce0f9cf4b81ef29d401", "is_disabled": 0, "is_reserved": 0}, {"rental_uris": {"ios": "https://dc.lft.to/lastmile_qr_scan", "android": "https://dc.lft.to/lastmile_qr_scan"}, "lon": -77.03427716666667, "type": "electric_scooter", "fusion_lat": 0.0, "lat": 38.90746816666667, "name": "48b2186a1ca73c3eda9b46e20471a3c6", "fusion_lon": 0.0, "bike_id": "48b2186a1ca73c3eda9b46e20471a3c6", "is_disabled": 0, "is_reserved": 0}, {"rental_uris": {"ios": "https://dc.lft.to/lastmile_qr_scan", "android": "https://dc.lft.to/lastmile_qr_scan"}, "lon": -77.09653016666667, "type": "electric_bike", "fusion_lat": 0.0, "lat": 38.916241, "name": "ef7bfd7d405b62d4a75e23929d6a993c", "fusion_lon": 0.0, "bike_id": "ef7bfd7d405b62d4a75e23929d6a993c", "is_disabled": 0, "is_reserved": 0}, {"rental_uris": {"ios": "https://dc.lft.to/lastmile_qr_scan", "android": "https://dc.lft.to/lastmile_qr_scan"}, "lon": -76.908161, "type": "electric_bike", "fusion_lat": 0.0, "lat": 38.994552666666664, "name": "e189d746344905788660822ee6aff07b", "fusion_lon": 0.0, "bike_id": "e189d746344905788660822ee6aff07b", "is_disabled": 0, "is_reserved": 0}, {"rental_uris": {"ios": "https://dc.lft.to/lastmile_qr_scan", "android": "https://dc.lft.to/lastmile_qr_scan"}, "lon": -77.00906916666666, "type": "electric_scooter", "fusion_lat": 0.0, "lat": 38.910607, "name": "0ab0bab6caa94bb184936a475e0b61c8", "fusion_lon": 0.0, "bike_id": "0ab0bab6caa94bb184936a475e0b61c8", "is_disabled": 0, "is_reserved": 0}, {"rental_uris": {"ios": "https://dc.lft.to/lastmile_qr_scan", "android": "https://dc.lft.to/lastmile_qr_scan"}, "lon": -76.98433716666666, "type": "electric_scooter", "fusion_lat": 0.0, "lat": 38.9142595, "name": "c64e444ef7d31050d0c425c2d26f45d7", "fusion_lon": 0.0, "bike_id": "c64e444ef7d31050d0c425c2d26f45d7", "is_disabled": 0, "is_reserved": 0}, {"rental_uris": {"ios": "https://dc.lft.to/lastmile_qr_scan", "android": "https://dc.lft.to/lastmile_qr_scan"}, "lon": -77.025316, "type": "electric_scooter", "fusion_lat": 0.0, "lat": 38.91819483333333, "name": "6deb794a016d632ca478feb2633327a8", "fusion_lon": 0.0, "bike_id": "6deb794a016d632ca478feb2633327a8", "is_disabled": 0, "is_reserved": 0}, {"rental_uris": {"ios": "https://dc.lft.to/lastmile_qr_scan", "android": "https://dc.lft.to/lastmile_qr_scan"}, "lon": -77.04871933333334, "type": "electric_scooter", "fusion_lat": 0.0, "lat": 38.892235666666664, "name": "0344a06d853ad22f71bb413e0a6c9c60", "fusion_lon": 0.0, "bike_id": "0344a06d853ad22f71bb413e0a6c9c60", "is_disabled": 0, "is_reserved": 0}, {"rental_uris": {"ios": "https://dc.lft.to/lastmile_qr_scan", "android": "https://dc.lft.to/lastmile_qr_scan"}, "lon": -77.03484783333333, "type": "electric_scooter", "fusion_lat": 0.0, "lat": 38.917108, "name": "b9bafdc5a626919c555af9b5ebfc2ede", "fusion_lon": 0.0, "bike_id": "b9bafdc5a626919c555af9b5ebfc2ede", "is_disabled": 0, "is_reserved": 0}, {"rental_uris": {"ios": "https://dc.lft.to/lastmile_qr_scan", "android": "https://dc.lft.to/lastmile_qr_scan"}, "lon": -77.039373, "type": "electric_scooter", "fusion_lat": 0.0, "lat": 38.90816366666667, "name": "71b06d60fbd8b2baece2e2107634a730", "fusion_lon": 0.0, "bike_id": "71b06d60fbd8b2baece2e2107634a730", "is_disabled": 0, "is_reserved": 0}, {"rental_uris": {"ios": "https://dc.lft.to/lastmile_qr_scan", "android": "https://dc.lft.to/lastmile_qr_scan"}, "lon": -77.0262205, "type": "electric_scooter", "fusion_lat": 0.0, "lat": 38.89636766666667, "name": "a4c30e878f8d5af5ee893ac6068fc3d7", "fusion_lon": 0.0, "bike_id": "a4c30e878f8d5af5ee893ac6068fc3d7", "is_disabled": 0, "is_reserved": 0}, {"rental_uris": {"ios": "https://dc.lft.to/lastmile_qr_scan", "android": "https://dc.lft.to/lastmile_qr_scan"}, "lon": -76.946662, "type": "electric_scooter", "fusion_lat": 0.0, "lat": 38.898720833333336, "name": "5302629765c6726782e56a3f1b058017", "fusion_lon": 0.0, "bike_id": "5302629765c6726782e56a3f1b058017", "is_disabled": 0, "is_reserved": 0}, {"rental_uris": {"ios": "https://dc.lft.to/lastmile_qr_scan", "android": "https://dc.lft.to/lastmile_qr_scan"}, "lon": -77.0209745, "type": "electric_scooter", "fusion_lat": 0.0, "lat": 38.9345375, "name": "819937ae1ce20f09a898c73253125b81", "fusion_lon": 0.0, "bike_id": "819937ae1ce20f09a898c73253125b81", "is_disabled": 0, "is_reserved": 0}, {"rental_uris": {"ios": "https://dc.lft.to/lastmile_qr_scan", "android": "https://dc.lft.to/lastmile_qr_scan"}, "lon": -77.02491783333333, "type": "electric_scooter", "fusion_lat": 0.0, "lat": 38.918084, "name": "621dd079e912dfe99683909dcb942bfa", "fusion_lon": 0.0, "bike_id": "621dd079e912dfe99683909dcb942bfa", "is_disabled": 0, "is_reserved": 0}, {"rental_uris": {"ios": "https://dc.lft.to/lastmile_qr_scan", "android": "https://dc.lft.to/lastmile_qr_scan"}, "lon": -77.03301366666666, "type": "electric_scooter", "fusion_lat": 0.0, "lat": 38.909707166666664, "name": "f85eb18e9c84a3ff19dc5928c468c8fc", "fusion_lon": 0.0, "bike_id": "f85eb18e9c84a3ff19dc5928c468c8fc", "is_disabled": 0, "is_reserved": 0}, {"rental_uris": {"ios": "https://dc.lft.to/lastmile_qr_scan", "android": "https://dc.lft.to/lastmile_qr_scan"}, "lon": -77.03346716666667, "type": "electric_scooter", "fusion_lat": 0.0, "lat": 38.89835516666667, "name": "bf958c043ff58dfd92c9074e6806a733", "fusion_lon": 0.0, "bike_id": "bf958c043ff58dfd92c9074e6806a733", "is_disabled": 0, "is_reserved": 0}, {"rental_uris": {"ios": "https://dc.lft.to/lastmile_qr_scan", "android": "https://dc.lft.to/lastmile_qr_scan"}, "lon": -77.003353, "type": "electric_scooter", "fusion_lat": 0.0, "lat": 38.8935955, "name": "afbe8ebceb731470280b2dade2bbd0f3", "fusion_lon": 0.0, "bike_id": "afbe8ebceb731470280b2dade2bbd0f3", "is_disabled": 0, "is_reserved": 0}, {"rental_uris": {"ios": "https://dc.lft.to/lastmile_qr_scan", "android": "https://dc.lft.to/lastmile_qr_scan"}, "lon": -76.99677266666667, "type": "electric_scooter", "fusion_lat": 0.0, "lat": 38.90828116666667, "name": "705c63ca30c414b80ed2b94aed7d91c1", "fusion_lon": 0.0, "bike_id": "705c63ca30c414b80ed2b94aed7d91c1", "is_disabled": 0, "is_reserved": 0}, {"rental_uris": {"ios": "https://dc.lft.to/lastmile_qr_scan", "android": "https://dc.lft.to/lastmile_qr_scan"}, "lon": -77.04681416666666, "type": "electric_scooter", "fusion_lat": 0.0, "lat": 38.921360666666665, "name": "10b3c45d7ce61405adefcedfe87cf2f9", "fusion_lon": 0.0, "bike_id": "10b3c45d7ce61405adefcedfe87cf2f9", "is_disabled": 0, "is_reserved": 0}, {"rental_uris": {"ios": "https://dc.lft.to/lastmile_qr_scan", "android": "https://dc.lft.to/lastmile_qr_scan"}, "lon": -77.01759866666667, "type": "electric_scooter", "fusion_lat": 0.0, "lat": 38.904044999999996, "name": "09fa10d906e3e594ee1119832ddb7373", "fusion_lon": 0.0, "bike_id": "09fa10d906e3e594ee1119832ddb7373", "is_disabled": 0, "is_reserved": 0}, {"rental_uris": {"ios": "https://dc.lft.to/lastmile_qr_scan", "android": "https://dc.lft.to/lastmile_qr_scan"}, "lon": -76.9916295, "type": "electric_scooter", "fusion_lat": 0.0, "lat": 38.879186833333335, "name": "81608d88b2f37fd686be2114ca2ff68f", "fusion_lon": 0.0, "bike_id": "81608d88b2f37fd686be2114ca2ff68f", "is_disabled": 0, "is_reserved": 0}, {"rental_uris": {"ios": "https://dc.lft.to/lastmile_qr_scan", "android": "https://dc.lft.to/lastmile_qr_scan"}, "lon": -77.02378866666666, "type": "electric_scooter", "fusion_lat": 0.0, "lat": 38.919100666666665, "name": "0392bd983f9b5b53109d97a4ce73b759", "fusion_lon": 0.0, "bike_id": "0392bd983f9b5b53109d97a4ce73b759", "is_disabled": 0, "is_reserved": 0}, {"rental_uris": {"ios": "https://dc.lft.to/lastmile_qr_scan", "android": "https://dc.lft.to/lastmile_qr_scan"}, "lon": -77.02177933333333, "type": "electric_scooter", "fusion_lat": 0.0, "lat": 38.89249216666666, "name": "367718a790631a6ec5e01546e5539f14", "fusion_lon": 0.0, "bike_id": "367718a790631a6ec5e01546e5539f14", "is_disabled": 0, "is_reserved": 0}, {"rental_uris": {"ios": "https://dc.lft.to/lastmile_qr_scan", "android": "https://dc.lft.to/lastmile_qr_scan"}, "lon": -77.005831, "type": "electric_scooter", "fusion_lat": 0.0, "lat": 38.90614333333333, "name": "70734681297428e94e2b652bf5cb9cd6", "fusion_lon": 0.0, "bike_id": "70734681297428e94e2b652bf5cb9cd6", "is_disabled": 0, "is_reserved": 0}, {"rental_uris": {"ios": "https://dc.lft.to/lastmile_qr_scan", "android": "https://dc.lft.to/lastmile_qr_scan"}, "lon": -76.97346716666667, "type": "electric_scooter", "fusion_lat": 0.0, "lat": 38.86512583333333, "name": "b671687eb4f9227b17fcb6eaca0850ed", "fusion_lon": 0.0, "bike_id": "b671687eb4f9227b17fcb6eaca0850ed", "is_disabled": 0, "is_reserved": 0}, {"rental_uris": {"ios": "https://dc.lft.to/lastmile_qr_scan", "android": "https://dc.lft.to/lastmile_qr_scan"}, "lon": -77.04513166666666, "type": "electric_scooter", "fusion_lat": 0.0, "lat": 38.9077595, "name": "e858a85b8aaf66236b463b70ad434839", "fusion_lon": 0.0, "bike_id": "e858a85b8aaf66236b463b70ad434839", "is_disabled": 0, "is_reserved": 0}, {"rental_uris": {"ios": "https://dc.lft.to/lastmile_qr_scan", "android": "https://dc.lft.to/lastmile_qr_scan"}, "lon": -76.93192633333334, "type": "electric_scooter", "fusion_lat": 0.0, "lat": 38.8899405, "name": "7adfe2cbc87ee54bab72ef70c80d58a4", "fusion_lon": 0.0, "bike_id": "7adfe2cbc87ee54bab72ef70c80d58a4", "is_disabled": 0, "is_reserved": 0}, {"rental_uris": {"ios": "https://dc.lft.to/lastmile_qr_scan", "android": "https://dc.lft.to/lastmile_qr_scan"}, "lon": -77.01641366666666, "type": "electric_scooter", "fusion_lat": 0.0, "lat": 38.91082433333333, "name": "a48ea10dad6becef58d10d6d607682e2", "fusion_lon": 0.0, "bike_id": "a48ea10dad6becef58d10d6d607682e2", "is_disabled": 0, "is_reserved": 0}, {"rental_uris": {"ios": "https://dc.lft.to/lastmile_qr_scan", "android": "https://dc.lft.to/lastmile_qr_scan"}, "lon": -77.00135366666666, "type": "electric_scooter", "fusion_lat": 0.0, "lat": 38.904108, "name": "6550da7cfb21b84dab85a0479fd8dd69", "fusion_lon": 0.0, "bike_id": "6550da7cfb21b84dab85a0479fd8dd69", "is_disabled": 0, "is_reserved": 0}, {"rental_uris": {"ios": "https://dc.lft.to/lastmile_qr_scan", "android": "https://dc.lft.to/lastmile_qr_scan"}, "lon": -77.01106516666667, "type": "electric_bike", "fusion_lat": 0.0, "lat": 38.9630785, "name": "dab7e7fb9a9a1fd9c3468c339b3d72cb", "fusion_lon": 0.0, "bike_id": "dab7e7fb9a9a1fd9c3468c339b3d72cb", "is_disabled": 0, "is_reserved": 0}, {"rental_uris": {"ios": "https://dc.lft.to/lastmile_qr_scan", "android": "https://dc.lft.to/lastmile_qr_scan"}, "lon": -77.1089645, "type": "electric_bike", "fusion_lat": 0.0, "lat": 38.83042, "name": "c4d2641b4cba034f9ad34560ec7d24e2", "fusion_lon": 0.0, "bike_id": "c4d2641b4cba034f9ad34560ec7d24e2", "is_disabled": 0, "is_reserved": 0}, {"rental_uris": {"ios": "https://dc.lft.to/lastmile_qr_scan", "android": "https://dc.lft.to/lastmile_qr_scan"}, "lon": -77.04346716666667, "type": "electric_scooter", "fusion_lat": 0.0, "lat": 38.90882633333333, "name": "e3214fe35975039065e261bb27e4151c", "fusion_lon": 0.0, "bike_id": "e3214fe35975039065e261bb27e4151c", "is_disabled": 0, "is_reserved": 0}, {"rental_uris": {"ios": "https://dc.lft.to/lastmile_qr_scan", "android": "https://dc.lft.to/lastmile_qr_scan"}, "lon": -77.01232783333333, "type": "electric_bike", "fusion_lat": 0.0, "lat": 38.928776166666665, "name": "db7ad23c82db527aa8a74c244f471cb6", "fusion_lon": 0.0, "bike_id": "db7ad23c82db527aa8a74c244f471cb6", "is_disabled": 0, "is_reserved": 0}, {"rental_uris": {"ios": "https://dc.lft.to/lastmile_qr_scan", "android": "https://dc.lft.to/lastmile_qr_scan"}, "lon": -77.0420475, "type": "electric_scooter", "fusion_lat": 0.0, "lat": 38.921194, "name": "66ac27f1aa168e41c4ae2682b44188e1", "fusion_lon": 0.0, "bike_id": "66ac27f1aa168e41c4ae2682b44188e1", "is_disabled": 0, "is_reserved": 0}, {"rental_uris": {"ios": "https://dc.lft.to/lastmile_qr_scan", "android": "https://dc.lft.to/lastmile_qr_scan"}, "lon": -76.9733055, "type": "electric_scooter", "fusion_lat": 0.0, "lat": 38.9048005, "name": "647f826e4e27e9e191db0a930a6851d4", "fusion_lon": 0.0, "bike_id": "647f826e4e27e9e191db0a930a6851d4", "is_disabled": 0, "is_reserved": 0}, {"rental_uris": {"ios": "https://dc.lft.to/lastmile_qr_scan", "android": "https://dc.lft.to/lastmile_qr_scan"}, "lon": -77.02927633333333, "type": "electric_scooter", "fusion_lat": 0.0, "lat": 38.89845583333334, "name": "423ac59e8fa3875c0a9985b0fa036536", "fusion_lon": 0.0, "bike_id": "423ac59e8fa3875c0a9985b0fa036536", "is_disabled": 0, "is_reserved": 0}, {"rental_uris": {"ios": "https://dc.lft.to/lastmile_qr_scan", "android": "https://dc.lft.to/lastmile_qr_scan"}, "lon": -76.9916205, "type": "electric_scooter", "fusion_lat": 0.0, "lat": 38.8823255, "name": "f9ce9d10f815dfea399a054f93bacfff", "fusion_lon": 0.0, "bike_id": "f9ce9d10f815dfea399a054f93bacfff", "is_disabled": 0, "is_reserved": 0}, {"rental_uris": {"ios": "https://dc.lft.to/lastmile_qr_scan", "android": "https://dc.lft.to/lastmile_qr_scan"}, "lon": -77.02585966666666, "type": "electric_scooter", "fusion_lat": 0.0, "lat": 38.8982555, "name": "6b7f960feddb2215094942d134be58d3", "fusion_lon": 0.0, "bike_id": "6b7f960feddb2215094942d134be58d3", "is_disabled": 0, "is_reserved": 0}, {"rental_uris": {"ios": "https://dc.lft.to/lastmile_qr_scan", "android": "https://dc.lft.to/lastmile_qr_scan"}, "lon": -77.04043016666667, "type": "electric_bike", "fusion_lat": 0.0, "lat": 38.90152766666667, "name": "ae856d2f635e42aea39df77b151ed342", "fusion_lon": 0.0, "bike_id": "ae856d2f635e42aea39df77b151ed342", "is_disabled": 0, "is_reserved": 0}, {"rental_uris": {"ios": "https://dc.lft.to/lastmile_qr_scan", "android": "https://dc.lft.to/lastmile_qr_scan"}, "lon": -77.00230166666667, "type": "electric_scooter", "fusion_lat": 0.0, "lat": 38.90735816666667, "name": "4fc8145472aeeff0232dc72ff83ab680", "fusion_lon": 0.0, "bike_id": "4fc8145472aeeff0232dc72ff83ab680", "is_disabled": 0, "is_reserved": 0}, {"rental_uris": {"ios": "https://dc.lft.to/lastmile_qr_scan", "android": "https://dc.lft.to/lastmile_qr_scan"}, "lon": -76.994763, "type": "electric_bike", "fusion_lat": 0.0, "lat": 38.87751933333333, "name": "f06897167051ffa35133df33a736a6a9", "fusion_lon": 0.0, "bike_id": "f06897167051ffa35133df33a736a6a9", "is_disabled": 0, "is_reserved": 0}, {"rental_uris": {"ios": "https://dc.lft.to/lastmile_qr_scan", "android": "https://dc.lft.to/lastmile_qr_scan"}, "lon": -77.02338516666667, "type": "electric_scooter", "fusion_lat": 0.0, "lat": 38.929257, "name": "02cebf0d979e3305d8ad645f46d00cf0", "fusion_lon": 0.0, "bike_id": "02cebf0d979e3305d8ad645f46d00cf0", "is_disabled": 0, "is_reserved": 0}, {"rental_uris": {"ios": "https://dc.lft.to/lastmile_qr_scan", "android": "https://dc.lft.to/lastmile_qr_scan"}, "lon": -76.95664183333334, "type": "electric_scooter", "fusion_lat": 0.0, "lat": 38.89620933333333, "name": "666e8215825bde125c0d2971f3769163", "fusion_lon": 0.0, "bike_id": "666e8215825bde125c0d2971f3769163", "is_disabled": 0, "is_reserved": 0}, {"rental_uris": {"ios": "https://dc.lft.to/lastmile_qr_scan", "android": "https://dc.lft.to/lastmile_qr_scan"}, "lon": -77.0344045, "type": "electric_scooter", "fusion_lat": 0.0, "lat": 38.9179765, "name": "e3d32f2f779bf37c92847709c4fa7d60", "fusion_lon": 0.0, "bike_id": "e3d32f2f779bf37c92847709c4fa7d60", "is_disabled": 0, "is_reserved": 0}, {"rental_uris": {"ios": "https://dc.lft.to/lastmile_qr_scan", "android": "https://dc.lft.to/lastmile_qr_scan"}, "lon": -77.18741583333333, "type": "electric_bike", "fusion_lat": 0.0, "lat": 38.8935215, "name": "3716acc84fe9c319e5dd5e9c00a09d5d", "fusion_lon": 0.0, "bike_id": "3716acc84fe9c319e5dd5e9c00a09d5d", "is_disabled": 0, "is_reserved": 0}, {"rental_uris": {"ios": "https://dc.lft.to/lastmile_qr_scan", "android": "https://dc.lft.to/lastmile_qr_scan"}, "lon": -77.03303716666667, "type": "electric_scooter", "fusion_lat": 0.0, "lat": 38.925500666666665, "name": "9bb57a0660f00e11cdd84e71edc0aeae", "fusion_lon": 0.0, "bike_id": "9bb57a0660f00e11cdd84e71edc0aeae", "is_disabled": 0, "is_reserved": 0}, {"rental_uris": {"ios": "https://dc.lft.to/lastmile_qr_scan", "android": "https://dc.lft.to/lastmile_qr_scan"}, "lon": -76.972504, "type": "electric_bike", "fusion_lat": 0.0, "lat": 38.9574055, "name": "0a0abc230d79746c25e7c3cdd26bebf4", "fusion_lon": 0.0, "bike_id": "0a0abc230d79746c25e7c3cdd26bebf4", "is_disabled": 0, "is_reserved": 0}, {"rental_uris": {"ios": "https://dc.lft.to/lastmile_qr_scan", "android": "https://dc.lft.to/lastmile_qr_scan"}, "lon": -76.946532, "type": "electric_scooter", "fusion_lat": 0.0, "lat": 38.89826466666667, "name": "d578367e488c1f10fc1f64acaf1a3e67", "fusion_lon": 0.0, "bike_id": "d578367e488c1f10fc1f64acaf1a3e67", "is_disabled": 0, "is_reserved": 0}, {"rental_uris": {"ios": "https://dc.lft.to/lastmile_qr_scan", "android": "https://dc.lft.to/lastmile_qr_scan"}, "lon": -77.02493616666666, "type": "electric_scooter", "fusion_lat": 0.0, "lat": 38.91808666666667, "name": "26a7b2983f16ebb6a68842eb4fba2371", "fusion_lon": 0.0, "bike_id": "26a7b2983f16ebb6a68842eb4fba2371", "is_disabled": 0, "is_reserved": 0}, {"rental_uris": {"ios": "https://dc.lft.to/lastmile_qr_scan", "android": "https://dc.lft.to/lastmile_qr_scan"}, "lon": -77.016257, "type": "electric_scooter", "fusion_lat": 0.0, "lat": 38.90307883333333, "name": "e30090036f556106f572c3742a3d0c68", "fusion_lon": 0.0, "bike_id": "e30090036f556106f572c3742a3d0c68", "is_disabled": 0, "is_reserved": 0}, {"rental_uris": {"ios": "https://dc.lft.to/lastmile_qr_scan", "android": "https://dc.lft.to/lastmile_qr_scan"}, "lon": -77.05118816666666, "type": "electric_bike", "fusion_lat": 0.0, "lat": 38.99965916666667, "name": "236dcc4b5ccc4129d907ade8cd9c0510", "fusion_lon": 0.0, "bike_id": "236dcc4b5ccc4129d907ade8cd9c0510", "is_disabled": 0, "is_reserved": 0}, {"rental_uris": {"ios": "https://dc.lft.to/lastmile_qr_scan", "android": "https://dc.lft.to/lastmile_qr_scan"}, "lon": -76.96877466666666, "type": "electric_scooter", "fusion_lat": 0.0, "lat": 38.92444116666667, "name": "811a84ebb57abaff5ec81859f87840ec", "fusion_lon": 0.0, "bike_id": "811a84ebb57abaff5ec81859f87840ec", "is_disabled": 0, "is_reserved": 0}, {"rental_uris": {"ios": "https://dc.lft.to/lastmile_qr_scan", "android": "https://dc.lft.to/lastmile_qr_scan"}, "lon": -77.02198833333334, "type": "electric_scooter", "fusion_lat": 0.0, "lat": 38.9110555, "name": "4232ab4a6ada55b7bd17f5203860946a", "fusion_lon": 0.0, "bike_id": "4232ab4a6ada55b7bd17f5203860946a", "is_disabled": 0, "is_reserved": 0}, {"rental_uris": {"ios": "https://dc.lft.to/lastmile_qr_scan", "android": "https://dc.lft.to/lastmile_qr_scan"}, "lon": -77.01762, "type": "electric_scooter", "fusion_lat": 0.0, "lat": 38.9026835, "name": "36fdec7370edff283d90f5155a08b662", "fusion_lon": 0.0, "bike_id": "36fdec7370edff283d90f5155a08b662", "is_disabled": 0, "is_reserved": 0}, {"rental_uris": {"ios": "https://dc.lft.to/lastmile_qr_scan", "android": "https://dc.lft.to/lastmile_qr_scan"}, "lon": -77.04492466666666, "type": "electric_scooter", "fusion_lat": 0.0, "lat": 38.907554833333336, "name": "e4e89b785f01648b5e5f5ad0b5051743", "fusion_lon": 0.0, "bike_id": "e4e89b785f01648b5e5f5ad0b5051743", "is_disabled": 0, "is_reserved": 0}, {"rental_uris": {"ios": "https://dc.lft.to/lastmile_qr_scan", "android": "https://dc.lft.to/lastmile_qr_scan"}, "lon": -76.99019033333333, "type": "electric_scooter", "fusion_lat": 0.0, "lat": 38.86106016666667, "name": "e870990c9a60908e41ea9d246a41b3c0", "fusion_lon": 0.0, "bike_id": "e870990c9a60908e41ea9d246a41b3c0", "is_disabled": 0, "is_reserved": 0}, {"rental_uris": {"ios": "https://dc.lft.to/lastmile_qr_scan", "android": "https://dc.lft.to/lastmile_qr_scan"}, "lon": -77.06115183333333, "type": "electric_bike", "fusion_lat": 0.0, "lat": 38.909354666666665, "name": "6aa2c43261711676add1edafea14301f", "fusion_lon": 0.0, "bike_id": "6aa2c43261711676add1edafea14301f", "is_disabled": 0, "is_reserved": 0}, {"rental_uris": {"ios": "https://dc.lft.to/lastmile_qr_scan", "android": "https://dc.lft.to/lastmile_qr_scan"}, "lon": -76.9962795, "type": "electric_scooter", "fusion_lat": 0.0, "lat": 38.846221166666666, "name": "bd81452033d5c7e1f0a91281c78a2305", "fusion_lon": 0.0, "bike_id": "bd81452033d5c7e1f0a91281c78a2305", "is_disabled": 0, "is_reserved": 0}, {"rental_uris": {"ios": "https://dc.lft.to/lastmile_qr_scan", "android": "https://dc.lft.to/lastmile_qr_scan"}, "lon": -77.02379633333334, "type": "electric_scooter", "fusion_lat": 0.0, "lat": 38.952508, "name": "d7b330e7351f00fc585de88f8247eae0", "fusion_lon": 0.0, "bike_id": "d7b330e7351f00fc585de88f8247eae0", "is_disabled": 0, "is_reserved": 0}, {"rental_uris": {"ios": "https://dc.lft.to/lastmile_qr_scan", "android": "https://dc.lft.to/lastmile_qr_scan"}, "lon": -77.0097905, "type": "electric_bike", "fusion_lat": 0.0, "lat": 38.988458666666666, "name": "20815f8c1d4101360673f6cfb678a4e0", "fusion_lon": 0.0, "bike_id": "20815f8c1d4101360673f6cfb678a4e0", "is_disabled": 0, "is_reserved": 0}, {"rental_uris": {"ios": "https://dc.lft.to/lastmile_qr_scan", "android": "https://dc.lft.to/lastmile_qr_scan"}, "lon": -77.03071666666666, "type": "electric_scooter", "fusion_lat": 0.0, "lat": 38.92249266666666, "name": "6aa7ce566b38650807da540fb2940c63", "fusion_lon": 0.0, "bike_id": "6aa7ce566b38650807da540fb2940c63", "is_disabled": 0, "is_reserved": 0}, {"rental_uris": {"ios": "https://dc.lft.to/lastmile_qr_scan", "android": "https://dc.lft.to/lastmile_qr_scan"}, "lon": -77.02133616666667, "type": "electric_scooter", "fusion_lat": 0.0, "lat": 38.9376425, "name": "655d88964c6f6fc226047389c285a2a5", "fusion_lon": 0.0, "bike_id": "655d88964c6f6fc226047389c285a2a5", "is_disabled": 0, "is_reserved": 0}, {"rental_uris": {"ios": "https://dc.lft.to/lastmile_qr_scan", "android": "https://dc.lft.to/lastmile_qr_scan"}, "lon": -77.0196915, "type": "electric_scooter", "fusion_lat": 0.0, "lat": 38.90127116666667, "name": "1aebc76c17521c1bfb8592691ec90728", "fusion_lon": 0.0, "bike_id": "1aebc76c17521c1bfb8592691ec90728", "is_disabled": 0, "is_reserved": 0}, {"rental_uris": {"ios": "https://dc.lft.to/lastmile_qr_scan", "android": "https://dc.lft.to/lastmile_qr_scan"}, "lon": -76.994498, "type": "electric_scooter", "fusion_lat": 0.0, "lat": 38.9003705, "name": "8d1df80f3afdf43b2c9b78483c117115", "fusion_lon": 0.0, "bike_id": "8d1df80f3afdf43b2c9b78483c117115", "is_disabled": 0, "is_reserved": 0}, {"rental_uris": {"ios": "https://dc.lft.to/lastmile_qr_scan", "android": "https://dc.lft.to/lastmile_qr_scan"}, "lon": -76.94761516666667, "type": "electric_scooter", "fusion_lat": 0.0, "lat": 38.9007205, "name": "375c7962bab73d6f17582bd8d30789b0", "fusion_lon": 0.0, "bike_id": "375c7962bab73d6f17582bd8d30789b0", "is_disabled": 0, "is_reserved": 0}, {"rental_uris": {"ios": "https://dc.lft.to/lastmile_qr_scan", "android": "https://dc.lft.to/lastmile_qr_scan"}, "lon": -77.002103, "type": "electric_scooter", "fusion_lat": 0.0, "lat": 38.90513516666667, "name": "3837f236b3ae9c2cbf14d95e98cd187a", "fusion_lon": 0.0, "bike_id": "3837f236b3ae9c2cbf14d95e98cd187a", "is_disabled": 0, "is_reserved": 0}, {"rental_uris": {"ios": "https://dc.lft.to/lastmile_qr_scan", "android": "https://dc.lft.to/lastmile_qr_scan"}, "lon": -77.02063633333333, "type": "electric_scooter", "fusion_lat": 0.0, "lat": 38.9041425, "name": "a2cda13164624553693592d94d967218", "fusion_lon": 0.0, "bike_id": "a2cda13164624553693592d94d967218", "is_disabled": 0, "is_reserved": 0}, {"rental_uris": {"ios": "https://dc.lft.to/lastmile_qr_scan", "android": "https://dc.lft.to/lastmile_qr_scan"}, "lon": -76.991699, "type": "electric_scooter", "fusion_lat": 0.0, "lat": 38.87922866666667, "name": "32f14b2571f9fa944ddc125b9bf2a9f2", "fusion_lon": 0.0, "bike_id": "32f14b2571f9fa944ddc125b9bf2a9f2", "is_disabled": 0, "is_reserved": 0}, {"rental_uris": {"ios": "https://dc.lft.to/lastmile_qr_scan", "android": "https://dc.lft.to/lastmile_qr_scan"}, "lon": -77.020618, "type": "electric_scooter", "fusion_lat": 0.0, "lat": 38.9201735, "name": "1a77b85a308084112d1cf45dfd46d316", "fusion_lon": 0.0, "bike_id": "1a77b85a308084112d1cf45dfd46d316", "is_disabled": 0, "is_reserved": 0}, {"rental_uris": {"ios": "https://dc.lft.to/lastmile_qr_scan", "android": "https://dc.lft.to/lastmile_qr_scan"}, "lon": -77.03804683333334, "type": "electric_scooter", "fusion_lat": 0.0, "lat": 38.92551, "name": "5dfda92586ce8c27aa74d39935b193b7", "fusion_lon": 0.0, "bike_id": "5dfda92586ce8c27aa74d39935b193b7", "is_disabled": 0, "is_reserved": 0}, {"rental_uris": {"ios": "https://dc.lft.to/lastmile_qr_scan", "android": "https://dc.lft.to/lastmile_qr_scan"}, "lon": -77.03390916666666, "type": "electric_scooter", "fusion_lat": 0.0, "lat": 38.9217905, "name": "07c81bef83e6d02cdcfbb7c65dfd50f2", "fusion_lon": 0.0, "bike_id": "07c81bef83e6d02cdcfbb7c65dfd50f2", "is_disabled": 0, "is_reserved": 0}, {"rental_uris": {"ios": "https://dc.lft.to/lastmile_qr_scan", "android": "https://dc.lft.to/lastmile_qr_scan"}, "lon": -77.02497616666666, "type": "electric_scooter", "fusion_lat": 0.0, "lat": 38.94292733333333, "name": "b78fc4312fccbe09fdf06a9f2db5ef2d", "fusion_lon": 0.0, "bike_id": "b78fc4312fccbe09fdf06a9f2db5ef2d", "is_disabled": 0, "is_reserved": 0}, {"rental_uris": {"ios": "https://dc.lft.to/lastmile_qr_scan", "android": "https://dc.lft.to/lastmile_qr_scan"}, "lon": -77.026792, "type": "electric_scooter", "fusion_lat": 0.0, "lat": 38.90006916666667, "name": "f0e96dee2d37b73f039cb713da9b63df", "fusion_lon": 0.0, "bike_id": "f0e96dee2d37b73f039cb713da9b63df", "is_disabled": 0, "is_reserved": 0}, {"rental_uris": {"ios": "https://dc.lft.to/lastmile_qr_scan", "android": "https://dc.lft.to/lastmile_qr_scan"}, "lon": -77.01508833333334, "type": "electric_scooter", "fusion_lat": 0.0, "lat": 38.913407166666666, "name": "1edee9235c4dc4524314cb6f095aa2e2", "fusion_lon": 0.0, "bike_id": "1edee9235c4dc4524314cb6f095aa2e2", "is_disabled": 0, "is_reserved": 0}, {"rental_uris": {"ios": "https://dc.lft.to/lastmile_qr_scan", "android": "https://dc.lft.to/lastmile_qr_scan"}, "lon": -76.99879466666667, "type": "electric_scooter", "fusion_lat": 0.0, "lat": 38.907541, "name": "28396978d6ab5cf8f2902e3aaf1a304a", "fusion_lon": 0.0, "bike_id": "28396978d6ab5cf8f2902e3aaf1a304a", "is_disabled": 0, "is_reserved": 0}, {"rental_uris": {"ios": "https://dc.lft.to/lastmile_qr_scan", "android": "https://dc.lft.to/lastmile_qr_scan"}, "lon": -77.00053216666667, "type": "electric_scooter", "fusion_lat": 0.0, "lat": 38.90688633333333, "name": "ee20507ed69924da4dd663f0ba5f7588", "fusion_lon": 0.0, "bike_id": "ee20507ed69924da4dd663f0ba5f7588", "is_disabled": 0, "is_reserved": 0}, {"rental_uris": {"ios": "https://dc.lft.to/lastmile_qr_scan", "android": "https://dc.lft.to/lastmile_qr_scan"}, "lon": -77.0316565, "type": "electric_scooter", "fusion_lat": 0.0, "lat": 38.91416683333333, "name": "bcd13d853d4e364373d7451247bfa32c", "fusion_lon": 0.0, "bike_id": "bcd13d853d4e364373d7451247bfa32c", "is_disabled": 0, "is_reserved": 0}, {"rental_uris": {"ios": "https://dc.lft.to/lastmile_qr_scan", "android": "https://dc.lft.to/lastmile_qr_scan"}, "lon": -77.0050765, "type": "electric_scooter", "fusion_lat": 0.0, "lat": 38.8753695, "name": "523eaed575c12ae1656ed033d416c5af", "fusion_lon": 0.0, "bike_id": "523eaed575c12ae1656ed033d416c5af", "is_disabled": 0, "is_reserved": 0}, {"rental_uris": {"ios": "https://dc.lft.to/lastmile_qr_scan", "android": "https://dc.lft.to/lastmile_qr_scan"}, "lon": -77.06473916666667, "type": "electric_bike", "fusion_lat": 0.0, "lat": 38.9738515, "name": "9cbadf816de120ee382ea252c9f7f4b4", "fusion_lon": 0.0, "bike_id": "9cbadf816de120ee382ea252c9f7f4b4", "is_disabled": 0, "is_reserved": 0}, {"rental_uris": {"ios": "https://dc.lft.to/lastmile_qr_scan", "android": "https://dc.lft.to/lastmile_qr_scan"}, "lon": -77.13092516666667, "type": "electric_bike", "fusion_lat": 0.0, "lat": 38.861618166666666, "name": "853a0e026ed404b9766f206864ba9613", "fusion_lon": 0.0, "bike_id": "853a0e026ed404b9766f206864ba9613", "is_disabled": 0, "is_reserved": 0}, {"rental_uris": {"ios": "https://dc.lft.to/lastmile_qr_scan", "android": "https://dc.lft.to/lastmile_qr_scan"}, "lon": -77.04191216666666, "type": "electric_scooter", "fusion_lat": 0.0, "lat": 38.901413833333336, "name": "a36b7f76b37becc5cebf53056ccb4cd7", "fusion_lon": 0.0, "bike_id": "a36b7f76b37becc5cebf53056ccb4cd7", "is_disabled": 0, "is_reserved": 0}, {"rental_uris": {"ios": "https://dc.lft.to/lastmile_qr_scan", "android": "https://dc.lft.to/lastmile_qr_scan"}, "lon": -77.041866, "type": "electric_scooter", "fusion_lat": 0.0, "lat": 38.920613, "name": "e5a7bd3a9a62359d10940fac608cc8f7", "fusion_lon": 0.0, "bike_id": "e5a7bd3a9a62359d10940fac608cc8f7", "is_disabled": 0, "is_reserved": 0}, {"rental_uris": {"ios": "https://dc.lft.to/lastmile_qr_scan", "android": "https://dc.lft.to/lastmile_qr_scan"}, "lon": -77.02866466666667, "type": "electric_scooter", "fusion_lat": 0.0, "lat": 38.907223, "name": "61d82f6e26b75410d7b85ee02fbd18d4", "fusion_lon": 0.0, "bike_id": "61d82f6e26b75410d7b85ee02fbd18d4", "is_disabled": 0, "is_reserved": 0}, {"rental_uris": {"ios": "https://dc.lft.to/lastmile_qr_scan", "android": "https://dc.lft.to/lastmile_qr_scan"}, "lon": -77.02315966666667, "type": "electric_scooter", "fusion_lat": 0.0, "lat": 38.88340816666667, "name": "9a8570673a482d01d791abf06e22e998", "fusion_lon": 0.0, "bike_id": "9a8570673a482d01d791abf06e22e998", "is_disabled": 0, "is_reserved": 0}, {"rental_uris": {"ios": "https://dc.lft.to/lastmile_qr_scan", "android": "https://dc.lft.to/lastmile_qr_scan"}, "lon": -77.03790666666667, "type": "electric_scooter", "fusion_lat": 0.0, "lat": 38.935879166666666, "name": "05f05e1e37a7adfc98560115e4cde536", "fusion_lon": 0.0, "bike_id": "05f05e1e37a7adfc98560115e4cde536", "is_disabled": 0, "is_reserved": 0}, {"rental_uris": {"ios": "https://dc.lft.to/lastmile_qr_scan", "android": "https://dc.lft.to/lastmile_qr_scan"}, "lon": -77.02613266666667, "type": "electric_bike", "fusion_lat": 0.0, "lat": 38.9620135, "name": "20d07046d017bc3640cf9cd3d5677f43", "fusion_lon": 0.0, "bike_id": "20d07046d017bc3640cf9cd3d5677f43", "is_disabled": 0, "is_reserved": 0}, {"rental_uris": {"ios": "https://dc.lft.to/lastmile_qr_scan", "android": "https://dc.lft.to/lastmile_qr_scan"}, "lon": -77.0242155, "type": "electric_scooter", "fusion_lat": 0.0, "lat": 38.90977316666667, "name": "44cce826e82544a4ef8f8150ae875f2d", "fusion_lon": 0.0, "bike_id": "44cce826e82544a4ef8f8150ae875f2d", "is_disabled": 0, "is_reserved": 0}, {"rental_uris": {"ios": "https://dc.lft.to/lastmile_qr_scan", "android": "https://dc.lft.to/lastmile_qr_scan"}, "lon": -77.09160466666667, "type": "electric_bike", "fusion_lat": 0.0, "lat": 38.9676165, "name": "9abb041620027eab828254dafb8d40c1", "fusion_lon": 0.0, "bike_id": "9abb041620027eab828254dafb8d40c1", "is_disabled": 0, "is_reserved": 0}, {"rental_uris": {"ios": "https://dc.lft.to/lastmile_qr_scan", "android": "https://dc.lft.to/lastmile_qr_scan"}, "lon": -77.04408066666667, "type": "electric_scooter", "fusion_lat": 0.0, "lat": 38.874319166666666, "name": "8fcb45a03c0366f0ae228050917489c5", "fusion_lon": 0.0, "bike_id": "8fcb45a03c0366f0ae228050917489c5", "is_disabled": 0, "is_reserved": 0}, {"rental_uris": {"ios": "https://dc.lft.to/lastmile_qr_scan", "android": "https://dc.lft.to/lastmile_qr_scan"}, "lon": -77.0312235, "type": "electric_scooter", "fusion_lat": 0.0, "lat": 38.973786833333335, "name": "66b358242d3ea724021b60a0a159ae6b", "fusion_lon": 0.0, "bike_id": "66b358242d3ea724021b60a0a159ae6b", "is_disabled": 0, "is_reserved": 0}, {"rental_uris": {"ios": "https://dc.lft.to/lastmile_qr_scan", "android": "https://dc.lft.to/lastmile_qr_scan"}, "lon": -76.9617445, "type": "electric_bike", "fusion_lat": 0.0, "lat": 38.91860033333333, "name": "40164b3c55ef2ba4e5e5b17ac35ae4e2", "fusion_lon": 0.0, "bike_id": "40164b3c55ef2ba4e5e5b17ac35ae4e2", "is_disabled": 0, "is_reserved": 0}, {"rental_uris": {"ios": "https://dc.lft.to/lastmile_qr_scan", "android": "https://dc.lft.to/lastmile_qr_scan"}, "lon": -77.03384483333333, "type": "electric_scooter", "fusion_lat": 0.0, "lat": 38.91033633333333, "name": "f4958ef7250658f969f999fcdb84e06c", "fusion_lon": 0.0, "bike_id": "f4958ef7250658f969f999fcdb84e06c", "is_disabled": 0, "is_reserved": 0}, {"rental_uris": {"ios": "https://dc.lft.to/lastmile_qr_scan", "android": "https://dc.lft.to/lastmile_qr_scan"}, "lon": -77.0230735, "type": "electric_scooter", "fusion_lat": 0.0, "lat": 38.917836333333334, "name": "83bed89b85042565d821cc277c421489", "fusion_lon": 0.0, "bike_id": "83bed89b85042565d821cc277c421489", "is_disabled": 0, "is_reserved": 0}, {"rental_uris": {"ios": "https://dc.lft.to/lastmile_qr_scan", "android": "https://dc.lft.to/lastmile_qr_scan"}, "lon": -77.056, "type": "electric_scooter", "fusion_lat": 0.0, "lat": 38.9370025, "name": "dd0a59d41fdc60a193b272ac6b618e7a", "fusion_lon": 0.0, "bike_id": "dd0a59d41fdc60a193b272ac6b618e7a", "is_disabled": 0, "is_reserved": 0}, {"rental_uris": {"ios": "https://dc.lft.to/lastmile_qr_scan", "android": "https://dc.lft.to/lastmile_qr_scan"}, "lon": -77.01336, "type": "electric_scooter", "fusion_lat": 0.0, "lat": 38.966119166666665, "name": "77605844b78f2e87b8efc68b1707f137", "fusion_lon": 0.0, "bike_id": "77605844b78f2e87b8efc68b1707f137", "is_disabled": 0, "is_reserved": 0}, {"rental_uris": {"ios": "https://dc.lft.to/lastmile_qr_scan", "android": "https://dc.lft.to/lastmile_qr_scan"}, "lon": -77.0323245, "type": "electric_scooter", "fusion_lat": 0.0, "lat": 38.89634, "name": "a75089e33ff476f15a73bf81aa6ce773", "fusion_lon": 0.0, "bike_id": "a75089e33ff476f15a73bf81aa6ce773", "is_disabled": 0, "is_reserved": 0}, {"rental_uris": {"ios": "https://dc.lft.to/lastmile_qr_scan", "android": "https://dc.lft.to/lastmile_qr_scan"}, "lon": -77.08541116666666, "type": "electric_bike", "fusion_lat": 0.0, "lat": 38.85620133333333, "name": "958c2af9ec650a421f8eed4212234940", "fusion_lon": 0.0, "bike_id": "958c2af9ec650a421f8eed4212234940", "is_disabled": 0, "is_reserved": 0}, {"rental_uris": {"ios": "https://dc.lft.to/lastmile_qr_scan", "android": "https://dc.lft.to/lastmile_qr_scan"}, "lon": -77.031855, "type": "electric_scooter", "fusion_lat": 0.0, "lat": 38.915685833333335, "name": "07106d22a1623d44ea0dae26787e2328", "fusion_lon": 0.0, "bike_id": "07106d22a1623d44ea0dae26787e2328", "is_disabled": 0, "is_reserved": 0}, {"rental_uris": {"ios": "https://dc.lft.to/lastmile_qr_scan", "android": "https://dc.lft.to/lastmile_qr_scan"}, "lon": -77.04020333333334, "type": "electric_scooter", "fusion_lat": 0.0, "lat": 38.918791, "name": "4faaf775a1d47ede072818a8f8ce60e9", "fusion_lon": 0.0, "bike_id": "4faaf775a1d47ede072818a8f8ce60e9", "is_disabled": 0, "is_reserved": 0}, {"rental_uris": {"ios": "https://dc.lft.to/lastmile_qr_scan", "android": "https://dc.lft.to/lastmile_qr_scan"}, "lon": -77.026278, "type": "electric_bike", "fusion_lat": 0.0, "lat": 38.9622, "name": "a3c0d14ecf602624500aca6c8b565cc4", "fusion_lon": 0.0, "bike_id": "a3c0d14ecf602624500aca6c8b565cc4", "is_disabled": 0, "is_reserved": 0}, {"rental_uris": {"ios": "https://dc.lft.to/lastmile_qr_scan", "android": "https://dc.lft.to/lastmile_qr_scan"}, "lon": -77.03456483333333, "type": "electric_scooter", "fusion_lat": 0.0, "lat": 38.945783666666664, "name": "4efdacf05871c18a627d4bbd2e9044c1", "fusion_lon": 0.0, "bike_id": "4efdacf05871c18a627d4bbd2e9044c1", "is_disabled": 0, "is_reserved": 0}, {"rental_uris": {"ios": "https://dc.lft.to/lastmile_qr_scan", "android": "https://dc.lft.to/lastmile_qr_scan"}, "lon": -77.0072835, "type": "electric_scooter", "fusion_lat": 0.0, "lat": 38.884929, "name": "5b237bd8044aee3873686f747d05cd70", "fusion_lon": 0.0, "bike_id": "5b237bd8044aee3873686f747d05cd70", "is_disabled": 0, "is_reserved": 0}, {"rental_uris": {"ios": "https://dc.lft.to/lastmile_qr_scan", "android": "https://dc.lft.to/lastmile_qr_scan"}, "lon": -76.99498283333334, "type": "electric_scooter", "fusion_lat": 0.0, "lat": 38.86246383333334, "name": "70fba879eceadc74aa7437cacafdfc2d", "fusion_lon": 0.0, "bike_id": "70fba879eceadc74aa7437cacafdfc2d", "is_disabled": 0, "is_reserved": 0}, {"rental_uris": {"ios": "https://dc.lft.to/lastmile_qr_scan", "android": "https://dc.lft.to/lastmile_qr_scan"}, "lon": -77.0442115, "type": "electric_scooter", "fusion_lat": 0.0, "lat": 38.8918905, "name": "3085bacdff0c4d752e402648cad55df7", "fusion_lon": 0.0, "bike_id": "3085bacdff0c4d752e402648cad55df7", "is_disabled": 0, "is_reserved": 0}, {"rental_uris": {"ios": "https://dc.lft.to/lastmile_qr_scan", "android": "https://dc.lft.to/lastmile_qr_scan"}, "lon": -77.02343633333334, "type": "electric_scooter", "fusion_lat": 0.0, "lat": 38.93177816666667, "name": "2b167fecf9cb51653464606b5fbaeefc", "fusion_lon": 0.0, "bike_id": "2b167fecf9cb51653464606b5fbaeefc", "is_disabled": 0, "is_reserved": 0}, {"rental_uris": {"ios": "https://dc.lft.to/lastmile_qr_scan", "android": "https://dc.lft.to/lastmile_qr_scan"}, "lon": -77.03344583333333, "type": "electric_scooter", "fusion_lat": 0.0, "lat": 38.88511883333334, "name": "3ffa5593cf8f61d84b0052d8ba63a30b", "fusion_lon": 0.0, "bike_id": "3ffa5593cf8f61d84b0052d8ba63a30b", "is_disabled": 0, "is_reserved": 0}, {"rental_uris": {"ios": "https://dc.lft.to/lastmile_qr_scan", "android": "https://dc.lft.to/lastmile_qr_scan"}, "lon": -76.9955945, "type": "electric_scooter", "fusion_lat": 0.0, "lat": 38.886045833333334, "name": "9d2c1edc0f2fd21295cf6efc2e0df515", "fusion_lon": 0.0, "bike_id": "9d2c1edc0f2fd21295cf6efc2e0df515", "is_disabled": 0, "is_reserved": 0}, {"rental_uris": {"ios": "https://dc.lft.to/lastmile_qr_scan", "android": "https://dc.lft.to/lastmile_qr_scan"}, "lon": -77.030761, "type": "electric_scooter", "fusion_lat": 0.0, "lat": 38.91265883333333, "name": "ad05edf6b4f1b0615cd3a71b5402f642", "fusion_lon": 0.0, "bike_id": "ad05edf6b4f1b0615cd3a71b5402f642", "is_disabled": 0, "is_reserved": 0}, {"rental_uris": {"ios": "https://dc.lft.to/lastmile_qr_scan", "android": "https://dc.lft.to/lastmile_qr_scan"}, "lon": -77.021895, "type": "electric_scooter", "fusion_lat": 0.0, "lat": 38.915654, "name": "0418168e134f8df62becfa25a14500e6", "fusion_lon": 0.0, "bike_id": "0418168e134f8df62becfa25a14500e6", "is_disabled": 0, "is_reserved": 0}, {"rental_uris": {"ios": "https://dc.lft.to/lastmile_qr_scan", "android": "https://dc.lft.to/lastmile_qr_scan"}, "lon": -77.030286, "type": "electric_scooter", "fusion_lat": 0.0, "lat": 38.90259866666667, "name": "e808b6718eaf96ed7e59ce54401e00a5", "fusion_lon": 0.0, "bike_id": "e808b6718eaf96ed7e59ce54401e00a5", "is_disabled": 0, "is_reserved": 0}, {"rental_uris": {"ios": "https://dc.lft.to/lastmile_qr_scan", "android": "https://dc.lft.to/lastmile_qr_scan"}, "lon": -77.17848283333333, "type": "electric_bike", "fusion_lat": 0.0, "lat": 39.08903816666667, "name": "e14579b963d0061320af38c947bd210d", "fusion_lon": 0.0, "bike_id": "e14579b963d0061320af38c947bd210d", "is_disabled": 0, "is_reserved": 0}, {"rental_uris": {"ios": "https://dc.lft.to/lastmile_qr_scan", "android": "https://dc.lft.to/lastmile_qr_scan"}, "lon": -77.0325845, "type": "electric_scooter", "fusion_lat": 0.0, "lat": 38.933375, "name": "598e692ba52924365185659416789be2", "fusion_lon": 0.0, "bike_id": "598e692ba52924365185659416789be2", "is_disabled": 0, "is_reserved": 0}, {"rental_uris": {"ios": "https://dc.lft.to/lastmile_qr_scan", "android": "https://dc.lft.to/lastmile_qr_scan"}, "lon": -77.025025, "type": "electric_scooter", "fusion_lat": 0.0, "lat": 38.939643333333336, "name": "a6d940af417c3a1dfe768228b1ca470d", "fusion_lon": 0.0, "bike_id": "a6d940af417c3a1dfe768228b1ca470d", "is_disabled": 0, "is_reserved": 0}, {"rental_uris": {"ios": "https://dc.lft.to/lastmile_qr_scan", "android": "https://dc.lft.to/lastmile_qr_scan"}, "lon": -77.02708283333334, "type": "electric_scooter", "fusion_lat": 0.0, "lat": 38.950026333333334, "name": "a2e0ce3600bca05e6d7b853591f28e7f", "fusion_lon": 0.0, "bike_id": "a2e0ce3600bca05e6d7b853591f28e7f", "is_disabled": 0, "is_reserved": 0}, {"rental_uris": {"ios": "https://dc.lft.to/lastmile_qr_scan", "android": "https://dc.lft.to/lastmile_qr_scan"}, "lon": -77.02561, "type": "electric_scooter", "fusion_lat": 0.0, "lat": 38.901106666666664, "name": "18112d2282ee8b08e15b883e60c1c4b7", "fusion_lon": 0.0, "bike_id": "18112d2282ee8b08e15b883e60c1c4b7", "is_disabled": 0, "is_reserved": 0}, {"rental_uris": {"ios": "https://dc.lft.to/lastmile_qr_scan", "android": "https://dc.lft.to/lastmile_qr_scan"}, "lon": -77.00618983333334, "type": "electric_scooter", "fusion_lat": 0.0, "lat": 38.9026965, "name": "694351ba953182c64475296bfd1861f3", "fusion_lon": 0.0, "bike_id": "694351ba953182c64475296bfd1861f3", "is_disabled": 0, "is_reserved": 0}, {"rental_uris": {"ios": "https://dc.lft.to/lastmile_qr_scan", "android": "https://dc.lft.to/lastmile_qr_scan"}, "lon": -77.01896166666667, "type": "electric_scooter", "fusion_lat": 0.0, "lat": 38.913652166666665, "name": "7ba00a5937da2c47eb0f6ee6e9b116d3", "fusion_lon": 0.0, "bike_id": "7ba00a5937da2c47eb0f6ee6e9b116d3", "is_disabled": 0, "is_reserved": 0}, {"rental_uris": {"ios": "https://dc.lft.to/lastmile_qr_scan", "android": "https://dc.lft.to/lastmile_qr_scan"}, "lon": -76.96504233333333, "type": "electric_scooter", "fusion_lat": 0.0, "lat": 38.87475666666667, "name": "74a0a7ec403b9367c89e4663e1c5c69d", "fusion_lon": 0.0, "bike_id": "74a0a7ec403b9367c89e4663e1c5c69d", "is_disabled": 0, "is_reserved": 0}, {"rental_uris": {"ios": "https://dc.lft.to/lastmile_qr_scan", "android": "https://dc.lft.to/lastmile_qr_scan"}, "lon": -77.03500233333334, "type": "electric_scooter", "fusion_lat": 0.0, "lat": 38.92153366666667, "name": "0865ffe7938b38b069e218f1fc89e413", "fusion_lon": 0.0, "bike_id": "0865ffe7938b38b069e218f1fc89e413", "is_disabled": 0, "is_reserved": 0}, {"rental_uris": {"ios": "https://dc.lft.to/lastmile_qr_scan", "android": "https://dc.lft.to/lastmile_qr_scan"}, "lon": -77.0269565, "type": "electric_scooter", "fusion_lat": 0.0, "lat": 38.90683633333333, "name": "78994bcd6264fc85aa8f0685c177615a", "fusion_lon": 0.0, "bike_id": "78994bcd6264fc85aa8f0685c177615a", "is_disabled": 0, "is_reserved": 0}, {"rental_uris": {"ios": "https://dc.lft.to/lastmile_qr_scan", "android": "https://dc.lft.to/lastmile_qr_scan"}, "lon": -77.03755866666667, "type": "electric_scooter", "fusion_lat": 0.0, "lat": 38.90876033333333, "name": "54e02c68b72074b58f247dab36933423", "fusion_lon": 0.0, "bike_id": "54e02c68b72074b58f247dab36933423", "is_disabled": 0, "is_reserved": 0}, {"rental_uris": {"ios": "https://dc.lft.to/lastmile_qr_scan", "android": "https://dc.lft.to/lastmile_qr_scan"}, "lon": -77.01376966666666, "type": "electric_scooter", "fusion_lat": 0.0, "lat": 38.9287205, "name": "f2cca0f6d42d6b1a77281a69d59a22b9", "fusion_lon": 0.0, "bike_id": "f2cca0f6d42d6b1a77281a69d59a22b9", "is_disabled": 0, "is_reserved": 0}, {"rental_uris": {"ios": "https://dc.lft.to/lastmile_qr_scan", "android": "https://dc.lft.to/lastmile_qr_scan"}, "lon": -77.01445633333333, "type": "electric_scooter", "fusion_lat": 0.0, "lat": 38.91200516666667, "name": "31b7d99b617ee26df7b4766244d362e7", "fusion_lon": 0.0, "bike_id": "31b7d99b617ee26df7b4766244d362e7", "is_disabled": 0, "is_reserved": 0}, {"rental_uris": {"ios": "https://dc.lft.to/lastmile_qr_scan", "android": "https://dc.lft.to/lastmile_qr_scan"}, "lon": -76.98952416666667, "type": "electric_scooter", "fusion_lat": 0.0, "lat": 38.901423333333334, "name": "11040657f78aeb1d791ef9add4d3d632", "fusion_lon": 0.0, "bike_id": "11040657f78aeb1d791ef9add4d3d632", "is_disabled": 0, "is_reserved": 0}, {"rental_uris": {"ios": "https://dc.lft.to/lastmile_qr_scan", "android": "https://dc.lft.to/lastmile_qr_scan"}, "lon": -76.93525416666667, "type": "electric_scooter", "fusion_lat": 0.0, "lat": 38.9086995, "name": "275a3c7c3c25dbf4d7afd05b2bd7a6b7", "fusion_lon": 0.0, "bike_id": "275a3c7c3c25dbf4d7afd05b2bd7a6b7", "is_disabled": 0, "is_reserved": 0}, {"rental_uris": {"ios": "https://dc.lft.to/lastmile_qr_scan", "android": "https://dc.lft.to/lastmile_qr_scan"}, "lon": -76.99161033333333, "type": "electric_scooter", "fusion_lat": 0.0, "lat": 38.893450666666666, "name": "e2769b8a100eece86d84914ab37917fa", "fusion_lon": 0.0, "bike_id": "e2769b8a100eece86d84914ab37917fa", "is_disabled": 0, "is_reserved": 0}, {"rental_uris": {"ios": "https://dc.lft.to/lastmile_qr_scan", "android": "https://dc.lft.to/lastmile_qr_scan"}, "lon": -76.93812083333333, "type": "electric_scooter", "fusion_lat": 0.0, "lat": 38.9130615, "name": "8e1b54a1fdc8621ad4bf2a04a0505b3c", "fusion_lon": 0.0, "bike_id": "8e1b54a1fdc8621ad4bf2a04a0505b3c", "is_disabled": 0, "is_reserved": 0}, {"rental_uris": {"ios": "https://dc.lft.to/lastmile_qr_scan", "android": "https://dc.lft.to/lastmile_qr_scan"}, "lon": -77.049989, "type": "electric_scooter", "fusion_lat": 0.0, "lat": 38.901691, "name": "fc36147a448f68d870dc4de73dac9d19", "fusion_lon": 0.0, "bike_id": "fc36147a448f68d870dc4de73dac9d19", "is_disabled": 0, "is_reserved": 0}, {"rental_uris": {"ios": "https://dc.lft.to/lastmile_qr_scan", "android": "https://dc.lft.to/lastmile_qr_scan"}, "lon": -77.0239265, "type": "electric_scooter", "fusion_lat": 0.0, "lat": 38.887391, "name": "7cfaccb9a432f958506a093c9513c8b0", "fusion_lon": 0.0, "bike_id": "7cfaccb9a432f958506a093c9513c8b0", "is_disabled": 0, "is_reserved": 0}, {"rental_uris": {"ios": "https://dc.lft.to/lastmile_qr_scan", "android": "https://dc.lft.to/lastmile_qr_scan"}, "lon": -77.06164266666667, "type": "electric_scooter", "fusion_lat": 0.0, "lat": 38.94229133333333, "name": "b0edd021008ede1c57dd0681facb297e", "fusion_lon": 0.0, "bike_id": "b0edd021008ede1c57dd0681facb297e", "is_disabled": 0, "is_reserved": 0}, {"rental_uris": {"ios": "https://dc.lft.to/lastmile_qr_scan", "android": "https://dc.lft.to/lastmile_qr_scan"}, "lon": -77.02492383333333, "type": "electric_scooter", "fusion_lat": 0.0, "lat": 38.91806666666667, "name": "db599392b5c3902ef70b2d2d4aef91b7", "fusion_lon": 0.0, "bike_id": "db599392b5c3902ef70b2d2d4aef91b7", "is_disabled": 0, "is_reserved": 0}, {"rental_uris": {"ios": "https://dc.lft.to/lastmile_qr_scan", "android": "https://dc.lft.to/lastmile_qr_scan"}, "lon": -77.03169383333334, "type": "electric_scooter", "fusion_lat": 0.0, "lat": 38.896094166666664, "name": "db1cb97a4d91da609d892ecd75adddfa", "fusion_lon": 0.0, "bike_id": "db1cb97a4d91da609d892ecd75adddfa", "is_disabled": 0, "is_reserved": 0}, {"rental_uris": {"ios": "https://dc.lft.to/lastmile_qr_scan", "android": "https://dc.lft.to/lastmile_qr_scan"}, "lon": -77.127428, "type": "electric_bike", "fusion_lat": 0.0, "lat": 38.888224666666666, "name": "c99817845c49103d02d6696d955a419b", "fusion_lon": 0.0, "bike_id": "c99817845c49103d02d6696d955a419b", "is_disabled": 0, "is_reserved": 0}, {"rental_uris": {"ios": "https://dc.lft.to/lastmile_qr_scan", "android": "https://dc.lft.to/lastmile_qr_scan"}, "lon": -76.931576, "type": "electric_scooter", "fusion_lat": 0.0, "lat": 38.8987655, "name": "67cbcc62c304b4b0fd70be78c669fda1", "fusion_lon": 0.0, "bike_id": "67cbcc62c304b4b0fd70be78c669fda1", "is_disabled": 0, "is_reserved": 0}, {"rental_uris": {"ios": "https://dc.lft.to/lastmile_qr_scan", "android": "https://dc.lft.to/lastmile_qr_scan"}, "lon": -76.98769783333333, "type": "electric_scooter", "fusion_lat": 0.0, "lat": 38.911720333333335, "name": "fb99d05421261ff534c3562eae526149", "fusion_lon": 0.0, "bike_id": "fb99d05421261ff534c3562eae526149", "is_disabled": 0, "is_reserved": 0}, {"rental_uris": {"ios": "https://dc.lft.to/lastmile_qr_scan", "android": "https://dc.lft.to/lastmile_qr_scan"}, "lon": -77.03381116666667, "type": "electric_scooter", "fusion_lat": 0.0, "lat": 38.91036066666667, "name": "811d4ca184e5d54d85724be4047e809e", "fusion_lon": 0.0, "bike_id": "811d4ca184e5d54d85724be4047e809e", "is_disabled": 0, "is_reserved": 0}, {"rental_uris": {"ios": "https://dc.lft.to/lastmile_qr_scan", "android": "https://dc.lft.to/lastmile_qr_scan"}, "lon": -77.0470625, "type": "electric_scooter", "fusion_lat": 0.0, "lat": 38.90242533333333, "name": "1d1b6012fd1194d25f464d1ce83270a1", "fusion_lon": 0.0, "bike_id": "1d1b6012fd1194d25f464d1ce83270a1", "is_disabled": 0, "is_reserved": 0}, {"rental_uris": {"ios": "https://dc.lft.to/lastmile_qr_scan", "android": "https://dc.lft.to/lastmile_qr_scan"}, "lon": -77.0341575, "type": "electric_scooter", "fusion_lat": 0.0, "lat": 38.909690833333336, "name": "7d663699dc808cd08dddebfa36aba9dd", "fusion_lon": 0.0, "bike_id": "7d663699dc808cd08dddebfa36aba9dd", "is_disabled": 0, "is_reserved": 0}, {"rental_uris": {"ios": "https://dc.lft.to/lastmile_qr_scan", "android": "https://dc.lft.to/lastmile_qr_scan"}, "lon": -77.043344, "type": "electric_scooter", "fusion_lat": 0.0, "lat": 38.904933166666666, "name": "94e98e6895dbf0f43da2696c53f74b3d", "fusion_lon": 0.0, "bike_id": "94e98e6895dbf0f43da2696c53f74b3d", "is_disabled": 0, "is_reserved": 0}, {"rental_uris": {"ios": "https://dc.lft.to/lastmile_qr_scan", "android": "https://dc.lft.to/lastmile_qr_scan"}, "lon": -76.95532716666666, "type": "electric_scooter", "fusion_lat": 0.0, "lat": 38.888772, "name": "858743272923c28bcd172a4c53dcc155", "fusion_lon": 0.0, "bike_id": "858743272923c28bcd172a4c53dcc155", "is_disabled": 0, "is_reserved": 0}, {"rental_uris": {"ios": "https://dc.lft.to/lastmile_qr_scan", "android": "https://dc.lft.to/lastmile_qr_scan"}, "lon": -77.0315925, "type": "electric_scooter", "fusion_lat": 0.0, "lat": 38.8935875, "name": "ec4d908923d3c92e91d57df38ef8718d", "fusion_lon": 0.0, "bike_id": "ec4d908923d3c92e91d57df38ef8718d", "is_disabled": 0, "is_reserved": 0}, {"rental_uris": {"ios": "https://dc.lft.to/lastmile_qr_scan", "android": "https://dc.lft.to/lastmile_qr_scan"}, "lon": -77.04125433333333, "type": "electric_scooter", "fusion_lat": 0.0, "lat": 38.91708783333333, "name": "e1dd17333ecdeedf4b995501cdce7f69", "fusion_lon": 0.0, "bike_id": "e1dd17333ecdeedf4b995501cdce7f69", "is_disabled": 0, "is_reserved": 0}, {"rental_uris": {"ios": "https://dc.lft.to/lastmile_qr_scan", "android": "https://dc.lft.to/lastmile_qr_scan"}, "lon": -77.03010983333333, "type": "electric_scooter", "fusion_lat": 0.0, "lat": 38.89990933333333, "name": "983a5ffed6df93a4c36894862e8123f2", "fusion_lon": 0.0, "bike_id": "983a5ffed6df93a4c36894862e8123f2", "is_disabled": 0, "is_reserved": 0}, {"rental_uris": {"ios": "https://dc.lft.to/lastmile_qr_scan", "android": "https://dc.lft.to/lastmile_qr_scan"}, "lon": -77.03438533333333, "type": "electric_scooter", "fusion_lat": 0.0, "lat": 38.90722983333333, "name": "097d2f7bfe6c3c04a76ed278dbf62cfb", "fusion_lon": 0.0, "bike_id": "097d2f7bfe6c3c04a76ed278dbf62cfb", "is_disabled": 0, "is_reserved": 0}, {"rental_uris": {"ios": "https://dc.lft.to/lastmile_qr_scan", "android": "https://dc.lft.to/lastmile_qr_scan"}, "lon": -77.03362716666666, "type": "electric_scooter", "fusion_lat": 0.0, "lat": 38.887573333333336, "name": "87af5e0db2407615a653001637ec17e7", "fusion_lon": 0.0, "bike_id": "87af5e0db2407615a653001637ec17e7", "is_disabled": 0, "is_reserved": 0}, {"rental_uris": {"ios": "https://dc.lft.to/lastmile_qr_scan", "android": "https://dc.lft.to/lastmile_qr_scan"}, "lon": -77.02382883333334, "type": "electric_scooter", "fusion_lat": 0.0, "lat": 38.91158566666667, "name": "3fab6ce890e553b8e308c51915d40461", "fusion_lon": 0.0, "bike_id": "3fab6ce890e553b8e308c51915d40461", "is_disabled": 0, "is_reserved": 0}, {"rental_uris": {"ios": "https://dc.lft.to/lastmile_qr_scan", "android": "https://dc.lft.to/lastmile_qr_scan"}, "lon": -77.030132, "type": "electric_bike", "fusion_lat": 0.0, "lat": 38.93487233333333, "name": "2ea4095a2089091aa43a5f6fca544991", "fusion_lon": 0.0, "bike_id": "2ea4095a2089091aa43a5f6fca544991", "is_disabled": 0, "is_reserved": 0}, {"rental_uris": {"ios": "https://dc.lft.to/lastmile_qr_scan", "android": "https://dc.lft.to/lastmile_qr_scan"}, "lon": -77.02823683333334, "type": "electric_scooter", "fusion_lat": 0.0, "lat": 38.910221666666665, "name": "d65f630518f8ef65deddc4438ce756ae", "fusion_lon": 0.0, "bike_id": "d65f630518f8ef65deddc4438ce756ae", "is_disabled": 0, "is_reserved": 0}, {"rental_uris": {"ios": "https://dc.lft.to/lastmile_qr_scan", "android": "https://dc.lft.to/lastmile_qr_scan"}, "lon": -77.06398433333334, "type": "electric_bike", "fusion_lat": 0.0, "lat": 38.8434605, "name": "e9b2d3fb692c9fdbd1cc254facf36b23", "fusion_lon": 0.0, "bike_id": "e9b2d3fb692c9fdbd1cc254facf36b23", "is_disabled": 0, "is_reserved": 0}, {"rental_uris": {"ios": "https://dc.lft.to/lastmile_qr_scan", "android": "https://dc.lft.to/lastmile_qr_scan"}, "lon": -77.038393, "type": "electric_scooter", "fusion_lat": 0.0, "lat": 38.9182765, "name": "f7f787e103aa96614c823977f2e26ce0", "fusion_lon": 0.0, "bike_id": "f7f787e103aa96614c823977f2e26ce0", "is_disabled": 0, "is_reserved": 0}, {"rental_uris": {"ios": "https://dc.lft.to/lastmile_qr_scan", "android": "https://dc.lft.to/lastmile_qr_scan"}, "lon": -77.00031283333334, "type": "electric_scooter", "fusion_lat": 0.0, "lat": 38.876599166666665, "name": "991f105362918218915d52e8ff6a50e5", "fusion_lon": 0.0, "bike_id": "991f105362918218915d52e8ff6a50e5", "is_disabled": 0, "is_reserved": 0}, {"rental_uris": {"ios": "https://dc.lft.to/lastmile_qr_scan", "android": "https://dc.lft.to/lastmile_qr_scan"}, "lon": -77.0265075, "type": "electric_scooter", "fusion_lat": 0.0, "lat": 38.88116733333333, "name": "10438d54b24ade38da341c9692b01f32", "fusion_lon": 0.0, "bike_id": "10438d54b24ade38da341c9692b01f32", "is_disabled": 0, "is_reserved": 0}, {"rental_uris": {"ios": "https://dc.lft.to/lastmile_qr_scan", "android": "https://dc.lft.to/lastmile_qr_scan"}, "lon": -76.93173566666667, "type": "electric_scooter", "fusion_lat": 0.0, "lat": 38.89885366666667, "name": "686c7912293d0a62a8b18206376ed83e", "fusion_lon": 0.0, "bike_id": "686c7912293d0a62a8b18206376ed83e", "is_disabled": 0, "is_reserved": 0}, {"rental_uris": {"ios": "https://dc.lft.to/lastmile_qr_scan", "android": "https://dc.lft.to/lastmile_qr_scan"}, "lon": -77.0189775, "type": "electric_scooter", "fusion_lat": 0.0, "lat": 38.90994283333333, "name": "425a134fc522ea5741dad114c5bbfdec", "fusion_lon": 0.0, "bike_id": "425a134fc522ea5741dad114c5bbfdec", "is_disabled": 0, "is_reserved": 0}, {"rental_uris": {"ios": "https://dc.lft.to/lastmile_qr_scan", "android": "https://dc.lft.to/lastmile_qr_scan"}, "lon": -77.02696566666667, "type": "electric_scooter", "fusion_lat": 0.0, "lat": 38.91633916666667, "name": "93ae529a0d10c2833f2fe6e4d2aed9aa", "fusion_lon": 0.0, "bike_id": "93ae529a0d10c2833f2fe6e4d2aed9aa", "is_disabled": 0, "is_reserved": 0}, {"rental_uris": {"ios": "https://dc.lft.to/lastmile_qr_scan", "android": "https://dc.lft.to/lastmile_qr_scan"}, "lon": -77.03213216666667, "type": "electric_scooter", "fusion_lat": 0.0, "lat": 38.9178795, "name": "abd8f896901841302a5f3e4669701479", "fusion_lon": 0.0, "bike_id": "abd8f896901841302a5f3e4669701479", "is_disabled": 0, "is_reserved": 0}, {"rental_uris": {"ios": "https://dc.lft.to/lastmile_qr_scan", "android": "https://dc.lft.to/lastmile_qr_scan"}, "lon": -77.11218116666667, "type": "electric_bike", "fusion_lat": 0.0, "lat": 38.828739166666665, "name": "4e273718d89ed1326ab251b5a776d718", "fusion_lon": 0.0, "bike_id": "4e273718d89ed1326ab251b5a776d718", "is_disabled": 0, "is_reserved": 0}, {"rental_uris": {"ios": "https://dc.lft.to/lastmile_qr_scan", "android": "https://dc.lft.to/lastmile_qr_scan"}, "lon": -76.98573116666667, "type": "electric_scooter", "fusion_lat": 0.0, "lat": 38.91438483333334, "name": "5405484b001f47fd639f720c19577709", "fusion_lon": 0.0, "bike_id": "5405484b001f47fd639f720c19577709", "is_disabled": 0, "is_reserved": 0}, {"rental_uris": {"ios": "https://dc.lft.to/lastmile_qr_scan", "android": "https://dc.lft.to/lastmile_qr_scan"}, "lon": -77.05325433333333, "type": "electric_scooter", "fusion_lat": 0.0, "lat": 38.905409, "name": "bf0a169b0f86da4205c371b1b3a5fcfe", "fusion_lon": 0.0, "bike_id": "bf0a169b0f86da4205c371b1b3a5fcfe", "is_disabled": 0, "is_reserved": 0}, {"rental_uris": {"ios": "https://dc.lft.to/lastmile_qr_scan", "android": "https://dc.lft.to/lastmile_qr_scan"}, "lon": -76.87495483333333, "type": "electric_bike", "fusion_lat": 0.0, "lat": 38.9909075, "name": "6d20da1c734b2bff8aac35a0b8fce31d", "fusion_lon": 0.0, "bike_id": "6d20da1c734b2bff8aac35a0b8fce31d", "is_disabled": 0, "is_reserved": 0}, {"rental_uris": {"ios": "https://dc.lft.to/lastmile_qr_scan", "android": "https://dc.lft.to/lastmile_qr_scan"}, "lon": -77.03185566666667, "type": "electric_scooter", "fusion_lat": 0.0, "lat": 38.9162495, "name": "ea2f75977a22da210ed511edb20bc4d3", "fusion_lon": 0.0, "bike_id": "ea2f75977a22da210ed511edb20bc4d3", "is_disabled": 0, "is_reserved": 0}, {"rental_uris": {"ios": "https://dc.lft.to/lastmile_qr_scan", "android": "https://dc.lft.to/lastmile_qr_scan"}, "lon": -77.04289833333333, "type": "electric_scooter", "fusion_lat": 0.0, "lat": 38.92267283333334, "name": "d48703336d87e97915e2a72649cea78d", "fusion_lon": 0.0, "bike_id": "d48703336d87e97915e2a72649cea78d", "is_disabled": 0, "is_reserved": 0}, {"rental_uris": {"ios": "https://dc.lft.to/lastmile_qr_scan", "android": "https://dc.lft.to/lastmile_qr_scan"}, "lon": -76.93159716666666, "type": "electric_scooter", "fusion_lat": 0.0, "lat": 38.89879833333333, "name": "8900fe9c6e86b2e3a35a4996bf92577c", "fusion_lon": 0.0, "bike_id": "8900fe9c6e86b2e3a35a4996bf92577c", "is_disabled": 0, "is_reserved": 0}, {"rental_uris": {"ios": "https://dc.lft.to/lastmile_qr_scan", "android": "https://dc.lft.to/lastmile_qr_scan"}, "lon": -77.02240366666666, "type": "electric_scooter", "fusion_lat": 0.0, "lat": 38.91130583333333, "name": "5623ef39a4df410eb243e9d1da5360ff", "fusion_lon": 0.0, "bike_id": "5623ef39a4df410eb243e9d1da5360ff", "is_disabled": 0, "is_reserved": 0}, {"rental_uris": {"ios": "https://dc.lft.to/lastmile_qr_scan", "android": "https://dc.lft.to/lastmile_qr_scan"}, "lon": -77.04483233333333, "type": "electric_scooter", "fusion_lat": 0.0, "lat": 38.91065483333333, "name": "edf94d5d6c6dc9122fb2b1b5c077b926", "fusion_lon": 0.0, "bike_id": "edf94d5d6c6dc9122fb2b1b5c077b926", "is_disabled": 0, "is_reserved": 0}, {"rental_uris": {"ios": "https://dc.lft.to/lastmile_qr_scan", "android": "https://dc.lft.to/lastmile_qr_scan"}, "lon": -77.03856916666666, "type": "electric_scooter", "fusion_lat": 0.0, "lat": 38.912114, "name": "76bcb2a74dfea556a28831eeaec56fb6", "fusion_lon": 0.0, "bike_id": "76bcb2a74dfea556a28831eeaec56fb6", "is_disabled": 0, "is_reserved": 0}, {"rental_uris": {"ios": "https://dc.lft.to/lastmile_qr_scan", "android": "https://dc.lft.to/lastmile_qr_scan"}, "lon": -77.02434883333333, "type": "electric_scooter", "fusion_lat": 0.0, "lat": 38.9270675, "name": "254d0b4ffd334aeba7f0b2450d21b985", "fusion_lon": 0.0, "bike_id": "254d0b4ffd334aeba7f0b2450d21b985", "is_disabled": 0, "is_reserved": 0}, {"rental_uris": {"ios": "https://dc.lft.to/lastmile_qr_scan", "android": "https://dc.lft.to/lastmile_qr_scan"}, "lon": -77.03325533333333, "type": "electric_scooter", "fusion_lat": 0.0, "lat": 38.89832633333333, "name": "ecce941cdddaaf9949113f2134190f89", "fusion_lon": 0.0, "bike_id": "ecce941cdddaaf9949113f2134190f89", "is_disabled": 0, "is_reserved": 0}, {"rental_uris": {"ios": "https://dc.lft.to/lastmile_qr_scan", "android": "https://dc.lft.to/lastmile_qr_scan"}, "lon": -77.03817966666666, "type": "electric_scooter", "fusion_lat": 0.0, "lat": 38.920776000000004, "name": "a464e6731a5fa86ef88efe8c74fbc3d8", "fusion_lon": 0.0, "bike_id": "a464e6731a5fa86ef88efe8c74fbc3d8", "is_disabled": 0, "is_reserved": 0}, {"rental_uris": {"ios": "https://dc.lft.to/lastmile_qr_scan", "android": "https://dc.lft.to/lastmile_qr_scan"}, "lon": -77.03775516666667, "type": "electric_scooter", "fusion_lat": 0.0, "lat": 38.91220116666667, "name": "f06f13e507d9ffabb380061f3d5fe1f8", "fusion_lon": 0.0, "bike_id": "f06f13e507d9ffabb380061f3d5fe1f8", "is_disabled": 0, "is_reserved": 0}, {"rental_uris": {"ios": "https://dc.lft.to/lastmile_qr_scan", "android": "https://dc.lft.to/lastmile_qr_scan"}, "lon": -77.05116516666666, "type": "electric_scooter", "fusion_lat": 0.0, "lat": 38.90563433333333, "name": "b53ab4461ba9adb7ad2ce7c67d4b2f92", "fusion_lon": 0.0, "bike_id": "b53ab4461ba9adb7ad2ce7c67d4b2f92", "is_disabled": 0, "is_reserved": 0}, {"rental_uris": {"ios": "https://dc.lft.to/lastmile_qr_scan", "android": "https://dc.lft.to/lastmile_qr_scan"}, "lon": -77.03842183333333, "type": "electric_scooter", "fusion_lat": 0.0, "lat": 38.91024183333333, "name": "300f5626e551a88fec038f395fe75127", "fusion_lon": 0.0, "bike_id": "300f5626e551a88fec038f395fe75127", "is_disabled": 0, "is_reserved": 0}, {"rental_uris": {"ios": "https://dc.lft.to/lastmile_qr_scan", "android": "https://dc.lft.to/lastmile_qr_scan"}, "lon": -77.04371483333334, "type": "electric_scooter", "fusion_lat": 0.0, "lat": 38.92573383333333, "name": "2a81e19dc64c4b24e6c9cd0023642809", "fusion_lon": 0.0, "bike_id": "2a81e19dc64c4b24e6c9cd0023642809", "is_disabled": 0, "is_reserved": 0}, {"rental_uris": {"ios": "https://dc.lft.to/lastmile_qr_scan", "android": "https://dc.lft.to/lastmile_qr_scan"}, "lon": -77.01936666666667, "type": "electric_scooter", "fusion_lat": 0.0, "lat": 38.9492855, "name": "944737cdcc0835967b66e2105997b476", "fusion_lon": 0.0, "bike_id": "944737cdcc0835967b66e2105997b476", "is_disabled": 0, "is_reserved": 0}, {"rental_uris": {"ios": "https://dc.lft.to/lastmile_qr_scan", "android": "https://dc.lft.to/lastmile_qr_scan"}, "lon": -77.027074, "type": "electric_scooter", "fusion_lat": 0.0, "lat": 38.90668083333333, "name": "742cd11fcb19113bd7eeabe430c7d65e", "fusion_lon": 0.0, "bike_id": "742cd11fcb19113bd7eeabe430c7d65e", "is_disabled": 0, "is_reserved": 0}, {"rental_uris": {"ios": "https://dc.lft.to/lastmile_qr_scan", "android": "https://dc.lft.to/lastmile_qr_scan"}, "lon": -77.00507266666666, "type": "electric_scooter", "fusion_lat": 0.0, "lat": 38.91191366666666, "name": "f993534da451122ec395482446ac438c", "fusion_lon": 0.0, "bike_id": "f993534da451122ec395482446ac438c", "is_disabled": 0, "is_reserved": 0}, {"rental_uris": {"ios": "https://dc.lft.to/lastmile_qr_scan", "android": "https://dc.lft.to/lastmile_qr_scan"}, "lon": -77.03080116666666, "type": "electric_scooter", "fusion_lat": 0.0, "lat": 38.89985466666667, "name": "e719d75f993df0c39271a81da72f52c4", "fusion_lon": 0.0, "bike_id": "e719d75f993df0c39271a81da72f52c4", "is_disabled": 0, "is_reserved": 0}, {"rental_uris": {"ios": "https://dc.lft.to/lastmile_qr_scan", "android": "https://dc.lft.to/lastmile_qr_scan"}, "lon": -77.039626, "type": "electric_scooter", "fusion_lat": 0.0, "lat": 38.899180666666666, "name": "250878483be9a1b3503ddf2cbc415f19", "fusion_lon": 0.0, "bike_id": "250878483be9a1b3503ddf2cbc415f19", "is_disabled": 0, "is_reserved": 0}, {"rental_uris": {"ios": "https://dc.lft.to/lastmile_qr_scan", "android": "https://dc.lft.to/lastmile_qr_scan"}, "lon": -77.01594466666667, "type": "electric_scooter", "fusion_lat": 0.0, "lat": 38.918571666666665, "name": "c0d80b93c7927ba29af3b8d33d9f536d", "fusion_lon": 0.0, "bike_id": "c0d80b93c7927ba29af3b8d33d9f536d", "is_disabled": 0, "is_reserved": 0}, {"rental_uris": {"ios": "https://dc.lft.to/lastmile_qr_scan", "android": "https://dc.lft.to/lastmile_qr_scan"}, "lon": -77.032976, "type": "electric_scooter", "fusion_lat": 0.0, "lat": 38.90862933333333, "name": "6b01f2d650dc40ff29f058129410d579", "fusion_lon": 0.0, "bike_id": "6b01f2d650dc40ff29f058129410d579", "is_disabled": 0, "is_reserved": 0}, {"rental_uris": {"ios": "https://dc.lft.to/lastmile_qr_scan", "android": "https://dc.lft.to/lastmile_qr_scan"}, "lon": -76.97922716666666, "type": "electric_scooter", "fusion_lat": 0.0, "lat": 38.86609, "name": "a59d0e07803f3eb674f4b8ea0c4e31b9", "fusion_lon": 0.0, "bike_id": "a59d0e07803f3eb674f4b8ea0c4e31b9", "is_disabled": 0, "is_reserved": 0}, {"rental_uris": {"ios": "https://dc.lft.to/lastmile_qr_scan", "android": "https://dc.lft.to/lastmile_qr_scan"}, "lon": -77.01377333333333, "type": "electric_scooter", "fusion_lat": 0.0, "lat": 38.898247166666664, "name": "0569a03c958da80f9af7f036c55b2865", "fusion_lon": 0.0, "bike_id": "0569a03c958da80f9af7f036c55b2865", "is_disabled": 0, "is_reserved": 0}, {"rental_uris": {"ios": "https://dc.lft.to/lastmile_qr_scan", "android": "https://dc.lft.to/lastmile_qr_scan"}, "lon": -77.044748, "type": "electric_scooter", "fusion_lat": 0.0, "lat": 38.903064, "name": "fb339ea560d6b69e52349abba72897fa", "fusion_lon": 0.0, "bike_id": "fb339ea560d6b69e52349abba72897fa", "is_disabled": 0, "is_reserved": 0}, {"rental_uris": {"ios": "https://dc.lft.to/lastmile_qr_scan", "android": "https://dc.lft.to/lastmile_qr_scan"}, "lon": -76.98559233333333, "type": "electric_scooter", "fusion_lat": 0.0, "lat": 38.899522166666664, "name": "1a106746bb8c9b5f5dc2ddd49c9e2f21", "fusion_lon": 0.0, "bike_id": "1a106746bb8c9b5f5dc2ddd49c9e2f21", "is_disabled": 0, "is_reserved": 0}, {"rental_uris": {"ios": "https://dc.lft.to/lastmile_qr_scan", "android": "https://dc.lft.to/lastmile_qr_scan"}, "lon": -77.0272245, "type": "electric_scooter", "fusion_lat": 0.0, "lat": 38.89995233333333, "name": "386e17217250331655f03526d6b146c9", "fusion_lon": 0.0, "bike_id": "386e17217250331655f03526d6b146c9", "is_disabled": 0, "is_reserved": 0}, {"rental_uris": {"ios": "https://dc.lft.to/lastmile_qr_scan", "android": "https://dc.lft.to/lastmile_qr_scan"}, "lon": -77.0243945, "type": "electric_scooter", "fusion_lat": 0.0, "lat": 38.902071666666664, "name": "af8dad9d931895d71c650fd107971334", "fusion_lon": 0.0, "bike_id": "af8dad9d931895d71c650fd107971334", "is_disabled": 0, "is_reserved": 0}, {"rental_uris": {"ios": "https://dc.lft.to/lastmile_qr_scan", "android": "https://dc.lft.to/lastmile_qr_scan"}, "lon": -76.9793865, "type": "electric_scooter", "fusion_lat": 0.0, "lat": 38.902467333333334, "name": "0452441e66b85413d96eac32063b2b98", "fusion_lon": 0.0, "bike_id": "0452441e66b85413d96eac32063b2b98", "is_disabled": 0, "is_reserved": 0}, {"rental_uris": {"ios": "https://dc.lft.to/lastmile_qr_scan", "android": "https://dc.lft.to/lastmile_qr_scan"}, "lon": -77.04586833333333, "type": "electric_scooter", "fusion_lat": 0.0, "lat": 38.92126283333333, "name": "90909c22edea1885497daf86519312eb", "fusion_lon": 0.0, "bike_id": "90909c22edea1885497daf86519312eb", "is_disabled": 0, "is_reserved": 0}, {"rental_uris": {"ios": "https://dc.lft.to/lastmile_qr_scan", "android": "https://dc.lft.to/lastmile_qr_scan"}, "lon": -77.00333416666666, "type": "electric_scooter", "fusion_lat": 0.0, "lat": 38.893597166666666, "name": "b055256a6c36c70e1f56ef08d481c818", "fusion_lon": 0.0, "bike_id": "b055256a6c36c70e1f56ef08d481c818", "is_disabled": 0, "is_reserved": 0}, {"rental_uris": {"ios": "https://dc.lft.to/lastmile_qr_scan", "android": "https://dc.lft.to/lastmile_qr_scan"}, "lon": -77.04105, "type": "electric_scooter", "fusion_lat": 0.0, "lat": 38.915638666666666, "name": "9e793a2c565db20c62f5b9452c502bcc", "fusion_lon": 0.0, "bike_id": "9e793a2c565db20c62f5b9452c502bcc", "is_disabled": 0, "is_reserved": 0}, {"rental_uris": {"ios": "https://dc.lft.to/lastmile_qr_scan", "android": "https://dc.lft.to/lastmile_qr_scan"}, "lon": -77.06834066666667, "type": "electric_scooter", "fusion_lat": 0.0, "lat": 38.917302666666664, "name": "10ab19ed5970e02eeb418400e7182946", "fusion_lon": 0.0, "bike_id": "10ab19ed5970e02eeb418400e7182946", "is_disabled": 0, "is_reserved": 0}, {"rental_uris": {"ios": "https://dc.lft.to/lastmile_qr_scan", "android": "https://dc.lft.to/lastmile_qr_scan"}, "lon": -77.0385455, "type": "electric_scooter", "fusion_lat": 0.0, "lat": 38.932568333333336, "name": "e120df5333457dc160aedd143df5318f", "fusion_lon": 0.0, "bike_id": "e120df5333457dc160aedd143df5318f", "is_disabled": 0, "is_reserved": 0}, {"rental_uris": {"ios": "https://dc.lft.to/lastmile_qr_scan", "android": "https://dc.lft.to/lastmile_qr_scan"}, "lon": -77.02350116666666, "type": "electric_scooter", "fusion_lat": 0.0, "lat": 38.91110066666667, "name": "e4f0697cc4b02da2bff6ff3365e5fb2b", "fusion_lon": 0.0, "bike_id": "e4f0697cc4b02da2bff6ff3365e5fb2b", "is_disabled": 0, "is_reserved": 0}, {"rental_uris": {"ios": "https://dc.lft.to/lastmile_qr_scan", "android": "https://dc.lft.to/lastmile_qr_scan"}, "lon": -77.0374225, "type": "electric_scooter", "fusion_lat": 0.0, "lat": 38.92914416666667, "name": "1a0b5fa01b61406604bc6edf9e998738", "fusion_lon": 0.0, "bike_id": "1a0b5fa01b61406604bc6edf9e998738", "is_disabled": 0, "is_reserved": 0}, {"rental_uris": {"ios": "https://dc.lft.to/lastmile_qr_scan", "android": "https://dc.lft.to/lastmile_qr_scan"}, "lon": -77.02837383333333, "type": "electric_scooter", "fusion_lat": 0.0, "lat": 38.887728833333334, "name": "35301fb2957578b3d197298055bf1a90", "fusion_lon": 0.0, "bike_id": "35301fb2957578b3d197298055bf1a90", "is_disabled": 0, "is_reserved": 0}, {"rental_uris": {"ios": "https://dc.lft.to/lastmile_qr_scan", "android": "https://dc.lft.to/lastmile_qr_scan"}, "lon": -77.106253, "type": "electric_bike", "fusion_lat": 0.0, "lat": 38.873246333333334, "name": "fd8b551ccb28305430198abadeaefc53", "fusion_lon": 0.0, "bike_id": "fd8b551ccb28305430198abadeaefc53", "is_disabled": 0, "is_reserved": 0}, {"rental_uris": {"ios": "https://dc.lft.to/lastmile_qr_scan", "android": "https://dc.lft.to/lastmile_qr_scan"}, "lon": -77.05754583333334, "type": "electric_scooter", "fusion_lat": 0.0, "lat": 38.934163, "name": "115e5a2e18e7238b7ec5b624ac3db548", "fusion_lon": 0.0, "bike_id": "115e5a2e18e7238b7ec5b624ac3db548", "is_disabled": 0, "is_reserved": 0}, {"rental_uris": {"ios": "https://dc.lft.to/lastmile_qr_scan", "android": "https://dc.lft.to/lastmile_qr_scan"}, "lon": -77.04152633333334, "type": "electric_scooter", "fusion_lat": 0.0, "lat": 38.92337116666667, "name": "ba87d46bc99ddcf24a63687cbb481479", "fusion_lon": 0.0, "bike_id": "ba87d46bc99ddcf24a63687cbb481479", "is_disabled": 0, "is_reserved": 0}, {"rental_uris": {"ios": "https://dc.lft.to/lastmile_qr_scan", "android": "https://dc.lft.to/lastmile_qr_scan"}, "lon": -77.04388416666667, "type": "electric_scooter", "fusion_lat": 0.0, "lat": 38.91087616666667, "name": "cab3f55f76ddc6434a30770ac23edd61", "fusion_lon": 0.0, "bike_id": "cab3f55f76ddc6434a30770ac23edd61", "is_disabled": 0, "is_reserved": 0}, {"rental_uris": {"ios": "https://dc.lft.to/lastmile_qr_scan", "android": "https://dc.lft.to/lastmile_qr_scan"}, "lon": -76.9991725, "type": "electric_scooter", "fusion_lat": 0.0, "lat": 38.90942483333333, "name": "a0ed45bca9e62faea0cbd2b3d59998a9", "fusion_lon": 0.0, "bike_id": "a0ed45bca9e62faea0cbd2b3d59998a9", "is_disabled": 0, "is_reserved": 0}, {"rental_uris": {"ios": "https://dc.lft.to/lastmile_qr_scan", "android": "https://dc.lft.to/lastmile_qr_scan"}, "lon": -77.04256333333333, "type": "electric_scooter", "fusion_lat": 0.0, "lat": 38.90560966666666, "name": "2e0bc059cfbb059605036189a09b8029", "fusion_lon": 0.0, "bike_id": "2e0bc059cfbb059605036189a09b8029", "is_disabled": 0, "is_reserved": 0}, {"rental_uris": {"ios": "https://dc.lft.to/lastmile_qr_scan", "android": "https://dc.lft.to/lastmile_qr_scan"}, "lon": -77.04267783333333, "type": "electric_scooter", "fusion_lat": 0.0, "lat": 38.934147, "name": "9bb2e0e69f331aeeba9f21dbdda486d4", "fusion_lon": 0.0, "bike_id": "9bb2e0e69f331aeeba9f21dbdda486d4", "is_disabled": 0, "is_reserved": 0}, {"rental_uris": {"ios": "https://dc.lft.to/lastmile_qr_scan", "android": "https://dc.lft.to/lastmile_qr_scan"}, "lon": -77.03275466666666, "type": "electric_scooter", "fusion_lat": 0.0, "lat": 38.928655166666665, "name": "cd4dbf91fd84a3e3c663aaa13f23addd", "fusion_lon": 0.0, "bike_id": "cd4dbf91fd84a3e3c663aaa13f23addd", "is_disabled": 0, "is_reserved": 0}, {"rental_uris": {"ios": "https://dc.lft.to/lastmile_qr_scan", "android": "https://dc.lft.to/lastmile_qr_scan"}, "lon": -77.076599, "type": "electric_scooter", "fusion_lat": 0.0, "lat": 38.906261666666666, "name": "ea8cee7b9e7a6a0ff420fb4b02a9d45b", "fusion_lon": 0.0, "bike_id": "ea8cee7b9e7a6a0ff420fb4b02a9d45b", "is_disabled": 0, "is_reserved": 0}, {"rental_uris": {"ios": "https://dc.lft.to/lastmile_qr_scan", "android": "https://dc.lft.to/lastmile_qr_scan"}, "lon": -77.031812, "type": "electric_scooter", "fusion_lat": 0.0, "lat": 38.89390133333333, "name": "c5589de4d7d6c9e0b9eab7cd3662f3f9", "fusion_lon": 0.0, "bike_id": "c5589de4d7d6c9e0b9eab7cd3662f3f9", "is_disabled": 0, "is_reserved": 0}, {"rental_uris": {"ios": "https://dc.lft.to/lastmile_qr_scan", "android": "https://dc.lft.to/lastmile_qr_scan"}, "lon": -76.9462765, "type": "electric_bike", "fusion_lat": 0.0, "lat": 38.94624666666667, "name": "862c38a0dc577cf2754266e9184edb0b", "fusion_lon": 0.0, "bike_id": "862c38a0dc577cf2754266e9184edb0b", "is_disabled": 0, "is_reserved": 0}, {"rental_uris": {"ios": "https://dc.lft.to/lastmile_qr_scan", "android": "https://dc.lft.to/lastmile_qr_scan"}, "lon": -76.9720085, "type": "electric_scooter", "fusion_lat": 0.0, "lat": 38.85492166666667, "name": "c07e8172a4147a34e5020f1680ead099", "fusion_lon": 0.0, "bike_id": "c07e8172a4147a34e5020f1680ead099", "is_disabled": 0, "is_reserved": 0}, {"rental_uris": {"ios": "https://dc.lft.to/lastmile_qr_scan", "android": "https://dc.lft.to/lastmile_qr_scan"}, "lon": -76.98556616666667, "type": "electric_bike", "fusion_lat": 0.0, "lat": 38.8689325, "name": "54987416625bc8ed004609e35ad3f8fc", "fusion_lon": 0.0, "bike_id": "54987416625bc8ed004609e35ad3f8fc", "is_disabled": 0, "is_reserved": 0}, {"rental_uris": {"ios": "https://dc.lft.to/lastmile_qr_scan", "android": "https://dc.lft.to/lastmile_qr_scan"}, "lon": -77.01837466666667, "type": "electric_scooter", "fusion_lat": 0.0, "lat": 38.913455, "name": "d718d96e9de05a933802cd6ae588acd6", "fusion_lon": 0.0, "bike_id": "d718d96e9de05a933802cd6ae588acd6", "is_disabled": 0, "is_reserved": 0}, {"rental_uris": {"ios": "https://dc.lft.to/lastmile_qr_scan", "android": "https://dc.lft.to/lastmile_qr_scan"}, "lon": -77.02697233333333, "type": "electric_scooter", "fusion_lat": 0.0, "lat": 38.909313, "name": "c3b3c9d2db40d247c95959769c32582f", "fusion_lon": 0.0, "bike_id": "c3b3c9d2db40d247c95959769c32582f", "is_disabled": 0, "is_reserved": 0}, {"rental_uris": {"ios": "https://dc.lft.to/lastmile_qr_scan", "android": "https://dc.lft.to/lastmile_qr_scan"}, "lon": -77.02197216666667, "type": "electric_scooter", "fusion_lat": 0.0, "lat": 38.91690716666667, "name": "d14e1131ddce020a5953a2547654f601", "fusion_lon": 0.0, "bike_id": "d14e1131ddce020a5953a2547654f601", "is_disabled": 0, "is_reserved": 0}, {"rental_uris": {"ios": "https://dc.lft.to/lastmile_qr_scan", "android": "https://dc.lft.to/lastmile_qr_scan"}, "lon": -76.99143416666666, "type": "electric_scooter", "fusion_lat": 0.0, "lat": 38.885932, "name": "455026e4e5e24888d93a3ce4821e56b2", "fusion_lon": 0.0, "bike_id": "455026e4e5e24888d93a3ce4821e56b2", "is_disabled": 0, "is_reserved": 0}, {"rental_uris": {"ios": "https://dc.lft.to/lastmile_qr_scan", "android": "https://dc.lft.to/lastmile_qr_scan"}, "lon": -77.042269, "type": "electric_scooter", "fusion_lat": 0.0, "lat": 38.911098, "name": "c0b57f08cfa82ab6b5979b54d3eee09a", "fusion_lon": 0.0, "bike_id": "c0b57f08cfa82ab6b5979b54d3eee09a", "is_disabled": 0, "is_reserved": 0}, {"rental_uris": {"ios": "https://dc.lft.to/lastmile_qr_scan", "android": "https://dc.lft.to/lastmile_qr_scan"}, "lon": -77.0463895, "type": "electric_scooter", "fusion_lat": 0.0, "lat": 38.892262, "name": "ab7826fe3d033d23dd14070ca9ab7efa", "fusion_lon": 0.0, "bike_id": "ab7826fe3d033d23dd14070ca9ab7efa", "is_disabled": 0, "is_reserved": 0}, {"rental_uris": {"ios": "https://dc.lft.to/lastmile_qr_scan", "android": "https://dc.lft.to/lastmile_qr_scan"}, "lon": -77.051565, "type": "electric_scooter", "fusion_lat": 0.0, "lat": 38.90594183333333, "name": "f06c0954b6df414a210c09202b3e9540", "fusion_lon": 0.0, "bike_id": "f06c0954b6df414a210c09202b3e9540", "is_disabled": 0, "is_reserved": 0}, {"rental_uris": {"ios": "https://dc.lft.to/lastmile_qr_scan", "android": "https://dc.lft.to/lastmile_qr_scan"}, "lon": -77.02498816666666, "type": "electric_scooter", "fusion_lat": 0.0, "lat": 38.906486, "name": "e095676bc30347465ddf0f99b0eb5316", "fusion_lon": 0.0, "bike_id": "e095676bc30347465ddf0f99b0eb5316", "is_disabled": 0, "is_reserved": 0}, {"rental_uris": {"ios": "https://dc.lft.to/lastmile_qr_scan", "android": "https://dc.lft.to/lastmile_qr_scan"}, "lon": -77.0415505, "type": "electric_scooter", "fusion_lat": 0.0, "lat": 38.917489, "name": "11ccd854eff054269901bc7efef0b2b0", "fusion_lon": 0.0, "bike_id": "11ccd854eff054269901bc7efef0b2b0", "is_disabled": 0, "is_reserved": 0}, {"rental_uris": {"ios": "https://dc.lft.to/lastmile_qr_scan", "android": "https://dc.lft.to/lastmile_qr_scan"}, "lon": -76.95515083333333, "type": "electric_scooter", "fusion_lat": 0.0, "lat": 38.890546666666665, "name": "c5ed3a7b0e611e7983c506ba16cc9909", "fusion_lon": 0.0, "bike_id": "c5ed3a7b0e611e7983c506ba16cc9909", "is_disabled": 0, "is_reserved": 0}, {"rental_uris": {"ios": "https://dc.lft.to/lastmile_qr_scan", "android": "https://dc.lft.to/lastmile_qr_scan"}, "lon": -77.04559583333334, "type": "electric_scooter", "fusion_lat": 0.0, "lat": 38.91462383333333, "name": "9d5576291dbce72bb00c849c5904d863", "fusion_lon": 0.0, "bike_id": "9d5576291dbce72bb00c849c5904d863", "is_disabled": 0, "is_reserved": 0}, {"rental_uris": {"ios": "https://dc.lft.to/lastmile_qr_scan", "android": "https://dc.lft.to/lastmile_qr_scan"}, "lon": -77.0004915, "type": "electric_scooter", "fusion_lat": 0.0, "lat": 38.889022833333335, "name": "c95dcc53bf85481fc7ae141813e8a4f9", "fusion_lon": 0.0, "bike_id": "c95dcc53bf85481fc7ae141813e8a4f9", "is_disabled": 0, "is_reserved": 0}, {"rental_uris": {"ios": "https://dc.lft.to/lastmile_qr_scan", "android": "https://dc.lft.to/lastmile_qr_scan"}, "lon": -77.0111015, "type": "electric_scooter", "fusion_lat": 0.0, "lat": 38.903591166666665, "name": "d0bf26db48afb155743b84cb26fd2562", "fusion_lon": 0.0, "bike_id": "d0bf26db48afb155743b84cb26fd2562", "is_disabled": 0, "is_reserved": 0}, {"rental_uris": {"ios": "https://dc.lft.to/lastmile_qr_scan", "android": "https://dc.lft.to/lastmile_qr_scan"}, "lon": -77.0451325, "type": "electric_scooter", "fusion_lat": 0.0, "lat": 38.886097, "name": "ea8965da2cb800da9d276af017c803bf", "fusion_lon": 0.0, "bike_id": "ea8965da2cb800da9d276af017c803bf", "is_disabled": 0, "is_reserved": 0}, {"rental_uris": {"ios": "https://dc.lft.to/lastmile_qr_scan", "android": "https://dc.lft.to/lastmile_qr_scan"}, "lon": -77.08939916666667, "type": "electric_bike", "fusion_lat": 0.0, "lat": 38.84103916666667, "name": "05d523a2cc8c5d38ea09bbe921edf91a", "fusion_lon": 0.0, "bike_id": "05d523a2cc8c5d38ea09bbe921edf91a", "is_disabled": 0, "is_reserved": 0}, {"rental_uris": {"ios": "https://dc.lft.to/lastmile_qr_scan", "android": "https://dc.lft.to/lastmile_qr_scan"}, "lon": -77.01283916666667, "type": "electric_bike", "fusion_lat": 0.0, "lat": 39.00384116666667, "name": "95ba57848647f4ef6cdbbc3a4fdefe37", "fusion_lon": 0.0, "bike_id": "95ba57848647f4ef6cdbbc3a4fdefe37", "is_disabled": 0, "is_reserved": 0}, {"rental_uris": {"ios": "https://dc.lft.to/lastmile_qr_scan", "android": "https://dc.lft.to/lastmile_qr_scan"}, "lon": -76.94841483333333, "type": "electric_scooter", "fusion_lat": 0.0, "lat": 38.8948865, "name": "7721aaa53eb6b2b6995a6e3d9bf27d16", "fusion_lon": 0.0, "bike_id": "7721aaa53eb6b2b6995a6e3d9bf27d16", "is_disabled": 0, "is_reserved": 0}, {"rental_uris": {"ios": "https://dc.lft.to/lastmile_qr_scan", "android": "https://dc.lft.to/lastmile_qr_scan"}, "lon": -77.0370565, "type": "electric_bike", "fusion_lat": 0.0, "lat": 38.935498333333335, "name": "587a021b3712f8e30f82eb35cf25650d", "fusion_lon": 0.0, "bike_id": "587a021b3712f8e30f82eb35cf25650d", "is_disabled": 0, "is_reserved": 0}, {"rental_uris": {"ios": "https://dc.lft.to/lastmile_qr_scan", "android": "https://dc.lft.to/lastmile_qr_scan"}, "lon": -77.02293616666667, "type": "electric_scooter", "fusion_lat": 0.0, "lat": 38.916079, "name": "bdefcd2bc4e9e5786d607ff2b7275d51", "fusion_lon": 0.0, "bike_id": "bdefcd2bc4e9e5786d607ff2b7275d51", "is_disabled": 0, "is_reserved": 0}, {"rental_uris": {"ios": "https://dc.lft.to/lastmile_qr_scan", "android": "https://dc.lft.to/lastmile_qr_scan"}, "lon": -77.02274183333333, "type": "electric_scooter", "fusion_lat": 0.0, "lat": 38.8937005, "name": "9d5505e3811900e74bd3915d6a139182", "fusion_lon": 0.0, "bike_id": "9d5505e3811900e74bd3915d6a139182", "is_disabled": 0, "is_reserved": 0}, {"rental_uris": {"ios": "https://dc.lft.to/lastmile_qr_scan", "android": "https://dc.lft.to/lastmile_qr_scan"}, "lon": -77.04489316666667, "type": "electric_scooter", "fusion_lat": 0.0, "lat": 38.911023666666665, "name": "7820df04e00ddb42c837eb75f645e16c", "fusion_lon": 0.0, "bike_id": "7820df04e00ddb42c837eb75f645e16c", "is_disabled": 0, "is_reserved": 0}, {"rental_uris": {"ios": "https://dc.lft.to/lastmile_qr_scan", "android": "https://dc.lft.to/lastmile_qr_scan"}, "lon": -77.02542133333333, "type": "electric_scooter", "fusion_lat": 0.0, "lat": 38.8922925, "name": "85b25a5f6b35eafd71ce5951b37ee8d7", "fusion_lon": 0.0, "bike_id": "85b25a5f6b35eafd71ce5951b37ee8d7", "is_disabled": 0, "is_reserved": 0}, {"rental_uris": {"ios": "https://dc.lft.to/lastmile_qr_scan", "android": "https://dc.lft.to/lastmile_qr_scan"}, "lon": -77.02340983333333, "type": "electric_scooter", "fusion_lat": 0.0, "lat": 38.96208983333333, "name": "7601f7f34fca9d875b6bc81a64199dea", "fusion_lon": 0.0, "bike_id": "7601f7f34fca9d875b6bc81a64199dea", "is_disabled": 0, "is_reserved": 0}, {"rental_uris": {"ios": "https://dc.lft.to/lastmile_qr_scan", "android": "https://dc.lft.to/lastmile_qr_scan"}, "lon": -77.00539483333333, "type": "electric_scooter", "fusion_lat": 0.0, "lat": 38.9290635, "name": "c8b6786d64f58599e1759823c9201b4a", "fusion_lon": 0.0, "bike_id": "c8b6786d64f58599e1759823c9201b4a", "is_disabled": 0, "is_reserved": 0}, {"rental_uris": {"ios": "https://dc.lft.to/lastmile_qr_scan", "android": "https://dc.lft.to/lastmile_qr_scan"}, "lon": -76.9954495, "type": "electric_scooter", "fusion_lat": 0.0, "lat": 38.884198833333336, "name": "ca39598a5029154d17b834af0088facb", "fusion_lon": 0.0, "bike_id": "ca39598a5029154d17b834af0088facb", "is_disabled": 0, "is_reserved": 0}, {"rental_uris": {"ios": "https://dc.lft.to/lastmile_qr_scan", "android": "https://dc.lft.to/lastmile_qr_scan"}, "lon": -77.05315066666667, "type": "electric_scooter", "fusion_lat": 0.0, "lat": 38.92347, "name": "7840fc85f654926d8a388f5701cee7c0", "fusion_lon": 0.0, "bike_id": "7840fc85f654926d8a388f5701cee7c0", "is_disabled": 0, "is_reserved": 0}, {"rental_uris": {"ios": "https://dc.lft.to/lastmile_qr_scan", "android": "https://dc.lft.to/lastmile_qr_scan"}, "lon": -77.03864016666667, "type": "electric_scooter", "fusion_lat": 0.0, "lat": 38.90815716666667, "name": "60a7793601b4e8934c4b8daf645b0c0c", "fusion_lon": 0.0, "bike_id": "60a7793601b4e8934c4b8daf645b0c0c", "is_disabled": 0, "is_reserved": 0}, {"rental_uris": {"ios": "https://dc.lft.to/lastmile_qr_scan", "android": "https://dc.lft.to/lastmile_qr_scan"}, "lon": -77.05724566666666, "type": "electric_scooter", "fusion_lat": 0.0, "lat": 38.9336875, "name": "31dd23c2ecbef6c2f116216caeb15965", "fusion_lon": 0.0, "bike_id": "31dd23c2ecbef6c2f116216caeb15965", "is_disabled": 0, "is_reserved": 0}, {"rental_uris": {"ios": "https://dc.lft.to/lastmile_qr_scan", "android": "https://dc.lft.to/lastmile_qr_scan"}, "lon": -77.02973733333333, "type": "electric_scooter", "fusion_lat": 0.0, "lat": 38.9168145, "name": "0d73ebb8b21e4d09b0754e963723b903", "fusion_lon": 0.0, "bike_id": "0d73ebb8b21e4d09b0754e963723b903", "is_disabled": 0, "is_reserved": 0}, {"rental_uris": {"ios": "https://dc.lft.to/lastmile_qr_scan", "android": "https://dc.lft.to/lastmile_qr_scan"}, "lon": -77.02201533333333, "type": "electric_scooter", "fusion_lat": 0.0, "lat": 38.8962355, "name": "98758ed327ffb7e687e4c012b7a1939f", "fusion_lon": 0.0, "bike_id": "98758ed327ffb7e687e4c012b7a1939f", "is_disabled": 0, "is_reserved": 0}, {"rental_uris": {"ios": "https://dc.lft.to/lastmile_qr_scan", "android": "https://dc.lft.to/lastmile_qr_scan"}, "lon": -77.01198583333333, "type": "electric_scooter", "fusion_lat": 0.0, "lat": 38.90014266666667, "name": "c45c038e1fb673424a6213d10325da96", "fusion_lon": 0.0, "bike_id": "c45c038e1fb673424a6213d10325da96", "is_disabled": 0, "is_reserved": 0}, {"rental_uris": {"ios": "https://dc.lft.to/lastmile_qr_scan", "android": "https://dc.lft.to/lastmile_qr_scan"}, "lon": -77.01427283333334, "type": "electric_scooter", "fusion_lat": 0.0, "lat": 38.9422735, "name": "fbc42b96a659cde3212977edc7927e40", "fusion_lon": 0.0, "bike_id": "fbc42b96a659cde3212977edc7927e40", "is_disabled": 0, "is_reserved": 0}, {"rental_uris": {"ios": "https://dc.lft.to/lastmile_qr_scan", "android": "https://dc.lft.to/lastmile_qr_scan"}, "lon": -77.023801, "type": "electric_scooter", "fusion_lat": 0.0, "lat": 38.90981283333333, "name": "5cf3405a9c4fcc50d649771275b54202", "fusion_lon": 0.0, "bike_id": "5cf3405a9c4fcc50d649771275b54202", "is_disabled": 0, "is_reserved": 0}, {"rental_uris": {"ios": "https://dc.lft.to/lastmile_qr_scan", "android": "https://dc.lft.to/lastmile_qr_scan"}, "lon": -77.00565366666666, "type": "electric_scooter", "fusion_lat": 0.0, "lat": 38.92722166666667, "name": "5a4b4634e4726ab2545cd56a8bc48e84", "fusion_lon": 0.0, "bike_id": "5a4b4634e4726ab2545cd56a8bc48e84", "is_disabled": 0, "is_reserved": 0}, {"rental_uris": {"ios": "https://dc.lft.to/lastmile_qr_scan", "android": "https://dc.lft.to/lastmile_qr_scan"}, "lon": -77.024643, "type": "electric_scooter", "fusion_lat": 0.0, "lat": 38.91710583333333, "name": "14b22fa13624a2c3f3904d2a6fda64f5", "fusion_lon": 0.0, "bike_id": "14b22fa13624a2c3f3904d2a6fda64f5", "is_disabled": 0, "is_reserved": 0}, {"rental_uris": {"ios": "https://dc.lft.to/lastmile_qr_scan", "android": "https://dc.lft.to/lastmile_qr_scan"}, "lon": -77.0138585, "type": "electric_scooter", "fusion_lat": 0.0, "lat": 38.919460666666666, "name": "c57e2a5d99c77bcec7600e4b74eb89ba", "fusion_lon": 0.0, "bike_id": "c57e2a5d99c77bcec7600e4b74eb89ba", "is_disabled": 0, "is_reserved": 0}, {"rental_uris": {"ios": "https://dc.lft.to/lastmile_qr_scan", "android": "https://dc.lft.to/lastmile_qr_scan"}, "lon": -77.04817716666666, "type": "electric_scooter", "fusion_lat": 0.0, "lat": 38.897309, "name": "8ce5ca1040283b79c4fd927f0e960164", "fusion_lon": 0.0, "bike_id": "8ce5ca1040283b79c4fd927f0e960164", "is_disabled": 0, "is_reserved": 0}, {"rental_uris": {"ios": "https://dc.lft.to/lastmile_qr_scan", "android": "https://dc.lft.to/lastmile_qr_scan"}, "lon": -77.033318, "type": "electric_scooter", "fusion_lat": 0.0, "lat": 38.89900466666667, "name": "112002410697255071a4b8268b438ec0", "fusion_lon": 0.0, "bike_id": "112002410697255071a4b8268b438ec0", "is_disabled": 0, "is_reserved": 0}, {"rental_uris": {"ios": "https://dc.lft.to/lastmile_qr_scan", "android": "https://dc.lft.to/lastmile_qr_scan"}, "lon": -77.025113, "type": "electric_scooter", "fusion_lat": 0.0, "lat": 38.91935433333333, "name": "35addaf5b4d7db811f18b919ce53111d", "fusion_lon": 0.0, "bike_id": "35addaf5b4d7db811f18b919ce53111d", "is_disabled": 0, "is_reserved": 0}, {"rental_uris": {"ios": "https://dc.lft.to/lastmile_qr_scan", "android": "https://dc.lft.to/lastmile_qr_scan"}, "lon": -77.04605983333333, "type": "electric_scooter", "fusion_lat": 0.0, "lat": 38.90251516666667, "name": "614c0366252754a5433451956526c384", "fusion_lon": 0.0, "bike_id": "614c0366252754a5433451956526c384", "is_disabled": 0, "is_reserved": 0}, {"rental_uris": {"ios": "https://dc.lft.to/lastmile_qr_scan", "android": "https://dc.lft.to/lastmile_qr_scan"}, "lon": -77.02388916666666, "type": "electric_bike", "fusion_lat": 0.0, "lat": 38.93382183333333, "name": "c0999bea4611cc7b7d3e8dd4b838c441", "fusion_lon": 0.0, "bike_id": "c0999bea4611cc7b7d3e8dd4b838c441", "is_disabled": 0, "is_reserved": 0}, {"rental_uris": {"ios": "https://dc.lft.to/lastmile_qr_scan", "android": "https://dc.lft.to/lastmile_qr_scan"}, "lon": -77.00196166666667, "type": "electric_scooter", "fusion_lat": 0.0, "lat": 38.89444916666667, "name": "cf39437275257f3f25380011a434d66a", "fusion_lon": 0.0, "bike_id": "cf39437275257f3f25380011a434d66a", "is_disabled": 0, "is_reserved": 0}, {"rental_uris": {"ios": "https://dc.lft.to/lastmile_qr_scan", "android": "https://dc.lft.to/lastmile_qr_scan"}, "lon": -77.0318565, "type": "electric_scooter", "fusion_lat": 0.0, "lat": 38.90848866666666, "name": "27897b009ae7e34b4b1a4cf6cef0dcfb", "fusion_lon": 0.0, "bike_id": "27897b009ae7e34b4b1a4cf6cef0dcfb", "is_disabled": 0, "is_reserved": 0}, {"rental_uris": {"ios": "https://dc.lft.to/lastmile_qr_scan", "android": "https://dc.lft.to/lastmile_qr_scan"}, "lon": -77.04205833333333, "type": "electric_scooter", "fusion_lat": 0.0, "lat": 38.923154833333335, "name": "ac29f68e3f888b765efd3cb2b05712bd", "fusion_lon": 0.0, "bike_id": "ac29f68e3f888b765efd3cb2b05712bd", "is_disabled": 0, "is_reserved": 0}, {"rental_uris": {"ios": "https://dc.lft.to/lastmile_qr_scan", "android": "https://dc.lft.to/lastmile_qr_scan"}, "lon": -76.993359, "type": "electric_bike", "fusion_lat": 0.0, "lat": 38.9619475, "name": "3c0216bfd160e84965a4405f41fa0c97", "fusion_lon": 0.0, "bike_id": "3c0216bfd160e84965a4405f41fa0c97", "is_disabled": 0, "is_reserved": 0},