{"data": {"bikes": [{"fusion_lat": 0.0, "name": "15c527fa63ba0ba9558dddcc868f4795", "is_disabled": 0, "rental_uris": {"android": "https://dc.lft.to/lastmile_qr_scan", "ios": "https://dc.lft.to/lastmile_qr_scan"}, "fusion_lon": 0.0, "lat": 38.92697033333334, "bike_id": "15c527fa63ba0ba9558dddcc868f4795", "type": "electric_scooter", "is_reserved": 0, "lon": -77.02128816666666}, {"fusion_lat": 0.0, "name": "4d122fddb3416b831a4b19cfc0b5192e", "is_disabled": 0, "rental_uris": {"android": "https://dc.lft.to/lastmile_qr_scan", "ios": "https://dc.lft.to/lastmile_qr_scan"}, "fusion_lon": 0.0, "lat": 38.880170166666666, "bike_id": "4d122fddb3416b831a4b19cfc0b5192e", "type": "electric_scooter", "is_reserved": 0, "lon": -76.98070266666667}, {"fusion_lat": 0.0, "name": "d79b3b80c2d17c33a0a83413d2fba6e8", "is_disabled": 0, "rental_uris": {"android": "https://dc.lft.to/lastmile_qr_scan", "ios": "https://dc.lft.to/lastmile_qr_scan"}, "fusion_lon": 0.0, "lat": 38.8923325, "bike_id": "d79b3b80c2d17c33a0a83413d2fba6e8", "type": "electric_scooter", "is_reserved": 0, "lon": -77.02381766666667}, {"fusion_lat": 0.0, "name": "de8ab6b28cec41c224b1e5e25075d8ac", "is_disabled": 0, "rental_uris": {"android": "https://dc.lft.to/lastmile_qr_scan", "ios": "https://dc.lft.to/lastmile_qr_scan"}, "fusion_lon": 0.0, "lat": 38.911193, "bike_id": "de8ab6b28cec41c224b1e5e25075d8ac", "type": "electric_scooter", "is_reserved": 0, "lon": -77.04372166666667}, {"fusion_lat": 0.0, "name": "994d1fab1e6386ed1968f6154f8c46c2", "is_disabled": 0, "rental_uris": {"android": "https://dc.lft.to/lastmile_qr_scan", "ios": "https://dc.lft.to/lastmile_qr_scan"}, "fusion_lon": 0.0, "lat": 38.911164666666664, "bike_id": "994d1fab1e6386ed1968f6154f8c46c2", "type": "electric_scooter", "is_reserved": 0, "lon": -77.0187575}, {"fusion_lat": 0.0, "name": "041c714db75954c65c54f95828daf8eb", "is_disabled": 0, "rental_uris": {"android": "https://dc.lft.to/lastmile_qr_scan", "ios": "https://dc.lft.to/lastmile_qr_scan"}, "fusion_lon": 0.0, "lat": 38.917489333333336, "bike_id": "041c714db75954c65c54f95828daf8eb", "type": "electric_scooter", "is_reserved": 0, "lon": -77.06934383333333}, {"fusion_lat": 0.0, "name": "e71533e008adc9f247a09d936e1b3459", "is_disabled": 0, "rental_uris": {"android": "https://dc.lft.to/lastmile_qr_scan", "ios": "https://dc.lft.to/lastmile_qr_scan"}, "fusion_lon": 0.0, "lat": 38.91634283333333, "bike_id": "e71533e008adc9f247a09d936e1b3459", "type": "electric_scooter", "is_reserved": 0, "lon": -77.0297075}, {"fusion_lat": 0.0, "name": "2e0018f9c88d3af4168323134417ba12", "is_disabled": 0, "rental_uris": {"android": "https://dc.lft.to/lastmile_qr_scan", "ios": "https://dc.lft.to/lastmile_qr_scan"}, "fusion_lon": 0.0, "lat": 38.906797833333336, "bike_id": "2e0018f9c88d3af4168323134417ba12", "type": "electric_scooter", "is_reserved": 0, "lon": -77.02185716666666}, {"fusion_lat": 0.0, "name": "1187e9c20facac1969d80f51abba1a09", "is_disabled": 0, "rental_uris": {"android": "https://dc.lft.to/lastmile_qr_scan", "ios": "https://dc.lft.to/lastmile_qr_scan"}, "fusion_lon": 0.0, "lat": 38.96223366666667, "bike_id": "1187e9c20facac1969d80f51abba1a09", "type": "electric_bike", "is_reserved": 0, "lon": -77.0261945}, {"fusion_lat": 0.0, "name": "fb121d95fcc2f66aec4db6c22f5de95e", "is_disabled": 0, "rental_uris": {"android": "https://dc.lft.to/lastmile_qr_scan", "ios": "https://dc.lft.to/lastmile_qr_scan"}, "fusion_lon": 0.0, "lat": 38.906191, "bike_id": "fb121d95fcc2f66aec4db6c22f5de95e", "type": "electric_scooter", "is_reserved": 0, "lon": -77.0259755}, {"fusion_lat": 0.0, "name": "767b13892177cf782e91183b04c6357a", "is_disabled": 0, "rental_uris": {"android": "https://dc.lft.to/lastmile_qr_scan", "ios": "https://dc.lft.to/lastmile_qr_scan"}, "fusion_lon": 0.0, "lat": 38.900140666666665, "bike_id": "767b13892177cf782e91183b04c6357a", "type": "electric_scooter", "is_reserved": 0, "lon": -77.01175866666667}, {"fusion_lat": 0.0, "name": "57e484cc14277c7cd317cc67beebddc3", "is_disabled": 0, "rental_uris": {"android": "https://dc.lft.to/lastmile_qr_scan", "ios": "https://dc.lft.to/lastmile_qr_scan"}, "fusion_lon": 0.0, "lat": 38.919164, "bike_id": "57e484cc14277c7cd317cc67beebddc3", "type": "electric_scooter", "is_reserved": 0, "lon": -77.027297}, {"fusion_lat": 0.0, "name": "64be34961092657b277652f293e60ed6", "is_disabled": 0, "rental_uris": {"android": "https://dc.lft.to/lastmile_qr_scan", "ios": "https://dc.lft.to/lastmile_qr_scan"}, "fusion_lon": 0.0, "lat": 38.9109395, "bike_id": "64be34961092657b277652f293e60ed6", "type": "electric_scooter", "is_reserved": 0, "lon": -77.02187766666667}, {"fusion_lat": 0.0, "name": "8138b6247013107af1448e4da3822d72", "is_disabled": 0, "rental_uris": {"android": "https://dc.lft.to/lastmile_qr_scan", "ios": "https://dc.lft.to/lastmile_qr_scan"}, "fusion_lon": 0.0, "lat": 38.91710716666667, "bike_id": "8138b6247013107af1448e4da3822d72", "type": "electric_scooter", "is_reserved": 0, "lon": -77.038643}, {"fusion_lat": 0.0, "name": "98a0f6c74bacaec3c9e28cf0402271f1", "is_disabled": 0, "rental_uris": {"android": "https://dc.lft.to/lastmile_qr_scan", "ios": "https://dc.lft.to/lastmile_qr_scan"}, "fusion_lon": 0.0, "lat": 38.87487133333333, "bike_id": "98a0f6c74bacaec3c9e28cf0402271f1", "type": "electric_scooter", "is_reserved": 0, "lon": -77.006032}, {"fusion_lat": 0.0, "name": "541b16f1ba1c1f4596f19d27f0decae3", "is_disabled": 0, "rental_uris": {"android": "https://dc.lft.to/lastmile_qr_scan", "ios": "https://dc.lft.to/lastmile_qr_scan"}, "fusion_lon": 0.0, "lat": 38.882985, "bike_id": "541b16f1ba1c1f4596f19d27f0decae3", "type": "electric_scooter", "is_reserved": 0, "lon": -77.01756516666667}, {"fusion_lat": 0.0, "name": "075d3f705d1a9a68606ce8e041125d2a", "is_disabled": 0, "rental_uris": {"android": "https://dc.lft.to/lastmile_qr_scan", "ios": "https://dc.lft.to/lastmile_qr_scan"}, "fusion_lon": 0.0, "lat": 39.0342595, "bike_id": "075d3f705d1a9a68606ce8e041125d2a", "type": "electric_bike", "is_reserved": 0, "lon": -77.0431865}, {"fusion_lat": 0.0, "name": "4c880a307e298118f05dc3af5bf60d7c", "is_disabled": 0, "rental_uris": {"android": "https://dc.lft.to/lastmile_qr_scan", "ios": "https://dc.lft.to/lastmile_qr_scan"}, "fusion_lon": 0.0, "lat": 38.917192, "bike_id": "4c880a307e298118f05dc3af5bf60d7c", "type": "electric_scooter", "is_reserved": 0, "lon": -77.03859233333333}, {"fusion_lat": 0.0, "name": "60c056aa087fd0768fd6ca36bbf2961d", "is_disabled": 0, "rental_uris": {"android": "https://dc.lft.to/lastmile_qr_scan", "ios": "https://dc.lft.to/lastmile_qr_scan"}, "fusion_lon": 0.0, "lat": 38.887214166666666, "bike_id": "60c056aa087fd0768fd6ca36bbf2961d", "type": "electric_scooter", "is_reserved": 0, "lon": -77.02579683333333}, {"fusion_lat": 0.0, "name": "eff8031865dc6b79d129d0e539ad4a22", "is_disabled": 0, "rental_uris": {"android": "https://dc.lft.to/lastmile_qr_scan", "ios": "https://dc.lft.to/lastmile_qr_scan"}, "fusion_lon": 0.0, "lat": 38.89771316666667, "bike_id": "eff8031865dc6b79d129d0e539ad4a22", "type": "electric_scooter", "is_reserved": 0, "lon": -76.98461933333333}, {"fusion_lat": 0.0, "name": "f9e7f5943984627439e6b0cce0fe201b", "is_disabled": 0, "rental_uris": {"android": "https://dc.lft.to/lastmile_qr_scan", "ios": "https://dc.lft.to/lastmile_qr_scan"}, "fusion_lon": 0.0, "lat": 38.853627, "bike_id": "f9e7f5943984627439e6b0cce0fe201b", "type": "electric_bike", "is_reserved": 0, "lon": -77.11502566666667}, {"fusion_lat": 0.0, "name": "88fcaeef76becccf7846082243e34402", "is_disabled": 0, "rental_uris": {"android": "https://dc.lft.to/lastmile_qr_scan", "ios": "https://dc.lft.to/lastmile_qr_scan"}, "fusion_lon": 0.0, "lat": 38.915409, "bike_id": "88fcaeef76becccf7846082243e34402", "type": "electric_scooter", "is_reserved": 0, "lon": -77.03851683333333}, {"fusion_lat": 0.0, "name": "3dd32d0a8fdaf049e3644954f59a112f", "is_disabled": 0, "rental_uris": {"android": "https://dc.lft.to/lastmile_qr_scan", "ios": "https://dc.lft.to/lastmile_qr_scan"}, "fusion_lon": 0.0, "lat": 38.919088333333335, "bike_id": "3dd32d0a8fdaf049e3644954f59a112f", "type": "electric_scooter", "is_reserved": 0, "lon": -77.02391933333334}, {"fusion_lat": 0.0, "name": "f33f4d3d18d9d9f066e07bd1bdd752fd", "is_disabled": 0, "rental_uris": {"android": "https://dc.lft.to/lastmile_qr_scan", "ios": "https://dc.lft.to/lastmile_qr_scan"}, "fusion_lon": 0.0, "lat": 38.9431685, "bike_id": "f33f4d3d18d9d9f066e07bd1bdd752fd", "type": "electric_scooter", "is_reserved": 0, "lon": -77.061247}, {"fusion_lat": 0.0, "name": "e0d30371f7612d1253d06195292cf60b", "is_disabled": 0, "rental_uris": {"android": "https://dc.lft.to/lastmile_qr_scan", "ios": "https://dc.lft.to/lastmile_qr_scan"}, "fusion_lon": 0.0, "lat": 38.923163, "bike_id": "e0d30371f7612d1253d06195292cf60b", "type": "electric_scooter", "is_reserved": 0, "lon": -77.043475}, {"fusion_lat": 0.0, "name": "294385152d738b62ff91f5bd7b6f066c", "is_disabled": 0, "rental_uris": {"android": "https://dc.lft.to/lastmile_qr_scan", "ios": "https://dc.lft.to/lastmile_qr_scan"}, "fusion_lon": 0.0, "lat": 38.873756666666665, "bike_id": "294385152d738b62ff91f5bd7b6f066c", "type": "electric_scooter", "is_reserved": 0, "lon": -77.00043983333333}, {"fusion_lat": 0.0, "name": "9d6042c853c463938a0b0784f2c44baf", "is_disabled": 0, "rental_uris": {"android": "https://dc.lft.to/lastmile_qr_scan", "ios": "https://dc.lft.to/lastmile_qr_scan"}, "fusion_lon": 0.0, "lat": 38.9167145, "bike_id": "9d6042c853c463938a0b0784f2c44baf", "type": "electric_scooter", "is_reserved": 0, "lon": -77.0303565}, {"fusion_lat": 0.0, "name": "fa2b088f9d65a055f7b9481e75fef75c", "is_disabled": 0, "rental_uris": {"android": "https://dc.lft.to/lastmile_qr_scan", "ios": "https://dc.lft.to/lastmile_qr_scan"}, "fusion_lon": 0.0, "lat": 38.87746833333333, "bike_id": "fa2b088f9d65a055f7b9481e75fef75c", "type": "electric_scooter", "is_reserved": 0, "lon": -76.9966285}, {"fusion_lat": 0.0, "name": "d6c7a46a5a138ef7ee9e7b346c43907f", "is_disabled": 0, "rental_uris": {"android": "https://dc.lft.to/lastmile_qr_scan", "ios": "https://dc.lft.to/lastmile_qr_scan"}, "fusion_lon": 0.0, "lat": 38.911314, "bike_id": "d6c7a46a5a138ef7ee9e7b346c43907f", "type": "electric_scooter", "is_reserved": 0, "lon": -77.0653295}, {"fusion_lat": 0.0, "name": "bb835dfdee2c4848ca391a096247f027", "is_disabled": 0, "rental_uris": {"android": "https://dc.lft.to/lastmile_qr_scan", "ios": "https://dc.lft.to/lastmile_qr_scan"}, "fusion_lon": 0.0, "lat": 38.924827, "bike_id": "bb835dfdee2c4848ca391a096247f027", "type": "electric_scooter", "is_reserved": 0, "lon": -77.02599016666667}, {"fusion_lat": 0.0, "name": "5ae5ee2196cbb76436441aac933d53de", "is_disabled": 0, "rental_uris": {"android": "https://dc.lft.to/lastmile_qr_scan", "ios": "https://dc.lft.to/lastmile_qr_scan"}, "fusion_lon": 0.0, "lat": 38.880305, "bike_id": "5ae5ee2196cbb76436441aac933d53de", "type": "electric_scooter", "is_reserved": 0, "lon": -77.02496333333333}, {"fusion_lat": 0.0, "name": "0eed521130c13b33eff5a578655a8602", "is_disabled": 0, "rental_uris": {"android": "https://dc.lft.to/lastmile_qr_scan", "ios": "https://dc.lft.to/lastmile_qr_scan"}, "fusion_lon": 0.0, "lat": 38.874451, "bike_id": "0eed521130c13b33eff5a578655a8602", "type": "electric_scooter", "is_reserved": 0, "lon": -77.00888466666666}, {"fusion_lat": 0.0, "name": "8bea2b84dbd7e7cf0bf1c02a2c78627b", "is_disabled": 0, "rental_uris": {"android": "https://dc.lft.to/lastmile_qr_scan", "ios": "https://dc.lft.to/lastmile_qr_scan"}, "fusion_lon": 0.0, "lat": 38.9286885, "bike_id": "8bea2b84dbd7e7cf0bf1c02a2c78627b", "type": "electric_scooter", "is_reserved": 0, "lon": -77.03409833333333}, {"fusion_lat": 0.0, "name": "1f067527842e4f51c98e85b53eaa1b09", "is_disabled": 0, "rental_uris": {"android": "https://dc.lft.to/lastmile_qr_scan", "ios": "https://dc.lft.to/lastmile_qr_scan"}, "fusion_lon": 0.0, "lat": 38.934759666666665, "bike_id": "1f067527842e4f51c98e85b53eaa1b09", "type": "electric_scooter", "is_reserved": 0, "lon": -77.07269266666667}, {"fusion_lat": 0.0, "name": "0ee7f64efda1f0a2c48c1881862ff118", "is_disabled": 0, "rental_uris": {"android": "https://dc.lft.to/lastmile_qr_scan", "ios": "https://dc.lft.to/lastmile_qr_scan"}, "fusion_lon": 0.0, "lat": 38.91150916666667, "bike_id": "0ee7f64efda1f0a2c48c1881862ff118", "type": "electric_scooter", "is_reserved": 0, "lon": -77.0319785}, {"fusion_lat": 0.0, "name": "86de20755dc39bf1e491c1e847472dae", "is_disabled": 0, "rental_uris": {"android": "https://dc.lft.to/lastmile_qr_scan", "ios": "https://dc.lft.to/lastmile_qr_scan"}, "fusion_lon": 0.0, "lat": 38.936884166666665, "bike_id": "86de20755dc39bf1e491c1e847472dae", "type": "electric_bike", "is_reserved": 0, "lon": -76.99057816666667}, {"fusion_lat": 0.0, "name": "5e5306c646c17bb417beb1b00d6ad7ca", "is_disabled": 0, "rental_uris": {"android": "https://dc.lft.to/lastmile_qr_scan", "ios": "https://dc.lft.to/lastmile_qr_scan"}, "fusion_lon": 0.0, "lat": 38.90279983333333, "bike_id": "5e5306c646c17bb417beb1b00d6ad7ca", "type": "electric_scooter", "is_reserved": 0, "lon": -77.03643266666667}, {"fusion_lat": 0.0, "name": "2ffb583ae1d487a2ecf5d31d1593af96", "is_disabled": 0, "rental_uris": {"android": "https://dc.lft.to/lastmile_qr_scan", "ios": "https://dc.lft.to/lastmile_qr_scan"}, "fusion_lon": 0.0, "lat": 38.917873666666665, "bike_id": "2ffb583ae1d487a2ecf5d31d1593af96", "type": "electric_scooter", "is_reserved": 0, "lon": -77.04041116666667}, {"fusion_lat": 0.0, "name": "009e23429a8539416421c6c65d334d8b", "is_disabled": 0, "rental_uris": {"android": "https://dc.lft.to/lastmile_qr_scan", "ios": "https://dc.lft.to/lastmile_qr_scan"}, "fusion_lon": 0.0, "lat": 38.92598, "bike_id": "009e23429a8539416421c6c65d334d8b", "type": "electric_scooter", "is_reserved": 0, "lon": -77.03959433333333}, {"fusion_lat": 0.0, "name": "8443689f1523dae37662355e5873bc48", "is_disabled": 0, "rental_uris": {"android": "https://dc.lft.to/lastmile_qr_scan", "ios": "https://dc.lft.to/lastmile_qr_scan"}, "fusion_lon": 0.0, "lat": 38.904561666666666, "bike_id": "8443689f1523dae37662355e5873bc48", "type": "electric_scooter", "is_reserved": 0, "lon": -77.05335166666667}, {"fusion_lat": 0.0, "name": "e9a0b84ae9281c6e0b6e7fd2ed630466", "is_disabled": 0, "rental_uris": {"android": "https://dc.lft.to/lastmile_qr_scan", "ios": "https://dc.lft.to/lastmile_qr_scan"}, "fusion_lon": 0.0, "lat": 38.939940166666666, "bike_id": "e9a0b84ae9281c6e0b6e7fd2ed630466", "type": "electric_scooter", "is_reserved": 0, "lon": -77.01655066666666}, {"fusion_lat": 0.0, "name": "569a46d6256bb8ea4a567cfd176826de", "is_disabled": 0, "rental_uris": {"android": "https://dc.lft.to/lastmile_qr_scan", "ios": "https://dc.lft.to/lastmile_qr_scan"}, "fusion_lon": 0.0, "lat": 38.877067333333336, "bike_id": "569a46d6256bb8ea4a567cfd176826de", "type": "electric_scooter", "is_reserved": 0, "lon": -77.00685183333333}, {"fusion_lat": 0.0, "name": "63284da65453ba01c91d5a663577dc44", "is_disabled": 0, "rental_uris": {"android": "https://dc.lft.to/lastmile_qr_scan", "ios": "https://dc.lft.to/lastmile_qr_scan"}, "fusion_lon": 0.0, "lat": 38.84425816666667, "bike_id": "63284da65453ba01c91d5a663577dc44", "type": "electric_scooter", "is_reserved": 0, "lon": -76.99777666666667}, {"fusion_lat": 0.0, "name": "65401d8dc112e7881743fad562ac465b", "is_disabled": 0, "rental_uris": {"android": "https://dc.lft.to/lastmile_qr_scan", "ios": "https://dc.lft.to/lastmile_qr_scan"}, "fusion_lon": 0.0, "lat": 38.933567833333335, "bike_id": "65401d8dc112e7881743fad562ac465b", "type": "electric_scooter", "is_reserved": 0, "lon": -77.02490566666667}, {"fusion_lat": 0.0, "name": "617f67c1ecf9b24fc5a62e678e479dee", "is_disabled": 0, "rental_uris": {"android": "https://dc.lft.to/lastmile_qr_scan", "ios": "https://dc.lft.to/lastmile_qr_scan"}, "fusion_lon": 0.0, "lat": 38.923064, "bike_id": "617f67c1ecf9b24fc5a62e678e479dee", "type": "electric_scooter", "is_reserved": 0, "lon": -77.02251216666667}, {"fusion_lat": 0.0, "name": "f80edd3b244656f6e27e52a198375116", "is_disabled": 0, "rental_uris": {"android": "https://dc.lft.to/lastmile_qr_scan", "ios": "https://dc.lft.to/lastmile_qr_scan"}, "fusion_lon": 0.0, "lat": 38.879793, "bike_id": "f80edd3b244656f6e27e52a198375116", "type": "electric_bike", "is_reserved": 0, "lon": -76.98469766666666}, {"fusion_lat": 0.0, "name": "a7b934c4567beeb40deee46823316577", "is_disabled": 0, "rental_uris": {"android": "https://dc.lft.to/lastmile_qr_scan", "ios": "https://dc.lft.to/lastmile_qr_scan"}, "fusion_lon": 0.0, "lat": 38.8922385, "bike_id": "a7b934c4567beeb40deee46823316577", "type": "electric_scooter", "is_reserved": 0, "lon": -77.04191633333333}, {"fusion_lat": 0.0, "name": "44bff98be512d51114665aa2f60d4eab", "is_disabled": 0, "rental_uris": {"android": "https://dc.lft.to/lastmile_qr_scan", "ios": "https://dc.lft.to/lastmile_qr_scan"}, "fusion_lon": 0.0, "lat": 38.907229, "bike_id": "44bff98be512d51114665aa2f60d4eab", "type": "electric_scooter", "is_reserved": 0, "lon": -77.04997633333333}, {"fusion_lat": 0.0, "name": "9139f99b04b8845223cbb2a6488ac24c", "is_disabled": 0, "rental_uris": {"android": "https://dc.lft.to/lastmile_qr_scan", "ios": "https://dc.lft.to/lastmile_qr_scan"}, "fusion_lon": 0.0, "lat": 38.961195833333335, "bike_id": "9139f99b04b8845223cbb2a6488ac24c", "type": "electric_scooter", "is_reserved": 0, "lon": -77.02794583333333}, {"fusion_lat": 0.0, "name": "cc7277687c272cd8b0aae0b19f765b78", "is_disabled": 0, "rental_uris": {"android": "https://dc.lft.to/lastmile_qr_scan", "ios": "https://dc.lft.to/lastmile_qr_scan"}, "fusion_lon": 0.0, "lat": 38.9181755, "bike_id": "cc7277687c272cd8b0aae0b19f765b78", "type": "electric_scooter", "is_reserved": 0, "lon": -77.03679716666667}, {"fusion_lat": 0.0, "name": "1ed92343f473aae9c4b6d03c86aa3074", "is_disabled": 0, "rental_uris": {"android": "https://dc.lft.to/lastmile_qr_scan", "ios": "https://dc.lft.to/lastmile_qr_scan"}, "fusion_lon": 0.0, "lat": 38.92559166666667, "bike_id": "1ed92343f473aae9c4b6d03c86aa3074", "type": "electric_scooter", "is_reserved": 0, "lon": -77.043687}, {"fusion_lat": 0.0, "name": "4acf31dd592819027d70ff2473eeca35", "is_disabled": 0, "rental_uris": {"android": "https://dc.lft.to/lastmile_qr_scan", "ios": "https://dc.lft.to/lastmile_qr_scan"}, "fusion_lon": 0.0, "lat": 38.93258616666667, "bike_id": "4acf31dd592819027d70ff2473eeca35", "type": "electric_scooter", "is_reserved": 0, "lon": -77.03263816666667}, {"fusion_lat": 0.0, "name": "636c39324d0ba715f4d7284eb3199907", "is_disabled": 0, "rental_uris": {"android": "https://dc.lft.to/lastmile_qr_scan", "ios": "https://dc.lft.to/lastmile_qr_scan"}, "fusion_lon": 0.0, "lat": 38.92610883333333, "bike_id": "636c39324d0ba715f4d7284eb3199907", "type": "electric_scooter", "is_reserved": 0, "lon": -77.0367005}, {"fusion_lat": 0.0, "name": "07ae2c1f143efc511665f89d477fb35c", "is_disabled": 0, "rental_uris": {"android": "https://dc.lft.to/lastmile_qr_scan", "ios": "https://dc.lft.to/lastmile_qr_scan"}, "fusion_lon": 0.0, "lat": 38.90981166666667, "bike_id": "07ae2c1f143efc511665f89d477fb35c", "type": "electric_scooter", "is_reserved": 0, "lon": -77.0219875}, {"fusion_lat": 0.0, "name": "27d00b9e2d449eccdb59d2c30b4d6201", "is_disabled": 0, "rental_uris": {"android": "https://dc.lft.to/lastmile_qr_scan", "ios": "https://dc.lft.to/lastmile_qr_scan"}, "fusion_lon": 0.0, "lat": 38.920208333333335, "bike_id": "27d00b9e2d449eccdb59d2c30b4d6201", "type": "electric_scooter", "is_reserved": 0, "lon": -77.01318016666667}, {"fusion_lat": 0.0, "name": "49866d106d5ee75d60071a69f91b64e6", "is_disabled": 0, "rental_uris": {"android": "https://dc.lft.to/lastmile_qr_scan", "ios": "https://dc.lft.to/lastmile_qr_scan"}, "fusion_lon": 0.0, "lat": 38.91127566666667, "bike_id": "49866d106d5ee75d60071a69f91b64e6", "type": "electric_scooter", "is_reserved": 0, "lon": -77.00750666666667}, {"fusion_lat": 0.0, "name": "9e9084f47d316136f91c41bb2f55ae55", "is_disabled": 0, "rental_uris": {"android": "https://dc.lft.to/lastmile_qr_scan", "ios": "https://dc.lft.to/lastmile_qr_scan"}, "fusion_lon": 0.0, "lat": 38.9347905, "bike_id": "9e9084f47d316136f91c41bb2f55ae55", "type": "electric_scooter", "is_reserved": 0, "lon": -77.07264683333334}, {"fusion_lat": 0.0, "name": "8a91409166896d6269cda4f81fc295cd", "is_disabled": 0, "rental_uris": {"android": "https://dc.lft.to/lastmile_qr_scan", "ios": "https://dc.lft.to/lastmile_qr_scan"}, "fusion_lon": 0.0, "lat": 38.88603333333333, "bike_id": "8a91409166896d6269cda4f81fc295cd", "type": "electric_scooter", "is_reserved": 0, "lon": -76.99640016666666}, {"fusion_lat": 0.0, "name": "047c96f2e493a000497cb2ff756490de", "is_disabled": 0, "rental_uris": {"android": "https://dc.lft.to/lastmile_qr_scan", "ios": "https://dc.lft.to/lastmile_qr_scan"}, "fusion_lon": 0.0, "lat": 38.8987515, "bike_id": "047c96f2e493a000497cb2ff756490de", "type": "electric_scooter", "is_reserved": 0, "lon": -76.9317995}, {"fusion_lat": 0.0, "name": "02059294f98e37b951e7183d2f542533", "is_disabled": 0, "rental_uris": {"android": "https://dc.lft.to/lastmile_qr_scan", "ios": "https://dc.lft.to/lastmile_qr_scan"}, "fusion_lon": 0.0, "lat": 38.914561, "bike_id": "02059294f98e37b951e7183d2f542533", "type": "electric_scooter", "is_reserved": 0, "lon": -77.0020565}, {"fusion_lat": 0.0, "name": "580c7c1832eb2cfccd8ea89b858789b0", "is_disabled": 0, "rental_uris": {"android": "https://dc.lft.to/lastmile_qr_scan", "ios": "https://dc.lft.to/lastmile_qr_scan"}, "fusion_lon": 0.0, "lat": 38.90714783333333, "bike_id": "580c7c1832eb2cfccd8ea89b858789b0", "type": "electric_scooter", "is_reserved": 0, "lon": -77.04343266666666}, {"fusion_lat": 0.0, "name": "0407a5d8fefa00ec4252d4c9b80822c3", "is_disabled": 0, "rental_uris": {"android": "https://dc.lft.to/lastmile_qr_scan", "ios": "https://dc.lft.to/lastmile_qr_scan"}, "fusion_lon": 0.0, "lat": 38.92321716666667, "bike_id": "0407a5d8fefa00ec4252d4c9b80822c3", "type": "electric_scooter", "is_reserved": 0, "lon": -77.04037466666666}, {"fusion_lat": 0.0, "name": "e6b4a749372883ea930b7168f9ce5e39", "is_disabled": 0, "rental_uris": {"android": "https://dc.lft.to/lastmile_qr_scan", "ios": "https://dc.lft.to/lastmile_qr_scan"}, "fusion_lon": 0.0, "lat": 38.9043655, "bike_id": "e6b4a749372883ea930b7168f9ce5e39", "type": "electric_scooter", "is_reserved": 0, "lon": -77.058151}, {"fusion_lat": 0.0, "name": "af12c785238e35dcc0500c01f5b59240", "is_disabled": 0, "rental_uris": {"android": "https://dc.lft.to/lastmile_qr_scan", "ios": "https://dc.lft.to/lastmile_qr_scan"}, "fusion_lon": 0.0, "lat": 38.892477, "bike_id": "af12c785238e35dcc0500c01f5b59240", "type": "electric_scooter", "is_reserved": 0, "lon": -77.03951116666667}, {"fusion_lat": 0.0, "name": "700ce9a5a1f58434ce8b053cc4261f9d", "is_disabled": 0, "rental_uris": {"android": "https://dc.lft.to/lastmile_qr_scan", "ios": "https://dc.lft.to/lastmile_qr_scan"}, "fusion_lon": 0.0, "lat": 38.9198855, "bike_id": "700ce9a5a1f58434ce8b053cc4261f9d", "type": "electric_scooter", "is_reserved": 0, "lon": -77.031905}, {"fusion_lat": 0.0, "name": "007cc0a12403757f0414b59a0883fe26", "is_disabled": 0, "rental_uris": {"android": "https://dc.lft.to/lastmile_qr_scan", "ios": "https://dc.lft.to/lastmile_qr_scan"}, "fusion_lon": 0.0, "lat": 38.886784166666665, "bike_id": "007cc0a12403757f0414b59a0883fe26", "type": "electric_scooter", "is_reserved": 0, "lon": -77.0019465}, {"fusion_lat": 0.0, "name": "c5e03db7fe1bf54f1d13fabbfc40da55", "is_disabled": 0, "rental_uris": {"android": "https://dc.lft.to/lastmile_qr_scan", "ios": "https://dc.lft.to/lastmile_qr_scan"}, "fusion_lon": 0.0, "lat": 38.92479383333333, "bike_id": "c5e03db7fe1bf54f1d13fabbfc40da55", "type": "electric_scooter", "is_reserved": 0, "lon": -77.05206566666666}, {"fusion_lat": 0.0, "name": "01d01333e2cae4c09bb44def8118043e", "is_disabled": 0, "rental_uris": {"android": "https://dc.lft.to/lastmile_qr_scan", "ios": "https://dc.lft.to/lastmile_qr_scan"}, "fusion_lon": 0.0, "lat": 38.89958983333333, "bike_id": "01d01333e2cae4c09bb44def8118043e", "type": "electric_scooter", "is_reserved": 0, "lon": -77.05099833333334}, {"fusion_lat": 0.0, "name": "8af35d6a06ddd82260523930c7137c06", "is_disabled": 0, "rental_uris": {"android": "https://dc.lft.to/lastmile_qr_scan", "ios": "https://dc.lft.to/lastmile_qr_scan"}, "fusion_lon": 0.0, "lat": 38.9169425, "bike_id": "8af35d6a06ddd82260523930c7137c06", "type": "electric_scooter", "is_reserved": 0, "lon": -77.02884}, {"fusion_lat": 0.0, "name": "cb88284eda2c73e204be42ffb777bd4c", "is_disabled": 0, "rental_uris": {"android": "https://dc.lft.to/lastmile_qr_scan", "ios": "https://dc.lft.to/lastmile_qr_scan"}, "fusion_lon": 0.0, "lat": 38.92442233333333, "bike_id": "cb88284eda2c73e204be42ffb777bd4c", "type": "electric_scooter", "is_reserved": 0, "lon": -77.01869466666666}, {"fusion_lat": 0.0, "name": "e258de4b15c2a5f7911fc944d0eb4a44", "is_disabled": 0, "rental_uris": {"android": "https://dc.lft.to/lastmile_qr_scan", "ios": "https://dc.lft.to/lastmile_qr_scan"}, "fusion_lon": 0.0, "lat": 38.851972833333335, "bike_id": "e258de4b15c2a5f7911fc944d0eb4a44", "type": "electric_bike", "is_reserved": 0, "lon": -76.9629515}, {"fusion_lat": 0.0, "name": "bbf860c3b7e69c121b6f7dedafef6faf", "is_disabled": 0, "rental_uris": {"android": "https://dc.lft.to/lastmile_qr_scan", "ios": "https://dc.lft.to/lastmile_qr_scan"}, "fusion_lon": 0.0, "lat": 38.88377066666666, "bike_id": "bbf860c3b7e69c121b6f7dedafef6faf", "type": "electric_scooter", "is_reserved": 0, "lon": -77.005263}, {"fusion_lat": 0.0, "name": "dd83a64fb1e4527a8cac713c481cccd3", "is_disabled": 0, "rental_uris": {"android": "https://dc.lft.to/lastmile_qr_scan", "ios": "https://dc.lft.to/lastmile_qr_scan"}, "fusion_lon": 0.0, "lat": 38.91429316666667, "bike_id": "dd83a64fb1e4527a8cac713c481cccd3", "type": "electric_scooter", "is_reserved": 0, "lon": -77.0218715}, {"fusion_lat": 0.0, "name": "6d77eff35f5afb4c52a4a855fa2b6754", "is_disabled": 0, "rental_uris": {"android": "https://dc.lft.to/lastmile_qr_scan", "ios": "https://dc.lft.to/lastmile_qr_scan"}, "fusion_lon": 0.0, "lat": 38.84753533333333, "bike_id": "6d77eff35f5afb4c52a4a855fa2b6754", "type": "electric_bike", "is_reserved": 0, "lon": -76.966493}, {"fusion_lat": 0.0, "name": "67d502138774672b3cadc9bd40945778", "is_disabled": 0, "rental_uris": {"android": "https://dc.lft.to/lastmile_qr_scan", "ios": "https://dc.lft.to/lastmile_qr_scan"}, "fusion_lon": 0.0, "lat": 38.905963166666666, "bike_id": "67d502138774672b3cadc9bd40945778", "type": "electric_scooter", "is_reserved": 0, "lon": -77.0629785}, {"fusion_lat": 0.0, "name": "4d014ec6028efe7aa07142e4bb7e619a", "is_disabled": 0, "rental_uris": {"android": "https://dc.lft.to/lastmile_qr_scan", "ios": "https://dc.lft.to/lastmile_qr_scan"}, "fusion_lon": 0.0, "lat": 38.904094, "bike_id": "4d014ec6028efe7aa07142e4bb7e619a", "type": "electric_scooter", "is_reserved": 0, "lon": -76.97332433333334}, {"fusion_lat": 0.0, "name": "b459551bc991d7a94fc8651699f7ffa5", "is_disabled": 0, "rental_uris": {"android": "https://dc.lft.to/lastmile_qr_scan", "ios": "https://dc.lft.to/lastmile_qr_scan"}, "fusion_lon": 0.0, "lat": 38.90718716666667, "bike_id": "b459551bc991d7a94fc8651699f7ffa5", "type": "electric_scooter", "is_reserved": 0, "lon": -77.0354245}, {"fusion_lat": 0.0, "name": "71cea9b7b725dabf27216dbc66d3afaa", "is_disabled": 0, "rental_uris": {"android": "https://dc.lft.to/lastmile_qr_scan", "ios": "https://dc.lft.to/lastmile_qr_scan"}, "fusion_lon": 0.0, "lat": 38.844233, "bike_id": "71cea9b7b725dabf27216dbc66d3afaa", "type": "electric_scooter", "is_reserved": 0, "lon": -76.99780066666666}, {"fusion_lat": 0.0, "name": "ecad6c654cb143e29f870a5e1d45c425", "is_disabled": 0, "rental_uris": {"android": "https://dc.lft.to/lastmile_qr_scan", "ios": "https://dc.lft.to/lastmile_qr_scan"}, "fusion_lon": 0.0, "lat": 38.9167005, "bike_id": "ecad6c654cb143e29f870a5e1d45c425", "type": "electric_scooter", "is_reserved": 0, "lon": -77.02712866666667}, {"fusion_lat": 0.0, "name": "68705f5b63ca1a6e9a419afe70c2988b", "is_disabled": 0, "rental_uris": {"android": "https://dc.lft.to/lastmile_qr_scan", "ios": "https://dc.lft.to/lastmile_qr_scan"}, "fusion_lon": 0.0, "lat": 38.909781833333334, "bike_id": "68705f5b63ca1a6e9a419afe70c2988b", "type": "electric_scooter", "is_reserved": 0, "lon": -77.0217685}, {"fusion_lat": 0.0, "name": "ecf5c242c04d8c86aa05bdd1d8ebac0a", "is_disabled": 0, "rental_uris": {"android": "https://dc.lft.to/lastmile_qr_scan", "ios": "https://dc.lft.to/lastmile_qr_scan"}, "fusion_lon": 0.0, "lat": 38.905000666666666, "bike_id": "ecf5c242c04d8c86aa05bdd1d8ebac0a", "type": "electric_scooter", "is_reserved": 0, "lon": -77.02959166666666}, {"fusion_lat": 0.0, "name": "969fcac08196f6cb78702607dc2b3c40", "is_disabled": 0, "rental_uris": {"android": "https://dc.lft.to/lastmile_qr_scan", "ios": "https://dc.lft.to/lastmile_qr_scan"}, "fusion_lon": 0.0, "lat": 38.906634333333336, "bike_id": "969fcac08196f6cb78702607dc2b3c40", "type": "electric_scooter", "is_reserved": 0, "lon": -77.038595}, {"fusion_lat": 0.0, "name": "88720d7034daeda6c2313025d100b784", "is_disabled": 0, "rental_uris": {"android": "https://dc.lft.to/lastmile_qr_scan", "ios": "https://dc.lft.to/lastmile_qr_scan"}, "fusion_lon": 0.0, "lat": 38.904905666666664, "bike_id": "88720d7034daeda6c2313025d100b784", "type": "electric_scooter", "is_reserved": 0, "lon": -77.03528883333334}, {"fusion_lat": 0.0, "name": "92cb8d4cc4304e37a5fe20ab88a39ff9", "is_disabled": 0, "rental_uris": {"android": "https://dc.lft.to/lastmile_qr_scan", "ios": "https://dc.lft.to/lastmile_qr_scan"}, "fusion_lon": 0.0, "lat": 38.91966983333333, "bike_id": "92cb8d4cc4304e37a5fe20ab88a39ff9", "type": "electric_scooter", "is_reserved": 0, "lon": -77.0232825}, {"fusion_lat": 0.0, "name": "ed0ce7450ee2b469e6b9918d83bfaa70", "is_disabled": 0, "rental_uris": {"android": "https://dc.lft.to/lastmile_qr_scan", "ios": "https://dc.lft.to/lastmile_qr_scan"}, "fusion_lon": 0.0, "lat": 38.90114533333333, "bike_id": "ed0ce7450ee2b469e6b9918d83bfaa70", "type": "electric_scooter", "is_reserved": 0, "lon": -77.02613133333334}, {"fusion_lat": 0.0, "name": "41c233fdccfdbe011a160a983b668b21", "is_disabled": 0, "rental_uris": {"android": "https://dc.lft.to/lastmile_qr_scan", "ios": "https://dc.lft.to/lastmile_qr_scan"}, "fusion_lon": 0.0, "lat": 38.93200133333333, "bike_id": "41c233fdccfdbe011a160a983b668b21", "type": "electric_scooter", "is_reserved": 0, "lon": -77.03493233333333}, {"fusion_lat": 0.0, "name": "4bef04d7223859baee86841a39bec25a", "is_disabled": 0, "rental_uris": {"android": "https://dc.lft.to/lastmile_qr_scan", "ios": "https://dc.lft.to/lastmile_qr_scan"}, "fusion_lon": 0.0, "lat": 38.90971966666667, "bike_id": "4bef04d7223859baee86841a39bec25a", "type": "electric_scooter", "is_reserved": 0, "lon": -77.03415633333333}, {"fusion_lat": 0.0, "name": "7a9afb0aaf6b6b57eab3216ef05e7987", "is_disabled": 0, "rental_uris": {"android": "https://dc.lft.to/lastmile_qr_scan", "ios": "https://dc.lft.to/lastmile_qr_scan"}, "fusion_lon": 0.0, "lat": 38.897305833333334, "bike_id": "7a9afb0aaf6b6b57eab3216ef05e7987", "type": "electric_scooter", "is_reserved": 0, "lon": -77.0441795}, {"fusion_lat": 0.0, "name": "8f94a1075a6241ff15583d10267676fa", "is_disabled": 0, "rental_uris": {"android": "https://dc.lft.to/lastmile_qr_scan", "ios": "https://dc.lft.to/lastmile_qr_scan"}, "fusion_lon": 0.0, "lat": 38.90713816666667, "bike_id": "8f94a1075a6241ff15583d10267676fa", "type": "electric_scooter", "is_reserved": 0, "lon": -77.02409266666666}, {"fusion_lat": 0.0, "name": "a51b47129232f7caf4609b10fcf5916d", "is_disabled": 0, "rental_uris": {"android": "https://dc.lft.to/lastmile_qr_scan", "ios": "https://dc.lft.to/lastmile_qr_scan"}, "fusion_lon": 0.0, "lat": 38.9275625, "bike_id": "a51b47129232f7caf4609b10fcf5916d", "type": "electric_scooter", "is_reserved": 0, "lon": -77.05266966666667}, {"fusion_lat": 0.0, "name": "aa0cfa1f9da41d471956339407b941a5", "is_disabled": 0, "rental_uris": {"android": "https://dc.lft.to/lastmile_qr_scan", "ios": "https://dc.lft.to/lastmile_qr_scan"}, "fusion_lon": 0.0, "lat": 38.92786066666667, "bike_id": "aa0cfa1f9da41d471956339407b941a5", "type": "electric_scooter", "is_reserved": 0, "lon": -77.0531205}, {"fusion_lat": 0.0, "name": "474b73b8a9f1dcbb07f819b08f1e8966", "is_disabled": 0, "rental_uris": {"android": "https://dc.lft.to/lastmile_qr_scan", "ios": "https://dc.lft.to/lastmile_qr_scan"}, "fusion_lon": 0.0, "lat": 38.92514533333333, "bike_id": "474b73b8a9f1dcbb07f819b08f1e8966", "type": "electric_scooter", "is_reserved": 0, "lon": -77.05038816666666}, {"fusion_lat": 0.0, "name": "b257403044e416627cc62cf4747e4b25", "is_disabled": 0, "rental_uris": {"android": "https://dc.lft.to/lastmile_qr_scan", "ios": "https://dc.lft.to/lastmile_qr_scan"}, "fusion_lon": 0.0, "lat": 38.90604533333333, "bike_id": "b257403044e416627cc62cf4747e4b25", "type": "electric_scooter", "is_reserved": 0, "lon": -77.00597683333334}, {"fusion_lat": 0.0, "name": "d2b9a9b66b8e2a78fb2018a1b2e5a377", "is_disabled": 0, "rental_uris": {"android": "https://dc.lft.to/lastmile_qr_scan", "ios": "https://dc.lft.to/lastmile_qr_scan"}, "fusion_lon": 0.0, "lat": 38.9375345, "bike_id": "d2b9a9b66b8e2a78fb2018a1b2e5a377", "type": "electric_scooter", "is_reserved": 0, "lon": -77.0325355}, {"fusion_lat": 0.0, "name": "64a7f3765baa56f71b5bfd7737c0fb83", "is_disabled": 0, "rental_uris": {"android": "https://dc.lft.to/lastmile_qr_scan", "ios": "https://dc.lft.to/lastmile_qr_scan"}, "fusion_lon": 0.0, "lat": 38.921363166666666, "bike_id": "64a7f3765baa56f71b5bfd7737c0fb83", "type": "electric_scooter", "is_reserved": 0, "lon": -77.01939516666667}, {"fusion_lat": 0.0, "name": "5fa3019c66184e0a7efe5080341485e6", "is_disabled": 0, "rental_uris": {"android": "https://dc.lft.to/lastmile_qr_scan", "ios": "https://dc.lft.to/lastmile_qr_scan"}, "fusion_lon": 0.0, "lat": 38.91713383333333, "bike_id": "5fa3019c66184e0a7efe5080341485e6", "type": "electric_scooter", "is_reserved": 0, "lon": -77.02769033333334}, {"fusion_lat": 0.0, "name": "4653b6ec103ed84228460ba3964125da", "is_disabled": 0, "rental_uris": {"android": "https://dc.lft.to/lastmile_qr_scan", "ios": "https://dc.lft.to/lastmile_qr_scan"}, "fusion_lon": 0.0, "lat": 38.886229666666665, "bike_id": "4653b6ec103ed84228460ba3964125da", "type": "electric_scooter", "is_reserved": 0, "lon": -77.02828266666667}, {"fusion_lat": 0.0, "name": "8fd44cc732a54eaf12b7ec95a96d44e6", "is_disabled": 0, "rental_uris": {"android": "https://dc.lft.to/lastmile_qr_scan", "ios": "https://dc.lft.to/lastmile_qr_scan"}, "fusion_lon": 0.0, "lat": 38.934317166666666, "bike_id": "8fd44cc732a54eaf12b7ec95a96d44e6", "type": "electric_scooter", "is_reserved": 0, "lon": -77.04000166666667}, {"fusion_lat": 0.0, "name": "b4c5444b11e38e1313e9b5f9fcbed47f", "is_disabled": 0, "rental_uris": {"android": "https://dc.lft.to/lastmile_qr_scan", "ios": "https://dc.lft.to/lastmile_qr_scan"}, "fusion_lon": 0.0, "lat": 38.92071333333333, "bike_id": "b4c5444b11e38e1313e9b5f9fcbed47f", "type": "electric_scooter", "is_reserved": 0, "lon": -77.0241295}, {"fusion_lat": 0.0, "name": "0c9cdffd46f0942b39e2bd369e473350", "is_disabled": 0, "rental_uris": {"android": "https://dc.lft.to/lastmile_qr_scan", "ios": "https://dc.lft.to/lastmile_qr_scan"}, "fusion_lon": 0.0, "lat": 38.892254666666666, "bike_id": "0c9cdffd46f0942b39e2bd369e473350", "type": "electric_scooter", "is_reserved": 0, "lon": -77.04090766666667}, {"fusion_lat": 0.0, "name": "98bc8c17adc492a955bcef71ce557061", "is_disabled": 0, "rental_uris": {"android": "https://dc.lft.to/lastmile_qr_scan", "ios": "https://dc.lft.to/lastmile_qr_scan"}, "fusion_lon": 0.0, "lat": 38.915523666666665, "bike_id": "98bc8c17adc492a955bcef71ce557061", "type": "electric_scooter", "is_reserved": 0, "lon": -77.01054366666666}, {"fusion_lat": 0.0, "name": "b1bdb3dd8e9841531021613076a39a93", "is_disabled": 0, "rental_uris": {"android": "https://dc.lft.to/lastmile_qr_scan", "ios": "https://dc.lft.to/lastmile_qr_scan"}, "fusion_lon": 0.0, "lat": 38.892220333333334, "bike_id": "b1bdb3dd8e9841531021613076a39a93", "type": "electric_scooter", "is_reserved": 0, "lon": -77.0222435}, {"fusion_lat": 0.0, "name": "82c6cbe6d8deb0d9a7070a8c76d0946a", "is_disabled": 0, "rental_uris": {"android": "https://dc.lft.to/lastmile_qr_scan", "ios": "https://dc.lft.to/lastmile_qr_scan"}, "fusion_lon": 0.0, "lat": 38.9039135, "bike_id": "82c6cbe6d8deb0d9a7070a8c76d0946a", "type": "electric_scooter", "is_reserved": 0, "lon": -77.02481983333334}, {"fusion_lat": 0.0, "name": "46772175650a547ec44baa7a0fb778d9", "is_disabled": 0, "rental_uris": {"android": "https://dc.lft.to/lastmile_qr_scan", "ios": "https://dc.lft.to/lastmile_qr_scan"}, "fusion_lon": 0.0, "lat": 38.901581, "bike_id": "46772175650a547ec44baa7a0fb778d9", "type": "electric_scooter", "is_reserved": 0, "lon": -77.0829525}, {"fusion_lat": 0.0, "name": "1a545b69e79e876746233a10f5def21d", "is_disabled": 0, "rental_uris": {"android": "https://dc.lft.to/lastmile_qr_scan", "ios": "https://dc.lft.to/lastmile_qr_scan"}, "fusion_lon": 0.0, "lat": 39.03611083333333, "bike_id": "1a545b69e79e876746233a10f5def21d", "type": "electric_bike", "is_reserved": 0, "lon": -77.0555315}, {"fusion_lat": 0.0, "name": "22bc869c7d698b6673c8744a55047485", "is_disabled": 0, "rental_uris": {"android": "https://dc.lft.to/lastmile_qr_scan", "ios": "https://dc.lft.to/lastmile_qr_scan"}, "fusion_lon": 0.0, "lat": 38.917711833333335, "bike_id": "22bc869c7d698b6673c8744a55047485", "type": "electric_scooter", "is_reserved": 0, "lon": -77.01450633333333}, {"fusion_lat": 0.0, "name": "6dbfce1446069a11456fb4eba3fd12cb", "is_disabled": 0, "rental_uris": {"android": "https://dc.lft.to/lastmile_qr_scan", "ios": "https://dc.lft.to/lastmile_qr_scan"}, "fusion_lon": 0.0, "lat": 38.9030765, "bike_id": "6dbfce1446069a11456fb4eba3fd12cb", "type": "electric_scooter", "is_reserved": 0, "lon": -76.97654833333333}, {"fusion_lat": 0.0, "name": "ed4926b9af6373fac8ec681160a36314", "is_disabled": 0, "rental_uris": {"android": "https://dc.lft.to/lastmile_qr_scan", "ios": "https://dc.lft.to/lastmile_qr_scan"}, "fusion_lon": 0.0, "lat": 38.902403166666666, "bike_id": "ed4926b9af6373fac8ec681160a36314", "type": "electric_scooter", "is_reserved": 0, "lon": -77.061409}, {"fusion_lat": 0.0, "name": "f493b35c1aeefb5c1075a56e6bbd2051", "is_disabled": 0, "rental_uris": {"android": "https://dc.lft.to/lastmile_qr_scan", "ios": "https://dc.lft.to/lastmile_qr_scan"}, "fusion_lon": 0.0, "lat": 38.924807, "bike_id": "f493b35c1aeefb5c1075a56e6bbd2051", "type": "electric_scooter", "is_reserved": 0, "lon": -77.02539933333334}, {"fusion_lat": 0.0, "name": "3e4db0897c7e058bf2834fc02e72c853", "is_disabled": 0, "rental_uris": {"android": "https://dc.lft.to/lastmile_qr_scan", "ios": "https://dc.lft.to/lastmile_qr_scan"}, "fusion_lon": 0.0, "lat": 38.928579166666665, "bike_id": "3e4db0897c7e058bf2834fc02e72c853", "type": "electric_scooter", "is_reserved": 0, "lon": -77.0304295}, {"fusion_lat": 0.0, "name": "665c6d5b8b113591186f3c433d8931bd", "is_disabled": 0, "rental_uris": {"android": "https://dc.lft.to/lastmile_qr_scan", "ios": "https://dc.lft.to/lastmile_qr_scan"}, "fusion_lon": 0.0, "lat": 38.90842266666667, "bike_id": "665c6d5b8b113591186f3c433d8931bd", "type": "electric_scooter", "is_reserved": 0, "lon": -77.038571}, {"fusion_lat": 0.0, "name": "ec87af5f6cdb599143a84d7dce716420", "is_disabled": 0, "rental_uris": {"android": "https://dc.lft.to/lastmile_qr_scan", "ios": "https://dc.lft.to/lastmile_qr_scan"}, "fusion_lon": 0.0, "lat": 38.9348165, "bike_id": "ec87af5f6cdb599143a84d7dce716420", "type": "electric_scooter", "is_reserved": 0, "lon": -77.07266883333334}, {"fusion_lat": 0.0, "name": "542301e88221b43396a6eee430915452", "is_disabled": 0, "rental_uris": {"android": "https://dc.lft.to/lastmile_qr_scan", "ios": "https://dc.lft.to/lastmile_qr_scan"}, "fusion_lon": 0.0, "lat": 38.9117835, "bike_id": "542301e88221b43396a6eee430915452", "type": "electric_scooter", "is_reserved": 0, "lon": -77.021935}, {"fusion_lat": 0.0, "name": "3203a027b88b2e7226b3dafb702682b7", "is_disabled": 0, "rental_uris": {"android": "https://dc.lft.to/lastmile_qr_scan", "ios": "https://dc.lft.to/lastmile_qr_scan"}, "fusion_lon": 0.0, "lat": 38.9944135, "bike_id": "3203a027b88b2e7226b3dafb702682b7", "type": "electric_bike", "is_reserved": 0, "lon": -76.995853}, {"fusion_lat": 0.0, "name": "29b36d1c83e56b3c09beaddd194ec209", "is_disabled": 0, "rental_uris": {"android": "https://dc.lft.to/lastmile_qr_scan", "ios": "https://dc.lft.to/lastmile_qr_scan"}, "fusion_lon": 0.0, "lat": 38.9335895, "bike_id": "29b36d1c83e56b3c09beaddd194ec209", "type": "electric_scooter", "is_reserved": 0, "lon": -77.072178}, {"fusion_lat": 0.0, "name": "e771db702418b9d3f02af4b408d86261", "is_disabled": 0, "rental_uris": {"android": "https://dc.lft.to/lastmile_qr_scan", "ios": "https://dc.lft.to/lastmile_qr_scan"}, "fusion_lon": 0.0, "lat": 38.92367483333334, "bike_id": "e771db702418b9d3f02af4b408d86261", "type": "electric_scooter", "is_reserved": 0, "lon": -77.031288}, {"fusion_lat": 0.0, "name": "df9cc629e7fe723ff817575ffca21d9b", "is_disabled": 0, "rental_uris": {"android": "https://dc.lft.to/lastmile_qr_scan", "ios": "https://dc.lft.to/lastmile_qr_scan"}, "fusion_lon": 0.0, "lat": 38.917456, "bike_id": "df9cc629e7fe723ff817575ffca21d9b", "type": "electric_scooter", "is_reserved": 0, "lon": -77.031868}, {"fusion_lat": 0.0, "name": "5dc33d31b758f01d54f0838a9c9c2768", "is_disabled": 0, "rental_uris": {"android": "https://dc.lft.to/lastmile_qr_scan", "ios": "https://dc.lft.to/lastmile_qr_scan"}, "fusion_lon": 0.0, "lat": 38.917768, "bike_id": "5dc33d31b758f01d54f0838a9c9c2768", "type": "electric_scooter", "is_reserved": 0, "lon": -77.0318775}, {"fusion_lat": 0.0, "name": "a88103a7637abaa8260bceac30422f8e", "is_disabled": 0, "rental_uris": {"android": "https://dc.lft.to/lastmile_qr_scan", "ios": "https://dc.lft.to/lastmile_qr_scan"}, "fusion_lon": 0.0, "lat": 38.941878, "bike_id": "a88103a7637abaa8260bceac30422f8e", "type": "electric_scooter", "is_reserved": 0, "lon": -77.0248485}, {"fusion_lat": 0.0, "name": "5fe9267f8324ca2ed6db23bdd486a4cb", "is_disabled": 0, "rental_uris": {"android": "https://dc.lft.to/lastmile_qr_scan", "ios": "https://dc.lft.to/lastmile_qr_scan"}, "fusion_lon": 0.0, "lat": 38.912614833333336, "bike_id": "5fe9267f8324ca2ed6db23bdd486a4cb", "type": "electric_scooter", "is_reserved": 0, "lon": -77.03861966666666}, {"fusion_lat": 0.0, "name": "f9d5a72c9820d3591e785bcc204a4f4a", "is_disabled": 0, "rental_uris": {"android": "https://dc.lft.to/lastmile_qr_scan", "ios": "https://dc.lft.to/lastmile_qr_scan"}, "fusion_lon": 0.0, "lat": 38.916627, "bike_id": "f9d5a72c9820d3591e785bcc204a4f4a", "type": "electric_scooter", "is_reserved": 0, "lon": -77.03696833333333}, {"fusion_lat": 0.0, "name": "d53683f158f284ddbd1f3b3ff12564aa", "is_disabled": 0, "rental_uris": {"android": "https://dc.lft.to/lastmile_qr_scan", "ios": "https://dc.lft.to/lastmile_qr_scan"}, "fusion_lon": 0.0, "lat": 38.86247483333333, "bike_id": "d53683f158f284ddbd1f3b3ff12564aa", "type": "electric_bike", "is_reserved": 0, "lon": -76.98328266666667}, {"fusion_lat": 0.0, "name": "c0a4d8492d56553adfba6dd7a9c21d0b", "is_disabled": 0, "rental_uris": {"android": "https://dc.lft.to/lastmile_qr_scan", "ios": "https://dc.lft.to/lastmile_qr_scan"}, "fusion_lon": 0.0, "lat": 38.94677933333333, "bike_id": "c0a4d8492d56553adfba6dd7a9c21d0b", "type": "electric_bike", "is_reserved": 0, "lon": -76.95670966666667}, {"fusion_lat": 0.0, "name": "4bb43b1c245d60fb6f1269264abb71b4", "is_disabled": 0, "rental_uris": {"android": "https://dc.lft.to/lastmile_qr_scan", "ios": "https://dc.lft.to/lastmile_qr_scan"}, "fusion_lon": 0.0, "lat": 38.910168666666664, "bike_id": "4bb43b1c245d60fb6f1269264abb71b4", "type": "electric_scooter", "is_reserved": 0, "lon": -77.03851366666666}, {"fusion_lat": 0.0, "name": "058cdc9a45d7fbb9d8f99e7e295a90aa", "is_disabled": 0, "rental_uris": {"android": "https://dc.lft.to/lastmile_qr_scan", "ios": "https://dc.lft.to/lastmile_qr_scan"}, "fusion_lon": 0.0, "lat": 38.90886116666667, "bike_id": "058cdc9a45d7fbb9d8f99e7e295a90aa", "type": "electric_scooter", "is_reserved": 0, "lon": -77.04389133333333}, {"fusion_lat": 0.0, "name": "7fbfdda6ed5062a8d55dd4d3713a7614", "is_disabled": 0, "rental_uris": {"android": "https://dc.lft.to/lastmile_qr_scan", "ios": "https://dc.lft.to/lastmile_qr_scan"}, "fusion_lon": 0.0, "lat": 38.90739766666667, "bike_id": "7fbfdda6ed5062a8d55dd4d3713a7614", "type": "electric_scooter", "is_reserved": 0, "lon": -77.03470683333333}, {"fusion_lat": 0.0, "name": "254a8017d730006199c8311fb7e4f436", "is_disabled": 0, "rental_uris": {"android": "https://dc.lft.to/lastmile_qr_scan", "ios": "https://dc.lft.to/lastmile_qr_scan"}, "fusion_lon": 0.0, "lat": 38.9623125, "bike_id": "254a8017d730006199c8311fb7e4f436", "type": "electric_bike", "is_reserved": 0, "lon": -76.92796966666667}, {"fusion_lat": 0.0, "name": "c3af5526bd6de4f589df1f410d7fc0b8", "is_disabled": 0, "rental_uris": {"android": "https://dc.lft.to/lastmile_qr_scan", "ios": "https://dc.lft.to/lastmile_qr_scan"}, "fusion_lon": 0.0, "lat": 38.909802666666664, "bike_id": "c3af5526bd6de4f589df1f410d7fc0b8", "type": "electric_scooter", "is_reserved": 0, "lon": -77.02208366666666}, {"fusion_lat": 0.0, "name": "0516d521d5bebd02704254b5d4fc63df", "is_disabled": 0, "rental_uris": {"android": "https://dc.lft.to/lastmile_qr_scan", "ios": "https://dc.lft.to/lastmile_qr_scan"}, "fusion_lon": 0.0, "lat": 38.92451483333333, "bike_id": "0516d521d5bebd02704254b5d4fc63df", "type": "electric_scooter", "is_reserved": 0, "lon": -77.03944583333333}, {"fusion_lat": 0.0, "name": "c2995f48c0ce075eea0ffba9aaa9bd0b", "is_disabled": 0, "rental_uris": {"android": "https://dc.lft.to/lastmile_qr_scan", "ios": "https://dc.lft.to/lastmile_qr_scan"}, "fusion_lon": 0.0, "lat": 38.914036, "bike_id": "c2995f48c0ce075eea0ffba9aaa9bd0b", "type": "electric_scooter", "is_reserved": 0, "lon": -77.02482983333333}, {"fusion_lat": 0.0, "name": "43e0d0399130176e28495ec0f4a5d2c6", "is_disabled": 0, "rental_uris": {"android": "https://dc.lft.to/lastmile_qr_scan", "ios": "https://dc.lft.to/lastmile_qr_scan"}, "fusion_lon": 0.0, "lat": 38.8873075, "bike_id": "43e0d0399130176e28495ec0f4a5d2c6", "type": "electric_scooter", "is_reserved": 0, "lon": -77.02132916666666}, {"fusion_lat": 0.0, "name": "bb57056cda38018ccbdfdcbbf97f1efa", "is_disabled": 0, "rental_uris": {"android": "https://dc.lft.to/lastmile_qr_scan", "ios": "https://dc.lft.to/lastmile_qr_scan"}, "fusion_lon": 0.0, "lat": 38.93877633333334, "bike_id": "bb57056cda38018ccbdfdcbbf97f1efa", "type": "electric_scooter", "is_reserved": 0, "lon": -77.0292095}, {"fusion_lat": 0.0, "name": "62e0debc3429ff28c1b8e4b353b8508f", "is_disabled": 0, "rental_uris": {"android": "https://dc.lft.to/lastmile_qr_scan", "ios": "https://dc.lft.to/lastmile_qr_scan"}, "fusion_lon": 0.0, "lat": 38.920351833333335, "bike_id": "62e0debc3429ff28c1b8e4b353b8508f", "type": "electric_scooter", "is_reserved": 0, "lon": -76.98992983333333}, {"fusion_lat": 0.0, "name": "b01d456a13c845814e847eab049d5977", "is_disabled": 0, "rental_uris": {"android": "https://dc.lft.to/lastmile_qr_scan", "ios": "https://dc.lft.to/lastmile_qr_scan"}, "fusion_lon": 0.0, "lat": 38.93448466666667, "bike_id": "b01d456a13c845814e847eab049d5977", "type": "electric_scooter", "is_reserved": 0, "lon": -77.03867966666667}, {"fusion_lat": 0.0, "name": "f0c6f79b89fd69ec2e39955ee5817ccb", "is_disabled": 0, "rental_uris": {"android": "https://dc.lft.to/lastmile_qr_scan", "ios": "https://dc.lft.to/lastmile_qr_scan"}, "fusion_lon": 0.0, "lat": 38.89997866666667, "bike_id": "f0c6f79b89fd69ec2e39955ee5817ccb", "type": "electric_scooter", "is_reserved": 0, "lon": -77.02287133333333}, {"fusion_lat": 0.0, "name": "817936ea57d2e2e83be2d955b01749b1", "is_disabled": 0, "rental_uris": {"android": "https://dc.lft.to/lastmile_qr_scan", "ios": "https://dc.lft.to/lastmile_qr_scan"}, "fusion_lon": 0.0, "lat": 38.9085935, "bike_id": "817936ea57d2e2e83be2d955b01749b1", "type": "electric_bike", "is_reserved": 0, "lon": -77.0440785}, {"fusion_lat": 0.0, "name": "c3a7fc75c027fab89f5289825a540b33", "is_disabled": 0, "rental_uris": {"android": "https://dc.lft.to/lastmile_qr_scan", "ios": "https://dc.lft.to/lastmile_qr_scan"}, "fusion_lon": 0.0, "lat": 38.927265, "bike_id": "c3a7fc75c027fab89f5289825a540b33", "type": "electric_scooter", "is_reserved": 0, "lon": -77.05376616666666}, {"fusion_lat": 0.0, "name": "34c6ca0048eb31919492f89ba70e7e24", "is_disabled": 0, "rental_uris": {"android": "https://dc.lft.to/lastmile_qr_scan", "ios": "https://dc.lft.to/lastmile_qr_scan"}, "fusion_lon": 0.0, "lat": 38.93251566666667, "bike_id": "34c6ca0048eb31919492f89ba70e7e24", "type": "electric_scooter", "is_reserved": 0, "lon": -77.029679}, {"fusion_lat": 0.0, "name": "c170ff19aece8c25121e09bbf6944707", "is_disabled": 0, "rental_uris": {"android": "https://dc.lft.to/lastmile_qr_scan", "ios": "https://dc.lft.to/lastmile_qr_scan"}, "fusion_lon": 0.0, "lat": 38.90133483333334, "bike_id": "c170ff19aece8c25121e09bbf6944707", "type": "electric_scooter", "is_reserved": 0, "lon": -77.04339583333334}, {"fusion_lat": 0.0, "name": "6932db09d88a57799371b3359a464d93", "is_disabled": 0, "rental_uris": {"android": "https://dc.lft.to/lastmile_qr_scan", "ios": "https://dc.lft.to/lastmile_qr_scan"}, "fusion_lon": 0.0, "lat": 38.91704633333333, "bike_id": "6932db09d88a57799371b3359a464d93", "type": "electric_scooter", "is_reserved": 0, "lon": -77.02739816666667}, {"fusion_lat": 0.0, "name": "d572d3ef80b0a81fececd57f799d3a23", "is_disabled": 0, "rental_uris": {"android": "https://dc.lft.to/lastmile_qr_scan", "ios": "https://dc.lft.to/lastmile_qr_scan"}, "fusion_lon": 0.0, "lat": 38.947274166666666, "bike_id": "d572d3ef80b0a81fececd57f799d3a23", "type": "electric_scooter", "is_reserved": 0, "lon": -77.02765483333333}, {"fusion_lat": 0.0, "name": "46aa329979e6720d00d1f1a17e3dff3d", "is_disabled": 0, "rental_uris": {"android": "https://dc.lft.to/lastmile_qr_scan", "ios": "https://dc.lft.to/lastmile_qr_scan"}, "fusion_lon": 0.0, "lat": 38.945323, "bike_id": "46aa329979e6720d00d1f1a17e3dff3d", "type": "electric_scooter", "is_reserved": 0, "lon": -77.01898616666666}, {"fusion_lat": 0.0, "name": "3089f2f4824dd9f46cc05e2ecc53b121", "is_disabled": 0, "rental_uris": {"android": "https://dc.lft.to/lastmile_qr_scan", "ios": "https://dc.lft.to/lastmile_qr_scan"}, "fusion_lon": 0.0, "lat": 38.92357283333333, "bike_id": "3089f2f4824dd9f46cc05e2ecc53b121", "type": "electric_scooter", "is_reserved": 0, "lon": -77.07305316666667}, {"fusion_lat": 0.0, "name": "e78eeb76035ab0346048f30b3bc47d81", "is_disabled": 0, "rental_uris": {"android": "https://dc.lft.to/lastmile_qr_scan", "ios": "https://dc.lft.to/lastmile_qr_scan"}, "fusion_lon": 0.0, "lat": 38.91091816666667, "bike_id": "e78eeb76035ab0346048f30b3bc47d81", "type": "electric_bike", "is_reserved": 0, "lon": -77.02388066666667}, {"fusion_lat": 0.0, "name": "aa9499cff396c2f1426b0b84ed43e3f8", "is_disabled": 0, "rental_uris": {"android": "https://dc.lft.to/lastmile_qr_scan", "ios": "https://dc.lft.to/lastmile_qr_scan"}, "fusion_lon": 0.0, "lat": 38.94601383333333, "bike_id": "aa9499cff396c2f1426b0b84ed43e3f8", "type": "electric_scooter", "is_reserved": 0, "lon": -77.02979033333334}, {"fusion_lat": 0.0, "name": "e5b97e6c8e716a6e5c3ce175fc4267b4", "is_disabled": 0, "rental_uris": {"android": "https://dc.lft.to/lastmile_qr_scan", "ios": "https://dc.lft.to/lastmile_qr_scan"}, "fusion_lon": 0.0, "lat": 38.907412, "bike_id": "e5b97e6c8e716a6e5c3ce175fc4267b4", "type": "electric_scooter", "is_reserved": 0, "lon": -77.03467516666667}, {"fusion_lat": 0.0, "name": "03141edd1203c93125854530c5eee62b", "is_disabled": 0, "rental_uris": {"android": "https://dc.lft.to/lastmile_qr_scan", "ios": "https://dc.lft.to/lastmile_qr_scan"}, "fusion_lon": 0.0, "lat": 38.909819666666664, "bike_id": "03141edd1203c93125854530c5eee62b", "type": "electric_scooter", "is_reserved": 0, "lon": -77.0239035}, {"fusion_lat": 0.0, "name": "6f755c6c35c7d91a88847c18378ef329", "is_disabled": 0, "rental_uris": {"android": "https://dc.lft.to/lastmile_qr_scan", "ios": "https://dc.lft.to/lastmile_qr_scan"}, "fusion_lon": 0.0, "lat": 38.92368466666667, "bike_id": "6f755c6c35c7d91a88847c18378ef329", "type": "electric_scooter", "is_reserved": 0, "lon": -77.04096933333334}, {"fusion_lat": 0.0, "name": "e319677fe894b0648ace6301db1fdb30", "is_disabled": 0, "rental_uris": {"android": "https://dc.lft.to/lastmile_qr_scan", "ios": "https://dc.lft.to/lastmile_qr_scan"}, "fusion_lon": 0.0, "lat": 38.9418765, "bike_id": "e319677fe894b0648ace6301db1fdb30", "type": "electric_scooter", "is_reserved": 0, "lon": -77.04111033333334}, {"fusion_lat": 0.0, "name": "a84c08fc2dd130f3a7eb5e42c41e41e5", "is_disabled": 0, "rental_uris": {"android": "https://dc.lft.to/lastmile_qr_scan", "ios": "https://dc.lft.to/lastmile_qr_scan"}, "fusion_lon": 0.0, "lat": 38.90468033333333, "bike_id": "a84c08fc2dd130f3a7eb5e42c41e41e5", "type": "electric_scooter", "is_reserved": 0, "lon": -77.03895933333334}, {"fusion_lat": 0.0, "name": "d38f05425bf59c899b389b8cc9c6d2b9", "is_disabled": 0, "rental_uris": {"android": "https://dc.lft.to/lastmile_qr_scan", "ios": "https://dc.lft.to/lastmile_qr_scan"}, "fusion_lon": 0.0, "lat": 38.9098885, "bike_id": "d38f05425bf59c899b389b8cc9c6d2b9", "type": "electric_scooter", "is_reserved": 0, "lon": -77.03857183333334}, {"fusion_lat": 0.0, "name": "bc4191fdf478807fcda92494cb82d4aa", "is_disabled": 0, "rental_uris": {"android": "https://dc.lft.to/lastmile_qr_scan", "ios": "https://dc.lft.to/lastmile_qr_scan"}, "fusion_lon": 0.0, "lat": 38.91727083333333, "bike_id": "bc4191fdf478807fcda92494cb82d4aa", "type": "electric_scooter", "is_reserved": 0, "lon": -77.03454666666667}, {"fusion_lat": 0.0, "name": "b079773969556f9413664ad0cd3829cf", "is_disabled": 0, "rental_uris": {"android": "https://dc.lft.to/lastmile_qr_scan", "ios": "https://dc.lft.to/lastmile_qr_scan"}, "fusion_lon": 0.0, "lat": 38.980578333333334, "bike_id": "b079773969556f9413664ad0cd3829cf", "type": "electric_bike", "is_reserved": 0, "lon": -76.95795266666667}, {"fusion_lat": 0.0, "name": "6925e44f4b0eb1a26163da11d2021477", "is_disabled": 0, "rental_uris": {"android": "https://dc.lft.to/lastmile_qr_scan", "ios": "https://dc.lft.to/lastmile_qr_scan"}, "fusion_lon": 0.0, "lat": 38.920604, "bike_id": "6925e44f4b0eb1a26163da11d2021477", "type": "electric_scooter", "is_reserved": 0, "lon": -77.02298116666667}, {"fusion_lat": 0.0, "name": "eb2334e8617561c6a1f6d05e51114bb4", "is_disabled": 0, "rental_uris": {"android": "https://dc.lft.to/lastmile_qr_scan", "ios": "https://dc.lft.to/lastmile_qr_scan"}, "fusion_lon": 0.0, "lat": 38.92433533333333, "bike_id": "eb2334e8617561c6a1f6d05e51114bb4", "type": "electric_scooter", "is_reserved": 0, "lon": -77.03528766666666}, {"fusion_lat": 0.0, "name": "cd81d12a0bd7dbafcda301cbf658cb75", "is_disabled": 0, "rental_uris": {"android": "https://dc.lft.to/lastmile_qr_scan", "ios": "https://dc.lft.to/lastmile_qr_scan"}, "fusion_lon": 0.0, "lat": 38.9103035, "bike_id": "cd81d12a0bd7dbafcda301cbf658cb75", "type": "electric_scooter", "is_reserved": 0, "lon": -77.04133133333333}, {"fusion_lat": 0.0, "name": "79498741999de9870508e3467f718c0c", "is_disabled": 0, "rental_uris": {"android": "https://dc.lft.to/lastmile_qr_scan", "ios": "https://dc.lft.to/lastmile_qr_scan"}, "fusion_lon": 0.0, "lat": 38.90063033333333, "bike_id": "79498741999de9870508e3467f718c0c", "type": "electric_scooter", "is_reserved": 0, "lon": -76.93385616666667}, {"fusion_lat": 0.0, "name": "cde7a05f52b5f4ac4a065923b0879d21", "is_disabled": 0, "rental_uris": {"android": "https://dc.lft.to/lastmile_qr_scan", "ios": "https://dc.lft.to/lastmile_qr_scan"}, "fusion_lon": 0.0, "lat": 38.90509216666667, "bike_id": "cde7a05f52b5f4ac4a065923b0879d21", "type": "electric_scooter", "is_reserved": 0, "lon": -77.04777066666666}, {"fusion_lat": 0.0, "name": "6692f80d118207751adffd268507964c", "is_disabled": 0, "rental_uris": {"android": "https://dc.lft.to/lastmile_qr_scan", "ios": "https://dc.lft.to/lastmile_qr_scan"}, "fusion_lon": 0.0, "lat": 38.91206733333333, "bike_id": "6692f80d118207751adffd268507964c", "type": "electric_scooter", "is_reserved": 0, "lon": -77.03205333333334}, {"fusion_lat": 0.0, "name": "5c1eb5d8d1c32497cf45a0c6e97761e5", "is_disabled": 0, "rental_uris": {"android": "https://dc.lft.to/lastmile_qr_scan", "ios": "https://dc.lft.to/lastmile_qr_scan"}, "fusion_lon": 0.0, "lat": 38.889218, "bike_id": "5c1eb5d8d1c32497cf45a0c6e97761e5", "type": "electric_bike", "is_reserved": 0, "lon": -76.9917225}, {"fusion_lat": 0.0, "name": "e80e88fb8094b50f49e24f221e9be007", "is_disabled": 0, "rental_uris": {"android": "https://dc.lft.to/lastmile_qr_scan", "ios": "https://dc.lft.to/lastmile_qr_scan"}, "fusion_lon": 0.0, "lat": 38.92380966666666, "bike_id": "e80e88fb8094b50f49e24f221e9be007", "type": "electric_scooter", "is_reserved": 0, "lon": -77.035391}, {"fusion_lat": 0.0, "name": "41b61e8ffadd1c1aaa0dd4643cd5ce90", "is_disabled": 0, "rental_uris": {"android": "https://dc.lft.to/lastmile_qr_scan", "ios": "https://dc.lft.to/lastmile_qr_scan"}, "fusion_lon": 0.0, "lat": 38.87661283333333, "bike_id": "41b61e8ffadd1c1aaa0dd4643cd5ce90", "type": "electric_scooter", "is_reserved": 0, "lon": -77.00081166666666}, {"fusion_lat": 0.0, "name": "0cb745c612f639058d1b899bca2b5ea8", "is_disabled": 0, "rental_uris": {"android": "https://dc.lft.to/lastmile_qr_scan", "ios": "https://dc.lft.to/lastmile_qr_scan"}, "fusion_lon": 0.0, "lat": 38.906184, "bike_id": "0cb745c612f639058d1b899bca2b5ea8", "type": "electric_scooter", "is_reserved": 0, "lon": -77.0259705}, {"fusion_lat": 0.0, "name": "aec59339e4e66874ea36ff129409d1c7", "is_disabled": 0, "rental_uris": {"android": "https://dc.lft.to/lastmile_qr_scan", "ios": "https://dc.lft.to/lastmile_qr_scan"}, "fusion_lon": 0.0, "lat": 38.89827416666667, "bike_id": "aec59339e4e66874ea36ff129409d1c7", "type": "electric_scooter", "is_reserved": 0, "lon": -76.946299}, {"fusion_lat": 0.0, "name": "f2de6abd591ea0937e2ae1d94676cb8d", "is_disabled": 0, "rental_uris": {"android": "https://dc.lft.to/lastmile_qr_scan", "ios": "https://dc.lft.to/lastmile_qr_scan"}, "fusion_lon": 0.0, "lat": 38.9051295, "bike_id": "f2de6abd591ea0937e2ae1d94676cb8d", "type": "electric_scooter", "is_reserved": 0, "lon": -77.048277}, {"fusion_lat": 0.0, "name": "f0a6d568dbf324961f888b6185fb49da", "is_disabled": 0, "rental_uris": {"android": "https://dc.lft.to/lastmile_qr_scan", "ios": "https://dc.lft.to/lastmile_qr_scan"}, "fusion_lon": 0.0, "lat": 38.877523, "bike_id": "f0a6d568dbf324961f888b6185fb49da", "type": "electric_scooter", "is_reserved": 0, "lon": -77.0062105}, {"fusion_lat": 0.0, "name": "a58de7476acae8676c5b758f184edbb5", "is_disabled": 0, "rental_uris": {"android": "https://dc.lft.to/lastmile_qr_scan", "ios": "https://dc.lft.to/lastmile_qr_scan"}, "fusion_lon": 0.0, "lat": 38.9071055, "bike_id": "a58de7476acae8676c5b758f184edbb5", "type": "electric_scooter", "is_reserved": 0, "lon": -77.04343116666666}, {"fusion_lat": 0.0, "name": "aac190c052f7c639661ebf28e2098f04", "is_disabled": 0, "rental_uris": {"android": "https://dc.lft.to/lastmile_qr_scan", "ios": "https://dc.lft.to/lastmile_qr_scan"}, "fusion_lon": 0.0, "lat": 38.955271833333335, "bike_id": "aac190c052f7c639661ebf28e2098f04", "type": "electric_bike", "is_reserved": 0, "lon": -77.024674}, {"fusion_lat": 0.0, "name": "8872393e7071e324e216f5d74f888a3b", "is_disabled": 0, "rental_uris": {"android": "https://dc.lft.to/lastmile_qr_scan", "ios": "https://dc.lft.to/lastmile_qr_scan"}, "fusion_lon": 0.0, "lat": 39.01412533333333, "bike_id": "8872393e7071e324e216f5d74f888a3b", "type": "electric_bike", "is_reserved": 0, "lon": -77.04498566666666}, {"fusion_lat": 0.0, "name": "faf19cdaa296daa2194a620dc8b886ba", "is_disabled": 0, "rental_uris": {"android": "https://dc.lft.to/lastmile_qr_scan", "ios": "https://dc.lft.to/lastmile_qr_scan"}, "fusion_lon": 0.0, "lat": 38.8998685, "bike_id": "faf19cdaa296daa2194a620dc8b886ba", "type": "electric_scooter", "is_reserved": 0, "lon": -77.02219533333333}, {"fusion_lat": 0.0, "name": "4a30a52091c4f75455a8b56d4b139cf4", "is_disabled": 0, "rental_uris": {"android": "https://dc.lft.to/lastmile_qr_scan", "ios": "https://dc.lft.to/lastmile_qr_scan"}, "fusion_lon": 0.0, "lat": 38.90571083333333, "bike_id": "4a30a52091c4f75455a8b56d4b139cf4", "type": "electric_scooter", "is_reserved": 0, "lon": -77.01674}, {"fusion_lat": 0.0, "name": "5d01a2ba7e589ec08a46b063e72ded27", "is_disabled": 0, "rental_uris": {"android": "https://dc.lft.to/lastmile_qr_scan", "ios": "https://dc.lft.to/lastmile_qr_scan"}, "fusion_lon": 0.0, "lat": 38.88174383333333, "bike_id": "5d01a2ba7e589ec08a46b063e72ded27", "type": "electric_scooter", "is_reserved": 0, "lon": -77.02765333333333}, {"fusion_lat": 0.0, "name": "f4cb65a18561ec077266ac0c774b11b0", "is_disabled": 0, "rental_uris": {"android": "https://dc.lft.to/lastmile_qr_scan", "ios": "https://dc.lft.to/lastmile_qr_scan"}, "fusion_lon": 0.0, "lat": 38.87364433333333, "bike_id": "f4cb65a18561ec077266ac0c774b11b0", "type": "electric_scooter", "is_reserved": 0, "lon": -77.0011785}, {"fusion_lat": 0.0, "name": "f59ab7e5ab6ff5571acfc8295b3bd7f0", "is_disabled": 0, "rental_uris": {"android": "https://dc.lft.to/lastmile_qr_scan", "ios": "https://dc.lft.to/lastmile_qr_scan"}, "fusion_lon": 0.0, "lat": 38.898689, "bike_id": "f59ab7e5ab6ff5571acfc8295b3bd7f0", "type": "electric_bike", "is_reserved": 0, "lon": -77.11334366666667}, {"fusion_lat": 0.0, "name": "33f4ce97716d850dce263c06efaaecb2", "is_disabled": 0, "rental_uris": {"android": "https://dc.lft.to/lastmile_qr_scan", "ios": "https://dc.lft.to/lastmile_qr_scan"}, "fusion_lon": 0.0, "lat": 38.95558183333333, "bike_id": "33f4ce97716d850dce263c06efaaecb2", "type": "electric_bike", "is_reserved": 0, "lon": -77.02441283333333}, {"fusion_lat": 0.0, "name": "6c90e9b9c0f982dbd7fef5bb6965301f", "is_disabled": 0, "rental_uris": {"android": "https://dc.lft.to/lastmile_qr_scan", "ios": "https://dc.lft.to/lastmile_qr_scan"}, "fusion_lon": 0.0, "lat": 38.9322445, "bike_id": "6c90e9b9c0f982dbd7fef5bb6965301f", "type": "electric_scooter", "is_reserved": 0, "lon": -76.99492633333334}, {"fusion_lat": 0.0, "name": "ef8800baa7f30026e6e17f525825ec23", "is_disabled": 0, "rental_uris": {"android": "https://dc.lft.to/lastmile_qr_scan", "ios": "https://dc.lft.to/lastmile_qr_scan"}, "fusion_lon": 0.0, "lat": 38.89094816666667, "bike_id": "ef8800baa7f30026e6e17f525825ec23", "type": "electric_scooter", "is_reserved": 0, "lon": -76.919244}, {"fusion_lat": 0.0, "name": "5df1489f5f649ff053d1066e7cc0e9e4", "is_disabled": 0, "rental_uris": {"android": "https://dc.lft.to/lastmile_qr_scan", "ios": "https://dc.lft.to/lastmile_qr_scan"}, "fusion_lon": 0.0, "lat": 38.9072895, "bike_id": "5df1489f5f649ff053d1066e7cc0e9e4", "type": "electric_scooter", "is_reserved": 0, "lon": -77.010922}, {"fusion_lat": 0.0, "name": "32d882c05a14ae59dadddc634ae7a180", "is_disabled": 0, "rental_uris": {"android": "https://dc.lft.to/lastmile_qr_scan", "ios": "https://dc.lft.to/lastmile_qr_scan"}, "fusion_lon": 0.0, "lat": 38.924665, "bike_id": "32d882c05a14ae59dadddc634ae7a180", "type": "electric_scooter", "is_reserved": 0, "lon": -77.03088216666667}, {"fusion_lat": 0.0, "name": "3f5fdc3dc5581ae71dabc1721c10f80c", "is_disabled": 0, "rental_uris": {"android": "https://dc.lft.to/lastmile_qr_scan", "ios": "https://dc.lft.to/lastmile_qr_scan"}, "fusion_lon": 0.0, "lat": 38.92129583333333, "bike_id": "3f5fdc3dc5581ae71dabc1721c10f80c", "type": "electric_scooter", "is_reserved": 0, "lon": -77.01798233333334}, {"fusion_lat": 0.0, "name": "4e331cb811d3e3bf948d949946655f24", "is_disabled": 0, "rental_uris": {"android": "https://dc.lft.to/lastmile_qr_scan", "ios": "https://dc.lft.to/lastmile_qr_scan"}, "fusion_lon": 0.0, "lat": 38.94434783333333, "bike_id": "4e331cb811d3e3bf948d949946655f24", "type": "electric_bike", "is_reserved": 0, "lon": -77.02602133333333}, {"fusion_lat": 0.0, "name": "f12b3c088ecb6610bf6693af890a17f2", "is_disabled": 0, "rental_uris": {"android": "https://dc.lft.to/lastmile_qr_scan", "ios": "https://dc.lft.to/lastmile_qr_scan"}, "fusion_lon": 0.0, "lat": 38.96121016666667, "bike_id": "f12b3c088ecb6610bf6693af890a17f2", "type": "electric_scooter", "is_reserved": 0, "lon": -77.02794533333334}, {"fusion_lat": 0.0, "name": "a2362bed2b231af5020f5e154ee32aa5", "is_disabled": 0, "rental_uris": {"android": "https://dc.lft.to/lastmile_qr_scan", "ios": "https://dc.lft.to/lastmile_qr_scan"}, "fusion_lon": 0.0, "lat": 38.91682433333333, "bike_id": "a2362bed2b231af5020f5e154ee32aa5", "type": "electric_scooter", "is_reserved": 0, "lon": -77.03671116666666}, {"fusion_lat": 0.0, "name": "cb9fb0fcfe10dbcda2c497fc7a85fb09", "is_disabled": 0, "rental_uris": {"android": "https://dc.lft.to/lastmile_qr_scan", "ios": "https://dc.lft.to/lastmile_qr_scan"}, "fusion_lon": 0.0, "lat": 38.9343865, "bike_id": "cb9fb0fcfe10dbcda2c497fc7a85fb09", "type": "electric_scooter", "is_reserved": 0, "lon": -77.05778333333333}, {"fusion_lat": 0.0, "name": "b9e107850fca6a74b730a654c3bb2ba1", "is_disabled": 0, "rental_uris": {"android": "https://dc.lft.to/lastmile_qr_scan", "ios": "https://dc.lft.to/lastmile_qr_scan"}, "fusion_lon": 0.0, "lat": 38.92454983333333, "bike_id": "b9e107850fca6a74b730a654c3bb2ba1", "type": "electric_scooter", "is_reserved": 0, "lon": -76.97098066666666}, {"fusion_lat": 0.0, "name": "ce12e75ea111df048f6ff554476533bc", "is_disabled": 0, "rental_uris": {"android": "https://dc.lft.to/lastmile_qr_scan", "ios": "https://dc.lft.to/lastmile_qr_scan"}, "fusion_lon": 0.0, "lat": 38.9070515, "bike_id": "ce12e75ea111df048f6ff554476533bc", "type": "electric_scooter", "is_reserved": 0, "lon": -76.988522}, {"fusion_lat": 0.0, "name": "a27db1b8807f221c77c9280c663c8c17", "is_disabled": 0, "rental_uris": {"android": "https://dc.lft.to/lastmile_qr_scan", "ios": "https://dc.lft.to/lastmile_qr_scan"}, "fusion_lon": 0.0, "lat": 38.888136333333335, "bike_id": "a27db1b8807f221c77c9280c663c8c17", "type": "electric_scooter", "is_reserved": 0, "lon": -77.01488216666667}, {"fusion_lat": 0.0, "name": "91a8e1feec685fcc07d5e80ffda39fed", "is_disabled": 0, "rental_uris": {"android": "https://dc.lft.to/lastmile_qr_scan", "ios": "https://dc.lft.to/lastmile_qr_scan"}, "fusion_lon": 0.0, "lat": 38.90517666666667, "bike_id": "91a8e1feec685fcc07d5e80ffda39fed", "type": "electric_scooter", "is_reserved": 0, "lon": -77.02702483333333}, {"fusion_lat": 0.0, "name": "0ea65ff5595f5de9ca953933e231c52c", "is_disabled": 0, "rental_uris": {"android": "https://dc.lft.to/lastmile_qr_scan", "ios": "https://dc.lft.to/lastmile_qr_scan"}, "fusion_lon": 0.0, "lat": 38.909187, "bike_id": "0ea65ff5595f5de9ca953933e231c52c", "type": "electric_scooter", "is_reserved": 0, "lon": -77.031937}, {"fusion_lat": 0.0, "name": "63a2e547cdde4ab24c84e59f38da4fe9", "is_disabled": 0, "rental_uris": {"android": "https://dc.lft.to/lastmile_qr_scan", "ios": "https://dc.lft.to/lastmile_qr_scan"}, "fusion_lon": 0.0, "lat": 38.865133666666665, "bike_id": "63a2e547cdde4ab24c84e59f38da4fe9", "type": "electric_bike", "is_reserved": 0, "lon": -77.129367}, {"fusion_lat": 0.0, "name": "a5533ffffb45e84a5ec6c97505ab39c1", "is_disabled": 0, "rental_uris": {"android": "https://dc.lft.to/lastmile_qr_scan", "ios": "https://dc.lft.to/lastmile_qr_scan"}, "fusion_lon": 0.0, "lat": 38.9146825, "bike_id": "a5533ffffb45e84a5ec6c97505ab39c1", "type": "electric_scooter", "is_reserved": 0, "lon": -77.02579233333333}, {"fusion_lat": 0.0, "name": "3a8c92b20b93639b42c2d67b15a00551", "is_disabled": 0, "rental_uris": {"android": "https://dc.lft.to/lastmile_qr_scan", "ios": "https://dc.lft.to/lastmile_qr_scan"}, "fusion_lon": 0.0, "lat": 38.91813483333333, "bike_id": "3a8c92b20b93639b42c2d67b15a00551", "type": "electric_scooter", "is_reserved": 0, "lon": -77.024758}, {"fusion_lat": 0.0, "name": "ed77c6625b8224f70a452a6cb6ee46aa", "is_disabled": 0, "rental_uris": {"android": "https://dc.lft.to/lastmile_qr_scan", "ios": "https://dc.lft.to/lastmile_qr_scan"}, "fusion_lon": 0.0, "lat": 38.90129533333333, "bike_id": "ed77c6625b8224f70a452a6cb6ee46aa", "type": "electric_scooter", "is_reserved": 0, "lon": -77.04421283333333}, {"fusion_lat": 0.0, "name": "30b566cb88a903ee099f1c4dd3b94989", "is_disabled": 0, "rental_uris": {"android": "https://dc.lft.to/lastmile_qr_scan", "ios": "https://dc.lft.to/lastmile_qr_scan"}, "fusion_lon": 0.0, "lat": 38.912280833333334, "bike_id": "30b566cb88a903ee099f1c4dd3b94989", "type": "electric_scooter", "is_reserved": 0, "lon": -77.04480233333334}, {"fusion_lat": 0.0, "name": "b71761122a468578b4ed4369ad9fbca5", "is_disabled": 0, "rental_uris": {"android": "https://dc.lft.to/lastmile_qr_scan", "ios": "https://dc.lft.to/lastmile_qr_scan"}, "fusion_lon": 0.0, "lat": 38.905674, "bike_id": "b71761122a468578b4ed4369ad9fbca5", "type": "electric_scooter", "is_reserved": 0, "lon": -77.01695016666666}, {"fusion_lat": 0.0, "name": "5e132a7303c8a16dbf9e8b43aef63a0d", "is_disabled": 0, "rental_uris": {"android": "https://dc.lft.to/lastmile_qr_scan", "ios": "https://dc.lft.to/lastmile_qr_scan"}, "fusion_lon": 0.0, "lat": 38.9013485, "bike_id": "5e132a7303c8a16dbf9e8b43aef63a0d", "type": "electric_scooter", "is_reserved": 0, "lon": -77.0233275}, {"fusion_lat": 0.0, "name": "662073b1064a47797ac7d53ce12284af", "is_disabled": 0, "rental_uris": {"android": "https://dc.lft.to/lastmile_qr_scan", "ios": "https://dc.lft.to/lastmile_qr_scan"}, "fusion_lon": 0.0, "lat": 38.87498633333333, "bike_id": "662073b1064a47797ac7d53ce12284af", "type": "electric_scooter", "is_reserved": 0, "lon": -77.00069133333334}, {"fusion_lat": 0.0, "name": "10b8ebbdf325dc01db14bf0eb3f02fc2", "is_disabled": 0, "rental_uris": {"android": "https://dc.lft.to/lastmile_qr_scan", "ios": "https://dc.lft.to/lastmile_qr_scan"}, "fusion_lon": 0.0, "lat": 38.9065665, "bike_id": "10b8ebbdf325dc01db14bf0eb3f02fc2", "type": "electric_scooter", "is_reserved": 0, "lon": -77.03432766666667}, {"fusion_lat": 0.0, "name": "33eee33f97b49386f3080efef454e53b", "is_disabled": 0, "rental_uris": {"android": "https://dc.lft.to/lastmile_qr_scan", "ios": "https://dc.lft.to/lastmile_qr_scan"}, "fusion_lon": 0.0, "lat": 38.88732316666667, "bike_id": "33eee33f97b49386f3080efef454e53b", "type": "electric_scooter", "is_reserved": 0, "lon": -77.01512416666667}, {"fusion_lat": 0.0, "name": "439875f9480d349e09907de8c62ea62a", "is_disabled": 0, "rental_uris": {"android": "https://dc.lft.to/lastmile_qr_scan", "ios": "https://dc.lft.to/lastmile_qr_scan"}, "fusion_lon": 0.0, "lat": 38.916495, "bike_id": "439875f9480d349e09907de8c62ea62a", "type": "electric_scooter", "is_reserved": 0, "lon": -77.009538}, {"fusion_lat": 0.0, "name": "39ff1da9a07c5d154d76d76f42dd9958", "is_disabled": 0, "rental_uris": {"android": "https://dc.lft.to/lastmile_qr_scan", "ios": "https://dc.lft.to/lastmile_qr_scan"}, "fusion_lon": 0.0, "lat": 38.9140305, "bike_id": "39ff1da9a07c5d154d76d76f42dd9958", "type": "electric_scooter", "is_reserved": 0, "lon": -77.02204283333333}, {"fusion_lat": 0.0, "name": "d39f9f3b43fa9d8dc3fc4690bf060271", "is_disabled": 0, "rental_uris": {"android": "https://dc.lft.to/lastmile_qr_scan", "ios": "https://dc.lft.to/lastmile_qr_scan"}, "fusion_lon": 0.0, "lat": 38.923452, "bike_id": "d39f9f3b43fa9d8dc3fc4690bf060271", "type": "electric_scooter", "is_reserved": 0, "lon": -77.05173966666666}, {"fusion_lat": 0.0, "name": "7e7ee83907823f6877d673f328805c24", "is_disabled": 0, "rental_uris": {"android": "https://dc.lft.to/lastmile_qr_scan", "ios": "https://dc.lft.to/lastmile_qr_scan"}, "fusion_lon": 0.0, "lat": 38.90760433333333, "bike_id": "7e7ee83907823f6877d673f328805c24", "type": "electric_scooter", "is_reserved": 0, "lon": -77.03855233333333}, {"fusion_lat": 0.0, "name": "513044eb5d539fc2da72a42bc7584d3f", "is_disabled": 0, "rental_uris": {"android": "https://dc.lft.to/lastmile_qr_scan", "ios": "https://dc.lft.to/lastmile_qr_scan"}, "fusion_lon": 0.0, "lat": 38.876638666666665, "bike_id": "513044eb5d539fc2da72a42bc7584d3f", "type": "electric_scooter", "is_reserved": 0, "lon": -77.003266}, {"fusion_lat": 0.0, "name": "cb620ec002c06a863e9204f5a5a02bac", "is_disabled": 0, "rental_uris": {"android": "https://dc.lft.to/lastmile_qr_scan", "ios": "https://dc.lft.to/lastmile_qr_scan"}, "fusion_lon": 0.0, "lat": 38.89224466666667, "bike_id": "cb620ec002c06a863e9204f5a5a02bac", "type": "electric_scooter", "is_reserved": 0, "lon": -77.04332716666667}, {"fusion_lat": 0.0, "name": "8506681fd895ba43183cd46f5f72c64f", "is_disabled": 0, "rental_uris": {"android": "https://dc.lft.to/lastmile_qr_scan", "ios": "https://dc.lft.to/lastmile_qr_scan"}, "fusion_lon": 0.0, "lat": 38.83581083333333, "bike_id": "8506681fd895ba43183cd46f5f72c64f", "type": "electric_bike", "is_reserved": 0, "lon": -76.99012933333333}, {"fusion_lat": 0.0, "name": "88e59a170a16d0109bdde6fdf3d1497f", "is_disabled": 0, "rental_uris": {"android": "https://dc.lft.to/lastmile_qr_scan", "ios": "https://dc.lft.to/lastmile_qr_scan"}, "fusion_lon": 0.0, "lat": 38.939778, "bike_id": "88e59a170a16d0109bdde6fdf3d1497f", "type": "electric_scooter", "is_reserved": 0, "lon": -77.0191785}, {"fusion_lat": 0.0, "name": "be61bbf195811874fb6f14816cf4d650", "is_disabled": 0, "rental_uris": {"android": "https://dc.lft.to/lastmile_qr_scan", "ios": "https://dc.lft.to/lastmile_qr_scan"}, "fusion_lon": 0.0, "lat": 38.89895116666667, "bike_id": "be61bbf195811874fb6f14816cf4d650", "type": "electric_scooter", "is_reserved": 0, "lon": -76.98497683333333}, {"fusion_lat": 0.0, "name": "2fcf133c25f56d4be6d2683062724c1c", "is_disabled": 0, "rental_uris": {"android": "https://dc.lft.to/lastmile_qr_scan", "ios": "https://dc.lft.to/lastmile_qr_scan"}, "fusion_lon": 0.0, "lat": 38.92330033333333, "bike_id": "2fcf133c25f56d4be6d2683062724c1c", "type": "electric_scooter", "is_reserved": 0, "lon": -77.03640633333333}, {"fusion_lat": 0.0, "name": "19d79976fd4b18e24c6580497e66a16b", "is_disabled": 0, "rental_uris": {"android": "https://dc.lft.to/lastmile_qr_scan", "ios": "https://dc.lft.to/lastmile_qr_scan"}, "fusion_lon": 0.0, "lat": 38.90051233333333, "bike_id": "19d79976fd4b18e24c6580497e66a16b", "type": "electric_scooter", "is_reserved": 0, "lon": -77.0116485}, {"fusion_lat": 0.0, "name": "6bec03233c88597c6303f83cc844d3d6", "is_disabled": 0, "rental_uris": {"android": "https://dc.lft.to/lastmile_qr_scan", "ios": "https://dc.lft.to/lastmile_qr_scan"}, "fusion_lon": 0.0, "lat": 39.0047705, "bike_id": "6bec03233c88597c6303f83cc844d3d6", "type": "electric_bike", "is_reserved": 0, "lon": -77.021856}, {"fusion_lat": 0.0, "name": "ebfe2995b71f7fb57f8fd0e5956bf38e", "is_disabled": 0, "rental_uris": {"android": "https://dc.lft.to/lastmile_qr_scan", "ios": "https://dc.lft.to/lastmile_qr_scan"}, "fusion_lon": 0.0, "lat": 38.88735716666667, "bike_id": "ebfe2995b71f7fb57f8fd0e5956bf38e", "type": "electric_scooter", "is_reserved": 0, "lon": -77.0034775}, {"fusion_lat": 0.0, "name": "25c53a8477cb4a5d442e0d14d30ad3f3", "is_disabled": 0, "rental_uris": {"android": "https://dc.lft.to/lastmile_qr_scan", "ios": "https://dc.lft.to/lastmile_qr_scan"}, "fusion_lon": 0.0, "lat": 38.905484666666666, "bike_id": "25c53a8477cb4a5d442e0d14d30ad3f3", "type": "electric_scooter", "is_reserved": 0, "lon": -77.06291416666667}, {"fusion_lat": 0.0, "name": "ab7027719ae3b2ff6e75fdb610cb6337", "is_disabled": 0, "rental_uris": {"android": "https://dc.lft.to/lastmile_qr_scan", "ios": "https://dc.lft.to/lastmile_qr_scan"}, "fusion_lon": 0.0, "lat": 38.934632666666666, "bike_id": "ab7027719ae3b2ff6e75fdb610cb6337", "type": "electric_scooter", "is_reserved": 0, "lon": -77.041173}, {"fusion_lat": 0.0, "name": "c9e9040303c69ca9fe5f00aaa009f0fa", "is_disabled": 0, "rental_uris": {"android": "https://dc.lft.to/lastmile_qr_scan", "ios": "https://dc.lft.to/lastmile_qr_scan"}, "fusion_lon": 0.0, "lat": 38.900140666666665, "bike_id": "c9e9040303c69ca9fe5f00aaa009f0fa", "type": "electric_scooter", "is_reserved": 0, "lon": -77.01211033333334}, {"fusion_lat": 0.0, "name": "fbfc8cd5fc59efe88572aab8b9e61d43", "is_disabled": 0, "rental_uris": {"android": "https://dc.lft.to/lastmile_qr_scan", "ios": "https://dc.lft.to/lastmile_qr_scan"}, "fusion_lon": 0.0, "lat": 38.903095666666665, "bike_id": "fbfc8cd5fc59efe88572aab8b9e61d43", "type": "electric_scooter", "is_reserved": 0, "lon": -77.011895}, {"fusion_lat": 0.0, "name": "1c1b6d379ed665458746d243d550bc69", "is_disabled": 0, "rental_uris": {"android": "https://dc.lft.to/lastmile_qr_scan", "ios": "https://dc.lft.to/lastmile_qr_scan"}, "fusion_lon": 0.0, "lat": 38.93773916666667, "bike_id": "1c1b6d379ed665458746d243d550bc69", "type": "electric_bike", "is_reserved": 0, "lon": -77.01875316666667}, {"fusion_lat": 0.0, "name": "f08fbb3ffd83dcfee2b3cf1741bd3880", "is_disabled": 0, "rental_uris": {"android": "https://dc.lft.to/lastmile_qr_scan", "ios": "https://dc.lft.to/lastmile_qr_scan"}, "fusion_lon": 0.0, "lat": 38.90714233333333, "bike_id": "f08fbb3ffd83dcfee2b3cf1741bd3880", "type": "electric_scooter", "is_reserved": 0, "lon": -77.0481735}, {"fusion_lat": 0.0, "name": "7b7c9abd9b0d45e0b07ed607d733b9a6", "is_disabled": 0, "rental_uris": {"android": "https://dc.lft.to/lastmile_qr_scan", "ios": "https://dc.lft.to/lastmile_qr_scan"}, "fusion_lon": 0.0, "lat": 38.885462833333335, "bike_id": "7b7c9abd9b0d45e0b07ed607d733b9a6", "type": "electric_scooter", "is_reserved": 0, "lon": -77.0199855}, {"fusion_lat": 0.0, "name": "5cbcd325128a7f8c6075f87a1f98296b", "is_disabled": 0, "rental_uris": {"android": "https://dc.lft.to/lastmile_qr_scan", "ios": "https://dc.lft.to/lastmile_qr_scan"}, "fusion_lon": 0.0, "lat": 38.884568333333334, "bike_id": "5cbcd325128a7f8c6075f87a1f98296b", "type": "electric_scooter", "is_reserved": 0, "lon": -76.92622916666667}, {"fusion_lat": 0.0, "name": "7a88b618542df1916bdc3e7241aed8fa", "is_disabled": 0, "rental_uris": {"android": "https://dc.lft.to/lastmile_qr_scan", "ios": "https://dc.lft.to/lastmile_qr_scan"}, "fusion_lon": 0.0, "lat": 38.896055833333335, "bike_id": "7a88b618542df1916bdc3e7241aed8fa", "type": "electric_scooter", "is_reserved": 0, "lon": -76.98108183333333}, {"fusion_lat": 0.0, "name": "835c0ffce91890aba946cd880c8f3923", "is_disabled": 0, "rental_uris": {"android": "https://dc.lft.to/lastmile_qr_scan", "ios": "https://dc.lft.to/lastmile_qr_scan"}, "fusion_lon": 0.0, "lat": 38.89784383333333, "bike_id": "835c0ffce91890aba946cd880c8f3923", "type": "electric_scooter", "is_reserved": 0, "lon": -77.02403966666667}, {"fusion_lat": 0.0, "name": "dd2c4f8d05c0c8ce2d30f4edbec42ab3", "is_disabled": 0, "rental_uris": {"android": "https://dc.lft.to/lastmile_qr_scan", "ios": "https://dc.lft.to/lastmile_qr_scan"}, "fusion_lon": 0.0, "lat": 38.9066605, "bike_id": "dd2c4f8d05c0c8ce2d30f4edbec42ab3", "type": "electric_scooter", "is_reserved": 0, "lon": -77.01064166666667}, {"fusion_lat": 0.0, "name": "de75d1bc312bbfbf4b0bb09c3152f8ad", "is_disabled": 0, "rental_uris": {"android": "https://dc.lft.to/lastmile_qr_scan", "ios": "https://dc.lft.to/lastmile_qr_scan"}, "fusion_lon": 0.0, "lat": 38.9419925, "bike_id": "de75d1bc312bbfbf4b0bb09c3152f8ad", "type": "electric_scooter", "is_reserved": 0, "lon": -77.02567616666667}, {"fusion_lat": 0.0, "name": "923e293f07c89216bc082924a0d2d436", "is_disabled": 0, "rental_uris": {"android": "https://dc.lft.to/lastmile_qr_scan", "ios": "https://dc.lft.to/lastmile_qr_scan"}, "fusion_lon": 0.0, "lat": 38.90973, "bike_id": "923e293f07c89216bc082924a0d2d436", "type": "electric_scooter", "is_reserved": 0, "lon": -77.04825483333333}, {"fusion_lat": 0.0, "name": "3c0cba17a4586409038e45201c595fad", "is_disabled": 0, "rental_uris": {"android": "https://dc.lft.to/lastmile_qr_scan", "ios": "https://dc.lft.to/lastmile_qr_scan"}, "fusion_lon": 0.0, "lat": 38.917103, "bike_id": "3c0cba17a4586409038e45201c595fad", "type": "electric_scooter", "is_reserved": 0, "lon": -77.03472716666667}, {"fusion_lat": 0.0, "name": "63c5fcd7bd2020c5f3872d8b3b922d56", "is_disabled": 0, "rental_uris": {"android": "https://dc.lft.to/lastmile_qr_scan", "ios": "https://dc.lft.to/lastmile_qr_scan"}, "fusion_lon": 0.0, "lat": 38.89865983333333, "bike_id": "63c5fcd7bd2020c5f3872d8b3b922d56", "type": "electric_scooter", "is_reserved": 0, "lon": -77.02201883333333}, {"fusion_lat": 0.0, "name": "d3d7ddf46cf4251cd77d7cb8760a201f", "is_disabled": 0, "rental_uris": {"android": "https://dc.lft.to/lastmile_qr_scan", "ios": "https://dc.lft.to/lastmile_qr_scan"}, "fusion_lon": 0.0, "lat": 38.90568733333333, "bike_id": "d3d7ddf46cf4251cd77d7cb8760a201f", "type": "electric_scooter", "is_reserved": 0, "lon": -77.03071716666666}, {"fusion_lat": 0.0, "name": "2c6d32baadfc345142f2c1479f1b0814", "is_disabled": 0, "rental_uris": {"android": "https://dc.lft.to/lastmile_qr_scan", "ios": "https://dc.lft.to/lastmile_qr_scan"}, "fusion_lon": 0.0, "lat": 38.905397666666666, "bike_id": "2c6d32baadfc345142f2c1479f1b0814", "type": "electric_scooter", "is_reserved": 0, "lon": -77.05905983333334}, {"fusion_lat": 0.0, "name": "dc21674a00b843df3f69c0e9665c3b12", "is_disabled": 0, "rental_uris": {"android": "https://dc.lft.to/lastmile_qr_scan", "ios": "https://dc.lft.to/lastmile_qr_scan"}, "fusion_lon": 0.0, "lat": 38.92342766666667, "bike_id": "dc21674a00b843df3f69c0e9665c3b12", "type": "electric_scooter", "is_reserved": 0, "lon": -77.0517845}, {"fusion_lat": 0.0, "name": "e21234fbfca989540d87aab9c4169f65", "is_disabled": 0, "rental_uris": {"android": "https://dc.lft.to/lastmile_qr_scan", "ios": "https://dc.lft.to/lastmile_qr_scan"}, "fusion_lon": 0.0, "lat": 38.896401833333336, "bike_id": "e21234fbfca989540d87aab9c4169f65", "type": "electric_scooter", "is_reserved": 0, "lon": -77.00933216666667}, {"fusion_lat": 0.0, "name": "f7c19f285c0e7451b991af43d1120339", "is_disabled": 0, "rental_uris": {"android": "https://dc.lft.to/lastmile_qr_scan", "ios": "https://dc.lft.to/lastmile_qr_scan"}, "fusion_lon": 0.0, "lat": 38.932221166666665, "bike_id": "f7c19f285c0e7451b991af43d1120339", "type": "electric_scooter", "is_reserved": 0, "lon": -76.9949035}, {"fusion_lat": 0.0, "name": "e287ad05bd355d6ab04eea4a210bbfd8", "is_disabled": 0, "rental_uris": {"android": "https://dc.lft.to/lastmile_qr_scan", "ios": "https://dc.lft.to/lastmile_qr_scan"}, "fusion_lon": 0.0, "lat": 38.898869166666664, "bike_id": "e287ad05bd355d6ab04eea4a210bbfd8", "type": "electric_scooter", "is_reserved": 0, "lon": -77.03956216666667}, {"fusion_lat": 0.0, "name": "3bca595bb59d0717fd94b2f41e547220", "is_disabled": 0, "rental_uris": {"android": "https://dc.lft.to/lastmile_qr_scan", "ios": "https://dc.lft.to/lastmile_qr_scan"}, "fusion_lon": 0.0, "lat": 38.916483166666666, "bike_id": "3bca595bb59d0717fd94b2f41e547220", "type": "electric_scooter", "is_reserved": 0, "lon": -77.0217785}, {"fusion_lat": 0.0, "name": "0f3e9528b509cc2499266f07a5fb625c", "is_disabled": 0, "rental_uris": {"android": "https://dc.lft.to/lastmile_qr_scan", "ios": "https://dc.lft.to/lastmile_qr_scan"}, "fusion_lon": 0.0, "lat": 38.877392666666665, "bike_id": "0f3e9528b509cc2499266f07a5fb625c", "type": "electric_scooter", "is_reserved": 0, "lon": -76.970357}, {"fusion_lat": 0.0, "name": "4d9c0a51e973f8c1cfe899d2884b4e58", "is_disabled": 0, "rental_uris": {"android": "https://dc.lft.to/lastmile_qr_scan", "ios": "https://dc.lft.to/lastmile_qr_scan"}, "fusion_lon": 0.0, "lat": 38.99226183333333, "bike_id": "4d9c0a51e973f8c1cfe899d2884b4e58", "type": "electric_bike", "is_reserved": 0, "lon": -76.94415116666667}, {"fusion_lat": 0.0, "name": "b744ca868d7406a329d7470a5ebd5ace", "is_disabled": 0, "rental_uris": {"android": "https://dc.lft.to/lastmile_qr_scan", "ios": "https://dc.lft.to/lastmile_qr_scan"}, "fusion_lon": 0.0, "lat": 38.929795166666665, "bike_id": "b744ca868d7406a329d7470a5ebd5ace", "type": "electric_scooter", "is_reserved": 0, "lon": -77.03658733333333}, {"fusion_lat": 0.0, "name": "2de70ecefa48737aa336190c0618719d", "is_disabled": 0, "rental_uris": {"android": "https://dc.lft.to/lastmile_qr_scan", "ios": "https://dc.lft.to/lastmile_qr_scan"}, "fusion_lon": 0.0, "lat": 38.92071283333333, "bike_id": "2de70ecefa48737aa336190c0618719d", "type": "electric_scooter", "is_reserved": 0, "lon": -77.0241415}, {"fusion_lat": 0.0, "name": "2bf63ae452092926e3140bacd7c38735", "is_disabled": 0, "rental_uris": {"android": "https://dc.lft.to/lastmile_qr_scan", "ios": "https://dc.lft.to/lastmile_qr_scan"}, "fusion_lon": 0.0, "lat": 38.903441, "bike_id": "2bf63ae452092926e3140bacd7c38735", "type": "electric_scooter", "is_reserved": 0, "lon": -77.03643533333333}, {"fusion_lat": 0.0, "name": "26c7fe04dc6447643362c4fb9157a433", "is_disabled": 0, "rental_uris": {"android": "https://dc.lft.to/lastmile_qr_scan", "ios": "https://dc.lft.to/lastmile_qr_scan"}, "fusion_lon": 0.0, "lat": 38.90394033333333, "bike_id": "26c7fe04dc6447643362c4fb9157a433", "type": "electric_scooter", "is_reserved": 0, "lon": -77.0488425}, {"fusion_lat": 0.0, "name": "fd18d9184def051adbdd445783e5dba4", "is_disabled": 0, "rental_uris": {"android": "https://dc.lft.to/lastmile_qr_scan", "ios": "https://dc.lft.to/lastmile_qr_scan"}, "fusion_lon": 0.0, "lat": 38.91812566666667, "bike_id": "fd18d9184def051adbdd445783e5dba4", "type": "electric_scooter", "is_reserved": 0, "lon": -77.02471633333333}, {"fusion_lat": 0.0, "name": "5b8b8405eb03bca14c0b37a9c7960fec", "is_disabled": 0, "rental_uris": {"android": "https://dc.lft.to/lastmile_qr_scan", "ios": "https://dc.lft.to/lastmile_qr_scan"}, "fusion_lon": 0.0, "lat": 38.914182333333336, "bike_id": "5b8b8405eb03bca14c0b37a9c7960fec", "type": "electric_scooter", "is_reserved": 0, "lon": -77.03172766666667}, {"fusion_lat": 0.0, "name": "a1aeb2e738e354d4e3803508bf5d016a", "is_disabled": 0, "rental_uris": {"android": "https://dc.lft.to/lastmile_qr_scan", "ios": "https://dc.lft.to/lastmile_qr_scan"}, "fusion_lon": 0.0, "lat": 38.92602266666667, "bike_id": "a1aeb2e738e354d4e3803508bf5d016a", "type": "electric_bike", "is_reserved": 0, "lon": -77.064288}, {"fusion_lat": 0.0, "name": "9fa43a1e24ca350b6cddda89fbcca40e", "is_disabled": 0, "rental_uris": {"android": "https://dc.lft.to/lastmile_qr_scan", "ios": "https://dc.lft.to/lastmile_qr_scan"}, "fusion_lon": 0.0, "lat": 38.914033833333335, "bike_id": "9fa43a1e24ca350b6cddda89fbcca40e", "type": "electric_scooter", "is_reserved": 0, "lon": -77.02203816666666}, {"fusion_lat": 0.0, "name": "14187d6e683d63e944a87c00cda808c8", "is_disabled": 0, "rental_uris": {"android": "https://dc.lft.to/lastmile_qr_scan", "ios": "https://dc.lft.to/lastmile_qr_scan"}, "fusion_lon": 0.0, "lat": 38.92131033333333, "bike_id": "14187d6e683d63e944a87c00cda808c8", "type": "electric_scooter", "is_reserved": 0, "lon": -77.0040545}, {"fusion_lat": 0.0, "name": "2b1dce3287a82140c910aedb898704f5", "is_disabled": 0, "rental_uris": {"android": "https://dc.lft.to/lastmile_qr_scan", "ios": "https://dc.lft.to/lastmile_qr_scan"}, "fusion_lon": 0.0, "lat": 38.9193765, "bike_id": "2b1dce3287a82140c910aedb898704f5", "type": "electric_scooter", "is_reserved": 0, "lon": -77.041734}, {"fusion_lat": 0.0, "name": "a5ddfd7ad5df34aefffb5f2d11e2e7cc", "is_disabled": 0, "rental_uris": {"android": "https://dc.lft.to/lastmile_qr_scan", "ios": "https://dc.lft.to/lastmile_qr_scan"}, "fusion_lon": 0.0, "lat": 38.90383116666667, "bike_id": "a5ddfd7ad5df34aefffb5f2d11e2e7cc", "type": "electric_scooter", "is_reserved": 0, "lon": -77.017735}, {"fusion_lat": 0.0, "name": "d36695411e1e8b8c167f4aa929f06b44", "is_disabled": 0, "rental_uris": {"android": "https://dc.lft.to/lastmile_qr_scan", "ios": "https://dc.lft.to/lastmile_qr_scan"}, "fusion_lon": 0.0, "lat": 38.90191433333333, "bike_id": "d36695411e1e8b8c167f4aa929f06b44", "type": "electric_scooter", "is_reserved": 0, "lon": -77.05057716666667}, {"fusion_lat": 0.0, "name": "2874d82350f7cb53518a36117cba169a", "is_disabled": 0, "rental_uris": {"android": "https://dc.lft.to/lastmile_qr_scan", "ios": "https://dc.lft.to/lastmile_qr_scan"}, "fusion_lon": 0.0, "lat": 38.921316166666664, "bike_id": "2874d82350f7cb53518a36117cba169a", "type": "electric_scooter", "is_reserved": 0, "lon": -77.00399}, {"fusion_lat": 0.0, "name": "10ffe80f5704749e077300153344e13b", "is_disabled": 0, "rental_uris": {"android": "https://dc.lft.to/lastmile_qr_scan", "ios": "https://dc.lft.to/lastmile_qr_scan"}, "fusion_lon": 0.0, "lat": 38.83808916666667, "bike_id": "10ffe80f5704749e077300153344e13b", "type": "electric_bike", "is_reserved": 0, "lon": -77.09523766666666}, {"fusion_lat": 0.0, "name": "8ed4843e7875185ea9c2afb8fbddca8e", "is_disabled": 0, "rental_uris": {"android": "https://dc.lft.to/lastmile_qr_scan", "ios": "https://dc.lft.to/lastmile_qr_scan"}, "fusion_lon": 0.0, "lat": 38.93964, "bike_id": "8ed4843e7875185ea9c2afb8fbddca8e", "type": "electric_scooter", "is_reserved": 0, "lon": -77.02748733333334}, {"fusion_lat": 0.0, "name": "499ac4d27da4b5069fb2dcad11e606e4", "is_disabled": 0, "rental_uris": {"android": "https://dc.lft.to/lastmile_qr_scan", "ios": "https://dc.lft.to/lastmile_qr_scan"}, "fusion_lon": 0.0, "lat": 38.87483016666667, "bike_id": "499ac4d27da4b5069fb2dcad11e606e4", "type": "electric_scooter", "is_reserved": 0, "lon": -77.006088}, {"fusion_lat": 0.0, "name": "6c217540197429e0a36788e9121858b7", "is_disabled": 0, "rental_uris": {"android": "https://dc.lft.to/lastmile_qr_scan", "ios": "https://dc.lft.to/lastmile_qr_scan"}, "fusion_lon": 0.0, "lat": 38.933071, "bike_id": "6c217540197429e0a36788e9121858b7", "type": "electric_scooter", "is_reserved": 0, "lon": -77.030743}, {"fusion_lat": 0.0, "name": "b2ded4d2fca935f51439b941e1ac11c2", "is_disabled": 0, "rental_uris": {"android": "https://dc.lft.to/lastmile_qr_scan", "ios": "https://dc.lft.to/lastmile_qr_scan"}, "fusion_lon": 0.0, "lat": 38.911133166666666, "bike_id": "b2ded4d2fca935f51439b941e1ac11c2", "type": "electric_scooter", "is_reserved": 0, "lon": -77.03827783333334}, {"fusion_lat": 0.0, "name": "20c66a372d2a42e25df14c57544cc232", "is_disabled": 0, "rental_uris": {"android": "https://dc.lft.to/lastmile_qr_scan", "ios": "https://dc.lft.to/lastmile_qr_scan"}, "fusion_lon": 0.0, "lat": 38.978812, "bike_id": "20c66a372d2a42e25df14c57544cc232", "type": "electric_bike", "is_reserved": 0, "lon": -77.060283}, {"fusion_lat": 0.0, "name": "c5e22a866bbc03b439f42e9cfb919c5b", "is_disabled": 0, "rental_uris": {"android": "https://dc.lft.to/lastmile_qr_scan", "ios": "https://dc.lft.to/lastmile_qr_scan"}, "fusion_lon": 0.0, "lat": 38.9236085, "bike_id": "c5e22a866bbc03b439f42e9cfb919c5b", "type": "electric_scooter", "is_reserved": 0, "lon": -77.05254783333334}, {"fusion_lat": 0.0, "name": "40ef644e36934035617131443cec5568", "is_disabled": 0, "rental_uris": {"android": "https://dc.lft.to/lastmile_qr_scan", "ios": "https://dc.lft.to/lastmile_qr_scan"}, "fusion_lon": 0.0, "lat": 38.92409933333333, "bike_id": "40ef644e36934035617131443cec5568", "type": "electric_scooter", "is_reserved": 0, "lon": -77.04466316666667}, {"fusion_lat": 0.0, "name": "dd7e389359c255cab9988f7f68a203f1", "is_disabled": 0, "rental_uris": {"android": "https://dc.lft.to/lastmile_qr_scan", "ios": "https://dc.lft.to/lastmile_qr_scan"}, "fusion_lon": 0.0, "lat": 38.90643383333333, "bike_id": "dd7e389359c255cab9988f7f68a203f1", "type": "electric_scooter", "is_reserved": 0, "lon": -77.06300066666667}, {"fusion_lat": 0.0, "name": "d3342b76d58f7cfb5b04900ce2d285a1", "is_disabled": 0, "rental_uris": {"android": "https://dc.lft.to/lastmile_qr_scan", "ios": "https://dc.lft.to/lastmile_qr_scan"}, "fusion_lon": 0.0, "lat": 38.9183965, "bike_id": "d3342b76d58f7cfb5b04900ce2d285a1", "type": "electric_scooter", "is_reserved": 0, "lon": -77.0245215}, {"fusion_lat": 0.0, "name": "c2f7fe177cfe6e866a7e79c23b461abb", "is_disabled": 0, "rental_uris": {"android": "https://dc.lft.to/lastmile_qr_scan", "ios": "https://dc.lft.to/lastmile_qr_scan"}, "fusion_lon": 0.0, "lat": 38.9214825, "bike_id": "c2f7fe177cfe6e866a7e79c23b461abb", "type": "electric_scooter", "is_reserved": 0, "lon": -77.04365416666667}, {"fusion_lat": 0.0, "name": "4f281f7bec78199b339a03eb4aae807a", "is_disabled": 0, "rental_uris": {"android": "https://dc.lft.to/lastmile_qr_scan", "ios": "https://dc.lft.to/lastmile_qr_scan"}, "fusion_lon": 0.0, "lat": 38.8744975, "bike_id": "4f281f7bec78199b339a03eb4aae807a", "type": "electric_scooter", "is_reserved": 0, "lon": -77.009189}, {"fusion_lat": 0.0, "name": "cb4576db35cc0b3e0d0c27faa1aa0cca", "is_disabled": 0, "rental_uris": {"android": "https://dc.lft.to/lastmile_qr_scan", "ios": "https://dc.lft.to/lastmile_qr_scan"}, "fusion_lon": 0.0, "lat": 38.898177, "bike_id": "cb4576db35cc0b3e0d0c27faa1aa0cca", "type": "electric_scooter", "is_reserved": 0, "lon": -77.02501066666666}, {"fusion_lat": 0.0, "name": "37072ba7d30270a1427cf02b441c64e0", "is_disabled": 0, "rental_uris": {"android": "https://dc.lft.to/lastmile_qr_scan", "ios": "https://dc.lft.to/lastmile_qr_scan"}, "fusion_lon": 0.0, "lat": 38.924235333333336, "bike_id": "37072ba7d30270a1427cf02b441c64e0", "type": "electric_scooter", "is_reserved": 0, "lon": -76.9971145}, {"fusion_lat": 0.0, "name": "36da598bcd511af8e7ca65d43cc5da46", "is_disabled": 0, "rental_uris": {"android": "https://dc.lft.to/lastmile_qr_scan", "ios": "https://dc.lft.to/lastmile_qr_scan"}, "fusion_lon": 0.0, "lat": 38.9078045, "bike_id": "36da598bcd511af8e7ca65d43cc5da46", "type": "electric_scooter", "is_reserved": 0, "lon": -77.01111416666667}, {"fusion_lat": 0.0, "name": "8aba1a56a07e1b0466433a2eb83faf17", "is_disabled": 0, "rental_uris": {"android": "https://dc.lft.to/lastmile_qr_scan", "ios": "https://dc.lft.to/lastmile_qr_scan"}, "fusion_lon": 0.0, "lat": 38.924791666666664, "bike_id": "8aba1a56a07e1b0466433a2eb83faf17", "type": "electric_scooter", "is_reserved": 0, "lon": -77.03758816666667}, {"fusion_lat": 0.0, "name": "226c2f354c5ce1f533e64a911129b4e9", "is_disabled": 0, "rental_uris": {"android": "https://dc.lft.to/lastmile_qr_scan", "ios": "https://dc.lft.to/lastmile_qr_scan"}, "fusion_lon": 0.0, "lat": 38.90249516666667, "bike_id": "226c2f354c5ce1f533e64a911129b4e9", "type": "electric_scooter", "is_reserved": 0, "lon": -77.0259195}, {"fusion_lat": 0.0, "name": "1dfddd3f655d98b99a30dde287468c14", "is_disabled": 0, "rental_uris": {"android": "https://dc.lft.to/lastmile_qr_scan", "ios": "https://dc.lft.to/lastmile_qr_scan"}, "fusion_lon": 0.0, "lat": 38.96593416666666, "bike_id": "1dfddd3f655d98b99a30dde287468c14", "type": "electric_scooter", "is_reserved": 0, "lon": -77.01593833333334}, {"fusion_lat": 0.0, "name": "8eb097a0f9c166735f1dd6c8512567c6", "is_disabled": 0, "rental_uris": {"android": "https://dc.lft.to/lastmile_qr_scan", "ios": "https://dc.lft.to/lastmile_qr_scan"}, "fusion_lon": 0.0, "lat": 38.86392816666667, "bike_id": "8eb097a0f9c166735f1dd6c8512567c6", "type": "electric_bike", "is_reserved": 0, "lon": -77.201099}, {"fusion_lat": 0.0, "name": "f6474d87fbb1d36a7f29e43cc07dbcbe", "is_disabled": 0, "rental_uris": {"android": "https://dc.lft.to/lastmile_qr_scan", "ios": "https://dc.lft.to/lastmile_qr_scan"}, "fusion_lon": 0.0, "lat": 38.93380066666667, "bike_id": "f6474d87fbb1d36a7f29e43cc07dbcbe", "type": "electric_scooter", "is_reserved": 0, "lon": -77.03892816666666}, {"fusion_lat": 0.0, "name": "194a272b08a631c74736f3ed6ee84206", "is_disabled": 0, "rental_uris": {"android": "https://dc.lft.to/lastmile_qr_scan", "ios": "https://dc.lft.to/lastmile_qr_scan"}, "fusion_lon": 0.0, "lat": 38.9262895, "bike_id": "194a272b08a631c74736f3ed6ee84206", "type": "electric_scooter", "is_reserved": 0, "lon": -77.035059}, {"fusion_lat": 0.0, "name": "f0a880a374c99802e8d9ab009464d0b7", "is_disabled": 0, "rental_uris": {"android": "https://dc.lft.to/lastmile_qr_scan", "ios": "https://dc.lft.to/lastmile_qr_scan"}, "fusion_lon": 0.0, "lat": 38.910074, "bike_id": "f0a880a374c99802e8d9ab009464d0b7", "type": "electric_scooter", "is_reserved": 0, "lon": -77.049129}, {"fusion_lat": 0.0, "name": "9334352a0f04c2438d579711a7d79984", "is_disabled": 0, "rental_uris": {"android": "https://dc.lft.to/lastmile_qr_scan", "ios": "https://dc.lft.to/lastmile_qr_scan"}, "fusion_lon": 0.0, "lat": 38.923138, "bike_id": "9334352a0f04c2438d579711a7d79984", "type": "electric_scooter", "is_reserved": 0, "lon": -77.03969566666666}, {"fusion_lat": 0.0, "name": "6717beee9d3f9dd816c9bbd126cdfe3d", "is_disabled": 0, "rental_uris": {"android": "https://dc.lft.to/lastmile_qr_scan", "ios": "https://dc.lft.to/lastmile_qr_scan"}, "fusion_lon": 0.0, "lat": 38.93597183333333, "bike_id": "6717beee9d3f9dd816c9bbd126cdfe3d", "type": "electric_scooter", "is_reserved": 0, "lon": -77.03641033333334}, {"fusion_lat": 0.0, "name": "8f0e1a3cb58096a8a90160e0f4efe001", "is_disabled": 0, "rental_uris": {"android": "https://dc.lft.to/lastmile_qr_scan", "ios": "https://dc.lft.to/lastmile_qr_scan"}, "fusion_lon": 0.0, "lat": 38.900561333333336, "bike_id": "8f0e1a3cb58096a8a90160e0f4efe001", "type": "electric_scooter", "is_reserved": 0, "lon": -77.0566345}, {"fusion_lat": 0.0, "name": "3063b41c0d269663b1f6849c49bb0787", "is_disabled": 0, "rental_uris": {"android": "https://dc.lft.to/lastmile_qr_scan", "ios": "https://dc.lft.to/lastmile_qr_scan"}, "fusion_lon": 0.0, "lat": 38.883453, "bike_id": "3063b41c0d269663b1f6849c49bb0787", "type": "electric_scooter", "is_reserved": 0, "lon": -77.0316515}, {"fusion_lat": 0.0, "name": "92215ef4eb01e82e4138e8f9c9a7e12e", "is_disabled": 0, "rental_uris": {"android": "https://dc.lft.to/lastmile_qr_scan", "ios": "https://dc.lft.to/lastmile_qr_scan"}, "fusion_lon": 0.0, "lat": 38.90555766666667, "bike_id": "92215ef4eb01e82e4138e8f9c9a7e12e", "type": "electric_scooter", "is_reserved": 0, "lon": -77.04656766666666}, {"fusion_lat": 0.0, "name": "d7a002ae96d21d85fe6814cb661a01ca", "is_disabled": 0, "rental_uris": {"android": "https://dc.lft.to/lastmile_qr_scan", "ios": "https://dc.lft.to/lastmile_qr_scan"}, "fusion_lon": 0.0, "lat": 38.92355516666667, "bike_id": "d7a002ae96d21d85fe6814cb661a01ca", "type": "electric_scooter", "is_reserved": 0, "lon": -77.03551333333333}, {"fusion_lat": 0.0, "name": "4e8d4d946dffc33bc756924c2d4c9d72", "is_disabled": 0, "rental_uris": {"android": "https://dc.lft.to/lastmile_qr_scan", "ios": "https://dc.lft.to/lastmile_qr_scan"}, "fusion_lon": 0.0, "lat": 38.904291666666666, "bike_id": "4e8d4d946dffc33bc756924c2d4c9d72", "type": "electric_scooter", "is_reserved": 0, "lon": -77.0581415}, {"fusion_lat": 0.0, "name": "ba97de8ad2d46535aee42d6f631c925d", "is_disabled": 0, "rental_uris": {"android": "https://dc.lft.to/lastmile_qr_scan", "ios": "https://dc.lft.to/lastmile_qr_scan"}, "fusion_lon": 0.0, "lat": 38.92234466666667, "bike_id": "ba97de8ad2d46535aee42d6f631c925d", "type": "electric_scooter", "is_reserved": 0, "lon": -77.018329}, {"fusion_lat": 0.0, "name": "8cd53ec00f98cf06434bf18b9b438f36", "is_disabled": 0, "rental_uris": {"android": "https://dc.lft.to/lastmile_qr_scan", "ios": "https://dc.lft.to/lastmile_qr_scan"}, "fusion_lon": 0.0, "lat": 38.91050766666667, "bike_id": "8cd53ec00f98cf06434bf18b9b438f36", "type": "electric_scooter", "is_reserved": 0, "lon": -77.03845666666666}, {"fusion_lat": 0.0, "name": "619b39031a9155ed7700fc17d8efb14c", "is_disabled": 0, "rental_uris": {"android": "https://dc.lft.to/lastmile_qr_scan", "ios": "https://dc.lft.to/lastmile_qr_scan"}, "fusion_lon": 0.0, "lat": 38.90680033333334, "bike_id": "619b39031a9155ed7700fc17d8efb14c", "type": "electric_scooter", "is_reserved": 0, "lon": -77.02695133333333}, {"fusion_lat": 0.0, "name": "e7661f2d77572d6eb2ee65567403ddef", "is_disabled": 0, "rental_uris": {"android": "https://dc.lft.to/lastmile_qr_scan", "ios": "https://dc.lft.to/lastmile_qr_scan"}, "fusion_lon": 0.0, "lat": 38.84757366666667, "bike_id": "e7661f2d77572d6eb2ee65567403ddef", "type": "electric_scooter", "is_reserved": 0, "lon": -76.9949765}, {"fusion_lat": 0.0, "name": "19dc7797018396142b23e53502c48a82", "is_disabled": 0, "rental_uris": {"android": "https://dc.lft.to/lastmile_qr_scan", "ios": "https://dc.lft.to/lastmile_qr_scan"},