{"data": {"bikes": [{"bike_id": "d7e318bd24900697443ef472c3ef8232", "fusion_lon": 0.0, "name": "d7e318bd24900697443ef472c3ef8232", "lat": 38.881527, "is_disabled": 0, "is_reserved": 0, "lon": -77.02736683333333, "type": "electric_scooter", "fusion_lat": 0.0, "rental_uris": {"android": "https://dc.lft.to/lastmile_qr_scan", "ios": "https://dc.lft.to/lastmile_qr_scan"}}, {"bike_id": "91846d2f43233454edac58688030a72c", "fusion_lon": 0.0, "name": "91846d2f43233454edac58688030a72c", "lat": 38.905982333333334, "is_disabled": 0, "is_reserved": 0, "lon": -77.0036005, "type": "electric_scooter", "fusion_lat": 0.0, "rental_uris": {"android": "https://dc.lft.to/lastmile_qr_scan", "ios": "https://dc.lft.to/lastmile_qr_scan"}}, {"bike_id": "6ef851bcea1c56d36d7f884acbed4829", "fusion_lon": 0.0, "name": "6ef851bcea1c56d36d7f884acbed4829", "lat": 38.910514, "is_disabled": 0, "is_reserved": 0, "lon": -77.07576033333333, "type": "electric_scooter", "fusion_lat": 0.0, "rental_uris": {"android": "https://dc.lft.to/lastmile_qr_scan", "ios": "https://dc.lft.to/lastmile_qr_scan"}}, {"bike_id": "7c1f46fcd9683df6fa01c0329c152317", "fusion_lon": 0.0, "name": "7c1f46fcd9683df6fa01c0329c152317", "lat": 38.916496333333335, "is_disabled": 0, "is_reserved": 0, "lon": -77.02268383333333, "type": "electric_scooter", "fusion_lat": 0.0, "rental_uris": {"android": "https://dc.lft.to/lastmile_qr_scan", "ios": "https://dc.lft.to/lastmile_qr_scan"}}, {"bike_id": "4db5c700eff0c1846a3ce32db69c5f9a", "fusion_lon": 0.0, "name": "4db5c700eff0c1846a3ce32db69c5f9a", "lat": 38.907767, "is_disabled": 0, "is_reserved": 0, "lon": -77.0715905, "type": "electric_scooter", "fusion_lat": 0.0, "rental_uris": {"android": "https://dc.lft.to/lastmile_qr_scan", "ios": "https://dc.lft.to/lastmile_qr_scan"}}, {"bike_id": "de95e24bd2653b869411e704ad380c0b", "fusion_lon": 0.0, "name": "de95e24bd2653b869411e704ad380c0b", "lat": 38.9186265, "is_disabled": 0, "is_reserved": 0, "lon": -77.0021185, "type": "electric_scooter", "fusion_lat": 0.0, "rental_uris": {"android": "https://dc.lft.to/lastmile_qr_scan", "ios": "https://dc.lft.to/lastmile_qr_scan"}}, {"bike_id": "c9fd2827ba2940904138dc3702e3e8a2", "fusion_lon": 0.0, "name": "c9fd2827ba2940904138dc3702e3e8a2", "lat": 38.92100533333333, "is_disabled": 0, "is_reserved": 0, "lon": -77.02520516666667, "type": "electric_scooter", "fusion_lat": 0.0, "rental_uris": {"android": "https://dc.lft.to/lastmile_qr_scan", "ios": "https://dc.lft.to/lastmile_qr_scan"}}, {"bike_id": "01ddf6ba424590731a546974a6fcad46", "fusion_lon": 0.0, "name": "01ddf6ba424590731a546974a6fcad46", "lat": 38.902419333333334, "is_disabled": 0, "is_reserved": 0, "lon": -77.037693, "type": "electric_scooter", "fusion_lat": 0.0, "rental_uris": {"android": "https://dc.lft.to/lastmile_qr_scan", "ios": "https://dc.lft.to/lastmile_qr_scan"}}, {"bike_id": "0bbe9bff475838739990e4098ad531cc", "fusion_lon": 0.0, "name": "0bbe9bff475838739990e4098ad531cc", "lat": 38.912723666666665, "is_disabled": 0, "is_reserved": 0, "lon": -77.01294283333333, "type": "electric_scooter", "fusion_lat": 0.0, "rental_uris": {"android": "https://dc.lft.to/lastmile_qr_scan", "ios": "https://dc.lft.to/lastmile_qr_scan"}}, {"bike_id": "5e7bd82a4517f39c32b1c110b4460cb4", "fusion_lon": 0.0, "name": "5e7bd82a4517f39c32b1c110b4460cb4", "lat": 38.88619933333333, "is_disabled": 0, "is_reserved": 0, "lon": -77.01247533333333, "type": "electric_scooter", "fusion_lat": 0.0, "rental_uris": {"android": "https://dc.lft.to/lastmile_qr_scan", "ios": "https://dc.lft.to/lastmile_qr_scan"}}, {"bike_id": "a7a3d40bc494c5f39ffcc7b8ed292f4e", "fusion_lon": 0.0, "name": "a7a3d40bc494c5f39ffcc7b8ed292f4e", "lat": 38.882979166666665, "is_disabled": 0, "is_reserved": 0, "lon": -77.01765716666667, "type": "electric_scooter", "fusion_lat": 0.0, "rental_uris": {"android": "https://dc.lft.to/lastmile_qr_scan", "ios": "https://dc.lft.to/lastmile_qr_scan"}}, {"bike_id": "f5fede26e856e20b42350ceb75578061", "fusion_lon": 0.0, "name": "f5fede26e856e20b42350ceb75578061", "lat": 38.90575183333333, "is_disabled": 0, "is_reserved": 0, "lon": -77.02651516666667, "type": "electric_scooter", "fusion_lat": 0.0, "rental_uris": {"android": "https://dc.lft.to/lastmile_qr_scan", "ios": "https://dc.lft.to/lastmile_qr_scan"}}, {"bike_id": "f00d03b69a98daae9f0d477aa251d7a2", "fusion_lon": 0.0, "name": "f00d03b69a98daae9f0d477aa251d7a2", "lat": 38.90578633333333, "is_disabled": 0, "is_reserved": 0, "lon": -77.04349616666667, "type": "electric_scooter", "fusion_lat": 0.0, "rental_uris": {"android": "https://dc.lft.to/lastmile_qr_scan", "ios": "https://dc.lft.to/lastmile_qr_scan"}}, {"bike_id": "4a4140ef4d4156dcfb9851b4c634613c", "fusion_lon": 0.0, "name": "4a4140ef4d4156dcfb9851b4c634613c", "lat": 38.90540583333333, "is_disabled": 0, "is_reserved": 0, "lon": -77.0514295, "type": "electric_scooter", "fusion_lat": 0.0, "rental_uris": {"android": "https://dc.lft.to/lastmile_qr_scan", "ios": "https://dc.lft.to/lastmile_qr_scan"}}, {"bike_id": "026828f65f269734759b74ad0b1f8082", "fusion_lon": 0.0, "name": "026828f65f269734759b74ad0b1f8082", "lat": 38.89471866666667, "is_disabled": 0, "is_reserved": 0, "lon": -77.016571, "type": "electric_scooter", "fusion_lat": 0.0, "rental_uris": {"android": "https://dc.lft.to/lastmile_qr_scan", "ios": "https://dc.lft.to/lastmile_qr_scan"}}, {"bike_id": "27f903d4f2da48eab336487c46dfef7e", "fusion_lon": 0.0, "name": "27f903d4f2da48eab336487c46dfef7e", "lat": 38.92322383333333, "is_disabled": 0, "is_reserved": 0, "lon": -77.02908216666667, "type": "electric_scooter", "fusion_lat": 0.0, "rental_uris": {"android": "https://dc.lft.to/lastmile_qr_scan", "ios": "https://dc.lft.to/lastmile_qr_scan"}}, {"bike_id": "ea4fbf410c84f9637ade5f0e1b4064fb", "fusion_lon": 0.0, "name": "ea4fbf410c84f9637ade5f0e1b4064fb", "lat": 38.884954666666665, "is_disabled": 0, "is_reserved": 0, "lon": -76.95667766666666, "type": "electric_bike", "fusion_lat": 0.0, "rental_uris": {"android": "https://dc.lft.to/lastmile_qr_scan", "ios": "https://dc.lft.to/lastmile_qr_scan"}}, {"bike_id": "6d0761b3543a75258988301a488f1d42", "fusion_lon": 0.0, "name": "6d0761b3543a75258988301a488f1d42", "lat": 38.900648333333336, "is_disabled": 0, "is_reserved": 0, "lon": -77.05423316666666, "type": "electric_scooter", "fusion_lat": 0.0, "rental_uris": {"android": "https://dc.lft.to/lastmile_qr_scan", "ios": "https://dc.lft.to/lastmile_qr_scan"}}, {"bike_id": "de0384046815f5ddd08065489b461c26", "fusion_lon": 0.0, "name": "de0384046815f5ddd08065489b461c26", "lat": 38.88747733333334, "is_disabled": 0, "is_reserved": 0, "lon": -76.97313966666667, "type": "electric_scooter", "fusion_lat": 0.0, "rental_uris": {"android": "https://dc.lft.to/lastmile_qr_scan", "ios": "https://dc.lft.to/lastmile_qr_scan"}}, {"bike_id": "cda0bff1fbd2a0bf176071ac20003c73", "fusion_lon": 0.0, "name": "cda0bff1fbd2a0bf176071ac20003c73", "lat": 38.89731333333334, "is_disabled": 0, "is_reserved": 0, "lon": -77.00217466666666, "type": "electric_scooter", "fusion_lat": 0.0, "rental_uris": {"android": "https://dc.lft.to/lastmile_qr_scan", "ios": "https://dc.lft.to/lastmile_qr_scan"}}, {"bike_id": "46700d18316d914ff4c54b5d4105d4f7", "fusion_lon": 0.0, "name": "46700d18316d914ff4c54b5d4105d4f7", "lat": 38.9038805, "is_disabled": 0, "is_reserved": 0, "lon": -77.0164695, "type": "electric_scooter", "fusion_lat": 0.0, "rental_uris": {"android": "https://dc.lft.to/lastmile_qr_scan", "ios": "https://dc.lft.to/lastmile_qr_scan"}}, {"bike_id": "ad181f8ae092f4c2da2217949907f51a", "fusion_lon": 0.0, "name": "ad181f8ae092f4c2da2217949907f51a", "lat": 38.88738, "is_disabled": 0, "is_reserved": 0, "lon": -77.02580016666667, "type": "electric_scooter", "fusion_lat": 0.0, "rental_uris": {"android": "https://dc.lft.to/lastmile_qr_scan", "ios": "https://dc.lft.to/lastmile_qr_scan"}}, {"bike_id": "cc8a3246df9861375079ee0507fe5ee2", "fusion_lon": 0.0, "name": "cc8a3246df9861375079ee0507fe5ee2", "lat": 38.906448, "is_disabled": 0, "is_reserved": 0, "lon": -77.02411366666666, "type": "electric_scooter", "fusion_lat": 0.0, "rental_uris": {"android": "https://dc.lft.to/lastmile_qr_scan", "ios": "https://dc.lft.to/lastmile_qr_scan"}}, {"bike_id": "c1cfbfd2c9fe332b15914c4932add2a4", "fusion_lon": 0.0, "name": "c1cfbfd2c9fe332b15914c4932add2a4", "lat": 38.86684666666667, "is_disabled": 0, "is_reserved": 0, "lon": -76.98569966666666, "type": "electric_scooter", "fusion_lat": 0.0, "rental_uris": {"android": "https://dc.lft.to/lastmile_qr_scan", "ios": "https://dc.lft.to/lastmile_qr_scan"}}, {"bike_id": "58e990ef7589ace1b4e7626b96769116", "fusion_lon": 0.0, "name": "58e990ef7589ace1b4e7626b96769116", "lat": 38.9014505, "is_disabled": 0, "is_reserved": 0, "lon": -77.03558333333334, "type": "electric_scooter", "fusion_lat": 0.0, "rental_uris": {"android": "https://dc.lft.to/lastmile_qr_scan", "ios": "https://dc.lft.to/lastmile_qr_scan"}}, {"bike_id": "4b425bed4d3eee15b4ff7660f9fc1a65", "fusion_lon": 0.0, "name": "4b425bed4d3eee15b4ff7660f9fc1a65", "lat": 38.9112045, "is_disabled": 0, "is_reserved": 0, "lon": -77.03561016666667, "type": "electric_scooter", "fusion_lat": 0.0, "rental_uris": {"android": "https://dc.lft.to/lastmile_qr_scan", "ios": "https://dc.lft.to/lastmile_qr_scan"}}, {"bike_id": "ded7e85619d3d0d48604ae004fa75022", "fusion_lon": 0.0, "name": "ded7e85619d3d0d48604ae004fa75022", "lat": 38.931778666666666, "is_disabled": 0, "is_reserved": 0, "lon": -77.04297, "type": "electric_scooter", "fusion_lat": 0.0, "rental_uris": {"android": "https://dc.lft.to/lastmile_qr_scan", "ios": "https://dc.lft.to/lastmile_qr_scan"}}, {"bike_id": "84b89a308e74b953367d77c56b19f528", "fusion_lon": 0.0, "name": "84b89a308e74b953367d77c56b19f528", "lat": 38.89801216666667, "is_disabled": 0, "is_reserved": 0, "lon": -77.02411283333333, "type": "electric_scooter", "fusion_lat": 0.0, "rental_uris": {"android": "https://dc.lft.to/lastmile_qr_scan", "ios": "https://dc.lft.to/lastmile_qr_scan"}}, {"bike_id": "cc4a9d9e0408d532de8ffd0972bb8b82", "fusion_lon": 0.0, "name": "cc4a9d9e0408d532de8ffd0972bb8b82", "lat": 38.94446933333333, "is_disabled": 0, "is_reserved": 0, "lon": -77.06410683333333, "type": "electric_scooter", "fusion_lat": 0.0, "rental_uris": {"android": "https://dc.lft.to/lastmile_qr_scan", "ios": "https://dc.lft.to/lastmile_qr_scan"}}, {"bike_id": "f0169355b03cf6d81fad4c93eb834189", "fusion_lon": 0.0, "name": "f0169355b03cf6d81fad4c93eb834189", "lat": 38.8922525, "is_disabled": 0, "is_reserved": 0, "lon": -77.0451595, "type": "electric_scooter", "fusion_lat": 0.0, "rental_uris": {"android": "https://dc.lft.to/lastmile_qr_scan", "ios": "https://dc.lft.to/lastmile_qr_scan"}}, {"bike_id": "cc9d84f4e8076dbd13438072b3694a26", "fusion_lon": 0.0, "name": "cc9d84f4e8076dbd13438072b3694a26", "lat": 38.9232745, "is_disabled": 0, "is_reserved": 0, "lon": -77.019548, "type": "electric_scooter", "fusion_lat": 0.0, "rental_uris": {"android": "https://dc.lft.to/lastmile_qr_scan", "ios": "https://dc.lft.to/lastmile_qr_scan"}}, {"bike_id": "b913837ec739529ed130fe522a6eabcd", "fusion_lon": 0.0, "name": "b913837ec739529ed130fe522a6eabcd", "lat": 38.89225416666667, "is_disabled": 0, "is_reserved": 0, "lon": -77.020163, "type": "electric_scooter", "fusion_lat": 0.0, "rental_uris": {"android": "https://dc.lft.to/lastmile_qr_scan", "ios": "https://dc.lft.to/lastmile_qr_scan"}}, {"bike_id": "de6f6c0e06bbf809fbe26823eb6ef2c9", "fusion_lon": 0.0, "name": "de6f6c0e06bbf809fbe26823eb6ef2c9", "lat": 38.885485, "is_disabled": 0, "is_reserved": 0, "lon": -76.99778266666667, "type": "electric_scooter", "fusion_lat": 0.0, "rental_uris": {"android": "https://dc.lft.to/lastmile_qr_scan", "ios": "https://dc.lft.to/lastmile_qr_scan"}}, {"bike_id": "730f3429730896f541faab4c0a6a4044", "fusion_lon": 0.0, "name": "730f3429730896f541faab4c0a6a4044", "lat": 38.90964733333333, "is_disabled": 0, "is_reserved": 0, "lon": -77.03278083333333, "type": "electric_scooter", "fusion_lat": 0.0, "rental_uris": {"android": "https://dc.lft.to/lastmile_qr_scan", "ios": "https://dc.lft.to/lastmile_qr_scan"}}, {"bike_id": "2ee647c357671b223f315fc672ae31b7", "fusion_lon": 0.0, "name": "2ee647c357671b223f315fc672ae31b7", "lat": 38.8864935, "is_disabled": 0, "is_reserved": 0, "lon": -77.02132083333333, "type": "electric_scooter", "fusion_lat": 0.0, "rental_uris": {"android": "https://dc.lft.to/lastmile_qr_scan", "ios": "https://dc.lft.to/lastmile_qr_scan"}}, {"bike_id": "652a3cac2028cfe2ddf7f713553edf82", "fusion_lon": 0.0, "name": "652a3cac2028cfe2ddf7f713553edf82", "lat": 38.89045316666667, "is_disabled": 0, "is_reserved": 0, "lon": -76.95241966666667, "type": "electric_scooter", "fusion_lat": 0.0, "rental_uris": {"android": "https://dc.lft.to/lastmile_qr_scan", "ios": "https://dc.lft.to/lastmile_qr_scan"}}, {"bike_id": "51cb52ba120ba69e0d487e7f09b0cf93", "fusion_lon": 0.0, "name": "51cb52ba120ba69e0d487e7f09b0cf93", "lat": 38.919391833333336, "is_disabled": 0, "is_reserved": 0, "lon": -77.01364983333333, "type": "electric_scooter", "fusion_lat": 0.0, "rental_uris": {"android": "https://dc.lft.to/lastmile_qr_scan", "ios": "https://dc.lft.to/lastmile_qr_scan"}}, {"bike_id": "44a23be7141efd604ca264c535dda70d", "fusion_lon": 0.0, "name": "44a23be7141efd604ca264c535dda70d", "lat": 38.89236183333333, "is_disabled": 0, "is_reserved": 0, "lon": -77.04152283333333, "type": "electric_scooter", "fusion_lat": 0.0, "rental_uris": {"android": "https://dc.lft.to/lastmile_qr_scan", "ios": "https://dc.lft.to/lastmile_qr_scan"}}, {"bike_id": "56f5428038bc1d0190e8b7e695ab9b7e", "fusion_lon": 0.0, "name": "56f5428038bc1d0190e8b7e695ab9b7e", "lat": 38.92408316666667, "is_disabled": 0, "is_reserved": 0, "lon": -77.02025733333333, "type": "electric_scooter", "fusion_lat": 0.0, "rental_uris": {"android": "https://dc.lft.to/lastmile_qr_scan", "ios": "https://dc.lft.to/lastmile_qr_scan"}}, {"bike_id": "3313a883215d8abf06d5f01c4deda1a9", "fusion_lon": 0.0, "name": "3313a883215d8abf06d5f01c4deda1a9", "lat": 38.891416166666666, "is_disabled": 0, "is_reserved": 0, "lon": -76.9925945, "type": "electric_scooter", "fusion_lat": 0.0, "rental_uris": {"android": "https://dc.lft.to/lastmile_qr_scan", "ios": "https://dc.lft.to/lastmile_qr_scan"}}, {"bike_id": "7e94f1323bfff40655600b4a96f4e443", "fusion_lon": 0.0, "name": "7e94f1323bfff40655600b4a96f4e443", "lat": 38.88303716666667, "is_disabled": 0, "is_reserved": 0, "lon": -76.94850966666667, "type": "electric_scooter", "fusion_lat": 0.0, "rental_uris": {"android": "https://dc.lft.to/lastmile_qr_scan", "ios": "https://dc.lft.to/lastmile_qr_scan"}}, {"bike_id": "a192285b02a32f154139d6520d259f50", "fusion_lon": 0.0, "name": "a192285b02a32f154139d6520d259f50", "lat": 38.914706333333335, "is_disabled": 0, "is_reserved": 0, "lon": -77.0388475, "type": "electric_scooter", "fusion_lat": 0.0, "rental_uris": {"android": "https://dc.lft.to/lastmile_qr_scan", "ios": "https://dc.lft.to/lastmile_qr_scan"}}, {"bike_id": "29a8ba91b0aeae4e681011dc8018099c", "fusion_lon": 0.0, "name": "29a8ba91b0aeae4e681011dc8018099c", "lat": 38.864262833333335, "is_disabled": 0, "is_reserved": 0, "lon": -76.99028266666667, "type": "electric_scooter", "fusion_lat": 0.0, "rental_uris": {"android": "https://dc.lft.to/lastmile_qr_scan", "ios": "https://dc.lft.to/lastmile_qr_scan"}}, {"bike_id": "7ca5d686863ead75ec74e8de931af83f", "fusion_lon": 0.0, "name": "7ca5d686863ead75ec74e8de931af83f", "lat": 38.917785, "is_disabled": 0, "is_reserved": 0, "lon": -77.022769, "type": "electric_scooter", "fusion_lat": 0.0, "rental_uris": {"android": "https://dc.lft.to/lastmile_qr_scan", "ios": "https://dc.lft.to/lastmile_qr_scan"}}, {"bike_id": "a965c0a0bd739ccc4ba159ba70a4d3b7", "fusion_lon": 0.0, "name": "a965c0a0bd739ccc4ba159ba70a4d3b7", "lat": 38.900217166666664, "is_disabled": 0, "is_reserved": 0, "lon": -77.0314585, "type": "electric_scooter", "fusion_lat": 0.0, "rental_uris": {"android": "https://dc.lft.to/lastmile_qr_scan", "ios": "https://dc.lft.to/lastmile_qr_scan"}}, {"bike_id": "f341a8e622ba9be61561cfc9bca4f159", "fusion_lon": 0.0, "name": "f341a8e622ba9be61561cfc9bca4f159", "lat": 38.912574666666664, "is_disabled": 0, "is_reserved": 0, "lon": -77.0444075, "type": "electric_scooter", "fusion_lat": 0.0, "rental_uris": {"android": "https://dc.lft.to/lastmile_qr_scan", "ios": "https://dc.lft.to/lastmile_qr_scan"}}, {"bike_id": "bec96173a89a2081e717d902d810b962", "fusion_lon": 0.0, "name": "bec96173a89a2081e717d902d810b962", "lat": 38.900317333333334, "is_disabled": 0, "is_reserved": 0, "lon": -77.0150715, "type": "electric_scooter", "fusion_lat": 0.0, "rental_uris": {"android": "https://dc.lft.to/lastmile_qr_scan", "ios": "https://dc.lft.to/lastmile_qr_scan"}}, {"bike_id": "a7639ae4ecbe44270aa57758b9cca43d", "fusion_lon": 0.0, "name": "a7639ae4ecbe44270aa57758b9cca43d", "lat": 38.916965166666664, "is_disabled": 0, "is_reserved": 0, "lon": -77.02895233333334, "type": "electric_scooter", "fusion_lat": 0.0, "rental_uris": {"android": "https://dc.lft.to/lastmile_qr_scan", "ios": "https://dc.lft.to/lastmile_qr_scan"}}, {"bike_id": "cbd968d07705b8a7502760017e6b253b", "fusion_lon": 0.0, "name": "cbd968d07705b8a7502760017e6b253b", "lat": 38.928765166666665, "is_disabled": 0, "is_reserved": 0, "lon": -77.03518083333333, "type": "electric_scooter", "fusion_lat": 0.0, "rental_uris": {"android": "https://dc.lft.to/lastmile_qr_scan", "ios": "https://dc.lft.to/lastmile_qr_scan"}}, {"bike_id": "74a2b4b9e39c228c11d62344dc39cec1", "fusion_lon": 0.0, "name": "74a2b4b9e39c228c11d62344dc39cec1", "lat": 38.915364833333335, "is_disabled": 0, "is_reserved": 0, "lon": -77.01218583333333, "type": "electric_scooter", "fusion_lat": 0.0, "rental_uris": {"android": "https://dc.lft.to/lastmile_qr_scan", "ios": "https://dc.lft.to/lastmile_qr_scan"}}, {"bike_id": "657557b4b8b42a18c1ae6d7ee98f650c", "fusion_lon": 0.0, "name": "657557b4b8b42a18c1ae6d7ee98f650c", "lat": 38.909767, "is_disabled": 0, "is_reserved": 0, "lon": -77.032183, "type": "electric_scooter", "fusion_lat": 0.0, "rental_uris": {"android": "https://dc.lft.to/lastmile_qr_scan", "ios": "https://dc.lft.to/lastmile_qr_scan"}}, {"bike_id": "13b22b588c7e3f241bed2271860d7985", "fusion_lon": 0.0, "name": "13b22b588c7e3f241bed2271860d7985", "lat": 38.91589233333333, "is_disabled": 0, "is_reserved": 0, "lon": -76.97978, "type": "electric_scooter", "fusion_lat": 0.0, "rental_uris": {"android": "https://dc.lft.to/lastmile_qr_scan", "ios": "https://dc.lft.to/lastmile_qr_scan"}}, {"bike_id": "6b7fb891538d2de66fc29bad0d7138e6", "fusion_lon": 0.0, "name": "6b7fb891538d2de66fc29bad0d7138e6", "lat": 38.89110183333333, "is_disabled": 0, "is_reserved": 0, "lon": -77.1841685, "type": "electric_bike", "fusion_lat": 0.0, "rental_uris": {"android": "https://dc.lft.to/lastmile_qr_scan", "ios": "https://dc.lft.to/lastmile_qr_scan"}}, {"bike_id": "a462305c4f430911c4897fb6cd81d3b4", "fusion_lon": 0.0, "name": "a462305c4f430911c4897fb6cd81d3b4", "lat": 38.857014166666666, "is_disabled": 0, "is_reserved": 0, "lon": -76.99598333333333, "type": "electric_scooter", "fusion_lat": 0.0, "rental_uris": {"android": "https://dc.lft.to/lastmile_qr_scan", "ios": "https://dc.lft.to/lastmile_qr_scan"}}, {"bike_id": "846164b3d9a48005990894cb3fbfb676", "fusion_lon": 0.0, "name": "846164b3d9a48005990894cb3fbfb676", "lat": 38.887190333333336, "is_disabled": 0, "is_reserved": 0, "lon": -77.0220225, "type": "electric_scooter", "fusion_lat": 0.0, "rental_uris": {"android": "https://dc.lft.to/lastmile_qr_scan", "ios": "https://dc.lft.to/lastmile_qr_scan"}}, {"bike_id": "e0876b6d9d26377d2670ffe8b907c572", "fusion_lon": 0.0, "name": "e0876b6d9d26377d2670ffe8b907c572", "lat": 38.873041666666666, "is_disabled": 0, "is_reserved": 0, "lon": -77.00991, "type": "electric_scooter", "fusion_lat": 0.0, "rental_uris": {"android": "https://dc.lft.to/lastmile_qr_scan", "ios": "https://dc.lft.to/lastmile_qr_scan"}}, {"bike_id": "c6cd585dd27c41b049cd19870254b2f2", "fusion_lon": 0.0, "name": "c6cd585dd27c41b049cd19870254b2f2", "lat": 38.90852366666667, "is_disabled": 0, "is_reserved": 0, "lon": -76.99803516666667, "type": "electric_scooter", "fusion_lat": 0.0, "rental_uris": {"android": "https://dc.lft.to/lastmile_qr_scan", "ios": "https://dc.lft.to/lastmile_qr_scan"}}, {"bike_id": "655a1a1639722fe1bc685c368761de6c", "fusion_lon": 0.0, "name": "655a1a1639722fe1bc685c368761de6c", "lat": 38.885328, "is_disabled": 0, "is_reserved": 0, "lon": -77.1219095, "type": "electric_bike", "fusion_lat": 0.0, "rental_uris": {"android": "https://dc.lft.to/lastmile_qr_scan", "ios": "https://dc.lft.to/lastmile_qr_scan"}}, {"bike_id": "1136be3b17689aa96c2a969d05bab997", "fusion_lon": 0.0, "name": "1136be3b17689aa96c2a969d05bab997", "lat": 38.9226285, "is_disabled": 0, "is_reserved": 0, "lon": -77.01965016666666, "type": "electric_scooter", "fusion_lat": 0.0, "rental_uris": {"android": "https://dc.lft.to/lastmile_qr_scan", "ios": "https://dc.lft.to/lastmile_qr_scan"}}, {"bike_id": "04d544f7a42df9225dc185d140d4dcd3", "fusion_lon": 0.0, "name": "04d544f7a42df9225dc185d140d4dcd3", "lat": 38.898389, "is_disabled": 0, "is_reserved": 0, "lon": -77.031866, "type": "electric_scooter", "fusion_lat": 0.0, "rental_uris": {"android": "https://dc.lft.to/lastmile_qr_scan", "ios": "https://dc.lft.to/lastmile_qr_scan"}}, {"bike_id": "047dee98d9d82883f849ed93f888a906", "fusion_lon": 0.0, "name": "047dee98d9d82883f849ed93f888a906", "lat": 38.92125583333333, "is_disabled": 0, "is_reserved": 0, "lon": -77.03659033333334, "type": "electric_scooter", "fusion_lat": 0.0, "rental_uris": {"android": "https://dc.lft.to/lastmile_qr_scan", "ios": "https://dc.lft.to/lastmile_qr_scan"}}, {"bike_id": "efdef5ef641c2645d9eb469ebd7aa4df", "fusion_lon": 0.0, "name": "efdef5ef641c2645d9eb469ebd7aa4df", "lat": 38.89263583333333, "is_disabled": 0, "is_reserved": 0, "lon": -77.003458, "type": "electric_scooter", "fusion_lat": 0.0, "rental_uris": {"android": "https://dc.lft.to/lastmile_qr_scan", "ios": "https://dc.lft.to/lastmile_qr_scan"}}, {"bike_id": "6c3c9db80909d453f9e993d79fa20aef", "fusion_lon": 0.0, "name": "6c3c9db80909d453f9e993d79fa20aef", "lat": 38.907418666666665, "is_disabled": 0, "is_reserved": 0, "lon": -77.026922, "type": "electric_scooter", "fusion_lat": 0.0, "rental_uris": {"android": "https://dc.lft.to/lastmile_qr_scan", "ios": "https://dc.lft.to/lastmile_qr_scan"}}, {"bike_id": "2d99b6d3c3465a147191b5ffb2c32ba9", "fusion_lon": 0.0, "name": "2d99b6d3c3465a147191b5ffb2c32ba9", "lat": 38.89983566666667, "is_disabled": 0, "is_reserved": 0, "lon": -76.98240466666667, "type": "electric_scooter", "fusion_lat": 0.0, "rental_uris": {"android": "https://dc.lft.to/lastmile_qr_scan", "ios": "https://dc.lft.to/lastmile_qr_scan"}}, {"bike_id": "8c111c964cf8ce261a6666e26bf7bdb9", "fusion_lon": 0.0, "name": "8c111c964cf8ce261a6666e26bf7bdb9", "lat": 38.917192166666666, "is_disabled": 0, "is_reserved": 0, "lon": -77.02407316666667, "type": "electric_scooter", "fusion_lat": 0.0, "rental_uris": {"android": "https://dc.lft.to/lastmile_qr_scan", "ios": "https://dc.lft.to/lastmile_qr_scan"}}, {"bike_id": "be495307c17cf851a6fd619979b82a0f", "fusion_lon": 0.0, "name": "be495307c17cf851a6fd619979b82a0f", "lat": 38.84131766666667, "is_disabled": 0, "is_reserved": 0, "lon": -77.0630745, "type": "electric_bike", "fusion_lat": 0.0, "rental_uris": {"android": "https://dc.lft.to/lastmile_qr_scan", "ios": "https://dc.lft.to/lastmile_qr_scan"}}, {"bike_id": "4deed3bf12f06d63615be6f7200b8c6a", "fusion_lon": 0.0, "name": "4deed3bf12f06d63615be6f7200b8c6a", "lat": 38.923012, "is_disabled": 0, "is_reserved": 0, "lon": -77.02713133333333, "type": "electric_scooter", "fusion_lat": 0.0, "rental_uris": {"android": "https://dc.lft.to/lastmile_qr_scan", "ios": "https://dc.lft.to/lastmile_qr_scan"}}, {"bike_id": "585213ab5c7b3369a740fc0c8273de54", "fusion_lon": 0.0, "name": "585213ab5c7b3369a740fc0c8273de54", "lat": 38.923999333333335, "is_disabled": 0, "is_reserved": 0, "lon": -77.04304833333333, "type": "electric_scooter", "fusion_lat": 0.0, "rental_uris": {"android": "https://dc.lft.to/lastmile_qr_scan", "ios": "https://dc.lft.to/lastmile_qr_scan"}}, {"bike_id": "f2a70454ee96b054713dba69c2fd8bd5", "fusion_lon": 0.0, "name": "f2a70454ee96b054713dba69c2fd8bd5", "lat": 38.91425316666667, "is_disabled": 0, "is_reserved": 0, "lon": -77.04333516666667, "type": "electric_scooter", "fusion_lat": 0.0, "rental_uris": {"android": "https://dc.lft.to/lastmile_qr_scan", "ios": "https://dc.lft.to/lastmile_qr_scan"}}, {"bike_id": "a8a53e97aa5fec65d4d3be9ea2a853c0", "fusion_lon": 0.0, "name": "a8a53e97aa5fec65d4d3be9ea2a853c0", "lat": 38.877008333333336, "is_disabled": 0, "is_reserved": 0, "lon": -77.00430083333333, "type": "electric_scooter", "fusion_lat": 0.0, "rental_uris": {"android": "https://dc.lft.to/lastmile_qr_scan", "ios": "https://dc.lft.to/lastmile_qr_scan"}}, {"bike_id": "cdea1bc874904cacd1dd5379b2cec653", "fusion_lon": 0.0, "name": "cdea1bc874904cacd1dd5379b2cec653", "lat": 38.9237595, "is_disabled": 0, "is_reserved": 0, "lon": -77.05035583333333, "type": "electric_scooter", "fusion_lat": 0.0, "rental_uris": {"android": "https://dc.lft.to/lastmile_qr_scan", "ios": "https://dc.lft.to/lastmile_qr_scan"}}, {"bike_id": "ab313ca2f5a8dba0e2f0025ce206e02b", "fusion_lon": 0.0, "name": "ab313ca2f5a8dba0e2f0025ce206e02b", "lat": 38.85761866666667, "is_disabled": 0, "is_reserved": 0, "lon": -77.08654133333333, "type": "electric_bike", "fusion_lat": 0.0, "rental_uris": {"android": "https://dc.lft.to/lastmile_qr_scan", "ios": "https://dc.lft.to/lastmile_qr_scan"}}, {"bike_id": "18d057033940a33a3f51892ee26310a8", "fusion_lon": 0.0, "name": "18d057033940a33a3f51892ee26310a8", "lat": 38.892450333333336, "is_disabled": 0, "is_reserved": 0, "lon": -77.03340866666667, "type": "electric_scooter", "fusion_lat": 0.0, "rental_uris": {"android": "https://dc.lft.to/lastmile_qr_scan", "ios": "https://dc.lft.to/lastmile_qr_scan"}}, {"bike_id": "390b140c141b1672edec205deb28150e", "fusion_lon": 0.0, "name": "390b140c141b1672edec205deb28150e", "lat": 38.92302083333333, "is_disabled": 0, "is_reserved": 0, "lon": -77.02440433333334, "type": "electric_scooter", "fusion_lat": 0.0, "rental_uris": {"android": "https://dc.lft.to/lastmile_qr_scan", "ios": "https://dc.lft.to/lastmile_qr_scan"}}, {"bike_id": "80baa0b052e14a5c387c09b6ba6e3cfd", "fusion_lon": 0.0, "name": "80baa0b052e14a5c387c09b6ba6e3cfd", "lat": 38.961954, "is_disabled": 0, "is_reserved": 0, "lon": -77.00079616666666, "type": "electric_bike", "fusion_lat": 0.0, "rental_uris": {"android": "https://dc.lft.to/lastmile_qr_scan", "ios": "https://dc.lft.to/lastmile_qr_scan"}}, {"bike_id": "e879b5bf43415166df2cef870ddf67e1", "fusion_lon": 0.0, "name": "e879b5bf43415166df2cef870ddf67e1", "lat": 38.9910305, "is_disabled": 0, "is_reserved": 0, "lon": -76.99361266666666, "type": "electric_bike", "fusion_lat": 0.0, "rental_uris": {"android": "https://dc.lft.to/lastmile_qr_scan", "ios": "https://dc.lft.to/lastmile_qr_scan"}}, {"bike_id": "7c8a9d929c16247e10f41496bc823ee7", "fusion_lon": 0.0, "name": "7c8a9d929c16247e10f41496bc823ee7", "lat": 38.928803, "is_disabled": 0, "is_reserved": 0, "lon": -77.03248833333333, "type": "electric_scooter", "fusion_lat": 0.0, "rental_uris": {"android": "https://dc.lft.to/lastmile_qr_scan", "ios": "https://dc.lft.to/lastmile_qr_scan"}}, {"bike_id": "ccc0edbe1a4a2f312ce06200d983b779", "fusion_lon": 0.0, "name": "ccc0edbe1a4a2f312ce06200d983b779", "lat": 38.86683283333333, "is_disabled": 0, "is_reserved": 0, "lon": -76.9856615, "type": "electric_scooter", "fusion_lat": 0.0, "rental_uris": {"android": "https://dc.lft.to/lastmile_qr_scan", "ios": "https://dc.lft.to/lastmile_qr_scan"}}, {"bike_id": "dc7e305d0d067ff075c88a0e2a2dc039", "fusion_lon": 0.0, "name": "dc7e305d0d067ff075c88a0e2a2dc039", "lat": 38.90830866666667, "is_disabled": 0, "is_reserved": 0, "lon": -77.03552883333333, "type": "electric_scooter", "fusion_lat": 0.0, "rental_uris": {"android": "https://dc.lft.to/lastmile_qr_scan", "ios": "https://dc.lft.to/lastmile_qr_scan"}}, {"bike_id": "a76f2fc80ebb727a80ac6c5993ca0bc0", "fusion_lon": 0.0, "name": "a76f2fc80ebb727a80ac6c5993ca0bc0", "lat": 38.926729333333334, "is_disabled": 0, "is_reserved": 0, "lon": -77.01507483333333, "type": "electric_scooter", "fusion_lat": 0.0, "rental_uris": {"android": "https://dc.lft.to/lastmile_qr_scan", "ios": "https://dc.lft.to/lastmile_qr_scan"}}, {"bike_id": "eb8e5d80540a9ff0f9360d2146abc7cb", "fusion_lon": 0.0, "name": "eb8e5d80540a9ff0f9360d2146abc7cb", "lat": 38.899005833333334, "is_disabled": 0, "is_reserved": 0, "lon": -77.09616266666667, "type": "electric_bike", "fusion_lat": 0.0, "rental_uris": {"android": "https://dc.lft.to/lastmile_qr_scan", "ios": "https://dc.lft.to/lastmile_qr_scan"}}, {"bike_id": "b100baf995a3cdb8b0b108f9c3a35862", "fusion_lon": 0.0, "name": "b100baf995a3cdb8b0b108f9c3a35862", "lat": 38.9048115, "is_disabled": 0, "is_reserved": 0, "lon": -77.002088, "type": "electric_scooter", "fusion_lat": 0.0, "rental_uris": {"android": "https://dc.lft.to/lastmile_qr_scan", "ios": "https://dc.lft.to/lastmile_qr_scan"}}, {"bike_id": "a7574473ba1c0a77a317d0779db739f7", "fusion_lon": 0.0, "name": "a7574473ba1c0a77a317d0779db739f7", "lat": 38.88523133333333, "is_disabled": 0, "is_reserved": 0, "lon": -76.9770755, "type": "electric_scooter", "fusion_lat": 0.0, "rental_uris": {"android": "https://dc.lft.to/lastmile_qr_scan", "ios": "https://dc.lft.to/lastmile_qr_scan"}}, {"bike_id": "e81ba3aab919aada74d0a9f08d0282d5", "fusion_lon": 0.0, "name": "e81ba3aab919aada74d0a9f08d0282d5", "lat": 38.93428133333333, "is_disabled": 0, "is_reserved": 0, "lon": -77.044073, "type": "electric_scooter", "fusion_lat": 0.0, "rental_uris": {"android": "https://dc.lft.to/lastmile_qr_scan", "ios": "https://dc.lft.to/lastmile_qr_scan"}}, {"bike_id": "5e27dda90d1d90dde95eb242518fec88", "fusion_lon": 0.0, "name": "5e27dda90d1d90dde95eb242518fec88", "lat": 38.890089, "is_disabled": 0, "is_reserved": 0, "lon": -76.93746816666666, "type": "electric_scooter", "fusion_lat": 0.0, "rental_uris": {"android": "https://dc.lft.to/lastmile_qr_scan", "ios": "https://dc.lft.to/lastmile_qr_scan"}}, {"bike_id": "d273980a1dd34f273b21f448a8987810", "fusion_lon": 0.0, "name": "d273980a1dd34f273b21f448a8987810", "lat": 38.8967285, "is_disabled": 0, "is_reserved": 0, "lon": -77.05463183333333, "type": "electric_scooter", "fusion_lat": 0.0, "rental_uris": {"android": "https://dc.lft.to/lastmile_qr_scan", "ios": "https://dc.lft.to/lastmile_qr_scan"}}, {"bike_id": "3f5f4c5ef4eed00241d44253c5852b03", "fusion_lon": 0.0, "name": "3f5f4c5ef4eed00241d44253c5852b03", "lat": 38.907933166666666, "is_disabled": 0, "is_reserved": 0, "lon": -76.99420183333334, "type": "electric_scooter", "fusion_lat": 0.0, "rental_uris": {"android": "https://dc.lft.to/lastmile_qr_scan", "ios": "https://dc.lft.to/lastmile_qr_scan"}}, {"bike_id": "c0bd2df719c88b4c5a64703c9aac6f0b", "fusion_lon": 0.0, "name": "c0bd2df719c88b4c5a64703c9aac6f0b", "lat": 38.916241166666666, "is_disabled": 0, "is_reserved": 0, "lon": -77.0215735, "type": "electric_scooter", "fusion_lat": 0.0, "rental_uris": {"android": "https://dc.lft.to/lastmile_qr_scan", "ios": "https://dc.lft.to/lastmile_qr_scan"}}, {"bike_id": "24ba41992bd7c44bbfaf3f6dd73694a4", "fusion_lon": 0.0, "name": "24ba41992bd7c44bbfaf3f6dd73694a4", "lat": 38.9096295, "is_disabled": 0, "is_reserved": 0, "lon": -77.22889083333334, "type": "electric_bike", "fusion_lat": 0.0, "rental_uris": {"android": "https://dc.lft.to/lastmile_qr_scan", "ios": "https://dc.lft.to/lastmile_qr_scan"}}, {"bike_id": "70002589e42730013c8e8823d83b7d2a", "fusion_lon": 0.0, "name": "70002589e42730013c8e8823d83b7d2a", "lat": 38.89826583333333, "is_disabled": 0, "is_reserved": 0, "lon": -77.0331285, "type": "electric_scooter", "fusion_lat": 0.0, "rental_uris": {"android": "https://dc.lft.to/lastmile_qr_scan", "ios": "https://dc.lft.to/lastmile_qr_scan"}}, {"bike_id": "9e7ea1e6a8cf03e02a02a299992896c6", "fusion_lon": 0.0, "name": "9e7ea1e6a8cf03e02a02a299992896c6", "lat": 38.8806305, "is_disabled": 0, "is_reserved": 0, "lon": -76.93218183333333, "type": "electric_scooter", "fusion_lat": 0.0, "rental_uris": {"android": "https://dc.lft.to/lastmile_qr_scan", "ios": "https://dc.lft.to/lastmile_qr_scan"}}, {"bike_id": "85bf95254518be8642f839fc2f98fd00", "fusion_lon": 0.0, "name": "85bf95254518be8642f839fc2f98fd00", "lat": 38.910539, "is_disabled": 0, "is_reserved": 0, "lon": -77.04355983333333, "type": "electric_scooter", "fusion_lat": 0.0, "rental_uris": {"android": "https://dc.lft.to/lastmile_qr_scan", "ios": "https://dc.lft.to/lastmile_qr_scan"}}, {"bike_id": "826772b522a793f0f69d769ab852e969", "fusion_lon": 0.0, "name": "826772b522a793f0f69d769ab852e969", "lat": 38.921175166666664, "is_disabled": 0, "is_reserved": 0, "lon": -77.00916266666667, "type": "electric_scooter", "fusion_lat": 0.0, "rental_uris": {"android": "https://dc.lft.to/lastmile_qr_scan", "ios": "https://dc.lft.to/lastmile_qr_scan"}}, {"bike_id": "bca680e8de23d71005967c19e50c4fd8", "fusion_lon": 0.0, "name": "bca680e8de23d71005967c19e50c4fd8", "lat": 38.90236483333333, "is_disabled": 0, "is_reserved": 0, "lon": -77.05338683333333, "type": "electric_scooter", "fusion_lat": 0.0, "rental_uris": {"android": "https://dc.lft.to/lastmile_qr_scan", "ios": "https://dc.lft.to/lastmile_qr_scan"}}, {"bike_id": "bf798a2239a6f726356ed4b6ce4fa2b9", "fusion_lon": 0.0, "name": "bf798a2239a6f726356ed4b6ce4fa2b9", "lat": 38.937548666666665, "is_disabled": 0, "is_reserved": 0, "lon": -77.02952766666667, "type": "electric_scooter", "fusion_lat": 0.0, "rental_uris": {"android": "https://dc.lft.to/lastmile_qr_scan", "ios": "https://dc.lft.to/lastmile_qr_scan"}}, {"bike_id": "56f88033ef956657e715ef691eaaac32", "fusion_lon": 0.0, "name": "56f88033ef956657e715ef691eaaac32", "lat": 38.901551166666664, "is_disabled": 0, "is_reserved": 0, "lon": -76.99024916666667, "type": "electric_scooter", "fusion_lat": 0.0, "rental_uris": {"android": "https://dc.lft.to/lastmile_qr_scan", "ios": "https://dc.lft.to/lastmile_qr_scan"}}, {"bike_id": "957a3e78af0c5627ed52171360ba7e0c", "fusion_lon": 0.0, "name": "957a3e78af0c5627ed52171360ba7e0c", "lat": 38.923420166666666, "is_disabled": 0, "is_reserved": 0, "lon": -77.05235533333334, "type": "electric_scooter", "fusion_lat": 0.0, "rental_uris": {"android": "https://dc.lft.to/lastmile_qr_scan", "ios": "https://dc.lft.to/lastmile_qr_scan"}}, {"bike_id": "9c7d2cb657e006e2b846fc7c0fdd04ae", "fusion_lon": 0.0, "name": "9c7d2cb657e006e2b846fc7c0fdd04ae", "lat": 38.89833083333333, "is_disabled": 0, "is_reserved": 0, "lon": -77.00747066666666, "type": "electric_scooter", "fusion_lat": 0.0, "rental_uris": {"android": "https://dc.lft.to/lastmile_qr_scan", "ios": "https://dc.lft.to/lastmile_qr_scan"}}, {"bike_id": "f951ebb2bdefb595e6fa1b630676351b", "fusion_lon": 0.0, "name": "f951ebb2bdefb595e6fa1b630676351b", "lat": 38.91801483333333, "is_disabled": 0, "is_reserved": 0, "lon": -77.02319683333333, "type": "electric_scooter", "fusion_lat": 0.0, "rental_uris": {"android": "https://dc.lft.to/lastmile_qr_scan", "ios": "https://dc.lft.to/lastmile_qr_scan"}}, {"bike_id": "485be2bda8468fbce0aa3c097928e53c", "fusion_lon": 0.0, "name": "485be2bda8468fbce0aa3c097928e53c", "lat": 38.92423633333333, "is_disabled": 0, "is_reserved": 0, "lon": -77.01943516666667, "type": "electric_scooter", "fusion_lat": 0.0, "rental_uris": {"android": "https://dc.lft.to/lastmile_qr_scan", "ios": "https://dc.lft.to/lastmile_qr_scan"}}, {"bike_id": "5497c811d85ead5b934eaa4e620f474d", "fusion_lon": 0.0, "name": "5497c811d85ead5b934eaa4e620f474d", "lat": 38.9235795, "is_disabled": 0, "is_reserved": 0, "lon": -77.0505045, "type": "electric_scooter", "fusion_lat": 0.0, "rental_uris": {"android": "https://dc.lft.to/lastmile_qr_scan", "ios": "https://dc.lft.to/lastmile_qr_scan"}}, {"bike_id": "a11d69956a88ec6a0e34c6cb5e7dd09e", "fusion_lon": 0.0, "name": "a11d69956a88ec6a0e34c6cb5e7dd09e", "lat": 38.911355, "is_disabled": 0, "is_reserved": 0, "lon": -77.04490516666667, "type": "electric_scooter", "fusion_lat": 0.0, "rental_uris": {"android": "https://dc.lft.to/lastmile_qr_scan", "ios": "https://dc.lft.to/lastmile_qr_scan"}}, {"bike_id": "0972c39cabeba59673949aabc18ea8c6", "fusion_lon": 0.0, "name": "0972c39cabeba59673949aabc18ea8c6", "lat": 38.876710833333334, "is_disabled": 0, "is_reserved": 0, "lon": -77.008827, "type": "electric_scooter", "fusion_lat": 0.0, "rental_uris": {"android": "https://dc.lft.to/lastmile_qr_scan", "ios": "https://dc.lft.to/lastmile_qr_scan"}}, {"bike_id": "60b8eae91f84f159743466e173abaf73", "fusion_lon": 0.0, "name": "60b8eae91f84f159743466e173abaf73", "lat": 38.912713333333336, "is_disabled": 0, "is_reserved": 0, "lon": -77.03829933333333, "type": "electric_scooter", "fusion_lat": 0.0, "rental_uris": {"android": "https://dc.lft.to/lastmile_qr_scan", "ios": "https://dc.lft.to/lastmile_qr_scan"}}, {"bike_id": "732d7428e682fee3622c829d37260820", "fusion_lon": 0.0, "name": "732d7428e682fee3622c829d37260820", "lat": 38.910054333333335, "is_disabled": 0, "is_reserved": 0, "lon": -76.994118, "type": "electric_scooter", "fusion_lat": 0.0, "rental_uris": {"android": "https://dc.lft.to/lastmile_qr_scan", "ios": "https://dc.lft.to/lastmile_qr_scan"}}, {"bike_id": "2fd0506f29a594da5ccae78d86be0a26", "fusion_lon": 0.0, "name": "2fd0506f29a594da5ccae78d86be0a26", "lat": 38.927568666666666, "is_disabled": 0, "is_reserved": 0, "lon": -77.0211195, "type": "electric_scooter", "fusion_lat": 0.0, "rental_uris": {"android": "https://dc.lft.to/lastmile_qr_scan", "ios": "https://dc.lft.to/lastmile_qr_scan"}}, {"bike_id": "3650ec505f4efdd86b9138b5160d19a3", "fusion_lon": 0.0, "name": "3650ec505f4efdd86b9138b5160d19a3", "lat": 38.91121366666667, "is_disabled": 0, "is_reserved": 0, "lon": -77.021973, "type": "electric_scooter", "fusion_lat": 0.0, "rental_uris": {"android": "https://dc.lft.to/lastmile_qr_scan", "ios": "https://dc.lft.to/lastmile_qr_scan"}}, {"bike_id": "4f990ff9d471dd672a3748c9815ceb2f", "fusion_lon": 0.0, "name": "4f990ff9d471dd672a3748c9815ceb2f", "lat": 38.905680333333336, "is_disabled": 0, "is_reserved": 0, "lon": -77.05143533333333, "type": "electric_scooter", "fusion_lat": 0.0, "rental_uris": {"android": "https://dc.lft.to/lastmile_qr_scan", "ios": "https://dc.lft.to/lastmile_qr_scan"}}, {"bike_id": "a5f4eafa2de668b00cbce39020687e5e", "fusion_lon": 0.0, "name": "a5f4eafa2de668b00cbce39020687e5e", "lat": 38.95207583333333, "is_disabled": 0, "is_reserved": 0, "lon": -77.0027175, "type": "electric_bike", "fusion_lat": 0.0, "rental_uris": {"android": "https://dc.lft.to/lastmile_qr_scan", "ios": "https://dc.lft.to/lastmile_qr_scan"}}, {"bike_id": "de29b82decb7d2a09fd0570aa8cdb44e", "fusion_lon": 0.0, "name": "de29b82decb7d2a09fd0570aa8cdb44e", "lat": 38.88525666666666, "is_disabled": 0, "is_reserved": 0, "lon": -77.015297, "type": "electric_scooter", "fusion_lat": 0.0, "rental_uris": {"android": "https://dc.lft.to/lastmile_qr_scan", "ios": "https://dc.lft.to/lastmile_qr_scan"}}, {"bike_id": "cc560c67f4d6d2f8a730e6325a59e469", "fusion_lon": 0.0, "name": "cc560c67f4d6d2f8a730e6325a59e469", "lat": 38.908682666666664, "is_disabled": 0, "is_reserved": 0, "lon": -77.03224066666667, "type": "electric_scooter", "fusion_lat": 0.0, "rental_uris": {"android": "https://dc.lft.to/lastmile_qr_scan", "ios": "https://dc.lft.to/lastmile_qr_scan"}}, {"bike_id": "d5d3d2c7c48343f39e27bca0998a5d5d", "fusion_lon": 0.0, "name": "d5d3d2c7c48343f39e27bca0998a5d5d", "lat": 38.90231033333333, "is_disabled": 0, "is_reserved": 0, "lon": -77.05939366666667, "type": "electric_scooter", "fusion_lat": 0.0, "rental_uris": {"android": "https://dc.lft.to/lastmile_qr_scan", "ios": "https://dc.lft.to/lastmile_qr_scan"}}, {"bike_id": "3c479d3f5335c3738dd14c8df698ea7a", "fusion_lon": 0.0, "name": "3c479d3f5335c3738dd14c8df698ea7a", "lat": 38.90811516666667, "is_disabled": 0, "is_reserved": 0, "lon": -77.034635, "type": "electric_scooter", "fusion_lat": 0.0, "rental_uris": {"android": "https://dc.lft.to/lastmile_qr_scan", "ios": "https://dc.lft.to/lastmile_qr_scan"}}, {"bike_id": "5b5f20a60452be20b465b67c4a557ecf", "fusion_lon": 0.0, "name": "5b5f20a60452be20b465b67c4a557ecf", "lat": 38.8872165, "is_disabled": 0, "is_reserved": 0, "lon": -76.99687316666666, "type": "electric_scooter", "fusion_lat": 0.0, "rental_uris": {"android": "https://dc.lft.to/lastmile_qr_scan", "ios": "https://dc.lft.to/lastmile_qr_scan"}}, {"bike_id": "f9e6aec3ce87726e9523338b82568ac5", "fusion_lon": 0.0, "name": "f9e6aec3ce87726e9523338b82568ac5", "lat": 38.88753483333333, "is_disabled": 0, "is_reserved": 0, "lon": -77.03160416666667, "type": "electric_scooter", "fusion_lat": 0.0, "rental_uris": {"android": "https://dc.lft.to/lastmile_qr_scan", "ios": "https://dc.lft.to/lastmile_qr_scan"}}, {"bike_id": "771449d8f7aef90177debbc340afdfd5", "fusion_lon": 0.0, "name": "771449d8f7aef90177debbc340afdfd5", "lat": 38.914248666666666, "is_disabled": 0, "is_reserved": 0, "lon": -77.06920316666667, "type": "electric_bike", "fusion_lat": 0.0, "rental_uris": {"android": "https://dc.lft.to/lastmile_qr_scan", "ios": "https://dc.lft.to/lastmile_qr_scan"}}, {"bike_id": "536dbf31dbfa2eb438297a9f76c2724b", "fusion_lon": 0.0, "name": "536dbf31dbfa2eb438297a9f76c2724b", "lat": 38.918529666666664, "is_disabled": 0, "is_reserved": 0, "lon": -77.04836533333334, "type": "electric_scooter", "fusion_lat": 0.0, "rental_uris": {"android": "https://dc.lft.to/lastmile_qr_scan", "ios": "https://dc.lft.to/lastmile_qr_scan"}}, {"bike_id": "b3b7abd248272f01784598065d9c8c4f", "fusion_lon": 0.0, "name": "b3b7abd248272f01784598065d9c8c4f", "lat": 38.88710783333333, "is_disabled": 0, "is_reserved": 0, "lon": -77.0024795, "type": "electric_scooter", "fusion_lat": 0.0, "rental_uris": {"android": "https://dc.lft.to/lastmile_qr_scan", "ios": "https://dc.lft.to/lastmile_qr_scan"}}, {"bike_id": "d5dcb2c462caad85aa94d7f8d6d23cf5", "fusion_lon": 0.0, "name": "d5dcb2c462caad85aa94d7f8d6d23cf5", "lat": 38.924180666666665, "is_disabled": 0, "is_reserved": 0, "lon": -77.02008616666667, "type": "electric_scooter", "fusion_lat": 0.0, "rental_uris": {"android": "https://dc.lft.to/lastmile_qr_scan", "ios": "https://dc.lft.to/lastmile_qr_scan"}}, {"bike_id": "3bc60a20bb951615755f5f0958bd4632", "fusion_lon": 0.0, "name": "3bc60a20bb951615755f5f0958bd4632", "lat": 38.8795445, "is_disabled": 0, "is_reserved": 0, "lon": -76.990099, "type": "electric_scooter", "fusion_lat": 0.0, "rental_uris": {"android": "https://dc.lft.to/lastmile_qr_scan", "ios": "https://dc.lft.to/lastmile_qr_scan"}}, {"bike_id": "d6ee326f23ad92993c43cef63f957282", "fusion_lon": 0.0, "name": "d6ee326f23ad92993c43cef63f957282", "lat": 38.899299666666664, "is_disabled": 0, "is_reserved": 0, "lon": -77.03296516666667, "type": "electric_scooter", "fusion_lat": 0.0, "rental_uris": {"android": "https://dc.lft.to/lastmile_qr_scan", "ios": "https://dc.lft.to/lastmile_qr_scan"}}, {"bike_id": "4965b142819667b7de7f5bede36daa1e", "fusion_lon": 0.0, "name": "4965b142819667b7de7f5bede36daa1e", "lat": 38.90728433333334, "is_disabled": 0, "is_reserved": 0, "lon": -77.04353983333333, "type": "electric_scooter", "fusion_lat": 0.0, "rental_uris": {"android": "https://dc.lft.to/lastmile_qr_scan", "ios": "https://dc.lft.to/lastmile_qr_scan"}}, {"bike_id": "1ed1dcfcbed306b37e025356724ec082", "fusion_lon": 0.0, "name": "1ed1dcfcbed306b37e025356724ec082", "lat": 38.85253066666667, "is_disabled": 0, "is_reserved": 0, "lon": -77.1078825, "type": "electric_bike", "fusion_lat": 0.0, "rental_uris": {"android": "https://dc.lft.to/lastmile_qr_scan", "ios": "https://dc.lft.to/lastmile_qr_scan"}}, {"bike_id": "2ad1830060caa7ab7d4d40fc07a80136", "fusion_lon": 0.0, "name": "2ad1830060caa7ab7d4d40fc07a80136", "lat": 38.804530666666665, "is_disabled": 0, "is_reserved": 0, "lon": -77.05387933333333, "type": "electric_bike", "fusion_lat": 0.0, "rental_uris": {"android": "https://dc.lft.to/lastmile_qr_scan", "ios": "https://dc.lft.to/lastmile_qr_scan"}}, {"bike_id": "07f737981b0d9a4a5fb802222da6e88e", "fusion_lon": 0.0, "name": "07f737981b0d9a4a5fb802222da6e88e", "lat": 38.905005, "is_disabled": 0, "is_reserved": 0, "lon": -77.058077, "type": "electric_scooter", "fusion_lat": 0.0, "rental_uris": {"android": "https://dc.lft.to/lastmile_qr_scan", "ios": "https://dc.lft.to/lastmile_qr_scan"}}, {"bike_id": "924e707cfb78c1f5fa768dc5c8aadf7d", "fusion_lon": 0.0, "name": "924e707cfb78c1f5fa768dc5c8aadf7d", "lat": 38.923353, "is_disabled": 0, "is_reserved": 0, "lon": -77.0351505, "type": "electric_scooter", "fusion_lat": 0.0, "rental_uris": {"android": "https://dc.lft.to/lastmile_qr_scan", "ios": "https://dc.lft.to/lastmile_qr_scan"}}, {"bike_id": "5d19d27918fb3407daba77578287540e", "fusion_lon": 0.0, "name": "5d19d27918fb3407daba77578287540e", "lat": 38.90311483333333, "is_disabled": 0, "is_reserved": 0, "lon": -77.04343666666666, "type": "electric_scooter", "fusion_lat": 0.0, "rental_uris": {"android": "https://dc.lft.to/lastmile_qr_scan", "ios": "https://dc.lft.to/lastmile_qr_scan"}}, {"bike_id": "ea6b6a43c6a41eb4dfd4fad4e8196312", "fusion_lon": 0.0, "name": "ea6b6a43c6a41eb4dfd4fad4e8196312", "lat": 38.923187666666664, "is_disabled": 0, "is_reserved": 0, "lon": -77.0391435, "type": "electric_scooter", "fusion_lat": 0.0, "rental_uris": {"android": "https://dc.lft.to/lastmile_qr_scan", "ios": "https://dc.lft.to/lastmile_qr_scan"}}, {"bike_id": "1a093938c38e8ec75c41ec42edc0641e", "fusion_lon": 0.0, "name": "1a093938c38e8ec75c41ec42edc0641e", "lat": 38.91918066666667, "is_disabled": 0, "is_reserved": 0, "lon": -77.03180133333333, "type": "electric_scooter", "fusion_lat": 0.0, "rental_uris": {"android": "https://dc.lft.to/lastmile_qr_scan", "ios": "https://dc.lft.to/lastmile_qr_scan"}}, {"bike_id": "ddd00cf85930967f90a95e258ea9b921", "fusion_lon": 0.0, "name": "ddd00cf85930967f90a95e258ea9b921", "lat": 38.88332616666667, "is_disabled": 0, "is_reserved": 0, "lon": -77.01772616666666, "type": "electric_scooter", "fusion_lat": 0.0, "rental_uris": {"android": "https://dc.lft.to/lastmile_qr_scan", "ios": "https://dc.lft.to/lastmile_qr_scan"}}, {"bike_id": "ddce0524226d82c2e86f62a52772de23", "fusion_lon": 0.0, "name": "ddce0524226d82c2e86f62a52772de23", "lat": 38.907249, "is_disabled": 0, "is_reserved": 0, "lon": -77.0343535, "type": "electric_scooter", "fusion_lat": 0.0, "rental_uris": {"android": "https://dc.lft.to/lastmile_qr_scan", "ios": "https://dc.lft.to/lastmile_qr_scan"}}, {"bike_id": "867aca54b8867e2f10c02b328c043d86", "fusion_lon": 0.0, "name": "867aca54b8867e2f10c02b328c043d86", "lat": 38.898311, "is_disabled": 0, "is_reserved": 0, "lon": -76.94628183333333, "type": "electric_scooter", "fusion_lat": 0.0, "rental_uris": {"android": "https://dc.lft.to/lastmile_qr_scan", "ios": "https://dc.lft.to/lastmile_qr_scan"}}, {"bike_id": "2fdc6e471e3fb2e73fd7b6dee0378317", "fusion_lon": 0.0, "name": "2fdc6e471e3fb2e73fd7b6dee0378317", "lat": 38.87924116666667, "is_disabled": 0, "is_reserved": 0, "lon": -77.0038395, "type": "electric_scooter", "fusion_lat": 0.0, "rental_uris": {"android": "https://dc.lft.to/lastmile_qr_scan", "ios": "https://dc.lft.to/lastmile_qr_scan"}}, {"bike_id": "5b550b2a5bf5ac3434a53a9a79ccacd3", "fusion_lon": 0.0, "name": "5b550b2a5bf5ac3434a53a9a79ccacd3", "lat": 38.9260715, "is_disabled": 0, "is_reserved": 0, "lon": -77.02153633333333, "type": "electric_scooter", "fusion_lat": 0.0, "rental_uris": {"android": "https://dc.lft.to/lastmile_qr_scan", "ios": "https://dc.lft.to/lastmile_qr_scan"}}, {"bike_id": "1af4ea63134ba373600d31d21c2c3d45", "fusion_lon": 0.0, "name": "1af4ea63134ba373600d31d21c2c3d45", "lat": 38.960863, "is_disabled": 0, "is_reserved": 0, "lon": -77.02882283333334, "type": "electric_scooter", "fusion_lat": 0.0, "rental_uris": {"android": "https://dc.lft.to/lastmile_qr_scan", "ios": "https://dc.lft.to/lastmile_qr_scan"}}, {"bike_id": "575a039241ad1686974e40800b653b8c", "fusion_lon": 0.0, "name": "575a039241ad1686974e40800b653b8c", "lat": 38.910460666666665, "is_disabled": 0, "is_reserved": 0, "lon": -76.99786083333333, "type": "electric_scooter", "fusion_lat": 0.0, "rental_uris": {"android": "https://dc.lft.to/lastmile_qr_scan", "ios": "https://dc.lft.to/lastmile_qr_scan"}}, {"bike_id": "7c7e8fa56fa4be574947b0239a0553ca", "fusion_lon": 0.0, "name": "7c7e8fa56fa4be574947b0239a0553ca", "lat": 38.821783, "is_disabled": 0, "is_reserved": 0, "lon": -76.99511833333334, "type": "electric_bike", "fusion_lat": 0.0, "rental_uris": {"android": "https://dc.lft.to/lastmile_qr_scan", "ios": "https://dc.lft.to/lastmile_qr_scan"}}, {"bike_id": "1aa47befa972f672cc5c5e06254d202e", "fusion_lon": 0.0, "name": "1aa47befa972f672cc5c5e06254d202e", "lat": 38.9139505, "is_disabled": 0, "is_reserved": 0, "lon": -77.038568, "type": "electric_scooter", "fusion_lat": 0.0, "rental_uris": {"android": "https://dc.lft.to/lastmile_qr_scan", "ios": "https://dc.lft.to/lastmile_qr_scan"}}, {"bike_id": "ff7f913f84c124a2b44bcd2ee0936cf6", "fusion_lon": 0.0, "name": "ff7f913f84c124a2b44bcd2ee0936cf6", "lat": 38.87351683333333, "is_disabled": 0, "is_reserved": 0, "lon": -77.00600483333334, "type": "electric_scooter", "fusion_lat": 0.0, "rental_uris": {"android": "https://dc.lft.to/lastmile_qr_scan", "ios": "https://dc.lft.to/lastmile_qr_scan"}}, {"bike_id": "225148cf8547599b9ab5d0c71b2a8c98", "fusion_lon": 0.0, "name": "225148cf8547599b9ab5d0c71b2a8c98", "lat": 38.9000585, "is_disabled": 0, "is_reserved": 0, "lon": -77.02001366666667, "type": "electric_scooter", "fusion_lat": 0.0, "rental_uris": {"android": "https://dc.lft.to/lastmile_qr_scan", "ios": "https://dc.lft.to/lastmile_qr_scan"}}, {"bike_id": "be704e652062c3e8661f7ded26d9e5a6", "fusion_lon": 0.0, "name": "be704e652062c3e8661f7ded26d9e5a6", "lat": 38.907335333333336, "is_disabled": 0, "is_reserved": 0, "lon": -77.02956266666666, "type": "electric_scooter", "fusion_lat": 0.0, "rental_uris": {"android": "https://dc.lft.to/lastmile_qr_scan", "ios": "https://dc.lft.to/lastmile_qr_scan"}}, {"bike_id": "fc7811fb2d7979ad68f30ac266c1fa75", "fusion_lon": 0.0, "name": "fc7811fb2d7979ad68f30ac266c1fa75", "lat": 38.92349016666667, "is_disabled": 0, "is_reserved": 0, "lon": -77.03213633333333, "type": "electric_scooter", "fusion_lat": 0.0, "rental_uris": {"android": "https://dc.lft.to/lastmile_qr_scan", "ios": "https://dc.lft.to/lastmile_qr_scan"}}, {"bike_id": "1a0f67b831ee180364e7be2ce05b2104", "fusion_lon": 0.0, "name": "1a0f67b831ee180364e7be2ce05b2104", "lat": 38.820000666666665, "is_disabled": 0, "is_reserved": 0, "lon": -76.99814383333333, "type": "electric_bike", "fusion_lat": 0.0, "rental_uris": {"android": "https://dc.lft.to/lastmile_qr_scan", "ios": "https://dc.lft.to/lastmile_qr_scan"}}, {"bike_id": "492767940ed37cd70285268f9da8e029", "fusion_lon": 0.0, "name": "492767940ed37cd70285268f9da8e029", "lat": 38.928837, "is_disabled": 0, "is_reserved": 0, "lon": -77.03252716666667, "type": "electric_scooter", "fusion_lat": 0.0, "rental_uris": {"android": "https://dc.lft.to/lastmile_qr_scan", "ios": "https://dc.lft.to/lastmile_qr_scan"}}, {"bike_id": "263eff6888185a9c09796f4d1850942a", "fusion_lon": 0.0, "name": "263eff6888185a9c09796f4d1850942a", "lat": 38.87627166666667, "is_disabled": 0, "is_reserved": 0, "lon": -77.00631866666667, "type": "electric_scooter", "fusion_lat": 0.0, "rental_uris": {"android": "https://dc.lft.to/lastmile_qr_scan", "ios": "https://dc.lft.to/lastmile_qr_scan"}}, {"bike_id": "ca9e7a8725fe040203231618f8e99498", "fusion_lon": 0.0, "name": "ca9e7a8725fe040203231618f8e99498", "lat": 38.903042666666664, "is_disabled": 0, "is_reserved": 0, "lon": -77.060255, "type": "electric_scooter", "fusion_lat": 0.0, "rental_uris": {"android": "https://dc.lft.to/lastmile_qr_scan", "ios": "https://dc.lft.to/lastmile_qr_scan"}}, {"bike_id": "54349798ee471b12d6950dc783470b9d", "fusion_lon": 0.0, "name": "54349798ee471b12d6950dc783470b9d", "lat": 38.8770085, "is_disabled": 0, "is_reserved": 0, "lon": -77.01765, "type": "electric_bike", "fusion_lat": 0.0, "rental_uris": {"android": "https://dc.lft.to/lastmile_qr_scan", "ios": "https://dc.lft.to/lastmile_qr_scan"}}, {"bike_id": "ca5b0013df876e15698f08d35dc8975c", "fusion_lon": 0.0, "name": "ca5b0013df876e15698f08d35dc8975c", "lat": 38.866312666666666, "is_disabled": 0, "is_reserved": 0, "lon": -76.98713016666666, "type": "electric_scooter", "fusion_lat": 0.0, "rental_uris": {"android": "https://dc.lft.to/lastmile_qr_scan", "ios": "https://dc.lft.to/lastmile_qr_scan"}}, {"bike_id": "8b42281021b9e440c26ea9592bde00a5", "fusion_lon": 0.0, "name": "8b42281021b9e440c26ea9592bde00a5", "lat": 38.922483, "is_disabled": 0, "is_reserved": 0, "lon": -77.02982533333333, "type": "electric_scooter", "fusion_lat": 0.0, "rental_uris": {"android": "https://dc.lft.to/lastmile_qr_scan", "ios": "https://dc.lft.to/lastmile_qr_scan"}}, {"bike_id": "fc5a6d3ee4310fd974ea8e827cfc93f8", "fusion_lon": 0.0, "name": "fc5a6d3ee4310fd974ea8e827cfc93f8", "lat": 38.90979083333333, "is_disabled": 0, "is_reserved": 0, "lon": -77.0344005, "type": "electric_scooter", "fusion_lat": 0.0, "rental_uris": {"android": "https://dc.lft.to/lastmile_qr_scan", "ios": "https://dc.lft.to/lastmile_qr_scan"}}, {"bike_id": "5635ad867a0c13dc282314ea9b441cfa", "fusion_lon": 0.0, "name": "5635ad867a0c13dc282314ea9b441cfa", "lat": 38.901384166666666, "is_disabled": 0, "is_reserved": 0, "lon": -77.034749, "type": "electric_scooter", "fusion_lat": 0.0, "rental_uris": {"android": "https://dc.lft.to/lastmile_qr_scan", "ios": "https://dc.lft.to/lastmile_qr_scan"}}, {"bike_id": "1cc0e894cfc3ecfee11445f229c77f07", "fusion_lon": 0.0, "name": "1cc0e894cfc3ecfee11445f229c77f07", "lat": 38.89882383333333, "is_disabled": 0, "is_reserved": 0, "lon": -77.0202765, "type": "electric_scooter", "fusion_lat": 0.0, "rental_uris": {"android": "https://dc.lft.to/lastmile_qr_scan", "ios": "https://dc.lft.to/lastmile_qr_scan"}}, {"bike_id": "d2034d18526378241fb5525f0e3a55a1", "fusion_lon": 0.0, "name": "d2034d18526378241fb5525f0e3a55a1", "lat": 38.856162166666664, "is_disabled": 0, "is_reserved": 0, "lon": -76.97275816666667, "type": "electric_scooter", "fusion_lat": 0.0, "rental_uris": {"android": "https://dc.lft.to/lastmile_qr_scan", "ios": "https://dc.lft.to/lastmile_qr_scan"}}, {"bike_id": "757dc85fd0aea3787f7ebca354234dee", "fusion_lon": 0.0, "name": "757dc85fd0aea3787f7ebca354234dee", "lat": 38.881342833333335, "is_disabled": 0, "is_reserved": 0, "lon": -77.02709516666667, "type": "electric_scooter", "fusion_lat": 0.0, "rental_uris": {"android": "https://dc.lft.to/lastmile_qr_scan", "ios": "https://dc.lft.to/lastmile_qr_scan"}}, {"bike_id": "8e8cb427d4679c72f8ef1e06c677faf6", "fusion_lon": 0.0, "name": "8e8cb427d4679c72f8ef1e06c677faf6", "lat": 38.9227425, "is_disabled": 0, "is_reserved": 0, "lon": -77.032651, "type": "electric_scooter", "fusion_lat": 0.0, "rental_uris": {"android": "https://dc.lft.to/lastmile_qr_scan", "ios": "https://dc.lft.to/lastmile_qr_scan"}}, {"bike_id": "4748f28ac4acb5c88a01ac1128e2297f", "fusion_lon": 0.0, "name": "4748f28ac4acb5c88a01ac1128e2297f", "lat": 38.909749166666664, "is_disabled": 0, "is_reserved": 0, "lon": -77.0344445, "type": "electric_scooter", "fusion_lat": 0.0, "rental_uris": {"android": "https://dc.lft.to/lastmile_qr_scan", "ios": "https://dc.lft.to/lastmile_qr_scan"}}, {"bike_id": "ccd38073ca12426f7b0d93a25ff92bca", "fusion_lon": 0.0, "name": "ccd38073ca12426f7b0d93a25ff92bca", "lat": 38.90118183333333, "is_disabled": 0, "is_reserved": 0, "lon": -77.0461095, "type": "electric_scooter", "fusion_lat": 0.0, "rental_uris": {"android": "https://dc.lft.to/lastmile_qr_scan", "ios": "https://dc.lft.to/lastmile_qr_scan"}}, {"bike_id": "04ec6efea263c1a38eefd78847bde976", "fusion_lon": 0.0, "name": "04ec6efea263c1a38eefd78847bde976", "lat": 38.89240066666667, "is_disabled": 0, "is_reserved": 0, "lon": -77.04869183333334, "type": "electric_scooter", "fusion_lat": 0.0, "rental_uris": {"android": "https://dc.lft.to/lastmile_qr_scan", "ios": "https://dc.lft.to/lastmile_qr_scan"}}, {"bike_id": "674d216690632351bfc1e597c9ac9b86", "fusion_lon": 0.0, "name": "674d216690632351bfc1e597c9ac9b86", "lat": 38.90240633333333, "is_disabled": 0, "is_reserved": 0, "lon": -77.0475065, "type": "electric_scooter", "fusion_lat": 0.0, "rental_uris": {"android": "https://dc.lft.to/lastmile_qr_scan", "ios": "https://dc.lft.to/lastmile_qr_scan"}}, {"bike_id": "b2ce913cd055a8abecbc631d88f48742", "fusion_lon": 0.0, "name": "b2ce913cd055a8abecbc631d88f48742", "lat": 38.89846983333333, "is_disabled": 0, "is_reserved": 0, "lon": -77.033279, "type": "electric_scooter", "fusion_lat": 0.0, "rental_uris": {"android": "https://dc.lft.to/lastmile_qr_scan", "ios": "https://dc.lft.to/lastmile_qr_scan"}}, {"bike_id": "08cb1d84b7ac9b2fb921e31c0a329754", "fusion_lon": 0.0, "name": "08cb1d84b7ac9b2fb921e31c0a329754", "lat": 38.887485, "is_disabled": 0, "is_reserved": 0, "lon": -77.02846816666667, "type": "electric_scooter", "fusion_lat": 0.0, "rental_uris": {"android": "https://dc.lft.to/lastmile_qr_scan", "ios": "https://dc.lft.to/lastmile_qr_scan"}}, {"bike_id": "232a6f64c75b13659670468ad8ebaf92", "fusion_lon": 0.0, "name": "232a6f64c75b13659670468ad8ebaf92", "lat": 38.8652245, "is_disabled": 0, "is_reserved": 0, "lon": -76.9733755, "type": "electric_bike", "fusion_lat": 0.0, "rental_uris": {"android": "https://dc.lft.to/lastmile_qr_scan", "ios": "https://dc.lft.to/lastmile_qr_scan"}}, {"bike_id": "fef6cd4abeb851cbc86964b9b1c52103", "fusion_lon": 0.0, "name": "fef6cd4abeb851cbc86964b9b1c52103", "lat": 38.8854105, "is_disabled": 0, "is_reserved": 0, "lon": -77.00050966666667, "type": "electric_scooter", "fusion_lat": 0.0, "rental_uris": {"android": "https://dc.lft.to/lastmile_qr_scan", "ios": "https://dc.lft.to/lastmile_qr_scan"}}, {"bike_id": "47689b68aaee9b8fd1f59d048ed9eaed", "fusion_lon": 0.0, "name": "47689b68aaee9b8fd1f59d048ed9eaed", "lat": 38.90732466666667, "is_disabled": 0, "is_reserved": 0, "lon": -77.02373333333334, "type": "electric_scooter", "fusion_lat": 0.0, "rental_uris": {"android": "https://dc.lft.to/lastmile_qr_scan", "ios": "https://dc.lft.to/lastmile_qr_scan"}}, {"bike_id": "34f1d828529a67d5dbf87e1649dba970", "fusion_lon": 0.0, "name": "34f1d828529a67d5dbf87e1649dba970", "lat": 38.924778, "is_disabled": 0, "is_reserved": 0, "lon": -77.022165, "type": "electric_scooter", "fusion_lat": 0.0, "rental_uris": {"android": "https://dc.lft.to/lastmile_qr_scan", "ios": "https://dc.lft.to/lastmile_qr_scan"}}, {"bike_id": "e6fff2803d3f2fc2214b070540a645dc", "fusion_lon": 0.0, "name": "e6fff2803d3f2fc2214b070540a645dc", "lat": 38.89226983333333, "is_disabled": 0, "is_reserved": 0, "lon": -77.041831, "type": "electric_scooter", "fusion_lat": 0.0, "rental_uris": {"android": "https://dc.lft.to/lastmile_qr_scan", "ios": "https://dc.lft.to/lastmile_qr_scan"}}, {"bike_id": "a1abb6d84f4b0ebee19e97e4b2c2534a", "fusion_lon": 0.0, "name": "a1abb6d84f4b0ebee19e97e4b2c2534a", "lat": 38.9095965, "is_disabled": 0, "is_reserved": 0, "lon": -76.98436016666666, "type": "electric_bike", "fusion_lat": 0.0, "rental_uris": {"android": "https://dc.lft.to/lastmile_qr_scan", "ios": "https://dc.lft.to/lastmile_qr_scan"}}, {"bike_id": "60114975bd80d200f340de3c2b2d80f4", "fusion_lon": 0.0, "name": "60114975bd80d200f340de3c2b2d80f4", "lat": 38.93611516666667, "is_disabled": 0, "is_reserved": 0, "lon": -77.05860016666666, "type": "electric_scooter", "fusion_lat": 0.0, "rental_uris": {"android": "https://dc.lft.to/lastmile_qr_scan", "ios": "https://dc.lft.to/lastmile_qr_scan"}}, {"bike_id": "a6496731d9c917284649a6a89c8585b8", "fusion_lon": 0.0, "name": "a6496731d9c917284649a6a89c8585b8", "lat": 38.82797083333333, "is_disabled": 0, "is_reserved": 0, "lon": -77.12487616666667, "type": "electric_bike", "fusion_lat": 0.0, "rental_uris": {"android": "https://dc.lft.to/lastmile_qr_scan", "ios": "https://dc.lft.to/lastmile_qr_scan"}}, {"bike_id": "24a9cf0eb53dadb5f502dc07c476aee2", "fusion_lon": 0.0, "name": "24a9cf0eb53dadb5f502dc07c476aee2", "lat": 38.90272016666667, "is_disabled": 0, "is_reserved": 0, "lon": -77.0531295, "type": "electric_scooter", "fusion_lat": 0.0, "rental_uris": {"android": "https://dc.lft.to/lastmile_qr_scan", "ios": "https://dc.lft.to/lastmile_qr_scan"}}, {"bike_id": "c2d526e3e3efc05f31e2adb173b24e63", "fusion_lon": 0.0, "name": "c2d526e3e3efc05f31e2adb173b24e63", "lat": 38.89726666666667, "is_disabled": 0, "is_reserved": 0, "lon": -77.027448, "type": "electric_scooter", "fusion_lat": 0.0, "rental_uris": {"android": "https://dc.lft.to/lastmile_qr_scan", "ios": "https://dc.lft.to/lastmile_qr_scan"}}, {"bike_id": "620256dd58961c973fc798a64e1b4e84", "fusion_lon": 0.0, "name": "620256dd58961c973fc798a64e1b4e84", "lat": 38.86685533333333, "is_disabled": 0, "is_reserved": 0, "lon": -76.98571433333333, "type": "electric_scooter", "fusion_lat": 0.0, "rental_uris": {"android": "https://dc.lft.to/lastmile_qr_scan", "ios": "https://dc.lft.to/lastmile_qr_scan"}}, {"bike_id": "27850f3befb968809d3bcc01c6ef6bb6", "fusion_lon": 0.0, "name": "27850f3befb968809d3bcc01c6ef6bb6", "lat": 38.92010033333333, "is_disabled": 0, "is_reserved": 0, "lon": -77.03211316666666, "type": "electric_scooter", "fusion_lat": 0.0, "rental_uris": {"android": "https://dc.lft.to/lastmile_qr_scan", "ios": "https://dc.lft.to/lastmile_qr_scan"}}, {"bike_id": "8de502f652254bfe62c253c60b324c56", "fusion_lon": 0.0, "name": "8de502f652254bfe62c253c60b324c56", "lat": 38.917102, "is_disabled": 0, "is_reserved": 0, "lon": -77.0416945, "type": "electric_scooter", "fusion_lat": 0.0, "rental_uris": {"android": "https://dc.lft.to/lastmile_qr_scan", "ios": "https://dc.lft.to/lastmile_qr_scan"}}, {"bike_id": "1ca9fc32ef5144cc35d7409a4d6ec7b4", "fusion_lon": 0.0, "name": "1ca9fc32ef5144cc35d7409a4d6ec7b4", "lat": 38.86630383333333, "is_disabled": 0, "is_reserved": 0, "lon": -76.98710516666667, "type": "electric_scooter", "fusion_lat": 0.0, "rental_uris": {"android": "https://dc.lft.to/lastmile_qr_scan", "ios": "https://dc.lft.to/lastmile_qr_scan"}}, {"bike_id": "068f999bdc62cdcb07f38981f65b169b", "fusion_lon": 0.0, "name": "068f999bdc62cdcb07f38981f65b169b", "lat": 38.9272615, "is_disabled": 0, "is_reserved": 0, "lon": -77.0400225, "type": "electric_scooter", "fusion_lat": 0.0, "rental_uris": {"android": "https://dc.lft.to/lastmile_qr_scan", "ios": "https://dc.lft.to/lastmile_qr_scan"}}, {"bike_id": "78ec5c2ebc27f892cbae7375869c6f1c", "fusion_lon": 0.0, "name": "78ec5c2ebc27f892cbae7375869c6f1c", "lat": 38.860383666666664, "is_disabled": 0, "is_reserved": 0, "lon": -76.98371866666666, "type": "electric_scooter", "fusion_lat": 0.0, "rental_uris": {"android": "https://dc.lft.to/lastmile_qr_scan", "ios": "https://dc.lft.to/lastmile_qr_scan"}}, {"bike_id": "4e5ab947f7bfeda6d61c295329d76b51", "fusion_lon": 0.0, "name": "4e5ab947f7bfeda6d61c295329d76b51", "lat": 38.91112283333333, "is_disabled": 0, "is_reserved": 0, "lon": -77.08134783333334, "type": "electric_scooter", "fusion_lat": 0.0, "rental_uris": {"android": "https://dc.lft.to/lastmile_qr_scan", "ios": "https://dc.lft.to/lastmile_qr_scan"}}, {"bike_id": "f6327d24be5b5bd575038e770f9e515b", "fusion_lon": 0.0, "name": "f6327d24be5b5bd575038e770f9e515b", "lat": 38.9235775, "is_disabled": 0, "is_reserved": 0, "lon": -77.03289783333334, "type": "electric_scooter", "fusion_lat": 0.0, "rental_uris": {"android": "https://dc.lft.to/lastmile_qr_scan", "ios": "https://dc.lft.to/lastmile_qr_scan"}}, {"bike_id": "05982091d75e2e0cb098705d5b187aa2", "fusion_lon": 0.0, "name": "05982091d75e2e0cb098705d5b187aa2", "lat": 38.87720783333333, "is_disabled": 0, "is_reserved": 0, "lon": -77.01760166666666, "type": "electric_scooter", "fusion_lat": 0.0, "rental_uris": {"android": "https://dc.lft.to/lastmile_qr_scan", "ios": "https://dc.lft.to/lastmile_qr_scan"}}, {"bike_id": "386d550810c0a301fe2d1460a7bc3a33", "fusion_lon": 0.0, "name": "386d550810c0a301fe2d1460a7bc3a33", "lat": 38.89581666666667, "is_disabled": 0, "is_reserved": 0, "lon": -77.023163, "type": "electric_scooter", "fusion_lat": 0.0, "rental_uris": {"android": "https://dc.lft.to/lastmile_qr_scan", "ios": "https://dc.lft.to/lastmile_qr_scan"}}, {"bike_id": "e969312732766cb55a2a1a816ca4c010", "fusion_lon": 0.0, "name": "e969312732766cb55a2a1a816ca4c010", "lat": 38.90273633333334, "is_disabled": 0, "is_reserved": 0, "lon": -77.033251, "type": "electric_scooter", "fusion_lat": 0.0, "rental_uris": {"android": "https://dc.lft.to/lastmile_qr_scan", "ios": "https://dc.lft.to/lastmile_qr_scan"}}, {"bike_id": "73a792309b48a7e701802e0bbaa5d741", "fusion_lon": 0.0, "name": "73a792309b48a7e701802e0bbaa5d741", "lat": 38.91787816666667, "is_disabled": 0, "is_reserved": 0, "lon": -77.0222205, "type": "electric_scooter", "fusion_lat": 0.0, "rental_uris": {"android": "https://dc.lft.to/lastmile_qr_scan", "ios": "https://dc.lft.to/lastmile_qr_scan"}}, {"bike_id": "1d062d0c87f708e3de1d6088e935eb49", "fusion_lon": 0.0, "name": "1d062d0c87f708e3de1d6088e935eb49", "lat": 38.87645533333333, "is_disabled": 0, "is_reserved": 0, "lon": -77.00921016666666, "type": "electric_scooter", "fusion_lat": 0.0, "rental_uris": {"android": "https://dc.lft.to/lastmile_qr_scan", "ios": "https://dc.lft.to/lastmile_qr_scan"}}, {"bike_id": "87b0bc5ea92bdf788727a3d34226d6ed", "fusion_lon": 0.0, "name": "87b0bc5ea92bdf788727a3d34226d6ed", "lat": 38.92419816666666, "is_disabled": 0, "is_reserved": 0, "lon": -77.02034966666666, "type": "electric_scooter", "fusion_lat": 0.0, "rental_uris": {"android": "https://dc.lft.to/lastmile_qr_scan", "ios": "https://dc.lft.to/lastmile_qr_scan"}}, {"bike_id": "64bbcaaf065c67d6e4b1ed980595f7fa", "fusion_lon": 0.0, "name": "64bbcaaf065c67d6e4b1ed980595f7fa", "lat": 38.9025905, "is_disabled": 0, "is_reserved": 0, "lon": -77.05324766666666, "type": "electric_scooter", "fusion_lat": 0.0, "rental_uris": {"android": "https://dc.lft.to/lastmile_qr_scan", "ios": "https://dc.lft.to/lastmile_qr_scan"}}, {"bike_id": "39323088cb3e0d1f1df3fd80db4316f8", "fusion_lon": 0.0, "name": "39323088cb3e0d1f1df3fd80db4316f8", "lat": 38.899009166666666, "is_disabled": 0, "is_reserved": 0, "lon": -77.002229, "type": "electric_scooter", "fusion_lat": 0.0, "rental_uris": {"android": "https://dc.lft.to/lastmile_qr_scan", "ios": "https://dc.lft.to/lastmile_qr_scan"}}, {"bike_id": "5d3738655f27936d165095116269c0ba", "fusion_lon": 0.0, "name": "5d3738655f27936d165095116269c0ba", "lat": 38.95596483333333, "is_disabled": 0, "is_reserved": 0, "lon": -77.0114985, "type": "electric_scooter", "fusion_lat": 0.0, "rental_uris": {"android": "https://dc.lft.to/lastmile_qr_scan", "ios": "https://dc.lft.to/lastmile_qr_scan"}}, {"bike_id": "860ef022ac092dc784e80e95c2c06f0f", "fusion_lon": 0.0, "name": "860ef022ac092dc784e80e95c2c06f0f", "lat": 38.916843, "is_disabled": 0, "is_reserved": 0, "lon": -77.003445, "type": "electric_scooter", "fusion_lat": 0.0, "rental_uris": {"android": "https://dc.lft.to/lastmile_qr_scan", "ios": "https://dc.lft.to/lastmile_qr_scan"}}, {"bike_id": "4982cb05050183ff7b5303bc76600343", "fusion_lon": 0.0, "name": "4982cb05050183ff7b5303bc76600343", "lat": 38.96507916666667, "is_disabled": 0, "is_reserved": 0, "lon": -77.02593883333333, "type": "electric_scooter", "fusion_lat": 0.0, "rental_uris": {"android": "https://dc.lft.to/lastmile_qr_scan", "ios": "https://dc.lft.to/lastmile_qr_scan"}}, {"bike_id": "3f8eb97ec36cad206363693369c86938", "fusion_lon": 0.0, "name": "3f8eb97ec36cad206363693369c86938", "lat": 38.90106333333333, "is_disabled": 0, "is_reserved": 0, "lon": -77.04620083333333, "type": "electric_scooter", "fusion_lat": 0.0, "rental_uris": {"android": "https://dc.lft.to/lastmile_qr_scan", "ios": "https://dc.lft.to/lastmile_qr_scan"}}, {"bike_id": "49f74b23209538eef50d8b5e0139fa0a", "fusion_lon": 0.0, "name": "49f74b23209538eef50d8b5e0139fa0a", "lat": 38.884919, "is_disabled": 0, "is_reserved": 0, "lon": -77.00707266666667, "type": "electric_scooter", "fusion_lat": 0.0, "rental_uris": {"android": "https://dc.lft.to/lastmile_qr_scan", "ios": "https://dc.lft.to/lastmile_qr_scan"}}, {"bike_id": "dc71bd4026685a2db09d567335ed1147", "fusion_lon": 0.0, "name": "dc71bd4026685a2db09d567335ed1147", "lat": 38.867664, "is_disabled": 0, "is_reserved": 0, "lon": -76.98277466666667, "type": "electric_scooter", "fusion_lat": 0.0, "rental_uris": {"android": "https://dc.lft.to/lastmile_qr_scan", "ios": "https://dc.lft.to/lastmile_qr_scan"}}, {"bike_id": "02d637886f22bc44e549aa6e62299625", "fusion_lon": 0.0, "name": "02d637886f22bc44e549aa6e62299625", "lat": 38.89436533333333, "is_disabled": 0, "is_reserved": 0, "lon": -76.97717266666666, "type": "electric_scooter", "fusion_lat": 0.0, "rental_uris": {"android": "https://dc.lft.to/lastmile_qr_scan", "ios": "https://dc.lft.to/lastmile_qr_scan"}}, {"bike_id": "ec1a8d00dd3bcde6adb165393f5c5d0a", "fusion_lon": 0.0, "name": "ec1a8d00dd3bcde6adb165393f5c5d0a", "lat": 38.90398716666667, "is_disabled": 0, "is_reserved": 0, "lon": -77.03396733333334, "type": "electric_scooter", "fusion_lat": 0.0, "rental_uris": {"android": "https://dc.lft.to/lastmile_qr_scan", "ios": "https://dc.lft.to/lastmile_qr_scan"}}, {"bike_id": "87d71cfc5b9821e259bb10eef1b9c423", "fusion_lon": 0.0, "name": "87d71cfc5b9821e259bb10eef1b9c423", "lat": 38.898717833333336, "is_disabled": 0, "is_reserved": 0, "lon": -76.94634866666667, "type": "electric_scooter", "fusion_lat": 0.0, "rental_uris": {"android": "https://dc.lft.to/lastmile_qr_scan", "ios": "https://dc.lft.to/lastmile_qr_scan"}}, {"bike_id": "190de4a34e1c6b1937bfd37b4835725a", "fusion_lon": 0.0, "name": "190de4a34e1c6b1937bfd37b4835725a", "lat": 38.890248, "is_disabled": 0, "is_reserved": 0, "lon": -76.9373035, "type": "electric_scooter", "fusion_lat": 0.0, "rental_uris": {"android": "https://dc.lft.to/lastmile_qr_scan", "ios": "https://dc.lft.to/lastmile_qr_scan"}}, {"bike_id": "21202e53acfccd47ca37e9cbd1b3c50c", "fusion_lon": 0.0, "name": "21202e53acfccd47ca37e9cbd1b3c50c", "lat": 38.8873985, "is_disabled": 0, "is_reserved": 0, "lon": -77.02579033333333, "type": "electric_scooter", "fusion_lat": 0.0, "rental_uris": {"android": "https://dc.lft.to/lastmile_qr_scan", "ios": "https://dc.lft.to/lastmile_qr_scan"}}, {"bike_id": "5e0df8dc15050171254ecad7d885337f", "fusion_lon": 0.0, "name": "5e0df8dc15050171254ecad7d885337f", "lat": 38.9352665, "is_disabled": 0, "is_reserved": 0, "lon": -77.07654283333333, "type": "electric_scooter", "fusion_lat": 0.0, "rental_uris": {"android": "https://dc.lft.to/lastmile_qr_scan", "ios": "https://dc.lft.to/lastmile_qr_scan"}}, {"bike_id": "cecf452aaea2ffee8e0e4a8bff8dbfea", "fusion_lon": 0.0, "name": "cecf452aaea2ffee8e0e4a8bff8dbfea", "lat": 38.8918935, "is_disabled": 0, "is_reserved": 0, "lon": -76.9281615, "type": "electric_bike", "fusion_lat": 0.0, "rental_uris": {"android": "https://dc.lft.to/lastmile_qr_scan", "ios": "https://dc.lft.to/lastmile_qr_scan"}}, {"bike_id": "6b6da5558c2c7179b5b5ec2aaddb5d05", "fusion_lon": 0.0, "name": "6b6da5558c2c7179b5b5ec2aaddb5d05", "lat": 38.932814, "is_disabled": 0, "is_reserved": 0, "lon": -77.04083633333333, "type": "electric_scooter", "fusion_lat": 0.0, "rental_uris": {"android": "https://dc.lft.to/lastmile_qr_scan", "ios": "https://dc.lft.to/lastmile_qr_scan"}}, {"bike_id": "595dc9429b22b0ebe3d6cc437bcac8a7", "fusion_lon": 0.0, "name": "595dc9429b22b0ebe3d6cc437bcac8a7", "lat": 38.923048, "is_disabled": 0, "is_reserved": 0, "lon": -77.04269166666667, "type": "electric_scooter", "fusion_lat": 0.0, "rental_uris": {"android": "https://dc.lft.to/lastmile_qr_scan", "ios": "https://dc.lft.to/lastmile_qr_scan"}}, {"bike_id": "232efbf5af44209969b8549b06a8c484", "fusion_lon": 0.0, "name": "232efbf5af44209969b8549b06a8c484", "lat": 38.912068166666664, "is_disabled": 0, "is_reserved": 0, "lon": -77.00382116666667, "type": "electric_scooter", "fusion_lat": 0.0, "rental_uris": {"android": "https://dc.lft.to/lastmile_qr_scan", "ios": "https://dc.lft.to/lastmile_qr_scan"}}, {"bike_id": "c0737d947320673a57f8dfdf43a31f06", "fusion_lon": 0.0, "name": "c0737d947320673a57f8dfdf43a31f06", "lat": 38.90973966666667, "is_disabled": 0, "is_reserved": 0, "lon": -77.032091, "type": "electric_scooter", "fusion_lat": 0.0, "rental_uris": {"android": "https://dc.lft.to/lastmile_qr_scan", "ios": "https://dc.lft.to/lastmile_qr_scan"}}, {"bike_id": "d0911e62854e6fdc03a4010dafc27609", "fusion_lon": 0.0, "name": "d0911e62854e6fdc03a4010dafc27609", "lat": 38.91727933333333, "is_disabled": 0, "is_reserved": 0, "lon": -77.02581233333333, "type": "electric_scooter", "fusion_lat": 0.0, "rental_uris": {"android": "https://dc.lft.to/lastmile_qr_scan", "ios": "https://dc.lft.to/lastmile_qr_scan"}}, {"bike_id": "836fbc77692bed4fb22bcc007bb3181f", "fusion_lon": 0.0, "name": "836fbc77692bed4fb22bcc007bb3181f", "lat": 38.88596233333333, "is_disabled": 0, "is_reserved": 0, "lon": -77.01718733333334, "type": "electric_scooter", "fusion_lat": 0.0, "rental_uris": {"android": "https://dc.lft.to/lastmile_qr_scan", "ios": "https://dc.lft.to/lastmile_qr_scan"}}, {"bike_id": "fe806a44e2c3efd4def8b1dd04aaf599", "fusion_lon": 0.0, "name": "fe806a44e2c3efd4def8b1dd04aaf599", "lat": 38.923483833333336, "is_disabled": 0, "is_reserved": 0, "lon": -77.04340566666667, "type": "electric_scooter", "fusion_lat": 0.0, "rental_uris": {"android": "https://dc.lft.to/lastmile_qr_scan", "ios": "https://dc.lft.to/lastmile_qr_scan"}}, {"bike_id": "7214736751c8fcaa1e561814985aeb83", "fusion_lon": 0.0, "name": "7214736751c8fcaa1e561814985aeb83", "lat": 38.91614166666667, "is_disabled": 0, "is_reserved": 0, "lon": -77.04621083333333, "type": "electric_scooter", "fusion_lat": 0.0, "rental_uris": {"android": "https://dc.lft.to/lastmile_qr_scan", "ios": "https://dc.lft.to/lastmile_qr_scan"}}, {"bike_id": "c9350981f912df5042f7ae26d4113504", "fusion_lon": 0.0, "name": "c9350981f912df5042f7ae26d4113504", "lat": 38.8980765, "is_disabled": 0, "is_reserved": 0, "lon": -77.02824733333334, "type": "electric_scooter", "fusion_lat": 0.0, "rental_uris": {"android": "https://dc.lft.to/lastmile_qr_scan", "ios": "https://dc.lft.to/lastmile_qr_scan"}}, {"bike_id": "30c08415a4f80bd99c3a8931805169a3", "fusion_lon": 0.0, "name": "30c08415a4f80bd99c3a8931805169a3", "lat": 38.93403266666667, "is_disabled": 0, "is_reserved": 0, "lon": -77.05741016666667, "type": "electric_scooter", "fusion_lat": 0.0, "rental_uris": {"android": "https://dc.lft.to/lastmile_qr_scan", "ios": "https://dc.lft.to/lastmile_qr_scan"}}, {"bike_id": "8d7d3e6032ce8ca9b505c592ac2cee95", "fusion_lon": 0.0, "name": "8d7d3e6032ce8ca9b505c592ac2cee95", "lat": 38.909757166666665, "is_disabled": 0, "is_reserved": 0, "lon": -77.03438816666667, "type": "electric_scooter", "fusion_lat": 0.0, "rental_uris": {"android": "https://dc.lft.to/lastmile_qr_scan", "ios": "https://dc.lft.to/lastmile_qr_scan"}}, {"bike_id": "91a4ad2d329944ca85aa4a63c0d3e6b3", "fusion_lon": 0.0, "name": "91a4ad2d329944ca85aa4a63c0d3e6b3", "lat": 38.89678766666667, "is_disabled": 0, "is_reserved": 0, "lon": -77.00514883333334, "type": "electric_scooter", "fusion_lat": 0.0, "rental_uris": {"android": "https://dc.lft.to/lastmile_qr_scan", "ios": "https://dc.lft.to/lastmile_qr_scan"}}, {"bike_id": "e9d149a6ec2b9875126d7bb66676ea35", "fusion_lon": 0.0, "name": "e9d149a6ec2b9875126d7bb66676ea35", "lat": 38.92414816666667, "is_disabled": 0, "is_reserved": 0, "lon": -77.02031883333333, "type": "electric_scooter", "fusion_lat": 0.0, "rental_uris": {"android": "https://dc.lft.to/lastmile_qr_scan", "ios": "https://dc.lft.to/lastmile_qr_scan"}}, {"bike_id": "30b24a3f03eca4bd2cf2a4b1ed8af710", "fusion_lon": 0.0, "name": "30b24a3f03eca4bd2cf2a4b1ed8af710", "lat": 38.91076783333333, "is_disabled": 0, "is_reserved": 0, "lon": -77.04134833333333, "type": "electric_scooter", "fusion_lat": 0.0, "rental_uris": {"android": "https://dc.lft.to/lastmile_qr_scan", "ios": "https://dc.lft.to/lastmile_qr_scan"}}, {"bike_id": "f5812097821af6a03b667dbea0227266", "fusion_lon": 0.0, "name": "f5812097821af6a03b667dbea0227266", "lat": 38.911266499999996, "is_disabled": 0, "is_reserved": 0, "lon": -77.02200933333333, "type": "electric_scooter", "fusion_lat": 0.0, "rental_uris": {"android": "https://dc.lft.to/lastmile_qr_scan", "ios": "https://dc.lft.to/lastmile_qr_scan"}}, {"bike_id": "2b0fa2d21507b0412d52f79c17ba8634", "fusion_lon": 0.0, "name": "2b0fa2d21507b0412d52f79c17ba8634", "lat": 38.93599833333333, "is_disabled": 0, "is_reserved": 0, "lon": -77.03805883333334, "type": "electric_scooter", "fusion_lat": 0.0, "rental_uris": {"android": "https://dc.lft.to/lastmile_qr_scan", "ios": "https://dc.lft.to/lastmile_qr_scan"}}, {"bike_id": "c6c1e101852956de80350073d24aaf52", "fusion_lon": 0.0, "name": "c6c1e101852956de80350073d24aaf52", "lat": 38.90398733333333, "is_disabled": 0, "is_reserved": 0, "lon": -76.98463616666666, "type": "electric_scooter", "fusion_lat": 0.0, "rental_uris": {"android": "https://dc.lft.to/lastmile_qr_scan", "ios": "https://dc.lft.to/lastmile_qr_scan"}}, {"bike_id": "e872b14c688e05ef1233630fc8c464c8", "fusion_lon": 0.0, "name": "e872b14c688e05ef1233630fc8c464c8", "lat": 38.924346, "is_disabled": 0, "is_reserved": 0, "lon": -77.04246833333333, "type": "electric_scooter", "fusion_lat": 0.0, "rental_uris": {"android": "https://dc.lft.to/lastmile_qr_scan", "ios": "https://dc.lft.to/lastmile_qr_scan"}}, {"bike_id": "9ac9f320ac87b62fa6a23f198a2e9019", "fusion_lon": 0.0, "name": "9ac9f320ac87b62fa6a23f198a2e9019", "lat": 38.88720416666666, "is_disabled": 0, "is_reserved": 0, "lon": -77.02205, "type": "electric_scooter", "fusion_lat": 0.0, "rental_uris": {"android": "https://dc.lft.to/lastmile_qr_scan", "ios": "https://dc.lft.to/lastmile_qr_scan"}}, {"bike_id": "e419b2baa31f451e60bfd3baaca751ce", "fusion_lon": 0.0, "name": "e419b2baa31f451e60bfd3baaca751ce", "lat": 38.917117, "is_disabled": 0, "is_reserved": 0, "lon": -77.03222833333334, "type": "electric_scooter", "fusion_lat": 0.0, "rental_uris": {"android": "https://dc.lft.to/lastmile_qr_scan", "ios": "https://dc.lft.to/lastmile_qr_scan"}}, {"bike_id": "75e6dfc673faef64e4c9e69a6f708a50", "fusion_lon": 0.0, "name": "75e6dfc673faef64e4c9e69a6f708a50", "lat": 38.90763066666667, "is_disabled": 0, "is_reserved": 0, "lon": -77.00141666666667, "type": "electric_scooter", "fusion_lat": 0.0, "rental_uris": {"android": "https://dc.lft.to/lastmile_qr_scan", "ios": "https://dc.lft.to/lastmile_qr_scan"}}, {"bike_id": "c3ef7fdb04a17629f049e30719dcec72", "fusion_lon": 0.0, "name": "c3ef7fdb04a17629f049e30719dcec72", "lat": 38.904189833333334, "is_disabled": 0, "is_reserved": 0, "lon": -77.04351416666667, "type": "electric_scooter", "fusion_lat": 0.0, "rental_uris": {"android": "https://dc.lft.to/lastmile_qr_scan", "ios": "https://dc.lft.to/lastmile_qr_scan"}}, {"bike_id": "56bde01260f79ea35fb576ac3e90fce5", "fusion_lon": 0.0, "name": "56bde01260f79ea35fb576ac3e90fce5", "lat": 38.919900166666665, "is_disabled": 0, "is_reserved": 0, "lon": -76.973031, "type": "electric_scooter", "fusion_lat": 0.0, "rental_uris": {"android": "https://dc.lft.to/lastmile_qr_scan", "ios": "https://dc.lft.to/lastmile_qr_scan"}}, {"bike_id": "fad9a5d830ca509ce0155274709d6a86", "fusion_lon": 0.0, "name": "fad9a5d830ca509ce0155274709d6a86", "lat": 38.881795, "is_disabled": 0, "is_reserved": 0, "lon": -76.95899983333334, "type": "electric_scooter", "fusion_lat": 0.0, "rental_uris": {"android": "https://dc.lft.to/lastmile_qr_scan", "ios": "https://dc.lft.to/lastmile_qr_scan"}}, {"bike_id": "34c96bb8dd94384565963aeaab74a99e", "fusion_lon": 0.0, "name": "34c96bb8dd94384565963aeaab74a99e", "lat": 38.91685316666667, "is_disabled": 0, "is_reserved": 0, "lon": -77.029473, "type": "electric_scooter", "fusion_lat": 0.0, "rental_uris": {"android": "https://dc.lft.to/lastmile_qr_scan", "ios": "https://dc.lft.to/lastmile_qr_scan"}}, {"bike_id": "1ffbc4fc66c8bb2939e2b811beddd5d5", "fusion_lon": 0.0, "name": "1ffbc4fc66c8bb2939e2b811beddd5d5", "lat": 38.88431966666667, "is_disabled": 0, "is_reserved": 0, "lon": -77.03046266666666, "type": "electric_scooter", "fusion_lat": 0.0, "rental_uris": {"android": "https://dc.lft.to/lastmile_qr_scan", "ios": "https://dc.lft.to/lastmile_qr_scan"}}, {"bike_id": "7828a3ccaf85992ba7942f8059f3cabc", "fusion_lon": 0.0, "name": "7828a3ccaf85992ba7942f8059f3cabc", "lat": 38.931833833333336, "is_disabled": 0, "is_reserved": 0, "lon": -77.04299316666666, "type": "electric_scooter", "fusion_lat": 0.0, "rental_uris": {"android": "https://dc.lft.to/lastmile_qr_scan", "ios": "https://dc.lft.to/lastmile_qr_scan"}}, {"bike_id": "1526b521fd9218f9f0a543780e92a89b", "fusion_lon": 0.0, "name": "1526b521fd9218f9f0a543780e92a89b", "lat": 38.92954733333333, "is_disabled": 0, "is_reserved": 0, "lon": -77.0440545, "type": "electric_scooter", "fusion_lat": 0.0, "rental_uris": {"android": "https://dc.lft.to/lastmile_qr_scan", "ios": "https://dc.lft.to/lastmile_qr_scan"}}, {"bike_id": "e526204db98a0bdccc0a0e6d41240446", "fusion_lon": 0.0, "name": "e526204db98a0bdccc0a0e6d41240446", "lat": 38.942304, "is_disabled": 0, "is_reserved": 0, "lon": -76.96586066666667, "type": "electric_bike", "fusion_lat": 0.0, "rental_uris": {"android": "https://dc.lft.to/lastmile_qr_scan", "ios": "https://dc.lft.to/lastmile_qr_scan"}}, {"bike_id": "98b7f016da98e1daa3748f9e20b7a13e", "fusion_lon": 0.0, "name": "98b7f016da98e1daa3748f9e20b7a13e", "lat": 38.920530166666666, "is_disabled": 0, "is_reserved": 0, "lon": -77.025743, "type": "electric_scooter", "fusion_lat": 0.0, "rental_uris": {"android": "https://dc.lft.to/lastmile_qr_scan", "ios": "https://dc.lft.to/lastmile_qr_scan"}}, {"bike_id": "39ee70994069f60f6ab1b910af17adaa", "fusion_lon": 0.0, "name": "39ee70994069f60f6ab1b910af17adaa", "lat": 38.8555495, "is_disabled": 0, "is_reserved": 0, "lon": -76.98751783333333, "type": "electric_scooter", "fusion_lat": 0.0, "rental_uris": {"android": "https://dc.lft.to/lastmile_qr_scan", "ios": "https://dc.lft.to/lastmile_qr_scan"}}, {"bike_id": "6727240c20739e911537129678fe2bcc", "fusion_lon": 0.0, "name": "6727240c20739e911537129678fe2bcc", "lat": 38.9230235, "is_disabled": 0, "is_reserved": 0, "lon": -77.04272916666666, "type": "electric_scooter", "fusion_lat": 0.0, "rental_uris": {"android": "https://dc.lft.to/lastmile_qr_scan", "ios": "https://dc.lft.to/lastmile_qr_scan"}}, {"bike_id": "f113c8f084243b9ad4621b39fe0114de", "fusion_lon": 0.0, "name": "f113c8f084243b9ad4621b39fe0114de", "lat": 38.9061245, "is_disabled": 0, "is_reserved": 0, "lon": -77.003706, "type": "electric_scooter", "fusion_lat": 0.0, "rental_uris": {"android": "https://dc.lft.to/lastmile_qr_scan", "ios": "https://dc.lft.to/lastmile_qr_scan"}}, {"bike_id": "b6ea0f64654e83b9975b77d2e69eb743", "fusion_lon": 0.0, "name": "b6ea0f64654e83b9975b77d2e69eb743", "lat": 38.90110766666667, "is_disabled": 0, "is_reserved": 0, "lon": -77.04481533333333, "type": "electric_scooter", "fusion_lat": 0.0, "rental_uris": {"android": "https://dc.lft.to/lastmile_qr_scan", "ios": "https://dc.lft.to/lastmile_qr_scan"}}, {"bike_id": "cb0acb4db3aabc5d8ec1985618073b90", "fusion_lon": 0.0, "name": "cb0acb4db3aabc5d8ec1985618073b90", "lat": 38.9223905, "is_disabled": 0, "is_reserved": 0, "lon": -77.02092816666666, "type": "electric_scooter", "fusion_lat": 0.0, "rental_uris": {"android": "https://dc.lft.to/lastmile_qr_scan", "ios": "https://dc.lft.to/lastmile_qr_scan"}}, {"bike_id": "fff8ffcd9bc610a78c112526c8f3b9cd", "fusion_lon": 0.0, "name": "fff8ffcd9bc610a78c112526c8f3b9cd", "lat": 38.909443833333334, "is_disabled": 0, "is_reserved": 0, "lon": -77.0281735, "type": "electric_scooter", "fusion_lat": 0.0, "rental_uris": {"android": "https://dc.lft.to/lastmile_qr_scan", "ios": "https://dc.lft.to/lastmile_qr_scan"}}, {"bike_id": "6755a5a94f720ca6983ae0d98a9b427e", "fusion_lon": 0.0, "name": "6755a5a94f720ca6983ae0d98a9b427e", "lat": 38.92506516666667, "is_disabled": 0, "is_reserved": 0, "lon": -77.002242, "type": "electric_scooter", "fusion_lat": 0.0, "rental_uris": {"android": "https://dc.lft.to/lastmile_qr_scan", "ios": "https://dc.lft.to/lastmile_qr_scan"}}, {"bike_id": "6f9829e93407082aae9edf5ef43c9bf4", "fusion_lon": 0.0, "name": "6f9829e93407082aae9edf5ef43c9bf4", "lat": 38.92318016666667, "is_disabled": 0, "is_reserved": 0, "lon": -77.03908933333334, "type": "electric_scooter", "fusion_lat": 0.0, "rental_uris": {"android": "https://dc.lft.to/lastmile_qr_scan", "ios": "https://dc.lft.to/lastmile_qr_scan"}}, {"bike_id": "cdf492cb35d8afea13d7451977075211", "fusion_lon": 0.0, "name": "cdf492cb35d8afea13d7451977075211", "lat": 38.91990533333333, "is_disabled": 0, "is_reserved": 0, "lon": -76.97308283333334, "type": "electric_scooter", "fusion_lat": 0.0, "rental_uris": {"android": "https://dc.lft.to/lastmile_qr_scan", "ios": "https://dc.lft.to/lastmile_qr_scan"}}, {"bike_id": "8c261255bc1c92af38af05dfe519dc10", "fusion_lon": 0.0, "name": "8c261255bc1c92af38af05dfe519dc10", "lat": 38.897472666666665, "is_disabled": 0, "is_reserved": 0, "lon": -77.00917533333333, "type": "electric_scooter", "fusion_lat": 0.0, "rental_uris": {"android": "https://dc.lft.to/lastmile_qr_scan", "ios": "https://dc.lft.to/lastmile_qr_scan"}}, {"bike_id": "9951c995889a1c41eee1a7501fd82ed4", "fusion_lon": 0.0, "name": "9951c995889a1c41eee1a7501fd82ed4", "lat": 38.840889833333335, "is_disabled": 0, "is_reserved": 0, "lon": -76.97027383333334, "type": "electric_bike", "fusion_lat": 0.0, "rental_uris": {"android": "https://dc.lft.to/lastmile_qr_scan", "ios": "https://dc.lft.to/lastmile_qr_scan"}}, {"bike_id": "30572664e2354f44aa8421bf54f0e799", "fusion_lon": 0.0, "name": "30572664e2354f44aa8421bf54f0e799", "lat": 38.897423, "is_disabled": 0, "is_reserved": 0, "lon": -77.04593616666666, "type": "electric_scooter", "fusion_lat": 0.0, "rental_uris": {"android": "https://dc.lft.to/lastmile_qr_scan", "ios": "https://dc.lft.to/lastmile_qr_scan"}}, {"bike_id": "cee5023b0546b8daf8b7c552757a8e58", "fusion_lon": 0.0, "name": "cee5023b0546b8daf8b7c552757a8e58", "lat": 38.883592, "is_disabled": 0, "is_reserved": 0, "lon": -76.98210683333333, "type": "electric_bike", "fusion_lat": 0.0, "rental_uris": {"android": "https://dc.lft.to/lastmile_qr_scan", "ios": "https://dc.lft.to/lastmile_qr_scan"}}, {"bike_id": "46411ebdce284b151debafd936d4e656", "fusion_lon": 0.0, "name": "46411ebdce284b151debafd936d4e656", "lat": 38.884414166666666, "is_disabled": 0, "is_reserved": 0, "lon": -77.01541616666667, "type": "electric_scooter", "fusion_lat": 0.0, "rental_uris": {"android": "https://dc.lft.to/lastmile_qr_scan", "ios": "https://dc.lft.to/lastmile_qr_scan"}}, {"bike_id": "4bc1ba633b7c73375775a0009696bd8e", "fusion_lon": 0.0, "name": "4bc1ba633b7c73375775a0009696bd8e", "lat": 38.950235666666664, "is_disabled": 0, "is_reserved": 0, "lon": -77.03350233333333, "type": "electric_scooter", "fusion_lat": 0.0, "rental_uris": {"android": "https://dc.lft.to/lastmile_qr_scan", "ios": "https://dc.lft.to/lastmile_qr_scan"}}, {"bike_id": "85f1591d7ae7a9830e1d9bb6143d0ccd", "fusion_lon": 0.0, "name": "85f1591d7ae7a9830e1d9bb6143d0ccd", "lat": 38.8923555, "is_disabled": 0, "is_reserved": 0, "lon": -77.02826833333333, "type": "electric_scooter", "fusion_lat": 0.0, "rental_uris": {"android": "https://dc.lft.to/lastmile_qr_scan", "ios": "https://dc.lft.to/lastmile_qr_scan"}}, {"bike_id": "bc95fb9f95a896b2393ae495347d3cf4", "fusion_lon": 0.0, "name": "bc95fb9f95a896b2393ae495347d3cf4", "lat": 38.893949, "is_disabled": 0, "is_reserved": 0, "lon": -77.01961266666666, "type": "electric_scooter", "fusion_lat": 0.0, "rental_uris": {"android": "https://dc.lft.to/lastmile_qr_scan", "ios": "https://dc.lft.to/lastmile_qr_scan"}}, {"bike_id": "a1f50e24c59cdd774298f45bd7239d11", "fusion_lon": 0.0, "name": "a1f50e24c59cdd774298f45bd7239d11", "lat": 38.941357833333335, "is_disabled": 0, "is_reserved": 0, "lon": -77.0154075, "type": "electric_scooter", "fusion_lat": 0.0, "rental_uris": {"android": "https://dc.lft.to/lastmile_qr_scan", "ios": "https://dc.lft.to/lastmile_qr_scan"}}, {"bike_id": "7b49d4038ca9e08a39a97f8bc443fb5c", "fusion_lon": 0.0, "name": "7b49d4038ca9e08a39a97f8bc443fb5c", "lat": 38.92751483333333, "is_disabled": 0, "is_reserved": 0, "lon": -77.0253335, "type": "electric_scooter", "fusion_lat": 0.0, "rental_uris": {"android": "https://dc.lft.to/lastmile_qr_scan", "ios": "https://dc.lft.to/lastmile_qr_scan"}}, {"bike_id": "0a6fdb27a536b3b527ba0566d464bd79", "fusion_lon": 0.0, "name": "0a6fdb27a536b3b527ba0566d464bd79", "lat": 38.9252245, "is_disabled": 0, "is_reserved": 0, "lon": -77.051274, "type": "electric_scooter", "fusion_lat": 0.0, "rental_uris": {"android": "https://dc.lft.to/lastmile_qr_scan", "ios": "https://dc.lft.to/lastmile_qr_scan"}}, {"bike_id": "16e9e0b56bca3656935bddd1c99defb8", "fusion_lon": 0.0, "name": "16e9e0b56bca3656935bddd1c99defb8", "lat": 38.8967775, "is_disabled": 0, "is_reserved": 0, "lon": -77.032258, "type": "electric_scooter", "fusion_lat": 0.0, "rental_uris": {"android": "https://dc.lft.to/lastmile_qr_scan", "ios": "https://dc.lft.to/lastmile_qr_scan"}}, {"bike_id": "69b73f5395074c64c0d7f16d09a5b15b", "fusion_lon": 0.0, "name": "69b73f5395074c64c0d7f16d09a5b15b", "lat": 38.9390015, "is_disabled": 0, "is_reserved": 0, "lon": -77.03341633333334, "type": "electric_scooter", "fusion_lat": 0.0, "rental_uris": {"android": "https://dc.lft.to/lastmile_qr_scan", "ios": "https://dc.lft.to/lastmile_qr_scan"}}, {"bike_id": "c2cce67eb4980d59072f810b826ca146", "fusion_lon": 0.0, "name": "c2cce67eb4980d59072f810b826ca146", "lat": 38.91716383333333, "is_disabled": 0, "is_reserved": 0, "lon": -77.02399366666667, "type": "electric_scooter", "fusion_lat": 0.0, "rental_uris": {"android": "https://dc.lft.to/lastmile_qr_scan", "ios": "https://dc.lft.to/lastmile_qr_scan"}}, {"bike_id": "ff7a406af7617b9aa25c6b0a58c9221c", "fusion_lon": 0.0, "name": "ff7a406af7617b9aa25c6b0a58c9221c", "lat": 38.900293166666664, "is_disabled": 0, "is_reserved": 0, "lon": -76.98747333333333, "type": "electric_scooter", "fusion_lat": 0.0, "rental_uris": {"android": "https://dc.lft.to/lastmile_qr_scan", "ios": "https://dc.lft.to/lastmile_qr_scan"}}, {"bike_id": "fa89a314e87b10d91f2c1f4777769f29", "fusion_lon": 0.0, "name": "fa89a314e87b10d91f2c1f4777769f29", "lat": 38.912715666666664, "is_disabled": 0, "is_reserved": 0, "lon": -77.038277, "type": "electric_scooter", "fusion_lat": 0.0, "rental_uris": {"android": "https://dc.lft.to/lastmile_qr_scan", "ios": "https://dc.lft.to/lastmile_qr_scan"}}, {"bike_id": "ffe96bf974ced01b7f0359bce0e5dc67", "fusion_lon": 0.0, "name": "ffe96bf974ced01b7f0359bce0e5dc67", "lat": 38.92840783333333, "is_disabled": 0, "is_reserved": 0, "lon": -77.0141615, "type": "electric_scooter", "fusion_lat": 0.0, "rental_uris": {"android": "https://dc.lft.to/lastmile_qr_scan", "ios": "https://dc.lft.to/lastmile_qr_scan"}}, {"bike_id": "5f1c5ddc17e29ad37e39a6e1144e4c81", "fusion_lon": 0.0, "name": "5f1c5ddc17e29ad37e39a6e1144e4c81", "lat": 38.9282695, "is_disabled": 0, "is_reserved": 0, "lon": -77.054355, "type": "electric_scooter", "fusion_lat": 0.0, "rental_uris": {"android": "https://dc.lft.to/lastmile_qr_scan", "ios": "https://dc.lft.to/lastmile_qr_scan"}}, {"bike_id": "4f8228f37ab54d5ab33233cee5a28172", "fusion_lon": 0.0, "name": "4f8228f37ab54d5ab33233cee5a28172", "lat": 38.895925, "is_disabled": 0, "is_reserved": 0, "lon": -77.0257745, "type": "electric_scooter", "fusion_lat": 0.0, "rental_uris": {"android": "https://dc.lft.to/lastmile_qr_scan", "ios": "https://dc.lft.to/lastmile_qr_scan"}}, {"bike_id": "20fce1450398bc1cb16a28e0e0e31761", "fusion_lon": 0.0, "name": "20fce1450398bc1cb16a28e0e0e31761", "lat": 38.9230815, "is_disabled": 0, "is_reserved": 0, "lon": -77.04175383333333, "type": "electric_scooter", "fusion_lat": 0.0, "rental_uris": {"android": "https://dc.lft.to/lastmile_qr_scan", "ios": "https://dc.lft.to/lastmile_qr_scan"}}, {"bike_id": "70ed5abe0ec8983381e091da14a99775", "fusion_lon": 0.0, "name": "70ed5abe0ec8983381e091da14a99775", "lat": 38.92218583333333, "is_disabled": 0, "is_reserved": 0, "lon": -77.04236066666667, "type": "electric_bike", "fusion_lat": 0.0, "rental_uris": {"android": "https://dc.lft.to/lastmile_qr_scan", "ios": "https://dc.lft.to/lastmile_qr_scan"}}, {"bike_id": "dd249bc1b920dbd61056c102dd5c1af6", "fusion_lon": 0.0, "name": "dd249bc1b920dbd61056c102dd5c1af6", "lat": 38.91543933333333, "is_disabled": 0, "is_reserved": 0, "lon": -77.03857316666667, "type": "electric_scooter", "fusion_lat": 0.0, "rental_uris": {"android": "https://dc.lft.to/lastmile_qr_scan", "ios": "https://dc.lft.to/lastmile_qr_scan"}}, {"bike_id": "c0d4706b2f55532f28f6a880ed199834", "fusion_lon": 0.0, "name": "c0d4706b2f55532f28f6a880ed199834", "lat": 38.925507333333336, "is_disabled": 0, "is_reserved": 0, "lon": -77.001572, "type": "electric_bike", "fusion_lat": 0.0, "rental_uris": {"android": "https://dc.lft.to/lastmile_qr_scan", "ios": "https://dc.lft.to/lastmile_qr_scan"}}, {"bike_id": "1172b60799ccd960902139e09c8a08d2", "fusion_lon": 0.0, "name": "1172b60799ccd960902139e09c8a08d2", "lat": 38.884348, "is_disabled": 0, "is_reserved": 0, "lon": -77.0254715, "type": "electric_scooter", "fusion_lat": 0.0, "rental_uris": {"android": "https://dc.lft.to/lastmile_qr_scan", "ios": "https://dc.lft.to/lastmile_qr_scan"}}, {"bike_id": "50d53aa160103d0fa07e3bd2ec59120a", "fusion_lon": 0.0, "name": "50d53aa160103d0fa07e3bd2ec59120a", "lat": 38.8921365, "is_disabled": 0, "is_reserved": 0, "lon": -76.99574833333334, "type": "electric_scooter", "fusion_lat": 0.0, "rental_uris": {"android": "https://dc.lft.to/lastmile_qr_scan", "ios": "https://dc.lft.to/lastmile_qr_scan"}}, {"bike_id": "a3dac2561639dbd5b63d8e02b833618d", "fusion_lon": 0.0, "name": "a3dac2561639dbd5b63d8e02b833618d", "lat": 38.92220483333333, "is_disabled": 0, "is_reserved": 0, "lon": -77.20135583333334, "type": "electric_bike", "fusion_lat": 0.0, "rental_uris": {"android": "https://dc.lft.to/lastmile_qr_scan", "ios": "https://dc.lft.to/lastmile_qr_scan"}}, {"bike_id": "219c9039f78c7dab5c9770f90d595ac0", "fusion_lon": 0.0, "name": "219c9039f78c7dab5c9770f90d595ac0", "lat": 38.88751083333333, "is_disabled": 0, "is_reserved": 0, "lon": -76.983562, "type": "electric_scooter", "fusion_lat": 0.0, "rental_uris": {"android": "https://dc.lft.to/lastmile_qr_scan", "ios": "https://dc.lft.to/lastmile_qr_scan"}}, {"bike_id": "0436da1504584f206194f650baa6104e", "fusion_lon": 0.0, "name": "0436da1504584f206194f650baa6104e", "lat": 38.92237033333333, "is_disabled": 0, "is_reserved": 0, "lon": -77.02123883333333, "type": "electric_scooter", "fusion_lat": 0.0, "rental_uris": {"android": "https://dc.lft.to/lastmile_qr_scan", "ios": "https://dc.lft.to/lastmile_qr_scan"}}, {"bike_id": "95830d11840461c69997f9c217264c03", "fusion_lon": 0.0, "name": "95830d11840461c69997f9c217264c03", "lat": 38.90031783333333, "is_disabled": 0, "is_reserved": 0, "lon": -76.987017, "type": "electric_scooter", "fusion_lat": 0.0, "rental_uris": {"android": "https://dc.lft.to/lastmile_qr_scan", "ios": "https://dc.lft.to/lastmile_qr_scan"}}, {"bike_id": "be1fc71499378223ff52b92869bdfedb", "fusion_lon": 0.0, "name": "be1fc71499378223ff52b92869bdfedb", "lat": 38.960383, "is_disabled": 0, "is_reserved": 0, "lon": -77.0718775, "type": "electric_scooter", "fusion_lat": 0.0, "rental_uris": {"android": "https://dc.lft.to/lastmile_qr_scan", "ios": "https://dc.lft.to/lastmile_qr_scan"}}, {"bike_id": "0fea31c80480d473f5707700f0672530", "fusion_lon": 0.0, "name": "0fea31c80480d473f5707700f0672530", "lat": 38.896936333333336, "is_disabled": 0, "is_reserved": 0, "lon": -77.04661883333333, "type": "electric_scooter", "fusion_lat": 0.0, "rental_uris": {"android": "https://dc.lft.to/lastmile_qr_scan", "ios": "https://dc.lft.to/lastmile_qr_scan"}}, {"bike_id": "74b7fdcf71ce510592e6b63df3600407", "fusion_lon": 0.0, "name": "74b7fdcf71ce510592e6b63df3600407", "lat": 38.905669833333334, "is_disabled": 0, "is_reserved": 0, "lon": -77.01308666666667, "type": "electric_scooter", "fusion_lat": 0.0, "rental_uris": {"android": "https://dc.lft.to/lastmile_qr_scan", "ios": "https://dc.lft.to/lastmile_qr_scan"}}, {"bike_id": "048c9eca0cba984841befa087682013e", "fusion_lon": 0.0, "name": "048c9eca0cba984841befa087682013e", "lat": 38.9169615, "is_disabled": 0, "is_reserved": 0, "lon": -77.0376575, "type": "electric_scooter", "fusion_lat": 0.0, "rental_uris": {"android": "https://dc.lft.to/lastmile_qr_scan", "ios": "https://dc.lft.to/lastmile_qr_scan"}}, {"bike_id": "4b685b03fb2e7dfd7e88020362246362", "fusion_lon": 0.0, "name": "4b685b03fb2e7dfd7e88020362246362", "lat": 38.89229, "is_disabled": 0, "is_reserved": 0, "lon": -77.04305683333334, "type": "electric_scooter", "fusion_lat": 0.0, "rental_uris": {"android": "https://dc.lft.to/lastmile_qr_scan", "ios": "https://dc.lft.to/lastmile_qr_scan"}}, {"bike_id": "cf83937ce3399e5da60f80c5cdf14319", "fusion_lon": 0.0, "name": "cf83937ce3399e5da60f80c5cdf14319", "lat": 38.917763666666666, "is_disabled": 0, "is_reserved": 0, "lon": -77.022775, "type": "electric_scooter", "fusion_lat": 0.0, "rental_uris": {"android": "https://dc.lft.to/lastmile_qr_scan", "ios": "https://dc.lft.to/lastmile_qr_scan"}}, {"bike_id": "a47ecdddf9d700e5d6ae82afe57b80e7", "fusion_lon": 0.0, "name": "a47ecdddf9d700e5d6ae82afe57b80e7", "lat": 38.897963, "is_disabled": 0, "is_reserved": 0, "lon": -77.00587533333334, "type": "electric_bike", "fusion_lat": 0.0, "rental_uris": {"android": "https://dc.lft.to/lastmile_qr_scan", "ios": "https://dc.lft.to/lastmile_qr_scan"}}, {"bike_id": "2c89babb0876e9ee360dddf95825d8a3", "fusion_lon": 0.0, "name": "2c89babb0876e9ee360dddf95825d8a3", "lat": 38.93181116666667, "is_disabled": 0, "is_reserved": 0, "lon": -77.0430175, "type": "electric_scooter", "fusion_lat": 0.0, "rental_uris": {"android": "https://dc.lft.to/lastmile_qr_scan", "ios": "https://dc.lft.to/lastmile_qr_scan"}}, {"bike_id": "4e698096a43223b10253d2afb6e8fae8", "fusion_lon": 0.0, "name": "4e698096a43223b10253d2afb6e8fae8", "lat": 38.892286666666664, "is_disabled": 0, "is_reserved": 0, "lon": -77.04327416666666, "type": "electric_scooter", "fusion_lat": 0.0, "rental_uris": {"android": "https://dc.lft.to/lastmile_qr_scan", "ios": "https://dc.lft.to/lastmile_qr_scan"}}, {"bike_id": "e0aa48b910963718b16d42ba1bef4622", "fusion_lon": 0.0, "name": "e0aa48b910963718b16d42ba1bef4622", "lat": 38.92333683333333, "is_disabled": 0, "is_reserved": 0, "lon": -77.03519733333333, "type": "electric_scooter", "fusion_lat": 0.0, "rental_uris": {"android": "https://dc.lft.to/lastmile_qr_scan", "ios": "https://dc.lft.to/lastmile_qr_scan"}}, {"bike_id": "a5931022b5d073d8a5b65dbdacd37afa", "fusion_lon": 0.0, "name": "a5931022b5d073d8a5b65dbdacd37afa", "lat": 38.892268666666666, "is_disabled": 0, "is_reserved": 0, "lon": -77.03131683333334, "type": "electric_scooter", "fusion_lat": 0.0, "rental_uris": {"android": "https://dc.lft.to/lastmile_qr_scan", "ios": "https://dc.lft.to/lastmile_qr_scan"}}, {"bike_id": "585804d497b9c379ad245a234907bf16", "fusion_lon": 0.0, "name": "585804d497b9c379ad245a234907bf16", "lat": 38.797016666666664, "is_disabled": 0, "is_reserved": 0, "lon": -77.00369433333333, "type": "electric_bike", "fusion_lat": 0.0, "rental_uris": {"android": "https://dc.lft.to/lastmile_qr_scan", "ios": "https://dc.lft.to/lastmile_qr_scan"}}, {"bike_id": "a7a76cdd7593547ca3786e562896d7c2", "fusion_lon": 0.0, "name": "a7a76cdd7593547ca3786e562896d7c2", "lat": 38.91865216666667, "is_disabled": 0, "is_reserved": 0, "lon": -77.026063, "type": "electric_scooter", "fusion_lat": 0.0, "rental_uris": {"android": "https://dc.lft.to/lastmile_qr_scan", "ios": "https://dc.lft.to/lastmile_qr_scan"}}, {"bike_id": "731d4cea2f1c2f08d00a81fdd4892883", "fusion_lon": 0.0, "name": "731d4cea2f1c2f08d00a81fdd4892883", "lat": 38.924413666666666, "is_disabled": 0, "is_reserved": 0, "lon": -77.03406666666666, "type": "electric_scooter", "fusion_lat": 0.0, "rental_uris": {"android": "https://dc.lft.to/lastmile_qr_scan", "ios": "https://dc.lft.to/lastmile_qr_scan"}},