{"data": {"bikes": [{"lon": -77.04942383333334, "is_disabled": 0, "lat": 38.91826566666667, "fusion_lat": 0.0, "is_reserved": 0, "rental_uris": {"ios": "https://dc.lft.to/lastmile_qr_scan", "android": "https://dc.lft.to/lastmile_qr_scan"}, "fusion_lon": 0.0, "type": "electric_scooter", "bike_id": "2bdac36b9732a50f4da2d0ae996efa67", "name": "2bdac36b9732a50f4da2d0ae996efa67"}, {"lon": -76.96540366666666, "is_disabled": 0, "lat": 38.918578, "fusion_lat": 0.0, "is_reserved": 0, "rental_uris": {"ios": "https://dc.lft.to/lastmile_qr_scan", "android": "https://dc.lft.to/lastmile_qr_scan"}, "fusion_lon": 0.0, "type": "electric_scooter", "bike_id": "5ff8e9046397320c8104859174556995", "name": "5ff8e9046397320c8104859174556995"}, {"lon": -76.97026016666666, "is_disabled": 0, "lat": 38.87362916666667, "fusion_lat": 0.0, "is_reserved": 0, "rental_uris": {"ios": "https://dc.lft.to/lastmile_qr_scan", "android": "https://dc.lft.to/lastmile_qr_scan"}, "fusion_lon": 0.0, "type": "electric_scooter", "bike_id": "ad0d928b7335e7217d7a4f189dca6609", "name": "ad0d928b7335e7217d7a4f189dca6609"}, {"lon": -77.022963, "is_disabled": 0, "lat": 38.89504866666667, "fusion_lat": 0.0, "is_reserved": 0, "rental_uris": {"ios": "https://dc.lft.to/lastmile_qr_scan", "android": "https://dc.lft.to/lastmile_qr_scan"}, "fusion_lon": 0.0, "type": "electric_scooter", "bike_id": "0fb633cd59e34f82d7fd64eede21f9e2", "name": "0fb633cd59e34f82d7fd64eede21f9e2"}, {"lon": -77.029552, "is_disabled": 0, "lat": 38.932535333333334, "fusion_lat": 0.0, "is_reserved": 0, "rental_uris": {"ios": "https://dc.lft.to/lastmile_qr_scan", "android": "https://dc.lft.to/lastmile_qr_scan"}, "fusion_lon": 0.0, "type": "electric_scooter", "bike_id": "d920a36098edca5af51dad6143a01279", "name": "d920a36098edca5af51dad6143a01279"}, {"lon": -77.04013916666666, "is_disabled": 0, "lat": 38.896379833333334, "fusion_lat": 0.0, "is_reserved": 0, "rental_uris": {"ios": "https://dc.lft.to/lastmile_qr_scan", "android": "https://dc.lft.to/lastmile_qr_scan"}, "fusion_lon": 0.0, "type": "electric_scooter", "bike_id": "db459e06179d1565b99dd885718cc829", "name": "db459e06179d1565b99dd885718cc829"}, {"lon": -77.01531466666667, "is_disabled": 0, "lat": 38.887440833333336, "fusion_lat": 0.0, "is_reserved": 0, "rental_uris": {"ios": "https://dc.lft.to/lastmile_qr_scan", "android": "https://dc.lft.to/lastmile_qr_scan"}, "fusion_lon": 0.0, "type": "electric_scooter", "bike_id": "b25f4d6c893dd81e077a60831edfeeba", "name": "b25f4d6c893dd81e077a60831edfeeba"}, {"lon": -77.08068116666666, "is_disabled": 0, "lat": 39.05255316666667, "fusion_lat": 0.0, "is_reserved": 0, "rental_uris": {"ios": "https://dc.lft.to/lastmile_qr_scan", "android": "https://dc.lft.to/lastmile_qr_scan"}, "fusion_lon": 0.0, "type": "electric_bike", "bike_id": "47862a1aadf34137825bc93700fb704f", "name": "47862a1aadf34137825bc93700fb704f"}, {"lon": -77.0240475, "is_disabled": 0, "lat": 38.91408283333333, "fusion_lat": 0.0, "is_reserved": 0, "rental_uris": {"ios": "https://dc.lft.to/lastmile_qr_scan", "android": "https://dc.lft.to/lastmile_qr_scan"}, "fusion_lon": 0.0, "type": "electric_scooter", "bike_id": "a59df1ccd383df90d83db39cd5dfd654", "name": "a59df1ccd383df90d83db39cd5dfd654"}, {"lon": -77.0449975, "is_disabled": 0, "lat": 38.91495916666667, "fusion_lat": 0.0, "is_reserved": 0, "rental_uris": {"ios": "https://dc.lft.to/lastmile_qr_scan", "android": "https://dc.lft.to/lastmile_qr_scan"}, "fusion_lon": 0.0, "type": "electric_scooter", "bike_id": "c0158b709d08fc9fe0b589176d4ab8a8", "name": "c0158b709d08fc9fe0b589176d4ab8a8"}, {"lon": -77.04348516666667, "is_disabled": 0, "lat": 38.905174833333334, "fusion_lat": 0.0, "is_reserved": 0, "rental_uris": {"ios": "https://dc.lft.to/lastmile_qr_scan", "android": "https://dc.lft.to/lastmile_qr_scan"}, "fusion_lon": 0.0, "type": "electric_scooter", "bike_id": "4b6d1c186e04ab8edf46ffac730cd7f9", "name": "4b6d1c186e04ab8edf46ffac730cd7f9"}, {"lon": -77.0174345, "is_disabled": 0, "lat": 38.90240416666666, "fusion_lat": 0.0, "is_reserved": 0, "rental_uris": {"ios": "https://dc.lft.to/lastmile_qr_scan", "android": "https://dc.lft.to/lastmile_qr_scan"}, "fusion_lon": 0.0, "type": "electric_scooter", "bike_id": "43c09b9907628c28368f6be77ac5a174", "name": "43c09b9907628c28368f6be77ac5a174"}, {"lon": -77.0206005, "is_disabled": 0, "lat": 38.933415333333336, "fusion_lat": 0.0, "is_reserved": 0, "rental_uris": {"ios": "https://dc.lft.to/lastmile_qr_scan", "android": "https://dc.lft.to/lastmile_qr_scan"}, "fusion_lon": 0.0, "type": "electric_scooter", "bike_id": "3410131dd8cadec539fa9aeab462ef7d", "name": "3410131dd8cadec539fa9aeab462ef7d"}, {"lon": -77.038298, "is_disabled": 0, "lat": 38.907793166666664, "fusion_lat": 0.0, "is_reserved": 0, "rental_uris": {"ios": "https://dc.lft.to/lastmile_qr_scan", "android": "https://dc.lft.to/lastmile_qr_scan"}, "fusion_lon": 0.0, "type": "electric_scooter", "bike_id": "d14f7a139f06e1a48f05fd822628d3ba", "name": "d14f7a139f06e1a48f05fd822628d3ba"}, {"lon": -77.03467966666666, "is_disabled": 0, "lat": 38.90455333333333, "fusion_lat": 0.0, "is_reserved": 0, "rental_uris": {"ios": "https://dc.lft.to/lastmile_qr_scan", "android": "https://dc.lft.to/lastmile_qr_scan"}, "fusion_lon": 0.0, "type": "electric_scooter", "bike_id": "f71860ae2b6497b72f61b1476a4dfba5", "name": "f71860ae2b6497b72f61b1476a4dfba5"}, {"lon": -76.95776533333333, "is_disabled": 0, "lat": 38.8688515, "fusion_lat": 0.0, "is_reserved": 0, "rental_uris": {"ios": "https://dc.lft.to/lastmile_qr_scan", "android": "https://dc.lft.to/lastmile_qr_scan"}, "fusion_lon": 0.0, "type": "electric_bike", "bike_id": "9eb61617c72fb253c3a60ec104f0cadf", "name": "9eb61617c72fb253c3a60ec104f0cadf"}, {"lon": -77.005965, "is_disabled": 0, "lat": 38.87576716666667, "fusion_lat": 0.0, "is_reserved": 0, "rental_uris": {"ios": "https://dc.lft.to/lastmile_qr_scan", "android": "https://dc.lft.to/lastmile_qr_scan"}, "fusion_lon": 0.0, "type": "electric_scooter", "bike_id": "c43380a818c56c90582cd842a291b417", "name": "c43380a818c56c90582cd842a291b417"}, {"lon": -77.01077333333333, "is_disabled": 0, "lat": 38.9096155, "fusion_lat": 0.0, "is_reserved": 0, "rental_uris": {"ios": "https://dc.lft.to/lastmile_qr_scan", "android": "https://dc.lft.to/lastmile_qr_scan"}, "fusion_lon": 0.0, "type": "electric_scooter", "bike_id": "47051e825c49d2b4187bb93780566023", "name": "47051e825c49d2b4187bb93780566023"}, {"lon": -77.01696333333334, "is_disabled": 0, "lat": 38.97504033333333, "fusion_lat": 0.0, "is_reserved": 0, "rental_uris": {"ios": "https://dc.lft.to/lastmile_qr_scan", "android": "https://dc.lft.to/lastmile_qr_scan"}, "fusion_lon": 0.0, "type": "electric_scooter", "bike_id": "3549e99a960767a71f15aaae2f55dc3c", "name": "3549e99a960767a71f15aaae2f55dc3c"}, {"lon": -76.973685, "is_disabled": 0, "lat": 38.9631995, "fusion_lat": 0.0, "is_reserved": 0, "rental_uris": {"ios": "https://dc.lft.to/lastmile_qr_scan", "android": "https://dc.lft.to/lastmile_qr_scan"}, "fusion_lon": 0.0, "type": "electric_bike", "bike_id": "b7527bb55ef2ea0220f4ff5516254f26", "name": "b7527bb55ef2ea0220f4ff5516254f26"}, {"lon": -77.01983966666667, "is_disabled": 0, "lat": 38.88725266666667, "fusion_lat": 0.0, "is_reserved": 0, "rental_uris": {"ios": "https://dc.lft.to/lastmile_qr_scan", "android": "https://dc.lft.to/lastmile_qr_scan"}, "fusion_lon": 0.0, "type": "electric_scooter", "bike_id": "a7a69a1c42214193f7013b1ab09bf4f0", "name": "a7a69a1c42214193f7013b1ab09bf4f0"}, {"lon": -77.0231635, "is_disabled": 0, "lat": 38.955258, "fusion_lat": 0.0, "is_reserved": 0, "rental_uris": {"ios": "https://dc.lft.to/lastmile_qr_scan", "android": "https://dc.lft.to/lastmile_qr_scan"}, "fusion_lon": 0.0, "type": "electric_scooter", "bike_id": "4bb20fa3e284b82f9bf9bbcaf0c63dd5", "name": "4bb20fa3e284b82f9bf9bbcaf0c63dd5"}, {"lon": -76.97255816666667, "is_disabled": 0, "lat": 38.957469, "fusion_lat": 0.0, "is_reserved": 0, "rental_uris": {"ios": "https://dc.lft.to/lastmile_qr_scan", "android": "https://dc.lft.to/lastmile_qr_scan"}, "fusion_lon": 0.0, "type": "electric_bike", "bike_id": "352bedba3f88f1b152ce3b1b881fbdaa", "name": "352bedba3f88f1b152ce3b1b881fbdaa"}, {"lon": -77.09429033333333, "is_disabled": 0, "lat": 38.94491383333333, "fusion_lat": 0.0, "is_reserved": 0, "rental_uris": {"ios": "https://dc.lft.to/lastmile_qr_scan", "android": "https://dc.lft.to/lastmile_qr_scan"}, "fusion_lon": 0.0, "type": "electric_scooter", "bike_id": "35c0aea11ea0973e5d3eb6ee451bf010", "name": "35c0aea11ea0973e5d3eb6ee451bf010"}, {"lon": -77.04503416666667, "is_disabled": 0, "lat": 38.90377433333333, "fusion_lat": 0.0, "is_reserved": 0, "rental_uris": {"ios": "https://dc.lft.to/lastmile_qr_scan", "android": "https://dc.lft.to/lastmile_qr_scan"}, "fusion_lon": 0.0, "type": "electric_scooter", "bike_id": "ea2db4ba69bdcf3e4fc19dac0d4044c7", "name": "ea2db4ba69bdcf3e4fc19dac0d4044c7"}, {"lon": -77.04697533333334, "is_disabled": 0, "lat": 38.89741016666667, "fusion_lat": 0.0, "is_reserved": 0, "rental_uris": {"ios": "https://dc.lft.to/lastmile_qr_scan", "android": "https://dc.lft.to/lastmile_qr_scan"}, "fusion_lon": 0.0, "type": "electric_scooter", "bike_id": "f2fc3468ac35eaf90a57fc94ec32f744", "name": "f2fc3468ac35eaf90a57fc94ec32f744"}, {"lon": -77.03663633333333, "is_disabled": 0, "lat": 38.90807916666667, "fusion_lat": 0.0, "is_reserved": 0, "rental_uris": {"ios": "https://dc.lft.to/lastmile_qr_scan", "android": "https://dc.lft.to/lastmile_qr_scan"}, "fusion_lon": 0.0, "type": "electric_scooter", "bike_id": "ed5c20df21d317a647196e4a4816b61a", "name": "ed5c20df21d317a647196e4a4816b61a"}, {"lon": -77.01125733333333, "is_disabled": 0, "lat": 38.9630435, "fusion_lat": 0.0, "is_reserved": 0, "rental_uris": {"ios": "https://dc.lft.to/lastmile_qr_scan", "android": "https://dc.lft.to/lastmile_qr_scan"}, "fusion_lon": 0.0, "type": "electric_bike", "bike_id": "f2a938098d893f835501f1aef0dfcaec", "name": "f2a938098d893f835501f1aef0dfcaec"}, {"lon": -77.03453566666667, "is_disabled": 0, "lat": 38.9170355, "fusion_lat": 0.0, "is_reserved": 0, "rental_uris": {"ios": "https://dc.lft.to/lastmile_qr_scan", "android": "https://dc.lft.to/lastmile_qr_scan"}, "fusion_lon": 0.0, "type": "electric_scooter", "bike_id": "a8bbc36546e7b3a23ab9c1154ed89e79", "name": "a8bbc36546e7b3a23ab9c1154ed89e79"}, {"lon": -76.93153516666666, "is_disabled": 0, "lat": 38.899355666666665, "fusion_lat": 0.0, "is_reserved": 0, "rental_uris": {"ios": "https://dc.lft.to/lastmile_qr_scan", "android": "https://dc.lft.to/lastmile_qr_scan"}, "fusion_lon": 0.0, "type": "electric_scooter", "bike_id": "434c6b9e7a787d9634364a20060b9371", "name": "434c6b9e7a787d9634364a20060b9371"}, {"lon": -77.03570583333334, "is_disabled": 0, "lat": 38.90379816666667, "fusion_lat": 0.0, "is_reserved": 0, "rental_uris": {"ios": "https://dc.lft.to/lastmile_qr_scan", "android": "https://dc.lft.to/lastmile_qr_scan"}, "fusion_lon": 0.0, "type": "electric_scooter", "bike_id": "d5f05293d8c855bc39f68d621f78ef6a", "name": "d5f05293d8c855bc39f68d621f78ef6a"}, {"lon": -77.02588666666666, "is_disabled": 0, "lat": 38.942100333333336, "fusion_lat": 0.0, "is_reserved": 0, "rental_uris": {"ios": "https://dc.lft.to/lastmile_qr_scan", "android": "https://dc.lft.to/lastmile_qr_scan"}, "fusion_lon": 0.0, "type": "electric_scooter", "bike_id": "5f0dd047043fba5cbf0d0291bc88eb16", "name": "5f0dd047043fba5cbf0d0291bc88eb16"}, {"lon": -77.00145733333333, "is_disabled": 0, "lat": 38.873121166666664, "fusion_lat": 0.0, "is_reserved": 0, "rental_uris": {"ios": "https://dc.lft.to/lastmile_qr_scan", "android": "https://dc.lft.to/lastmile_qr_scan"}, "fusion_lon": 0.0, "type": "electric_scooter", "bike_id": "02d35baa8fb79dad6c892d9c230523ab", "name": "02d35baa8fb79dad6c892d9c230523ab"}, {"lon": -77.04502266666667, "is_disabled": 0, "lat": 38.908686, "fusion_lat": 0.0, "is_reserved": 0, "rental_uris": {"ios": "https://dc.lft.to/lastmile_qr_scan", "android": "https://dc.lft.to/lastmile_qr_scan"}, "fusion_lon": 0.0, "type": "electric_scooter", "bike_id": "0b96a3b925f76d13cb5ffe88d3ef04aa", "name": "0b96a3b925f76d13cb5ffe88d3ef04aa"}, {"lon": -77.0304165, "is_disabled": 0, "lat": 38.91629316666667, "fusion_lat": 0.0, "is_reserved": 0, "rental_uris": {"ios": "https://dc.lft.to/lastmile_qr_scan", "android": "https://dc.lft.to/lastmile_qr_scan"}, "fusion_lon": 0.0, "type": "electric_scooter", "bike_id": "5bb2b8985336d74b039df84130003ff1", "name": "5bb2b8985336d74b039df84130003ff1"}, {"lon": -77.03198266666666, "is_disabled": 0, "lat": 38.91750533333333, "fusion_lat": 0.0, "is_reserved": 0, "rental_uris": {"ios": "https://dc.lft.to/lastmile_qr_scan", "android": "https://dc.lft.to/lastmile_qr_scan"}, "fusion_lon": 0.0, "type": "electric_scooter", "bike_id": "17f48ab8e2d15c6faa802ddbaaf61438", "name": "17f48ab8e2d15c6faa802ddbaaf61438"}, {"lon": -77.031321, "is_disabled": 0, "lat": 38.920234666666666, "fusion_lat": 0.0, "is_reserved": 0, "rental_uris": {"ios": "https://dc.lft.to/lastmile_qr_scan", "android": "https://dc.lft.to/lastmile_qr_scan"}, "fusion_lon": 0.0, "type": "electric_scooter", "bike_id": "025646e8b4619aad5f58f3014a2811db", "name": "025646e8b4619aad5f58f3014a2811db"}, {"lon": -77.05441316666666, "is_disabled": 0, "lat": 38.928479833333334, "fusion_lat": 0.0, "is_reserved": 0, "rental_uris": {"ios": "https://dc.lft.to/lastmile_qr_scan", "android": "https://dc.lft.to/lastmile_qr_scan"}, "fusion_lon": 0.0, "type": "electric_scooter", "bike_id": "a8d508700ae103b1bd148b0af5ff6542", "name": "a8d508700ae103b1bd148b0af5ff6542"}, {"lon": -77.02702516666666, "is_disabled": 0, "lat": 38.909509666666665, "fusion_lat": 0.0, "is_reserved": 0, "rental_uris": {"ios": "https://dc.lft.to/lastmile_qr_scan", "android": "https://dc.lft.to/lastmile_qr_scan"}, "fusion_lon": 0.0, "type": "electric_scooter", "bike_id": "46c6a28f5def4d11b1d0db2290c10342", "name": "46c6a28f5def4d11b1d0db2290c10342"}, {"lon": -77.04542283333333, "is_disabled": 0, "lat": 38.89833266666667, "fusion_lat": 0.0, "is_reserved": 0, "rental_uris": {"ios": "https://dc.lft.to/lastmile_qr_scan", "android": "https://dc.lft.to/lastmile_qr_scan"}, "fusion_lon": 0.0, "type": "electric_scooter", "bike_id": "7d65d038d03b7dc83afca9a9315077cc", "name": "7d65d038d03b7dc83afca9a9315077cc"}, {"lon": -77.03456466666667, "is_disabled": 0, "lat": 38.918220833333336, "fusion_lat": 0.0, "is_reserved": 0, "rental_uris": {"ios": "https://dc.lft.to/lastmile_qr_scan", "android": "https://dc.lft.to/lastmile_qr_scan"}, "fusion_lon": 0.0, "type": "electric_scooter", "bike_id": "20e2fd4f0295fb7848f341ca37177c4b", "name": "20e2fd4f0295fb7848f341ca37177c4b"}, {"lon": -77.00072833333333, "is_disabled": 0, "lat": 38.873867, "fusion_lat": 0.0, "is_reserved": 0, "rental_uris": {"ios": "https://dc.lft.to/lastmile_qr_scan", "android": "https://dc.lft.to/lastmile_qr_scan"}, "fusion_lon": 0.0, "type": "electric_scooter", "bike_id": "3e4236bce35ee0cb8c91cb03fa74f64b", "name": "3e4236bce35ee0cb8c91cb03fa74f64b"}, {"lon": -77.03403416666667, "is_disabled": 0, "lat": 38.92204, "fusion_lat": 0.0, "is_reserved": 0, "rental_uris": {"ios": "https://dc.lft.to/lastmile_qr_scan", "android": "https://dc.lft.to/lastmile_qr_scan"}, "fusion_lon": 0.0, "type": "electric_scooter", "bike_id": "b7346f5c193b51effbdd41e82aa41479", "name": "b7346f5c193b51effbdd41e82aa41479"}, {"lon": -77.04684283333333, "is_disabled": 0, "lat": 38.90295733333333, "fusion_lat": 0.0, "is_reserved": 0, "rental_uris": {"ios": "https://dc.lft.to/lastmile_qr_scan", "android": "https://dc.lft.to/lastmile_qr_scan"}, "fusion_lon": 0.0, "type": "electric_scooter", "bike_id": "f0aede69023115bd331d38022f8b79eb", "name": "f0aede69023115bd331d38022f8b79eb"}, {"lon": -77.04160483333334, "is_disabled": 0, "lat": 38.903083333333335, "fusion_lat": 0.0, "is_reserved": 0, "rental_uris": {"ios": "https://dc.lft.to/lastmile_qr_scan", "android": "https://dc.lft.to/lastmile_qr_scan"}, "fusion_lon": 0.0, "type": "electric_scooter", "bike_id": "e309615c39b0a60b81f48b9c13ed62f8", "name": "e309615c39b0a60b81f48b9c13ed62f8"}, {"lon": -77.02722533333333, "is_disabled": 0, "lat": 38.927626833333335, "fusion_lat": 0.0, "is_reserved": 0, "rental_uris": {"ios": "https://dc.lft.to/lastmile_qr_scan", "android": "https://dc.lft.to/lastmile_qr_scan"}, "fusion_lon": 0.0, "type": "electric_scooter", "bike_id": "620d93756d1c3e58e8327f09f37c702b", "name": "620d93756d1c3e58e8327f09f37c702b"}, {"lon": -77.01653883333333, "is_disabled": 0, "lat": 38.881347833333336, "fusion_lat": 0.0, "is_reserved": 0, "rental_uris": {"ios": "https://dc.lft.to/lastmile_qr_scan", "android": "https://dc.lft.to/lastmile_qr_scan"}, "fusion_lon": 0.0, "type": "electric_scooter", "bike_id": "f1e8ef380ef8f3ffd237884ff4332a2f", "name": "f1e8ef380ef8f3ffd237884ff4332a2f"}, {"lon": -77.04076583333334, "is_disabled": 0, "lat": 38.90231333333333, "fusion_lat": 0.0, "is_reserved": 0, "rental_uris": {"ios": "https://dc.lft.to/lastmile_qr_scan", "android": "https://dc.lft.to/lastmile_qr_scan"}, "fusion_lon": 0.0, "type": "electric_scooter", "bike_id": "5efce221c3dae581d5f6b0a706d0d9bd", "name": "5efce221c3dae581d5f6b0a706d0d9bd"}, {"lon": -76.98338833333334, "is_disabled": 0, "lat": 38.90095733333333, "fusion_lat": 0.0, "is_reserved": 0, "rental_uris": {"ios": "https://dc.lft.to/lastmile_qr_scan", "android": "https://dc.lft.to/lastmile_qr_scan"}, "fusion_lon": 0.0, "type": "electric_scooter", "bike_id": "cd4ddc0984e2269ef812901581ed3c6d", "name": "cd4ddc0984e2269ef812901581ed3c6d"}, {"lon": -77.02782133333334, "is_disabled": 0, "lat": 38.896396333333335, "fusion_lat": 0.0, "is_reserved": 0, "rental_uris": {"ios": "https://dc.lft.to/lastmile_qr_scan", "android": "https://dc.lft.to/lastmile_qr_scan"}, "fusion_lon": 0.0, "type": "electric_scooter", "bike_id": "fdc5801d469cbb62aa23e3a1fe817905", "name": "fdc5801d469cbb62aa23e3a1fe817905"}, {"lon": -77.044039, "is_disabled": 0, "lat": 38.897353333333335, "fusion_lat": 0.0, "is_reserved": 0, "rental_uris": {"ios": "https://dc.lft.to/lastmile_qr_scan", "android": "https://dc.lft.to/lastmile_qr_scan"}, "fusion_lon": 0.0, "type": "electric_scooter", "bike_id": "679837fe96f4309151e23d609666041d", "name": "679837fe96f4309151e23d609666041d"}, {"lon": -76.95333016666666, "is_disabled": 0, "lat": 38.892479, "fusion_lat": 0.0, "is_reserved": 0, "rental_uris": {"ios": "https://dc.lft.to/lastmile_qr_scan", "android": "https://dc.lft.to/lastmile_qr_scan"}, "fusion_lon": 0.0, "type": "electric_scooter", "bike_id": "bf9cbe22bd89ecc40c16f36353fea70d", "name": "bf9cbe22bd89ecc40c16f36353fea70d"}, {"lon": -77.02502166666666, "is_disabled": 0, "lat": 38.91959033333333, "fusion_lat": 0.0, "is_reserved": 0, "rental_uris": {"ios": "https://dc.lft.to/lastmile_qr_scan", "android": "https://dc.lft.to/lastmile_qr_scan"}, "fusion_lon": 0.0, "type": "electric_scooter", "bike_id": "6774bdb409690e718626aeee06e33b55", "name": "6774bdb409690e718626aeee06e33b55"}, {"lon": -76.9902125, "is_disabled": 0, "lat": 38.865144666666666, "fusion_lat": 0.0, "is_reserved": 0, "rental_uris": {"ios": "https://dc.lft.to/lastmile_qr_scan", "android": "https://dc.lft.to/lastmile_qr_scan"}, "fusion_lon": 0.0, "type": "electric_scooter", "bike_id": "7f5ef27495c139887cbfaa95d9b76129", "name": "7f5ef27495c139887cbfaa95d9b76129"}, {"lon": -77.019076, "is_disabled": 0, "lat": 38.9233915, "fusion_lat": 0.0, "is_reserved": 0, "rental_uris": {"ios": "https://dc.lft.to/lastmile_qr_scan", "android": "https://dc.lft.to/lastmile_qr_scan"}, "fusion_lon": 0.0, "type": "electric_scooter", "bike_id": "1e4d5ecf804f78e17e343d5c7742bf72", "name": "1e4d5ecf804f78e17e343d5c7742bf72"}, {"lon": -77.055127, "is_disabled": 0, "lat": 38.915284666666665, "fusion_lat": 0.0, "is_reserved": 0, "rental_uris": {"ios": "https://dc.lft.to/lastmile_qr_scan", "android": "https://dc.lft.to/lastmile_qr_scan"}, "fusion_lon": 0.0, "type": "electric_scooter", "bike_id": "27e2d78940068b86853e7b1dce0784ba", "name": "27e2d78940068b86853e7b1dce0784ba"}, {"lon": -77.01233316666666, "is_disabled": 0, "lat": 38.87506, "fusion_lat": 0.0, "is_reserved": 0, "rental_uris": {"ios": "https://dc.lft.to/lastmile_qr_scan", "android": "https://dc.lft.to/lastmile_qr_scan"}, "fusion_lon": 0.0, "type": "electric_scooter", "bike_id": "fbf5ce4ba01986cc656f1140c497d30d", "name": "fbf5ce4ba01986cc656f1140c497d30d"}, {"lon": -77.0866015, "is_disabled": 0, "lat": 38.80905416666667, "fusion_lat": 0.0, "is_reserved": 0, "rental_uris": {"ios": "https://dc.lft.to/lastmile_qr_scan", "android": "https://dc.lft.to/lastmile_qr_scan"}, "fusion_lon": 0.0, "type": "electric_bike", "bike_id": "85211fc2390e09312e6ca36e2539fc1e", "name": "85211fc2390e09312e6ca36e2539fc1e"}, {"lon": -77.03268083333333, "is_disabled": 0, "lat": 38.92899533333333, "fusion_lat": 0.0, "is_reserved": 0, "rental_uris": {"ios": "https://dc.lft.to/lastmile_qr_scan", "android": "https://dc.lft.to/lastmile_qr_scan"}, "fusion_lon": 0.0, "type": "electric_scooter", "bike_id": "4c84cdbe74016c66b9e932d1f10faaa8", "name": "4c84cdbe74016c66b9e932d1f10faaa8"}, {"lon": -77.0393525, "is_disabled": 0, "lat": 38.898588833333335, "fusion_lat": 0.0, "is_reserved": 0, "rental_uris": {"ios": "https://dc.lft.to/lastmile_qr_scan", "android": "https://dc.lft.to/lastmile_qr_scan"}, "fusion_lon": 0.0, "type": "electric_scooter", "bike_id": "2b0916df7834e48154ede589daeb6c4e", "name": "2b0916df7834e48154ede589daeb6c4e"}, {"lon": -77.0588715, "is_disabled": 0, "lat": 38.9363715, "fusion_lat": 0.0, "is_reserved": 0, "rental_uris": {"ios": "https://dc.lft.to/lastmile_qr_scan", "android": "https://dc.lft.to/lastmile_qr_scan"}, "fusion_lon": 0.0, "type": "electric_scooter", "bike_id": "5f0a65252dc7d873b39f0edde074567b", "name": "5f0a65252dc7d873b39f0edde074567b"}, {"lon": -77.01895266666666, "is_disabled": 0, "lat": 38.91766783333333, "fusion_lat": 0.0, "is_reserved": 0, "rental_uris": {"ios": "https://dc.lft.to/lastmile_qr_scan", "android": "https://dc.lft.to/lastmile_qr_scan"}, "fusion_lon": 0.0, "type": "electric_bike", "bike_id": "6eb2882010256142a8faeb373f813dc8", "name": "6eb2882010256142a8faeb373f813dc8"}, {"lon": -77.0321635, "is_disabled": 0, "lat": 38.899719, "fusion_lat": 0.0, "is_reserved": 0, "rental_uris": {"ios": "https://dc.lft.to/lastmile_qr_scan", "android": "https://dc.lft.to/lastmile_qr_scan"}, "fusion_lon": 0.0, "type": "electric_scooter", "bike_id": "05d8a435d8ffc9a6795c888edc1c4a17", "name": "05d8a435d8ffc9a6795c888edc1c4a17"}, {"lon": -77.02117966666667, "is_disabled": 0, "lat": 38.917365333333336, "fusion_lat": 0.0, "is_reserved": 0, "rental_uris": {"ios": "https://dc.lft.to/lastmile_qr_scan", "android": "https://dc.lft.to/lastmile_qr_scan"}, "fusion_lon": 0.0, "type": "electric_scooter", "bike_id": "4420176f6792f87c0cbf6bd09b46828e", "name": "4420176f6792f87c0cbf6bd09b46828e"}, {"lon": -77.04023933333333, "is_disabled": 0, "lat": 38.9171285, "fusion_lat": 0.0, "is_reserved": 0, "rental_uris": {"ios": "https://dc.lft.to/lastmile_qr_scan", "android": "https://dc.lft.to/lastmile_qr_scan"}, "fusion_lon": 0.0, "type": "electric_scooter", "bike_id": "cba9e0b3eaeb459c96b4ff5fdb5bd850", "name": "cba9e0b3eaeb459c96b4ff5fdb5bd850"}, {"lon": -77.027677, "is_disabled": 0, "lat": 38.89626633333334, "fusion_lat": 0.0, "is_reserved": 0, "rental_uris": {"ios": "https://dc.lft.to/lastmile_qr_scan", "android": "https://dc.lft.to/lastmile_qr_scan"}, "fusion_lon": 0.0, "type": "electric_scooter", "bike_id": "adaac72d2c1569a60df5d198cae2b36d", "name": "adaac72d2c1569a60df5d198cae2b36d"}, {"lon": -77.00558266666667, "is_disabled": 0, "lat": 38.87472483333333, "fusion_lat": 0.0, "is_reserved": 0, "rental_uris": {"ios": "https://dc.lft.to/lastmile_qr_scan", "android": "https://dc.lft.to/lastmile_qr_scan"}, "fusion_lon": 0.0, "type": "electric_scooter", "bike_id": "06d8a79b91a46b731c01122392d3686b", "name": "06d8a79b91a46b731c01122392d3686b"}, {"lon": -77.0351935, "is_disabled": 0, "lat": 38.9217495, "fusion_lat": 0.0, "is_reserved": 0, "rental_uris": {"ios": "https://dc.lft.to/lastmile_qr_scan", "android": "https://dc.lft.to/lastmile_qr_scan"}, "fusion_lon": 0.0, "type": "electric_scooter", "bike_id": "0bad0e85c906b57885a5f7c86762bc0d", "name": "0bad0e85c906b57885a5f7c86762bc0d"}, {"lon": -77.041547, "is_disabled": 0, "lat": 38.90590866666667, "fusion_lat": 0.0, "is_reserved": 0, "rental_uris": {"ios": "https://dc.lft.to/lastmile_qr_scan", "android": "https://dc.lft.to/lastmile_qr_scan"}, "fusion_lon": 0.0, "type": "electric_scooter", "bike_id": "acb914aed3ff2d0b3f026367ea0eb8a2", "name": "acb914aed3ff2d0b3f026367ea0eb8a2"}, {"lon": -77.0316685, "is_disabled": 0, "lat": 38.89757916666667, "fusion_lat": 0.0, "is_reserved": 0, "rental_uris": {"ios": "https://dc.lft.to/lastmile_qr_scan", "android": "https://dc.lft.to/lastmile_qr_scan"}, "fusion_lon": 0.0, "type": "electric_scooter", "bike_id": "b146920017941d16f0fa0bd64f0027bd", "name": "b146920017941d16f0fa0bd64f0027bd"}, {"lon": -77.0334695, "is_disabled": 0, "lat": 38.8925495, "fusion_lat": 0.0, "is_reserved": 0, "rental_uris": {"ios": "https://dc.lft.to/lastmile_qr_scan", "android": "https://dc.lft.to/lastmile_qr_scan"}, "fusion_lon": 0.0, "type": "electric_scooter", "bike_id": "cd5d5194c001f050a9897750c6d7d1a7", "name": "cd5d5194c001f050a9897750c6d7d1a7"}, {"lon": -77.03224233333333, "is_disabled": 0, "lat": 38.91711683333333, "fusion_lat": 0.0, "is_reserved": 0, "rental_uris": {"ios": "https://dc.lft.to/lastmile_qr_scan", "android": "https://dc.lft.to/lastmile_qr_scan"}, "fusion_lon": 0.0, "type": "electric_scooter", "bike_id": "3da2c57126bc897ab24bac4b2acbeff8", "name": "3da2c57126bc897ab24bac4b2acbeff8"}, {"lon": -77.0176405, "is_disabled": 0, "lat": 38.887123, "fusion_lat": 0.0, "is_reserved": 0, "rental_uris": {"ios": "https://dc.lft.to/lastmile_qr_scan", "android": "https://dc.lft.to/lastmile_qr_scan"}, "fusion_lon": 0.0, "type": "electric_scooter", "bike_id": "fc17dc05225d9d99cb311ded46034c07", "name": "fc17dc05225d9d99cb311ded46034c07"}, {"lon": -77.08866583333334, "is_disabled": 0, "lat": 38.916387, "fusion_lat": 0.0, "is_reserved": 0, "rental_uris": {"ios": "https://dc.lft.to/lastmile_qr_scan", "android": "https://dc.lft.to/lastmile_qr_scan"}, "fusion_lon": 0.0, "type": "electric_scooter", "bike_id": "2659ecf82d84a7873965f0ba609f1b77", "name": "2659ecf82d84a7873965f0ba609f1b77"}, {"lon": -77.07241666666667, "is_disabled": 0, "lat": 38.93951466666667, "fusion_lat": 0.0, "is_reserved": 0, "rental_uris": {"ios": "https://dc.lft.to/lastmile_qr_scan", "android": "https://dc.lft.to/lastmile_qr_scan"}, "fusion_lon": 0.0, "type": "electric_scooter", "bike_id": "5e710684de4698b92afefdf75d90166f", "name": "5e710684de4698b92afefdf75d90166f"}, {"lon": -77.02879266666666, "is_disabled": 0, "lat": 38.924821333333334, "fusion_lat": 0.0, "is_reserved": 0, "rental_uris": {"ios": "https://dc.lft.to/lastmile_qr_scan", "android": "https://dc.lft.to/lastmile_qr_scan"}, "fusion_lon": 0.0, "type": "electric_scooter", "bike_id": "06b39e51568b312ffad5d98a39094177", "name": "06b39e51568b312ffad5d98a39094177"}, {"lon": -77.01731466666666, "is_disabled": 0, "lat": 38.887459666666665, "fusion_lat": 0.0, "is_reserved": 0, "rental_uris": {"ios": "https://dc.lft.to/lastmile_qr_scan", "android": "https://dc.lft.to/lastmile_qr_scan"}, "fusion_lon": 0.0, "type": "electric_scooter", "bike_id": "c798dda18880b0abf9a95eb4cb8da160", "name": "c798dda18880b0abf9a95eb4cb8da160"}, {"lon": -76.9204685, "is_disabled": 0, "lat": 38.897384833333334, "fusion_lat": 0.0, "is_reserved": 0, "rental_uris": {"ios": "https://dc.lft.to/lastmile_qr_scan", "android": "https://dc.lft.to/lastmile_qr_scan"}, "fusion_lon": 0.0, "type": "electric_bike", "bike_id": "d9b91000a62af648f6288068f7316ee5", "name": "d9b91000a62af648f6288068f7316ee5"}, {"lon": -77.03328233333333, "is_disabled": 0, "lat": 38.917036833333334, "fusion_lat": 0.0, "is_reserved": 0, "rental_uris": {"ios": "https://dc.lft.to/lastmile_qr_scan", "android": "https://dc.lft.to/lastmile_qr_scan"}, "fusion_lon": 0.0, "type": "electric_scooter", "bike_id": "88db98806105b48551c50fe6b61d75b2", "name": "88db98806105b48551c50fe6b61d75b2"}, {"lon": -77.00893716666667, "is_disabled": 0, "lat": 38.900745, "fusion_lat": 0.0, "is_reserved": 0, "rental_uris": {"ios": "https://dc.lft.to/lastmile_qr_scan", "android": "https://dc.lft.to/lastmile_qr_scan"}, "fusion_lon": 0.0, "type": "electric_scooter", "bike_id": "0c142f0a10974895531d49e5af85a2d5", "name": "0c142f0a10974895531d49e5af85a2d5"}, {"lon": -77.03173916666667, "is_disabled": 0, "lat": 38.914208333333335, "fusion_lat": 0.0, "is_reserved": 0, "rental_uris": {"ios": "https://dc.lft.to/lastmile_qr_scan", "android": "https://dc.lft.to/lastmile_qr_scan"}, "fusion_lon": 0.0, "type": "electric_scooter", "bike_id": "a102a0be99a16e29f0a6405df9d08053", "name": "a102a0be99a16e29f0a6405df9d08053"}, {"lon": -77.04493666666667, "is_disabled": 0, "lat": 38.896219333333335, "fusion_lat": 0.0, "is_reserved": 0, "rental_uris": {"ios": "https://dc.lft.to/lastmile_qr_scan", "android": "https://dc.lft.to/lastmile_qr_scan"}, "fusion_lon": 0.0, "type": "electric_scooter", "bike_id": "d3490b74bb6f43dec54d54c657597ea5", "name": "d3490b74bb6f43dec54d54c657597ea5"}, {"lon": -77.02840583333334, "is_disabled": 0, "lat": 38.9426445, "fusion_lat": 0.0, "is_reserved": 0, "rental_uris": {"ios": "https://dc.lft.to/lastmile_qr_scan", "android": "https://dc.lft.to/lastmile_qr_scan"}, "fusion_lon": 0.0, "type": "electric_scooter", "bike_id": "523908b5dbb424e41641a850b3eaf686", "name": "523908b5dbb424e41641a850b3eaf686"}, {"lon": -76.990053, "is_disabled": 0, "lat": 38.8651915, "fusion_lat": 0.0, "is_reserved": 0, "rental_uris": {"ios": "https://dc.lft.to/lastmile_qr_scan", "android": "https://dc.lft.to/lastmile_qr_scan"}, "fusion_lon": 0.0, "type": "electric_scooter", "bike_id": "182224fa22fd4ee03d4354a31e00d952", "name": "182224fa22fd4ee03d4354a31e00d952"}, {"lon": -77.04148, "is_disabled": 0, "lat": 38.907265333333335, "fusion_lat": 0.0, "is_reserved": 0, "rental_uris": {"ios": "https://dc.lft.to/lastmile_qr_scan", "android": "https://dc.lft.to/lastmile_qr_scan"}, "fusion_lon": 0.0, "type": "electric_scooter", "bike_id": "873209d5186b83a685455d0cbe81e965", "name": "873209d5186b83a685455d0cbe81e965"}, {"lon": -76.982169, "is_disabled": 0, "lat": 38.90893, "fusion_lat": 0.0, "is_reserved": 0, "rental_uris": {"ios": "https://dc.lft.to/lastmile_qr_scan", "android": "https://dc.lft.to/lastmile_qr_scan"}, "fusion_lon": 0.0, "type": "electric_scooter", "bike_id": "45de185b657ca51757b93ca049734494", "name": "45de185b657ca51757b93ca049734494"}, {"lon": -77.03972516666667, "is_disabled": 0, "lat": 38.905921166666666, "fusion_lat": 0.0, "is_reserved": 0, "rental_uris": {"ios": "https://dc.lft.to/lastmile_qr_scan", "android": "https://dc.lft.to/lastmile_qr_scan"}, "fusion_lon": 0.0, "type": "electric_scooter", "bike_id": "87747026455b21bd17cda49b82e32c0a", "name": "87747026455b21bd17cda49b82e32c0a"}, {"lon": -77.075366, "is_disabled": 0, "lat": 38.908852, "fusion_lat": 0.0, "is_reserved": 0, "rental_uris": {"ios": "https://dc.lft.to/lastmile_qr_scan", "android": "https://dc.lft.to/lastmile_qr_scan"}, "fusion_lon": 0.0, "type": "electric_scooter", "bike_id": "5c16d8c96b13285267b573acd430d9a7", "name": "5c16d8c96b13285267b573acd430d9a7"}, {"lon": -77.02782283333333, "is_disabled": 0, "lat": 38.927813666666665, "fusion_lat": 0.0, "is_reserved": 0, "rental_uris": {"ios": "https://dc.lft.to/lastmile_qr_scan", "android": "https://dc.lft.to/lastmile_qr_scan"}, "fusion_lon": 0.0, "type": "electric_scooter", "bike_id": "213764c6f1bb2177d2095cc18d80d5f2", "name": "213764c6f1bb2177d2095cc18d80d5f2"}, {"lon": -77.03222866666667, "is_disabled": 0, "lat": 38.8922975, "fusion_lat": 0.0, "is_reserved": 0, "rental_uris": {"ios": "https://dc.lft.to/lastmile_qr_scan", "android": "https://dc.lft.to/lastmile_qr_scan"}, "fusion_lon": 0.0, "type": "electric_scooter", "bike_id": "35ea654cfc10beadd284a165e33bcc96", "name": "35ea654cfc10beadd284a165e33bcc96"}, {"lon": -77.017648, "is_disabled": 0, "lat": 38.88383433333333, "fusion_lat": 0.0, "is_reserved": 0, "rental_uris": {"ios": "https://dc.lft.to/lastmile_qr_scan", "android": "https://dc.lft.to/lastmile_qr_scan"}, "fusion_lon": 0.0, "type": "electric_scooter", "bike_id": "a61e91b5161763eb0018bc9022f46c3b", "name": "a61e91b5161763eb0018bc9022f46c3b"}, {"lon": -77.05033666666667, "is_disabled": 0, "lat": 38.92363016666667, "fusion_lat": 0.0, "is_reserved": 0, "rental_uris": {"ios": "https://dc.lft.to/lastmile_qr_scan", "android": "https://dc.lft.to/lastmile_qr_scan"}, "fusion_lon": 0.0, "type": "electric_scooter", "bike_id": "98a1e84ea223dd4cd48a6a9c6d85e79b", "name": "98a1e84ea223dd4cd48a6a9c6d85e79b"}, {"lon": -77.02179066666666, "is_disabled": 0, "lat": 38.902004, "fusion_lat": 0.0, "is_reserved": 0, "rental_uris": {"ios": "https://dc.lft.to/lastmile_qr_scan", "android": "https://dc.lft.to/lastmile_qr_scan"}, "fusion_lon": 0.0, "type": "electric_scooter", "bike_id": "2df42b7c0b5ed79d8087fe57fc1815fe", "name": "2df42b7c0b5ed79d8087fe57fc1815fe"}, {"lon": -77.0120255, "is_disabled": 0, "lat": 38.89797516666667, "fusion_lat": 0.0, "is_reserved": 0, "rental_uris": {"ios": "https://dc.lft.to/lastmile_qr_scan", "android": "https://dc.lft.to/lastmile_qr_scan"}, "fusion_lon": 0.0, "type": "electric_scooter", "bike_id": "4bf64bd4a53f0d08adbc32f690c04edf", "name": "4bf64bd4a53f0d08adbc32f690c04edf"}, {"lon": -77.0244275, "is_disabled": 0, "lat": 38.920482, "fusion_lat": 0.0, "is_reserved": 0, "rental_uris": {"ios": "https://dc.lft.to/lastmile_qr_scan", "android": "https://dc.lft.to/lastmile_qr_scan"}, "fusion_lon": 0.0, "type": "electric_scooter", "bike_id": "0e91fd50320b3e45d487ab1d13dc70c2", "name": "0e91fd50320b3e45d487ab1d13dc70c2"}, {"lon": -77.04209966666667, "is_disabled": 0, "lat": 38.92319783333333, "fusion_lat": 0.0, "is_reserved": 0, "rental_uris": {"ios": "https://dc.lft.to/lastmile_qr_scan", "android": "https://dc.lft.to/lastmile_qr_scan"}, "fusion_lon": 0.0, "type": "electric_scooter", "bike_id": "241cd115100b855dac896ac40364342c", "name": "241cd115100b855dac896ac40364342c"}, {"lon": -77.02718766666666, "is_disabled": 0, "lat": 38.92767416666667, "fusion_lat": 0.0, "is_reserved": 0, "rental_uris": {"ios": "https://dc.lft.to/lastmile_qr_scan", "android": "https://dc.lft.to/lastmile_qr_scan"}, "fusion_lon": 0.0, "type": "electric_scooter", "bike_id": "5367192b733c29783adf55cb60b06930", "name": "5367192b733c29783adf55cb60b06930"}, {"lon": -77.0058765, "is_disabled": 0, "lat": 38.905701, "fusion_lat": 0.0, "is_reserved": 0, "rental_uris": {"ios": "https://dc.lft.to/lastmile_qr_scan", "android": "https://dc.lft.to/lastmile_qr_scan"}, "fusion_lon": 0.0, "type": "electric_scooter", "bike_id": "9b099930807b17628bf673953f0a855b", "name": "9b099930807b17628bf673953f0a855b"}, {"lon": -77.02472416666667, "is_disabled": 0, "lat": 38.93857083333333, "fusion_lat": 0.0, "is_reserved": 0, "rental_uris": {"ios": "https://dc.lft.to/lastmile_qr_scan", "android": "https://dc.lft.to/lastmile_qr_scan"}, "fusion_lon": 0.0, "type": "electric_scooter", "bike_id": "128137eb9200208128b7fa649c5303ad", "name": "128137eb9200208128b7fa649c5303ad"}, {"lon": -77.02774433333333, "is_disabled": 0, "lat": 38.928746833333335, "fusion_lat": 0.0, "is_reserved": 0, "rental_uris": {"ios": "https://dc.lft.to/lastmile_qr_scan", "android": "https://dc.lft.to/lastmile_qr_scan"}, "fusion_lon": 0.0, "type": "electric_scooter", "bike_id": "6233150dc703cae02c9bbfa94f721b95", "name": "6233150dc703cae02c9bbfa94f721b95"}, {"lon": -77.03438783333333, "is_disabled": 0, "lat": 38.909712999999996, "fusion_lat": 0.0, "is_reserved": 0, "rental_uris": {"ios": "https://dc.lft.to/lastmile_qr_scan", "android": "https://dc.lft.to/lastmile_qr_scan"}, "fusion_lon": 0.0, "type": "electric_scooter", "bike_id": "94f9d7b0b4f56ec4291e5256bdc4d793", "name": "94f9d7b0b4f56ec4291e5256bdc4d793"}, {"lon": -77.1812135, "is_disabled": 0, "lat": 38.932291166666666, "fusion_lat": 0.0, "is_reserved": 0, "rental_uris": {"ios": "https://dc.lft.to/lastmile_qr_scan", "android": "https://dc.lft.to/lastmile_qr_scan"}, "fusion_lon": 0.0, "type": "electric_bike", "bike_id": "10905c1fb728f75f7e5782b294e4930d", "name": "10905c1fb728f75f7e5782b294e4930d"}, {"lon": -77.05002633333334, "is_disabled": 0, "lat": 38.892338333333335, "fusion_lat": 0.0, "is_reserved": 0, "rental_uris": {"ios": "https://dc.lft.to/lastmile_qr_scan", "android": "https://dc.lft.to/lastmile_qr_scan"}, "fusion_lon": 0.0, "type": "electric_scooter", "bike_id": "b10ad56d2ebd2e24cb2e50e520d11a9e", "name": "b10ad56d2ebd2e24cb2e50e520d11a9e"}, {"lon": -76.985528, "is_disabled": 0, "lat": 38.8999575, "fusion_lat": 0.0, "is_reserved": 0, "rental_uris": {"ios": "https://dc.lft.to/lastmile_qr_scan", "android": "https://dc.lft.to/lastmile_qr_scan"}, "fusion_lon": 0.0, "type": "electric_scooter", "bike_id": "83a75ba3876c1b17e912b4f5fe733cec", "name": "83a75ba3876c1b17e912b4f5fe733cec"}, {"lon": -77.02391733333333, "is_disabled": 0, "lat": 38.9127625, "fusion_lat": 0.0, "is_reserved": 0, "rental_uris": {"ios": "https://dc.lft.to/lastmile_qr_scan", "android": "https://dc.lft.to/lastmile_qr_scan"}, "fusion_lon": 0.0, "type": "electric_scooter", "bike_id": "b8645daf22f20ef7e4ae6c402719dfe1", "name": "b8645daf22f20ef7e4ae6c402719dfe1"}, {"lon": -77.00113016666667, "is_disabled": 0, "lat": 38.87374166666667, "fusion_lat": 0.0, "is_reserved": 0, "rental_uris": {"ios": "https://dc.lft.to/lastmile_qr_scan", "android": "https://dc.lft.to/lastmile_qr_scan"}, "fusion_lon": 0.0, "type": "electric_scooter", "bike_id": "e03b52ed79beda9de41bb77db8180e37", "name": "e03b52ed79beda9de41bb77db8180e37"}, {"lon": -77.02395616666666, "is_disabled": 0, "lat": 38.907102333333334, "fusion_lat": 0.0, "is_reserved": 0, "rental_uris": {"ios": "https://dc.lft.to/lastmile_qr_scan", "android": "https://dc.lft.to/lastmile_qr_scan"}, "fusion_lon": 0.0, "type": "electric_scooter", "bike_id": "1845f035d7109c5f7960dcba4609448b", "name": "1845f035d7109c5f7960dcba4609448b"}, {"lon": -77.01655633333333, "is_disabled": 0, "lat": 38.881225666666666, "fusion_lat": 0.0, "is_reserved": 0, "rental_uris": {"ios": "https://dc.lft.to/lastmile_qr_scan", "android": "https://dc.lft.to/lastmile_qr_scan"}, "fusion_lon": 0.0, "type": "electric_scooter", "bike_id": "f1a57d9eb662801a106380ccfdf4d28e", "name": "f1a57d9eb662801a106380ccfdf4d28e"}, {"lon": -76.9563155, "is_disabled": 0, "lat": 38.88527966666667, "fusion_lat": 0.0, "is_reserved": 0, "rental_uris": {"ios": "https://dc.lft.to/lastmile_qr_scan", "android": "https://dc.lft.to/lastmile_qr_scan"}, "fusion_lon": 0.0, "type": "electric_bike", "bike_id": "a11ae22b711e934267b66ee90d7f2f90", "name": "a11ae22b711e934267b66ee90d7f2f90"}, {"lon": -77.04343666666666, "is_disabled": 0, "lat": 38.90036683333334, "fusion_lat": 0.0, "is_reserved": 0, "rental_uris": {"ios": "https://dc.lft.to/lastmile_qr_scan", "android": "https://dc.lft.to/lastmile_qr_scan"}, "fusion_lon": 0.0, "type": "electric_scooter", "bike_id": "c0973b6b736880779e1d4e1c3de5ed15", "name": "c0973b6b736880779e1d4e1c3de5ed15"}, {"lon": -77.01814983333334, "is_disabled": 0, "lat": 38.92033883333333, "fusion_lat": 0.0, "is_reserved": 0, "rental_uris": {"ios": "https://dc.lft.to/lastmile_qr_scan", "android": "https://dc.lft.to/lastmile_qr_scan"}, "fusion_lon": 0.0, "type": "electric_scooter", "bike_id": "8f0fd3f18053f5df5f8bfe05bbf4477c", "name": "8f0fd3f18053f5df5f8bfe05bbf4477c"}, {"lon": -76.98005883333333, "is_disabled": 0, "lat": 38.90682616666667, "fusion_lat": 0.0, "is_reserved": 0, "rental_uris": {"ios": "https://dc.lft.to/lastmile_qr_scan", "android": "https://dc.lft.to/lastmile_qr_scan"}, "fusion_lon": 0.0, "type": "electric_scooter", "bike_id": "0ac6ec011bc586cc13a75d3c090003ee", "name": "0ac6ec011bc586cc13a75d3c090003ee"}, {"lon": -77.02272666666667, "is_disabled": 0, "lat": 38.927356833333334, "fusion_lat": 0.0, "is_reserved": 0, "rental_uris": {"ios": "https://dc.lft.to/lastmile_qr_scan", "android": "https://dc.lft.to/lastmile_qr_scan"}, "fusion_lon": 0.0, "type": "electric_scooter", "bike_id": "10296958855bd5a099a33f3fc34b33e8", "name": "10296958855bd5a099a33f3fc34b33e8"}, {"lon": -77.00138383333334, "is_disabled": 0, "lat": 38.905142, "fusion_lat": 0.0, "is_reserved": 0, "rental_uris": {"ios": "https://dc.lft.to/lastmile_qr_scan", "android": "https://dc.lft.to/lastmile_qr_scan"}, "fusion_lon": 0.0, "type": "electric_scooter", "bike_id": "23498aa941a89f47b152f869fe03f683", "name": "23498aa941a89f47b152f869fe03f683"}, {"lon": -77.04402366666666, "is_disabled": 0, "lat": 38.90928316666667, "fusion_lat": 0.0, "is_reserved": 0, "rental_uris": {"ios": "https://dc.lft.to/lastmile_qr_scan", "android": "https://dc.lft.to/lastmile_qr_scan"}, "fusion_lon": 0.0, "type": "electric_scooter", "bike_id": "77f8e8da92e7e64778199d0813007ef4", "name": "77f8e8da92e7e64778199d0813007ef4"}, {"lon": -77.03328166666667, "is_disabled": 0, "lat": 38.89230583333333, "fusion_lat": 0.0, "is_reserved": 0, "rental_uris": {"ios": "https://dc.lft.to/lastmile_qr_scan", "android": "https://dc.lft.to/lastmile_qr_scan"}, "fusion_lon": 0.0, "type": "electric_scooter", "bike_id": "e60135dd16a8d627857a7f63e7ff909f", "name": "e60135dd16a8d627857a7f63e7ff909f"}, {"lon": -77.03855683333333, "is_disabled": 0, "lat": 38.9150025, "fusion_lat": 0.0, "is_reserved": 0, "rental_uris": {"ios": "https://dc.lft.to/lastmile_qr_scan", "android": "https://dc.lft.to/lastmile_qr_scan"}, "fusion_lon": 0.0, "type": "electric_scooter", "bike_id": "d8a04ab10095fc2c916ec95f7cc66ba8", "name": "d8a04ab10095fc2c916ec95f7cc66ba8"}, {"lon": -77.00893216666667, "is_disabled": 0, "lat": 38.921508833333334, "fusion_lat": 0.0, "is_reserved": 0, "rental_uris": {"ios": "https://dc.lft.to/lastmile_qr_scan", "android": "https://dc.lft.to/lastmile_qr_scan"}, "fusion_lon": 0.0, "type": "electric_bike", "bike_id": "c27a2e954b7606e7ecfaa815736886fa", "name": "c27a2e954b7606e7ecfaa815736886fa"}, {"lon": -77.04093283333333, "is_disabled": 0, "lat": 38.903923, "fusion_lat": 0.0, "is_reserved": 0, "rental_uris": {"ios": "https://dc.lft.to/lastmile_qr_scan", "android": "https://dc.lft.to/lastmile_qr_scan"}, "fusion_lon": 0.0, "type": "electric_scooter", "bike_id": "8ca06a8506b0b29865c7c9d4e8befb89", "name": "8ca06a8506b0b29865c7c9d4e8befb89"}, {"lon": -77.04681483333333, "is_disabled": 0, "lat": 38.895131166666665, "fusion_lat": 0.0, "is_reserved": 0, "rental_uris": {"ios": "https://dc.lft.to/lastmile_qr_scan", "android": "https://dc.lft.to/lastmile_qr_scan"}, "fusion_lon": 0.0, "type": "electric_scooter", "bike_id": "da6d49a9a126340cf7f649dfe7c56446", "name": "da6d49a9a126340cf7f649dfe7c56446"}, {"lon": -77.04473583333333, "is_disabled": 0, "lat": 38.90948433333333, "fusion_lat": 0.0, "is_reserved": 0, "rental_uris": {"ios": "https://dc.lft.to/lastmile_qr_scan", "android": "https://dc.lft.to/lastmile_qr_scan"}, "fusion_lon": 0.0, "type": "electric_scooter", "bike_id": "054205222c1ba96197a6035a48be671c", "name": "054205222c1ba96197a6035a48be671c"}, {"lon": -77.04352333333334, "is_disabled": 0, "lat": 38.90404766666666, "fusion_lat": 0.0, "is_reserved": 0, "rental_uris": {"ios": "https://dc.lft.to/lastmile_qr_scan", "android": "https://dc.lft.to/lastmile_qr_scan"}, "fusion_lon": 0.0, "type": "electric_scooter", "bike_id": "7a16c412c41f1cab0e1951596bfe4d18", "name": "7a16c412c41f1cab0e1951596bfe4d18"}, {"lon": -77.037347, "is_disabled": 0, "lat": 38.920252, "fusion_lat": 0.0, "is_reserved": 0, "rental_uris": {"ios": "https://dc.lft.to/lastmile_qr_scan", "android": "https://dc.lft.to/lastmile_qr_scan"}, "fusion_lon": 0.0, "type": "electric_scooter", "bike_id": "0596b645131a87763685a59c4d78024a", "name": "0596b645131a87763685a59c4d78024a"}, {"lon": -77.03664333333333, "is_disabled": 0, "lat": 38.90511716666666, "fusion_lat": 0.0, "is_reserved": 0, "rental_uris": {"ios": "https://dc.lft.to/lastmile_qr_scan", "android": "https://dc.lft.to/lastmile_qr_scan"}, "fusion_lon": 0.0, "type": "electric_scooter", "bike_id": "4c3d95b2b44eb8bcac2c370a46caeb40", "name": "4c3d95b2b44eb8bcac2c370a46caeb40"}, {"lon": -77.0468485, "is_disabled": 0, "lat": 38.8955775, "fusion_lat": 0.0, "is_reserved": 0, "rental_uris": {"ios": "https://dc.lft.to/lastmile_qr_scan", "android": "https://dc.lft.to/lastmile_qr_scan"}, "fusion_lon": 0.0, "type": "electric_scooter", "bike_id": "3763ae9d1f8014a6f729bd41c2326c64", "name": "3763ae9d1f8014a6f729bd41c2326c64"}, {"lon": -76.999935, "is_disabled": 0, "lat": 38.964027, "fusion_lat": 0.0, "is_reserved": 0, "rental_uris": {"ios": "https://dc.lft.to/lastmile_qr_scan", "android": "https://dc.lft.to/lastmile_qr_scan"}, "fusion_lon": 0.0, "type": "electric_bike", "bike_id": "3892831630dd7f747870218cbc47307b", "name": "3892831630dd7f747870218cbc47307b"}, {"lon": -77.02811983333334, "is_disabled": 0, "lat": 38.89910316666667, "fusion_lat": 0.0, "is_reserved": 0, "rental_uris": {"ios": "https://dc.lft.to/lastmile_qr_scan", "android": "https://dc.lft.to/lastmile_qr_scan"}, "fusion_lon": 0.0, "type": "electric_scooter", "bike_id": "48b947c5bb8d128efaaa161acacb776d", "name": "48b947c5bb8d128efaaa161acacb776d"}, {"lon": -77.03940116666666, "is_disabled": 0, "lat": 38.8985855, "fusion_lat": 0.0, "is_reserved": 0, "rental_uris": {"ios": "https://dc.lft.to/lastmile_qr_scan", "android": "https://dc.lft.to/lastmile_qr_scan"}, "fusion_lon": 0.0, "type": "electric_scooter", "bike_id": "b07e3bef01934b823000e719c0c34d53", "name": "b07e3bef01934b823000e719c0c34d53"}, {"lon": -77.03434166666666, "is_disabled": 0, "lat": 38.905764, "fusion_lat": 0.0, "is_reserved": 0, "rental_uris": {"ios": "https://dc.lft.to/lastmile_qr_scan", "android": "https://dc.lft.to/lastmile_qr_scan"}, "fusion_lon": 0.0, "type": "electric_scooter", "bike_id": "8b57b85fbccd73cea45f78bed98d7c36", "name": "8b57b85fbccd73cea45f78bed98d7c36"}, {"lon": -77.041722, "is_disabled": 0, "lat": 38.914030833333335, "fusion_lat": 0.0, "is_reserved": 0, "rental_uris": {"ios": "https://dc.lft.to/lastmile_qr_scan", "android": "https://dc.lft.to/lastmile_qr_scan"}, "fusion_lon": 0.0, "type": "electric_scooter", "bike_id": "5931d06410fa4d73dc63f1020f8d6e0c", "name": "5931d06410fa4d73dc63f1020f8d6e0c"}, {"lon": -77.03807966666666, "is_disabled": 0, "lat": 38.90678183333333, "fusion_lat": 0.0, "is_reserved": 0, "rental_uris": {"ios": "https://dc.lft.to/lastmile_qr_scan", "android": "https://dc.lft.to/lastmile_qr_scan"}, "fusion_lon": 0.0, "type": "electric_scooter", "bike_id": "058d31d8c1e41223907e17b8affd7c85", "name": "058d31d8c1e41223907e17b8affd7c85"}, {"lon": -76.95757883333333, "is_disabled": 0, "lat": 38.8843235, "fusion_lat": 0.0, "is_reserved": 0, "rental_uris": {"ios": "https://dc.lft.to/lastmile_qr_scan", "android": "https://dc.lft.to/lastmile_qr_scan"}, "fusion_lon": 0.0, "type": "electric_scooter", "bike_id": "16f6c32ca90cd5e490136c11e1a0512b", "name": "16f6c32ca90cd5e490136c11e1a0512b"}, {"lon": -77.03193866666666, "is_disabled": 0, "lat": 38.91326516666667, "fusion_lat": 0.0, "is_reserved": 0, "rental_uris": {"ios": "https://dc.lft.to/lastmile_qr_scan", "android": "https://dc.lft.to/lastmile_qr_scan"}, "fusion_lon": 0.0, "type": "electric_scooter", "bike_id": "42da7d909c8422a6597d5ba1239fb924", "name": "42da7d909c8422a6597d5ba1239fb924"}, {"lon": -77.03333416666666, "is_disabled": 0, "lat": 38.920472833333335, "fusion_lat": 0.0, "is_reserved": 0, "rental_uris": {"ios": "https://dc.lft.to/lastmile_qr_scan", "android": "https://dc.lft.to/lastmile_qr_scan"}, "fusion_lon": 0.0, "type": "electric_scooter", "bike_id": "38619aea6755058a45afd13c7644e611", "name": "38619aea6755058a45afd13c7644e611"}, {"lon": -77.05740233333333, "is_disabled": 0, "lat": 38.933939, "fusion_lat": 0.0, "is_reserved": 0, "rental_uris": {"ios": "https://dc.lft.to/lastmile_qr_scan", "android": "https://dc.lft.to/lastmile_qr_scan"}, "fusion_lon": 0.0, "type": "electric_scooter", "bike_id": "74c8a035c1ff301535460130aad8c155", "name": "74c8a035c1ff301535460130aad8c155"}, {"lon": -77.0324605, "is_disabled": 0, "lat": 38.92385783333334, "fusion_lat": 0.0, "is_reserved": 0, "rental_uris": {"ios": "https://dc.lft.to/lastmile_qr_scan", "android": "https://dc.lft.to/lastmile_qr_scan"}, "fusion_lon": 0.0, "type": "electric_scooter", "bike_id": "c1aa8bba427f2349b712da5af77de181", "name": "c1aa8bba427f2349b712da5af77de181"}, {"lon": -77.0246565, "is_disabled": 0, "lat": 38.89735116666667, "fusion_lat": 0.0, "is_reserved": 0, "rental_uris": {"ios": "https://dc.lft.to/lastmile_qr_scan", "android": "https://dc.lft.to/lastmile_qr_scan"}, "fusion_lon": 0.0, "type": "electric_scooter", "bike_id": "13d70c3bb8e4c5b7bd3d53b1849abbb8", "name": "13d70c3bb8e4c5b7bd3d53b1849abbb8"}, {"lon": -77.004563, "is_disabled": 0, "lat": 38.87660733333333, "fusion_lat": 0.0, "is_reserved": 0, "rental_uris": {"ios": "https://dc.lft.to/lastmile_qr_scan", "android": "https://dc.lft.to/lastmile_qr_scan"}, "fusion_lon": 0.0, "type": "electric_scooter", "bike_id": "60fa0df8ef418c2a9d38d7452e2fe8b9", "name": "60fa0df8ef418c2a9d38d7452e2fe8b9"}, {"lon": -77.03584766666667, "is_disabled": 0, "lat": 38.942457166666664, "fusion_lat": 0.0, "is_reserved": 0, "rental_uris": {"ios": "https://dc.lft.to/lastmile_qr_scan", "android": "https://dc.lft.to/lastmile_qr_scan"}, "fusion_lon": 0.0, "type": "electric_scooter", "bike_id": "8c8d0b6a82a30f8cceb8446cc6358621", "name": "8c8d0b6a82a30f8cceb8446cc6358621"}, {"lon": -77.03925766666667, "is_disabled": 0, "lat": 38.90623816666667, "fusion_lat": 0.0, "is_reserved": 0, "rental_uris": {"ios": "https://dc.lft.to/lastmile_qr_scan", "android": "https://dc.lft.to/lastmile_qr_scan"}, "fusion_lon": 0.0, "type": "electric_scooter", "bike_id": "b16b2ca6f1d6774560082e082f3c3be4", "name": "b16b2ca6f1d6774560082e082f3c3be4"}, {"lon": -77.04100066666666, "is_disabled": 0, "lat": 38.91778466666667, "fusion_lat": 0.0, "is_reserved": 0, "rental_uris": {"ios": "https://dc.lft.to/lastmile_qr_scan", "android": "https://dc.lft.to/lastmile_qr_scan"}, "fusion_lon": 0.0, "type": "electric_scooter", "bike_id": "bf1b49601e20bcc51948e5706c3bb200", "name": "bf1b49601e20bcc51948e5706c3bb200"}, {"lon": -77.024314, "is_disabled": 0, "lat": 38.9353915, "fusion_lat": 0.0, "is_reserved": 0, "rental_uris": {"ios": "https://dc.lft.to/lastmile_qr_scan", "android": "https://dc.lft.to/lastmile_qr_scan"}, "fusion_lon": 0.0, "type": "electric_scooter", "bike_id": "c0ec0ac8a2da1d4e888641a84dee8745", "name": "c0ec0ac8a2da1d4e888641a84dee8745"}, {"lon": -77.03171566666667, "is_disabled": 0, "lat": 38.915553333333335, "fusion_lat": 0.0, "is_reserved": 0, "rental_uris": {"ios": "https://dc.lft.to/lastmile_qr_scan", "android": "https://dc.lft.to/lastmile_qr_scan"}, "fusion_lon": 0.0, "type": "electric_scooter", "bike_id": "20e34b0c5cf10ccbdcee4e34d93d61f7", "name": "20e34b0c5cf10ccbdcee4e34d93d61f7"}, {"lon": -77.04688433333334, "is_disabled": 0, "lat": 38.89516016666666, "fusion_lat": 0.0, "is_reserved": 0, "rental_uris": {"ios": "https://dc.lft.to/lastmile_qr_scan", "android": "https://dc.lft.to/lastmile_qr_scan"}, "fusion_lon": 0.0, "type": "electric_scooter", "bike_id": "ac740a4de2e74d9ec3ab208aea55b961", "name": "ac740a4de2e74d9ec3ab208aea55b961"}, {"lon": -77.01730866666666, "is_disabled": 0, "lat": 38.9436025, "fusion_lat": 0.0, "is_reserved": 0, "rental_uris": {"ios": "https://dc.lft.to/lastmile_qr_scan", "android": "https://dc.lft.to/lastmile_qr_scan"}, "fusion_lon": 0.0, "type": "electric_scooter", "bike_id": "5f6142587de51d82e676b72ae25cbff9", "name": "5f6142587de51d82e676b72ae25cbff9"}, {"lon": -76.95094833333333, "is_disabled": 0, "lat": 38.884509666666666, "fusion_lat": 0.0, "is_reserved": 0, "rental_uris": {"ios": "https://dc.lft.to/lastmile_qr_scan", "android": "https://dc.lft.to/lastmile_qr_scan"}, "fusion_lon": 0.0, "type": "electric_scooter", "bike_id": "b214f6fe835fc03ec24ee70706cc73e5", "name": "b214f6fe835fc03ec24ee70706cc73e5"}, {"lon": -77.0533835, "is_disabled": 0, "lat": 39.040783833333336, "fusion_lat": 0.0, "is_reserved": 0, "rental_uris": {"ios": "https://dc.lft.to/lastmile_qr_scan", "android": "https://dc.lft.to/lastmile_qr_scan"}, "fusion_lon": 0.0, "type": "electric_bike", "bike_id": "3872bb975427f088a974825bf0eeab19", "name": "3872bb975427f088a974825bf0eeab19"}, {"lon": -77.04676733333334, "is_disabled": 0, "lat": 38.89557166666667, "fusion_lat": 0.0, "is_reserved": 0, "rental_uris": {"ios": "https://dc.lft.to/lastmile_qr_scan", "android": "https://dc.lft.to/lastmile_qr_scan"}, "fusion_lon": 0.0, "type": "electric_scooter", "bike_id": "70f40f2ee274cd9600430cb33f87e0ec", "name": "70f40f2ee274cd9600430cb33f87e0ec"}, {"lon": -77.0329285, "is_disabled": 0, "lat": 38.928766833333334, "fusion_lat": 0.0, "is_reserved": 0, "rental_uris": {"ios": "https://dc.lft.to/lastmile_qr_scan", "android": "https://dc.lft.to/lastmile_qr_scan"}, "fusion_lon": 0.0, "type": "electric_scooter", "bike_id": "f31df19cfc43ba10d5ba8ffe6b81144d", "name": "f31df19cfc43ba10d5ba8ffe6b81144d"}, {"lon": -77.04506133333334, "is_disabled": 0, "lat": 38.908753833333336, "fusion_lat": 0.0, "is_reserved": 0, "rental_uris": {"ios": "https://dc.lft.to/lastmile_qr_scan", "android": "https://dc.lft.to/lastmile_qr_scan"}, "fusion_lon": 0.0, "type": "electric_scooter", "bike_id": "c776c47c0b1d90b59a1d437b13a07902", "name": "c776c47c0b1d90b59a1d437b13a07902"}, {"lon": -77.03328383333333, "is_disabled": 0, "lat": 38.892255, "fusion_lat": 0.0, "is_reserved": 0, "rental_uris": {"ios": "https://dc.lft.to/lastmile_qr_scan", "android": "https://dc.lft.to/lastmile_qr_scan"}, "fusion_lon": 0.0, "type": "electric_scooter", "bike_id": "3a949748c2ca84272959e0ae3725c2cb", "name": "3a949748c2ca84272959e0ae3725c2cb"}, {"lon": -77.02461616666666, "is_disabled": 0, "lat": 38.93862216666667, "fusion_lat": 0.0, "is_reserved": 0, "rental_uris": {"ios": "https://dc.lft.to/lastmile_qr_scan", "android": "https://dc.lft.to/lastmile_qr_scan"}, "fusion_lon": 0.0, "type": "electric_scooter", "bike_id": "83ec9c68c04b39b09d939f4328a7c026", "name": "83ec9c68c04b39b09d939f4328a7c026"}, {"lon": -77.05165083333333, "is_disabled": 0, "lat": 38.90543316666667, "fusion_lat": 0.0, "is_reserved": 0, "rental_uris": {"ios": "https://dc.lft.to/lastmile_qr_scan", "android": "https://dc.lft.to/lastmile_qr_scan"}, "fusion_lon": 0.0, "type": "electric_scooter", "bike_id": "77a2c2832a2a7f02c781d4060cfc379b", "name": "77a2c2832a2a7f02c781d4060cfc379b"}, {"lon": -77.01490616666666, "is_disabled": 0, "lat": 38.8922485, "fusion_lat": 0.0, "is_reserved": 0, "rental_uris": {"ios": "https://dc.lft.to/lastmile_qr_scan", "android": "https://dc.lft.to/lastmile_qr_scan"}, "fusion_lon": 0.0, "type": "electric_scooter", "bike_id": "ef8acd1dab09fb13ecbc19e84e2f6487", "name": "ef8acd1dab09fb13ecbc19e84e2f6487"}, {"lon": -77.000682, "is_disabled": 0, "lat": 38.873684833333336, "fusion_lat": 0.0, "is_reserved": 0, "rental_uris": {"ios": "https://dc.lft.to/lastmile_qr_scan", "android": "https://dc.lft.to/lastmile_qr_scan"}, "fusion_lon": 0.0, "type": "electric_scooter", "bike_id": "97d7e524e79674b2899062044d3cdee3", "name": "97d7e524e79674b2899062044d3cdee3"}, {"lon": -77.038329, "is_disabled": 0, "lat": 38.911127666666665, "fusion_lat": 0.0, "is_reserved": 0, "rental_uris": {"ios": "https://dc.lft.to/lastmile_qr_scan", "android": "https://dc.lft.to/lastmile_qr_scan"}, "fusion_lon": 0.0, "type": "electric_scooter", "bike_id": "a101072c7ae03d2d816a57d7402b578e", "name": "a101072c7ae03d2d816a57d7402b578e"}, {"lon": -77.0345395, "is_disabled": 0, "lat": 38.9056505, "fusion_lat": 0.0, "is_reserved": 0, "rental_uris": {"ios": "https://dc.lft.to/lastmile_qr_scan", "android": "https://dc.lft.to/lastmile_qr_scan"}, "fusion_lon": 0.0, "type": "electric_scooter", "bike_id": "c8ff623333ed001ef0753ed967ac15e8", "name": "c8ff623333ed001ef0753ed967ac15e8"}, {"lon": -77.03787466666667, "is_disabled": 0, "lat": 38.939710166666664, "fusion_lat": 0.0, "is_reserved": 0, "rental_uris": {"ios": "https://dc.lft.to/lastmile_qr_scan", "android": "https://dc.lft.to/lastmile_qr_scan"}, "fusion_lon": 0.0, "type": "electric_bike", "bike_id": "a60d655a5716676a266b78200e25acef", "name": "a60d655a5716676a266b78200e25acef"}, {"lon": -77.041172, "is_disabled": 0, "lat": 38.90593583333333, "fusion_lat": 0.0, "is_reserved": 0, "rental_uris": {"ios": "https://dc.lft.to/lastmile_qr_scan", "android": "https://dc.lft.to/lastmile_qr_scan"}, "fusion_lon": 0.0, "type": "electric_scooter", "bike_id": "ec8d2ab3fbc57f60c2893cb62d16e128", "name": "ec8d2ab3fbc57f60c2893cb62d16e128"}, {"lon": -77.02404966666667, "is_disabled": 0, "lat": 38.90053316666667, "fusion_lat": 0.0, "is_reserved": 0, "rental_uris": {"ios": "https://dc.lft.to/lastmile_qr_scan", "android": "https://dc.lft.to/lastmile_qr_scan"}, "fusion_lon": 0.0, "type": "electric_scooter", "bike_id": "473e55f9198261da62fc07cbfbfe7f48", "name": "473e55f9198261da62fc07cbfbfe7f48"}, {"lon": -76.93477766666666, "is_disabled": 0, "lat": 38.90185966666667, "fusion_lat": 0.0, "is_reserved": 0, "rental_uris": {"ios": "https://dc.lft.to/lastmile_qr_scan", "android": "https://dc.lft.to/lastmile_qr_scan"}, "fusion_lon": 0.0, "type": "electric_scooter", "bike_id": "ff45e09589695693b9f0d8ef246fb525", "name": "ff45e09589695693b9f0d8ef246fb525"}, {"lon": -77.0237915, "is_disabled": 0, "lat": 38.90569933333333, "fusion_lat": 0.0, "is_reserved": 0, "rental_uris": {"ios": "https://dc.lft.to/lastmile_qr_scan", "android": "https://dc.lft.to/lastmile_qr_scan"}, "fusion_lon": 0.0, "type": "electric_scooter", "bike_id": "f42b6ba801b20d69f3b72d40ad24d2fc", "name": "f42b6ba801b20d69f3b72d40ad24d2fc"}, {"lon": -77.0456225, "is_disabled": 0, "lat": 38.9148835, "fusion_lat": 0.0, "is_reserved": 0, "rental_uris": {"ios": "https://dc.lft.to/lastmile_qr_scan", "android": "https://dc.lft.to/lastmile_qr_scan"}, "fusion_lon": 0.0, "type": "electric_scooter", "bike_id": "292b21e178a24459692924d825e69e47", "name": "292b21e178a24459692924d825e69e47"}, {"lon": -77.02813516666667, "is_disabled": 0, "lat": 38.901366, "fusion_lat": 0.0, "is_reserved": 0, "rental_uris": {"ios": "https://dc.lft.to/lastmile_qr_scan", "android": "https://dc.lft.to/lastmile_qr_scan"}, "fusion_lon": 0.0, "type": "electric_scooter", "bike_id": "3d78b6f5f3d0d69bd5245e79f58b1b33", "name": "3d78b6f5f3d0d69bd5245e79f58b1b33"}, {"lon": -76.98071766666666, "is_disabled": 0, "lat": 38.901738333333334, "fusion_lat": 0.0, "is_reserved": 0, "rental_uris": {"ios": "https://dc.lft.to/lastmile_qr_scan", "android": "https://dc.lft.to/lastmile_qr_scan"}, "fusion_lon": 0.0, "type": "electric_scooter", "bike_id": "d6e81975d9279e09f5336dad8386dd58", "name": "d6e81975d9279e09f5336dad8386dd58"}, {"lon": -77.0323185, "is_disabled": 0, "lat": 38.921685333333336, "fusion_lat": 0.0, "is_reserved": 0, "rental_uris": {"ios": "https://dc.lft.to/lastmile_qr_scan", "android": "https://dc.lft.to/lastmile_qr_scan"}, "fusion_lon": 0.0, "type": "electric_scooter", "bike_id": "b00576498c0d06b1519e7379f3fa6ab0", "name": "b00576498c0d06b1519e7379f3fa6ab0"}, {"lon": -77.01934666666666, "is_disabled": 0, "lat": 38.9225965, "fusion_lat": 0.0, "is_reserved": 0, "rental_uris": {"ios": "https://dc.lft.to/lastmile_qr_scan", "android": "https://dc.lft.to/lastmile_qr_scan"}, "fusion_lon": 0.0, "type": "electric_scooter", "bike_id": "a451be07440dc7c8e6f70236bbd46665", "name": "a451be07440dc7c8e6f70236bbd46665"}, {"lon": -77.00510433333334, "is_disabled": 0, "lat": 38.90961333333333, "fusion_lat": 0.0, "is_reserved": 0, "rental_uris": {"ios": "https://dc.lft.to/lastmile_qr_scan", "android": "https://dc.lft.to/lastmile_qr_scan"}, "fusion_lon": 0.0, "type": "electric_bike", "bike_id": "c7df3d04d50b7a2b255dd1826fa6e520", "name": "c7df3d04d50b7a2b255dd1826fa6e520"}, {"lon": -76.93869183333334, "is_disabled": 0, "lat": 38.95637416666667, "fusion_lat": 0.0, "is_reserved": 0, "rental_uris": {"ios": "https://dc.lft.to/lastmile_qr_scan", "android": "https://dc.lft.to/lastmile_qr_scan"}, "fusion_lon": 0.0, "type": "electric_bike", "bike_id": "4ea4407032c37f6a13d5fd1fec2eaefb", "name": "4ea4407032c37f6a13d5fd1fec2eaefb"}, {"lon": -77.02557916666666, "is_disabled": 0, "lat": 38.9971625, "fusion_lat": 0.0, "is_reserved": 0, "rental_uris": {"ios": "https://dc.lft.to/lastmile_qr_scan", "android": "https://dc.lft.to/lastmile_qr_scan"}, "fusion_lon": 0.0, "type": "electric_bike", "bike_id": "123990e7e6ae3fb264819b6cbb0240cb", "name": "123990e7e6ae3fb264819b6cbb0240cb"}, {"lon": -77.0113635, "is_disabled": 0, "lat": 38.91178166666667, "fusion_lat": 0.0, "is_reserved": 0, "rental_uris": {"ios": "https://dc.lft.to/lastmile_qr_scan", "android": "https://dc.lft.to/lastmile_qr_scan"}, "fusion_lon": 0.0, "type": "electric_scooter", "bike_id": "396b22855b5ec04a94805aa95976d2f1", "name": "396b22855b5ec04a94805aa95976d2f1"}, {"lon": -76.987156, "is_disabled": 0, "lat": 38.86630816666667, "fusion_lat": 0.0, "is_reserved": 0, "rental_uris": {"ios": "https://dc.lft.to/lastmile_qr_scan", "android": "https://dc.lft.to/lastmile_qr_scan"}, "fusion_lon": 0.0, "type": "electric_scooter", "bike_id": "1e9bf5386cf572ca25c0ce4ce0133e18", "name": "1e9bf5386cf572ca25c0ce4ce0133e18"}, {"lon": -77.03290266666667, "is_disabled": 0, "lat": 38.91978, "fusion_lat": 0.0, "is_reserved": 0, "rental_uris": {"ios": "https://dc.lft.to/lastmile_qr_scan", "android": "https://dc.lft.to/lastmile_qr_scan"}, "fusion_lon": 0.0, "type": "electric_scooter", "bike_id": "12ca1e0fc51f50e8d720d006bab4f01f", "name": "12ca1e0fc51f50e8d720d006bab4f01f"}, {"lon": -77.00569083333333, "is_disabled": 0, "lat": 38.87576133333334, "fusion_lat": 0.0, "is_reserved": 0, "rental_uris": {"ios": "https://dc.lft.to/lastmile_qr_scan", "android": "https://dc.lft.to/lastmile_qr_scan"}, "fusion_lon": 0.0, "type": "electric_scooter", "bike_id": "0a933a59581e1ff82e17fe7561492011", "name": "0a933a59581e1ff82e17fe7561492011"}, {"lon": -77.07053283333333, "is_disabled": 0, "lat": 38.896606166666665, "fusion_lat": 0.0, "is_reserved": 0, "rental_uris": {"ios": "https://dc.lft.to/lastmile_qr_scan", "android": "https://dc.lft.to/lastmile_qr_scan"}, "fusion_lon": 0.0, "type": "electric_scooter", "bike_id": "7cf24290dbb5051df24a17985f5bc149", "name": "7cf24290dbb5051df24a17985f5bc149"}, {"lon": -77.024636, "is_disabled": 0, "lat": 38.898188166666664, "fusion_lat": 0.0, "is_reserved": 0, "rental_uris": {"ios": "https://dc.lft.to/lastmile_qr_scan", "android": "https://dc.lft.to/lastmile_qr_scan"}, "fusion_lon": 0.0, "type": "electric_scooter", "bike_id": "9d2fb34fb3c075cbd6073e588b97fe47", "name": "9d2fb34fb3c075cbd6073e588b97fe47"}, {"lon": -77.0271435, "is_disabled": 0, "lat": 38.89716283333333, "fusion_lat": 0.0, "is_reserved": 0, "rental_uris": {"ios": "https://dc.lft.to/lastmile_qr_scan", "android": "https://dc.lft.to/lastmile_qr_scan"}, "fusion_lon": 0.0, "type": "electric_scooter", "bike_id": "79f82ae15b61c60fd369cd6253e7ebb9", "name": "79f82ae15b61c60fd369cd6253e7ebb9"}, {"lon": -77.05208283333333, "is_disabled": 0, "lat": 38.92487333333333, "fusion_lat": 0.0, "is_reserved": 0, "rental_uris": {"ios": "https://dc.lft.to/lastmile_qr_scan", "android": "https://dc.lft.to/lastmile_qr_scan"}, "fusion_lon": 0.0, "type": "electric_scooter", "bike_id": "ae50cc6c345343b3b6506576f0d569d2", "name": "ae50cc6c345343b3b6506576f0d569d2"}, {"lon": -77.03831283333334, "is_disabled": 0, "lat": 38.907806666666666, "fusion_lat": 0.0, "is_reserved": 0, "rental_uris": {"ios": "https://dc.lft.to/lastmile_qr_scan", "android": "https://dc.lft.to/lastmile_qr_scan"}, "fusion_lon": 0.0, "type": "electric_scooter", "bike_id": "d81bae1f5fe878cad07d28a7037debe0", "name": "d81bae1f5fe878cad07d28a7037debe0"}, {"lon": -77.04198133333334, "is_disabled": 0, "lat": 38.920579833333335, "fusion_lat": 0.0, "is_reserved": 0, "rental_uris": {"ios": "https://dc.lft.to/lastmile_qr_scan", "android": "https://dc.lft.to/lastmile_qr_scan"}, "fusion_lon": 0.0, "type": "electric_scooter", "bike_id": "677b74bab9cdd97089619b14564493dd", "name": "677b74bab9cdd97089619b14564493dd"}, {"lon": -76.9558965, "is_disabled": 0, "lat": 38.887677, "fusion_lat": 0.0, "is_reserved": 0, "rental_uris": {"ios": "https://dc.lft.to/lastmile_qr_scan", "android": "https://dc.lft.to/lastmile_qr_scan"}, "fusion_lon": 0.0, "type": "electric_scooter", "bike_id": "af7b1ef430e5001136686a18b59bdb0f", "name": "af7b1ef430e5001136686a18b59bdb0f"}, {"lon": -77.00399266666666, "is_disabled": 0, "lat": 38.90573716666667, "fusion_lat": 0.0, "is_reserved": 0, "rental_uris": {"ios": "https://dc.lft.to/lastmile_qr_scan", "android": "https://dc.lft.to/lastmile_qr_scan"}, "fusion_lon": 0.0, "type": "electric_scooter", "bike_id": "4afcd60563b26efbc4d86da14543effe", "name": "4afcd60563b26efbc4d86da14543effe"}, {"lon": -77.0893825, "is_disabled": 0, "lat": 38.8878475, "fusion_lat": 0.0, "is_reserved": 0, "rental_uris": {"ios": "https://dc.lft.to/lastmile_qr_scan", "android": "https://dc.lft.to/lastmile_qr_scan"}, "fusion_lon": 0.0, "type": "electric_bike", "bike_id": "151235a4e4deacaa1c348637fe688d9b", "name": "151235a4e4deacaa1c348637fe688d9b"}, {"lon": -76.96553283333333, "is_disabled": 0, "lat": 38.91882, "fusion_lat": 0.0, "is_reserved": 0, "rental_uris": {"ios": "https://dc.lft.to/lastmile_qr_scan", "android": "https://dc.lft.to/lastmile_qr_scan"}, "fusion_lon": 0.0, "type": "electric_scooter", "bike_id": "541382da5400139f076eea2d060e07dd", "name": "541382da5400139f076eea2d060e07dd"}, {"lon": -76.985992, "is_disabled": 0, "lat": 38.90017366666667, "fusion_lat": 0.0, "is_reserved": 0, "rental_uris": {"ios": "https://dc.lft.to/lastmile_qr_scan", "android": "https://dc.lft.to/lastmile_qr_scan"}, "fusion_lon": 0.0, "type": "electric_scooter", "bike_id": "bb8e3d72fd05c9252531cdffe0392862", "name": "bb8e3d72fd05c9252531cdffe0392862"}, {"lon": -77.04872883333333, "is_disabled": 0, "lat": 38.90980916666667, "fusion_lat": 0.0, "is_reserved": 0, "rental_uris": {"ios": "https://dc.lft.to/lastmile_qr_scan", "android": "https://dc.lft.to/lastmile_qr_scan"}, "fusion_lon": 0.0, "type": "electric_scooter", "bike_id": "5e1d5ece1824e055613096a93a3ce1a1", "name": "5e1d5ece1824e055613096a93a3ce1a1"}, {"lon": -76.99490033333333, "is_disabled": 0, "lat": 38.883412, "fusion_lat": 0.0, "is_reserved": 0, "rental_uris": {"ios": "https://dc.lft.to/lastmile_qr_scan", "android": "https://dc.lft.to/lastmile_qr_scan"}, "fusion_lon": 0.0, "type": "electric_scooter", "bike_id": "68a7b3d1121c1d29fd80a45cdd00fc6e", "name": "68a7b3d1121c1d29fd80a45cdd00fc6e"}, {"lon": -77.00802366666667, "is_disabled": 0, "lat": 38.949212833333334, "fusion_lat": 0.0, "is_reserved": 0, "rental_uris": {"ios": "https://dc.lft.to/lastmile_qr_scan", "android": "https://dc.lft.to/lastmile_qr_scan"}, "fusion_lon": 0.0, "type": "electric_bike", "bike_id": "ccdcdc05e2b349156654caef0934161c", "name": "ccdcdc05e2b349156654caef0934161c"}, {"lon": -76.96532666666667, "is_disabled": 0, "lat": 38.87632116666666, "fusion_lat": 0.0, "is_reserved": 0, "rental_uris": {"ios": "https://dc.lft.to/lastmile_qr_scan", "android": "https://dc.lft.to/lastmile_qr_scan"}, "fusion_lon": 0.0, "type": "electric_scooter", "bike_id": "d10ffed141952b779f91a6db2c9f2963", "name": "d10ffed141952b779f91a6db2c9f2963"}, {"lon": -77.01575766666667, "is_disabled": 0, "lat": 38.8766475, "fusion_lat": 0.0, "is_reserved": 0, "rental_uris": {"ios": "https://dc.lft.to/lastmile_qr_scan", "android": "https://dc.lft.to/lastmile_qr_scan"}, "fusion_lon": 0.0, "type": "electric_scooter", "bike_id": "1abf3deecc1062678d88cfdf28bd0f0e", "name": "1abf3deecc1062678d88cfdf28bd0f0e"}, {"lon": -76.946413, "is_disabled": 0, "lat": 38.898646166666666, "fusion_lat": 0.0, "is_reserved": 0, "rental_uris": {"ios": "https://dc.lft.to/lastmile_qr_scan", "android": "https://dc.lft.to/lastmile_qr_scan"}, "fusion_lon": 0.0, "type": "electric_scooter", "bike_id": "934dde0b6aa75990dcf45fbd7bec549b", "name": "934dde0b6aa75990dcf45fbd7bec549b"}, {"lon": -77.04006533333333, "is_disabled": 0, "lat": 38.910075, "fusion_lat": 0.0, "is_reserved": 0, "rental_uris": {"ios": "https://dc.lft.to/lastmile_qr_scan", "android": "https://dc.lft.to/lastmile_qr_scan"}, "fusion_lon": 0.0, "type": "electric_scooter", "bike_id": "8fe29769c6da0d01582db46a1d3a3ee6", "name": "8fe29769c6da0d01582db46a1d3a3ee6"}, {"lon": -77.02088283333333, "is_disabled": 0, "lat": 38.88191033333333, "fusion_lat": 0.0, "is_reserved": 0, "rental_uris": {"ios": "https://dc.lft.to/lastmile_qr_scan", "android": "https://dc.lft.to/lastmile_qr_scan"}, "fusion_lon": 0.0, "type": "electric_scooter", "bike_id": "b5eb3b75a75d22c0f426853673e5aa1f", "name": "b5eb3b75a75d22c0f426853673e5aa1f"}, {"lon": -76.988173, "is_disabled": 0, "lat": 38.900711333333334, "fusion_lat": 0.0, "is_reserved": 0, "rental_uris": {"ios": "https://dc.lft.to/lastmile_qr_scan", "android": "https://dc.lft.to/lastmile_qr_scan"}, "fusion_lon": 0.0, "type": "electric_scooter", "bike_id": "e55d10b858696962077e6803ed12af02", "name": "e55d10b858696962077e6803ed12af02"}, {"lon": -77.04504916666667, "is_disabled": 0, "lat": 38.903941833333334, "fusion_lat": 0.0, "is_reserved": 0, "rental_uris": {"ios": "https://dc.lft.to/lastmile_qr_scan", "android": "https://dc.lft.to/lastmile_qr_scan"}, "fusion_lon": 0.0, "type": "electric_scooter", "bike_id": "efd15c1f920d5daec009dc3cc08ee416", "name": "efd15c1f920d5daec009dc3cc08ee416"}, {"lon": -77.05029616666667, "is_disabled": 0, "lat": 38.892476333333335, "fusion_lat": 0.0, "is_reserved": 0, "rental_uris": {"ios": "https://dc.lft.to/lastmile_qr_scan", "android": "https://dc.lft.to/lastmile_qr_scan"}, "fusion_lon": 0.0, "type": "electric_scooter", "bike_id": "4792030a8ae06a4df2f87ff6a8f439c7", "name": "4792030a8ae06a4df2f87ff6a8f439c7"}, {"lon": -77.07061616666667, "is_disabled": 0, "lat": 38.901085333333334, "fusion_lat": 0.0, "is_reserved": 0, "rental_uris": {"ios": "https://dc.lft.to/lastmile_qr_scan", "android": "https://dc.lft.to/lastmile_qr_scan"}, "fusion_lon": 0.0, "type": "electric_scooter", "bike_id": "4540536f0977790d503ee8aa39ef6e05", "name": "4540536f0977790d503ee8aa39ef6e05"}, {"lon": -77.03514516666667, "is_disabled": 0, "lat": 38.921766833333336, "fusion_lat": 0.0, "is_reserved": 0, "rental_uris": {"ios": "https://dc.lft.to/lastmile_qr_scan", "android": "https://dc.lft.to/lastmile_qr_scan"}, "fusion_lon": 0.0, "type": "electric_scooter", "bike_id": "af236ba5e25c94680264f25120e3e2a0", "name": "af236ba5e25c94680264f25120e3e2a0"}, {"lon": -77.04485016666666, "is_disabled": 0, "lat": 38.8953075, "fusion_lat": 0.0, "is_reserved": 0, "rental_uris": {"ios": "https://dc.lft.to/lastmile_qr_scan", "android": "https://dc.lft.to/lastmile_qr_scan"}, "fusion_lon": 0.0, "type": "electric_scooter", "bike_id": "4d6505cd769c4b7465b7e2231e6b89c4", "name": "4d6505cd769c4b7465b7e2231e6b89c4"}, {"lon": -77.02002883333333, "is_disabled": 0, "lat": 38.8953895, "fusion_lat": 0.0, "is_reserved": 0, "rental_uris": {"ios": "https://dc.lft.to/lastmile_qr_scan", "android": "https://dc.lft.to/lastmile_qr_scan"}, "fusion_lon": 0.0, "type": "electric_scooter", "bike_id": "7a6f8ad21bb8704c641dbcf940e91530", "name": "7a6f8ad21bb8704c641dbcf940e91530"}, {"lon": -77.00197766666666, "is_disabled": 0, "lat": 38.9026735, "fusion_lat": 0.0, "is_reserved": 0, "rental_uris": {"ios": "https://dc.lft.to/lastmile_qr_scan", "android": "https://dc.lft.to/lastmile_qr_scan"}, "fusion_lon": 0.0, "type": "electric_scooter", "bike_id": "ed7f84efbcecf16111b23b480b178b12", "name": "ed7f84efbcecf16111b23b480b178b12"}, {"lon": -77.039846, "is_disabled": 0, "lat": 38.8923155, "fusion_lat": 0.0, "is_reserved": 0, "rental_uris": {"ios": "https://dc.lft.to/lastmile_qr_scan", "android": "https://dc.lft.to/lastmile_qr_scan"}, "fusion_lon": 0.0, "type": "electric_scooter", "bike_id": "f9cf68fdab5171927b89d5fdfcd0e746", "name": "f9cf68fdab5171927b89d5fdfcd0e746"}, {"lon": -77.0033725, "is_disabled": 0, "lat": 38.8935605, "fusion_lat": 0.0, "is_reserved": 0, "rental_uris": {"ios": "https://dc.lft.to/lastmile_qr_scan", "android": "https://dc.lft.to/lastmile_qr_scan"}, "fusion_lon": 0.0, "type": "electric_scooter", "bike_id": "7502df9194857c9aef3bdc16e00015ab", "name": "7502df9194857c9aef3bdc16e00015ab"}, {"lon": -77.02402916666666, "is_disabled": 0, "lat": 38.9070725, "fusion_lat": 0.0, "is_reserved": 0, "rental_uris": {"ios": "https://dc.lft.to/lastmile_qr_scan", "android": "https://dc.lft.to/lastmile_qr_scan"}, "fusion_lon": 0.0, "type": "electric_scooter", "bike_id": "36b20cf85877e351efbb537fc021bc2d", "name": "36b20cf85877e351efbb537fc021bc2d"}, {"lon": -77.04001883333333, "is_disabled": 0, "lat": 38.934249, "fusion_lat": 0.0, "is_reserved": 0, "rental_uris": {"ios": "https://dc.lft.to/lastmile_qr_scan", "android": "https://dc.lft.to/lastmile_qr_scan"}, "fusion_lon": 0.0, "type": "electric_scooter", "bike_id": "f5fb26d92496b6f204fed33b29415331", "name": "f5fb26d92496b6f204fed33b29415331"}, {"lon": -77.02196916666666, "is_disabled": 0, "lat": 38.950074, "fusion_lat": 0.0, "is_reserved": 0, "rental_uris": {"ios": "https://dc.lft.to/lastmile_qr_scan", "android": "https://dc.lft.to/lastmile_qr_scan"}, "fusion_lon": 0.0, "type": "electric_scooter", "bike_id": "f9d7a241d76c9ad1657db241d941fbae", "name": "f9d7a241d76c9ad1657db241d941fbae"}, {"lon": -77.04365466666667, "is_disabled": 0, "lat": 38.892270833333335, "fusion_lat": 0.0, "is_reserved": 0, "rental_uris": {"ios": "https://dc.lft.to/lastmile_qr_scan", "android": "https://dc.lft.to/lastmile_qr_scan"}, "fusion_lon": 0.0, "type": "electric_scooter", "bike_id": "c9bcfc52dd34faf9affcccce9123de49", "name": "c9bcfc52dd34faf9affcccce9123de49"}, {"lon": -76.979063, "is_disabled": 0, "lat": 38.904311166666666, "fusion_lat": 0.0, "is_reserved": 0, "rental_uris": {"ios": "https://dc.lft.to/lastmile_qr_scan", "android": "https://dc.lft.to/lastmile_qr_scan"}, "fusion_lon": 0.0, "type": "electric_scooter", "bike_id": "b74103022c283d1cfdf851b46f5b0aac", "name": "b74103022c283d1cfdf851b46f5b0aac"}, {"lon": -76.94639833333333, "is_disabled": 0, "lat": 38.89869733333333, "fusion_lat": 0.0, "is_reserved": 0, "rental_uris": {"ios": "https://dc.lft.to/lastmile_qr_scan", "android": "https://dc.lft.to/lastmile_qr_scan"}, "fusion_lon": 0.0, "type": "electric_scooter", "bike_id": "440d7dbe14948ddc0e6ed870cffe7c45", "name": "440d7dbe14948ddc0e6ed870cffe7c45"}, {"lon": -77.0385245, "is_disabled": 0, "lat": 38.902762833333334, "fusion_lat": 0.0, "is_reserved": 0, "rental_uris": {"ios": "https://dc.lft.to/lastmile_qr_scan", "android": "https://dc.lft.to/lastmile_qr_scan"}, "fusion_lon": 0.0, "type": "electric_scooter", "bike_id": "84dbfe2803be85641172475449a461fa", "name": "84dbfe2803be85641172475449a461fa"}, {"lon": -77.05512283333333, "is_disabled": 0, "lat": 38.928383833333335, "fusion_lat": 0.0, "is_reserved": 0, "rental_uris": {"ios": "https://dc.lft.to/lastmile_qr_scan", "android": "https://dc.lft.to/lastmile_qr_scan"}, "fusion_lon": 0.0, "type": "electric_scooter", "bike_id": "ff40eba6412c416a6de9729a976f55bd", "name": "ff40eba6412c416a6de9729a976f55bd"}, {"lon": -77.03212366666666, "is_disabled": 0, "lat": 38.957959833333334, "fusion_lat": 0.0, "is_reserved": 0, "rental_uris": {"ios": "https://dc.lft.to/lastmile_qr_scan", "android": "https://dc.lft.to/lastmile_qr_scan"}, "fusion_lon": 0.0, "type": "electric_scooter", "bike_id": "3b53b108db32a0a342f6c818a0bc990f", "name": "3b53b108db32a0a342f6c818a0bc990f"}, {"lon": -76.998206, "is_disabled": 0, "lat": 38.885335, "fusion_lat": 0.0, "is_reserved": 0, "rental_uris": {"ios": "https://dc.lft.to/lastmile_qr_scan", "android": "https://dc.lft.to/lastmile_qr_scan"}, "fusion_lon": 0.0, "type": "electric_scooter", "bike_id": "12d4ac5125b7574dc0ae65eff873c127", "name": "12d4ac5125b7574dc0ae65eff873c127"}, {"lon": -76.9464555, "is_disabled": 0, "lat": 38.8986665, "fusion_lat": 0.0, "is_reserved": 0, "rental_uris": {"ios": "https://dc.lft.to/lastmile_qr_scan", "android": "https://dc.lft.to/lastmile_qr_scan"}, "fusion_lon": 0.0, "type": "electric_scooter", "bike_id": "1b3c1a284920a623f87b6b52acea147e", "name": "1b3c1a284920a623f87b6b52acea147e"}, {"lon": -77.02296116666666, "is_disabled": 0, "lat": 38.91606516666667, "fusion_lat": 0.0, "is_reserved": 0, "rental_uris": {"ios": "https://dc.lft.to/lastmile_qr_scan", "android": "https://dc.lft.to/lastmile_qr_scan"}, "fusion_lon": 0.0, "type": "electric_scooter", "bike_id": "1b25c5087821373af90d8d74815b062e", "name": "1b25c5087821373af90d8d74815b062e"}, {"lon": -77.02459216666666, "is_disabled": 0, "lat": 38.89742616666667, "fusion_lat": 0.0, "is_reserved": 0, "rental_uris": {"ios": "https://dc.lft.to/lastmile_qr_scan", "android": "https://dc.lft.to/lastmile_qr_scan"}, "fusion_lon": 0.0, "type": "electric_scooter", "bike_id": "50e7410188a637c04e720829ef955e9c", "name": "50e7410188a637c04e720829ef955e9c"}, {"lon": -77.027895, "is_disabled": 0, "lat": 38.90114283333333, "fusion_lat": 0.0, "is_reserved": 0, "rental_uris": {"ios": "https://dc.lft.to/lastmile_qr_scan", "android": "https://dc.lft.to/lastmile_qr_scan"}, "fusion_lon": 0.0, "type": "electric_scooter", "bike_id": "36607fb992c347eb1a33aa20b1846df4", "name": "36607fb992c347eb1a33aa20b1846df4"}, {"lon": -77.02892416666667, "is_disabled": 0, "lat": 38.91701033333333, "fusion_lat": 0.0, "is_reserved": 0, "rental_uris": {"ios": "https://dc.lft.to/lastmile_qr_scan", "android": "https://dc.lft.to/lastmile_qr_scan"}, "fusion_lon": 0.0, "type": "electric_scooter", "bike_id": "19de23bff337cb200691e322563af10f", "name": "19de23bff337cb200691e322563af10f"}, {"lon": -77.032016, "is_disabled": 0, "lat": 38.91637516666667, "fusion_lat": 0.0, "is_reserved": 0, "rental_uris": {"ios": "https://dc.lft.to/lastmile_qr_scan", "android": "https://dc.lft.to/lastmile_qr_scan"}, "fusion_lon": 0.0, "type": "electric_scooter", "bike_id": "fa7c7649c648ad599dffa1d52b527329", "name": "fa7c7649c648ad599dffa1d52b527329"}, {"lon": -77.0064805, "is_disabled": 0, "lat": 38.9155615, "fusion_lat": 0.0, "is_reserved": 0, "rental_uris": {"ios": "https://dc.lft.to/lastmile_qr_scan", "android": "https://dc.lft.to/lastmile_qr_scan"}, "fusion_lon": 0.0, "type": "electric_scooter", "bike_id": "86ada268e2394a606bceba2b2a285a7d", "name": "86ada268e2394a606bceba2b2a285a7d"}, {"lon": -77.02532283333333, "is_disabled": 0, "lat": 38.8844705, "fusion_lat": 0.0, "is_reserved": 0, "rental_uris": {"ios": "https://dc.lft.to/lastmile_qr_scan", "android": "https://dc.lft.to/lastmile_qr_scan"}, "fusion_lon": 0.0, "type": "electric_scooter", "bike_id": "112fe52418d8ae1f3050149a6af80855", "name": "112fe52418d8ae1f3050149a6af80855"}, {"lon": -76.99504466666667, "is_disabled": 0, "lat": 38.862515, "fusion_lat": 0.0, "is_reserved": 0, "rental_uris": {"ios": "https://dc.lft.to/lastmile_qr_scan", "android": "https://dc.lft.to/lastmile_qr_scan"}, "fusion_lon": 0.0, "type": "electric_scooter", "bike_id": "5164fc2e7ffd8cf78ef5049d095caaa6", "name": "5164fc2e7ffd8cf78ef5049d095caaa6"}, {"lon": -77.06474916666667, "is_disabled": 0, "lat": 38.973852, "fusion_lat": 0.0, "is_reserved": 0, "rental_uris": {"ios": "https://dc.lft.to/lastmile_qr_scan", "android": "https://dc.lft.to/lastmile_qr_scan"}, "fusion_lon": 0.0, "type": "electric_bike", "bike_id": "879bd30356f136943a192a07c3ed25f8", "name": "879bd30356f136943a192a07c3ed25f8"}, {"lon": -77.00068983333334, "is_disabled": 0, "lat": 38.873654, "fusion_lat": 0.0, "is_reserved": 0, "rental_uris": {"ios": "https://dc.lft.to/lastmile_qr_scan", "android": "https://dc.lft.to/lastmile_qr_scan"}, "fusion_lon": 0.0, "type": "electric_scooter", "bike_id": "7a362ddb7bf9ffe1e4f6a54dc07cbe12", "name": "7a362ddb7bf9ffe1e4f6a54dc07cbe12"}, {"lon": -77.06188366666666, "is_disabled": 0, "lat": 38.90345583333333, "fusion_lat": 0.0, "is_reserved": 0, "rental_uris": {"ios": "https://dc.lft.to/lastmile_qr_scan", "android": "https://dc.lft.to/lastmile_qr_scan"}, "fusion_lon": 0.0, "type": "electric_scooter", "bike_id": "026099538d200ca84e4d0d3283b9a8ec", "name": "026099538d200ca84e4d0d3283b9a8ec"}, {"lon": -77.0533295, "is_disabled": 0, "lat": 38.904903833333336, "fusion_lat": 0.0, "is_reserved": 0, "rental_uris": {"ios": "https://dc.lft.to/lastmile_qr_scan", "android": "https://dc.lft.to/lastmile_qr_scan"}, "fusion_lon": 0.0, "type": "electric_scooter", "bike_id": "27f33a1931379e344ae818e50f5f9965", "name": "27f33a1931379e344ae818e50f5f9965"}, {"lon": -77.02689416666666, "is_disabled": 0, "lat": 38.90953983333333, "fusion_lat": 0.0, "is_reserved": 0, "rental_uris": {"ios": "https://dc.lft.to/lastmile_qr_scan", "android": "https://dc.lft.to/lastmile_qr_scan"}, "fusion_lon": 0.0, "type": "electric_scooter", "bike_id": "d39f0c6b8bd2f082eef8f8861db75496", "name": "d39f0c6b8bd2f082eef8f8861db75496"}, {"lon": -77.03254566666666, "is_disabled": 0, "lat": 38.90957366666667, "fusion_lat": 0.0, "is_reserved": 0, "rental_uris": {"ios": "https://dc.lft.to/lastmile_qr_scan", "android": "https://dc.lft.to/lastmile_qr_scan"}, "fusion_lon": 0.0, "type": "electric_scooter", "bike_id": "53b61de68f030ebac8b68fe90c3c9fea", "name": "53b61de68f030ebac8b68fe90c3c9fea"}, {"lon": -77.00065383333333, "is_disabled": 0, "lat": 38.876935833333334, "fusion_lat": 0.0, "is_reserved": 0, "rental_uris": {"ios": "https://dc.lft.to/lastmile_qr_scan", "android": "https://dc.lft.to/lastmile_qr_scan"}, "fusion_lon": 0.0, "type": "electric_scooter", "bike_id": "c7742aa843d685ba78f0883ece79ade4", "name": "c7742aa843d685ba78f0883ece79ade4"}, {"lon": -77.03185783333333, "is_disabled": 0, "lat": 38.909833166666665, "fusion_lat": 0.0, "is_reserved": 0, "rental_uris": {"ios": "https://dc.lft.to/lastmile_qr_scan", "android": "https://dc.lft.to/lastmile_qr_scan"}, "fusion_lon": 0.0, "type": "electric_scooter", "bike_id": "19631042bb8d2c4fc2305dd5ba0dff6d", "name": "19631042bb8d2c4fc2305dd5ba0dff6d"}, {"lon": -77.02940383333333, "is_disabled": 0, "lat": 38.901476333333335, "fusion_lat": 0.0, "is_reserved": 0, "rental_uris": {"ios": "https://dc.lft.to/lastmile_qr_scan", "android": "https://dc.lft.to/lastmile_qr_scan"}, "fusion_lon": 0.0, "type": "electric_scooter", "bike_id": "ae8c350048e28fa68c6f57993a913fbf", "name": "ae8c350048e28fa68c6f57993a913fbf"}, {"lon": -76.95415916666667, "is_disabled": 0, "lat": 38.884182, "fusion_lat": 0.0, "is_reserved": 0, "rental_uris": {"ios": "https://dc.lft.to/lastmile_qr_scan", "android": "https://dc.lft.to/lastmile_qr_scan"}, "fusion_lon": 0.0, "type": "electric_bike", "bike_id": "ddf7c4d7cd6d4bd508f942a5374e2de6", "name": "ddf7c4d7cd6d4bd508f942a5374e2de6"}, {"lon": -77.00337683333333, "is_disabled": 0, "lat": 38.887409, "fusion_lat": 0.0, "is_reserved": 0, "rental_uris": {"ios": "https://dc.lft.to/lastmile_qr_scan", "android": "https://dc.lft.to/lastmile_qr_scan"}, "fusion_lon": 0.0, "type": "electric_scooter", "bike_id": "0aec331b5644029a902e00fa608de9f2", "name": "0aec331b5644029a902e00fa608de9f2"}, {"lon": -76.99791416666666, "is_disabled": 0, "lat": 38.90871683333334, "fusion_lat": 0.0, "is_reserved": 0, "rental_uris": {"ios": "https://dc.lft.to/lastmile_qr_scan", "android": "https://dc.lft.to/lastmile_qr_scan"}, "fusion_lon": 0.0, "type": "electric_scooter", "bike_id": "0379af99a475a7752ecea23cc19fdc99", "name": "0379af99a475a7752ecea23cc19fdc99"}, {"lon": -76.9806555, "is_disabled": 0, "lat": 38.901178333333334, "fusion_lat": 0.0, "is_reserved": 0, "rental_uris": {"ios": "https://dc.lft.to/lastmile_qr_scan", "android": "https://dc.lft.to/lastmile_qr_scan"}, "fusion_lon": 0.0, "type": "electric_bike", "bike_id": "86064fabf6b95798f854a7d1a6e18d46", "name": "86064fabf6b95798f854a7d1a6e18d46"}, {"lon": -77.02150883333333, "is_disabled": 0, "lat": 38.879204, "fusion_lat": 0.0, "is_reserved": 0, "rental_uris": {"ios": "https://dc.lft.to/lastmile_qr_scan", "android": "https://dc.lft.to/lastmile_qr_scan"}, "fusion_lon": 0.0, "type": "electric_scooter", "bike_id": "4f55f619865bfd45dd50789ebeeb383d", "name": "4f55f619865bfd45dd50789ebeeb383d"}, {"lon": -77.0176355, "is_disabled": 0, "lat": 38.9204245, "fusion_lat": 0.0, "is_reserved": 0, "rental_uris": {"ios": "https://dc.lft.to/lastmile_qr_scan", "android": "https://dc.lft.to/lastmile_qr_scan"}, "fusion_lon": 0.0, "type": "electric_scooter", "bike_id": "cb8e8c4c152319d73be2dab4790c52c0", "name": "cb8e8c4c152319d73be2dab4790c52c0"}, {"lon": -76.99626766666667, "is_disabled": 0, "lat": 38.9006905, "fusion_lat": 0.0, "is_reserved": 0, "rental_uris": {"ios": "https://dc.lft.to/lastmile_qr_scan", "android": "https://dc.lft.to/lastmile_qr_scan"}, "fusion_lon": 0.0, "type": "electric_scooter", "bike_id": "36e241438f409c76db990cbf5b8fd276", "name": "36e241438f409c76db990cbf5b8fd276"}, {"lon": -77.0401695, "is_disabled": 0, "lat": 38.90393733333333, "fusion_lat": 0.0, "is_reserved": 0, "rental_uris": {"ios": "https://dc.lft.to/lastmile_qr_scan", "android": "https://dc.lft.to/lastmile_qr_scan"}, "fusion_lon": 0.0, "type": "electric_scooter", "bike_id": "20a410291ae1c8463e1c9c9db3922145", "name": "20a410291ae1c8463e1c9c9db3922145"}, {"lon": -77.02789833333334, "is_disabled": 0, "lat": 38.929749666666666, "fusion_lat": 0.0, "is_reserved": 0, "rental_uris": {"ios": "https://dc.lft.to/lastmile_qr_scan", "android": "https://dc.lft.to/lastmile_qr_scan"}, "fusion_lon": 0.0, "type": "electric_scooter", "bike_id": "ce817d1c234704c2b23f38d7672c97db", "name": "ce817d1c234704c2b23f38d7672c97db"}, {"lon": -77.03213933333333, "is_disabled": 0, "lat": 38.918562, "fusion_lat": 0.0, "is_reserved": 0, "rental_uris": {"ios": "https://dc.lft.to/lastmile_qr_scan", "android": "https://dc.lft.to/lastmile_qr_scan"}, "fusion_lon": 0.0, "type": "electric_scooter", "bike_id": "fabfc958f328f28b7d6df0badbd8ba38", "name": "fabfc958f328f28b7d6df0badbd8ba38"}, {"lon": -77.0279995, "is_disabled": 0, "lat": 38.929732666666666, "fusion_lat": 0.0, "is_reserved": 0, "rental_uris": {"ios": "https://dc.lft.to/lastmile_qr_scan", "android": "https://dc.lft.to/lastmile_qr_scan"}, "fusion_lon": 0.0, "type": "electric_scooter", "bike_id": "e9a3a785db18161737b3e5dc9933bfd1", "name": "e9a3a785db18161737b3e5dc9933bfd1"}, {"lon": -77.017063, "is_disabled": 0, "lat": 38.913829, "fusion_lat": 0.0, "is_reserved": 0, "rental_uris": {"ios": "https://dc.lft.to/lastmile_qr_scan", "android": "https://dc.lft.to/lastmile_qr_scan"}, "fusion_lon": 0.0, "type": "electric_scooter", "bike_id": "ec0b1cc9bdbd152178e52ec79beceb44", "name": "ec0b1cc9bdbd152178e52ec79beceb44"}, {"lon": -76.932105, "is_disabled": 0, "lat": 38.896756833333335, "fusion_lat": 0.0, "is_reserved": 0, "rental_uris": {"ios": "https://dc.lft.to/lastmile_qr_scan", "android": "https://dc.lft.to/lastmile_qr_scan"}, "fusion_lon": 0.0, "type": "electric_scooter", "bike_id": "083eccf7e654435be74ade1eeb24602c", "name": "083eccf7e654435be74ade1eeb24602c"}, {"lon": -77.04157383333333, "is_disabled": 0, "lat": 38.90660883333334, "fusion_lat": 0.0, "is_reserved": 0, "rental_uris": {"ios": "https://dc.lft.to/lastmile_qr_scan", "android": "https://dc.lft.to/lastmile_qr_scan"}, "fusion_lon": 0.0, "type": "electric_scooter", "bike_id": "7a4bb8871e75245ad73191ceecb90a3f", "name": "7a4bb8871e75245ad73191ceecb90a3f"}, {"lon": -77.01957383333334, "is_disabled": 0, "lat": 38.92417866666667, "fusion_lat": 0.0, "is_reserved": 0, "rental_uris": {"ios": "https://dc.lft.to/lastmile_qr_scan", "android": "https://dc.lft.to/lastmile_qr_scan"}, "fusion_lon": 0.0, "type": "electric_scooter", "bike_id": "c9d29bae1d183deccbcb25ccb2d6e14b", "name": "c9d29bae1d183deccbcb25ccb2d6e14b"}, {"lon": -77.02723083333333, "is_disabled": 0, "lat": 38.90004916666667, "fusion_lat": 0.0, "is_reserved": 0, "rental_uris": {"ios": "https://dc.lft.to/lastmile_qr_scan", "android": "https://dc.lft.to/lastmile_qr_scan"}, "fusion_lon": 0.0, "type": "electric_scooter", "bike_id": "64da12b4ecfae2434f79959e688b8c3a", "name": "64da12b4ecfae2434f79959e688b8c3a"}, {"lon": -77.0006575, "is_disabled": 0, "lat": 38.901378, "fusion_lat": 0.0, "is_reserved": 0, "rental_uris": {"ios": "https://dc.lft.to/lastmile_qr_scan", "android": "https://dc.lft.to/lastmile_qr_scan"}, "fusion_lon": 0.0, "type": "electric_scooter", "bike_id": "419973a6676b8d676ea0bccc79484f05", "name": "419973a6676b8d676ea0bccc79484f05"}, {"lon": -77.00681683333333, "is_disabled": 0, "lat": 38.871697833333336, "fusion_lat": 0.0, "is_reserved": 0, "rental_uris": {"ios": "https://dc.lft.to/lastmile_qr_scan", "android": "https://dc.lft.to/lastmile_qr_scan"}, "fusion_lon": 0.0, "type": "electric_scooter", "bike_id": "7a9a8581664b23b9c3fbfd07c713e1f2", "name": "7a9a8581664b23b9c3fbfd07c713e1f2"}, {"lon": -77.02086316666667, "is_disabled": 0, "lat": 38.924104666666665, "fusion_lat": 0.0, "is_reserved": 0, "rental_uris": {"ios": "https://dc.lft.to/lastmile_qr_scan", "android": "https://dc.lft.to/lastmile_qr_scan"}, "fusion_lon": 0.0, "type": "electric_scooter", "bike_id": "72bbedc126ad91a8054145b65a0dc530", "name": "72bbedc126ad91a8054145b65a0dc530"}, {"lon": -77.021179, "is_disabled": 0, "lat": 38.9141735, "fusion_lat": 0.0, "is_reserved": 0, "rental_uris": {"ios": "https://dc.lft.to/lastmile_qr_scan", "android": "https://dc.lft.to/lastmile_qr_scan"}, "fusion_lon": 0.0, "type": "electric_scooter", "bike_id": "a7c0af35c18774fb1e1ba756ecc273f2", "name": "a7c0af35c18774fb1e1ba756ecc273f2"}, {"lon": -77.050444, "is_disabled": 0, "lat": 38.9234225, "fusion_lat": 0.0, "is_reserved": 0, "rental_uris": {"ios": "https://dc.lft.to/lastmile_qr_scan", "android": "https://dc.lft.to/lastmile_qr_scan"}, "fusion_lon": 0.0, "type": "electric_scooter", "bike_id": "17ae5d24c21c29598357bf85375028dd", "name": "17ae5d24c21c29598357bf85375028dd"}, {"lon": -77.015344, "is_disabled": 0, "lat": 38.88491333333333, "fusion_lat": 0.0, "is_reserved": 0, "rental_uris": {"ios": "https://dc.lft.to/lastmile_qr_scan", "android": "https://dc.lft.to/lastmile_qr_scan"}, "fusion_lon": 0.0, "type": "electric_scooter", "bike_id": "810180fa4caa4769c4d492b3e8bbea9b", "name": "810180fa4caa4769c4d492b3e8bbea9b"}, {"lon": -76.99770683333334, "is_disabled": 0, "lat": 38.90894466666666, "fusion_lat": 0.0, "is_reserved": 0, "rental_uris": {"ios": "https://dc.lft.to/lastmile_qr_scan", "android": "https://dc.lft.to/lastmile_qr_scan"}, "fusion_lon": 0.0, "type": "electric_scooter", "bike_id": "56c6c81b0d5c64f3ac31f464f5317452", "name": "56c6c81b0d5c64f3ac31f464f5317452"}, {"lon": -77.01942633333333, "is_disabled": 0, "lat": 38.92414266666667, "fusion_lat": 0.0, "is_reserved": 0, "rental_uris": {"ios": "https://dc.lft.to/lastmile_qr_scan", "android": "https://dc.lft.to/lastmile_qr_scan"}, "fusion_lon": 0.0, "type": "electric_scooter", "bike_id": "4b31ac58f714fde07259c4aef129c142", "name": "4b31ac58f714fde07259c4aef129c142"}, {"lon": -76.9950635, "is_disabled": 0, "lat": 38.821715166666664, "fusion_lat": 0.0, "is_reserved": 0, "rental_uris": {"ios": "https://dc.lft.to/lastmile_qr_scan", "android": "https://dc.lft.to/lastmile_qr_scan"}, "fusion_lon": 0.0, "type": "electric_bike", "bike_id": "4b2211f179c8a8c78ec928f5d43a8556", "name": "4b2211f179c8a8c78ec928f5d43a8556"}, {"lon": -77.07166283333333, "is_disabled": 0, "lat": 38.908721166666666, "fusion_lat": 0.0, "is_reserved": 0, "rental_uris": {"ios": "https://dc.lft.to/lastmile_qr_scan", "android": "https://dc.lft.to/lastmile_qr_scan"}, "fusion_lon": 0.0, "type": "electric_scooter", "bike_id": "d79de0065d9c8282729f24ea350ecfe7", "name": "d79de0065d9c8282729f24ea350ecfe7"}, {"lon": -76.9854515, "is_disabled": 0, "lat": 38.866926, "fusion_lat": 0.0, "is_reserved": 0, "rental_uris": {"ios": "https://dc.lft.to/lastmile_qr_scan", "android": "https://dc.lft.to/lastmile_qr_scan"}, "fusion_lon": 0.0, "type": "electric_scooter", "bike_id": "cb51fa18a84750eebd82592220d0b3ad", "name": "cb51fa18a84750eebd82592220d0b3ad"}, {"lon": -76.99757433333333, "is_disabled": 0, "lat": 38.8774725, "fusion_lat": 0.0, "is_reserved": 0, "rental_uris": {"ios": "https://dc.lft.to/lastmile_qr_scan", "android": "https://dc.lft.to/lastmile_qr_scan"}, "fusion_lon": 0.0, "type": "electric_scooter", "bike_id": "bf2a08e443423416ae0481d8f12945e6", "name": "bf2a08e443423416ae0481d8f12945e6"}, {"lon": -76.99132433333334, "is_disabled": 0, "lat": 38.84643966666667, "fusion_lat": 0.0, "is_reserved": 0, "rental_uris": {"ios": "https://dc.lft.to/lastmile_qr_scan", "android": "https://dc.lft.to/lastmile_qr_scan"}, "fusion_lon": 0.0, "type": "electric_scooter", "bike_id": "d1b2161a028555a18e733cd88bdf9744", "name": "d1b2161a028555a18e733cd88bdf9744"}, {"lon": -77.017425, "is_disabled": 0, "lat": 38.90267383333333, "fusion_lat": 0.0, "is_reserved": 0, "rental_uris": {"ios": "https://dc.lft.to/lastmile_qr_scan", "android": "https://dc.lft.to/lastmile_qr_scan"}, "fusion_lon": 0.0, "type": "electric_scooter", "bike_id": "85af103d9a2c178ec74507048ec1aefc", "name": "85af103d9a2c178ec74507048ec1aefc"}, {"lon": -76.9493445, "is_disabled": 0, "lat": 38.893598, "fusion_lat": 0.0, "is_reserved": 0, "rental_uris": {"ios": "https://dc.lft.to/lastmile_qr_scan", "android": "https://dc.lft.to/lastmile_qr_scan"}, "fusion_lon": 0.0, "type": "electric_scooter", "bike_id": "067ecc632b78ce27b38ff32d7fbee8ae", "name": "067ecc632b78ce27b38ff32d7fbee8ae"}, {"lon": -77.00051816666667, "is_disabled": 0, "lat": 38.9232675, "fusion_lat": 0.0, "is_reserved": 0, "rental_uris": {"ios": "https://dc.lft.to/lastmile_qr_scan", "android": "https://dc.lft.to/lastmile_qr_scan"}, "fusion_lon": 0.0, "type": "electric_scooter", "bike_id": "5f754d640f8a95dd96b4f8d4e50ce481", "name": "5f754d640f8a95dd96b4f8d4e50ce481"}, {"lon": -76.94639283333333, "is_disabled": 0, "lat": 38.89833216666667, "fusion_lat": 0.0, "is_reserved": 0, "rental_uris": {"ios": "https://dc.lft.to/lastmile_qr_scan", "android": "https://dc.lft.to/lastmile_qr_scan"}, "fusion_lon": 0.0, "type": "electric_scooter", "bike_id": "e9bdd777c7ae03b7aae37a86882a6554", "name": "e9bdd777c7ae03b7aae37a86882a6554"}, {"lon": -77.01777316666667, "is_disabled": 0, "lat": 38.91502666666667, "fusion_lat": 0.0, "is_reserved": 0, "rental_uris": {"ios": "https://dc.lft.to/lastmile_qr_scan", "android": "https://dc.lft.to/lastmile_qr_scan"}, "fusion_lon": 0.0, "type": "electric_scooter", "bike_id": "a14d0fb962846229422d68afba862d73", "name": "a14d0fb962846229422d68afba862d73"}, {"lon": -77.04260933333333, "is_disabled": 0, "lat": 38.923653, "fusion_lat": 0.0, "is_reserved": 0, "rental_uris": {"ios": "https://dc.lft.to/lastmile_qr_scan", "android": "https://dc.lft.to/lastmile_qr_scan"}, "fusion_lon": 0.0, "type": "electric_scooter", "bike_id": "9ae7991245a22d30551bef9305241614", "name": "9ae7991245a22d30551bef9305241614"}, {"lon": -77.03255916666667, "is_disabled": 0, "lat": 38.9397175, "fusion_lat": 0.0, "is_reserved": 0, "rental_uris": {"ios": "https://dc.lft.to/lastmile_qr_scan", "android": "https://dc.lft.to/lastmile_qr_scan"}, "fusion_lon": 0.0, "type": "electric_scooter", "bike_id": "1b9fc035ca11257035826f5c70c3453f", "name": "1b9fc035ca11257035826f5c70c3453f"}, {"lon": -77.03952216666667, "is_disabled": 0, "lat": 38.89869383333333, "fusion_lat": 0.0, "is_reserved": 0, "rental_uris": {"ios": "https://dc.lft.to/lastmile_qr_scan", "android": "https://dc.lft.to/lastmile_qr_scan"}, "fusion_lon": 0.0, "type": "electric_scooter", "bike_id": "e3a091a1dd06cc58f8e8c69f67b20fc4", "name": "e3a091a1dd06cc58f8e8c69f67b20fc4"}, {"lon": -77.04181, "is_disabled": 0, "lat": 38.901211333333336, "fusion_lat": 0.0, "is_reserved": 0, "rental_uris": {"ios": "https://dc.lft.to/lastmile_qr_scan", "android": "https://dc.lft.to/lastmile_qr_scan"}, "fusion_lon": 0.0, "type": "electric_scooter", "bike_id": "ccdaec33113f88f0fda80e73e9e8aeae", "name": "ccdaec33113f88f0fda80e73e9e8aeae"}, {"lon": -77.10860116666667, "is_disabled": 0, "lat": 38.84603116666667, "fusion_lat": 0.0, "is_reserved": 0, "rental_uris": {"ios": "https://dc.lft.to/lastmile_qr_scan", "android": "https://dc.lft.to/lastmile_qr_scan"}, "fusion_lon": 0.0, "type": "electric_bike", "bike_id": "6bd443bca178fc705daa0b8657671edd", "name": "6bd443bca178fc705daa0b8657671edd"}, {"lon": -77.03256233333333, "is_disabled": 0, "lat": 38.93971, "fusion_lat": 0.0, "is_reserved": 0, "rental_uris": {"ios": "https://dc.lft.to/lastmile_qr_scan", "android": "https://dc.lft.to/lastmile_qr_scan"}, "fusion_lon": 0.0, "type": "electric_scooter", "bike_id": "f59e2bd1674052584a6e7ab2c4168de4", "name": "f59e2bd1674052584a6e7ab2c4168de4"}, {"lon": -77.0235465, "is_disabled": 0, "lat": 38.900035333333335, "fusion_lat": 0.0, "is_reserved": 0, "rental_uris": {"ios": "https://dc.lft.to/lastmile_qr_scan", "android": "https://dc.lft.to/lastmile_qr_scan"}, "fusion_lon": 0.0, "type": "electric_scooter", "bike_id": "8eb1ce70d01800394eb228a77e226533", "name": "8eb1ce70d01800394eb228a77e226533"}, {"lon": -76.9814095, "is_disabled": 0, "lat": 38.8974405, "fusion_lat": 0.0, "is_reserved": 0, "rental_uris": {"ios": "https://dc.lft.to/lastmile_qr_scan", "android": "https://dc.lft.to/lastmile_qr_scan"}, "fusion_lon": 0.0, "type": "electric_scooter", "bike_id": "47e41923edb634c650263416cc18dfad", "name": "47e41923edb634c650263416cc18dfad"}, {"lon": -77.08864983333333, "is_disabled": 0, "lat": 38.916428, "fusion_lat": 0.0, "is_reserved": 0, "rental_uris": {"ios": "https://dc.lft.to/lastmile_qr_scan", "android": "https://dc.lft.to/lastmile_qr_scan"}, "fusion_lon": 0.0, "type": "electric_scooter", "bike_id": "d4cb69184043d27ae4356446296242e8", "name": "d4cb69184043d27ae4356446296242e8"}, {"lon": -76.95954, "is_disabled": 0, "lat": 38.86199833333333, "fusion_lat": 0.0, "is_reserved": 0, "rental_uris": {"ios": "https://dc.lft.to/lastmile_qr_scan", "android": "https://dc.lft.to/lastmile_qr_scan"}, "fusion_lon": 0.0, "type": "electric_scooter", "bike_id": "b65cca1f9fed93dd51a440caaaa930a1", "name": "b65cca1f9fed93dd51a440caaaa930a1"}, {"lon": -77.02212866666666, "is_disabled": 0, "lat": 38.896071666666664, "fusion_lat": 0.0, "is_reserved": 0, "rental_uris": {"ios": "https://dc.lft.to/lastmile_qr_scan", "android": "https://dc.lft.to/lastmile_qr_scan"}, "fusion_lon": 0.0, "type": "electric_scooter", "bike_id": "8e10044a850b6ce81e9660c9b0677617", "name": "8e10044a850b6ce81e9660c9b0677617"}, {"lon": -77.00401716666667, "is_disabled": 0, "lat": 38.92134, "fusion_lat": 0.0, "is_reserved": 0, "rental_uris": {"ios": "https://dc.lft.to/lastmile_qr_scan", "android": "https://dc.lft.to/lastmile_qr_scan"}, "fusion_lon": 0.0, "type": "electric_scooter", "bike_id": "f3060a6423e305fbd9e06445b3241721", "name": "f3060a6423e305fbd9e06445b3241721"}, {"lon": -77.02155933333333, "is_disabled": 0, "lat": 38.92464783333333, "fusion_lat": 0.0, "is_reserved": 0, "rental_uris": {"ios": "https://dc.lft.to/lastmile_qr_scan", "android": "https://dc.lft.to/lastmile_qr_scan"}, "fusion_lon": 0.0, "type": "electric_scooter", "bike_id": "e45e91314d2b4dcab107107823e66376", "name": "e45e91314d2b4dcab107107823e66376"}, {"lon": -77.04898483333334, "is_disabled": 0, "lat": 38.900638666666666, "fusion_lat": 0.0, "is_reserved": 0, "rental_uris": {"ios": "https://dc.lft.to/lastmile_qr_scan", "android": "https://dc.lft.to/lastmile_qr_scan"}, "fusion_lon": 0.0, "type": "electric_scooter", "bike_id": "9db943fe49950177277ce36fb39580a0", "name": "9db943fe49950177277ce36fb39580a0"}, {"lon": -77.0401415, "is_disabled": 0, "lat": 38.90335983333333, "fusion_lat": 0.0, "is_reserved": 0, "rental_uris": {"ios": "https://dc.lft.to/lastmile_qr_scan", "android": "https://dc.lft.to/lastmile_qr_scan"}, "fusion_lon": 0.0, "type": "electric_scooter", "bike_id": "79c073d8087bf19b7179cd5401f5d6b6", "name": "79c073d8087bf19b7179cd5401f5d6b6"}, {"lon": -77.03403966666667, "is_disabled": 0, "lat": 38.92441266666667, "fusion_lat": 0.0, "is_reserved": 0, "rental_uris": {"ios": "https://dc.lft.to/lastmile_qr_scan", "android": "https://dc.lft.to/lastmile_qr_scan"}, "fusion_lon": 0.0, "type": "electric_scooter", "bike_id": "8e7a0d9c2d21e40cb3cf8ae2c82ce1bd", "name": "8e7a0d9c2d21e40cb3cf8ae2c82ce1bd"}, {"lon": -77.04834766666667, "is_disabled": 0, "lat": 38.898405333333336, "fusion_lat": 0.0, "is_reserved": 0, "rental_uris": {"ios": "https://dc.lft.to/lastmile_qr_scan", "android": "https://dc.lft.to/lastmile_qr_scan"}, "fusion_lon": 0.0, "type": "electric_scooter", "bike_id": "3cc5ada57cafe44f054259e8290510a4", "name": "3cc5ada57cafe44f054259e8290510a4"},