{"data": {"bikes": [{"fusion_lat": 0.0, "name": "11f95f464c340269fbe1722aba11255e", "is_disabled": 0, "rental_uris": {"android": "https://dc.lft.to/lastmile_qr_scan", "ios": "https://dc.lft.to/lastmile_qr_scan"}, "fusion_lon": 0.0, "lat": 38.921020166666665, "bike_id": "11f95f464c340269fbe1722aba11255e", "type": "electric_scooter", "is_reserved": 0, "lon": -77.02508533333334}, {"fusion_lat": 0.0, "name": "a963a2986a8757cb99f71d1c70e7f996", "is_disabled": 0, "rental_uris": {"android": "https://dc.lft.to/lastmile_qr_scan", "ios": "https://dc.lft.to/lastmile_qr_scan"}, "fusion_lon": 0.0, "lat": 38.89903283333334, "bike_id": "a963a2986a8757cb99f71d1c70e7f996", "type": "electric_scooter", "is_reserved": 0, "lon": -76.93355983333333}, {"fusion_lat": 0.0, "name": "cc821651b226926ad26a860705cb1f76", "is_disabled": 0, "rental_uris": {"android": "https://dc.lft.to/lastmile_qr_scan", "ios": "https://dc.lft.to/lastmile_qr_scan"}, "fusion_lon": 0.0, "lat": 38.885240833333334, "bike_id": "cc821651b226926ad26a860705cb1f76", "type": "electric_scooter", "is_reserved": 0, "lon": -76.9291645}, {"fusion_lat": 0.0, "name": "2bbdb36eef2446c7c62e9510dc93dd5d", "is_disabled": 0, "rental_uris": {"android": "https://dc.lft.to/lastmile_qr_scan", "ios": "https://dc.lft.to/lastmile_qr_scan"}, "fusion_lon": 0.0, "lat": 38.917133666666665, "bike_id": "2bbdb36eef2446c7c62e9510dc93dd5d", "type": "electric_scooter", "is_reserved": 0, "lon": -77.03347733333334}, {"fusion_lat": 0.0, "name": "527404c540a3f97ed98052d74a2baaeb", "is_disabled": 0, "rental_uris": {"android": "https://dc.lft.to/lastmile_qr_scan", "ios": "https://dc.lft.to/lastmile_qr_scan"}, "fusion_lon": 0.0, "lat": 38.9053185, "bike_id": "527404c540a3f97ed98052d74a2baaeb", "type": "electric_scooter", "is_reserved": 0, "lon": -77.00531583333333}, {"fusion_lat": 0.0, "name": "b72a12ff61ac4242b08e253abe7c159c", "is_disabled": 0, "rental_uris": {"android": "https://dc.lft.to/lastmile_qr_scan", "ios": "https://dc.lft.to/lastmile_qr_scan"}, "fusion_lon": 0.0, "lat": 38.89914366666667, "bike_id": "b72a12ff61ac4242b08e253abe7c159c", "type": "electric_scooter", "is_reserved": 0, "lon": -76.94591633333333}, {"fusion_lat": 0.0, "name": "534f63796f1f687d7b15c0f3bfb6a5ab", "is_disabled": 0, "rental_uris": {"android": "https://dc.lft.to/lastmile_qr_scan", "ios": "https://dc.lft.to/lastmile_qr_scan"}, "fusion_lon": 0.0, "lat": 38.928301833333336, "bike_id": "534f63796f1f687d7b15c0f3bfb6a5ab", "type": "electric_scooter", "is_reserved": 0, "lon": -77.01595583333334}, {"fusion_lat": 0.0, "name": "a9f759a6f7c3e9fd36d4d7bb7eeed707", "is_disabled": 0, "rental_uris": {"android": "https://dc.lft.to/lastmile_qr_scan", "ios": "https://dc.lft.to/lastmile_qr_scan"}, "fusion_lon": 0.0, "lat": 38.888405166666665, "bike_id": "a9f759a6f7c3e9fd36d4d7bb7eeed707", "type": "electric_scooter", "is_reserved": 0, "lon": -77.04905833333333}, {"fusion_lat": 0.0, "name": "fb1c5557f02c84d718f9b65b5dabb36d", "is_disabled": 0, "rental_uris": {"android": "https://dc.lft.to/lastmile_qr_scan", "ios": "https://dc.lft.to/lastmile_qr_scan"}, "fusion_lon": 0.0, "lat": 38.9084225, "bike_id": "fb1c5557f02c84d718f9b65b5dabb36d", "type": "electric_scooter", "is_reserved": 0, "lon": -77.03297783333333}, {"fusion_lat": 0.0, "name": "cec6d07ff7a8b94e7ce0388ff9b01b21", "is_disabled": 0, "rental_uris": {"android": "https://dc.lft.to/lastmile_qr_scan", "ios": "https://dc.lft.to/lastmile_qr_scan"}, "fusion_lon": 0.0, "lat": 38.90780216666667, "bike_id": "cec6d07ff7a8b94e7ce0388ff9b01b21", "type": "electric_scooter", "is_reserved": 0, "lon": -77.0425495}, {"fusion_lat": 0.0, "name": "c66e473ad6109e1b8aa29531514f073f", "is_disabled": 0, "rental_uris": {"android": "https://dc.lft.to/lastmile_qr_scan", "ios": "https://dc.lft.to/lastmile_qr_scan"}, "fusion_lon": 0.0, "lat": 38.875786, "bike_id": "c66e473ad6109e1b8aa29531514f073f", "type": "electric_bike", "is_reserved": 0, "lon": -77.23409866666667}, {"fusion_lat": 0.0, "name": "82d4ba64645897e56db8e50107eedf25", "is_disabled": 0, "rental_uris": {"android": "https://dc.lft.to/lastmile_qr_scan", "ios": "https://dc.lft.to/lastmile_qr_scan"}, "fusion_lon": 0.0, "lat": 38.93541, "bike_id": "82d4ba64645897e56db8e50107eedf25", "type": "electric_scooter", "is_reserved": 0, "lon": -77.05750216666667}, {"fusion_lat": 0.0, "name": "85ced7a1019c31bb1f5b19956ef6ce8c", "is_disabled": 0, "rental_uris": {"android": "https://dc.lft.to/lastmile_qr_scan", "ios": "https://dc.lft.to/lastmile_qr_scan"}, "fusion_lon": 0.0, "lat": 38.899794666666665, "bike_id": "85ced7a1019c31bb1f5b19956ef6ce8c", "type": "electric_scooter", "is_reserved": 0, "lon": -77.02712216666667}, {"fusion_lat": 0.0, "name": "138507275b37519f4047f87b9e755a3a", "is_disabled": 0, "rental_uris": {"android": "https://dc.lft.to/lastmile_qr_scan", "ios": "https://dc.lft.to/lastmile_qr_scan"}, "fusion_lon": 0.0, "lat": 38.90080233333333, "bike_id": "138507275b37519f4047f87b9e755a3a", "type": "electric_bike", "is_reserved": 0, "lon": -77.0590235}, {"fusion_lat": 0.0, "name": "b392634c1fe32ec6d20366892dc735a4", "is_disabled": 0, "rental_uris": {"android": "https://dc.lft.to/lastmile_qr_scan", "ios": "https://dc.lft.to/lastmile_qr_scan"}, "fusion_lon": 0.0, "lat": 38.96393416666667, "bike_id": "b392634c1fe32ec6d20366892dc735a4", "type": "electric_scooter", "is_reserved": 0, "lon": -77.02590683333334}, {"fusion_lat": 0.0, "name": "78b88a041ff373646603f702d903aa8f", "is_disabled": 0, "rental_uris": {"android": "https://dc.lft.to/lastmile_qr_scan", "ios": "https://dc.lft.to/lastmile_qr_scan"}, "fusion_lon": 0.0, "lat": 38.90383533333333, "bike_id": "78b88a041ff373646603f702d903aa8f", "type": "electric_scooter", "is_reserved": 0, "lon": -76.97619733333333}, {"fusion_lat": 0.0, "name": "f4d417a81515c298777806340528059a", "is_disabled": 0, "rental_uris": {"android": "https://dc.lft.to/lastmile_qr_scan", "ios": "https://dc.lft.to/lastmile_qr_scan"}, "fusion_lon": 0.0, "lat": 38.879663, "bike_id": "f4d417a81515c298777806340528059a", "type": "electric_scooter", "is_reserved": 0, "lon": -77.00602366666666}, {"fusion_lat": 0.0, "name": "c13b17938aa0cc8df6fb17df13b7fdba", "is_disabled": 0, "rental_uris": {"android": "https://dc.lft.to/lastmile_qr_scan", "ios": "https://dc.lft.to/lastmile_qr_scan"}, "fusion_lon": 0.0, "lat": 38.9074385, "bike_id": "c13b17938aa0cc8df6fb17df13b7fdba", "type": "electric_scooter", "is_reserved": 0, "lon": -77.03192033333333}, {"fusion_lat": 0.0, "name": "667c96a25f96859f60d9956306fc4dc0", "is_disabled": 0, "rental_uris": {"android": "https://dc.lft.to/lastmile_qr_scan", "ios": "https://dc.lft.to/lastmile_qr_scan"}, "fusion_lon": 0.0, "lat": 38.91730366666667, "bike_id": "667c96a25f96859f60d9956306fc4dc0", "type": "electric_scooter", "is_reserved": 0, "lon": -77.04176183333334}, {"fusion_lat": 0.0, "name": "e38ecb0156d5c25a3216d9a2ec78f5b1", "is_disabled": 0, "rental_uris": {"android": "https://dc.lft.to/lastmile_qr_scan", "ios": "https://dc.lft.to/lastmile_qr_scan"}, "fusion_lon": 0.0, "lat": 38.91848233333333, "bike_id": "e38ecb0156d5c25a3216d9a2ec78f5b1", "type": "electric_scooter", "is_reserved": 0, "lon": -77.031865}, {"fusion_lat": 0.0, "name": "07573a85c110203a1252641cb3237369", "is_disabled": 0, "rental_uris": {"android": "https://dc.lft.to/lastmile_qr_scan", "ios": "https://dc.lft.to/lastmile_qr_scan"}, "fusion_lon": 0.0, "lat": 38.900258, "bike_id": "07573a85c110203a1252641cb3237369", "type": "electric_scooter", "is_reserved": 0, "lon": -77.01173016666667}, {"fusion_lat": 0.0, "name": "30da233a4d4c030664b30c66b62acc0f", "is_disabled": 0, "rental_uris": {"android": "https://dc.lft.to/lastmile_qr_scan", "ios": "https://dc.lft.to/lastmile_qr_scan"}, "fusion_lon": 0.0, "lat": 38.80295616666667, "bike_id": "30da233a4d4c030664b30c66b62acc0f", "type": "electric_bike", "is_reserved": 0, "lon": -77.05934116666667}, {"fusion_lat": 0.0, "name": "3c61a17c3b1c2525ee240e6f3b34a745", "is_disabled": 0, "rental_uris": {"android": "https://dc.lft.to/lastmile_qr_scan", "ios": "https://dc.lft.to/lastmile_qr_scan"}, "fusion_lon": 0.0, "lat": 38.92286766666667, "bike_id": "3c61a17c3b1c2525ee240e6f3b34a745", "type": "electric_scooter", "is_reserved": 0, "lon": -77.0365965}, {"fusion_lat": 0.0, "name": "58a6a29016321d2033edd04cdbfec637", "is_disabled": 0, "rental_uris": {"android": "https://dc.lft.to/lastmile_qr_scan", "ios": "https://dc.lft.to/lastmile_qr_scan"}, "fusion_lon": 0.0, "lat": 38.892425833333334, "bike_id": "58a6a29016321d2033edd04cdbfec637", "type": "electric_scooter", "is_reserved": 0, "lon": -77.043605}, {"fusion_lat": 0.0, "name": "5d941343ede8952382753518501c8347", "is_disabled": 0, "rental_uris": {"android": "https://dc.lft.to/lastmile_qr_scan", "ios": "https://dc.lft.to/lastmile_qr_scan"}, "fusion_lon": 0.0, "lat": 38.93869266666667, "bike_id": "5d941343ede8952382753518501c8347", "type": "electric_scooter", "is_reserved": 0, "lon": -77.03165183333333}, {"fusion_lat": 0.0, "name": "7596beb8e59c687bc4e024173b880f08", "is_disabled": 0, "rental_uris": {"android": "https://dc.lft.to/lastmile_qr_scan", "ios": "https://dc.lft.to/lastmile_qr_scan"}, "fusion_lon": 0.0, "lat": 38.892363, "bike_id": "7596beb8e59c687bc4e024173b880f08", "type": "electric_scooter", "is_reserved": 0, "lon": -77.03192533333333}, {"fusion_lat": 0.0, "name": "e86e29bdb1bb31287d69ec5192e22a39", "is_disabled": 0, "rental_uris": {"android": "https://dc.lft.to/lastmile_qr_scan", "ios": "https://dc.lft.to/lastmile_qr_scan"}, "fusion_lon": 0.0, "lat": 38.881908, "bike_id": "e86e29bdb1bb31287d69ec5192e22a39", "type": "electric_scooter", "is_reserved": 0, "lon": -77.00351716666667}, {"fusion_lat": 0.0, "name": "12ebe63785935529126a4d943387874c", "is_disabled": 0, "rental_uris": {"android": "https://dc.lft.to/lastmile_qr_scan", "ios": "https://dc.lft.to/lastmile_qr_scan"}, "fusion_lon": 0.0, "lat": 38.9201705, "bike_id": "12ebe63785935529126a4d943387874c", "type": "electric_scooter", "is_reserved": 0, "lon": -77.03881516666667}, {"fusion_lat": 0.0, "name": "f4189fffd1bf3c8464bba97452bb9e7a", "is_disabled": 0, "rental_uris": {"android": "https://dc.lft.to/lastmile_qr_scan", "ios": "https://dc.lft.to/lastmile_qr_scan"}, "fusion_lon": 0.0, "lat": 38.904246666666666, "bike_id": "f4189fffd1bf3c8464bba97452bb9e7a", "type": "electric_scooter", "is_reserved": 0, "lon": -77.05148166666666}, {"fusion_lat": 0.0, "name": "89f57426fc8cd0159f52350988edba4b", "is_disabled": 0, "rental_uris": {"android": "https://dc.lft.to/lastmile_qr_scan", "ios": "https://dc.lft.to/lastmile_qr_scan"}, "fusion_lon": 0.0, "lat": 38.9273885, "bike_id": "89f57426fc8cd0159f52350988edba4b", "type": "electric_scooter", "is_reserved": 0, "lon": -77.05254083333334}, {"fusion_lat": 0.0, "name": "b68c4ed1348949fe890867a9af5cca3c", "is_disabled": 0, "rental_uris": {"android": "https://dc.lft.to/lastmile_qr_scan", "ios": "https://dc.lft.to/lastmile_qr_scan"}, "fusion_lon": 0.0, "lat": 38.92387983333333, "bike_id": "b68c4ed1348949fe890867a9af5cca3c", "type": "electric_scooter", "is_reserved": 0, "lon": -77.04463266666667}, {"fusion_lat": 0.0, "name": "827bd6e0a305c7fd0d5e7c2343d66a58", "is_disabled": 0, "rental_uris": {"android": "https://dc.lft.to/lastmile_qr_scan", "ios": "https://dc.lft.to/lastmile_qr_scan"}, "fusion_lon": 0.0, "lat": 38.89839216666667, "bike_id": "827bd6e0a305c7fd0d5e7c2343d66a58", "type": "electric_scooter", "is_reserved": 0, "lon": -77.02477133333333}, {"fusion_lat": 0.0, "name": "180c4fac14aa0df865eaf294441c3e8f", "is_disabled": 0, "rental_uris": {"android": "https://dc.lft.to/lastmile_qr_scan", "ios": "https://dc.lft.to/lastmile_qr_scan"}, "fusion_lon": 0.0, "lat": 38.916681, "bike_id": "180c4fac14aa0df865eaf294441c3e8f", "type": "electric_scooter", "is_reserved": 0, "lon": -77.031806}, {"fusion_lat": 0.0, "name": "0efa83ce751d5b9440db0be177c02aa6", "is_disabled": 0, "rental_uris": {"android": "https://dc.lft.to/lastmile_qr_scan", "ios": "https://dc.lft.to/lastmile_qr_scan"}, "fusion_lon": 0.0, "lat": 38.91411083333333, "bike_id": "0efa83ce751d5b9440db0be177c02aa6", "type": "electric_scooter", "is_reserved": 0, "lon": -77.0402055}, {"fusion_lat": 0.0, "name": "107d5a2c9a0bad11fea5e74edb9e272f", "is_disabled": 0, "rental_uris": {"android": "https://dc.lft.to/lastmile_qr_scan", "ios": "https://dc.lft.to/lastmile_qr_scan"}, "fusion_lon": 0.0, "lat": 38.906415333333335, "bike_id": "107d5a2c9a0bad11fea5e74edb9e272f", "type": "electric_scooter", "is_reserved": 0, "lon": -77.04322916666666}, {"fusion_lat": 0.0, "name": "156fe9b13170f365df3edd2a1e2c6375", "is_disabled": 0, "rental_uris": {"android": "https://dc.lft.to/lastmile_qr_scan", "ios": "https://dc.lft.to/lastmile_qr_scan"}, "fusion_lon": 0.0, "lat": 38.90226783333333, "bike_id": "156fe9b13170f365df3edd2a1e2c6375", "type": "electric_scooter", "is_reserved": 0, "lon": -77.05467666666667}, {"fusion_lat": 0.0, "name": "ca7a89a85df6eeee3de1524889d88302", "is_disabled": 0, "rental_uris": {"android": "https://dc.lft.to/lastmile_qr_scan", "ios": "https://dc.lft.to/lastmile_qr_scan"}, "fusion_lon": 0.0, "lat": 38.90519616666667, "bike_id": "ca7a89a85df6eeee3de1524889d88302", "type": "electric_scooter", "is_reserved": 0, "lon": -77.061489}, {"fusion_lat": 0.0, "name": "af46380296b08c0572064ecb1cc748a3", "is_disabled": 0, "rental_uris": {"android": "https://dc.lft.to/lastmile_qr_scan", "ios": "https://dc.lft.to/lastmile_qr_scan"}, "fusion_lon": 0.0, "lat": 38.892217333333335, "bike_id": "af46380296b08c0572064ecb1cc748a3", "type": "electric_scooter", "is_reserved": 0, "lon": -77.04866}, {"fusion_lat": 0.0, "name": "75eba6f30574ee0b02a19d184adafd89", "is_disabled": 0, "rental_uris": {"android": "https://dc.lft.to/lastmile_qr_scan", "ios": "https://dc.lft.to/lastmile_qr_scan"}, "fusion_lon": 0.0, "lat": 38.928570666666666, "bike_id": "75eba6f30574ee0b02a19d184adafd89", "type": "electric_scooter", "is_reserved": 0, "lon": -77.0542435}, {"fusion_lat": 0.0, "name": "fde510d30abae58a3e879c3ad11569e3", "is_disabled": 0, "rental_uris": {"android": "https://dc.lft.to/lastmile_qr_scan", "ios": "https://dc.lft.to/lastmile_qr_scan"}, "fusion_lon": 0.0, "lat": 38.9059875, "bike_id": "fde510d30abae58a3e879c3ad11569e3", "type": "electric_scooter", "is_reserved": 0, "lon": -77.00808933333333}, {"fusion_lat": 0.0, "name": "51f3fa8babf3e3c85f65f33177ce814d", "is_disabled": 0, "rental_uris": {"android": "https://dc.lft.to/lastmile_qr_scan", "ios": "https://dc.lft.to/lastmile_qr_scan"}, "fusion_lon": 0.0, "lat": 38.89223033333333, "bike_id": "51f3fa8babf3e3c85f65f33177ce814d", "type": "electric_scooter", "is_reserved": 0, "lon": -77.04323816666667}, {"fusion_lat": 0.0, "name": "d48312cdb7c259abcffd38640e3cea4f", "is_disabled": 0, "rental_uris": {"android": "https://dc.lft.to/lastmile_qr_scan", "ios": "https://dc.lft.to/lastmile_qr_scan"}, "fusion_lon": 0.0, "lat": 38.9236695, "bike_id": "d48312cdb7c259abcffd38640e3cea4f", "type": "electric_scooter", "is_reserved": 0, "lon": -77.0502825}, {"fusion_lat": 0.0, "name": "c3515b8e2d9e298f808ad684d2b26943", "is_disabled": 0, "rental_uris": {"android": "https://dc.lft.to/lastmile_qr_scan", "ios": "https://dc.lft.to/lastmile_qr_scan"}, "fusion_lon": 0.0, "lat": 38.91176383333333, "bike_id": "c3515b8e2d9e298f808ad684d2b26943", "type": "electric_scooter", "is_reserved": 0, "lon": -77.03848166666667}, {"fusion_lat": 0.0, "name": "7481fadf798c76a64156291aea430476", "is_disabled": 0, "rental_uris": {"android": "https://dc.lft.to/lastmile_qr_scan", "ios": "https://dc.lft.to/lastmile_qr_scan"}, "fusion_lon": 0.0, "lat": 38.995189, "bike_id": "7481fadf798c76a64156291aea430476", "type": "electric_bike", "is_reserved": 0, "lon": -77.02859783333334}, {"fusion_lat": 0.0, "name": "7644df513b8b50c05928fed18499911d", "is_disabled": 0, "rental_uris": {"android": "https://dc.lft.to/lastmile_qr_scan", "ios": "https://dc.lft.to/lastmile_qr_scan"}, "fusion_lon": 0.0, "lat": 38.9076335, "bike_id": "7644df513b8b50c05928fed18499911d", "type": "electric_scooter", "is_reserved": 0, "lon": -77.0356745}, {"fusion_lat": 0.0, "name": "2277292bcb1d6a6251075c997b08da07", "is_disabled": 0, "rental_uris": {"android": "https://dc.lft.to/lastmile_qr_scan", "ios": "https://dc.lft.to/lastmile_qr_scan"}, "fusion_lon": 0.0, "lat": 38.91664033333333, "bike_id": "2277292bcb1d6a6251075c997b08da07", "type": "electric_scooter", "is_reserved": 0, "lon": -77.0384755}, {"fusion_lat": 0.0, "name": "a952d7334f0b1e173177656e2aabceb9", "is_disabled": 0, "rental_uris": {"android": "https://dc.lft.to/lastmile_qr_scan", "ios": "https://dc.lft.to/lastmile_qr_scan"}, "fusion_lon": 0.0, "lat": 38.89999316666667, "bike_id": "a952d7334f0b1e173177656e2aabceb9", "type": "electric_scooter", "is_reserved": 0, "lon": -77.02213566666667}, {"fusion_lat": 0.0, "name": "c8442d346909b35c56e91cc0d91003f7", "is_disabled": 0, "rental_uris": {"android": "https://dc.lft.to/lastmile_qr_scan", "ios": "https://dc.lft.to/lastmile_qr_scan"}, "fusion_lon": 0.0, "lat": 38.895308666666665, "bike_id": "c8442d346909b35c56e91cc0d91003f7", "type": "electric_scooter", "is_reserved": 0, "lon": -77.01099166666667}, {"fusion_lat": 0.0, "name": "cb567a0a8e71d0b832e3dcafde66ee3b", "is_disabled": 0, "rental_uris": {"android": "https://dc.lft.to/lastmile_qr_scan", "ios": "https://dc.lft.to/lastmile_qr_scan"}, "fusion_lon": 0.0, "lat": 38.915567833333334, "bike_id": "cb567a0a8e71d0b832e3dcafde66ee3b", "type": "electric_scooter", "is_reserved": 0, "lon": -77.03860883333333}, {"fusion_lat": 0.0, "name": "8efcc13eaa02f20b0c06c79784ff5e7b", "is_disabled": 0, "rental_uris": {"android": "https://dc.lft.to/lastmile_qr_scan", "ios": "https://dc.lft.to/lastmile_qr_scan"}, "fusion_lon": 0.0, "lat": 38.89859833333333, "bike_id": "8efcc13eaa02f20b0c06c79784ff5e7b", "type": "electric_scooter", "is_reserved": 0, "lon": -77.03940483333334}, {"fusion_lat": 0.0, "name": "8b4ff57a2636f6284e395b94851f6c3e", "is_disabled": 0, "rental_uris": {"android": "https://dc.lft.to/lastmile_qr_scan", "ios": "https://dc.lft.to/lastmile_qr_scan"}, "fusion_lon": 0.0, "lat": 38.91977283333333, "bike_id": "8b4ff57a2636f6284e395b94851f6c3e", "type": "electric_scooter", "is_reserved": 0, "lon": -77.023809}, {"fusion_lat": 0.0, "name": "bc807bc353e174901e7edb41c100527b", "is_disabled": 0, "rental_uris": {"android": "https://dc.lft.to/lastmile_qr_scan", "ios": "https://dc.lft.to/lastmile_qr_scan"}, "fusion_lon": 0.0, "lat": 38.898503166666664, "bike_id": "bc807bc353e174901e7edb41c100527b", "type": "electric_scooter", "is_reserved": 0, "lon": -77.0396115}, {"fusion_lat": 0.0, "name": "1aa2806ec27062c9487dc650bb90117d", "is_disabled": 0, "rental_uris": {"android": "https://dc.lft.to/lastmile_qr_scan", "ios": "https://dc.lft.to/lastmile_qr_scan"}, "fusion_lon": 0.0, "lat": 38.90381166666667, "bike_id": "1aa2806ec27062c9487dc650bb90117d", "type": "electric_scooter", "is_reserved": 0, "lon": -77.0482455}, {"fusion_lat": 0.0, "name": "68923ba1b3710b8c606744f4ba8c9550", "is_disabled": 0, "rental_uris": {"android": "https://dc.lft.to/lastmile_qr_scan", "ios": "https://dc.lft.to/lastmile_qr_scan"}, "fusion_lon": 0.0, "lat": 38.92040983333333, "bike_id": "68923ba1b3710b8c606744f4ba8c9550", "type": "electric_scooter", "is_reserved": 0, "lon": -77.02587216666667}, {"fusion_lat": 0.0, "name": "b984bba429ca22c163ef2116ce73792f", "is_disabled": 0, "rental_uris": {"android": "https://dc.lft.to/lastmile_qr_scan", "ios": "https://dc.lft.to/lastmile_qr_scan"}, "fusion_lon": 0.0, "lat": 38.90577033333334, "bike_id": "b984bba429ca22c163ef2116ce73792f", "type": "electric_scooter", "is_reserved": 0, "lon": -77.00640816666667}, {"fusion_lat": 0.0, "name": "e3a82ab51cc907af0cb96ae4f1eb07d3", "is_disabled": 0, "rental_uris": {"android": "https://dc.lft.to/lastmile_qr_scan", "ios": "https://dc.lft.to/lastmile_qr_scan"}, "fusion_lon": 0.0, "lat": 38.90408266666667, "bike_id": "e3a82ab51cc907af0cb96ae4f1eb07d3", "type": "electric_scooter", "is_reserved": 0, "lon": -76.97333}, {"fusion_lat": 0.0, "name": "04d1409fcc4f27b6ed98bb330e3af6b8", "is_disabled": 0, "rental_uris": {"android": "https://dc.lft.to/lastmile_qr_scan", "ios": "https://dc.lft.to/lastmile_qr_scan"}, "fusion_lon": 0.0, "lat": 38.9057925, "bike_id": "04d1409fcc4f27b6ed98bb330e3af6b8", "type": "electric_scooter", "is_reserved": 0, "lon": -77.04561783333334}, {"fusion_lat": 0.0, "name": "debc460914d409519fda901ff6e5b4f6", "is_disabled": 0, "rental_uris": {"android": "https://dc.lft.to/lastmile_qr_scan", "ios": "https://dc.lft.to/lastmile_qr_scan"}, "fusion_lon": 0.0, "lat": 38.99773866666666, "bike_id": "debc460914d409519fda901ff6e5b4f6", "type": "electric_bike", "is_reserved": 0, "lon": -77.04711383333333}, {"fusion_lat": 0.0, "name": "307bc86c9190ff238c6f3e7cd2859087", "is_disabled": 0, "rental_uris": {"android": "https://dc.lft.to/lastmile_qr_scan", "ios": "https://dc.lft.to/lastmile_qr_scan"}, "fusion_lon": 0.0, "lat": 38.92061316666667, "bike_id": "307bc86c9190ff238c6f3e7cd2859087", "type": "electric_scooter", "is_reserved": 0, "lon": -77.04090233333334}, {"fusion_lat": 0.0, "name": "a3510f542c4296248a8655e3fcfa703e", "is_disabled": 0, "rental_uris": {"android": "https://dc.lft.to/lastmile_qr_scan", "ios": "https://dc.lft.to/lastmile_qr_scan"}, "fusion_lon": 0.0, "lat": 38.920606666666664, "bike_id": "a3510f542c4296248a8655e3fcfa703e", "type": "electric_scooter", "is_reserved": 0, "lon": -77.03230416666666}, {"fusion_lat": 0.0, "name": "1c3619a82fc1b3b5e55f9c7ad3989fc2", "is_disabled": 0, "rental_uris": {"android": "https://dc.lft.to/lastmile_qr_scan", "ios": "https://dc.lft.to/lastmile_qr_scan"}, "fusion_lon": 0.0, "lat": 38.887438833333334, "bike_id": "1c3619a82fc1b3b5e55f9c7ad3989fc2", "type": "electric_scooter", "is_reserved": 0, "lon": -77.02228083333334}, {"fusion_lat": 0.0, "name": "78ca63ef26c744802a6bfe5307a36311", "is_disabled": 0, "rental_uris": {"android": "https://dc.lft.to/lastmile_qr_scan", "ios": "https://dc.lft.to/lastmile_qr_scan"}, "fusion_lon": 0.0, "lat": 38.88490433333333, "bike_id": "78ca63ef26c744802a6bfe5307a36311", "type": "electric_scooter", "is_reserved": 0, "lon": -77.007086}, {"fusion_lat": 0.0, "name": "21bff0ce41372177d0962c90033087bb", "is_disabled": 0, "rental_uris": {"android": "https://dc.lft.to/lastmile_qr_scan", "ios": "https://dc.lft.to/lastmile_qr_scan"}, "fusion_lon": 0.0, "lat": 38.91712016666666, "bike_id": "21bff0ce41372177d0962c90033087bb", "type": "electric_scooter", "is_reserved": 0, "lon": -76.97664316666666}, {"fusion_lat": 0.0, "name": "039df779ae823fc44913fd3d4426f129", "is_disabled": 0, "rental_uris": {"android": "https://dc.lft.to/lastmile_qr_scan", "ios": "https://dc.lft.to/lastmile_qr_scan"}, "fusion_lon": 0.0, "lat": 38.9243545, "bike_id": "039df779ae823fc44913fd3d4426f129", "type": "electric_scooter", "is_reserved": 0, "lon": -77.0202175}, {"fusion_lat": 0.0, "name": "d3487f1a1f6906c9a5f1f001838e5cef", "is_disabled": 0, "rental_uris": {"android": "https://dc.lft.to/lastmile_qr_scan", "ios": "https://dc.lft.to/lastmile_qr_scan"}, "fusion_lon": 0.0, "lat": 38.87811766666667, "bike_id": "d3487f1a1f6906c9a5f1f001838e5cef", "type": "electric_scooter", "is_reserved": 0, "lon": -77.0132275}, {"fusion_lat": 0.0, "name": "1f18645a86dc0e98af81fd350bccf898", "is_disabled": 0, "rental_uris": {"android": "https://dc.lft.to/lastmile_qr_scan", "ios": "https://dc.lft.to/lastmile_qr_scan"}, "fusion_lon": 0.0, "lat": 38.90531816666667, "bike_id": "1f18645a86dc0e98af81fd350bccf898", "type": "electric_scooter", "is_reserved": 0, "lon": -77.04745733333333}, {"fusion_lat": 0.0, "name": "ddaeb78ac92e42e3280d5d365e904d85", "is_disabled": 0, "rental_uris": {"android": "https://dc.lft.to/lastmile_qr_scan", "ios": "https://dc.lft.to/lastmile_qr_scan"}, "fusion_lon": 0.0, "lat": 38.91883766666667, "bike_id": "ddaeb78ac92e42e3280d5d365e904d85", "type": "electric_scooter", "is_reserved": 0, "lon": -77.02297183333333}, {"fusion_lat": 0.0, "name": "414408da17292dd1d95812f985e05453", "is_disabled": 0, "rental_uris": {"android": "https://dc.lft.to/lastmile_qr_scan", "ios": "https://dc.lft.to/lastmile_qr_scan"}, "fusion_lon": 0.0, "lat": 38.898781166666666, "bike_id": "414408da17292dd1d95812f985e05453", "type": "electric_scooter", "is_reserved": 0, "lon": -76.9318445}, {"fusion_lat": 0.0, "name": "b894dc4b88474f44b1f41feaba14269a", "is_disabled": 0, "rental_uris": {"android": "https://dc.lft.to/lastmile_qr_scan", "ios": "https://dc.lft.to/lastmile_qr_scan"}, "fusion_lon": 0.0, "lat": 38.89885266666667, "bike_id": "b894dc4b88474f44b1f41feaba14269a", "type": "electric_scooter", "is_reserved": 0, "lon": -77.053034}, {"fusion_lat": 0.0, "name": "28581c9d2b13113da82eedc085dcc54d", "is_disabled": 0, "rental_uris": {"android": "https://dc.lft.to/lastmile_qr_scan", "ios": "https://dc.lft.to/lastmile_qr_scan"}, "fusion_lon": 0.0, "lat": 38.911077666666664, "bike_id": "28581c9d2b13113da82eedc085dcc54d", "type": "electric_scooter", "is_reserved": 0, "lon": -77.0021875}, {"fusion_lat": 0.0, "name": "ccea3f58faf25b02aad2c34eae72e33d", "is_disabled": 0, "rental_uris": {"android": "https://dc.lft.to/lastmile_qr_scan", "ios": "https://dc.lft.to/lastmile_qr_scan"}, "fusion_lon": 0.0, "lat": 38.918169666666664, "bike_id": "ccea3f58faf25b02aad2c34eae72e33d", "type": "electric_scooter", "is_reserved": 0, "lon": -77.04522133333333}, {"fusion_lat": 0.0, "name": "6371b0f6569caf1f677f031dcce37a71", "is_disabled": 0, "rental_uris": {"android": "https://dc.lft.to/lastmile_qr_scan", "ios": "https://dc.lft.to/lastmile_qr_scan"}, "fusion_lon": 0.0, "lat": 38.915543666666665, "bike_id": "6371b0f6569caf1f677f031dcce37a71", "type": "electric_scooter", "is_reserved": 0, "lon": -77.03131016666667}, {"fusion_lat": 0.0, "name": "ab3a66c6e422b73faa34a0616c3de8fb", "is_disabled": 0, "rental_uris": {"android": "https://dc.lft.to/lastmile_qr_scan", "ios": "https://dc.lft.to/lastmile_qr_scan"}, "fusion_lon": 0.0, "lat": 38.929013166666664, "bike_id": "ab3a66c6e422b73faa34a0616c3de8fb", "type": "electric_scooter", "is_reserved": 0, "lon": -77.03273333333334}, {"fusion_lat": 0.0, "name": "bc23495f099fc82aff1f8969642dd910", "is_disabled": 0, "rental_uris": {"android": "https://dc.lft.to/lastmile_qr_scan", "ios": "https://dc.lft.to/lastmile_qr_scan"}, "fusion_lon": 0.0, "lat": 38.91099, "bike_id": "bc23495f099fc82aff1f8969642dd910", "type": "electric_bike", "is_reserved": 0, "lon": -77.07338016666667}, {"fusion_lat": 0.0, "name": "fad1a3357fd1015685f1dffaec7facb5", "is_disabled": 0, "rental_uris": {"android": "https://dc.lft.to/lastmile_qr_scan", "ios": "https://dc.lft.to/lastmile_qr_scan"}, "fusion_lon": 0.0, "lat": 38.92238316666667, "bike_id": "fad1a3357fd1015685f1dffaec7facb5", "type": "electric_scooter", "is_reserved": 0, "lon": -77.02912766666667}, {"fusion_lat": 0.0, "name": "999410466d2b2317fc17a31c83ecbea8", "is_disabled": 0, "rental_uris": {"android": "https://dc.lft.to/lastmile_qr_scan", "ios": "https://dc.lft.to/lastmile_qr_scan"}, "fusion_lon": 0.0, "lat": 38.9094645, "bike_id": "999410466d2b2317fc17a31c83ecbea8", "type": "electric_scooter", "is_reserved": 0, "lon": -77.03441966666666}, {"fusion_lat": 0.0, "name": "692ba3243b76e5aa4843177260ce9bff", "is_disabled": 0, "rental_uris": {"android": "https://dc.lft.to/lastmile_qr_scan", "ios": "https://dc.lft.to/lastmile_qr_scan"}, "fusion_lon": 0.0, "lat": 38.925741333333335, "bike_id": "692ba3243b76e5aa4843177260ce9bff", "type": "electric_scooter", "is_reserved": 0, "lon": -77.026893}, {"fusion_lat": 0.0, "name": "b3a71a17a4ec703314fa0aae3ca7df54", "is_disabled": 0, "rental_uris": {"android": "https://dc.lft.to/lastmile_qr_scan", "ios": "https://dc.lft.to/lastmile_qr_scan"}, "fusion_lon": 0.0, "lat": 38.90626316666667, "bike_id": "b3a71a17a4ec703314fa0aae3ca7df54", "type": "electric_scooter", "is_reserved": 0, "lon": -77.02606533333334}, {"fusion_lat": 0.0, "name": "753f9ebe23133c05787a4d5c48c13977", "is_disabled": 0, "rental_uris": {"android": "https://dc.lft.to/lastmile_qr_scan", "ios": "https://dc.lft.to/lastmile_qr_scan"}, "fusion_lon": 0.0, "lat": 38.91260316666666, "bike_id": "753f9ebe23133c05787a4d5c48c13977", "type": "electric_scooter", "is_reserved": 0, "lon": -77.03628383333333}, {"fusion_lat": 0.0, "name": "cd341511de60d6bb6363f52618c5c498", "is_disabled": 0, "rental_uris": {"android": "https://dc.lft.to/lastmile_qr_scan", "ios": "https://dc.lft.to/lastmile_qr_scan"}, "fusion_lon": 0.0, "lat": 38.93113916666667, "bike_id": "cd341511de60d6bb6363f52618c5c498", "type": "electric_scooter", "is_reserved": 0, "lon": -76.99616183333333}, {"fusion_lat": 0.0, "name": "95f81ae6c575f689a41c5dfa1e07a9e0", "is_disabled": 0, "rental_uris": {"android": "https://dc.lft.to/lastmile_qr_scan", "ios": "https://dc.lft.to/lastmile_qr_scan"}, "fusion_lon": 0.0, "lat": 38.904327333333335, "bike_id": "95f81ae6c575f689a41c5dfa1e07a9e0", "type": "electric_scooter", "is_reserved": 0, "lon": -77.0258925}, {"fusion_lat": 0.0, "name": "de424ac5cb114f49f96db4b59da88180", "is_disabled": 0, "rental_uris": {"android": "https://dc.lft.to/lastmile_qr_scan", "ios": "https://dc.lft.to/lastmile_qr_scan"}, "fusion_lon": 0.0, "lat": 38.928808333333336, "bike_id": "de424ac5cb114f49f96db4b59da88180", "type": "electric_scooter", "is_reserved": 0, "lon": -76.9955565}, {"fusion_lat": 0.0, "name": "82f9eb34bb5094bd9e1e15492c8681c0", "is_disabled": 0, "rental_uris": {"android": "https://dc.lft.to/lastmile_qr_scan", "ios": "https://dc.lft.to/lastmile_qr_scan"}, "fusion_lon": 0.0, "lat": 38.88017283333333, "bike_id": "82f9eb34bb5094bd9e1e15492c8681c0", "type": "electric_scooter", "is_reserved": 0, "lon": -76.9806935}, {"fusion_lat": 0.0, "name": "6eeeba3b471db7a5231f1288f84fdaa1", "is_disabled": 0, "rental_uris": {"android": "https://dc.lft.to/lastmile_qr_scan", "ios": "https://dc.lft.to/lastmile_qr_scan"}, "fusion_lon": 0.0, "lat": 38.91096916666667, "bike_id": "6eeeba3b471db7a5231f1288f84fdaa1", "type": "electric_scooter", "is_reserved": 0, "lon": -77.04481066666666}, {"fusion_lat": 0.0, "name": "344aed60996c801d08c93a0531f44625", "is_disabled": 0, "rental_uris": {"android": "https://dc.lft.to/lastmile_qr_scan", "ios": "https://dc.lft.to/lastmile_qr_scan"}, "fusion_lon": 0.0, "lat": 38.931828, "bike_id": "344aed60996c801d08c93a0531f44625", "type": "electric_bike", "is_reserved": 0, "lon": -77.023526}, {"fusion_lat": 0.0, "name": "93fe22f74531fc3986bf62b6113e0d6c", "is_disabled": 0, "rental_uris": {"android": "https://dc.lft.to/lastmile_qr_scan", "ios": "https://dc.lft.to/lastmile_qr_scan"}, "fusion_lon": 0.0, "lat": 38.90652583333333, "bike_id": "93fe22f74531fc3986bf62b6113e0d6c", "type": "electric_scooter", "is_reserved": 0, "lon": -77.02196433333333}, {"fusion_lat": 0.0, "name": "57e50db4fa7239165fe5eff75a85ca6c", "is_disabled": 0, "rental_uris": {"android": "https://dc.lft.to/lastmile_qr_scan", "ios": "https://dc.lft.to/lastmile_qr_scan"}, "fusion_lon": 0.0, "lat": 38.911171333333336, "bike_id": "57e50db4fa7239165fe5eff75a85ca6c", "type": "electric_scooter", "is_reserved": 0, "lon": -77.01973866666667}, {"fusion_lat": 0.0, "name": "40cd0e63a56341c0d5c8ff8c4ad5f1b0", "is_disabled": 0, "rental_uris": {"android": "https://dc.lft.to/lastmile_qr_scan", "ios": "https://dc.lft.to/lastmile_qr_scan"}, "fusion_lon": 0.0, "lat": 38.902411666666666, "bike_id": "40cd0e63a56341c0d5c8ff8c4ad5f1b0", "type": "electric_scooter", "is_reserved": 0, "lon": -77.00198866666666}, {"fusion_lat": 0.0, "name": "faedb1368a3e2c5225cab1ed820c606e", "is_disabled": 0, "rental_uris": {"android": "https://dc.lft.to/lastmile_qr_scan", "ios": "https://dc.lft.to/lastmile_qr_scan"}, "fusion_lon": 0.0, "lat": 38.90504766666667, "bike_id": "faedb1368a3e2c5225cab1ed820c606e", "type": "electric_scooter", "is_reserved": 0, "lon": -77.058033}, {"fusion_lat": 0.0, "name": "412840def1acd3111d3ac293200e03bb", "is_disabled": 0, "rental_uris": {"android": "https://dc.lft.to/lastmile_qr_scan", "ios": "https://dc.lft.to/lastmile_qr_scan"}, "fusion_lon": 0.0, "lat": 38.913607, "bike_id": "412840def1acd3111d3ac293200e03bb", "type": "electric_scooter", "is_reserved": 0, "lon": -77.0205765}, {"fusion_lat": 0.0, "name": "e45e1471504af4b8ebb6863f999f14f3", "is_disabled": 0, "rental_uris": {"android": "https://dc.lft.to/lastmile_qr_scan", "ios": "https://dc.lft.to/lastmile_qr_scan"}, "fusion_lon": 0.0, "lat": 38.90064983333333, "bike_id": "e45e1471504af4b8ebb6863f999f14f3", "type": "electric_scooter", "is_reserved": 0, "lon": -77.01632483333333}, {"fusion_lat": 0.0, "name": "35a45efb10576161552f038ada2c2552", "is_disabled": 0, "rental_uris": {"android": "https://dc.lft.to/lastmile_qr_scan", "ios": "https://dc.lft.to/lastmile_qr_scan"}, "fusion_lon": 0.0, "lat": 38.83309783333333, "bike_id": "35a45efb10576161552f038ada2c2552", "type": "electric_bike", "is_reserved": 0, "lon": -77.04171883333333}, {"fusion_lat": 0.0, "name": "fd854a6a394b3d5f464d4818ef6e9334", "is_disabled": 0, "rental_uris": {"android": "https://dc.lft.to/lastmile_qr_scan", "ios": "https://dc.lft.to/lastmile_qr_scan"}, "fusion_lon": 0.0, "lat": 38.923851, "bike_id": "fd854a6a394b3d5f464d4818ef6e9334", "type": "electric_scooter", "is_reserved": 0, "lon": -77.03658066666667}, {"fusion_lat": 0.0, "name": "957f29578d72bb9a71602320c77e588e", "is_disabled": 0, "rental_uris": {"android": "https://dc.lft.to/lastmile_qr_scan", "ios": "https://dc.lft.to/lastmile_qr_scan"}, "fusion_lon": 0.0, "lat": 38.9201665, "bike_id": "957f29578d72bb9a71602320c77e588e", "type": "electric_scooter", "is_reserved": 0, "lon": -77.02505183333334}, {"fusion_lat": 0.0, "name": "cd95846541adf3ba0c88cc43154ff871", "is_disabled": 0, "rental_uris": {"android": "https://dc.lft.to/lastmile_qr_scan", "ios": "https://dc.lft.to/lastmile_qr_scan"}, "fusion_lon": 0.0, "lat": 38.9147925, "bike_id": "cd95846541adf3ba0c88cc43154ff871", "type": "electric_scooter", "is_reserved": 0, "lon": -77.0353195}, {"fusion_lat": 0.0, "name": "41353dd3026b18d83a9f36c85d3f27f5", "is_disabled": 0, "rental_uris": {"android": "https://dc.lft.to/lastmile_qr_scan", "ios": "https://dc.lft.to/lastmile_qr_scan"}, "fusion_lon": 0.0, "lat": 38.86555033333333, "bike_id": "41353dd3026b18d83a9f36c85d3f27f5", "type": "electric_bike", "is_reserved": 0, "lon": -76.97370233333334}, {"fusion_lat": 0.0, "name": "9bfdf58b8cdc3c1f1b1891d9b92b27e8", "is_disabled": 0, "rental_uris": {"android": "https://dc.lft.to/lastmile_qr_scan", "ios": "https://dc.lft.to/lastmile_qr_scan"}, "fusion_lon": 0.0, "lat": 38.94542716666667, "bike_id": "9bfdf58b8cdc3c1f1b1891d9b92b27e8", "type": "electric_scooter", "is_reserved": 0, "lon": -77.01689716666667}, {"fusion_lat": 0.0, "name": "865dabe5ad6320b7635ea8a2ca2001cc", "is_disabled": 0, "rental_uris": {"android": "https://dc.lft.to/lastmile_qr_scan", "ios": "https://dc.lft.to/lastmile_qr_scan"}, "fusion_lon": 0.0, "lat": 38.987869333333336, "bike_id": "865dabe5ad6320b7635ea8a2ca2001cc", "type": "electric_bike", "is_reserved": 0, "lon": -77.14092366666667}, {"fusion_lat": 0.0, "name": "9a208e9b46f472d4e2ba22f0774735ac", "is_disabled": 0, "rental_uris": {"android": "https://dc.lft.to/lastmile_qr_scan", "ios": "https://dc.lft.to/lastmile_qr_scan"}, "fusion_lon": 0.0, "lat": 38.94156733333333, "bike_id": "9a208e9b46f472d4e2ba22f0774735ac", "type": "electric_bike", "is_reserved": 0, "lon": -77.0019645}, {"fusion_lat": 0.0, "name": "3ac983f424a0611ad6f3aeaf2f1b5038", "is_disabled": 0, "rental_uris": {"android": "https://dc.lft.to/lastmile_qr_scan", "ios": "https://dc.lft.to/lastmile_qr_scan"}, "fusion_lon": 0.0, "lat": 38.895442, "bike_id": "3ac983f424a0611ad6f3aeaf2f1b5038", "type": "electric_scooter", "is_reserved": 0, "lon": -77.02391216666666}, {"fusion_lat": 0.0, "name": "b3faf02ab1871b1d6bc0fb3e76eb79be", "is_disabled": 0, "rental_uris": {"android": "https://dc.lft.to/lastmile_qr_scan", "ios": "https://dc.lft.to/lastmile_qr_scan"}, "fusion_lon": 0.0, "lat": 38.9001695, "bike_id": "b3faf02ab1871b1d6bc0fb3e76eb79be", "type": "electric_scooter", "is_reserved": 0, "lon": -77.0240115}, {"fusion_lat": 0.0, "name": "6eacc4d67ac091e5ebbdbf67a634b223", "is_disabled": 0, "rental_uris": {"android": "https://dc.lft.to/lastmile_qr_scan", "ios": "https://dc.lft.to/lastmile_qr_scan"}, "fusion_lon": 0.0, "lat": 38.8736255, "bike_id": "6eacc4d67ac091e5ebbdbf67a634b223", "type": "electric_scooter", "is_reserved": 0, "lon": -77.00122533333334}, {"fusion_lat": 0.0, "name": "ce7887688b990290deb18b0046ad05f2", "is_disabled": 0, "rental_uris": {"android": "https://dc.lft.to/lastmile_qr_scan", "ios": "https://dc.lft.to/lastmile_qr_scan"}, "fusion_lon": 0.0, "lat": 38.928641166666665, "bike_id": "ce7887688b990290deb18b0046ad05f2", "type": "electric_scooter", "is_reserved": 0, "lon": -77.034325}, {"fusion_lat": 0.0, "name": "074189c8611d7090a4bdefac2522128e", "is_disabled": 0, "rental_uris": {"android": "https://dc.lft.to/lastmile_qr_scan", "ios": "https://dc.lft.to/lastmile_qr_scan"}, "fusion_lon": 0.0, "lat": 38.908738166666666, "bike_id": "074189c8611d7090a4bdefac2522128e", "type": "electric_scooter", "is_reserved": 0, "lon": -77.02400333333334}, {"fusion_lat": 0.0, "name": "1f973df1eb3fe1714ed865a1327a359c", "is_disabled": 0, "rental_uris": {"android": "https://dc.lft.to/lastmile_qr_scan", "ios": "https://dc.lft.to/lastmile_qr_scan"}, "fusion_lon": 0.0, "lat": 38.904408833333335, "bike_id": "1f973df1eb3fe1714ed865a1327a359c", "type": "electric_scooter", "is_reserved": 0, "lon": -77.05869016666666}, {"fusion_lat": 0.0, "name": "76194a029c9f02e0d3862a52e5181913", "is_disabled": 0, "rental_uris": {"android": "https://dc.lft.to/lastmile_qr_scan", "ios": "https://dc.lft.to/lastmile_qr_scan"}, "fusion_lon": 0.0, "lat": 38.88720716666667, "bike_id": "76194a029c9f02e0d3862a52e5181913", "type": "electric_scooter", "is_reserved": 0, "lon": -77.02578533333333}, {"fusion_lat": 0.0, "name": "8eb9cc92251d5f56cff2694a0a058b01", "is_disabled": 0, "rental_uris": {"android": "https://dc.lft.to/lastmile_qr_scan", "ios": "https://dc.lft.to/lastmile_qr_scan"}, "fusion_lon": 0.0, "lat": 38.941626166666666, "bike_id": "8eb9cc92251d5f56cff2694a0a058b01", "type": "electric_bike", "is_reserved": 0, "lon": -76.9664525}, {"fusion_lat": 0.0, "name": "d78201c7e1a578efca54d3537b318d11", "is_disabled": 0, "rental_uris": {"android": "https://dc.lft.to/lastmile_qr_scan", "ios": "https://dc.lft.to/lastmile_qr_scan"}, "fusion_lon": 0.0, "lat": 38.887163, "bike_id": "d78201c7e1a578efca54d3537b318d11", "type": "electric_scooter", "is_reserved": 0, "lon": -77.0217395}, {"fusion_lat": 0.0, "name": "bcc9816b47fc4fb56f6e938241071521", "is_disabled": 0, "rental_uris": {"android": "https://dc.lft.to/lastmile_qr_scan", "ios": "https://dc.lft.to/lastmile_qr_scan"}, "fusion_lon": 0.0, "lat": 38.898522666666665, "bike_id": "bcc9816b47fc4fb56f6e938241071521", "type": "electric_scooter", "is_reserved": 0, "lon": -77.03948583333333}, {"fusion_lat": 0.0, "name": "d69d7c101e5207e11190615fb6f67824", "is_disabled": 0, "rental_uris": {"android": "https://dc.lft.to/lastmile_qr_scan", "ios": "https://dc.lft.to/lastmile_qr_scan"}, "fusion_lon": 0.0, "lat": 38.91099966666667, "bike_id": "d69d7c101e5207e11190615fb6f67824", "type": "electric_scooter", "is_reserved": 0, "lon": -77.07347233333333}, {"fusion_lat": 0.0, "name": "c13591e6ba6b6c4743dc0b2859243d8d", "is_disabled": 0, "rental_uris": {"android": "https://dc.lft.to/lastmile_qr_scan", "ios": "https://dc.lft.to/lastmile_qr_scan"}, "fusion_lon": 0.0, "lat": 38.87622116666667, "bike_id": "c13591e6ba6b6c4743dc0b2859243d8d", "type": "electric_scooter", "is_reserved": 0, "lon": -77.00822966666667}, {"fusion_lat": 0.0, "name": "5a5bec13efe9910dd8ac373735ffa4c3", "is_disabled": 0, "rental_uris": {"android": "https://dc.lft.to/lastmile_qr_scan", "ios": "https://dc.lft.to/lastmile_qr_scan"}, "fusion_lon": 0.0, "lat": 38.899551, "bike_id": "5a5bec13efe9910dd8ac373735ffa4c3", "type": "electric_scooter", "is_reserved": 0, "lon": -77.05700616666667}, {"fusion_lat": 0.0, "name": "2fc219afb9566edbcfe589e276b49abe", "is_disabled": 0, "rental_uris": {"android": "https://dc.lft.to/lastmile_qr_scan", "ios": "https://dc.lft.to/lastmile_qr_scan"}, "fusion_lon": 0.0, "lat": 38.89672983333333, "bike_id": "2fc219afb9566edbcfe589e276b49abe", "type": "electric_scooter", "is_reserved": 0, "lon": -77.02474566666666}, {"fusion_lat": 0.0, "name": "a0be677bab4bf17c889b4fb4badf4476", "is_disabled": 0, "rental_uris": {"android": "https://dc.lft.to/lastmile_qr_scan", "ios": "https://dc.lft.to/lastmile_qr_scan"}, "fusion_lon": 0.0, "lat": 38.889866833333336, "bike_id": "a0be677bab4bf17c889b4fb4badf4476", "type": "electric_scooter", "is_reserved": 0, "lon": -77.003327}, {"fusion_lat": 0.0, "name": "bb57e2abc534c7d7aa4aab65c3f563b1", "is_disabled": 0, "rental_uris": {"android": "https://dc.lft.to/lastmile_qr_scan", "ios": "https://dc.lft.to/lastmile_qr_scan"}, "fusion_lon": 0.0, "lat": 39.036086833333336, "bike_id": "bb57e2abc534c7d7aa4aab65c3f563b1", "type": "electric_bike", "is_reserved": 0, "lon": -77.05537266666667}, {"fusion_lat": 0.0, "name": "cd2d46d00d7ceb4f9e58ec6f50a8fee1", "is_disabled": 0, "rental_uris": {"android": "https://dc.lft.to/lastmile_qr_scan", "ios": "https://dc.lft.to/lastmile_qr_scan"}, "fusion_lon": 0.0, "lat": 38.916324333333336, "bike_id": "cd2d46d00d7ceb4f9e58ec6f50a8fee1", "type": "electric_scooter", "is_reserved": 0, "lon": -77.050508}, {"fusion_lat": 0.0, "name": "e5d2545552230b6963a48dcfa011569a", "is_disabled": 0, "rental_uris": {"android": "https://dc.lft.to/lastmile_qr_scan", "ios": "https://dc.lft.to/lastmile_qr_scan"}, "fusion_lon": 0.0, "lat": 38.917053833333334, "bike_id": "e5d2545552230b6963a48dcfa011569a", "type": "electric_scooter", "is_reserved": 0, "lon": -77.0241355}, {"fusion_lat": 0.0, "name": "c9be06f5ecda5efdd5c88093b8d13ee5", "is_disabled": 0, "rental_uris": {"android": "https://dc.lft.to/lastmile_qr_scan", "ios": "https://dc.lft.to/lastmile_qr_scan"}, "fusion_lon": 0.0, "lat": 38.9075925, "bike_id": "c9be06f5ecda5efdd5c88093b8d13ee5", "type": "electric_scooter", "is_reserved": 0, "lon": -77.035825}, {"fusion_lat": 0.0, "name": "f445e3acb170ab244773f8dec387db0e", "is_disabled": 0, "rental_uris": {"android": "https://dc.lft.to/lastmile_qr_scan", "ios": "https://dc.lft.to/lastmile_qr_scan"}, "fusion_lon": 0.0, "lat": 38.904758666666666, "bike_id": "f445e3acb170ab244773f8dec387db0e", "type": "electric_scooter", "is_reserved": 0, "lon": -77.0486125}, {"fusion_lat": 0.0, "name": "ffb68322486c51b8761e57fc74ece4c9", "is_disabled": 0, "rental_uris": {"android": "https://dc.lft.to/lastmile_qr_scan", "ios": "https://dc.lft.to/lastmile_qr_scan"}, "fusion_lon": 0.0, "lat": 38.905128, "bike_id": "ffb68322486c51b8761e57fc74ece4c9", "type": "electric_scooter", "is_reserved": 0, "lon": -77.06019966666666}, {"fusion_lat": 0.0, "name": "5102051c401bbb76d26593408c1b02a6", "is_disabled": 0, "rental_uris": {"android": "https://dc.lft.to/lastmile_qr_scan", "ios": "https://dc.lft.to/lastmile_qr_scan"}, "fusion_lon": 0.0, "lat": 38.915562666666666, "bike_id": "5102051c401bbb76d26593408c1b02a6", "type": "electric_scooter", "is_reserved": 0, "lon": -77.03136383333333}, {"fusion_lat": 0.0, "name": "8a2a04185ecf889fdefa3583ee7292c4", "is_disabled": 0, "rental_uris": {"android": "https://dc.lft.to/lastmile_qr_scan", "ios": "https://dc.lft.to/lastmile_qr_scan"}, "fusion_lon": 0.0, "lat": 38.911266, "bike_id": "8a2a04185ecf889fdefa3583ee7292c4", "type": "electric_scooter", "is_reserved": 0, "lon": -77.0325285}, {"fusion_lat": 0.0, "name": "427384a0e49f4a25d82eb7f54bf62251", "is_disabled": 0, "rental_uris": {"android": "https://dc.lft.to/lastmile_qr_scan", "ios": "https://dc.lft.to/lastmile_qr_scan"}, "fusion_lon": 0.0, "lat": 38.8862405, "bike_id": "427384a0e49f4a25d82eb7f54bf62251", "type": "electric_scooter", "is_reserved": 0, "lon": -77.02827966666666}, {"fusion_lat": 0.0, "name": "7de886290d17c853a44a5e55b751828a", "is_disabled": 0, "rental_uris": {"android": "https://dc.lft.to/lastmile_qr_scan", "ios": "https://dc.lft.to/lastmile_qr_scan"}, "fusion_lon": 0.0, "lat": 38.892201666666665, "bike_id": "7de886290d17c853a44a5e55b751828a", "type": "electric_scooter", "is_reserved": 0, "lon": -77.02781933333333}, {"fusion_lat": 0.0, "name": "efc7f7759b4eed8024c9d1f41000cdec", "is_disabled": 0, "rental_uris": {"android": "https://dc.lft.to/lastmile_qr_scan", "ios": "https://dc.lft.to/lastmile_qr_scan"}, "fusion_lon": 0.0, "lat": 38.92021833333333, "bike_id": "efc7f7759b4eed8024c9d1f41000cdec", "type": "electric_scooter", "is_reserved": 0, "lon": -77.081894}, {"fusion_lat": 0.0, "name": "ae45df843db8ee20666c5108041ba1d3", "is_disabled": 0, "rental_uris": {"android": "https://dc.lft.to/lastmile_qr_scan", "ios": "https://dc.lft.to/lastmile_qr_scan"}, "fusion_lon": 0.0, "lat": 38.91474516666667, "bike_id": "ae45df843db8ee20666c5108041ba1d3", "type": "electric_scooter", "is_reserved": 0, "lon": -77.021613}, {"fusion_lat": 0.0, "name": "c6b3852faabffa70b78a5eb7b93596bf", "is_disabled": 0, "rental_uris": {"android": "https://dc.lft.to/lastmile_qr_scan", "ios": "https://dc.lft.to/lastmile_qr_scan"}, "fusion_lon": 0.0, "lat": 38.9062125, "bike_id": "c6b3852faabffa70b78a5eb7b93596bf", "type": "electric_scooter", "is_reserved": 0, "lon": -77.00593483333333}, {"fusion_lat": 0.0, "name": "bd8b3067f61d5a6a25b2781c18eb357b", "is_disabled": 0, "rental_uris": {"android": "https://dc.lft.to/lastmile_qr_scan", "ios": "https://dc.lft.to/lastmile_qr_scan"}, "fusion_lon": 0.0, "lat": 38.930999166666666, "bike_id": "bd8b3067f61d5a6a25b2781c18eb357b", "type": "electric_scooter", "is_reserved": 0, "lon": -77.03808166666667}, {"fusion_lat": 0.0, "name": "689ee8e58d3df2f27bbc000a49c653dc", "is_disabled": 0, "rental_uris": {"android": "https://dc.lft.to/lastmile_qr_scan", "ios": "https://dc.lft.to/lastmile_qr_scan"}, "fusion_lon": 0.0, "lat": 38.933658, "bike_id": "689ee8e58d3df2f27bbc000a49c653dc", "type": "electric_scooter", "is_reserved": 0, "lon": -77.0572195}, {"fusion_lat": 0.0, "name": "82b46614d8695a5221db50fdb691ad66", "is_disabled": 0, "rental_uris": {"android": "https://dc.lft.to/lastmile_qr_scan", "ios": "https://dc.lft.to/lastmile_qr_scan"}, "fusion_lon": 0.0, "lat": 38.9082715, "bike_id": "82b46614d8695a5221db50fdb691ad66", "type": "electric_scooter", "is_reserved": 0, "lon": -77.03624583333334}, {"fusion_lat": 0.0, "name": "7b01f4f331e020b18e92aa8501fa75a2", "is_disabled": 0, "rental_uris": {"android": "https://dc.lft.to/lastmile_qr_scan", "ios": "https://dc.lft.to/lastmile_qr_scan"}, "fusion_lon": 0.0, "lat": 38.897536333333335, "bike_id": "7b01f4f331e020b18e92aa8501fa75a2", "type": "electric_scooter", "is_reserved": 0, "lon": -77.0488925}, {"fusion_lat": 0.0, "name": "639f7870606c7201070ebec0c4d9bb04", "is_disabled": 0, "rental_uris": {"android": "https://dc.lft.to/lastmile_qr_scan", "ios": "https://dc.lft.to/lastmile_qr_scan"}, "fusion_lon": 0.0, "lat": 38.9171215, "bike_id": "639f7870606c7201070ebec0c4d9bb04", "type": "electric_scooter", "is_reserved": 0, "lon": -77.02424533333334}, {"fusion_lat": 0.0, "name": "7c360b0b216486cb81d2323c3e7fdcb4", "is_disabled": 0, "rental_uris": {"android": "https://dc.lft.to/lastmile_qr_scan", "ios": "https://dc.lft.to/lastmile_qr_scan"}, "fusion_lon": 0.0, "lat": 38.84840166666667, "bike_id": "7c360b0b216486cb81d2323c3e7fdcb4", "type": "electric_bike", "is_reserved": 0, "lon": -77.07915133333333}, {"fusion_lat": 0.0, "name": "e6f6c6c53208be6b5650d653939ab2e6", "is_disabled": 0, "rental_uris": {"android": "https://dc.lft.to/lastmile_qr_scan", "ios": "https://dc.lft.to/lastmile_qr_scan"}, "fusion_lon": 0.0, "lat": 38.964393666666666, "bike_id": "e6f6c6c53208be6b5650d653939ab2e6", "type": "electric_bike", "is_reserved": 0, "lon": -77.020672}, {"fusion_lat": 0.0, "name": "2ccf46e62108e596c5ba7c2805bf4023", "is_disabled": 0, "rental_uris": {"android": "https://dc.lft.to/lastmile_qr_scan", "ios": "https://dc.lft.to/lastmile_qr_scan"}, "fusion_lon": 0.0, "lat": 38.91840216666667, "bike_id": "2ccf46e62108e596c5ba7c2805bf4023", "type": "electric_scooter", "is_reserved": 0, "lon": -77.01611933333334}, {"fusion_lat": 0.0, "name": "eb0b054a8c42f04a8bb75ffa2e2c987a", "is_disabled": 0, "rental_uris": {"android": "https://dc.lft.to/lastmile_qr_scan", "ios": "https://dc.lft.to/lastmile_qr_scan"}, "fusion_lon": 0.0, "lat": 38.92461633333333, "bike_id": "eb0b054a8c42f04a8bb75ffa2e2c987a", "type": "electric_scooter", "is_reserved": 0, "lon": -77.05233}, {"fusion_lat": 0.0, "name": "7fa3fc16a1a4a816eb1abbe99cc8ea09", "is_disabled": 0, "rental_uris": {"android": "https://dc.lft.to/lastmile_qr_scan", "ios": "https://dc.lft.to/lastmile_qr_scan"}, "fusion_lon": 0.0, "lat": 38.89842566666667, "bike_id": "7fa3fc16a1a4a816eb1abbe99cc8ea09", "type": "electric_scooter", "is_reserved": 0, "lon": -77.02484333333334}, {"fusion_lat": 0.0, "name": "2f6adca7e6a83983ef727e521cafd7b0", "is_disabled": 0, "rental_uris": {"android": "https://dc.lft.to/lastmile_qr_scan", "ios": "https://dc.lft.to/lastmile_qr_scan"}, "fusion_lon": 0.0, "lat": 38.896176833333335, "bike_id": "2f6adca7e6a83983ef727e521cafd7b0", "type": "electric_scooter", "is_reserved": 0, "lon": -77.0334965}, {"fusion_lat": 0.0, "name": "f516d16d44f6159d07d72baba262d5a1", "is_disabled": 0, "rental_uris": {"android": "https://dc.lft.to/lastmile_qr_scan", "ios": "https://dc.lft.to/lastmile_qr_scan"}, "fusion_lon": 0.0, "lat": 38.92332, "bike_id": "f516d16d44f6159d07d72baba262d5a1", "type": "electric_scooter", "is_reserved": 0, "lon": -77.0567985}, {"fusion_lat": 0.0, "name": "2d38dbba6b2ed6e4e83a42b794a56352", "is_disabled": 0, "rental_uris": {"android": "https://dc.lft.to/lastmile_qr_scan", "ios": "https://dc.lft.to/lastmile_qr_scan"}, "fusion_lon": 0.0, "lat": 38.90686316666667, "bike_id": "2d38dbba6b2ed6e4e83a42b794a56352", "type": "electric_scooter", "is_reserved": 0, "lon": -76.99960883333333}, {"fusion_lat": 0.0, "name": "f18548c9982e141f2308a083b1ab084e", "is_disabled": 0, "rental_uris": {"android": "https://dc.lft.to/lastmile_qr_scan", "ios": "https://dc.lft.to/lastmile_qr_scan"}, "fusion_lon": 0.0, "lat": 38.909489666666666, "bike_id": "f18548c9982e141f2308a083b1ab084e", "type": "electric_scooter", "is_reserved": 0, "lon": -76.98767216666667}, {"fusion_lat": 0.0, "name": "606273e9f6694359a9a00620dd134725", "is_disabled": 0, "rental_uris": {"android": "https://dc.lft.to/lastmile_qr_scan", "ios": "https://dc.lft.to/lastmile_qr_scan"}, "fusion_lon": 0.0, "lat": 38.90025416666667, "bike_id": "606273e9f6694359a9a00620dd134725", "type": "electric_scooter", "is_reserved": 0, "lon": -76.97398933333334}, {"fusion_lat": 0.0, "name": "c6e1cd59da7209d66fb1f36293610fe9", "is_disabled": 0, "rental_uris": {"android": "https://dc.lft.to/lastmile_qr_scan", "ios": "https://dc.lft.to/lastmile_qr_scan"}, "fusion_lon": 0.0, "lat": 38.915337, "bike_id": "c6e1cd59da7209d66fb1f36293610fe9", "type": "electric_scooter", "is_reserved": 0, "lon": -77.0122335}, {"fusion_lat": 0.0, "name": "4864778fbca08dc43bde7b2b6622b985", "is_disabled": 0, "rental_uris": {"android": "https://dc.lft.to/lastmile_qr_scan", "ios": "https://dc.lft.to/lastmile_qr_scan"}, "fusion_lon": 0.0, "lat": 38.916808333333336, "bike_id": "4864778fbca08dc43bde7b2b6622b985", "type": "electric_scooter", "is_reserved": 0, "lon": -77.02297433333334}, {"fusion_lat": 0.0, "name": "a0366d4cf98e781bb5a9e4035cba91b0", "is_disabled": 0, "rental_uris": {"android": "https://dc.lft.to/lastmile_qr_scan", "ios": "https://dc.lft.to/lastmile_qr_scan"}, "fusion_lon": 0.0, "lat": 38.91988033333333, "bike_id": "a0366d4cf98e781bb5a9e4035cba91b0", "type": "electric_scooter", "is_reserved": 0, "lon": -77.02385166666667}, {"fusion_lat": 0.0, "name": "6e644c5ae4a066e57e689af0cbf73fd9", "is_disabled": 0, "rental_uris": {"android": "https://dc.lft.to/lastmile_qr_scan", "ios": "https://dc.lft.to/lastmile_qr_scan"}, "fusion_lon": 0.0, "lat": 38.901400833333334, "bike_id": "6e644c5ae4a066e57e689af0cbf73fd9", "type": "electric_scooter", "is_reserved": 0, "lon": -77.04491816666666}, {"fusion_lat": 0.0, "name": "95d75ef654ef1f731372e971d0b50b5b", "is_disabled": 0, "rental_uris": {"android": "https://dc.lft.to/lastmile_qr_scan", "ios": "https://dc.lft.to/lastmile_qr_scan"}, "fusion_lon": 0.0, "lat": 38.920532333333334, "bike_id": "95d75ef654ef1f731372e971d0b50b5b", "type": "electric_scooter", "is_reserved": 0, "lon": -77.03406766666667}, {"fusion_lat": 0.0, "name": "a00962bc67b079e862eb4523226fcfc6", "is_disabled": 0, "rental_uris": {"android": "https://dc.lft.to/lastmile_qr_scan", "ios": "https://dc.lft.to/lastmile_qr_scan"}, "fusion_lon": 0.0, "lat": 38.892230166666664, "bike_id": "a00962bc67b079e862eb4523226fcfc6", "type": "electric_scooter", "is_reserved": 0, "lon": -77.03219716666666}, {"fusion_lat": 0.0, "name": "e7ed0bb810cd6f0106ce9858881168fb", "is_disabled": 0, "rental_uris": {"android": "https://dc.lft.to/lastmile_qr_scan", "ios": "https://dc.lft.to/lastmile_qr_scan"}, "fusion_lon": 0.0, "lat": 38.90271633333333, "bike_id": "e7ed0bb810cd6f0106ce9858881168fb", "type": "electric_bike", "is_reserved": 0, "lon": -77.01797383333333}, {"fusion_lat": 0.0, "name": "2ef0f4c27c3a3d4a3f591cedd5f61d53", "is_disabled": 0, "rental_uris": {"android": "https://dc.lft.to/lastmile_qr_scan", "ios": "https://dc.lft.to/lastmile_qr_scan"}, "fusion_lon": 0.0, "lat": 38.93081683333333, "bike_id": "2ef0f4c27c3a3d4a3f591cedd5f61d53", "type": "electric_scooter", "is_reserved": 0, "lon": -77.02002716666667}, {"fusion_lat": 0.0, "name": "7b9bfc7736c26d69f5b9075f50715b5c", "is_disabled": 0, "rental_uris": {"android": "https://dc.lft.to/lastmile_qr_scan", "ios": "https://dc.lft.to/lastmile_qr_scan"}, "fusion_lon": 0.0, "lat": 38.916130833333334, "bike_id": "7b9bfc7736c26d69f5b9075f50715b5c", "type": "electric_scooter", "is_reserved": 0, "lon": -77.02386166666666}, {"fusion_lat": 0.0, "name": "a745727730712e7fca7974aae76f8f3c", "is_disabled": 0, "rental_uris": {"android": "https://dc.lft.to/lastmile_qr_scan", "ios": "https://dc.lft.to/lastmile_qr_scan"}, "fusion_lon": 0.0, "lat": 38.903994, "bike_id": "a745727730712e7fca7974aae76f8f3c", "type": "electric_scooter", "is_reserved": 0, "lon": -77.03838116666667}, {"fusion_lat": 0.0, "name": "dd124727c8017933c9016dfddb0b0533", "is_disabled": 0, "rental_uris": {"android": "https://dc.lft.to/lastmile_qr_scan", "ios": "https://dc.lft.to/lastmile_qr_scan"}, "fusion_lon": 0.0, "lat": 38.93829733333333, "bike_id": "dd124727c8017933c9016dfddb0b0533", "type": "electric_scooter", "is_reserved": 0, "lon": -76.99188916666667}, {"fusion_lat": 0.0, "name": "45771aa83162a79628c57773f57aecee", "is_disabled": 0, "rental_uris": {"android": "https://dc.lft.to/lastmile_qr_scan", "ios": "https://dc.lft.to/lastmile_qr_scan"}, "fusion_lon": 0.0, "lat": 38.9023555, "bike_id": "45771aa83162a79628c57773f57aecee", "type": "electric_scooter", "is_reserved": 0, "lon": -77.0364375}, {"fusion_lat": 0.0, "name": "60c87a4f415f96fe65514d3260711e82", "is_disabled": 0, "rental_uris": {"android": "https://dc.lft.to/lastmile_qr_scan", "ios": "https://dc.lft.to/lastmile_qr_scan"}, "fusion_lon": 0.0, "lat": 38.90238083333333, "bike_id": "60c87a4f415f96fe65514d3260711e82", "type": "electric_scooter", "is_reserved": 0, "lon": -77.0435055}, {"fusion_lat": 0.0, "name": "b74ccd3b454396a4fa1edbb72d3eb505", "is_disabled": 0, "rental_uris": {"android": "https://dc.lft.to/lastmile_qr_scan", "ios": "https://dc.lft.to/lastmile_qr_scan"}, "fusion_lon": 0.0, "lat": 38.9110365, "bike_id": "b74ccd3b454396a4fa1edbb72d3eb505", "type": "electric_scooter", "is_reserved": 0, "lon": -77.07351}, {"fusion_lat": 0.0, "name": "a80d267c13a4d87cbd5bc4b232dfc3bf", "is_disabled": 0, "rental_uris": {"android": "https://dc.lft.to/lastmile_qr_scan", "ios": "https://dc.lft.to/lastmile_qr_scan"}, "fusion_lon": 0.0, "lat": 38.93255466666667, "bike_id": "a80d267c13a4d87cbd5bc4b232dfc3bf", "type": "electric_scooter", "is_reserved": 0, "lon": -77.0326095}, {"fusion_lat": 0.0, "name": "ef2ccd0dde160fcbf73f8273e50dee40", "is_disabled": 0, "rental_uris": {"android": "https://dc.lft.to/lastmile_qr_scan", "ios": "https://dc.lft.to/lastmile_qr_scan"}, "fusion_lon": 0.0, "lat": 38.920372666666665, "bike_id": "ef2ccd0dde160fcbf73f8273e50dee40", "type": "electric_scooter", "is_reserved": 0, "lon": -77.02589233333333}, {"fusion_lat": 0.0, "name": "297baaea03948eb23d2b89ae5c96b16b", "is_disabled": 0, "rental_uris": {"android": "https://dc.lft.to/lastmile_qr_scan", "ios": "https://dc.lft.to/lastmile_qr_scan"}, "fusion_lon": 0.0, "lat": 38.920950500000004, "bike_id": "297baaea03948eb23d2b89ae5c96b16b", "type": "electric_bike", "is_reserved": 0, "lon": -76.994779}, {"fusion_lat": 0.0, "name": "c1c76e60ad7c5998313996dd573a7c1d", "is_disabled": 0, "rental_uris": {"android": "https://dc.lft.to/lastmile_qr_scan", "ios": "https://dc.lft.to/lastmile_qr_scan"}, "fusion_lon": 0.0, "lat": 38.908134, "bike_id": "c1c76e60ad7c5998313996dd573a7c1d", "type": "electric_scooter", "is_reserved": 0, "lon": -77.03473633333333}, {"fusion_lat": 0.0, "name": "3c5bbc917ad31d194eb3f8dac12b6dcd", "is_disabled": 0, "rental_uris": {"android": "https://dc.lft.to/lastmile_qr_scan", "ios": "https://dc.lft.to/lastmile_qr_scan"}, "fusion_lon": 0.0, "lat": 38.87727916666667, "bike_id": "3c5bbc917ad31d194eb3f8dac12b6dcd", "type": "electric_scooter", "is_reserved": 0, "lon": -77.00589483333333}, {"fusion_lat": 0.0, "name": "e2d8c7f9d68cfe6369b30e21ffa1b3b7", "is_disabled": 0, "rental_uris": {"android": "https://dc.lft.to/lastmile_qr_scan", "ios": "https://dc.lft.to/lastmile_qr_scan"}, "fusion_lon": 0.0, "lat": 38.893434666666664, "bike_id": "e2d8c7f9d68cfe6369b30e21ffa1b3b7", "type": "electric_scooter", "is_reserved": 0, "lon": -76.99160083333334}, {"fusion_lat": 0.0, "name": "e046837644c1f205c6d96c3cf9c22d05", "is_disabled": 0, "rental_uris": {"android": "https://dc.lft.to/lastmile_qr_scan", "ios": "https://dc.lft.to/lastmile_qr_scan"}, "fusion_lon": 0.0, "lat": 38.9090565, "bike_id": "e046837644c1f205c6d96c3cf9c22d05", "type": "electric_scooter", "is_reserved": 0, "lon": -77.0421245}, {"fusion_lat": 0.0, "name": "0d037c67632d3f82aff0a8acdb800e0c", "is_disabled": 0, "rental_uris": {"android": "https://dc.lft.to/lastmile_qr_scan", "ios": "https://dc.lft.to/lastmile_qr_scan"}, "fusion_lon": 0.0, "lat": 38.91919133333333, "bike_id": "0d037c67632d3f82aff0a8acdb800e0c", "type": "electric_scooter", "is_reserved": 0, "lon": -77.031815}, {"fusion_lat": 0.0, "name": "f543023a30c4d259e82eff289e70ede8", "is_disabled": 0, "rental_uris": {"android": "https://dc.lft.to/lastmile_qr_scan", "ios": "https://dc.lft.to/lastmile_qr_scan"}, "fusion_lon": 0.0, "lat": 38.8922445, "bike_id": "f543023a30c4d259e82eff289e70ede8", "type": "electric_scooter", "is_reserved": 0, "lon": -77.02781033333333}, {"fusion_lat": 0.0, "name": "8d86b24fbc63ebc5a27a7bd1e310cf1a", "is_disabled": 0, "rental_uris": {"android": "https://dc.lft.to/lastmile_qr_scan", "ios": "https://dc.lft.to/lastmile_qr_scan"}, "fusion_lon": 0.0, "lat": 38.8866655, "bike_id": "8d86b24fbc63ebc5a27a7bd1e310cf1a", "type": "electric_scooter", "is_reserved": 0, "lon": -76.98256833333333}, {"fusion_lat": 0.0, "name": "6b5fe8f6058b8f7ce5a6fb6cec961cc6", "is_disabled": 0, "rental_uris": {"android": "https://dc.lft.to/lastmile_qr_scan", "ios": "https://dc.lft.to/lastmile_qr_scan"}, "fusion_lon": 0.0, "lat": 38.91705833333333, "bike_id": "6b5fe8f6058b8f7ce5a6fb6cec961cc6", "type": "electric_scooter", "is_reserved": 0, "lon": -77.03495183333334}, {"fusion_lat": 0.0, "name": "f23cf6fd14f6d1b47c9be578137292af", "is_disabled": 0, "rental_uris": {"android": "https://dc.lft.to/lastmile_qr_scan", "ios": "https://dc.lft.to/lastmile_qr_scan"}, "fusion_lon": 0.0, "lat": 38.89875283333333, "bike_id": "f23cf6fd14f6d1b47c9be578137292af", "type": "electric_scooter", "is_reserved": 0, "lon": -76.93183866666666}, {"fusion_lat": 0.0, "name": "87be6e1e7b0b2d3b5c89a18ac3365e14", "is_disabled": 0, "rental_uris": {"android": "https://dc.lft.to/lastmile_qr_scan", "ios": "https://dc.lft.to/lastmile_qr_scan"}, "fusion_lon": 0.0, "lat": 38.90381283333333, "bike_id": "87be6e1e7b0b2d3b5c89a18ac3365e14", "type": "electric_scooter", "is_reserved": 0, "lon": -77.06865866666666}, {"fusion_lat": 0.0, "name": "659afd797c22600272570a0ccfb6eb6e", "is_disabled": 0, "rental_uris": {"android": "https://dc.lft.to/lastmile_qr_scan", "ios": "https://dc.lft.to/lastmile_qr_scan"}, "fusion_lon": 0.0, "lat": 38.89519516666667, "bike_id": "659afd797c22600272570a0ccfb6eb6e", "type": "electric_scooter", "is_reserved": 0, "lon": -76.9881795}, {"fusion_lat": 0.0, "name": "3660835a22f1933a348d07573816fa91", "is_disabled": 0, "rental_uris": {"android": "https://dc.lft.to/lastmile_qr_scan", "ios": "https://dc.lft.to/lastmile_qr_scan"}, "fusion_lon": 0.0, "lat": 38.9063565, "bike_id": "3660835a22f1933a348d07573816fa91", "type": "electric_scooter", "is_reserved": 0, "lon": -77.05314433333334}, {"fusion_lat": 0.0, "name": "d43fc53149bd883a95a5446ef2f747c9", "is_disabled": 0, "rental_uris": {"android": "https://dc.lft.to/lastmile_qr_scan", "ios": "https://dc.lft.to/lastmile_qr_scan"}, "fusion_lon": 0.0, "lat": 38.928505666666666, "bike_id": "d43fc53149bd883a95a5446ef2f747c9", "type": "electric_scooter", "is_reserved": 0, "lon": -77.0542665}, {"fusion_lat": 0.0, "name": "7bb203a130a75454218e193d99b2025a", "is_disabled": 0, "rental_uris": {"android": "https://dc.lft.to/lastmile_qr_scan", "ios": "https://dc.lft.to/lastmile_qr_scan"}, "fusion_lon": 0.0, "lat": 38.933626333333336, "bike_id": "7bb203a130a75454218e193d99b2025a", "type": "electric_scooter", "is_reserved": 0, "lon": -77.057247}, {"fusion_lat": 0.0, "name": "cdb30b5514005ed6a71a8c9e3d6d8076", "is_disabled": 0, "rental_uris": {"android": "https://dc.lft.to/lastmile_qr_scan", "ios": "https://dc.lft.to/lastmile_qr_scan"}, "fusion_lon": 0.0, "lat": 38.9005575, "bike_id": "cdb30b5514005ed6a71a8c9e3d6d8076", "type": "electric_scooter", "is_reserved": 0, "lon": -77.038411}, {"fusion_lat": 0.0, "name": "b7bf3ef4fc4b6fe09f770220c23185c2", "is_disabled": 0, "rental_uris": {"android": "https://dc.lft.to/lastmile_qr_scan", "ios": "https://dc.lft.to/lastmile_qr_scan"}, "fusion_lon": 0.0, "lat": 39.052544166666664, "bike_id": "b7bf3ef4fc4b6fe09f770220c23185c2", "type": "electric_bike", "is_reserved": 0, "lon": -77.08066583333333}, {"fusion_lat": 0.0, "name": "de7c139a4242c950638bef7f15ef5ec7", "is_disabled": 0, "rental_uris": {"android": "https://dc.lft.to/lastmile_qr_scan", "ios": "https://dc.lft.to/lastmile_qr_scan"}, "fusion_lon": 0.0, "lat": 38.877272, "bike_id": "de7c139a4242c950638bef7f15ef5ec7", "type": "electric_scooter", "is_reserved": 0, "lon": -77.01762116666667}, {"fusion_lat": 0.0, "name": "75f7b1efe5077ab5f02b055a578bfaa5", "is_disabled": 0, "rental_uris": {"android": "https://dc.lft.to/lastmile_qr_scan", "ios": "https://dc.lft.to/lastmile_qr_scan"}, "fusion_lon": 0.0, "lat": 38.892234, "bike_id": "75f7b1efe5077ab5f02b055a578bfaa5", "type": "electric_scooter", "is_reserved": 0, "lon": -77.02781783333333}, {"fusion_lat": 0.0, "name": "9aaf43837e353d60b69e1aeed17616ae", "is_disabled": 0, "rental_uris": {"android": "https://dc.lft.to/lastmile_qr_scan", "ios": "https://dc.lft.to/lastmile_qr_scan"}, "fusion_lon": 0.0, "lat": 38.8475525, "bike_id": "9aaf43837e353d60b69e1aeed17616ae", "type": "electric_scooter", "is_reserved": 0, "lon": -76.99498933333334}, {"fusion_lat": 0.0, "name": "da1fc64802541c100fdcf07ed2ae3da7", "is_disabled": 0, "rental_uris": {"android": "https://dc.lft.to/lastmile_qr_scan", "ios": "https://dc.lft.to/lastmile_qr_scan"}, "fusion_lon": 0.0, "lat": 38.87471166666667, "bike_id": "da1fc64802541c100fdcf07ed2ae3da7", "type": "electric_scooter", "is_reserved": 0, "lon": -77.00554533333333}, {"fusion_lat": 0.0, "name": "1a8fe7ff7f693a1f3b6da07f344352ea", "is_disabled": 0, "rental_uris": {"android": "https://dc.lft.to/lastmile_qr_scan", "ios": "https://dc.lft.to/lastmile_qr_scan"}, "fusion_lon": 0.0, "lat": 38.9338155, "bike_id": "1a8fe7ff7f693a1f3b6da07f344352ea", "type": "electric_scooter", "is_reserved": 0, "lon": -77.0388885}, {"fusion_lat": 0.0, "name": "4fe7a4e92f55ad7445674ce77b121299", "is_disabled": 0, "rental_uris": {"android": "https://dc.lft.to/lastmile_qr_scan", "ios": "https://dc.lft.to/lastmile_qr_scan"}, "fusion_lon": 0.0, "lat": 38.91292, "bike_id": "4fe7a4e92f55ad7445674ce77b121299", "type": "electric_scooter", "is_reserved": 0, "lon": -77.04516016666666}, {"fusion_lat": 0.0, "name": "ced246394306814ccc2d17ff003b3d87", "is_disabled": 0, "rental_uris": {"android": "https://dc.lft.to/lastmile_qr_scan", "ios": "https://dc.lft.to/lastmile_qr_scan"}, "fusion_lon": 0.0, "lat": 38.926376166666664, "bike_id": "ced246394306814ccc2d17ff003b3d87", "type": "electric_scooter", "is_reserved": 0, "lon": -77.03498}, {"fusion_lat": 0.0, "name": "e3e86ef04010f3cd6cdde6b9c777ab8c", "is_disabled": 0, "rental_uris": {"android": "https://dc.lft.to/lastmile_qr_scan", "ios": "https://dc.lft.to/lastmile_qr_scan"}, "fusion_lon": 0.0, "lat": 38.897314, "bike_id": "e3e86ef04010f3cd6cdde6b9c777ab8c", "type": "electric_scooter", "is_reserved": 0, "lon": -77.02714466666667}, {"fusion_lat": 0.0, "name": "48175092d1939b9a27a79680dd8e1f41", "is_disabled": 0, "rental_uris": {"android": "https://dc.lft.to/lastmile_qr_scan", "ios": "https://dc.lft.to/lastmile_qr_scan"}, "fusion_lon": 0.0, "lat": 38.924578833333335, "bike_id": "48175092d1939b9a27a79680dd8e1f41", "type": "electric_scooter", "is_reserved": 0, "lon": -76.99909616666666}, {"fusion_lat": 0.0, "name": "8abad3d58571d1de3f01ed3c8af5de9b", "is_disabled": 0, "rental_uris": {"android": "https://dc.lft.to/lastmile_qr_scan", "ios": "https://dc.lft.to/lastmile_qr_scan"}, "fusion_lon": 0.0, "lat": 38.90833383333333, "bike_id": "8abad3d58571d1de3f01ed3c8af5de9b", "type": "electric_scooter", "is_reserved": 0, "lon": -77.03636266666666}, {"fusion_lat": 0.0, "name": "041b34f7e79d838f18ca0fe26095c8b9", "is_disabled": 0, "rental_uris": {"android": "https://dc.lft.to/lastmile_qr_scan", "ios": "https://dc.lft.to/lastmile_qr_scan"}, "fusion_lon": 0.0, "lat": 38.909662833333336, "bike_id": "041b34f7e79d838f18ca0fe26095c8b9", "type": "electric_scooter", "is_reserved": 0, "lon": -77.03240383333333}, {"fusion_lat": 0.0, "name": "e60844ac4dcfdf67cfeb6853d73f33da", "is_disabled": 0, "rental_uris": {"android": "https://dc.lft.to/lastmile_qr_scan", "ios": "https://dc.lft.to/lastmile_qr_scan"}, "fusion_lon": 0.0, "lat": 38.89220233333333, "bike_id": "e60844ac4dcfdf67cfeb6853d73f33da", "type": "electric_scooter", "is_reserved": 0, "lon": -77.0236955}, {"fusion_lat": 0.0, "name": "c7282d4ed93b7f0355f9b26020ce062f", "is_disabled": 0, "rental_uris": {"android": "https://dc.lft.to/lastmile_qr_scan", "ios": "https://dc.lft.to/lastmile_qr_scan"}, "fusion_lon": 0.0, "lat": 38.965906, "bike_id": "c7282d4ed93b7f0355f9b26020ce062f", "type": "electric_scooter", "is_reserved": 0, "lon": -77.01592416666666}, {"fusion_lat": 0.0, "name": "d5a83584d33abe3a702f25c08eaaff47", "is_disabled": 0, "rental_uris": {"android": "https://dc.lft.to/lastmile_qr_scan", "ios": "https://dc.lft.to/lastmile_qr_scan"}, "fusion_lon": 0.0, "lat": 38.916926333333336, "bike_id": "d5a83584d33abe3a702f25c08eaaff47", "type": "electric_scooter", "is_reserved": 0, "lon": -77.03761833333333}, {"fusion_lat": 0.0, "name": "126db94fb45c7c55bf09d04c83390cd3", "is_disabled": 0, "rental_uris": {"android": "https://dc.lft.to/lastmile_qr_scan", "ios": "https://dc.lft.to/lastmile_qr_scan"}, "fusion_lon": 0.0, "lat": 38.95639366666666, "bike_id": "126db94fb45c7c55bf09d04c83390cd3", "type": "electric_bike", "is_reserved": 0, "lon": -76.93867483333334}, {"fusion_lat": 0.0, "name": "28a6b4eddacf9d0e37ef3467d14bfbbe", "is_disabled": 0, "rental_uris": {"android": "https://dc.lft.to/lastmile_qr_scan", "ios": "https://dc.lft.to/lastmile_qr_scan"}, "fusion_lon": 0.0, "lat": 38.895269166666665, "bike_id": "28a6b4eddacf9d0e37ef3467d14bfbbe", "type": "electric_scooter", "is_reserved": 0, "lon": -76.93410283333333}, {"fusion_lat": 0.0, "name": "ca1a3f96849458c4dfe93646fefc4352", "is_disabled": 0, "rental_uris": {"android": "https://dc.lft.to/lastmile_qr_scan", "ios": "https://dc.lft.to/lastmile_qr_scan"}, "fusion_lon": 0.0, "lat": 38.90717266666667, "bike_id": "ca1a3f96849458c4dfe93646fefc4352", "type": "electric_scooter", "is_reserved": 0, "lon": -77.040709}, {"fusion_lat": 0.0, "name": "ff66e0e5a3cbbc699ac379ed016dd384", "is_disabled": 0, "rental_uris": {"android": "https://dc.lft.to/lastmile_qr_scan", "ios": "https://dc.lft.to/lastmile_qr_scan"}, "fusion_lon": 0.0, "lat": 38.9096065, "bike_id": "ff66e0e5a3cbbc699ac379ed016dd384", "type": "electric_scooter", "is_reserved": 0, "lon": -77.02297733333333}, {"fusion_lat": 0.0, "name": "f9b234088f2aba585fe9dd753323a24c", "is_disabled": 0, "rental_uris": {"android": "https://dc.lft.to/lastmile_qr_scan", "ios": "https://dc.lft.to/lastmile_qr_scan"}, "fusion_lon": 0.0, "lat": 38.91268183333333, "bike_id": "f9b234088f2aba585fe9dd753323a24c", "type": "electric_scooter", "is_reserved": 0, "lon": -77.01931266666666}, {"fusion_lat": 0.0, "name": "2882c165a1db208ceeced4022ae10e05", "is_disabled": 0, "rental_uris": {"android": "https://dc.lft.to/lastmile_qr_scan", "ios": "https://dc.lft.to/lastmile_qr_scan"}, "fusion_lon": 0.0, "lat": 38.8874595, "bike_id": "2882c165a1db208ceeced4022ae10e05", "type": "electric_scooter", "is_reserved": 0, "lon": -77.01785083333333}, {"fusion_lat": 0.0, "name": "9eebcd1213d2a6f95490c00b1d1679df", "is_disabled": 0, "rental_uris": {"android": "https://dc.lft.to/lastmile_qr_scan", "ios": "https://dc.lft.to/lastmile_qr_scan"}, "fusion_lon": 0.0, "lat": 38.893029, "bike_id": "9eebcd1213d2a6f95490c00b1d1679df", "type": "electric_scooter", "is_reserved": 0, "lon": -77.02603333333333}, {"fusion_lat": 0.0, "name": "5af9a9115117a515b2cfa57e37597f3f", "is_disabled": 0, "rental_uris": {"android": "https://dc.lft.to/lastmile_qr_scan", "ios": "https://dc.lft.to/lastmile_qr_scan"}, "fusion_lon": 0.0, "lat": 38.90096066666667, "bike_id": "5af9a9115117a515b2cfa57e37597f3f", "type": "electric_scooter", "is_reserved": 0, "lon": -77.05900333333334}, {"fusion_lat": 0.0, "name": "18fa6f190ad721a5e31dec773ee272ad", "is_disabled": 0, "rental_uris": {"android": "https://dc.lft.to/lastmile_qr_scan", "ios": "https://dc.lft.to/lastmile_qr_scan"}, "fusion_lon": 0.0, "lat": 38.899047833333334, "bike_id": "18fa6f190ad721a5e31dec773ee272ad", "type": "electric_scooter", "is_reserved": 0, "lon": -76.99391533333333}, {"fusion_lat": 0.0, "name": "fa2f939a7418a6ef80516763afc65fd5", "is_disabled": 0, "rental_uris": {"android": "https://dc.lft.to/lastmile_qr_scan", "ios": "https://dc.lft.to/lastmile_qr_scan"}, "fusion_lon": 0.0, "lat": 38.90060833333333, "bike_id": "fa2f939a7418a6ef80516763afc65fd5", "type": "electric_scooter", "is_reserved": 0, "lon": -77.03967216666666}, {"fusion_lat": 0.0, "name": "ec27ddf88ae428eeda5eac4a9542a98f", "is_disabled": 0, "rental_uris": {"android": "https://dc.lft.to/lastmile_qr_scan", "ios": "https://dc.lft.to/lastmile_qr_scan"}, "fusion_lon": 0.0, "lat": 38.88717416666667, "bike_id": "ec27ddf88ae428eeda5eac4a9542a98f", "type": "electric_scooter", "is_reserved": 0, "lon": -77.021733}, {"fusion_lat": 0.0, "name": "8de68786437a7e54c0d6f128fde29823", "is_disabled": 0, "rental_uris": {"android": "https://dc.lft.to/lastmile_qr_scan", "ios": "https://dc.lft.to/lastmile_qr_scan"}, "fusion_lon": 0.0, "lat": 38.93451666666667, "bike_id": "8de68786437a7e54c0d6f128fde29823", "type": "electric_scooter", "is_reserved": 0, "lon": -77.03863}, {"fusion_lat": 0.0, "name": "893722c95326864ce96f6854d3a474ff", "is_disabled": 0, "rental_uris": {"android": "https://dc.lft.to/lastmile_qr_scan", "ios": "https://dc.lft.to/lastmile_qr_scan"}, "fusion_lon": 0.0, "lat": 38.92816416666667, "bike_id": "893722c95326864ce96f6854d3a474ff", "type": "electric_scooter", "is_reserved": 0, "lon": -77.02329983333334}, {"fusion_lat": 0.0, "name": "f1a61dadf6f09807500260984b1a4a33", "is_disabled": 0, "rental_uris": {"android": "https://dc.lft.to/lastmile_qr_scan", "ios": "https://dc.lft.to/lastmile_qr_scan"}, "fusion_lon": 0.0, "lat": 38.85870883333333, "bike_id": "f1a61dadf6f09807500260984b1a4a33", "type": "electric_bike", "is_reserved": 0, "lon": -77.09551333333333}, {"fusion_lat": 0.0, "name": "4deedaf3cc48131cb5753873bac91332", "is_disabled": 0, "rental_uris": {"android": "https://dc.lft.to/lastmile_qr_scan", "ios": "https://dc.lft.to/lastmile_qr_scan"}, "fusion_lon": 0.0, "lat": 38.892861833333335, "bike_id": "4deedaf3cc48131cb5753873bac91332", "type": "electric_scooter", "is_reserved": 0, "lon": -77.03202683333333}, {"fusion_lat": 0.0, "name": "0aed843f66a396056854d9b4b191ab52", "is_disabled": 0, "rental_uris": {"android": "https://dc.lft.to/lastmile_qr_scan", "ios": "https://dc.lft.to/lastmile_qr_scan"}, "fusion_lon": 0.0, "lat": 38.91662433333333, "bike_id": "0aed843f66a396056854d9b4b191ab52", "type": "electric_scooter", "is_reserved": 0, "lon": -77.03855733333333}, {"fusion_lat": 0.0, "name": "14ca98f886bd94a8fb45151319b91e99", "is_disabled": 0, "rental_uris": {"android": "https://dc.lft.to/lastmile_qr_scan", "ios": "https://dc.lft.to/lastmile_qr_scan"}, "fusion_lon": 0.0, "lat": 38.921376, "bike_id": "14ca98f886bd94a8fb45151319b91e99", "type": "electric_scooter", "is_reserved": 0, "lon": -77.01802666666667}, {"fusion_lat": 0.0, "name": "25588131e0c6365d5699bbf255433d6c", "is_disabled": 0, "rental_uris": {"android": "https://dc.lft.to/lastmile_qr_scan", "ios": "https://dc.lft.to/lastmile_qr_scan"}, "fusion_lon": 0.0, "lat": 38.906826, "bike_id": "25588131e0c6365d5699bbf255433d6c", "type": "electric_bike", "is_reserved": 0, "lon": -77.02691116666666}, {"fusion_lat": 0.0, "name": "b0ed91566a90df75ac9c831d6cee32fe", "is_disabled": 0, "rental_uris": {"android": "https://dc.lft.to/lastmile_qr_scan", "ios": "https://dc.lft.to/lastmile_qr_scan"}, "fusion_lon": 0.0, "lat": 38.92810566666667, "bike_id": "b0ed91566a90df75ac9c831d6cee32fe", "type": "electric_scooter", "is_reserved": 0, "lon": -77.0433735}, {"fusion_lat": 0.0, "name": "7002e5ba5eb9852ff73e9a6bfc997bc6", "is_disabled": 0, "rental_uris": {"android": "https://dc.lft.to/lastmile_qr_scan", "ios": "https://dc.lft.to/lastmile_qr_scan"}, "fusion_lon": 0.0, "lat": 38.90296816666667, "bike_id": "7002e5ba5eb9852ff73e9a6bfc997bc6", "type": "electric_scooter", "is_reserved": 0, "lon": -77.04951183333333}, {"fusion_lat": 0.0, "name": "d5a62dc8392faa9ee36e3d2e86755a7e", "is_disabled": 0, "rental_uris": {"android": "https://dc.lft.to/lastmile_qr_scan", "ios": "https://dc.lft.to/lastmile_qr_scan"}, "fusion_lon": 0.0, "lat": 38.890437, "bike_id": "d5a62dc8392faa9ee36e3d2e86755a7e", "type": "electric_scooter", "is_reserved": 0, "lon": -77.02573966666667}, {"fusion_lat": 0.0, "name": "54677c29fe80613830e0d20052e758a2", "is_disabled": 0, "rental_uris": {"android": "https://dc.lft.to/lastmile_qr_scan", "ios": "https://dc.lft.to/lastmile_qr_scan"}, "fusion_lon": 0.0, "lat": 38.909721, "bike_id": "54677c29fe80613830e0d20052e758a2", "type": "electric_scooter", "is_reserved": 0, "lon": -77.0344455}, {"fusion_lat": 0.0, "name": "71d480ba786e6dcdaeb1b932726e9c85", "is_disabled": 0, "rental_uris": {"android": "https://dc.lft.to/lastmile_qr_scan", "ios": "https://dc.lft.to/lastmile_qr_scan"}, "fusion_lon": 0.0, "lat": 38.8979975, "bike_id": "71d480ba786e6dcdaeb1b932726e9c85", "type": "electric_scooter", "is_reserved": 0, "lon": -76.98458416666666}, {"fusion_lat": 0.0, "name": "8592ea7b4d89b94a90ff5b1b57b5d82f", "is_disabled": 0, "rental_uris": {"android": "https://dc.lft.to/lastmile_qr_scan", "ios": "https://dc.lft.to/lastmile_qr_scan"}, "fusion_lon": 0.0, "lat": 38.905748333333335, "bike_id": "8592ea7b4d89b94a90ff5b1b57b5d82f", "type": "electric_scooter", "is_reserved": 0, "lon": -77.04064816666667}, {"fusion_lat": 0.0, "name": "58f79178e37cfbe920567098a57e1531", "is_disabled": 0, "rental_uris": {"android": "https://dc.lft.to/lastmile_qr_scan", "ios": "https://dc.lft.to/lastmile_qr_scan"}, "fusion_lon": 0.0, "lat": 38.8781175, "bike_id": "58f79178e37cfbe920567098a57e1531", "type": "electric_scooter", "is_reserved": 0, "lon": -77.01521683333333}, {"fusion_lat": 0.0, "name": "c88246099504a443361935c564f29f0c", "is_disabled": 0, "rental_uris": {"android": "https://dc.lft.to/lastmile_qr_scan", "ios": "https://dc.lft.to/lastmile_qr_scan"}, "fusion_lon": 0.0, "lat": 38.914371333333335, "bike_id": "c88246099504a443361935c564f29f0c", "type": "electric_scooter", "is_reserved": 0, "lon": -77.01222833333334}, {"fusion_lat": 0.0, "name": "50d3cdb0e6cac7d06c3c93c5d66b3b74", "is_disabled": 0, "rental_uris": {"android": "https://dc.lft.to/lastmile_qr_scan", "ios": "https://dc.lft.to/lastmile_qr_scan"}, "fusion_lon": 0.0, "lat": 38.847567833333336, "bike_id": "50d3cdb0e6cac7d06c3c93c5d66b3b74", "type": "electric_scooter", "is_reserved": 0, "lon": -76.99502516666666}, {"fusion_lat": 0.0, "name": "b4d403e411ef91941dcafb5ab8beb8c4", "is_disabled": 0, "rental_uris": {"android": "https://dc.lft.to/lastmile_qr_scan", "ios": "https://dc.lft.to/lastmile_qr_scan"}, "fusion_lon": 0.0, "lat": 38.875063833333336, "bike_id": "b4d403e411ef91941dcafb5ab8beb8c4", "type": "electric_scooter", "is_reserved": 0, "lon": -77.00014083333333}, {"fusion_lat": 0.0, "name": "61c9f49e01b80c945a9f11c75ad92ddc", "is_disabled": 0, "rental_uris": {"android": "https://dc.lft.to/lastmile_qr_scan", "ios": "https://dc.lft.to/lastmile_qr_scan"}, "fusion_lon": 0.0, "lat": 38.914786666666664, "bike_id": "61c9f49e01b80c945a9f11c75ad92ddc", "type": "electric_scooter", "is_reserved": 0, "lon": -77.02181616666667}, {"fusion_lat": 0.0, "name": "99f37da393c0e3c51cf9e1da14b84b1b", "is_disabled": 0, "rental_uris": {"android": "https://dc.lft.to/lastmile_qr_scan", "ios": "https://dc.lft.to/lastmile_qr_scan"}, "fusion_lon": 0.0, "lat": 38.916021, "bike_id": "99f37da393c0e3c51cf9e1da14b84b1b", "type": "electric_scooter", "is_reserved": 0, "lon": -76.99359783333334}, {"fusion_lat": 0.0, "name": "ee9123b3c4d5fef7eb379875268a9420", "is_disabled": 0, "rental_uris": {"android": "https://dc.lft.to/lastmile_qr_scan", "ios": "https://dc.lft.to/lastmile_qr_scan"}, "fusion_lon": 0.0, "lat": 38.91288133333333, "bike_id": "ee9123b3c4d5fef7eb379875268a9420", "type": "electric_scooter", "is_reserved": 0, "lon": -77.0089845}, {"fusion_lat": 0.0, "name": "52c35de39631a9871a9641381ac844cb", "is_disabled": 0, "rental_uris": {"android": "https://dc.lft.to/lastmile_qr_scan", "ios": "https://dc.lft.to/lastmile_qr_scan"}, "fusion_lon": 0.0, "lat": 38.91589716666667, "bike_id": "52c35de39631a9871a9641381ac844cb", "type": "electric_scooter", "is_reserved": 0, "lon": -77.046613}, {"fusion_lat": 0.0, "name": "17305fe0902a1f808a9dad826c7c0d34", "is_disabled": 0, "rental_uris": {"android": "https://dc.lft.to/lastmile_qr_scan", "ios": "https://dc.lft.to/lastmile_qr_scan"}, "fusion_lon": 0.0, "lat": 38.926075833333336, "bike_id": "17305fe0902a1f808a9dad826c7c0d34", "type": "electric_scooter", "is_reserved": 0, "lon": -77.03747633333333}, {"fusion_lat": 0.0, "name": "2ce758b6a864085aa376e7eb785b502f", "is_disabled": 0, "rental_uris": {"android": "https://dc.lft.to/lastmile_qr_scan", "ios": "https://dc.lft.to/lastmile_qr_scan"}, "fusion_lon": 0.0, "lat": 38.89514166666667, "bike_id": "2ce758b6a864085aa376e7eb785b502f", "type": "electric_scooter", "is_reserved": 0, "lon": -77.022009}, {"fusion_lat": 0.0, "name": "09ad78819b9269438781edf7b4be6ff4", "is_disabled": 0, "rental_uris": {"android": "https://dc.lft.to/lastmile_qr_scan", "ios": "https://dc.lft.to/lastmile_qr_scan"}, "fusion_lon": 0.0, "lat": 38.902222, "bike_id": "09ad78819b9269438781edf7b4be6ff4", "type": "electric_scooter", "is_reserved": 0, "lon": -77.01901216666667}, {"fusion_lat": 0.0, "name": "8204b644429fd2c890dd29156dec16ee", "is_disabled": 0, "rental_uris": {"android": "https://dc.lft.to/lastmile_qr_scan", "ios": "https://dc.lft.to/lastmile_qr_scan"}, "fusion_lon": 0.0, "lat": 38.853562833333335, "bike_id": "8204b644429fd2c890dd29156dec16ee", "type": "electric_bike", "is_reserved": 0, "lon": -77.13460516666666}, {"fusion_lat": 0.0, "name": "0a5abf82f59d981c32a17eb50ffa056f", "is_disabled": 0, "rental_uris": {"android": "https://dc.lft.to/lastmile_qr_scan", "ios": "https://dc.lft.to/lastmile_qr_scan"}, "fusion_lon": 0.0, "lat": 38.92551983333333, "bike_id": "0a5abf82f59d981c32a17eb50ffa056f", "type": "electric_scooter", "is_reserved": 0, "lon": -77.03333016666667}, {"fusion_lat": 0.0, "name": "71fab278cb3f382af51f9705271951ef", "is_disabled": 0, "rental_uris": {"android": "https://dc.lft.to/lastmile_qr_scan", "ios": "https://dc.lft.to/lastmile_qr_scan"}, "fusion_lon": 0.0, "lat": 38.91260883333333, "bike_id": "71fab278cb3f382af51f9705271951ef", "type": "electric_scooter", "is_reserved": 0, "lon": -77.0385325}, {"fusion_lat": 0.0, "name": "31b6614e6354dd9ff1eda06ce8fa0768", "is_disabled": 0, "rental_uris": {"android": "https://dc.lft.to/lastmile_qr_scan", "ios": "https://dc.lft.to/lastmile_qr_scan"}, "fusion_lon": 0.0, "lat": 38.892239000000004, "bike_id": "31b6614e6354dd9ff1eda06ce8fa0768", "type": "electric_scooter", "is_reserved": 0, "lon": -77.041207}, {"fusion_lat": 0.0, "name": "cced7c3ab94fb93de7c1a41c9788e055", "is_disabled": 0, "rental_uris": {"android": "https://dc.lft.to/lastmile_qr_scan", "ios": "https://dc.lft.to/lastmile_qr_scan"}, "fusion_lon": 0.0, "lat": 38.8872645, "bike_id": "cced7c3ab94fb93de7c1a41c9788e055", "type": "electric_scooter", "is_reserved": 0, "lon": -77.0258405}, {"fusion_lat": 0.0, "name": "c5cddb2ae25c8192d94a4219f27cb849", "is_disabled": 0, "rental_uris": {"android": "https://dc.lft.to/lastmile_qr_scan", "ios": "https://dc.lft.to/lastmile_qr_scan"}, "fusion_lon": 0.0, "lat": 38.853627, "bike_id": "c5cddb2ae25c8192d94a4219f27cb849", "type": "electric_bike", "is_reserved": 0, "lon": -77.1150095}, {"fusion_lat": 0.0, "name": "09feabfe45177bca7c9a8715b6bbac2d", "is_disabled": 0, "rental_uris": {"android": "https://dc.lft.to/lastmile_qr_scan", "ios": "https://dc.lft.to/lastmile_qr_scan"}, "fusion_lon": 0.0, "lat": 38.938630333333336, "bike_id": "09feabfe45177bca7c9a8715b6bbac2d", "type": "electric_scooter", "is_reserved": 0, "lon": -77.03204966666667}, {"fusion_lat": 0.0, "name": "f31b1a4bfd0e87b0e034a37b71e6323a", "is_disabled": 0, "rental_uris": {"android": "https://dc.lft.to/lastmile_qr_scan", "ios": "https://dc.lft.to/lastmile_qr_scan"}, "fusion_lon": 0.0, "lat": 38.873848333333335, "bike_id": "f31b1a4bfd0e87b0e034a37b71e6323a", "type": "electric_scooter", "is_reserved": 0, "lon": -77.00047183333334}, {"fusion_lat": 0.0, "name": "6e74261da4736d8af44572e8197bbe9d", "is_disabled": 0, "rental_uris": {"android": "https://dc.lft.to/lastmile_qr_scan", "ios": "https://dc.lft.to/lastmile_qr_scan"}, "fusion_lon": 0.0, "lat": 38.89774366666666, "bike_id": "6e74261da4736d8af44572e8197bbe9d", "type": "electric_scooter", "is_reserved": 0, "lon": -76.98460083333333}, {"fusion_lat": 0.0, "name": "54e2c8a25219b86b1cbe5720a5b00cf9", "is_disabled": 0, "rental_uris": {"android": "https://dc.lft.to/lastmile_qr_scan", "ios": "https://dc.lft.to/lastmile_qr_scan"}, "fusion_lon": 0.0, "lat": 38.913730666666666, "bike_id": "54e2c8a25219b86b1cbe5720a5b00cf9", "type": "electric_scooter", "is_reserved": 0, "lon": -77.01995033333333}, {"fusion_lat": 0.0, "name": "d05a2b60b39570323869931bf17807c2", "is_disabled": 0, "rental_uris": {"android": "https://dc.lft.to/lastmile_qr_scan", "ios": "https://dc.lft.to/lastmile_qr_scan"}, "fusion_lon": 0.0, "lat": 38.8784725, "bike_id": "d05a2b60b39570323869931bf17807c2", "type": "electric_scooter", "is_reserved": 0, "lon": -76.99034216666666}, {"fusion_lat": 0.0, "name": "f5e97e60f376c112be4511d25f860c7f", "is_disabled": 0, "rental_uris": {"android": "https://dc.lft.to/lastmile_qr_scan", "ios": "https://dc.lft.to/lastmile_qr_scan"}, "fusion_lon": 0.0, "lat": 38.92566583333333, "bike_id": "f5e97e60f376c112be4511d25f860c7f", "type": "electric_scooter", "is_reserved": 0, "lon": -77.0228135}, {"fusion_lat": 0.0, "name": "82934907b4d6a97492d834bc10b128d7", "is_disabled": 0, "rental_uris": {"android": "https://dc.lft.to/lastmile_qr_scan", "ios": "https://dc.lft.to/lastmile_qr_scan"}, "fusion_lon": 0.0, "lat": 38.93607266666667, "bike_id": "82934907b4d6a97492d834bc10b128d7", "type": "electric_scooter", "is_reserved": 0, "lon": -77.058612}, {"fusion_lat": 0.0, "name": "d4148dc9473e4dd519a12d7fda0c023c", "is_disabled": 0, "rental_uris": {"android": "https://dc.lft.to/lastmile_qr_scan", "ios": "https://dc.lft.to/lastmile_qr_scan"}, "fusion_lon": 0.0, "lat": 39.03422233333333, "bike_id": "d4148dc9473e4dd519a12d7fda0c023c", "type": "electric_bike", "is_reserved": 0, "lon": -77.04307783333333}, {"fusion_lat": 0.0, "name": "c5a525c042dfe7101690884925d1d775", "is_disabled": 0, "rental_uris": {"android": "https://dc.lft.to/lastmile_qr_scan", "ios": "https://dc.lft.to/lastmile_qr_scan"}, "fusion_lon": 0.0, "lat": 38.914257666666664, "bike_id": "c5a525c042dfe7101690884925d1d775", "type": "electric_scooter", "is_reserved": 0, "lon": -76.98442033333333}, {"fusion_lat": 0.0, "name": "a3c99e4ef90c6bf6f4132d4659361db3", "is_disabled": 0, "rental_uris": {"android": "https://dc.lft.to/lastmile_qr_scan", "ios": "https://dc.lft.to/lastmile_qr_scan"}, "fusion_lon": 0.0, "lat": 38.897606, "bike_id": "a3c99e4ef90c6bf6f4132d4659361db3", "type": "electric_scooter", "is_reserved": 0, "lon": -77.02676733333334}, {"fusion_lat": 0.0, "name": "ad96874471bea65ddd85a91ddf42882c", "is_disabled": 0, "rental_uris": {"android": "https://dc.lft.to/lastmile_qr_scan", "ios": "https://dc.lft.to/lastmile_qr_scan"}, "fusion_lon": 0.0, "lat": 38.93377816666667, "bike_id": "ad96874471bea65ddd85a91ddf42882c", "type": "electric_scooter", "is_reserved": 0, "lon": -77.03246183333333}, {"fusion_lat": 0.0, "name": "d05327de6dd509aa19db26b04f6aa19a", "is_disabled": 0, "rental_uris": {"android": "https://dc.lft.to/lastmile_qr_scan", "ios": "https://dc.lft.to/lastmile_qr_scan"}, "fusion_lon": 0.0, "lat": 38.8829405, "bike_id": "d05327de6dd509aa19db26b04f6aa19a", "type": "electric_scooter", "is_reserved": 0, "lon": -77.017432}, {"fusion_lat": 0.0, "name": "971adb989433c07a950f68233848e1ec", "is_disabled": 0, "rental_uris": {"android": "https://dc.lft.to/lastmile_qr_scan", "ios": "https://dc.lft.to/lastmile_qr_scan"}, "fusion_lon": 0.0, "lat": 38.87748933333334, "bike_id": "971adb989433c07a950f68233848e1ec", "type": "electric_scooter", "is_reserved": 0, "lon": -76.99657733333333}, {"fusion_lat": 0.0, "name": "8ce3ea12fb14b87fc8ae33b235fe2eec", "is_disabled": 0, "rental_uris": {"android": "https://dc.lft.to/lastmile_qr_scan", "ios": "https://dc.lft.to/lastmile_qr_scan"}, "fusion_lon": 0.0, "lat": 38.919165166666666, "bike_id": "8ce3ea12fb14b87fc8ae33b235fe2eec", "type": "electric_scooter", "is_reserved": 0, "lon": -77.02398666666667}, {"fusion_lat": 0.0, "name": "a15477ead536bb237f4dca6a2c28c79d", "is_disabled": 0, "rental_uris": {"android": "https://dc.lft.to/lastmile_qr_scan", "ios": "https://dc.lft.to/lastmile_qr_scan"}, "fusion_lon": 0.0, "lat": 38.871736166666665, "bike_id": "a15477ead536bb237f4dca6a2c28c79d", "type": "electric_scooter", "is_reserved": 0, "lon": -77.00896966666667}, {"fusion_lat": 0.0, "name": "f3b5171726eaaae9dacb84a678b424fe", "is_disabled": 0, "rental_uris": {"android": "https://dc.lft.to/lastmile_qr_scan", "ios": "https://dc.lft.to/lastmile_qr_scan"}, "fusion_lon": 0.0, "lat": 38.918867666666664, "bike_id": "f3b5171726eaaae9dacb84a678b424fe", "type": "electric_scooter", "is_reserved": 0, "lon": -77.03485933333333}, {"fusion_lat": 0.0, "name": "077036cd2b328e1551bce32da7886796", "is_disabled": 0, "rental_uris": {"android": "https://dc.lft.to/lastmile_qr_scan", "ios": "https://dc.lft.to/lastmile_qr_scan"}, "fusion_lon": 0.0, "lat": 38.8948755, "bike_id": "077036cd2b328e1551bce32da7886796", "type": "electric_scooter", "is_reserved": 0, "lon": -77.0110045}, {"fusion_lat": 0.0, "name": "fac3c23daf7a888405e98d86f9b19758", "is_disabled": 0, "rental_uris": {"android": "https://dc.lft.to/lastmile_qr_scan", "ios": "https://dc.lft.to/lastmile_qr_scan"}, "fusion_lon": 0.0, "lat": 38.922113, "bike_id": "fac3c23daf7a888405e98d86f9b19758", "type": "electric_scooter", "is_reserved": 0, "lon": -77.02013966666667}, {"fusion_lat": 0.0, "name": "01fa4f7711fa4d39e265f3826658e926", "is_disabled": 0, "rental_uris": {"android": "https://dc.lft.to/lastmile_qr_scan", "ios": "https://dc.lft.to/lastmile_qr_scan"}, "fusion_lon": 0.0, "lat": 38.89827316666667, "bike_id": "01fa4f7711fa4d39e265f3826658e926", "type": "electric_scooter", "is_reserved": 0, "lon": -77.02973066666667}, {"fusion_lat": 0.0, "name": "4ccdba24475778eafe3d1e52397267ea", "is_disabled": 0, "rental_uris": {"android": "https://dc.lft.to/lastmile_qr_scan", "ios": "https://dc.lft.to/lastmile_qr_scan"}, "fusion_lon": 0.0, "lat": 38.89012866666667, "bike_id": "4ccdba24475778eafe3d1e52397267ea", "type": "electric_scooter", "is_reserved": 0, "lon": -76.93734016666667}, {"fusion_lat": 0.0, "name": "4cecf37fb0f0c2ca0ab6d68a0bd02702", "is_disabled": 0, "rental_uris": {"android": "https://dc.lft.to/lastmile_qr_scan", "ios": "https://dc.lft.to/lastmile_qr_scan"}, "fusion_lon": 0.0, "lat": 38.88722, "bike_id": "4cecf37fb0f0c2ca0ab6d68a0bd02702", "type": "electric_scooter", "is_reserved": 0, "lon": -77.02575366666666}, {"fusion_lat": 0.0, "name": "89b1518a61a39809c0c6fd959371116d", "is_disabled": 0, "rental_uris": {"android": "https://dc.lft.to/lastmile_qr_scan", "ios": "https://dc.lft.to/lastmile_qr_scan"}, "fusion_lon": 0.0, "lat": 38.88731716666667, "bike_id": "89b1518a61a39809c0c6fd959371116d", "type": "electric_scooter", "is_reserved": 0, "lon": -77.01527533333334}, {"fusion_lat": 0.0, "name": "8b3bb0a2f1c462a658eb873c72919ff3", "is_disabled": 0, "rental_uris": {"android": "https://dc.lft.to/lastmile_qr_scan", "ios": "https://dc.lft.to/lastmile_qr_scan"}, "fusion_lon": 0.0, "lat": 38.900578333333335, "bike_id": "8b3bb0a2f1c462a658eb873c72919ff3", "type": "electric_scooter", "is_reserved": 0, "lon": -77.00213683333334}, {"fusion_lat": 0.0, "name": "2d35b61049f3da8086869fa57b5d1cba", "is_disabled": 0, "rental_uris": {"android": "https://dc.lft.to/lastmile_qr_scan", "ios": "https://dc.lft.to/lastmile_qr_scan"}, "fusion_lon": 0.0, "lat": 38.90225083333333, "bike_id": "2d35b61049f3da8086869fa57b5d1cba", "type": "electric_scooter", "is_reserved": 0, "lon": -77.0183525}, {"fusion_lat": 0.0, "name": "d3d139a57d458dac5195e9edd38d319d", "is_disabled": 0, "rental_uris": {"android": "https://dc.lft.to/lastmile_qr_scan", "ios": "https://dc.lft.to/lastmile_qr_scan"}, "fusion_lon": 0.0, "lat": 38.911159833333336, "bike_id": "d3d139a57d458dac5195e9edd38d319d", "type": "electric_scooter", "is_reserved": 0, "lon": -77.01146}, {"fusion_lat": 0.0, "name": "fe587ed832d91b1a75d0876791cba705", "is_disabled": 0, "rental_uris": {"android": "https://dc.lft.to/lastmile_qr_scan", "ios": "https://dc.lft.to/lastmile_qr_scan"}, "fusion_lon": 0.0, "lat": 38.966749166666666, "bike_id": "fe587ed832d91b1a75d0876791cba705", "type": "electric_bike", "is_reserved": 0, "lon": -77.02167516666667}, {"fusion_lat": 0.0, "name": "c3d93b060c8b783324c2fd890c16a943", "is_disabled": 0, "rental_uris": {"android": "https://dc.lft.to/lastmile_qr_scan", "ios": "https://dc.lft.to/lastmile_qr_scan"}, "fusion_lon": 0.0, "lat": 38.926120166666664, "bike_id": "c3d93b060c8b783324c2fd890c16a943", "type": "electric_scooter", "is_reserved": 0, "lon": -77.02160116666667}, {"fusion_lat": 0.0, "name": "b3ac867d8c9dc4c3e4eaf68b198dbd2a", "is_disabled": 0, "rental_uris": {"android": "https://dc.lft.to/lastmile_qr_scan", "ios": "https://dc.lft.to/lastmile_qr_scan"}, "fusion_lon": 0.0, "lat": 38.928729, "bike_id": "b3ac867d8c9dc4c3e4eaf68b198dbd2a", "type": "electric_scooter", "is_reserved": 0, "lon": -77.0272785}, {"fusion_lat": 0.0, "name": "80421eef956ed24b71d346c00bf7c78b", "is_disabled": 0, "rental_uris": {"android": "https://dc.lft.to/lastmile_qr_scan", "ios": "https://dc.lft.to/lastmile_qr_scan"}, "fusion_lon": 0.0, "lat": 38.90456983333333, "bike_id": "80421eef956ed24b71d346c00bf7c78b", "type": "electric_scooter", "is_reserved": 0, "lon": -77.0532625}, {"fusion_lat": 0.0, "name": "93827cc9067988335897f70b723fd8f1", "is_disabled": 0, "rental_uris": {"android": "https://dc.lft.to/lastmile_qr_scan", "ios": "https://dc.lft.to/lastmile_qr_scan"}, "fusion_lon": 0.0, "lat": 38.942726, "bike_id": "93827cc9067988335897f70b723fd8f1", "type": "electric_scooter", "is_reserved": 0, "lon": -77.03256266666666}, {"fusion_lat": 0.0, "name": "cb53d0d987424ee59254f0059ade988b", "is_disabled": 0, "rental_uris": {"android": "https://dc.lft.to/lastmile_qr_scan", "ios": "https://dc.lft.to/lastmile_qr_scan"}, "fusion_lon": 0.0, "lat": 38.9068405, "bike_id": "cb53d0d987424ee59254f0059ade988b", "type": "electric_scooter", "is_reserved": 0, "lon": -77.07211316666667}, {"fusion_lat": 0.0, "name": "1dd1d23e7f560692d1afb4ceda925f7f", "is_disabled": 0, "rental_uris": {"android": "https://dc.lft.to/lastmile_qr_scan", "ios": "https://dc.lft.to/lastmile_qr_scan"}, "fusion_lon": 0.0, "lat": 38.892230166666664, "bike_id": "1dd1d23e7f560692d1afb4ceda925f7f", "type": "electric_scooter", "is_reserved": 0, "lon": -77.04321733333333}, {"fusion_lat": 0.0, "name": "d0113fecdb710d69cb0314d1a3734e07", "is_disabled": 0, "rental_uris": {"android": "https://dc.lft.to/lastmile_qr_scan", "ios": "https://dc.lft.to/lastmile_qr_scan"}, "fusion_lon": 0.0, "lat": 38.902393833333335, "bike_id": "d0113fecdb710d69cb0314d1a3734e07", "type": "electric_scooter", "is_reserved": 0, "lon": -77.04343583333333}, {"fusion_lat": 0.0, "name": "0100ae880c43f0f87d33a9abf5ed72ef", "is_disabled": 0, "rental_uris": {"android": "https://dc.lft.to/lastmile_qr_scan", "ios": "https://dc.lft.to/lastmile_qr_scan"}, "fusion_lon": 0.0, "lat": 38.91268483333333, "bike_id": "0100ae880c43f0f87d33a9abf5ed72ef", "type": "electric_scooter", "is_reserved": 0, "lon": -77.03827283333334}, {"fusion_lat": 0.0, "name": "36a230ee679fb27702e77dd9b5b9c6ff", "is_disabled": 0, "rental_uris": {"android": "https://dc.lft.to/lastmile_qr_scan", "ios": "https://dc.lft.to/lastmile_qr_scan"}, "fusion_lon": 0.0, "lat": 38.83516866666667, "bike_id": "36a230ee679fb27702e77dd9b5b9c6ff", "type": "electric_bike", "is_reserved": 0, "lon": -76.98671966666667}, {"fusion_lat": 0.0, "name": "8fe9b8b04634cd25263349f8d62e49de", "is_disabled": 0, "rental_uris": {"android": "https://dc.lft.to/lastmile_qr_scan", "ios": "https://dc.lft.to/lastmile_qr_scan"}, "fusion_lon": 0.0, "lat": 38.900636166666665, "bike_id": "8fe9b8b04634cd25263349f8d62e49de", "type": "electric_scooter", "is_reserved": 0, "lon": -76.933842}, {"fusion_lat": 0.0, "name": "c688dec2096a3bd0aca88c4c6dffeef0", "is_disabled": 0, "rental_uris": {"android": "https://dc.lft.to/lastmile_qr_scan", "ios": "https://dc.lft.to/lastmile_qr_scan"}, "fusion_lon": 0.0, "lat": 38.91435466666667, "bike_id": "c688dec2096a3bd0aca88c4c6dffeef0", "type": "electric_scooter", "is_reserved": 0, "lon": -77.02201}, {"fusion_lat": 0.0, "name": "43b3853f251ea04de27efca18e10c32b", "is_disabled": 0, "rental_uris": {"android": "https://dc.lft.to/lastmile_qr_scan", "ios": "https://dc.lft.to/lastmile_qr_scan"}, "fusion_lon": 0.0, "lat": 38.9156005, "bike_id": "43b3853f251ea04de27efca18e10c32b", "type": "electric_scooter", "is_reserved": 0, "lon": -77.01126666666667}, {"fusion_lat": 0.0, "name": "baa35c1fc2a80011e56579076ccd5a86", "is_disabled": 0, "rental_uris": {"android": "https://dc.lft.to/lastmile_qr_scan", "ios": "https://dc.lft.to/lastmile_qr_scan"}, "fusion_lon": 0.0, "lat": 38.9399415, "bike_id": "baa35c1fc2a80011e56579076ccd5a86", "type": "electric_scooter", "is_reserved": 0, "lon": -77.084228}, {"fusion_lat": 0.0, "name": "ce3d952cb53ce79dba2d66b4b7e84b4e", "is_disabled": 0, "rental_uris": {"android": "https://dc.lft.to/lastmile_qr_scan", "ios": "https://dc.lft.to/lastmile_qr_scan"}, "fusion_lon": 0.0, "lat": 38.90055783333333, "bike_id": "ce3d952cb53ce79dba2d66b4b7e84b4e", "type": "electric_scooter", "is_reserved": 0, "lon": -77.02732433333334}, {"fusion_lat": 0.0, "name": "588261f270d9a0933a5824c24f9ac486", "is_disabled": 0, "rental_uris": {"android": "https://dc.lft.to/lastmile_qr_scan", "ios": "https://dc.lft.to/lastmile_qr_scan"}, "fusion_lon": 0.0, "lat": 38.90060966666667, "bike_id": "588261f270d9a0933a5824c24f9ac486", "type": "electric_scooter", "is_reserved": 0, "lon": -76.9274685}, {"fusion_lat": 0.0, "name": "e3780f000a4f3c14b8151a27d4abbb2d", "is_disabled": 0, "rental_uris": {"android": "https://dc.lft.to/lastmile_qr_scan", "ios": "https://dc.lft.to/lastmile_qr_scan"}, "fusion_lon": 0.0, "lat": 38.875352166666666, "bike_id": "e3780f000a4f3c14b8151a27d4abbb2d", "type": "electric_scooter", "is_reserved": 0, "lon": -77.00504833333333}, {"fusion_lat": 0.0, "name": "48b8759f89857b11ceb5ed9c1bed502d", "is_disabled": 0, "rental_uris": {"android": "https://dc.lft.to/lastmile_qr_scan", "ios": "https://dc.lft.to/lastmile_qr_scan"}, "fusion_lon": 0.0, "lat": 38.896633333333334, "bike_id": "48b8759f89857b11ceb5ed9c1bed502d", "type": "electric_scooter", "is_reserved": 0, "lon": -77.0512765}, {"fusion_lat": 0.0, "name": "8011b3a4c1d27c9eeb1a5ecfbf5d10d9", "is_disabled": 0, "rental_uris": {"android": "https://dc.lft.to/lastmile_qr_scan", "ios": "https://dc.lft.to/lastmile_qr_scan"}, "fusion_lon": 0.0, "lat": 38.8954485, "bike_id": "8011b3a4c1d27c9eeb1a5ecfbf5d10d9", "type": "electric_scooter", "is_reserved": 0, "lon": -76.9494945}, {"fusion_lat": 0.0, "name": "60bd46c8c273fa3e85d566dc46ea00f4", "is_disabled": 0, "rental_uris": {"android": "https://dc.lft.to/lastmile_qr_scan", "ios": "https://dc.lft.to/lastmile_qr_scan"}, "fusion_lon": 0.0, "lat": 38.95756933333333, "bike_id": "60bd46c8c273fa3e85d566dc46ea00f4", "type": "electric_scooter", "is_reserved": 0, "lon": -77.02061866666666}, {"fusion_lat": 0.0, "name": "bda8f9e066f16742fb924bbde2671c54", "is_disabled": 0, "rental_uris": {"android": "https://dc.lft.to/lastmile_qr_scan", "ios": "https://dc.lft.to/lastmile_qr_scan"}, "fusion_lon": 0.0, "lat": 38.90266233333333, "bike_id": "bda8f9e066f16742fb924bbde2671c54", "type": "electric_scooter", "is_reserved": 0, "lon": -77.03973133333334}, {"fusion_lat": 0.0, "name": "67be5c4e9afcc6d0988d7900200a0752", "is_disabled": 0, "rental_uris": {"android": "https://dc.lft.to/lastmile_qr_scan", "ios": "https://dc.lft.to/lastmile_qr_scan"}, "fusion_lon": 0.0, "lat": 38.87495033333333, "bike_id": "67be5c4e9afcc6d0988d7900200a0752", "type": "electric_scooter", "is_reserved": 0, "lon": -77.001118}, {"fusion_lat": 0.0, "name": "aaddc51775910d666e7ed288434d32ce", "is_disabled": 0, "rental_uris": {"android": "https://dc.lft.to/lastmile_qr_scan", "ios": "https://dc.lft.to/lastmile_qr_scan"}, "fusion_lon": 0.0, "lat": 38.87661533333333, "bike_id": "aaddc51775910d666e7ed288434d32ce", "type": "electric_scooter", "is_reserved": 0, "lon": -76.996259}, {"fusion_lat": 0.0, "name": "dec7a42c098b6d87e82c97a3cade2ecc", "is_disabled": 0, "rental_uris": {"android": "https://dc.lft.to/lastmile_qr_scan", "ios": "https://dc.lft.to/lastmile_qr_scan"}, "fusion_lon": 0.0, "lat": 38.9259995, "bike_id": "dec7a42c098b6d87e82c97a3cade2ecc", "type": "electric_scooter", "is_reserved": 0, "lon": -77.021545}, {"fusion_lat": 0.0, "name": "df7233509e34b26390c592e48486bc26", "is_disabled": 0, "rental_uris": {"android": "https://dc.lft.to/lastmile_qr_scan", "ios": "https://dc.lft.to/lastmile_qr_scan"}, "fusion_lon": 0.0, "lat": 38.873870833333335, "bike_id": "df7233509e34b26390c592e48486bc26", "type": "electric_scooter", "is_reserved": 0, "lon": -77.0003745}, {"fusion_lat": 0.0, "name": "5a10bf1f64fa9db782e6d5c480a76064", "is_disabled": 0, "rental_uris": {"android": "https://dc.lft.to/lastmile_qr_scan", "ios": "https://dc.lft.to/lastmile_qr_scan"}, "fusion_lon": 0.0, "lat": 38.916041166666666, "bike_id": "5a10bf1f64fa9db782e6d5c480a76064", "type": "electric_scooter", "is_reserved": 0, "lon": -77.04488083333334}, {"fusion_lat": 0.0, "name": "56c7bd64385a5685ff736245dfd1a1d1", "is_disabled": 0, "rental_uris": {"android": "https://dc.lft.to/lastmile_qr_scan", "ios": "https://dc.lft.to/lastmile_qr_scan"}, "fusion_lon": 0.0, "lat": 38.914827, "bike_id": "56c7bd64385a5685ff736245dfd1a1d1", "type": "electric_scooter", "is_reserved": 0, "lon": -77.04275483333333},