{"data": {"bikes": [{"rental_uris": {"ios": "https://dc.lft.to/lastmile_qr_scan", "android": "https://dc.lft.to/lastmile_qr_scan"}, "lat": 38.917123833333335, "is_reserved": 0, "bike_id": "2b535adf2e793e2498acdb5f8221d5c4", "lon": -77.03866316666667, "is_disabled": 0, "fusion_lat": 0.0, "fusion_lon": 0.0, "name": "2b535adf2e793e2498acdb5f8221d5c4", "type": "electric_scooter"}, {"rental_uris": {"ios": "https://dc.lft.to/lastmile_qr_scan", "android": "https://dc.lft.to/lastmile_qr_scan"}, "lat": 38.924881666666664, "is_reserved": 0, "bike_id": "cbf5e6a3fca5cd8bec68485de8af3a14", "lon": -77.02145883333333, "is_disabled": 0, "fusion_lat": 0.0, "fusion_lon": 0.0, "name": "cbf5e6a3fca5cd8bec68485de8af3a14", "type": "electric_scooter"}, {"rental_uris": {"ios": "https://dc.lft.to/lastmile_qr_scan", "android": "https://dc.lft.to/lastmile_qr_scan"}, "lat": 38.9005045, "is_reserved": 0, "bike_id": "03b8e6c2a86eeee47818a887d9fc8634", "lon": -77.04683183333333, "is_disabled": 0, "fusion_lat": 0.0, "fusion_lon": 0.0, "name": "03b8e6c2a86eeee47818a887d9fc8634", "type": "electric_scooter"}, {"rental_uris": {"ios": "https://dc.lft.to/lastmile_qr_scan", "android": "https://dc.lft.to/lastmile_qr_scan"}, "lat": 38.926760333333334, "is_reserved": 0, "bike_id": "282af5eb863624c9583d9df62482b71f", "lon": -77.02303866666666, "is_disabled": 0, "fusion_lat": 0.0, "fusion_lon": 0.0, "name": "282af5eb863624c9583d9df62482b71f", "type": "electric_scooter"}, {"rental_uris": {"ios": "https://dc.lft.to/lastmile_qr_scan", "android": "https://dc.lft.to/lastmile_qr_scan"}, "lat": 38.91002, "is_reserved": 0, "bike_id": "c552a0384da6ed854ea39e12bcce70af", "lon": -77.03655083333334, "is_disabled": 0, "fusion_lat": 0.0, "fusion_lon": 0.0, "name": "c552a0384da6ed854ea39e12bcce70af", "type": "electric_scooter"}, {"rental_uris": {"ios": "https://dc.lft.to/lastmile_qr_scan", "android": "https://dc.lft.to/lastmile_qr_scan"}, "lat": 38.88745316666667, "is_reserved": 0, "bike_id": "e59e9dc1de5da5d8c503a1a8f840502c", "lon": -77.01732716666666, "is_disabled": 0, "fusion_lat": 0.0, "fusion_lon": 0.0, "name": "e59e9dc1de5da5d8c503a1a8f840502c", "type": "electric_scooter"}, {"rental_uris": {"ios": "https://dc.lft.to/lastmile_qr_scan", "android": "https://dc.lft.to/lastmile_qr_scan"}, "lat": 38.92042716666667, "is_reserved": 0, "bike_id": "7ae8754d84b54b6f98d965c28c3ebae2", "lon": -77.01677966666666, "is_disabled": 0, "fusion_lat": 0.0, "fusion_lon": 0.0, "name": "7ae8754d84b54b6f98d965c28c3ebae2", "type": "electric_scooter"}, {"rental_uris": {"ios": "https://dc.lft.to/lastmile_qr_scan", "android": "https://dc.lft.to/lastmile_qr_scan"}, "lat": 38.90949033333333, "is_reserved": 0, "bike_id": "4c9df841fe1c477ecdf5b4d4b61bbe6c", "lon": -77.04938583333333, "is_disabled": 0, "fusion_lat": 0.0, "fusion_lon": 0.0, "name": "4c9df841fe1c477ecdf5b4d4b61bbe6c", "type": "electric_scooter"}, {"rental_uris": {"ios": "https://dc.lft.to/lastmile_qr_scan", "android": "https://dc.lft.to/lastmile_qr_scan"}, "lat": 38.91626633333333, "is_reserved": 0, "bike_id": "8018f97ff65156b70cd84cedac0d6759", "lon": -77.04154683333333, "is_disabled": 0, "fusion_lat": 0.0, "fusion_lon": 0.0, "name": "8018f97ff65156b70cd84cedac0d6759", "type": "electric_scooter"}, {"rental_uris": {"ios": "https://dc.lft.to/lastmile_qr_scan", "android": "https://dc.lft.to/lastmile_qr_scan"}, "lat": 38.89917883333333, "is_reserved": 0, "bike_id": "202504edbe8f0ea54bb39def82f0619c", "lon": -77.02818316666666, "is_disabled": 0, "fusion_lat": 0.0, "fusion_lon": 0.0, "name": "202504edbe8f0ea54bb39def82f0619c", "type": "electric_scooter"}, {"rental_uris": {"ios": "https://dc.lft.to/lastmile_qr_scan", "android": "https://dc.lft.to/lastmile_qr_scan"}, "lat": 38.8846935, "is_reserved": 0, "bike_id": "f3505580c6198c0594698a7347785da9", "lon": -76.949796, "is_disabled": 0, "fusion_lat": 0.0, "fusion_lon": 0.0, "name": "f3505580c6198c0594698a7347785da9", "type": "electric_scooter"}, {"rental_uris": {"ios": "https://dc.lft.to/lastmile_qr_scan", "android": "https://dc.lft.to/lastmile_qr_scan"}, "lat": 38.932391, "is_reserved": 0, "bike_id": "fe8d039848790da3508240dce69d5db8", "lon": -76.99812133333333, "is_disabled": 0, "fusion_lat": 0.0, "fusion_lon": 0.0, "name": "fe8d039848790da3508240dce69d5db8", "type": "electric_scooter"}, {"rental_uris": {"ios": "https://dc.lft.to/lastmile_qr_scan", "android": "https://dc.lft.to/lastmile_qr_scan"}, "lat": 38.90959, "is_reserved": 0, "bike_id": "07c9a76a1afd21896175bc5cb9ad7a08", "lon": -77.02312016666667, "is_disabled": 0, "fusion_lat": 0.0, "fusion_lon": 0.0, "name": "07c9a76a1afd21896175bc5cb9ad7a08", "type": "electric_scooter"}, {"rental_uris": {"ios": "https://dc.lft.to/lastmile_qr_scan", "android": "https://dc.lft.to/lastmile_qr_scan"}, "lat": 38.866484166666666, "is_reserved": 0, "bike_id": "d5fff933826e1a2028993ab026d86fe9", "lon": -76.98516466666666, "is_disabled": 0, "fusion_lat": 0.0, "fusion_lon": 0.0, "name": "d5fff933826e1a2028993ab026d86fe9", "type": "electric_scooter"}, {"rental_uris": {"ios": "https://dc.lft.to/lastmile_qr_scan", "android": "https://dc.lft.to/lastmile_qr_scan"}, "lat": 38.9046705, "is_reserved": 0, "bike_id": "2b7235520eae541c2a725fbb33aea075", "lon": -77.0194195, "is_disabled": 0, "fusion_lat": 0.0, "fusion_lon": 0.0, "name": "2b7235520eae541c2a725fbb33aea075", "type": "electric_scooter"}, {"rental_uris": {"ios": "https://dc.lft.to/lastmile_qr_scan", "android": "https://dc.lft.to/lastmile_qr_scan"}, "lat": 38.884508833333335, "is_reserved": 0, "bike_id": "e4892f44b49b342e1cad1f47709c8e64", "lon": -76.95100166666667, "is_disabled": 0, "fusion_lat": 0.0, "fusion_lon": 0.0, "name": "e4892f44b49b342e1cad1f47709c8e64", "type": "electric_scooter"}, {"rental_uris": {"ios": "https://dc.lft.to/lastmile_qr_scan", "android": "https://dc.lft.to/lastmile_qr_scan"}, "lat": 38.937647, "is_reserved": 0, "bike_id": "0db95b45679700fe8819cb4f1f45ab78", "lon": -77.02136666666667, "is_disabled": 0, "fusion_lat": 0.0, "fusion_lon": 0.0, "name": "0db95b45679700fe8819cb4f1f45ab78", "type": "electric_scooter"}, {"rental_uris": {"ios": "https://dc.lft.to/lastmile_qr_scan", "android": "https://dc.lft.to/lastmile_qr_scan"}, "lat": 38.90201616666667, "is_reserved": 0, "bike_id": "1dc13626437d8c19b6439fd0b3448215", "lon": -76.98195716666666, "is_disabled": 0, "fusion_lat": 0.0, "fusion_lon": 0.0, "name": "1dc13626437d8c19b6439fd0b3448215", "type": "electric_scooter"}, {"rental_uris": {"ios": "https://dc.lft.to/lastmile_qr_scan", "android": "https://dc.lft.to/lastmile_qr_scan"}, "lat": 38.899146333333334, "is_reserved": 0, "bike_id": "f675e937054f71383168585aee84bdc7", "lon": -77.03256933333333, "is_disabled": 0, "fusion_lat": 0.0, "fusion_lon": 0.0, "name": "f675e937054f71383168585aee84bdc7", "type": "electric_scooter"}, {"rental_uris": {"ios": "https://dc.lft.to/lastmile_qr_scan", "android": "https://dc.lft.to/lastmile_qr_scan"}, "lat": 38.9317555, "is_reserved": 0, "bike_id": "80300187124d495e0e1f0de9fac0326b", "lon": -77.04303716666666, "is_disabled": 0, "fusion_lat": 0.0, "fusion_lon": 0.0, "name": "80300187124d495e0e1f0de9fac0326b", "type": "electric_scooter"}, {"rental_uris": {"ios": "https://dc.lft.to/lastmile_qr_scan", "android": "https://dc.lft.to/lastmile_qr_scan"}, "lat": 38.914131166666664, "is_reserved": 0, "bike_id": "a9816cd4b3d624e1300c4b43daf51035", "lon": -77.01557633333333, "is_disabled": 0, "fusion_lat": 0.0, "fusion_lon": 0.0, "name": "a9816cd4b3d624e1300c4b43daf51035", "type": "electric_scooter"}, {"rental_uris": {"ios": "https://dc.lft.to/lastmile_qr_scan", "android": "https://dc.lft.to/lastmile_qr_scan"}, "lat": 38.961294333333335, "is_reserved": 0, "bike_id": "4369ca250a96bb2c4bb72fad08cf236f", "lon": -77.02800883333333, "is_disabled": 0, "fusion_lat": 0.0, "fusion_lon": 0.0, "name": "4369ca250a96bb2c4bb72fad08cf236f", "type": "electric_scooter"}, {"rental_uris": {"ios": "https://dc.lft.to/lastmile_qr_scan", "android": "https://dc.lft.to/lastmile_qr_scan"}, "lat": 38.941066, "is_reserved": 0, "bike_id": "6959167294565b484afd41eb6535c7d5", "lon": -77.07600566666666, "is_disabled": 0, "fusion_lat": 0.0, "fusion_lon": 0.0, "name": "6959167294565b484afd41eb6535c7d5", "type": "electric_scooter"}, {"rental_uris": {"ios": "https://dc.lft.to/lastmile_qr_scan", "android": "https://dc.lft.to/lastmile_qr_scan"}, "lat": 38.91303933333333, "is_reserved": 0, "bike_id": "77d257d627027e19c57aa484630e2db4", "lon": -77.04872516666667, "is_disabled": 0, "fusion_lat": 0.0, "fusion_lon": 0.0, "name": "77d257d627027e19c57aa484630e2db4", "type": "electric_scooter"}, {"rental_uris": {"ios": "https://dc.lft.to/lastmile_qr_scan", "android": "https://dc.lft.to/lastmile_qr_scan"}, "lat": 38.941249666666664, "is_reserved": 0, "bike_id": "b1eeea6baacdb21cba37a3bacfa46e37", "lon": -77.01548066666666, "is_disabled": 0, "fusion_lat": 0.0, "fusion_lon": 0.0, "name": "b1eeea6baacdb21cba37a3bacfa46e37", "type": "electric_scooter"}, {"rental_uris": {"ios": "https://dc.lft.to/lastmile_qr_scan", "android": "https://dc.lft.to/lastmile_qr_scan"}, "lat": 38.904088333333334, "is_reserved": 0, "bike_id": "b7e2a76a8c6bfc581d31fec96d155d75", "lon": -77.00602216666667, "is_disabled": 0, "fusion_lat": 0.0, "fusion_lon": 0.0, "name": "b7e2a76a8c6bfc581d31fec96d155d75", "type": "electric_scooter"}, {"rental_uris": {"ios": "https://dc.lft.to/lastmile_qr_scan", "android": "https://dc.lft.to/lastmile_qr_scan"}, "lat": 38.890811666666664, "is_reserved": 0, "bike_id": "123a2f85d60420fcc132dcd03f18694d", "lon": -76.98825433333333, "is_disabled": 0, "fusion_lat": 0.0, "fusion_lon": 0.0, "name": "123a2f85d60420fcc132dcd03f18694d", "type": "electric_scooter"}, {"rental_uris": {"ios": "https://dc.lft.to/lastmile_qr_scan", "android": "https://dc.lft.to/lastmile_qr_scan"}, "lat": 38.9017595, "is_reserved": 0, "bike_id": "11281e36111bb4c10b7d5fd314920cc9", "lon": -77.01322483333334, "is_disabled": 0, "fusion_lat": 0.0, "fusion_lon": 0.0, "name": "11281e36111bb4c10b7d5fd314920cc9", "type": "electric_scooter"}, {"rental_uris": {"ios": "https://dc.lft.to/lastmile_qr_scan", "android": "https://dc.lft.to/lastmile_qr_scan"}, "lat": 38.89636566666667, "is_reserved": 0, "bike_id": "219b4a45a211feb8d89bc75d1c280bbe", "lon": -77.01958833333333, "is_disabled": 0, "fusion_lat": 0.0, "fusion_lon": 0.0, "name": "219b4a45a211feb8d89bc75d1c280bbe", "type": "electric_scooter"}, {"rental_uris": {"ios": "https://dc.lft.to/lastmile_qr_scan", "android": "https://dc.lft.to/lastmile_qr_scan"}, "lat": 38.924764, "is_reserved": 0, "bike_id": "c3b5d54a09708fa5826d28da893f460c", "lon": -77.039107, "is_disabled": 0, "fusion_lat": 0.0, "fusion_lon": 0.0, "name": "c3b5d54a09708fa5826d28da893f460c", "type": "electric_scooter"}, {"rental_uris": {"ios": "https://dc.lft.to/lastmile_qr_scan", "android": "https://dc.lft.to/lastmile_qr_scan"}, "lat": 38.90037683333333, "is_reserved": 0, "bike_id": "5defebfef83e23d614f260338c334384", "lon": -77.02987383333334, "is_disabled": 0, "fusion_lat": 0.0, "fusion_lon": 0.0, "name": "5defebfef83e23d614f260338c334384", "type": "electric_scooter"}, {"rental_uris": {"ios": "https://dc.lft.to/lastmile_qr_scan", "android": "https://dc.lft.to/lastmile_qr_scan"}, "lat": 38.887326, "is_reserved": 0, "bike_id": "7a8b0af7c86b1f0f70f5c7961d356b41", "lon": -77.02582516666666, "is_disabled": 0, "fusion_lat": 0.0, "fusion_lon": 0.0, "name": "7a8b0af7c86b1f0f70f5c7961d356b41", "type": "electric_scooter"}, {"rental_uris": {"ios": "https://dc.lft.to/lastmile_qr_scan", "android": "https://dc.lft.to/lastmile_qr_scan"}, "lat": 38.8923805, "is_reserved": 0, "bike_id": "b19e718fbb258ae92e71d1098673474e", "lon": -77.0217755, "is_disabled": 0, "fusion_lat": 0.0, "fusion_lon": 0.0, "name": "b19e718fbb258ae92e71d1098673474e", "type": "electric_scooter"}, {"rental_uris": {"ios": "https://dc.lft.to/lastmile_qr_scan", "android": "https://dc.lft.to/lastmile_qr_scan"}, "lat": 38.90132083333334, "is_reserved": 0, "bike_id": "b39435dd7bc89a311567cabb228f0f44", "lon": -77.03560866666666, "is_disabled": 0, "fusion_lat": 0.0, "fusion_lon": 0.0, "name": "b39435dd7bc89a311567cabb228f0f44", "type": "electric_scooter"}, {"rental_uris": {"ios": "https://dc.lft.to/lastmile_qr_scan", "android": "https://dc.lft.to/lastmile_qr_scan"}, "lat": 38.90084683333333, "is_reserved": 0, "bike_id": "726ee106021bc24d69277fc9f9956580", "lon": -77.01819033333334, "is_disabled": 0, "fusion_lat": 0.0, "fusion_lon": 0.0, "name": "726ee106021bc24d69277fc9f9956580", "type": "electric_scooter"}, {"rental_uris": {"ios": "https://dc.lft.to/lastmile_qr_scan", "android": "https://dc.lft.to/lastmile_qr_scan"}, "lat": 38.866825666666664, "is_reserved": 0, "bike_id": "1a1d5c204019b2ff9ef6fb05f1845cb5", "lon": -76.98573033333334, "is_disabled": 0, "fusion_lat": 0.0, "fusion_lon": 0.0, "name": "1a1d5c204019b2ff9ef6fb05f1845cb5", "type": "electric_scooter"}, {"rental_uris": {"ios": "https://dc.lft.to/lastmile_qr_scan", "android": "https://dc.lft.to/lastmile_qr_scan"}, "lat": 38.8973865, "is_reserved": 0, "bike_id": "3628d4f33a199a741a08402b4c7fb04f", "lon": -76.97975866666667, "is_disabled": 0, "fusion_lat": 0.0, "fusion_lon": 0.0, "name": "3628d4f33a199a741a08402b4c7fb04f", "type": "electric_scooter"}, {"rental_uris": {"ios": "https://dc.lft.to/lastmile_qr_scan", "android": "https://dc.lft.to/lastmile_qr_scan"}, "lat": 38.94527516666667, "is_reserved": 0, "bike_id": "4b94247e64e99f69d2fbf4e2e1542fe8", "lon": -77.06400416666666, "is_disabled": 0, "fusion_lat": 0.0, "fusion_lon": 0.0, "name": "4b94247e64e99f69d2fbf4e2e1542fe8", "type": "electric_scooter"}, {"rental_uris": {"ios": "https://dc.lft.to/lastmile_qr_scan", "android": "https://dc.lft.to/lastmile_qr_scan"}, "lat": 38.897518833333336, "is_reserved": 0, "bike_id": "e314756f86bdd94d211f3dfc1b50a308", "lon": -77.05141, "is_disabled": 0, "fusion_lat": 0.0, "fusion_lon": 0.0, "name": "e314756f86bdd94d211f3dfc1b50a308", "type": "electric_scooter"}, {"rental_uris": {"ios": "https://dc.lft.to/lastmile_qr_scan", "android": "https://dc.lft.to/lastmile_qr_scan"}, "lat": 38.919845, "is_reserved": 0, "bike_id": "42e1362c01bc9a8031ea0ae9fd9d2cae", "lon": -77.02497033333333, "is_disabled": 0, "fusion_lat": 0.0, "fusion_lon": 0.0, "name": "42e1362c01bc9a8031ea0ae9fd9d2cae", "type": "electric_scooter"}, {"rental_uris": {"ios": "https://dc.lft.to/lastmile_qr_scan", "android": "https://dc.lft.to/lastmile_qr_scan"}, "lat": 38.89644416666667, "is_reserved": 0, "bike_id": "b916adf5044100cf06488c2c8bc9a8d3", "lon": -77.00921466666667, "is_disabled": 0, "fusion_lat": 0.0, "fusion_lon": 0.0, "name": "b916adf5044100cf06488c2c8bc9a8d3", "type": "electric_scooter"}, {"rental_uris": {"ios": "https://dc.lft.to/lastmile_qr_scan", "android": "https://dc.lft.to/lastmile_qr_scan"}, "lat": 38.90789566666667, "is_reserved": 0, "bike_id": "33a5d325ce38dc680a7766e6febefa24", "lon": -77.03802333333333, "is_disabled": 0, "fusion_lat": 0.0, "fusion_lon": 0.0, "name": "33a5d325ce38dc680a7766e6febefa24", "type": "electric_scooter"}, {"rental_uris": {"ios": "https://dc.lft.to/lastmile_qr_scan", "android": "https://dc.lft.to/lastmile_qr_scan"}, "lat": 38.916291, "is_reserved": 0, "bike_id": "95f094958a97317a5651a66baaab001d", "lon": -77.03200716666667, "is_disabled": 0, "fusion_lat": 0.0, "fusion_lon": 0.0, "name": "95f094958a97317a5651a66baaab001d", "type": "electric_scooter"}, {"rental_uris": {"ios": "https://dc.lft.to/lastmile_qr_scan", "android": "https://dc.lft.to/lastmile_qr_scan"}, "lat": 38.89221333333333, "is_reserved": 0, "bike_id": "e8ff987545f229346b5a778212f70d4d", "lon": -77.04513466666667, "is_disabled": 0, "fusion_lat": 0.0, "fusion_lon": 0.0, "name": "e8ff987545f229346b5a778212f70d4d", "type": "electric_scooter"}, {"rental_uris": {"ios": "https://dc.lft.to/lastmile_qr_scan", "android": "https://dc.lft.to/lastmile_qr_scan"}, "lat": 38.91130666666667, "is_reserved": 0, "bike_id": "06fbe98b0c469cff74c3ce6ae5dbc064", "lon": -77.021981, "is_disabled": 0, "fusion_lat": 0.0, "fusion_lon": 0.0, "name": "06fbe98b0c469cff74c3ce6ae5dbc064", "type": "electric_scooter"}, {"rental_uris": {"ios": "https://dc.lft.to/lastmile_qr_scan", "android": "https://dc.lft.to/lastmile_qr_scan"}, "lat": 38.91390416666667, "is_reserved": 0, "bike_id": "45c382f1a4cb0d0bc0a22188c9958e9d", "lon": -77.0365585, "is_disabled": 0, "fusion_lat": 0.0, "fusion_lon": 0.0, "name": "45c382f1a4cb0d0bc0a22188c9958e9d", "type": "electric_scooter"}, {"rental_uris": {"ios": "https://dc.lft.to/lastmile_qr_scan", "android": "https://dc.lft.to/lastmile_qr_scan"}, "lat": 38.8982015, "is_reserved": 0, "bike_id": "f3e0bdb4ae496ca3c86d1c425d17bfa9", "lon": -77.024148, "is_disabled": 0, "fusion_lat": 0.0, "fusion_lon": 0.0, "name": "f3e0bdb4ae496ca3c86d1c425d17bfa9", "type": "electric_scooter"}, {"rental_uris": {"ios": "https://dc.lft.to/lastmile_qr_scan", "android": "https://dc.lft.to/lastmile_qr_scan"}, "lat": 38.90538466666667, "is_reserved": 0, "bike_id": "098c73c03a603a71ba09bd138259b861", "lon": -77.00568883333334, "is_disabled": 0, "fusion_lat": 0.0, "fusion_lon": 0.0, "name": "098c73c03a603a71ba09bd138259b861", "type": "electric_scooter"}, {"rental_uris": {"ios": "https://dc.lft.to/lastmile_qr_scan", "android": "https://dc.lft.to/lastmile_qr_scan"}, "lat": 38.91681916666667, "is_reserved": 0, "bike_id": "230df06dfcffbc052173a4ea354d29a1", "lon": -77.02652216666667, "is_disabled": 0, "fusion_lat": 0.0, "fusion_lon": 0.0, "name": "230df06dfcffbc052173a4ea354d29a1", "type": "electric_scooter"}, {"rental_uris": {"ios": "https://dc.lft.to/lastmile_qr_scan", "android": "https://dc.lft.to/lastmile_qr_scan"}, "lat": 38.90951183333333, "is_reserved": 0, "bike_id": "13af94bcc61cee3870f8cdf7cf98d950", "lon": -77.04937916666667, "is_disabled": 0, "fusion_lat": 0.0, "fusion_lon": 0.0, "name": "13af94bcc61cee3870f8cdf7cf98d950", "type": "electric_scooter"}, {"rental_uris": {"ios": "https://dc.lft.to/lastmile_qr_scan", "android": "https://dc.lft.to/lastmile_qr_scan"}, "lat": 38.900389833333335, "is_reserved": 0, "bike_id": "38f8db89b4ae0685ebbee0ae5aaf9dda", "lon": -77.00195983333333, "is_disabled": 0, "fusion_lat": 0.0, "fusion_lon": 0.0, "name": "38f8db89b4ae0685ebbee0ae5aaf9dda", "type": "electric_scooter"}, {"rental_uris": {"ios": "https://dc.lft.to/lastmile_qr_scan", "android": "https://dc.lft.to/lastmile_qr_scan"}, "lat": 38.8854255, "is_reserved": 0, "bike_id": "1437568d23b0ecda5d432e9b954348d4", "lon": -76.929082, "is_disabled": 0, "fusion_lat": 0.0, "fusion_lon": 0.0, "name": "1437568d23b0ecda5d432e9b954348d4", "type": "electric_scooter"}, {"rental_uris": {"ios": "https://dc.lft.to/lastmile_qr_scan", "android": "https://dc.lft.to/lastmile_qr_scan"}, "lat": 38.875791, "is_reserved": 0, "bike_id": "af7accd1f267b4ea12f63a897338c6d3", "lon": -77.23410083333333, "is_disabled": 0, "fusion_lat": 0.0, "fusion_lon": 0.0, "name": "af7accd1f267b4ea12f63a897338c6d3", "type": "electric_bike"}, {"rental_uris": {"ios": "https://dc.lft.to/lastmile_qr_scan", "android": "https://dc.lft.to/lastmile_qr_scan"}, "lat": 38.916254, "is_reserved": 0, "bike_id": "12ce8ed2464b62ecb524f0959ab2c876", "lon": -77.03201983333334, "is_disabled": 0, "fusion_lat": 0.0, "fusion_lon": 0.0, "name": "12ce8ed2464b62ecb524f0959ab2c876", "type": "electric_scooter"}, {"rental_uris": {"ios": "https://dc.lft.to/lastmile_qr_scan", "android": "https://dc.lft.to/lastmile_qr_scan"}, "lat": 38.9160625, "is_reserved": 0, "bike_id": "8fcedcd6edfe743ae16dff7da6545ca6", "lon": -77.0311125, "is_disabled": 0, "fusion_lat": 0.0, "fusion_lon": 0.0, "name": "8fcedcd6edfe743ae16dff7da6545ca6", "type": "electric_scooter"}, {"rental_uris": {"ios": "https://dc.lft.to/lastmile_qr_scan", "android": "https://dc.lft.to/lastmile_qr_scan"}, "lat": 38.9110615, "is_reserved": 0, "bike_id": "a1f049194751389710969049e6099212", "lon": -77.04224983333333, "is_disabled": 0, "fusion_lat": 0.0, "fusion_lon": 0.0, "name": "a1f049194751389710969049e6099212", "type": "electric_scooter"}, {"rental_uris": {"ios": "https://dc.lft.to/lastmile_qr_scan", "android": "https://dc.lft.to/lastmile_qr_scan"}, "lat": 38.86060716666667, "is_reserved": 0, "bike_id": "1bd27a42a39db10335e2569d6292b40e", "lon": -76.98508916666667, "is_disabled": 0, "fusion_lat": 0.0, "fusion_lon": 0.0, "name": "1bd27a42a39db10335e2569d6292b40e", "type": "electric_scooter"}, {"rental_uris": {"ios": "https://dc.lft.to/lastmile_qr_scan", "android": "https://dc.lft.to/lastmile_qr_scan"}, "lat": 38.915601, "is_reserved": 0, "bike_id": "0a05f0f6a598bdf1b860c1fd545c63a8", "lon": -77.03237316666667, "is_disabled": 0, "fusion_lat": 0.0, "fusion_lon": 0.0, "name": "0a05f0f6a598bdf1b860c1fd545c63a8", "type": "electric_scooter"}, {"rental_uris": {"ios": "https://dc.lft.to/lastmile_qr_scan", "android": "https://dc.lft.to/lastmile_qr_scan"}, "lat": 38.913236166666664, "is_reserved": 0, "bike_id": "c433786f6dd4e9fda8a4cc66af64a5ff", "lon": -77.03999966666667, "is_disabled": 0, "fusion_lat": 0.0, "fusion_lon": 0.0, "name": "c433786f6dd4e9fda8a4cc66af64a5ff", "type": "electric_scooter"}, {"rental_uris": {"ios": "https://dc.lft.to/lastmile_qr_scan", "android": "https://dc.lft.to/lastmile_qr_scan"}, "lat": 38.93432883333333, "is_reserved": 0, "bike_id": "41554ea61263e7994b26a0b53381fe74", "lon": -77.05583966666667, "is_disabled": 0, "fusion_lat": 0.0, "fusion_lon": 0.0, "name": "41554ea61263e7994b26a0b53381fe74", "type": "electric_scooter"}, {"rental_uris": {"ios": "https://dc.lft.to/lastmile_qr_scan", "android": "https://dc.lft.to/lastmile_qr_scan"}, "lat": 38.89556316666667, "is_reserved": 0, "bike_id": "0c5a022203c5724370c6e0fbd9eac2f8", "lon": -77.04841766666667, "is_disabled": 0, "fusion_lat": 0.0, "fusion_lon": 0.0, "name": "0c5a022203c5724370c6e0fbd9eac2f8", "type": "electric_scooter"}, {"rental_uris": {"ios": "https://dc.lft.to/lastmile_qr_scan", "android": "https://dc.lft.to/lastmile_qr_scan"}, "lat": 38.9026635, "is_reserved": 0, "bike_id": "b41f771d872d82e186bddc824366b11e", "lon": -77.03002833333333, "is_disabled": 0, "fusion_lat": 0.0, "fusion_lon": 0.0, "name": "b41f771d872d82e186bddc824366b11e", "type": "electric_scooter"}, {"rental_uris": {"ios": "https://dc.lft.to/lastmile_qr_scan", "android": "https://dc.lft.to/lastmile_qr_scan"}, "lat": 38.864478, "is_reserved": 0, "bike_id": "84d59eaab6e22e954ab5e4ac33e0f5cb", "lon": -77.10686116666666, "is_disabled": 0, "fusion_lat": 0.0, "fusion_lon": 0.0, "name": "84d59eaab6e22e954ab5e4ac33e0f5cb", "type": "electric_bike"}, {"rental_uris": {"ios": "https://dc.lft.to/lastmile_qr_scan", "android": "https://dc.lft.to/lastmile_qr_scan"}, "lat": 38.876972, "is_reserved": 0, "bike_id": "b247df79f641cb0767c5252769e0acff", "lon": -77.00462183333333, "is_disabled": 0, "fusion_lat": 0.0, "fusion_lon": 0.0, "name": "b247df79f641cb0767c5252769e0acff", "type": "electric_scooter"}, {"rental_uris": {"ios": "https://dc.lft.to/lastmile_qr_scan", "android": "https://dc.lft.to/lastmile_qr_scan"}, "lat": 38.90457833333333, "is_reserved": 0, "bike_id": "0d934739d28aba161bf4a7f959d00c2d", "lon": -77.03958133333333, "is_disabled": 0, "fusion_lat": 0.0, "fusion_lon": 0.0, "name": "0d934739d28aba161bf4a7f959d00c2d", "type": "electric_scooter"}, {"rental_uris": {"ios": "https://dc.lft.to/lastmile_qr_scan", "android": "https://dc.lft.to/lastmile_qr_scan"}, "lat": 38.88744616666666, "is_reserved": 0, "bike_id": "2053fab864befb177eac7657401a67db", "lon": -77.0284445, "is_disabled": 0, "fusion_lat": 0.0, "fusion_lon": 0.0, "name": "2053fab864befb177eac7657401a67db", "type": "electric_scooter"}, {"rental_uris": {"ios": "https://dc.lft.to/lastmile_qr_scan", "android": "https://dc.lft.to/lastmile_qr_scan"}, "lat": 38.876950666666666, "is_reserved": 0, "bike_id": "9412a43c1dd7570d0cc9cedc8cb1bc5e", "lon": -77.00467166666667, "is_disabled": 0, "fusion_lat": 0.0, "fusion_lon": 0.0, "name": "9412a43c1dd7570d0cc9cedc8cb1bc5e", "type": "electric_scooter"}, {"rental_uris": {"ios": "https://dc.lft.to/lastmile_qr_scan", "android": "https://dc.lft.to/lastmile_qr_scan"}, "lat": 38.90873216666667, "is_reserved": 0, "bike_id": "9c2e99125c7aca9b7234ec63e5d51019", "lon": -77.07168716666666, "is_disabled": 0, "fusion_lat": 0.0, "fusion_lon": 0.0, "name": "9c2e99125c7aca9b7234ec63e5d51019", "type": "electric_scooter"}, {"rental_uris": {"ios": "https://dc.lft.to/lastmile_qr_scan", "android": "https://dc.lft.to/lastmile_qr_scan"}, "lat": 38.934748, "is_reserved": 0, "bike_id": "06ac2fcf5dc2a616553310912b966596", "lon": -77.086614, "is_disabled": 0, "fusion_lat": 0.0, "fusion_lon": 0.0, "name": "06ac2fcf5dc2a616553310912b966596", "type": "electric_scooter"}, {"rental_uris": {"ios": "https://dc.lft.to/lastmile_qr_scan", "android": "https://dc.lft.to/lastmile_qr_scan"}, "lat": 38.909053666666665, "is_reserved": 0, "bike_id": "9ca768d4946bfb3449a7471aa0fe79f1", "lon": -77.0271905, "is_disabled": 0, "fusion_lat": 0.0, "fusion_lon": 0.0, "name": "9ca768d4946bfb3449a7471aa0fe79f1", "type": "electric_scooter"}, {"rental_uris": {"ios": "https://dc.lft.to/lastmile_qr_scan", "android": "https://dc.lft.to/lastmile_qr_scan"}, "lat": 38.915293, "is_reserved": 0, "bike_id": "d374551c78619856c081dcc8d7d519f7", "lon": -77.0199225, "is_disabled": 0, "fusion_lat": 0.0, "fusion_lon": 0.0, "name": "d374551c78619856c081dcc8d7d519f7", "type": "electric_scooter"}, {"rental_uris": {"ios": "https://dc.lft.to/lastmile_qr_scan", "android": "https://dc.lft.to/lastmile_qr_scan"}, "lat": 38.90634816666667, "is_reserved": 0, "bike_id": "d8fcdeb45eedb68ba4d9b68b86bf60ae", "lon": -77.01005066666667, "is_disabled": 0, "fusion_lat": 0.0, "fusion_lon": 0.0, "name": "d8fcdeb45eedb68ba4d9b68b86bf60ae", "type": "electric_scooter"}, {"rental_uris": {"ios": "https://dc.lft.to/lastmile_qr_scan", "android": "https://dc.lft.to/lastmile_qr_scan"}, "lat": 38.939284666666666, "is_reserved": 0, "bike_id": "1bd897578482a4c9fe0a740958ab6b3e", "lon": -77.02796366666666, "is_disabled": 0, "fusion_lat": 0.0, "fusion_lon": 0.0, "name": "1bd897578482a4c9fe0a740958ab6b3e", "type": "electric_scooter"}, {"rental_uris": {"ios": "https://dc.lft.to/lastmile_qr_scan", "android": "https://dc.lft.to/lastmile_qr_scan"}, "lat": 38.887372666666664, "is_reserved": 0, "bike_id": "102ec14e99c7161185934a88eb70bbd7", "lon": -77.0258345, "is_disabled": 0, "fusion_lat": 0.0, "fusion_lon": 0.0, "name": "102ec14e99c7161185934a88eb70bbd7", "type": "electric_scooter"}, {"rental_uris": {"ios": "https://dc.lft.to/lastmile_qr_scan", "android": "https://dc.lft.to/lastmile_qr_scan"}, "lat": 38.8948495, "is_reserved": 0, "bike_id": "e3e6d25f52eb39b629f4750c315b9c34", "lon": -77.002256, "is_disabled": 0, "fusion_lat": 0.0, "fusion_lon": 0.0, "name": "e3e6d25f52eb39b629f4750c315b9c34", "type": "electric_scooter"}, {"rental_uris": {"ios": "https://dc.lft.to/lastmile_qr_scan", "android": "https://dc.lft.to/lastmile_qr_scan"}, "lat": 38.898531166666665, "is_reserved": 0, "bike_id": "49b97e9c5a14f8a196bf71f345b1bb77", "lon": -77.0074545, "is_disabled": 0, "fusion_lat": 0.0, "fusion_lon": 0.0, "name": "49b97e9c5a14f8a196bf71f345b1bb77", "type": "electric_scooter"}, {"rental_uris": {"ios": "https://dc.lft.to/lastmile_qr_scan", "android": "https://dc.lft.to/lastmile_qr_scan"}, "lat": 38.864716, "is_reserved": 0, "bike_id": "65a5a8cb4c088c5b9d3885889d956b05", "lon": -76.98227466666667, "is_disabled": 0, "fusion_lat": 0.0, "fusion_lon": 0.0, "name": "65a5a8cb4c088c5b9d3885889d956b05", "type": "electric_scooter"}, {"rental_uris": {"ios": "https://dc.lft.to/lastmile_qr_scan", "android": "https://dc.lft.to/lastmile_qr_scan"}, "lat": 38.9007785, "is_reserved": 0, "bike_id": "93768a26bea711700afbade81b6d177c", "lon": -76.98029466666667, "is_disabled": 0, "fusion_lat": 0.0, "fusion_lon": 0.0, "name": "93768a26bea711700afbade81b6d177c", "type": "electric_scooter"}, {"rental_uris": {"ios": "https://dc.lft.to/lastmile_qr_scan", "android": "https://dc.lft.to/lastmile_qr_scan"}, "lat": 38.886076833333334, "is_reserved": 0, "bike_id": "9545de9e62d87782561e5a0b67547735", "lon": -77.04515066666667, "is_disabled": 0, "fusion_lat": 0.0, "fusion_lon": 0.0, "name": "9545de9e62d87782561e5a0b67547735", "type": "electric_scooter"}, {"rental_uris": {"ios": "https://dc.lft.to/lastmile_qr_scan", "android": "https://dc.lft.to/lastmile_qr_scan"}, "lat": 38.86170116666667, "is_reserved": 0, "bike_id": "df3ea9421ef5f494c4f4760ac7aee99d", "lon": -76.997288, "is_disabled": 0, "fusion_lat": 0.0, "fusion_lon": 0.0, "name": "df3ea9421ef5f494c4f4760ac7aee99d", "type": "electric_scooter"}, {"rental_uris": {"ios": "https://dc.lft.to/lastmile_qr_scan", "android": "https://dc.lft.to/lastmile_qr_scan"}, "lat": 38.901773166666665, "is_reserved": 0, "bike_id": "dc19b9319d5dc02291ce6f570382052c", "lon": -76.94146883333333, "is_disabled": 0, "fusion_lat": 0.0, "fusion_lon": 0.0, "name": "dc19b9319d5dc02291ce6f570382052c", "type": "electric_scooter"}, {"rental_uris": {"ios": "https://dc.lft.to/lastmile_qr_scan", "android": "https://dc.lft.to/lastmile_qr_scan"}, "lat": 38.901345, "is_reserved": 0, "bike_id": "33f7532cf906d169237c1a3c47ad5526", "lon": -77.03632783333333, "is_disabled": 0, "fusion_lat": 0.0, "fusion_lon": 0.0, "name": "33f7532cf906d169237c1a3c47ad5526", "type": "electric_scooter"}, {"rental_uris": {"ios": "https://dc.lft.to/lastmile_qr_scan", "android": "https://dc.lft.to/lastmile_qr_scan"}, "lat": 38.9204895, "is_reserved": 0, "bike_id": "8ee53e2b385a7e7a04ae25da520c21a0", "lon": -77.02576033333334, "is_disabled": 0, "fusion_lat": 0.0, "fusion_lon": 0.0, "name": "8ee53e2b385a7e7a04ae25da520c21a0", "type": "electric_scooter"}, {"rental_uris": {"ios": "https://dc.lft.to/lastmile_qr_scan", "android": "https://dc.lft.to/lastmile_qr_scan"}, "lat": 38.890815833333335, "is_reserved": 0, "bike_id": "fc263c2b6c5dffa043e004f841c25c2d", "lon": -76.98822966666667, "is_disabled": 0, "fusion_lat": 0.0, "fusion_lon": 0.0, "name": "fc263c2b6c5dffa043e004f841c25c2d", "type": "electric_scooter"}, {"rental_uris": {"ios": "https://dc.lft.to/lastmile_qr_scan", "android": "https://dc.lft.to/lastmile_qr_scan"}, "lat": 38.93510916666666, "is_reserved": 0, "bike_id": "633c92eba3d7c907d839fb562eabf76a", "lon": -77.074198, "is_disabled": 0, "fusion_lat": 0.0, "fusion_lon": 0.0, "name": "633c92eba3d7c907d839fb562eabf76a", "type": "electric_scooter"}, {"rental_uris": {"ios": "https://dc.lft.to/lastmile_qr_scan", "android": "https://dc.lft.to/lastmile_qr_scan"}, "lat": 38.90029, "is_reserved": 0, "bike_id": "b62c658aded7ea7656537ae660039cdd", "lon": -76.99851783333334, "is_disabled": 0, "fusion_lat": 0.0, "fusion_lon": 0.0, "name": "b62c658aded7ea7656537ae660039cdd", "type": "electric_scooter"}, {"rental_uris": {"ios": "https://dc.lft.to/lastmile_qr_scan", "android": "https://dc.lft.to/lastmile_qr_scan"}, "lat": 38.92468216666666, "is_reserved": 0, "bike_id": "80c1af5fd3af93b01e41e027fa913014", "lon": -77.02213666666667, "is_disabled": 0, "fusion_lat": 0.0, "fusion_lon": 0.0, "name": "80c1af5fd3af93b01e41e027fa913014", "type": "electric_scooter"}, {"rental_uris": {"ios": "https://dc.lft.to/lastmile_qr_scan", "android": "https://dc.lft.to/lastmile_qr_scan"}, "lat": 38.8966525, "is_reserved": 0, "bike_id": "9e4277e6ab6e7d5d25c80dc196ae7f9e", "lon": -77.0238225, "is_disabled": 0, "fusion_lat": 0.0, "fusion_lon": 0.0, "name": "9e4277e6ab6e7d5d25c80dc196ae7f9e", "type": "electric_scooter"}, {"rental_uris": {"ios": "https://dc.lft.to/lastmile_qr_scan", "android": "https://dc.lft.to/lastmile_qr_scan"}, "lat": 38.927067666666666, "is_reserved": 0, "bike_id": "e7d0682feadc484f01a5b39e456ff646", "lon": -77.02436, "is_disabled": 0, "fusion_lat": 0.0, "fusion_lon": 0.0, "name": "e7d0682feadc484f01a5b39e456ff646", "type": "electric_scooter"}, {"rental_uris": {"ios": "https://dc.lft.to/lastmile_qr_scan", "android": "https://dc.lft.to/lastmile_qr_scan"}, "lat": 38.923299666666665, "is_reserved": 0, "bike_id": "3128846d265e88ad2386910f379586cc", "lon": -77.04514716666667, "is_disabled": 0, "fusion_lat": 0.0, "fusion_lon": 0.0, "name": "3128846d265e88ad2386910f379586cc", "type": "electric_scooter"}, {"rental_uris": {"ios": "https://dc.lft.to/lastmile_qr_scan", "android": "https://dc.lft.to/lastmile_qr_scan"}, "lat": 38.91710966666667, "is_reserved": 0, "bike_id": "bd118d3b1ade357b3a0ea94b24fb6f4c", "lon": -77.032214, "is_disabled": 0, "fusion_lat": 0.0, "fusion_lon": 0.0, "name": "bd118d3b1ade357b3a0ea94b24fb6f4c", "type": "electric_scooter"}, {"rental_uris": {"ios": "https://dc.lft.to/lastmile_qr_scan", "android": "https://dc.lft.to/lastmile_qr_scan"}, "lat": 38.9265805, "is_reserved": 0, "bike_id": "b2233236a7acbac465053c618aa3042e", "lon": -77.037273, "is_disabled": 0, "fusion_lat": 0.0, "fusion_lon": 0.0, "name": "b2233236a7acbac465053c618aa3042e", "type": "electric_scooter"}, {"rental_uris": {"ios": "https://dc.lft.to/lastmile_qr_scan", "android": "https://dc.lft.to/lastmile_qr_scan"}, "lat": 38.92366633333334, "is_reserved": 0, "bike_id": "7575f4710f4022dbc91c62d74df236ce", "lon": -77.050508, "is_disabled": 0, "fusion_lat": 0.0, "fusion_lon": 0.0, "name": "7575f4710f4022dbc91c62d74df236ce", "type": "electric_scooter"}, {"rental_uris": {"ios": "https://dc.lft.to/lastmile_qr_scan", "android": "https://dc.lft.to/lastmile_qr_scan"}, "lat": 38.892471666666665, "is_reserved": 0, "bike_id": "e07d8496c159c1a2de3f91f92024ee3b", "lon": -77.03958716666666, "is_disabled": 0, "fusion_lat": 0.0, "fusion_lon": 0.0, "name": "e07d8496c159c1a2de3f91f92024ee3b", "type": "electric_scooter"}, {"rental_uris": {"ios": "https://dc.lft.to/lastmile_qr_scan", "android": "https://dc.lft.to/lastmile_qr_scan"}, "lat": 38.89622966666667, "is_reserved": 0, "bike_id": "e605d82242c3775d5d0ed6cc0e3d1d63", "lon": -77.00922116666666, "is_disabled": 0, "fusion_lat": 0.0, "fusion_lon": 0.0, "name": "e605d82242c3775d5d0ed6cc0e3d1d63", "type": "electric_scooter"}, {"rental_uris": {"ios": "https://dc.lft.to/lastmile_qr_scan", "android": "https://dc.lft.to/lastmile_qr_scan"}, "lat": 38.873924833333334, "is_reserved": 0, "bike_id": "e73d12ac473677d95cf38490c7391f92", "lon": -76.999916, "is_disabled": 0, "fusion_lat": 0.0, "fusion_lon": 0.0, "name": "e73d12ac473677d95cf38490c7391f92", "type": "electric_scooter"}, {"rental_uris": {"ios": "https://dc.lft.to/lastmile_qr_scan", "android": "https://dc.lft.to/lastmile_qr_scan"}, "lat": 38.88486133333333, "is_reserved": 0, "bike_id": "2c717d150a163c3529b19f0d357a35eb", "lon": -76.95653883333334, "is_disabled": 0, "fusion_lat": 0.0, "fusion_lon": 0.0, "name": "2c717d150a163c3529b19f0d357a35eb", "type": "electric_scooter"}, {"rental_uris": {"ios": "https://dc.lft.to/lastmile_qr_scan", "android": "https://dc.lft.to/lastmile_qr_scan"}, "lat": 38.9091185, "is_reserved": 0, "bike_id": "4e419b2f1023aec9672da573bf8441a9", "lon": -77.07187566666667, "is_disabled": 0, "fusion_lat": 0.0, "fusion_lon": 0.0, "name": "4e419b2f1023aec9672da573bf8441a9", "type": "electric_scooter"}, {"rental_uris": {"ios": "https://dc.lft.to/lastmile_qr_scan", "android": "https://dc.lft.to/lastmile_qr_scan"}, "lat": 38.8394525, "is_reserved": 0, "bike_id": "a312bc85197614fad6638a93c9cd70fe", "lon": -77.0875235, "is_disabled": 0, "fusion_lat": 0.0, "fusion_lon": 0.0, "name": "a312bc85197614fad6638a93c9cd70fe", "type": "electric_bike"}, {"rental_uris": {"ios": "https://dc.lft.to/lastmile_qr_scan", "android": "https://dc.lft.to/lastmile_qr_scan"}, "lat": 38.901161, "is_reserved": 0, "bike_id": "8584e6720485c8bafc0954ab242eb462", "lon": -77.03180016666667, "is_disabled": 0, "fusion_lat": 0.0, "fusion_lon": 0.0, "name": "8584e6720485c8bafc0954ab242eb462", "type": "electric_scooter"}, {"rental_uris": {"ios": "https://dc.lft.to/lastmile_qr_scan", "android": "https://dc.lft.to/lastmile_qr_scan"}, "lat": 38.90263566666667, "is_reserved": 0, "bike_id": "f68cc65d3ce1fe27edad4a87067a447b", "lon": -77.03469633333333, "is_disabled": 0, "fusion_lat": 0.0, "fusion_lon": 0.0, "name": "f68cc65d3ce1fe27edad4a87067a447b", "type": "electric_scooter"}, {"rental_uris": {"ios": "https://dc.lft.to/lastmile_qr_scan", "android": "https://dc.lft.to/lastmile_qr_scan"}, "lat": 38.9037235, "is_reserved": 0, "bike_id": "4991299f79c8b0493b8a19596390b8f8", "lon": -77.04027216666667, "is_disabled": 0, "fusion_lat": 0.0, "fusion_lon": 0.0, "name": "4991299f79c8b0493b8a19596390b8f8", "type": "electric_scooter"}, {"rental_uris": {"ios": "https://dc.lft.to/lastmile_qr_scan", "android": "https://dc.lft.to/lastmile_qr_scan"}, "lat": 38.88747766666667, "is_reserved": 0, "bike_id": "9884fb6c295bf927f1f280c82102e544", "lon": -77.02232633333334, "is_disabled": 0, "fusion_lat": 0.0, "fusion_lon": 0.0, "name": "9884fb6c295bf927f1f280c82102e544", "type": "electric_scooter"}, {"rental_uris": {"ios": "https://dc.lft.to/lastmile_qr_scan", "android": "https://dc.lft.to/lastmile_qr_scan"}, "lat": 38.92757, "is_reserved": 0, "bike_id": "aaf2be8a0aac2a5c2c9061aa67168189", "lon": -77.033076, "is_disabled": 0, "fusion_lat": 0.0, "fusion_lon": 0.0, "name": "aaf2be8a0aac2a5c2c9061aa67168189", "type": "electric_scooter"}, {"rental_uris": {"ios": "https://dc.lft.to/lastmile_qr_scan", "android": "https://dc.lft.to/lastmile_qr_scan"}, "lat": 38.92496833333333, "is_reserved": 0, "bike_id": "b492f32b346f8f670685120c4a029a57", "lon": -77.02530633333333, "is_disabled": 0, "fusion_lat": 0.0, "fusion_lon": 0.0, "name": "b492f32b346f8f670685120c4a029a57", "type": "electric_scooter"}, {"rental_uris": {"ios": "https://dc.lft.to/lastmile_qr_scan", "android": "https://dc.lft.to/lastmile_qr_scan"}, "lat": 38.891982666666664, "is_reserved": 0, "bike_id": "aeb3333b4df68e07ff112fc0d16af3eb", "lon": -77.02376266666667, "is_disabled": 0, "fusion_lat": 0.0, "fusion_lon": 0.0, "name": "aeb3333b4df68e07ff112fc0d16af3eb", "type": "electric_scooter"}, {"rental_uris": {"ios": "https://dc.lft.to/lastmile_qr_scan", "android": "https://dc.lft.to/lastmile_qr_scan"}, "lat": 38.90242833333333, "is_reserved": 0, "bike_id": "b5c10fa7a5cc75a1b7f43a7de3e3246c", "lon": -77.00201233333334, "is_disabled": 0, "fusion_lat": 0.0, "fusion_lon": 0.0, "name": "b5c10fa7a5cc75a1b7f43a7de3e3246c", "type": "electric_scooter"}, {"rental_uris": {"ios": "https://dc.lft.to/lastmile_qr_scan", "android": "https://dc.lft.to/lastmile_qr_scan"}, "lat": 38.884455, "is_reserved": 0, "bike_id": "ced2e23fae500bdb1a276981defe7e31", "lon": -76.99627133333334, "is_disabled": 0, "fusion_lat": 0.0, "fusion_lon": 0.0, "name": "ced2e23fae500bdb1a276981defe7e31", "type": "electric_scooter"}, {"rental_uris": {"ios": "https://dc.lft.to/lastmile_qr_scan", "android": "https://dc.lft.to/lastmile_qr_scan"}, "lat": 38.9181785, "is_reserved": 0, "bike_id": "3e968cf8c143d710074cfbbe4994614e", "lon": -77.02720883333333, "is_disabled": 0, "fusion_lat": 0.0, "fusion_lon": 0.0, "name": "3e968cf8c143d710074cfbbe4994614e", "type": "electric_scooter"}, {"rental_uris": {"ios": "https://dc.lft.to/lastmile_qr_scan", "android": "https://dc.lft.to/lastmile_qr_scan"}, "lat": 38.887421833333335, "is_reserved": 0, "bike_id": "a9565059d71d8274e8096c59ddcf6333", "lon": -77.0180085, "is_disabled": 0, "fusion_lat": 0.0, "fusion_lon": 0.0, "name": "a9565059d71d8274e8096c59ddcf6333", "type": "electric_scooter"}, {"rental_uris": {"ios": "https://dc.lft.to/lastmile_qr_scan", "android": "https://dc.lft.to/lastmile_qr_scan"}, "lat": 38.90180616666667, "is_reserved": 0, "bike_id": "8236bf80e637164d26288229fee3bc76", "lon": -76.92901083333334, "is_disabled": 0, "fusion_lat": 0.0, "fusion_lon": 0.0, "name": "8236bf80e637164d26288229fee3bc76", "type": "electric_scooter"}, {"rental_uris": {"ios": "https://dc.lft.to/lastmile_qr_scan", "android": "https://dc.lft.to/lastmile_qr_scan"}, "lat": 38.882658666666664, "is_reserved": 0, "bike_id": "0f0268ddc74849f698014fb14f0ec0c0", "lon": -76.99477333333333, "is_disabled": 0, "fusion_lat": 0.0, "fusion_lon": 0.0, "name": "0f0268ddc74849f698014fb14f0ec0c0", "type": "electric_scooter"}, {"rental_uris": {"ios": "https://dc.lft.to/lastmile_qr_scan", "android": "https://dc.lft.to/lastmile_qr_scan"}, "lat": 38.91776133333333, "is_reserved": 0, "bike_id": "ea0a24945a011fee19492f71b6b501bc", "lon": -77.04100383333333, "is_disabled": 0, "fusion_lat": 0.0, "fusion_lon": 0.0, "name": "ea0a24945a011fee19492f71b6b501bc", "type": "electric_scooter"}, {"rental_uris": {"ios": "https://dc.lft.to/lastmile_qr_scan", "android": "https://dc.lft.to/lastmile_qr_scan"}, "lat": 38.89222483333333, "is_reserved": 0, "bike_id": "787be910470f054a40bd957db73e1623", "lon": -77.04805, "is_disabled": 0, "fusion_lat": 0.0, "fusion_lon": 0.0, "name": "787be910470f054a40bd957db73e1623", "type": "electric_scooter"}, {"rental_uris": {"ios": "https://dc.lft.to/lastmile_qr_scan", "android": "https://dc.lft.to/lastmile_qr_scan"}, "lat": 38.923342, "is_reserved": 0, "bike_id": "4141f5613d450cef7be4a460c069e60f", "lon": -77.0418655, "is_disabled": 0, "fusion_lat": 0.0, "fusion_lon": 0.0, "name": "4141f5613d450cef7be4a460c069e60f", "type": "electric_scooter"}, {"rental_uris": {"ios": "https://dc.lft.to/lastmile_qr_scan", "android": "https://dc.lft.to/lastmile_qr_scan"}, "lat": 38.898286, "is_reserved": 0, "bike_id": "23d3666bd4b1e3ebe17a2a7f50e360f3", "lon": -77.04349916666666, "is_disabled": 0, "fusion_lat": 0.0, "fusion_lon": 0.0, "name": "23d3666bd4b1e3ebe17a2a7f50e360f3", "type": "electric_scooter"}, {"rental_uris": {"ios": "https://dc.lft.to/lastmile_qr_scan", "android": "https://dc.lft.to/lastmile_qr_scan"}, "lat": 38.8427675, "is_reserved": 0, "bike_id": "6844e51084be3ff8dee3a110d6784170", "lon": -76.98838333333333, "is_disabled": 0, "fusion_lat": 0.0, "fusion_lon": 0.0, "name": "6844e51084be3ff8dee3a110d6784170", "type": "electric_bike"}, {"rental_uris": {"ios": "https://dc.lft.to/lastmile_qr_scan", "android": "https://dc.lft.to/lastmile_qr_scan"}, "lat": 38.86506683333333, "is_reserved": 0, "bike_id": "35522a0285b5fd292b848b2b37b39d95", "lon": -76.990061, "is_disabled": 0, "fusion_lat": 0.0, "fusion_lon": 0.0, "name": "35522a0285b5fd292b848b2b37b39d95", "type": "electric_scooter"}, {"rental_uris": {"ios": "https://dc.lft.to/lastmile_qr_scan", "android": "https://dc.lft.to/lastmile_qr_scan"}, "lat": 38.904565, "is_reserved": 0, "bike_id": "a997bb0a044fae623840ef3e046118c4", "lon": -76.98254083333333, "is_disabled": 0, "fusion_lat": 0.0, "fusion_lon": 0.0, "name": "a997bb0a044fae623840ef3e046118c4", "type": "electric_scooter"}, {"rental_uris": {"ios": "https://dc.lft.to/lastmile_qr_scan", "android": "https://dc.lft.to/lastmile_qr_scan"}, "lat": 38.91772066666667, "is_reserved": 0, "bike_id": "121c76b4bc05ef72531e76f953727758", "lon": -77.04058616666667, "is_disabled": 0, "fusion_lat": 0.0, "fusion_lon": 0.0, "name": "121c76b4bc05ef72531e76f953727758", "type": "electric_scooter"}, {"rental_uris": {"ios": "https://dc.lft.to/lastmile_qr_scan", "android": "https://dc.lft.to/lastmile_qr_scan"}, "lat": 38.90016833333333, "is_reserved": 0, "bike_id": "c7e42a5f3dc881149c129afd736abb16", "lon": -76.99812983333334, "is_disabled": 0, "fusion_lat": 0.0, "fusion_lon": 0.0, "name": "c7e42a5f3dc881149c129afd736abb16", "type": "electric_scooter"}, {"rental_uris": {"ios": "https://dc.lft.to/lastmile_qr_scan", "android": "https://dc.lft.to/lastmile_qr_scan"}, "lat": 38.900300666666666, "is_reserved": 0, "bike_id": "c08bb4025b7836927972a18574bc74dc", "lon": -76.988138, "is_disabled": 0, "fusion_lat": 0.0, "fusion_lon": 0.0, "name": "c08bb4025b7836927972a18574bc74dc", "type": "electric_scooter"}, {"rental_uris": {"ios": "https://dc.lft.to/lastmile_qr_scan", "android": "https://dc.lft.to/lastmile_qr_scan"}, "lat": 38.92797383333333, "is_reserved": 0, "bike_id": "62a572761ae48c3c0bbfeb794959c808", "lon": -77.05351433333334, "is_disabled": 0, "fusion_lat": 0.0, "fusion_lon": 0.0, "name": "62a572761ae48c3c0bbfeb794959c808", "type": "electric_bike"}, {"rental_uris": {"ios": "https://dc.lft.to/lastmile_qr_scan", "android": "https://dc.lft.to/lastmile_qr_scan"}, "lat": 38.937077, "is_reserved": 0, "bike_id": "f22754b11175e45140a327219b51f5d5", "lon": -77.0323165, "is_disabled": 0, "fusion_lat": 0.0, "fusion_lon": 0.0, "name": "f22754b11175e45140a327219b51f5d5", "type": "electric_scooter"}, {"rental_uris": {"ios": "https://dc.lft.to/lastmile_qr_scan", "android": "https://dc.lft.to/lastmile_qr_scan"}, "lat": 38.932167666666665, "is_reserved": 0, "bike_id": "e50b67f01298ebc6bd962b7c9ac912e3", "lon": -77.0326025, "is_disabled": 0, "fusion_lat": 0.0, "fusion_lon": 0.0, "name": "e50b67f01298ebc6bd962b7c9ac912e3", "type": "electric_scooter"}, {"rental_uris": {"ios": "https://dc.lft.to/lastmile_qr_scan", "android": "https://dc.lft.to/lastmile_qr_scan"}, "lat": 38.90844883333333, "is_reserved": 0, "bike_id": "ed91ccda921bde57358e8de054596a73", "lon": -77.04174333333333, "is_disabled": 0, "fusion_lat": 0.0, "fusion_lon": 0.0, "name": "ed91ccda921bde57358e8de054596a73", "type": "electric_scooter"}, {"rental_uris": {"ios": "https://dc.lft.to/lastmile_qr_scan", "android": "https://dc.lft.to/lastmile_qr_scan"}, "lat": 38.900278166666666, "is_reserved": 0, "bike_id": "230f9c818c214f901ab712f8880bbeb8", "lon": -77.00203183333333, "is_disabled": 0, "fusion_lat": 0.0, "fusion_lon": 0.0, "name": "230f9c818c214f901ab712f8880bbeb8", "type": "electric_scooter"}, {"rental_uris": {"ios": "https://dc.lft.to/lastmile_qr_scan", "android": "https://dc.lft.to/lastmile_qr_scan"}, "lat": 38.94918883333333, "is_reserved": 0, "bike_id": "633045547bb2820adb52df64498da7ea", "lon": -77.006424, "is_disabled": 0, "fusion_lat": 0.0, "fusion_lon": 0.0, "name": "633045547bb2820adb52df64498da7ea", "type": "electric_bike"}, {"rental_uris": {"ios": "https://dc.lft.to/lastmile_qr_scan", "android": "https://dc.lft.to/lastmile_qr_scan"}, "lat": 38.902561666666664, "is_reserved": 0, "bike_id": "19332f6ba9ad51713a8bd8f98f556473", "lon": -77.01913783333333, "is_disabled": 0, "fusion_lat": 0.0, "fusion_lon": 0.0, "name": "19332f6ba9ad51713a8bd8f98f556473", "type": "electric_scooter"}, {"rental_uris": {"ios": "https://dc.lft.to/lastmile_qr_scan", "android": "https://dc.lft.to/lastmile_qr_scan"}, "lat": 38.91147316666667, "is_reserved": 0, "bike_id": "154fbd3f36424dc2a5f8bbfc9b1e2b67", "lon": -77.03202733333333, "is_disabled": 0, "fusion_lat": 0.0, "fusion_lon": 0.0, "name": "154fbd3f36424dc2a5f8bbfc9b1e2b67", "type": "electric_bike"}, {"rental_uris": {"ios": "https://dc.lft.to/lastmile_qr_scan", "android": "https://dc.lft.to/lastmile_qr_scan"}, "lat": 38.9037685, "is_reserved": 0, "bike_id": "4483e8c758a23c42215f7c72257b3807", "lon": -77.04010533333333, "is_disabled": 0, "fusion_lat": 0.0, "fusion_lon": 0.0, "name": "4483e8c758a23c42215f7c72257b3807", "type": "electric_scooter"}, {"rental_uris": {"ios": "https://dc.lft.to/lastmile_qr_scan", "android": "https://dc.lft.to/lastmile_qr_scan"}, "lat": 38.9055445, "is_reserved": 0, "bike_id": "a4b71805455a5c26f164501cfc08b942", "lon": -77.03460966666667, "is_disabled": 0, "fusion_lat": 0.0, "fusion_lon": 0.0, "name": "a4b71805455a5c26f164501cfc08b942", "type": "electric_scooter"}, {"rental_uris": {"ios": "https://dc.lft.to/lastmile_qr_scan", "android": "https://dc.lft.to/lastmile_qr_scan"}, "lat": 38.866926666666664, "is_reserved": 0, "bike_id": "00f5b0b33a0fdf20855080715566cb56", "lon": -76.98541416666667, "is_disabled": 0, "fusion_lat": 0.0, "fusion_lon": 0.0, "name": "00f5b0b33a0fdf20855080715566cb56", "type": "electric_scooter"}, {"rental_uris": {"ios": "https://dc.lft.to/lastmile_qr_scan", "android": "https://dc.lft.to/lastmile_qr_scan"}, "lat": 38.941548833333336, "is_reserved": 0, "bike_id": "fae49cf7eec766b41cc40c7efbb2f078", "lon": -77.00195683333334, "is_disabled": 0, "fusion_lat": 0.0, "fusion_lon": 0.0, "name": "fae49cf7eec766b41cc40c7efbb2f078", "type": "electric_bike"}, {"rental_uris": {"ios": "https://dc.lft.to/lastmile_qr_scan", "android": "https://dc.lft.to/lastmile_qr_scan"}, "lat": 38.9327075, "is_reserved": 0, "bike_id": "7416cca1908e0c97159d09d841d24274", "lon": -77.04533983333333, "is_disabled": 0, "fusion_lat": 0.0, "fusion_lon": 0.0, "name": "7416cca1908e0c97159d09d841d24274", "type": "electric_scooter"}, {"rental_uris": {"ios": "https://dc.lft.to/lastmile_qr_scan", "android": "https://dc.lft.to/lastmile_qr_scan"}, "lat": 38.90113, "is_reserved": 0, "bike_id": "4142233f8a919af2cfb66ac58e540c88", "lon": -77.03711883333334, "is_disabled": 0, "fusion_lat": 0.0, "fusion_lon": 0.0, "name": "4142233f8a919af2cfb66ac58e540c88", "type": "electric_scooter"}, {"rental_uris": {"ios": "https://dc.lft.to/lastmile_qr_scan", "android": "https://dc.lft.to/lastmile_qr_scan"}, "lat": 38.917124333333334, "is_reserved": 0, "bike_id": "68f1c900f4bfce65046965c2bdfebae7", "lon": -77.0386695, "is_disabled": 0, "fusion_lat": 0.0, "fusion_lon": 0.0, "name": "68f1c900f4bfce65046965c2bdfebae7", "type": "electric_scooter"}, {"rental_uris": {"ios": "https://dc.lft.to/lastmile_qr_scan", "android": "https://dc.lft.to/lastmile_qr_scan"}, "lat": 38.91192516666667, "is_reserved": 0, "bike_id": "7e992f8d4244279e0aa01d053dc46ca6", "lon": -77.07318233333334, "is_disabled": 0, "fusion_lat": 0.0, "fusion_lon": 0.0, "name": "7e992f8d4244279e0aa01d053dc46ca6", "type": "electric_scooter"}, {"rental_uris": {"ios": "https://dc.lft.to/lastmile_qr_scan", "android": "https://dc.lft.to/lastmile_qr_scan"}, "lat": 38.976291333333336, "is_reserved": 0, "bike_id": "d1e8e2749f74287584f5fdc3b1833d9f", "lon": -77.01566266666667, "is_disabled": 0, "fusion_lat": 0.0, "fusion_lon": 0.0, "name": "d1e8e2749f74287584f5fdc3b1833d9f", "type": "electric_scooter"}, {"rental_uris": {"ios": "https://dc.lft.to/lastmile_qr_scan", "android": "https://dc.lft.to/lastmile_qr_scan"}, "lat": 38.94450166666667, "is_reserved": 0, "bike_id": "836a97474158b0a1a4ba473f5f67e1f2", "lon": -77.0234565, "is_disabled": 0, "fusion_lat": 0.0, "fusion_lon": 0.0, "name": "836a97474158b0a1a4ba473f5f67e1f2", "type": "electric_scooter"}, {"rental_uris": {"ios": "https://dc.lft.to/lastmile_qr_scan", "android": "https://dc.lft.to/lastmile_qr_scan"}, "lat": 38.903931, "is_reserved": 0, "bike_id": "9ecf5ac5303b989ce103308b5ecb1c46", "lon": -77.0436135, "is_disabled": 0, "fusion_lat": 0.0, "fusion_lon": 0.0, "name": "9ecf5ac5303b989ce103308b5ecb1c46", "type": "electric_scooter"}, {"rental_uris": {"ios": "https://dc.lft.to/lastmile_qr_scan", "android": "https://dc.lft.to/lastmile_qr_scan"}, "lat": 38.91957, "is_reserved": 0, "bike_id": "f5f453b06fd81ee10d1f790c40959b48", "lon": -77.04164683333333, "is_disabled": 0, "fusion_lat": 0.0, "fusion_lon": 0.0, "name": "f5f453b06fd81ee10d1f790c40959b48", "type": "electric_scooter"}, {"rental_uris": {"ios": "https://dc.lft.to/lastmile_qr_scan", "android": "https://dc.lft.to/lastmile_qr_scan"}, "lat": 38.88010366666666, "is_reserved": 0, "bike_id": "e54e1949e371faffdfde2b4044d6b58e", "lon": -77.02484733333333, "is_disabled": 0, "fusion_lat": 0.0, "fusion_lon": 0.0, "name": "e54e1949e371faffdfde2b4044d6b58e", "type": "electric_scooter"}, {"rental_uris": {"ios": "https://dc.lft.to/lastmile_qr_scan", "android": "https://dc.lft.to/lastmile_qr_scan"}, "lat": 38.8923275, "is_reserved": 0, "bike_id": "646c112dfe228cdd3cf4f9ad13ae5cbf", "lon": -77.022078, "is_disabled": 0, "fusion_lat": 0.0, "fusion_lon": 0.0, "name": "646c112dfe228cdd3cf4f9ad13ae5cbf", "type": "electric_scooter"}, {"rental_uris": {"ios": "https://dc.lft.to/lastmile_qr_scan", "android": "https://dc.lft.to/lastmile_qr_scan"}, "lat": 38.91348516666667, "is_reserved": 0, "bike_id": "dde27de763d1260d2a6e81c0defa12fc", "lon": -77.04400533333333, "is_disabled": 0, "fusion_lat": 0.0, "fusion_lon": 0.0, "name": "dde27de763d1260d2a6e81c0defa12fc", "type": "electric_scooter"}, {"rental_uris": {"ios": "https://dc.lft.to/lastmile_qr_scan", "android": "https://dc.lft.to/lastmile_qr_scan"}, "lat": 38.9204925, "is_reserved": 0, "bike_id": "af212cb012ab5f35de4f9f1a6910f943", "lon": -77.02573683333334, "is_disabled": 0, "fusion_lat": 0.0, "fusion_lon": 0.0, "name": "af212cb012ab5f35de4f9f1a6910f943", "type": "electric_scooter"}, {"rental_uris": {"ios": "https://dc.lft.to/lastmile_qr_scan", "android": "https://dc.lft.to/lastmile_qr_scan"}, "lat": 38.92139, "is_reserved": 0, "bike_id": "ddc7eeacb671ee4802f634d7b951a84c", "lon": -77.01160733333333, "is_disabled": 0, "fusion_lat": 0.0, "fusion_lon": 0.0, "name": "ddc7eeacb671ee4802f634d7b951a84c", "type": "electric_scooter"}, {"rental_uris": {"ios": "https://dc.lft.to/lastmile_qr_scan", "android": "https://dc.lft.to/lastmile_qr_scan"}, "lat": 38.895209, "is_reserved": 0, "bike_id": "dc1585a29fc13625fe365207a863db81", "lon": -77.02615683333333, "is_disabled": 0, "fusion_lat": 0.0, "fusion_lon": 0.0, "name": "dc1585a29fc13625fe365207a863db81", "type": "electric_scooter"}, {"rental_uris": {"ios": "https://dc.lft.to/lastmile_qr_scan", "android": "https://dc.lft.to/lastmile_qr_scan"}, "lat": 38.9166285, "is_reserved": 0, "bike_id": "166888afb9813af05d88b93e06887a0d", "lon": -77.02713566666667, "is_disabled": 0, "fusion_lat": 0.0, "fusion_lon": 0.0, "name": "166888afb9813af05d88b93e06887a0d", "type": "electric_scooter"}, {"rental_uris": {"ios": "https://dc.lft.to/lastmile_qr_scan", "android": "https://dc.lft.to/lastmile_qr_scan"}, "lat": 38.91613366666667, "is_reserved": 0, "bike_id": "e18380c595d6a9757acc6cd01ed3cbbf", "lon": -77.04290866666666, "is_disabled": 0, "fusion_lat": 0.0, "fusion_lon": 0.0, "name": "e18380c595d6a9757acc6cd01ed3cbbf", "type": "electric_scooter"}, {"rental_uris": {"ios": "https://dc.lft.to/lastmile_qr_scan", "android": "https://dc.lft.to/lastmile_qr_scan"}, "lat": 38.90271766666667, "is_reserved": 0, "bike_id": "0efc08be3dbe192ad746398474b44e32", "lon": -77.03998383333334, "is_disabled": 0, "fusion_lat": 0.0, "fusion_lon": 0.0, "name": "0efc08be3dbe192ad746398474b44e32", "type": "electric_scooter"}, {"rental_uris": {"ios": "https://dc.lft.to/lastmile_qr_scan", "android": "https://dc.lft.to/lastmile_qr_scan"}, "lat": 38.99220533333333, "is_reserved": 0, "bike_id": "fe671246724833645a3b6f107f26445d", "lon": -76.94426366666667, "is_disabled": 0, "fusion_lat": 0.0, "fusion_lon": 0.0, "name": "fe671246724833645a3b6f107f26445d", "type": "electric_bike"}, {"rental_uris": {"ios": "https://dc.lft.to/lastmile_qr_scan", "android": "https://dc.lft.to/lastmile_qr_scan"}, "lat": 38.919123666666664, "is_reserved": 0, "bike_id": "3967cb1271c3d141654a588856350198", "lon": -77.03223133333333, "is_disabled": 0, "fusion_lat": 0.0, "fusion_lon": 0.0, "name": "3967cb1271c3d141654a588856350198", "type": "electric_scooter"}, {"rental_uris": {"ios": "https://dc.lft.to/lastmile_qr_scan", "android": "https://dc.lft.to/lastmile_qr_scan"}, "lat": 38.898083, "is_reserved": 0, "bike_id": "85a688e2cc8a4e649e801ba304d329bb", "lon": -77.03325783333334, "is_disabled": 0, "fusion_lat": 0.0, "fusion_lon": 0.0, "name": "85a688e2cc8a4e649e801ba304d329bb", "type": "electric_scooter"}, {"rental_uris": {"ios": "https://dc.lft.to/lastmile_qr_scan", "android": "https://dc.lft.to/lastmile_qr_scan"}, "lat": 38.964747833333334, "is_reserved": 0, "bike_id": "4b3148ca2a96a3d4f8822f49ede57fc9", "lon": -77.01198766666667, "is_disabled": 0, "fusion_lat": 0.0, "fusion_lon": 0.0, "name": "4b3148ca2a96a3d4f8822f49ede57fc9", "type": "electric_scooter"}, {"rental_uris": {"ios": "https://dc.lft.to/lastmile_qr_scan", "android": "https://dc.lft.to/lastmile_qr_scan"}, "lat": 38.8578685, "is_reserved": 0, "bike_id": "081a5bcbca47b1b20635b30ec2fc5235", "lon": -77.12018516666667, "is_disabled": 0, "fusion_lat": 0.0, "fusion_lon": 0.0, "name": "081a5bcbca47b1b20635b30ec2fc5235", "type": "electric_bike"}, {"rental_uris": {"ios": "https://dc.lft.to/lastmile_qr_scan", "android": "https://dc.lft.to/lastmile_qr_scan"}, "lat": 38.91841566666667, "is_reserved": 0, "bike_id": "df8270df22b52b9cd87f4817f09e6496", "lon": -77.04025716666666, "is_disabled": 0, "fusion_lat": 0.0, "fusion_lon": 0.0, "name": "df8270df22b52b9cd87f4817f09e6496", "type": "electric_scooter"}, {"rental_uris": {"ios": "https://dc.lft.to/lastmile_qr_scan", "android": "https://dc.lft.to/lastmile_qr_scan"}, "lat": 38.9407005, "is_reserved": 0, "bike_id": "6f438674ea02ddd2c7eb653576c16caf", "lon": -76.9993765, "is_disabled": 0, "fusion_lat": 0.0, "fusion_lon": 0.0, "name": "6f438674ea02ddd2c7eb653576c16caf", "type": "electric_scooter"}, {"rental_uris": {"ios": "https://dc.lft.to/lastmile_qr_scan", "android": "https://dc.lft.to/lastmile_qr_scan"}, "lat": 38.8920585, "is_reserved": 0, "bike_id": "cde2c02c193347ea9d06d295f8a1e97a", "lon": -76.956995, "is_disabled": 0, "fusion_lat": 0.0, "fusion_lon": 0.0, "name": "cde2c02c193347ea9d06d295f8a1e97a", "type": "electric_scooter"}, {"rental_uris": {"ios": "https://dc.lft.to/lastmile_qr_scan", "android": "https://dc.lft.to/lastmile_qr_scan"}, "lat": 38.89736166666667, "is_reserved": 0, "bike_id": "2f95eb3c234adbdc574c07fb9eeeea5e", "lon": -77.04741333333334, "is_disabled": 0, "fusion_lat": 0.0, "fusion_lon": 0.0, "name": "2f95eb3c234adbdc574c07fb9eeeea5e", "type": "electric_scooter"}, {"rental_uris": {"ios": "https://dc.lft.to/lastmile_qr_scan", "android": "https://dc.lft.to/lastmile_qr_scan"}, "lat": 38.8961855, "is_reserved": 0, "bike_id": "4d130773a48c8b8ba2f62fa6a705a160", "lon": -77.02687783333333, "is_disabled": 0, "fusion_lat": 0.0, "fusion_lon": 0.0, "name": "4d130773a48c8b8ba2f62fa6a705a160", "type": "electric_scooter"}, {"rental_uris": {"ios": "https://dc.lft.to/lastmile_qr_scan", "android": "https://dc.lft.to/lastmile_qr_scan"}, "lat": 38.89438283333333, "is_reserved": 0, "bike_id": "f326cebafab55be0c39f5ea50d38a59c", "lon": -76.98359916666666, "is_disabled": 0, "fusion_lat": 0.0, "fusion_lon": 0.0, "name": "f326cebafab55be0c39f5ea50d38a59c", "type": "electric_scooter"}, {"rental_uris": {"ios": "https://dc.lft.to/lastmile_qr_scan", "android": "https://dc.lft.to/lastmile_qr_scan"}, "lat": 38.894606, "is_reserved": 0, "bike_id": "f6a2a5890ce321e458e877f63ef51c89", "lon": -77.02676483333333, "is_disabled": 0, "fusion_lat": 0.0, "fusion_lon": 0.0, "name": "f6a2a5890ce321e458e877f63ef51c89", "type": "electric_scooter"}, {"rental_uris": {"ios": "https://dc.lft.to/lastmile_qr_scan", "android": "https://dc.lft.to/lastmile_qr_scan"}, "lat": 38.8925635, "is_reserved": 0, "bike_id": "f44625d1e800c5ced63dac837f96c258", "lon": -77.01956966666667, "is_disabled": 0, "fusion_lat": 0.0, "fusion_lon": 0.0, "name": "f44625d1e800c5ced63dac837f96c258", "type": "electric_scooter"}, {"rental_uris": {"ios": "https://dc.lft.to/lastmile_qr_scan", "android": "https://dc.lft.to/lastmile_qr_scan"}, "lat": 38.92347433333333, "is_reserved": 0, "bike_id": "bf3434ab9de811f83edcfcabd55a122a", "lon": -77.03544183333334, "is_disabled": 0, "fusion_lat": 0.0, "fusion_lon": 0.0, "name": "bf3434ab9de811f83edcfcabd55a122a", "type": "electric_scooter"}, {"rental_uris": {"ios": "https://dc.lft.to/lastmile_qr_scan", "android": "https://dc.lft.to/lastmile_qr_scan"}, "lat": 38.905314833333335, "is_reserved": 0, "bike_id": "48608968661f09f7483fa25927aee434", "lon": -77.05849483333333, "is_disabled": 0, "fusion_lat": 0.0, "fusion_lon": 0.0, "name": "48608968661f09f7483fa25927aee434", "type": "electric_scooter"}, {"rental_uris": {"ios": "https://dc.lft.to/lastmile_qr_scan", "android": "https://dc.lft.to/lastmile_qr_scan"}, "lat": 38.908586, "is_reserved": 0, "bike_id": "d500274c9d3bc78d5ec81f75925aa102", "lon": -77.02253783333333, "is_disabled": 0, "fusion_lat": 0.0, "fusion_lon": 0.0, "name": "d500274c9d3bc78d5ec81f75925aa102", "type": "electric_scooter"}, {"rental_uris": {"ios": "https://dc.lft.to/lastmile_qr_scan", "android": "https://dc.lft.to/lastmile_qr_scan"}, "lat": 38.92656383333333, "is_reserved": 0, "bike_id": "76994960a9800ded5154f2af4daf0cb9", "lon": -77.02424616666667, "is_disabled": 0, "fusion_lat": 0.0, "fusion_lon": 0.0, "name": "76994960a9800ded5154f2af4daf0cb9", "type": "electric_scooter"}, {"rental_uris": {"ios": "https://dc.lft.to/lastmile_qr_scan", "android": "https://dc.lft.to/lastmile_qr_scan"}, "lat": 38.9073005, "is_reserved": 0, "bike_id": "a4ac401075c31c0a27c0ea263575deea", "lon": -77.02369433333334, "is_disabled": 0, "fusion_lat": 0.0, "fusion_lon": 0.0, "name": "a4ac401075c31c0a27c0ea263575deea", "type": "electric_scooter"}, {"rental_uris": {"ios": "https://dc.lft.to/lastmile_qr_scan", "android": "https://dc.lft.to/lastmile_qr_scan"}, "lat": 38.90024833333333, "is_reserved": 0, "bike_id": "d382a719119abf21e30522375e9ab676", "lon": -76.99552883333334, "is_disabled": 0, "fusion_lat": 0.0, "fusion_lon": 0.0, "name": "d382a719119abf21e30522375e9ab676", "type": "electric_scooter"}, {"rental_uris": {"ios": "https://dc.lft.to/lastmile_qr_scan", "android": "https://dc.lft.to/lastmile_qr_scan"}, "lat": 38.952325, "is_reserved": 0, "bike_id": "f04c8fb2cf51c8428575ebf449884ddf", "lon": -77.01377833333333, "is_disabled": 0, "fusion_lat": 0.0, "fusion_lon": 0.0, "name": "f04c8fb2cf51c8428575ebf449884ddf", "type": "electric_scooter"}, {"rental_uris": {"ios": "https://dc.lft.to/lastmile_qr_scan", "android": "https://dc.lft.to/lastmile_qr_scan"}, "lat": 38.88492866666667, "is_reserved": 0, "bike_id": "d3c067519aa7e32dab6ecd9ea832dd66", "lon": -77.00707816666667, "is_disabled": 0, "fusion_lat": 0.0, "fusion_lon": 0.0, "name": "d3c067519aa7e32dab6ecd9ea832dd66", "type": "electric_scooter"}, {"rental_uris": {"ios": "https://dc.lft.to/lastmile_qr_scan", "android": "https://dc.lft.to/lastmile_qr_scan"}, "lat": 38.902232, "is_reserved": 0, "bike_id": "aa3e4e25ec8c0068154c0e2b8060a26e", "lon": -77.04339916666666, "is_disabled": 0, "fusion_lat": 0.0, "fusion_lon": 0.0, "name": "aa3e4e25ec8c0068154c0e2b8060a26e", "type": "electric_scooter"}, {"rental_uris": {"ios": "https://dc.lft.to/lastmile_qr_scan", "android": "https://dc.lft.to/lastmile_qr_scan"}, "lat": 38.9158955, "is_reserved": 0, "bike_id": "2ad01370bec0ab8fa55abf08aaad44d3", "lon": -77.04660933333334, "is_disabled": 0, "fusion_lat": 0.0, "fusion_lon": 0.0, "name": "2ad01370bec0ab8fa55abf08aaad44d3", "type": "electric_scooter"}, {"rental_uris": {"ios": "https://dc.lft.to/lastmile_qr_scan", "android": "https://dc.lft.to/lastmile_qr_scan"}, "lat": 38.9073095, "is_reserved": 0, "bike_id": "760bd08f935fbbd80286134b9eb8e5b1", "lon": -77.04275, "is_disabled": 0, "fusion_lat": 0.0, "fusion_lon": 0.0, "name": "760bd08f935fbbd80286134b9eb8e5b1", "type": "electric_scooter"}, {"rental_uris": {"ios": "https://dc.lft.to/lastmile_qr_scan", "android": "https://dc.lft.to/lastmile_qr_scan"}, "lat": 38.92477933333333, "is_reserved": 0, "bike_id": "b0d3013ffe802c8a8edbd9fec458ebae", "lon": -77.0264775, "is_disabled": 0, "fusion_lat": 0.0, "fusion_lon": 0.0, "name": "b0d3013ffe802c8a8edbd9fec458ebae", "type": "electric_scooter"}, {"rental_uris": {"ios": "https://dc.lft.to/lastmile_qr_scan", "android": "https://dc.lft.to/lastmile_qr_scan"}, "lat": 38.91674166666667, "is_reserved": 0, "bike_id": "d589390fd48288595d581d5ff3a8429d", "lon": -77.00346416666666, "is_disabled": 0, "fusion_lat": 0.0, "fusion_lon": 0.0, "name": "d589390fd48288595d581d5ff3a8429d", "type": "electric_scooter"}, {"rental_uris": {"ios": "https://dc.lft.to/lastmile_qr_scan", "android": "https://dc.lft.to/lastmile_qr_scan"}, "lat": 38.9033785, "is_reserved": 0, "bike_id": "cde6cafe2782cb3bd03579eb7a45f98a", "lon": -77.04344316666666, "is_disabled": 0, "fusion_lat": 0.0, "fusion_lon": 0.0, "name": "cde6cafe2782cb3bd03579eb7a45f98a", "type": "electric_scooter"}, {"rental_uris": {"ios": "https://dc.lft.to/lastmile_qr_scan", "android": "https://dc.lft.to/lastmile_qr_scan"}, "lat": 38.86761333333333, "is_reserved": 0, "bike_id": "b1d849e1541e3a65f3e303be59557507", "lon": -76.982768, "is_disabled": 0, "fusion_lat": 0.0, "fusion_lon": 0.0, "name": "b1d849e1541e3a65f3e303be59557507", "type": "electric_scooter"}, {"rental_uris": {"ios": "https://dc.lft.to/lastmile_qr_scan", "android": "https://dc.lft.to/lastmile_qr_scan"}, "lat": 38.88134866666667, "is_reserved": 0, "bike_id": "9558548e4f4a4eaf09b683f6f20bc582", "lon": -77.02708916666667, "is_disabled": 0, "fusion_lat": 0.0, "fusion_lon": 0.0, "name": "9558548e4f4a4eaf09b683f6f20bc582", "type": "electric_scooter"}, {"rental_uris": {"ios": "https://dc.lft.to/lastmile_qr_scan", "android": "https://dc.lft.to/lastmile_qr_scan"}, "lat": 38.8948565, "is_reserved": 0, "bike_id": "1816ea4cb0aac2be9244ce8d12a7433d", "lon": -77.00259366666667, "is_disabled": 0, "fusion_lat": 0.0, "fusion_lon": 0.0, "name": "1816ea4cb0aac2be9244ce8d12a7433d", "type": "electric_scooter"}, {"rental_uris": {"ios": "https://dc.lft.to/lastmile_qr_scan", "android": "https://dc.lft.to/lastmile_qr_scan"}, "lat": 38.919806, "is_reserved": 0, "bike_id": "9c8fd71882e11aa513a72c893f6e8b0e", "lon": -77.03962066666666, "is_disabled": 0, "fusion_lat": 0.0, "fusion_lon": 0.0, "name": "9c8fd71882e11aa513a72c893f6e8b0e", "type": "electric_scooter"}, {"rental_uris": {"ios": "https://dc.lft.to/lastmile_qr_scan", "android": "https://dc.lft.to/lastmile_qr_scan"}, "lat": 38.9564185, "is_reserved": 0, "bike_id": "40775095e71cc8e36810f9ecc2ef7b65", "lon": -77.01616766666666, "is_disabled": 0, "fusion_lat": 0.0, "fusion_lon": 0.0, "name": "40775095e71cc8e36810f9ecc2ef7b65", "type": "electric_scooter"}, {"rental_uris": {"ios": "https://dc.lft.to/lastmile_qr_scan", "android": "https://dc.lft.to/lastmile_qr_scan"}, "lat": 38.93703716666667, "is_reserved": 0, "bike_id": "a6afbbdeea44745750203de11f8c614a", "lon": -77.0559975, "is_disabled": 0, "fusion_lat": 0.0, "fusion_lon": 0.0, "name": "a6afbbdeea44745750203de11f8c614a", "type": "electric_scooter"}, {"rental_uris": {"ios": "https://dc.lft.to/lastmile_qr_scan", "android": "https://dc.lft.to/lastmile_qr_scan"}, "lat": 38.9050765, "is_reserved": 0, "bike_id": "8b7f98d7d9157ee01f7b84292f2b9ec7", "lon": -77.0417955, "is_disabled": 0, "fusion_lat": 0.0, "fusion_lon": 0.0, "name": "8b7f98d7d9157ee01f7b84292f2b9ec7", "type": "electric_scooter"}, {"rental_uris": {"ios": "https://dc.lft.to/lastmile_qr_scan", "android": "https://dc.lft.to/lastmile_qr_scan"}, "lat": 38.9012985, "is_reserved": 0, "bike_id": "b6cf341aea243fce651bf069d793f410", "lon": -77.018176, "is_disabled": 0, "fusion_lat": 0.0, "fusion_lon": 0.0, "name": "b6cf341aea243fce651bf069d793f410", "type": "electric_scooter"}, {"rental_uris": {"ios": "https://dc.lft.to/lastmile_qr_scan", "android": "https://dc.lft.to/lastmile_qr_scan"}, "lat": 38.933779, "is_reserved": 0, "bike_id": "8ca1c0c0520eb45ea319ebae133c0be7", "lon": -76.99512933333334, "is_disabled": 0, "fusion_lat": 0.0, "fusion_lon": 0.0, "name": "8ca1c0c0520eb45ea319ebae133c0be7", "type": "electric_bike"}, {"rental_uris": {"ios": "https://dc.lft.to/lastmile_qr_scan", "android": "https://dc.lft.to/lastmile_qr_scan"}, "lat": 38.91421616666667, "is_reserved": 0, "bike_id": "c4aca79a3a26399edbd787a560103836", "lon": -77.03171983333333, "is_disabled": 0, "fusion_lat": 0.0, "fusion_lon": 0.0, "name": "c4aca79a3a26399edbd787a560103836", "type": "electric_scooter"}, {"rental_uris": {"ios": "https://dc.lft.to/lastmile_qr_scan", "android": "https://dc.lft.to/lastmile_qr_scan"}, "lat": 38.9285785, "is_reserved": 0, "bike_id": "2dc203d0578f9d420cf799d1219b74da", "lon": -77.01421216666667, "is_disabled": 0, "fusion_lat": 0.0, "fusion_lon": 0.0, "name": "2dc203d0578f9d420cf799d1219b74da", "type": "electric_scooter"}, {"rental_uris": {"ios": "https://dc.lft.to/lastmile_qr_scan", "android": "https://dc.lft.to/lastmile_qr_scan"}, "lat": 38.923231333333334, "is_reserved": 0, "bike_id": "b9e1e8a0dae17bcaa45d7e132859a1dd", "lon": -77.019541, "is_disabled": 0, "fusion_lat": 0.0, "fusion_lon": 0.0, "name": "b9e1e8a0dae17bcaa45d7e132859a1dd", "type": "electric_scooter"}, {"rental_uris": {"ios": "https://dc.lft.to/lastmile_qr_scan", "android": "https://dc.lft.to/lastmile_qr_scan"}, "lat": 38.89528166666667, "is_reserved": 0, "bike_id": "3e9f826346c219e71d6ac03894b7e528", "lon": -77.02419883333333, "is_disabled": 0, "fusion_lat": 0.0, "fusion_lon": 0.0, "name": "3e9f826346c219e71d6ac03894b7e528", "type": "electric_scooter"}, {"rental_uris": {"ios": "https://dc.lft.to/lastmile_qr_scan", "android": "https://dc.lft.to/lastmile_qr_scan"}, "lat": 38.840540833333336, "is_reserved": 0, "bike_id": "a2c44bab93032f480ef2076520ede981", "lon": -76.97666516666666, "is_disabled": 0, "fusion_lat": 0.0, "fusion_lon": 0.0, "name": "a2c44bab93032f480ef2076520ede981", "type": "electric_scooter"}, {"rental_uris": {"ios": "https://dc.lft.to/lastmile_qr_scan", "android": "https://dc.lft.to/lastmile_qr_scan"}, "lat": 38.898282, "is_reserved": 0, "bike_id": "df5408876169abce296b76925e83f03f", "lon": -76.93179583333334, "is_disabled": 0, "fusion_lat": 0.0, "fusion_lon": 0.0, "name": "df5408876169abce296b76925e83f03f", "type": "electric_scooter"}, {"rental_uris": {"ios": "https://dc.lft.to/lastmile_qr_scan", "android": "https://dc.lft.to/lastmile_qr_scan"}, "lat": 38.926770833333336, "is_reserved": 0, "bike_id": "805cbee864a6584797cf6d480f123c62", "lon": -77.03799733333334, "is_disabled": 0, "fusion_lat": 0.0, "fusion_lon": 0.0, "name": "805cbee864a6584797cf6d480f123c62", "type": "electric_scooter"}, {"rental_uris": {"ios": "https://dc.lft.to/lastmile_qr_scan", "android": "https://dc.lft.to/lastmile_qr_scan"}, "lat": 38.9174875, "is_reserved": 0, "bike_id": "f847d4b6720e25fd8b73b4229325a9c3", "lon": -77.02816766666666, "is_disabled": 0, "fusion_lat": 0.0, "fusion_lon": 0.0, "name": "f847d4b6720e25fd8b73b4229325a9c3", "type": "electric_scooter"}, {"rental_uris": {"ios": "https://dc.lft.to/lastmile_qr_scan", "android": "https://dc.lft.to/lastmile_qr_scan"}, "lat": 38.91584566666667, "is_reserved": 0, "bike_id": "bef34178fc72c06b646bb65b5cd98245", "lon": -77.04634933333334, "is_disabled": 0, "fusion_lat": 0.0, "fusion_lon": 0.0, "name": "bef34178fc72c06b646bb65b5cd98245", "type": "electric_scooter"}, {"rental_uris": {"ios": "https://dc.lft.to/lastmile_qr_scan", "android": "https://dc.lft.to/lastmile_qr_scan"}, "lat": 38.90843566666667, "is_reserved": 0, "bike_id": "11128dec7043d8da6e24eb7c48c55821", "lon": -77.02694783333334, "is_disabled": 0, "fusion_lat": 0.0, "fusion_lon": 0.0, "name": "11128dec7043d8da6e24eb7c48c55821", "type": "electric_scooter"}, {"rental_uris": {"ios": "https://dc.lft.to/lastmile_qr_scan", "android": "https://dc.lft.to/lastmile_qr_scan"}, "lat": 38.873791833333335, "is_reserved": 0, "bike_id": "f61259527a176f1ce14c9f4e92c4306b", "lon": -77.0011665, "is_disabled": 0, "fusion_lat": 0.0, "fusion_lon": 0.0, "name": "f61259527a176f1ce14c9f4e92c4306b", "type": "electric_scooter"}, {"rental_uris": {"ios": "https://dc.lft.to/lastmile_qr_scan", "android": "https://dc.lft.to/lastmile_qr_scan"}, "lat": 38.92422933333334, "is_reserved": 0, "bike_id": "991e441f6dbf07342ae7a6e8a51a2cb8", "lon": -77.0194545, "is_disabled": 0, "fusion_lat": 0.0, "fusion_lon": 0.0, "name": "991e441f6dbf07342ae7a6e8a51a2cb8", "type": "electric_scooter"}, {"rental_uris": {"ios": "https://dc.lft.to/lastmile_qr_scan", "android": "https://dc.lft.to/lastmile_qr_scan"}, "lat": 38.93399633333333, "is_reserved": 0, "bike_id": "20a841a2e40d01be21d7964947fd5bf1", "lon": -77.0574465, "is_disabled": 0, "fusion_lat": 0.0, "fusion_lon": 0.0, "name": "20a841a2e40d01be21d7964947fd5bf1", "type": "electric_scooter"}, {"rental_uris": {"ios": "https://dc.lft.to/lastmile_qr_scan", "android": "https://dc.lft.to/lastmile_qr_scan"}, "lat": 38.91416566666667, "is_reserved": 0, "bike_id": "477d46a8f3bfdd2166b1e65eb7d5f5be", "lon": -77.02332516666667, "is_disabled": 0, "fusion_lat": 0.0, "fusion_lon": 0.0, "name": "477d46a8f3bfdd2166b1e65eb7d5f5be", "type": "electric_scooter"}, {"rental_uris": {"ios": "https://dc.lft.to/lastmile_qr_scan", "android": "https://dc.lft.to/lastmile_qr_scan"}, "lat": 38.884881, "is_reserved": 0, "bike_id": "915c0fc44fd8952b8ed29a6832cc3531", "lon": -77.0071025, "is_disabled": 0, "fusion_lat": 0.0, "fusion_lon": 0.0, "name": "915c0fc44fd8952b8ed29a6832cc3531", "type": "electric_scooter"}, {"rental_uris": {"ios": "https://dc.lft.to/lastmile_qr_scan", "android": "https://dc.lft.to/lastmile_qr_scan"}, "lat": 38.906475666666665, "is_reserved": 0, "bike_id": "5ee5d82bc0219c911fd47a3006832246", "lon": -77.02529716666666, "is_disabled": 0, "fusion_lat": 0.0, "fusion_lon": 0.0, "name": "5ee5d82bc0219c911fd47a3006832246", "type": "electric_scooter"}, {"rental_uris": {"ios": "https://dc.lft.to/lastmile_qr_scan", "android": "https://dc.lft.to/lastmile_qr_scan"}, "lat": 38.93095433333333, "is_reserved": 0, "bike_id": "a0632d95957e7032ca53d0b16d4d7a8f", "lon": -77.02480633333333, "is_disabled": 0, "fusion_lat": 0.0, "fusion_lon": 0.0, "name": "a0632d95957e7032ca53d0b16d4d7a8f", "type": "electric_scooter"}, {"rental_uris": {"ios": "https://dc.lft.to/lastmile_qr_scan", "android": "https://dc.lft.to/lastmile_qr_scan"}, "lat": 39.03405033333333, "is_reserved": 0, "bike_id": "5ce3606d923d59ac1eab95ca516cf977", "lon": -77.04169116666667, "is_disabled": 0, "fusion_lat": 0.0, "fusion_lon": 0.0, "name": "5ce3606d923d59ac1eab95ca516cf977", "type": "electric_bike"}, {"rental_uris": {"ios": "https://dc.lft.to/lastmile_qr_scan", "android": "https://dc.lft.to/lastmile_qr_scan"}, "lat": 38.927892666666665, "is_reserved": 0, "bike_id": "166f789c3d049d6b302246dac4ac126c", "lon": -77.05532533333333, "is_disabled": 0, "fusion_lat": 0.0, "fusion_lon": 0.0, "name": "166f789c3d049d6b302246dac4ac126c", "type": "electric_scooter"}, {"rental_uris": {"ios": "https://dc.lft.to/lastmile_qr_scan", "android": "https://dc.lft.to/lastmile_qr_scan"}, "lat": 38.874849833333336, "is_reserved": 0, "bike_id": "4e31af37f8e0677e4f90512b7a2ebf93", "lon": -77.00833766666666, "is_disabled": 0, "fusion_lat": 0.0, "fusion_lon": 0.0, "name": "4e31af37f8e0677e4f90512b7a2ebf93", "type": "electric_scooter"}, {"rental_uris": {"ios": "https://dc.lft.to/lastmile_qr_scan", "android": "https://dc.lft.to/lastmile_qr_scan"}, "lat": 38.88469933333333, "is_reserved": 0, "bike_id": "e5d57e1d55f7f02bbc9c8e8529c46d45", "lon": -76.95668933333333, "is_disabled": 0, "fusion_lat": 0.0, "fusion_lon": 0.0, "name": "e5d57e1d55f7f02bbc9c8e8529c46d45", "type": "electric_bike"}, {"rental_uris": {"ios": "https://dc.lft.to/lastmile_qr_scan", "android": "https://dc.lft.to/lastmile_qr_scan"}, "lat": 38.90645333333333, "is_reserved": 0, "bike_id": "b2fc13a4aa49a2162ec22a1cd7b4ee83", "lon": -77.04652883333333, "is_disabled": 0, "fusion_lat": 0.0, "fusion_lon": 0.0, "name": "b2fc13a4aa49a2162ec22a1cd7b4ee83", "type": "electric_scooter"}, {"rental_uris": {"ios": "https://dc.lft.to/lastmile_qr_scan", "android": "https://dc.lft.to/lastmile_qr_scan"}, "lat": 38.897481166666665, "is_reserved": 0, "bike_id": "5a61129506003b9f2d2af4f0c3a51f49", "lon": -77.01894783333333, "is_disabled": 0, "fusion_lat": 0.0, "fusion_lon": 0.0, "name": "5a61129506003b9f2d2af4f0c3a51f49", "type": "electric_scooter"}, {"rental_uris": {"ios": "https://dc.lft.to/lastmile_qr_scan", "android": "https://dc.lft.to/lastmile_qr_scan"}, "lat": 38.9183475, "is_reserved": 0, "bike_id": "1b437166b82fb69360b712f62b02abe9", "lon": -77.038863, "is_disabled": 0, "fusion_lat": 0.0, "fusion_lon": 0.0, "name": "1b437166b82fb69360b712f62b02abe9", "type": "electric_scooter"}, {"rental_uris": {"ios": "https://dc.lft.to/lastmile_qr_scan", "android": "https://dc.lft.to/lastmile_qr_scan"}, "lat": 38.9068835, "is_reserved": 0, "bike_id": "461862eb37226b2dd44e25331c1541c0", "lon": -76.98496333333334, "is_disabled": 0, "fusion_lat": 0.0, "fusion_lon": 0.0, "name": "461862eb37226b2dd44e25331c1541c0", "type": "electric_scooter"}, {"rental_uris": {"ios": "https://dc.lft.to/lastmile_qr_scan", "android": "https://dc.lft.to/lastmile_qr_scan"}, "lat": 38.88269366666667, "is_reserved": 0, "bike_id": "b4e893124645578a0eebcc8278e6343d", "lon": -76.99480283333334, "is_disabled": 0, "fusion_lat": 0.0, "fusion_lon": 0.0, "name": "b4e893124645578a0eebcc8278e6343d", "type": "electric_scooter"}, {"rental_uris": {"ios": "https://dc.lft.to/lastmile_qr_scan", "android": "https://dc.lft.to/lastmile_qr_scan"}, "lat": 38.935087833333334, "is_reserved": 0, "bike_id": "e125e4c38f118daed7ce75f02e55be25", "lon": -77.024054, "is_disabled": 0, "fusion_lat": 0.0, "fusion_lon": 0.0, "name": "e125e4c38f118daed7ce75f02e55be25", "type": "electric_scooter"}, {"rental_uris": {"ios": "https://dc.lft.to/lastmile_qr_scan", "android": "https://dc.lft.to/lastmile_qr_scan"}, "lat": 38.919141833333335, "is_reserved": 0, "bike_id": "569c7ebd3d47ce5bce137b4bb085f2ef", "lon": -77.03224433333334, "is_disabled": 0, "fusion_lat": 0.0, "fusion_lon": 0.0, "name": "569c7ebd3d47ce5bce137b4bb085f2ef", "type": "electric_scooter"}, {"rental_uris": {"ios": "https://dc.lft.to/lastmile_qr_scan", "android": "https://dc.lft.to/lastmile_qr_scan"}, "lat": 38.8762975, "is_reserved": 0, "bike_id": "779abf8222027430f80c1e9fff7839df", "lon": -77.00999216666666, "is_disabled": 0, "fusion_lat": 0.0, "fusion_lon": 0.0, "name": "779abf8222027430f80c1e9fff7839df", "type": "electric_scooter"}, {"rental_uris": {"ios": "https://dc.lft.to/lastmile_qr_scan", "android": "https://dc.lft.to/lastmile_qr_scan"}, "lat": 38.92468433333333, "is_reserved": 0, "bike_id": "923283cb2f71371856525a8da878d89c", "lon": -77.0220805, "is_disabled": 0, "fusion_lat": 0.0, "fusion_lon": 0.0, "name": "923283cb2f71371856525a8da878d89c", "type": "electric_scooter"}, {"rental_uris": {"ios": "https://dc.lft.to/lastmile_qr_scan", "android": "https://dc.lft.to/lastmile_qr_scan"}, "lat": 38.9023895, "is_reserved": 0, "bike_id": "6a09f4913388bf4ea385e4e4a3ee72a2", "lon": -77.03748316666666, "is_disabled": 0, "fusion_lat": 0.0, "fusion_lon": 0.0, "name": "6a09f4913388bf4ea385e4e4a3ee72a2", "type": "electric_scooter"}, {"rental_uris": {"ios": "https://dc.lft.to/lastmile_qr_scan", "android": "https://dc.lft.to/lastmile_qr_scan"}, "lat": 38.957243, "is_reserved": 0, "bike_id": "4d569716449cf83406862262d4f86f46", "lon": -77.02877516666666, "is_disabled": 0, "fusion_lat": 0.0, "fusion_lon": 0.0, "name": "4d569716449cf83406862262d4f86f46", "type": "electric_scooter"}, {"rental_uris": {"ios": "https://dc.lft.to/lastmile_qr_scan", "android": "https://dc.lft.to/lastmile_qr_scan"}, "lat": 38.88643283333333, "is_reserved": 0, "bike_id": "b9d65a11399503d1d02aa3e7551fa5fb", "lon": -77.01532833333333, "is_disabled": 0, "fusion_lat": 0.0, "fusion_lon": 0.0, "name": "b9d65a11399503d1d02aa3e7551fa5fb", "type": "electric_scooter"}, {"rental_uris": {"ios": "https://dc.lft.to/lastmile_qr_scan", "android": "https://dc.lft.to/lastmile_qr_scan"}, "lat": 38.846112166666664, "is_reserved": 0, "bike_id": "66bbd0ef145b837149cea1437eb41556", "lon": -76.96913533333333, "is_disabled": 0, "fusion_lat": 0.0, "fusion_lon": 0.0, "name": "66bbd0ef145b837149cea1437eb41556", "type": "electric_bike"}, {"rental_uris": {"ios": "https://dc.lft.to/lastmile_qr_scan", "android": "https://dc.lft.to/lastmile_qr_scan"}, "lat": 38.874245, "is_reserved": 0, "bike_id": "abcb57aaf93ffe6084cc1966a06e67a0", "lon": -77.08569416666667, "is_disabled": 0, "fusion_lat": 0.0, "fusion_lon": 0.0, "name": "abcb57aaf93ffe6084cc1966a06e67a0", "type": "electric_bike"}, {"rental_uris": {"ios": "https://dc.lft.to/lastmile_qr_scan", "android": "https://dc.lft.to/lastmile_qr_scan"}, "lat": 38.91764533333333, "is_reserved": 0, "bike_id": "b465f4fee6e244475a895fe420110b30", "lon": -77.01503666666666, "is_disabled": 0, "fusion_lat": 0.0, "fusion_lon": 0.0, "name": "b465f4fee6e244475a895fe420110b30", "type": "electric_scooter"}, {"rental_uris": {"ios": "https://dc.lft.to/lastmile_qr_scan", "android": "https://dc.lft.to/lastmile_qr_scan"}, "lat": 38.921446833333334, "is_reserved": 0, "bike_id": "9f1d0a448c44864b5c228a7f2e3cc7b3", "lon": -77.02841066666667, "is_disabled": 0, "fusion_lat": 0.0, "fusion_lon": 0.0, "name": "9f1d0a448c44864b5c228a7f2e3cc7b3", "type": "electric_bike"}, {"rental_uris": {"ios": "https://dc.lft.to/lastmile_qr_scan", "android": "https://dc.lft.to/lastmile_qr_scan"}, "lat": 38.875564833333335, "is_reserved": 0, "bike_id": "3d893edf553a423eb74782a5d1696585", "lon": -77.106961, "is_disabled": 0, "fusion_lat": 0.0, "fusion_lon": 0.0, "name": "3d893edf553a423eb74782a5d1696585", "type": "electric_bike"}, {"rental_uris": {"ios": "https://dc.lft.to/lastmile_qr_scan", "android": "https://dc.lft.to/lastmile_qr_scan"}, "lat": 38.926579333333336, "is_reserved": 0, "bike_id": "94ae2d4fe80d7bf38bcb452caf924105", "lon": -77.03729783333333, "is_disabled": 0, "fusion_lat": 0.0, "fusion_lon": 0.0, "name": "94ae2d4fe80d7bf38bcb452caf924105", "type": "electric_scooter"}, {"rental_uris": {"ios": "https://dc.lft.to/lastmile_qr_scan", "android": "https://dc.lft.to/lastmile_qr_scan"}, "lat": 38.87493083333333, "is_reserved": 0, "bike_id": "ff6fb63a2b0a4a629208bd62aa4ae386", "lon": -77.21125883333333, "is_disabled": 0, "fusion_lat": 0.0, "fusion_lon": 0.0, "name": "ff6fb63a2b0a4a629208bd62aa4ae386", "type": "electric_bike"}, {"rental_uris": {"ios": "https://dc.lft.to/lastmile_qr_scan", "android": "https://dc.lft.to/lastmile_qr_scan"}, "lat": 38.925006, "is_reserved": 0, "bike_id": "987978d78fb3c73ae77d4cc5d9a35148", "lon": -77.05771016666667, "is_disabled": 0, "fusion_lat": 0.0, "fusion_lon": 0.0, "name": "987978d78fb3c73ae77d4cc5d9a35148", "type": "electric_scooter"}, {"rental_uris": {"ios": "https://dc.lft.to/lastmile_qr_scan", "android": "https://dc.lft.to/lastmile_qr_scan"}, "lat": 38.903803833333335, "is_reserved": 0, "bike_id": "cbb2ea740b5aa4ac8e5e051ddef9d95e", "lon": -77.01634366666667, "is_disabled": 0, "fusion_lat": 0.0, "fusion_lon": 0.0, "name": "cbb2ea740b5aa4ac8e5e051ddef9d95e", "type": "electric_scooter"}, {"rental_uris": {"ios": "https://dc.lft.to/lastmile_qr_scan", "android": "https://dc.lft.to/lastmile_qr_scan"}, "lat": 38.89375066666667, "is_reserved": 0, "bike_id": "4c595dc0b825dac3513a7b31dc19c6f4", "lon": -76.94796383333333, "is_disabled": 0, "fusion_lat": 0.0, "fusion_lon": 0.0, "name": "4c595dc0b825dac3513a7b31dc19c6f4", "type": "electric_bike"}, {"rental_uris": {"ios": "https://dc.lft.to/lastmile_qr_scan", "android": "https://dc.lft.to/lastmile_qr_scan"}, "lat": 38.91640183333333, "is_reserved": 0, "bike_id": "191df789e5f1a2998ccab020faaa16ae", "lon": -77.02561566666667, "is_disabled": 0, "fusion_lat": 0.0, "fusion_lon": 0.0, "name": "191df789e5f1a2998ccab020faaa16ae", "type": "electric_scooter"}, {"rental_uris": {"ios": "https://dc.lft.to/lastmile_qr_scan", "android": "https://dc.lft.to/lastmile_qr_scan"}, "lat": 38.92739816666667, "is_reserved": 0, "bike_id": "58d13279265622a2e795d928bfffd1a6", "lon": -77.022623, "is_disabled": 0, "fusion_lat": 0.0, "fusion_lon": 0.0, "name": "58d13279265622a2e795d928bfffd1a6", "type": "electric_scooter"}, {"rental_uris": {"ios": "https://dc.lft.to/lastmile_qr_scan", "android": "https://dc.lft.to/lastmile_qr_scan"}, "lat": 38.896165333333336, "is_reserved": 0, "bike_id": "72c6f7eff040c556a49a661be23f4ee6", "lon": -76.9073315, "is_disabled": 0, "fusion_lat": 0.0, "fusion_lon": 0.0, "name": "72c6f7eff040c556a49a661be23f4ee6", "type": "electric_bike"}, {"rental_uris": {"ios": "https://dc.lft.to/lastmile_qr_scan", "android": "https://dc.lft.to/lastmile_qr_scan"}, "lat": 38.897307166666664, "is_reserved": 0, "bike_id": "cf3e6b342bf5b2b4ef2f3b3b04528f21", "lon": -77.03366816666667, "is_disabled": 0, "fusion_lat": 0.0, "fusion_lon": 0.0, "name": "cf3e6b342bf5b2b4ef2f3b3b04528f21", "type": "electric_scooter"}, {"rental_uris": {"ios": "https://dc.lft.to/lastmile_qr_scan", "android": "https://dc.lft.to/lastmile_qr_scan"}, "lat": 38.92234583333333, "is_reserved": 0, "bike_id": "af03ceeece43ae36ec80b083fb9da082", "lon": -77.028281, "is_disabled": 0, "fusion_lat": 0.0, "fusion_lon": 0.0, "name": "af03ceeece43ae36ec80b083fb9da082", "type": "electric_scooter"}, {"rental_uris": {"ios": "https://dc.lft.to/lastmile_qr_scan", "android": "https://dc.lft.to/lastmile_qr_scan"}, "lat": 38.909474833333334, "is_reserved": 0, "bike_id": "dc872ef345d18d4508e16be6598a3d08", "lon": -77.03180666666667, "is_disabled": 0, "fusion_lat": 0.0, "fusion_lon": 0.0, "name": "dc872ef345d18d4508e16be6598a3d08", "type": "electric_bike"}, {"rental_uris": {"ios": "https://dc.lft.to/lastmile_qr_scan", "android": "https://dc.lft.to/lastmile_qr_scan"}, "lat": 38.920638333333336, "is_reserved": 0, "bike_id": "3c765eaa52b666fc4f62bd19686a64f6", "lon": -76.98194166666667, "is_disabled": 0, "fusion_lat": 0.0, "fusion_lon": 0.0, "name": "3c765eaa52b666fc4f62bd19686a64f6", "type": "electric_scooter"}, {"rental_uris": {"ios": "https://dc.lft.to/lastmile_qr_scan", "android": "https://dc.lft.to/lastmile_qr_scan"}, "lat": 38.9236405, "is_reserved": 0, "bike_id": "3f540a8ff31fecc60c2e5bfc76066bd0", "lon": -77.0503155, "is_disabled": 0, "fusion_lat": 0.0, "fusion_lon": 0.0, "name": "3f540a8ff31fecc60c2e5bfc76066bd0", "type": "electric_scooter"}, {"rental_uris": {"ios": "https://dc.lft.to/lastmile_qr_scan", "android": "https://dc.lft.to/lastmile_qr_scan"}, "lat": 38.92486683333333, "is_reserved": 0, "bike_id": "115ae58c6f636660342752d8063024cb", "lon": -76.99040816666667, "is_disabled": 0, "fusion_lat": 0.0, "fusion_lon": 0.0, "name": "115ae58c6f636660342752d8063024cb", "type": "electric_scooter"}, {"rental_uris": {"ios": "https://dc.lft.to/lastmile_qr_scan", "android": "https://dc.lft.to/lastmile_qr_scan"}, "lat": 38.89220916666667, "is_reserved": 0, "bike_id": "6f639cd275f82a9a014e139f18d590c7", "lon": -77.02504716666667, "is_disabled": 0, "fusion_lat": 0.0, "fusion_lon": 0.0, "name": "6f639cd275f82a9a014e139f18d590c7", "type": "electric_scooter"}, {"rental_uris": {"ios": "https://dc.lft.to/lastmile_qr_scan", "android": "https://dc.lft.to/lastmile_qr_scan"}, "lat": 38.99097966666667, "is_reserved": 0, "bike_id": "9293c98d0f39e7581f3ce43cd3c00e9f", "lon": -76.99374983333334, "is_disabled": 0, "fusion_lat": 0.0, "fusion_lon": 0.0, "name": "9293c98d0f39e7581f3ce43cd3c00e9f", "type": "electric_bike"}, {"rental_uris": {"ios": "https://dc.lft.to/lastmile_qr_scan", "android": "https://dc.lft.to/lastmile_qr_scan"}, "lat": 38.93693433333333, "is_reserved": 0, "bike_id": "0423cedb691219752b9a8539b13d1269", "lon": -76.99059716666666, "is_disabled": 0, "fusion_lat": 0.0, "fusion_lon": 0.0, "name": "0423cedb691219752b9a8539b13d1269", "type": "electric_bike"}, {"rental_uris": {"ios": "https://dc.lft.to/lastmile_qr_scan", "android": "https://dc.lft.to/lastmile_qr_scan"}, "lat": 38.89974383333333, "is_reserved": 0, "bike_id": "e43ec603891e2443fe9b0141f203234d", "lon": -76.99492033333334, "is_disabled": 0, "fusion_lat": 0.0, "fusion_lon": 0.0, "name": "e43ec603891e2443fe9b0141f203234d", "type": "electric_scooter"}, {"rental_uris": {"ios": "https://dc.lft.to/lastmile_qr_scan", "android": "https://dc.lft.to/lastmile_qr_scan"}, "lat": 38.892299, "is_reserved": 0, "bike_id": "44812e943191716624df86c11e0634da", "lon": -77.02207016666667, "is_disabled": 0, "fusion_lat": 0.0, "fusion_lon": 0.0, "name": "44812e943191716624df86c11e0634da", "type": "electric_scooter"}, {"rental_uris": {"ios": "https://dc.lft.to/lastmile_qr_scan", "android": "https://dc.lft.to/lastmile_qr_scan"}, "lat": 38.923032, "is_reserved": 0, "bike_id": "9f90193e50ed06775120184cb13a53c6", "lon": -77.02447333333333, "is_disabled": 0, "fusion_lat": 0.0, "fusion_lon": 0.0, "name": "9f90193e50ed06775120184cb13a53c6", "type": "electric_scooter"}, {"rental_uris": {"ios": "https://dc.lft.to/lastmile_qr_scan", "android": "https://dc.lft.to/lastmile_qr_scan"}, "lat": 38.9753555, "is_reserved": 0, "bike_id": "ed542a093bde6bde790c99bd2b9408d1", "lon": -77.01686766666667, "is_disabled": 0, "fusion_lat": 0.0, "fusion_lon": 0.0, "name": "ed542a093bde6bde790c99bd2b9408d1", "type": "electric_bike"}, {"rental_uris": {"ios": "https://dc.lft.to/lastmile_qr_scan", "android": "https://dc.lft.to/lastmile_qr_scan"}, "lat": 38.94401933333333, "is_reserved": 0, "bike_id": "e2e7068969ea8160020c9629b5693633", "lon": -77.02407433333333, "is_disabled": 0, "fusion_lat": 0.0, "fusion_lon": 0.0, "name": "e2e7068969ea8160020c9629b5693633", "type": "electric_scooter"}, {"rental_uris": {"ios": "https://dc.lft.to/lastmile_qr_scan", "android": "https://dc.lft.to/lastmile_qr_scan"}, "lat": 38.866825666666664, "is_reserved": 0, "bike_id": "345670923ae3deefd7fe56e0a170b9a0", "lon": -76.985634, "is_disabled": 0, "fusion_lat": 0.0, "fusion_lon": 0.0, "name": "345670923ae3deefd7fe56e0a170b9a0", "type": "electric_scooter"}, {"rental_uris": {"ios": "https://dc.lft.to/lastmile_qr_scan", "android": "https://dc.lft.to/lastmile_qr_scan"}, "lat": 38.91990166666667, "is_reserved": 0, "bike_id": "586d21ba089528b2a4cd028a2bbb8575", "lon": -77.04169083333333, "is_disabled": 0, "fusion_lat": 0.0, "fusion_lon": 0.0, "name": "586d21ba089528b2a4cd028a2bbb8575", "type": "electric_scooter"}, {"rental_uris": {"ios": "https://dc.lft.to/lastmile_qr_scan", "android": "https://dc.lft.to/lastmile_qr_scan"}, "lat": 38.877106833333336, "is_reserved": 0, "bike_id": "4b3cfc67b2e2ce423de74c57f2e728cf", "lon": -77.00443883333334, "is_disabled": 0, "fusion_lat": 0.0, "fusion_lon": 0.0, "name": "4b3cfc67b2e2ce423de74c57f2e728cf", "type": "electric_scooter"}, {"rental_uris": {"ios": "https://dc.lft.to/lastmile_qr_scan", "android": "https://dc.lft.to/lastmile_qr_scan"}, "lat": 38.904953666666664, "is_reserved": 0, "bike_id": "0e4b53644cff2759c7b135c99e971407", "lon": -76.981419, "is_disabled": 0, "fusion_lat": 0.0, "fusion_lon": 0.0, "name": "0e4b53644cff2759c7b135c99e971407", "type": "electric_scooter"}, {"rental_uris": {"ios": "https://dc.lft.to/lastmile_qr_scan", "android": "https://dc.lft.to/lastmile_qr_scan"}, "lat": 38.9213335, "is_reserved": 0, "bike_id": "c1e0c88a3420ff50474d8d4b08d965b2", "lon": -77.03935083333333, "is_disabled": 0, "fusion_lat": 0.0, "fusion_lon": 0.0, "name": "c1e0c88a3420ff50474d8d4b08d965b2", "type": "electric_scooter"}, {"rental_uris": {"ios": "https://dc.lft.to/lastmile_qr_scan", "android": "https://dc.lft.to/lastmile_qr_scan"}, "lat": 38.913396166666665, "is_reserved": 0, "bike_id": "a804df85970a4e98d8fe5cf33e898713", "lon": -77.04862083333333, "is_disabled": 0, "fusion_lat": 0.0, "fusion_lon": 0.0, "name": "a804df85970a4e98d8fe5cf33e898713", "type": "electric_scooter"}, {"rental_uris": {"ios": "https://dc.lft.to/lastmile_qr_scan", "android": "https://dc.lft.to/lastmile_qr_scan"}, "lat": 38.924783833333336, "is_reserved": 0, "bike_id": "8a6ef1bf94358b343684d942172bca0c", "lon": -77.022701, "is_disabled": 0, "fusion_lat": 0.0, "fusion_lon": 0.0, "name": "8a6ef1bf94358b343684d942172bca0c", "type": "electric_scooter"}, {"rental_uris": {"ios": "https://dc.lft.to/lastmile_qr_scan", "android": "https://dc.lft.to/lastmile_qr_scan"}, "lat": 38.931908666666665, "is_reserved": 0, "bike_id": "ecf14a921f5f204baa0e91e061dd1bd2", "lon": -77.0199175, "is_disabled": 0, "fusion_lat": 0.0, "fusion_lon": 0.0, "name": "ecf14a921f5f204baa0e91e061dd1bd2", "type": "electric_scooter"}, {"rental_uris": {"ios": "https://dc.lft.to/lastmile_qr_scan", "android": "https://dc.lft.to/lastmile_qr_scan"}, "lat": 38.8996375, "is_reserved": 0, "bike_id": "f2fda5274e9abe8eb0e143742b0d01b1", "lon": -76.98676233333333, "is_disabled": 0, "fusion_lat": 0.0, "fusion_lon": 0.0, "name": "f2fda5274e9abe8eb0e143742b0d01b1", "type": "electric_bike"}, {"rental_uris": {"ios": "https://dc.lft.to/lastmile_qr_scan", "android": "https://dc.lft.to/lastmile_qr_scan"}, "lat": 38.928374, "is_reserved": 0, "bike_id": "6222b405dffb7f93cc12ee7a7a5519d9", "lon": -77.0543025, "is_disabled": 0, "fusion_lat": 0.0, "fusion_lon": 0.0, "name": "6222b405dffb7f93cc12ee7a7a5519d9", "type": "electric_scooter"}, {"rental_uris": {"ios": "https://dc.lft.to/lastmile_qr_scan", "android": "https://dc.lft.to/lastmile_qr_scan"}, "lat": 38.922728166666666, "is_reserved": 0, "bike_id": "ffa09ab349887a678ed05ea2cf0cd640", "lon": -77.02117066666666, "is_disabled": 0, "fusion_lat": 0.0, "fusion_lon": 0.0, "name": "ffa09ab349887a678ed05ea2cf0cd640", "type": "electric_scooter"}, {"rental_uris": {"ios": "https://dc.lft.to/lastmile_qr_scan", "android": "https://dc.lft.to/lastmile_qr_scan"}, "lat": 38.9002305, "is_reserved": 0, "bike_id": "33b17c31f0f9614300db1432d81f445a", "lon": -76.9739965, "is_disabled": 0, "fusion_lat": 0.0, "fusion_lon": 0.0, "name": "33b17c31f0f9614300db1432d81f445a", "type": "electric_scooter"}, {"rental_uris": {"ios": "https://dc.lft.to/lastmile_qr_scan", "android": "https://dc.lft.to/lastmile_qr_scan"}, "lat": 38.88734016666667, "is_reserved": 0, "bike_id": "10ac8df35300104bbf2a5974919e3fae", "lon": -77.01508266666667, "is_disabled": 0, "fusion_lat": 0.0, "fusion_lon": 0.0, "name": "10ac8df35300104bbf2a5974919e3fae", "type": "electric_scooter"}, {"rental_uris": {"ios": "https://dc.lft.to/lastmile_qr_scan", "android": "https://dc.lft.to/lastmile_qr_scan"}, "lat": 38.931917, "is_reserved": 0, "bike_id": "9bd7414d29262fd0f9a1e7cbe099a826", "lon": -77.07230816666667, "is_disabled": 0, "fusion_lat": 0.0, "fusion_lon": 0.0, "name": "9bd7414d29262fd0f9a1e7cbe099a826", "type": "electric_scooter"}, {"rental_uris": {"ios": "https://dc.lft.to/lastmile_qr_scan", "android": "https://dc.lft.to/lastmile_qr_scan"}, "lat": 38.9041735, "is_reserved": 0, "bike_id": "7691bafc4edaac40a6d68fa6be904409", "lon": -77.04349133333334, "is_disabled": 0, "fusion_lat": 0.0, "fusion_lon": 0.0, "name": "7691bafc4edaac40a6d68fa6be904409", "type": "electric_scooter"}, {"rental_uris": {"ios": "https://dc.lft.to/lastmile_qr_scan", "android": "https://dc.lft.to/lastmile_qr_scan"}, "lat": 38.950698333333335, "is_reserved": 0, "bike_id": "b3b3a81bf4a801cb5d26e82fb2e9239e", "lon": -77.0665885, "is_disabled": 0, "fusion_lat": 0.0, "fusion_lon": 0.0, "name": "b3b3a81bf4a801cb5d26e82fb2e9239e", "type": "electric_bike"}, {"rental_uris": {"ios": "https://dc.lft.to/lastmile_qr_scan", "android": "https://dc.lft.to/lastmile_qr_scan"}, "lat": 38.92068616666667, "is_reserved": 0, "bike_id": "7a5d0fb72125a32a993299dd4c3ebd67", "lon": -77.03822816666667, "is_disabled": 0, "fusion_lat": 0.0, "fusion_lon": 0.0, "name": "7a5d0fb72125a32a993299dd4c3ebd67", "type": "electric_scooter"}, {"rental_uris": {"ios": "https://dc.lft.to/lastmile_qr_scan", "android": "https://dc.lft.to/lastmile_qr_scan"}, "lat": 38.924472333333334, "is_reserved": 0, "bike_id": "84423295cf20933d1602fdae241c2d5d", "lon": -77.02150166666667, "is_disabled": 0, "fusion_lat": 0.0, "fusion_lon": 0.0, "name": "84423295cf20933d1602fdae241c2d5d", "type": "electric_scooter"}, {"rental_uris": {"ios": "https://dc.lft.to/lastmile_qr_scan", "android": "https://dc.lft.to/lastmile_qr_scan"}, "lat": 38.916959166666665, "is_reserved": 0, "bike_id": "bf400496786f7c29c32f9d66f4445e0f", "lon": -77.0312395, "is_disabled": 0, "fusion_lat": 0.0, "fusion_lon": 0.0, "name": "bf400496786f7c29c32f9d66f4445e0f", "type": "electric_scooter"}, {"rental_uris": {"ios": "https://dc.lft.to/lastmile_qr_scan", "android": "https://dc.lft.to/lastmile_qr_scan"}, "lat": 38.912259666666664, "is_reserved": 0, "bike_id": "ae04202c4c77614f27e864aef4256c36", "lon": -77.0443195, "is_disabled": 0, "fusion_lat": 0.0, "fusion_lon": 0.0, "name": "ae04202c4c77614f27e864aef4256c36", "type": "electric_scooter"}, {"rental_uris": {"ios": "https://dc.lft.to/lastmile_qr_scan", "android": "https://dc.lft.to/lastmile_qr_scan"}, "lat": 38.87693866666667, "is_reserved": 0, "bike_id": "7cdd46cae17887200d61820971923fd3", "lon": -77.00459733333334, "is_disabled": 0, "fusion_lat": 0.0, "fusion_lon": 0.0, "name": "7cdd46cae17887200d61820971923fd3", "type": "electric_scooter"}, {"rental_uris": {"ios": "https://dc.lft.to/lastmile_qr_scan", "android": "https://dc.lft.to/lastmile_qr_scan"}, "lat": 38.901200333333335, "is_reserved": 0, "bike_id": "c78449218a9283e9559ba8d45f3fea19", "lon": -77.03263133333333, "is_disabled": 0, "fusion_lat": 0.0, "fusion_lon": 0.0, "name": "c78449218a9283e9559ba8d45f3fea19", "type": "electric_scooter"}, {"rental_uris": {"ios": "https://dc.lft.to/lastmile_qr_scan", "android": "https://dc.lft.to/lastmile_qr_scan"}, "lat": 38.90034, "is_reserved": 0, "bike_id": "80e6f444fd6fd45a9cca83c19ad5a0db", "lon": -76.97227966666667, "is_disabled": 0, "fusion_lat": 0.0, "fusion_lon": 0.0, "name": "80e6f444fd6fd45a9cca83c19ad5a0db", "type": "electric_bike"}, {"rental_uris": {"ios": "https://dc.lft.to/lastmile_qr_scan", "android": "https://dc.lft.to/lastmile_qr_scan"}, "lat": 38.90283933333333, "is_reserved": 0, "bike_id": "9c11d71a73deb85980e3bb314d42ee67", "lon": -77.02279866666667, "is_disabled": 0, "fusion_lat": 0.0, "fusion_lon": 0.0, "name": "9c11d71a73deb85980e3bb314d42ee67", "type": "electric_scooter"}, {"rental_uris": {"ios": "https://dc.lft.to/lastmile_qr_scan", "android": "https://dc.lft.to/lastmile_qr_scan"}, "lat": 38.90495133333334, "is_reserved": 0, "bike_id": "1ebf0cfaae0098049176d570af89c631", "lon": -77.061235, "is_disabled": 0, "fusion_lat": 0.0, "fusion_lon": 0.0, "name": "1ebf0cfaae0098049176d570af89c631", "type": "electric_scooter"}, {"rental_uris": {"ios": "https://dc.lft.to/lastmile_qr_scan", "android": "https://dc.lft.to/lastmile_qr_scan"}, "lat": 38.919580333333336, "is_reserved": 0, "bike_id": "65162d2dc54b83055d8c3afdacd9af31", "lon": -77.02196583333334, "is_disabled": 0, "fusion_lat": 0.0, "fusion_lon": 0.0, "name": "65162d2dc54b83055d8c3afdacd9af31", "type": "electric_scooter"}, {"rental_uris": {"ios": "https://dc.lft.to/lastmile_qr_scan", "android": "https://dc.lft.to/lastmile_qr_scan"}, "lat": 38.865989166666665, "is_reserved": 0, "bike_id": "eba1ec514e4e4713d2ec92b81d7a4c17", "lon": -76.9820095, "is_disabled": 0, "fusion_lat": 0.0, "fusion_lon": 0.0, "name": "eba1ec514e4e4713d2ec92b81d7a4c17", "type": "electric_scooter"}, {"rental_uris": {"ios": "https://dc.lft.to/lastmile_qr_scan", "android": "https://dc.lft.to/lastmile_qr_scan"}, "lat": 38.89819833333333, "is_reserved": 0, "bike_id": "7bfe9358bc136241b080c5d2a2d81c02", "lon": -77.03350533333334, "is_disabled": 0, "fusion_lat": 0.0, "fusion_lon": 0.0, "name": "7bfe9358bc136241b080c5d2a2d81c02", "type": "electric_scooter"}, {"rental_uris": {"ios": "https://dc.lft.to/lastmile_qr_scan", "android": "https://dc.lft.to/lastmile_qr_scan"}, "lat": 38.905347, "is_reserved": 0, "bike_id": "fdef387dcbf7d79f2dedd0d136a8e9b3", "lon": -77.05595416666667, "is_disabled": 0, "fusion_lat": 0.0, "fusion_lon": 0.0, "name": "fdef387dcbf7d79f2dedd0d136a8e9b3", "type": "electric_scooter"}, {"rental_uris": {"ios": "https://dc.lft.to/lastmile_qr_scan", "android": "https://dc.lft.to/lastmile_qr_scan"}, "lat": 38.9274545, "is_reserved": 0, "bike_id": "a519e40569297e7eb3ae19f936841c63", "lon": -77.02131866666667, "is_disabled": 0, "fusion_lat": 0.0, "fusion_lon": 0.0, "name": "a519e40569297e7eb3ae19f936841c63", "type": "electric_scooter"}, {"rental_uris": {"ios": "https://dc.lft.to/lastmile_qr_scan", "android": "https://dc.lft.to/lastmile_qr_scan"}, "lat": 38.90396616666666, "is_reserved": 0, "bike_id": "6ad4ae1595783fbb3f397efdb2930462", "lon": -77.0632975, "is_disabled": 0, "fusion_lat": 0.0, "fusion_lon": 0.0, "name": "6ad4ae1595783fbb3f397efdb2930462", "type": "electric_scooter"}, {"rental_uris": {"ios": "https://dc.lft.to/lastmile_qr_scan", "android": "https://dc.lft.to/lastmile_qr_scan"}, "lat": 38.91702133333333, "is_reserved": 0, "bike_id": "fe958eab871c9faa77acf855c52c69a8", "lon": -77.02915616666667, "is_disabled": 0, "fusion_lat": 0.0, "fusion_lon": 0.0, "name": "fe958eab871c9faa77acf855c52c69a8", "type": "electric_scooter"}, {"rental_uris": {"ios": "https://dc.lft.to/lastmile_qr_scan", "android": "https://dc.lft.to/lastmile_qr_scan"}, "lat": 38.92179333333333, "is_reserved": 0, "bike_id": "53075b278a6997eeb819aa459c4b0e4d", "lon": -77.0469545, "is_disabled": 0, "fusion_lat": 0.0, "fusion_lon": 0.0, "name": "53075b278a6997eeb819aa459c4b0e4d", "type": "electric_scooter"}, {"rental_uris": {"ios": "https://dc.lft.to/lastmile_qr_scan", "android": "https://dc.lft.to/lastmile_qr_scan"}, "lat": 38.92539716666667, "is_reserved": 0, "bike_id": "4e6f8d92d489b2d640731a13a261c781", "lon": -77.0352905, "is_disabled": 0, "fusion_lat": 0.0, "fusion_lon": 0.0, "name": "4e6f8d92d489b2d640731a13a261c781", "type": "electric_scooter"}, {"rental_uris": {"ios": "https://dc.lft.to/lastmile_qr_scan", "android": "https://dc.lft.to/lastmile_qr_scan"}, "lat": 38.90526933333334, "is_reserved": 0, "bike_id": "72db465007dcc5050d0c8aea07ade96b", "lon": -77.06038916666667, "is_disabled": 0, "fusion_lat": 0.0, "fusion_lon": 0.0, "name": "72db465007dcc5050d0c8aea07ade96b", "type": "electric_scooter"},