{"data": {"bikes": [{"rental_uris": {"ios": "https://dc.lft.to/lastmile_qr_scan", "android": "https://dc.lft.to/lastmile_qr_scan"}, "lon": -76.97502683333333, "type": "electric_bike", "fusion_lat": 0.0, "lat": 38.919323, "name": "489e2b2a309390fee84f566f8c90e80f", "fusion_lon": 0.0, "bike_id": "489e2b2a309390fee84f566f8c90e80f", "is_disabled": 0, "is_reserved": 0}, {"rental_uris": {"ios": "https://dc.lft.to/lastmile_qr_scan", "android": "https://dc.lft.to/lastmile_qr_scan"}, "lon": -76.9837185, "type": "electric_scooter", "fusion_lat": 0.0, "lat": 38.860315, "name": "3191c2f60a209030bc27fd4544a290c2", "fusion_lon": 0.0, "bike_id": "3191c2f60a209030bc27fd4544a290c2", "is_disabled": 0, "is_reserved": 0}, {"rental_uris": {"ios": "https://dc.lft.to/lastmile_qr_scan", "android": "https://dc.lft.to/lastmile_qr_scan"}, "lon": -77.04633283333334, "type": "electric_scooter", "fusion_lat": 0.0, "lat": 38.89222483333333, "name": "80af1faceb76e15af4ce48f07259f962", "fusion_lon": 0.0, "bike_id": "80af1faceb76e15af4ce48f07259f962", "is_disabled": 0, "is_reserved": 0}, {"rental_uris": {"ios": "https://dc.lft.to/lastmile_qr_scan", "android": "https://dc.lft.to/lastmile_qr_scan"}, "lon": -77.0428835, "type": "electric_scooter", "fusion_lat": 0.0, "lat": 38.90850833333333, "name": "2739fe3d5ee41c1331aa6e396293832c", "fusion_lon": 0.0, "bike_id": "2739fe3d5ee41c1331aa6e396293832c", "is_disabled": 0, "is_reserved": 0}, {"rental_uris": {"ios": "https://dc.lft.to/lastmile_qr_scan", "android": "https://dc.lft.to/lastmile_qr_scan"}, "lon": -76.97560566666667, "type": "electric_scooter", "fusion_lat": 0.0, "lat": 38.90439633333333, "name": "cc616d66009a5e809e6aa32e84693df5", "fusion_lon": 0.0, "bike_id": "cc616d66009a5e809e6aa32e84693df5", "is_disabled": 0, "is_reserved": 0}, {"rental_uris": {"ios": "https://dc.lft.to/lastmile_qr_scan", "android": "https://dc.lft.to/lastmile_qr_scan"}, "lon": -76.9960555, "type": "electric_scooter", "fusion_lat": 0.0, "lat": 38.88623916666667, "name": "3f14d8d766fe2c1f38c66d35a3244a51", "fusion_lon": 0.0, "bike_id": "3f14d8d766fe2c1f38c66d35a3244a51", "is_disabled": 0, "is_reserved": 0}, {"rental_uris": {"ios": "https://dc.lft.to/lastmile_qr_scan", "android": "https://dc.lft.to/lastmile_qr_scan"}, "lon": -77.0344005, "type": "electric_scooter", "fusion_lat": 0.0, "lat": 38.906647, "name": "dfdda2b3c46db5048e09026a7348f9cf", "fusion_lon": 0.0, "bike_id": "dfdda2b3c46db5048e09026a7348f9cf", "is_disabled": 0, "is_reserved": 0}, {"rental_uris": {"ios": "https://dc.lft.to/lastmile_qr_scan", "android": "https://dc.lft.to/lastmile_qr_scan"}, "lon": -77.0161795, "type": "electric_scooter", "fusion_lat": 0.0, "lat": 38.91021933333333, "name": "16bcbe0a9c0f2cc24645ca8f9e023348", "fusion_lon": 0.0, "bike_id": "16bcbe0a9c0f2cc24645ca8f9e023348", "is_disabled": 0, "is_reserved": 0}, {"rental_uris": {"ios": "https://dc.lft.to/lastmile_qr_scan", "android": "https://dc.lft.to/lastmile_qr_scan"}, "lon": -76.98562366666667, "type": "electric_scooter", "fusion_lat": 0.0, "lat": 38.8615095, "name": "7654dff3f92e4e3ff180964d5590e70b", "fusion_lon": 0.0, "bike_id": "7654dff3f92e4e3ff180964d5590e70b", "is_disabled": 0, "is_reserved": 0}, {"rental_uris": {"ios": "https://dc.lft.to/lastmile_qr_scan", "android": "https://dc.lft.to/lastmile_qr_scan"}, "lon": -77.04041866666667, "type": "electric_bike", "fusion_lat": 0.0, "lat": 38.804172333333334, "name": "b26d4eb6be224c2318f98ae9a2beb37d", "fusion_lon": 0.0, "bike_id": "b26d4eb6be224c2318f98ae9a2beb37d", "is_disabled": 0, "is_reserved": 0}, {"rental_uris": {"ios": "https://dc.lft.to/lastmile_qr_scan", "android": "https://dc.lft.to/lastmile_qr_scan"}, "lon": -77.0000175, "type": "electric_scooter", "fusion_lat": 0.0, "lat": 38.90016633333333, "name": "ecdd2effe0d5b3aae5c0cba23973a310", "fusion_lon": 0.0, "bike_id": "ecdd2effe0d5b3aae5c0cba23973a310", "is_disabled": 0, "is_reserved": 0}, {"rental_uris": {"ios": "https://dc.lft.to/lastmile_qr_scan", "android": "https://dc.lft.to/lastmile_qr_scan"}, "lon": -76.973221, "type": "electric_scooter", "fusion_lat": 0.0, "lat": 38.930274, "name": "19222c76ea761e3d6beccc5cd3ed2a0c", "fusion_lon": 0.0, "bike_id": "19222c76ea761e3d6beccc5cd3ed2a0c", "is_disabled": 0, "is_reserved": 0}, {"rental_uris": {"ios": "https://dc.lft.to/lastmile_qr_scan", "android": "https://dc.lft.to/lastmile_qr_scan"}, "lon": -77.0474775, "type": "electric_scooter", "fusion_lat": 0.0, "lat": 38.90525433333333, "name": "5d1c509b2a9a407c8f65376af0e3c251", "fusion_lon": 0.0, "bike_id": "5d1c509b2a9a407c8f65376af0e3c251", "is_disabled": 0, "is_reserved": 0}, {"rental_uris": {"ios": "https://dc.lft.to/lastmile_qr_scan", "android": "https://dc.lft.to/lastmile_qr_scan"}, "lon": -77.03689633333333, "type": "electric_scooter", "fusion_lat": 0.0, "lat": 38.916709166666664, "name": "1d0e7b6d50a01edec425c04d1491da81", "fusion_lon": 0.0, "bike_id": "1d0e7b6d50a01edec425c04d1491da81", "is_disabled": 0, "is_reserved": 0}, {"rental_uris": {"ios": "https://dc.lft.to/lastmile_qr_scan", "android": "https://dc.lft.to/lastmile_qr_scan"}, "lon": -76.96551916666667, "type": "electric_bike", "fusion_lat": 0.0, "lat": 38.9509205, "name": "ebe2c5883e580135e606cd9470f638e5", "fusion_lon": 0.0, "bike_id": "ebe2c5883e580135e606cd9470f638e5", "is_disabled": 0, "is_reserved": 0}, {"rental_uris": {"ios": "https://dc.lft.to/lastmile_qr_scan", "android": "https://dc.lft.to/lastmile_qr_scan"}, "lon": -77.02178916666666, "type": "electric_scooter", "fusion_lat": 0.0, "lat": 38.909787333333334, "name": "a51ad5d6ab6817bd70f020bcc965cfab", "fusion_lon": 0.0, "bike_id": "a51ad5d6ab6817bd70f020bcc965cfab", "is_disabled": 0, "is_reserved": 0}, {"rental_uris": {"ios": "https://dc.lft.to/lastmile_qr_scan", "android": "https://dc.lft.to/lastmile_qr_scan"}, "lon": -77.00207233333333, "type": "electric_scooter", "fusion_lat": 0.0, "lat": 38.904763833333334, "name": "fa274608fbc911bfd9b635fdd524f883", "fusion_lon": 0.0, "bike_id": "fa274608fbc911bfd9b635fdd524f883", "is_disabled": 0, "is_reserved": 0}, {"rental_uris": {"ios": "https://dc.lft.to/lastmile_qr_scan", "android": "https://dc.lft.to/lastmile_qr_scan"}, "lon": -77.003169, "type": "electric_scooter", "fusion_lat": 0.0, "lat": 38.901176166666666, "name": "4b527306f7fc3536ffa35dd9ea094f87", "fusion_lon": 0.0, "bike_id": "4b527306f7fc3536ffa35dd9ea094f87", "is_disabled": 0, "is_reserved": 0}, {"rental_uris": {"ios": "https://dc.lft.to/lastmile_qr_scan", "android": "https://dc.lft.to/lastmile_qr_scan"}, "lon": -77.0333975, "type": "electric_scooter", "fusion_lat": 0.0, "lat": 38.91105116666667, "name": "d0ead25f7917ca0912053ba2b4875c38", "fusion_lon": 0.0, "bike_id": "d0ead25f7917ca0912053ba2b4875c38", "is_disabled": 0, "is_reserved": 0}, {"rental_uris": {"ios": "https://dc.lft.to/lastmile_qr_scan", "android": "https://dc.lft.to/lastmile_qr_scan"}, "lon": -77.01397816666666, "type": "electric_scooter", "fusion_lat": 0.0, "lat": 38.92849233333333, "name": "2d7ce1321c4ae800acb0d6f4ae93fc4c", "fusion_lon": 0.0, "bike_id": "2d7ce1321c4ae800acb0d6f4ae93fc4c", "is_disabled": 0, "is_reserved": 0}, {"rental_uris": {"ios": "https://dc.lft.to/lastmile_qr_scan", "android": "https://dc.lft.to/lastmile_qr_scan"}, "lon": -77.0026405, "type": "electric_scooter", "fusion_lat": 0.0, "lat": 38.877412666666665, "name": "9cc9be94d8e0c1d0d2218da44b2bdc32", "fusion_lon": 0.0, "bike_id": "9cc9be94d8e0c1d0d2218da44b2bdc32", "is_disabled": 0, "is_reserved": 0}, {"rental_uris": {"ios": "https://dc.lft.to/lastmile_qr_scan", "android": "https://dc.lft.to/lastmile_qr_scan"}, "lon": -77.01912483333334, "type": "electric_scooter", "fusion_lat": 0.0, "lat": 38.9024585, "name": "ab6dd58263b1148cb7e8ec19a6502ffb", "fusion_lon": 0.0, "bike_id": "ab6dd58263b1148cb7e8ec19a6502ffb", "is_disabled": 0, "is_reserved": 0}, {"rental_uris": {"ios": "https://dc.lft.to/lastmile_qr_scan", "android": "https://dc.lft.to/lastmile_qr_scan"}, "lon": -76.995011, "type": "electric_scooter", "fusion_lat": 0.0, "lat": 38.88098383333333, "name": "cb5f28aa48b7220d9444376f0a32f252", "fusion_lon": 0.0, "bike_id": "cb5f28aa48b7220d9444376f0a32f252", "is_disabled": 0, "is_reserved": 0}, {"rental_uris": {"ios": "https://dc.lft.to/lastmile_qr_scan", "android": "https://dc.lft.to/lastmile_qr_scan"}, "lon": -77.03263866666667, "type": "electric_scooter", "fusion_lat": 0.0, "lat": 38.9040685, "name": "84e0ebf6066519bcb70b5c42a6487905", "fusion_lon": 0.0, "bike_id": "84e0ebf6066519bcb70b5c42a6487905", "is_disabled": 0, "is_reserved": 0}, {"rental_uris": {"ios": "https://dc.lft.to/lastmile_qr_scan", "android": "https://dc.lft.to/lastmile_qr_scan"}, "lon": -77.03316066666666, "type": "electric_scooter", "fusion_lat": 0.0, "lat": 38.8987975, "name": "f2804612cc4610efe56a5767a9343905", "fusion_lon": 0.0, "bike_id": "f2804612cc4610efe56a5767a9343905", "is_disabled": 0, "is_reserved": 0}, {"rental_uris": {"ios": "https://dc.lft.to/lastmile_qr_scan", "android": "https://dc.lft.to/lastmile_qr_scan"}, "lon": -77.0020945, "type": "electric_scooter", "fusion_lat": 0.0, "lat": 38.90221016666667, "name": "e17ff4d701854f057ec83eedf3b87848", "fusion_lon": 0.0, "bike_id": "e17ff4d701854f057ec83eedf3b87848", "is_disabled": 0, "is_reserved": 0}, {"rental_uris": {"ios": "https://dc.lft.to/lastmile_qr_scan", "android": "https://dc.lft.to/lastmile_qr_scan"}, "lon": -77.05161, "type": "electric_scooter", "fusion_lat": 0.0, "lat": 38.8976685, "name": "6b46ab095fe7305010eb148bef226ad8", "fusion_lon": 0.0, "bike_id": "6b46ab095fe7305010eb148bef226ad8", "is_disabled": 0, "is_reserved": 0}, {"rental_uris": {"ios": "https://dc.lft.to/lastmile_qr_scan", "android": "https://dc.lft.to/lastmile_qr_scan"}, "lon": -77.04659833333334, "type": "electric_scooter", "fusion_lat": 0.0, "lat": 38.89338816666667, "name": "bb79965a89de7bbf2f6338c51c6bee67", "fusion_lon": 0.0, "bike_id": "bb79965a89de7bbf2f6338c51c6bee67", "is_disabled": 0, "is_reserved": 0}, {"rental_uris": {"ios": "https://dc.lft.to/lastmile_qr_scan", "android": "https://dc.lft.to/lastmile_qr_scan"}, "lon": -77.03171466666667, "type": "electric_scooter", "fusion_lat": 0.0, "lat": 38.886253833333335, "name": "9e5e2a900b04fb376e4936112de5aa9a", "fusion_lon": 0.0, "bike_id": "9e5e2a900b04fb376e4936112de5aa9a", "is_disabled": 0, "is_reserved": 0}, {"rental_uris": {"ios": "https://dc.lft.to/lastmile_qr_scan", "android": "https://dc.lft.to/lastmile_qr_scan"}, "lon": -76.93176066666666, "type": "electric_scooter", "fusion_lat": 0.0, "lat": 38.8987775, "name": "5780853f8b2944a67054009dac3e2310", "fusion_lon": 0.0, "bike_id": "5780853f8b2944a67054009dac3e2310", "is_disabled": 0, "is_reserved": 0}, {"rental_uris": {"ios": "https://dc.lft.to/lastmile_qr_scan", "android": "https://dc.lft.to/lastmile_qr_scan"}, "lon": -77.03105833333333, "type": "electric_scooter", "fusion_lat": 0.0, "lat": 38.911809833333336, "name": "d35c7a7a35ecd236e883cc1e626ebb62", "fusion_lon": 0.0, "bike_id": "d35c7a7a35ecd236e883cc1e626ebb62", "is_disabled": 0, "is_reserved": 0}, {"rental_uris": {"ios": "https://dc.lft.to/lastmile_qr_scan", "android": "https://dc.lft.to/lastmile_qr_scan"}, "lon": -77.06392816666667, "type": "electric_scooter", "fusion_lat": 0.0, "lat": 38.92906083333333, "name": "1b65780d8f82fed703d5c1486c891971", "fusion_lon": 0.0, "bike_id": "1b65780d8f82fed703d5c1486c891971", "is_disabled": 0, "is_reserved": 0}, {"rental_uris": {"ios": "https://dc.lft.to/lastmile_qr_scan", "android": "https://dc.lft.to/lastmile_qr_scan"}, "lon": -77.12983483333333, "type": "electric_bike", "fusion_lat": 0.0, "lat": 38.79986383333333, "name": "9fb77765271da008fc452c892fbdf11f", "fusion_lon": 0.0, "bike_id": "9fb77765271da008fc452c892fbdf11f", "is_disabled": 0, "is_reserved": 0}, {"rental_uris": {"ios": "https://dc.lft.to/lastmile_qr_scan", "android": "https://dc.lft.to/lastmile_qr_scan"}, "lon": -77.034245, "type": "electric_scooter", "fusion_lat": 0.0, "lat": 38.90983666666666, "name": "e60d87253b04c360181bf366758ce92e", "fusion_lon": 0.0, "bike_id": "e60d87253b04c360181bf366758ce92e", "is_disabled": 0, "is_reserved": 0}, {"rental_uris": {"ios": "https://dc.lft.to/lastmile_qr_scan", "android": "https://dc.lft.to/lastmile_qr_scan"}, "lon": -77.029979, "type": "electric_scooter", "fusion_lat": 0.0, "lat": 38.896187, "name": "435c16a52db24f7beebddd0bd9a22401", "fusion_lon": 0.0, "bike_id": "435c16a52db24f7beebddd0bd9a22401", "is_disabled": 0, "is_reserved": 0}, {"rental_uris": {"ios": "https://dc.lft.to/lastmile_qr_scan", "android": "https://dc.lft.to/lastmile_qr_scan"}, "lon": -77.068864, "type": "electric_scooter", "fusion_lat": 0.0, "lat": 38.94021883333333, "name": "7be5cbdd57637f8f20219dbe3c3ff41d", "fusion_lon": 0.0, "bike_id": "7be5cbdd57637f8f20219dbe3c3ff41d", "is_disabled": 0, "is_reserved": 0}, {"rental_uris": {"ios": "https://dc.lft.to/lastmile_qr_scan", "android": "https://dc.lft.to/lastmile_qr_scan"}, "lon": -77.12814666666667, "type": "electric_bike", "fusion_lat": 0.0, "lat": 38.86537716666667, "name": "eb1b8bbbc64dcc2b3d5f2e2537659cca", "fusion_lon": 0.0, "bike_id": "eb1b8bbbc64dcc2b3d5f2e2537659cca", "is_disabled": 0, "is_reserved": 0}, {"rental_uris": {"ios": "https://dc.lft.to/lastmile_qr_scan", "android": "https://dc.lft.to/lastmile_qr_scan"}, "lon": -77.07045416666666, "type": "electric_bike", "fusion_lat": 0.0, "lat": 38.824413166666666, "name": "46ab8b2adc03180c85403f9537be0324", "fusion_lon": 0.0, "bike_id": "46ab8b2adc03180c85403f9537be0324", "is_disabled": 0, "is_reserved": 0}, {"rental_uris": {"ios": "https://dc.lft.to/lastmile_qr_scan", "android": "https://dc.lft.to/lastmile_qr_scan"}, "lon": -76.9469805, "type": "electric_scooter", "fusion_lat": 0.0, "lat": 38.896785333333334, "name": "1751240327ab037f04d3305d6793ff54", "fusion_lon": 0.0, "bike_id": "1751240327ab037f04d3305d6793ff54", "is_disabled": 0, "is_reserved": 0}, {"rental_uris": {"ios": "https://dc.lft.to/lastmile_qr_scan", "android": "https://dc.lft.to/lastmile_qr_scan"}, "lon": -77.023983, "type": "electric_bike", "fusion_lat": 0.0, "lat": 38.994428, "name": "a7a1c4aa4e35449fb184a7a3544ee76d", "fusion_lon": 0.0, "bike_id": "a7a1c4aa4e35449fb184a7a3544ee76d", "is_disabled": 0, "is_reserved": 0}, {"rental_uris": {"ios": "https://dc.lft.to/lastmile_qr_scan", "android": "https://dc.lft.to/lastmile_qr_scan"}, "lon": -77.03752316666667, "type": "electric_scooter", "fusion_lat": 0.0, "lat": 38.9290725, "name": "2d9d47fb899bf3ded972047ba4a420a8", "fusion_lon": 0.0, "bike_id": "2d9d47fb899bf3ded972047ba4a420a8", "is_disabled": 0, "is_reserved": 0}, {"rental_uris": {"ios": "https://dc.lft.to/lastmile_qr_scan", "android": "https://dc.lft.to/lastmile_qr_scan"}, "lon": -77.10650916666667, "type": "electric_bike", "fusion_lat": 0.0, "lat": 38.873567, "name": "8f156aa1538c748fb3661d09bb3e9f17", "fusion_lon": 0.0, "bike_id": "8f156aa1538c748fb3661d09bb3e9f17", "is_disabled": 0, "is_reserved": 0}, {"rental_uris": {"ios": "https://dc.lft.to/lastmile_qr_scan", "android": "https://dc.lft.to/lastmile_qr_scan"}, "lon": -77.03078216666667, "type": "electric_scooter", "fusion_lat": 0.0, "lat": 38.91186, "name": "dfe4cbd2310928c8a5c9b645ceaabd9e", "fusion_lon": 0.0, "bike_id": "dfe4cbd2310928c8a5c9b645ceaabd9e", "is_disabled": 0, "is_reserved": 0}, {"rental_uris": {"ios": "https://dc.lft.to/lastmile_qr_scan", "android": "https://dc.lft.to/lastmile_qr_scan"}, "lon": -76.99892, "type": "electric_scooter", "fusion_lat": 0.0, "lat": 38.90926866666667, "name": "42a9d5f69763dba57bbcbe8c4b3cddfe", "fusion_lon": 0.0, "bike_id": "42a9d5f69763dba57bbcbe8c4b3cddfe", "is_disabled": 0, "is_reserved": 0}, {"rental_uris": {"ios": "https://dc.lft.to/lastmile_qr_scan", "android": "https://dc.lft.to/lastmile_qr_scan"}, "lon": -77.04107183333333, "type": "electric_scooter", "fusion_lat": 0.0, "lat": 38.9169295, "name": "7e25a41ed9994ff9aaa62d8c625f8e6d", "fusion_lon": 0.0, "bike_id": "7e25a41ed9994ff9aaa62d8c625f8e6d", "is_disabled": 0, "is_reserved": 0}, {"rental_uris": {"ios": "https://dc.lft.to/lastmile_qr_scan", "android": "https://dc.lft.to/lastmile_qr_scan"}, "lon": -77.04105216666666, "type": "electric_scooter", "fusion_lat": 0.0, "lat": 38.915648833333336, "name": "9522dca4386cdc4c7e2fd2bfed337a14", "fusion_lon": 0.0, "bike_id": "9522dca4386cdc4c7e2fd2bfed337a14", "is_disabled": 0, "is_reserved": 0}, {"rental_uris": {"ios": "https://dc.lft.to/lastmile_qr_scan", "android": "https://dc.lft.to/lastmile_qr_scan"}, "lon": -77.0684485, "type": "electric_scooter", "fusion_lat": 0.0, "lat": 38.91729516666667, "name": "152a3c22da6e190fd758ed923428bb1a", "fusion_lon": 0.0, "bike_id": "152a3c22da6e190fd758ed923428bb1a", "is_disabled": 0, "is_reserved": 0}, {"rental_uris": {"ios": "https://dc.lft.to/lastmile_qr_scan", "android": "https://dc.lft.to/lastmile_qr_scan"}, "lon": -77.0453285, "type": "electric_scooter", "fusion_lat": 0.0, "lat": 38.91397333333333, "name": "249e6337c60bdda40b6a38299586ec55", "fusion_lon": 0.0, "bike_id": "249e6337c60bdda40b6a38299586ec55", "is_disabled": 0, "is_reserved": 0}, {"rental_uris": {"ios": "https://dc.lft.to/lastmile_qr_scan", "android": "https://dc.lft.to/lastmile_qr_scan"}, "lon": -77.0414975, "type": "electric_scooter", "fusion_lat": 0.0, "lat": 38.923330166666666, "name": "ed81fac0031404e5fad78f38abb62d30", "fusion_lon": 0.0, "bike_id": "ed81fac0031404e5fad78f38abb62d30", "is_disabled": 0, "is_reserved": 0}, {"rental_uris": {"ios": "https://dc.lft.to/lastmile_qr_scan", "android": "https://dc.lft.to/lastmile_qr_scan"}, "lon": -77.02830333333333, "type": "electric_scooter", "fusion_lat": 0.0, "lat": 38.8876805, "name": "53e91eb09b729afbb814d28198879a90", "fusion_lon": 0.0, "bike_id": "53e91eb09b729afbb814d28198879a90", "is_disabled": 0, "is_reserved": 0}, {"rental_uris": {"ios": "https://dc.lft.to/lastmile_qr_scan", "android": "https://dc.lft.to/lastmile_qr_scan"}, "lon": -77.03208233333334, "type": "electric_scooter", "fusion_lat": 0.0, "lat": 38.907058666666664, "name": "43847a56f41134bd3a6cefeb224cc474", "fusion_lon": 0.0, "bike_id": "43847a56f41134bd3a6cefeb224cc474", "is_disabled": 0, "is_reserved": 0}, {"rental_uris": {"ios": "https://dc.lft.to/lastmile_qr_scan", "android": "https://dc.lft.to/lastmile_qr_scan"}, "lon": -77.05750433333333, "type": "electric_scooter", "fusion_lat": 0.0, "lat": 38.93414333333333, "name": "464139517469cdd710fe1655fc3b5f3d", "fusion_lon": 0.0, "bike_id": "464139517469cdd710fe1655fc3b5f3d", "is_disabled": 0, "is_reserved": 0}, {"rental_uris": {"ios": "https://dc.lft.to/lastmile_qr_scan", "android": "https://dc.lft.to/lastmile_qr_scan"}, "lon": -77.0384955, "type": "electric_scooter", "fusion_lat": 0.0, "lat": 38.932412666666664, "name": "7d48da21797fd0708852e443df299001", "fusion_lon": 0.0, "bike_id": "7d48da21797fd0708852e443df299001", "is_disabled": 0, "is_reserved": 0}, {"rental_uris": {"ios": "https://dc.lft.to/lastmile_qr_scan", "android": "https://dc.lft.to/lastmile_qr_scan"}, "lon": -77.030119, "type": "electric_bike", "fusion_lat": 0.0, "lat": 38.93484216666667, "name": "304bbbaa3be8042251c45b22ac114501", "fusion_lon": 0.0, "bike_id": "304bbbaa3be8042251c45b22ac114501", "is_disabled": 0, "is_reserved": 0}, {"rental_uris": {"ios": "https://dc.lft.to/lastmile_qr_scan", "android": "https://dc.lft.to/lastmile_qr_scan"}, "lon": -77.0434475, "type": "electric_scooter", "fusion_lat": 0.0, "lat": 38.90503416666667, "name": "2e1fd73d33778f26ef9f8d93a3a8a818", "fusion_lon": 0.0, "bike_id": "2e1fd73d33778f26ef9f8d93a3a8a818", "is_disabled": 0, "is_reserved": 0}, {"rental_uris": {"ios": "https://dc.lft.to/lastmile_qr_scan", "android": "https://dc.lft.to/lastmile_qr_scan"}, "lon": -77.06398333333334, "type": "electric_bike", "fusion_lat": 0.0, "lat": 38.84344166666666, "name": "a65e7e518706fd7fe8fd27b0e43b4e2d", "fusion_lon": 0.0, "bike_id": "a65e7e518706fd7fe8fd27b0e43b4e2d", "is_disabled": 0, "is_reserved": 0}, {"rental_uris": {"ios": "https://dc.lft.to/lastmile_qr_scan", "android": "https://dc.lft.to/lastmile_qr_scan"}, "lon": -77.04232816666666, "type": "electric_scooter", "fusion_lat": 0.0, "lat": 38.911063666666664, "name": "42c92870f85164b48048191fa98c1a05", "fusion_lon": 0.0, "bike_id": "42c92870f85164b48048191fa98c1a05", "is_disabled": 0, "is_reserved": 0}, {"rental_uris": {"ios": "https://dc.lft.to/lastmile_qr_scan", "android": "https://dc.lft.to/lastmile_qr_scan"}, "lon": -77.031755, "type": "electric_scooter", "fusion_lat": 0.0, "lat": 38.89347183333334, "name": "3d7d230ba904a9834eb86de8d8d50279", "fusion_lon": 0.0, "bike_id": "3d7d230ba904a9834eb86de8d8d50279", "is_disabled": 0, "is_reserved": 0}, {"rental_uris": {"ios": "https://dc.lft.to/lastmile_qr_scan", "android": "https://dc.lft.to/lastmile_qr_scan"}, "lon": -77.04030833333333, "type": "electric_scooter", "fusion_lat": 0.0, "lat": 38.92342333333333, "name": "a1fca92c432de8b608df21275510340d", "fusion_lon": 0.0, "bike_id": "a1fca92c432de8b608df21275510340d", "is_disabled": 0, "is_reserved": 0}, {"rental_uris": {"ios": "https://dc.lft.to/lastmile_qr_scan", "android": "https://dc.lft.to/lastmile_qr_scan"}, "lon": -77.029913, "type": "electric_scooter", "fusion_lat": 0.0, "lat": 38.89995016666667, "name": "1fba73dd3f2ff386e65f37e0f140a118", "fusion_lon": 0.0, "bike_id": "1fba73dd3f2ff386e65f37e0f140a118", "is_disabled": 0, "is_reserved": 0}, {"rental_uris": {"ios": "https://dc.lft.to/lastmile_qr_scan", "android": "https://dc.lft.to/lastmile_qr_scan"}, "lon": -77.03377933333333, "type": "electric_scooter", "fusion_lat": 0.0, "lat": 38.8875815, "name": "3d7d310e09a2d0a9d36f960c428eb620", "fusion_lon": 0.0, "bike_id": "3d7d310e09a2d0a9d36f960c428eb620", "is_disabled": 0, "is_reserved": 0}, {"rental_uris": {"ios": "https://dc.lft.to/lastmile_qr_scan", "android": "https://dc.lft.to/lastmile_qr_scan"}, "lon": -77.028211, "type": "electric_scooter", "fusion_lat": 0.0, "lat": 38.910272666666664, "name": "1deb4eb31d9f8ea20ba4e8743a23f5a9", "fusion_lon": 0.0, "bike_id": "1deb4eb31d9f8ea20ba4e8743a23f5a9", "is_disabled": 0, "is_reserved": 0}, {"rental_uris": {"ios": "https://dc.lft.to/lastmile_qr_scan", "android": "https://dc.lft.to/lastmile_qr_scan"}, "lon": -76.95527166666666, "type": "electric_scooter", "fusion_lat": 0.0, "lat": 38.88870283333333, "name": "e1cff057af1c608923b12ac3cd194bc6", "fusion_lon": 0.0, "bike_id": "e1cff057af1c608923b12ac3cd194bc6", "is_disabled": 0, "is_reserved": 0}, {"rental_uris": {"ios": "https://dc.lft.to/lastmile_qr_scan", "android": "https://dc.lft.to/lastmile_qr_scan"}, "lon": -77.02377116666666, "type": "electric_scooter", "fusion_lat": 0.0, "lat": 38.911493166666666, "name": "9c48548afb126a4479d3ac50b0d6122d", "fusion_lon": 0.0, "bike_id": "9c48548afb126a4479d3ac50b0d6122d", "is_disabled": 0, "is_reserved": 0}, {"rental_uris": {"ios": "https://dc.lft.to/lastmile_qr_scan", "android": "https://dc.lft.to/lastmile_qr_scan"}, "lon": -77.108914, "type": "electric_bike", "fusion_lat": 0.0, "lat": 38.83037783333333, "name": "111a8699445091797b0dea358c6bf0cd", "fusion_lon": 0.0, "bike_id": "111a8699445091797b0dea358c6bf0cd", "is_disabled": 0, "is_reserved": 0}, {"rental_uris": {"ios": "https://dc.lft.to/lastmile_qr_scan", "android": "https://dc.lft.to/lastmile_qr_scan"}, "lon": -76.99161016666666, "type": "electric_scooter", "fusion_lat": 0.0, "lat": 38.8823555, "name": "f551fa042d4ed0958d15c666616aea28", "fusion_lon": 0.0, "bike_id": "f551fa042d4ed0958d15c666616aea28", "is_disabled": 0, "is_reserved": 0}, {"rental_uris": {"ios": "https://dc.lft.to/lastmile_qr_scan", "android": "https://dc.lft.to/lastmile_qr_scan"}, "lon": -77.02915816666666, "type": "electric_scooter", "fusion_lat": 0.0, "lat": 38.898347333333334, "name": "715fda1f6ec11a2965192525320de695", "fusion_lon": 0.0, "bike_id": "715fda1f6ec11a2965192525320de695", "is_disabled": 0, "is_reserved": 0}, {"rental_uris": {"ios": "https://dc.lft.to/lastmile_qr_scan", "android": "https://dc.lft.to/lastmile_qr_scan"}, "lon": -76.97320066666667, "type": "electric_scooter", "fusion_lat": 0.0, "lat": 38.90478733333333, "name": "5c36c765b1deb1ec80316027d6bb29c0", "fusion_lon": 0.0, "bike_id": "5c36c765b1deb1ec80316027d6bb29c0", "is_disabled": 0, "is_reserved": 0}, {"rental_uris": {"ios": "https://dc.lft.to/lastmile_qr_scan", "android": "https://dc.lft.to/lastmile_qr_scan"}, "lon": -77.001309, "type": "electric_scooter", "fusion_lat": 0.0, "lat": 38.904058, "name": "ae0a638435fd6330cfcc1e7307c56efe", "fusion_lon": 0.0, "bike_id": "ae0a638435fd6330cfcc1e7307c56efe", "is_disabled": 0, "is_reserved": 0}, {"rental_uris": {"ios": "https://dc.lft.to/lastmile_qr_scan", "android": "https://dc.lft.to/lastmile_qr_scan"}, "lon": -77.044436, "type": "electric_scooter", "fusion_lat": 0.0, "lat": 38.9014745, "name": "7cad18829ae8d3a3355caa79e46b977e", "fusion_lon": 0.0, "bike_id": "7cad18829ae8d3a3355caa79e46b977e", "is_disabled": 0, "is_reserved": 0}, {"rental_uris": {"ios": "https://dc.lft.to/lastmile_qr_scan", "android": "https://dc.lft.to/lastmile_qr_scan"}, "lon": -77.0217885, "type": "electric_scooter", "fusion_lat": 0.0, "lat": 38.9104895, "name": "1e54c33bbb3a5dfe92ce92956afbf5a9", "fusion_lon": 0.0, "bike_id": "1e54c33bbb3a5dfe92ce92956afbf5a9", "is_disabled": 0, "is_reserved": 0}, {"rental_uris": {"ios": "https://dc.lft.to/lastmile_qr_scan", "android": "https://dc.lft.to/lastmile_qr_scan"}, "lon": -77.01108983333333, "type": "electric_bike", "fusion_lat": 0.0, "lat": 38.9630665, "name": "e32348eca34c749a4318815407d35f6b", "fusion_lon": 0.0, "bike_id": "e32348eca34c749a4318815407d35f6b", "is_disabled": 0, "is_reserved": 0}, {"rental_uris": {"ios": "https://dc.lft.to/lastmile_qr_scan", "android": "https://dc.lft.to/lastmile_qr_scan"}, "lon": -77.042074, "type": "electric_scooter", "fusion_lat": 0.0, "lat": 38.921091833333335, "name": "d2bb78edad46d788c2afb3045440d01c", "fusion_lon": 0.0, "bike_id": "d2bb78edad46d788c2afb3045440d01c", "is_disabled": 0, "is_reserved": 0}, {"rental_uris": {"ios": "https://dc.lft.to/lastmile_qr_scan", "android": "https://dc.lft.to/lastmile_qr_scan"}, "lon": -77.03563983333333, "type": "electric_scooter", "fusion_lat": 0.0, "lat": 38.957223166666665, "name": "0454cc8efa6301300ad8cdd76be3b480", "fusion_lon": 0.0, "bike_id": "0454cc8efa6301300ad8cdd76be3b480", "is_disabled": 0, "is_reserved": 0}, {"rental_uris": {"ios": "https://dc.lft.to/lastmile_qr_scan", "android": "https://dc.lft.to/lastmile_qr_scan"}, "lon": -77.00507533333334, "type": "electric_scooter", "fusion_lat": 0.0, "lat": 38.916737, "name": "d7abcf02e813e37f8039ab0bc9035d16", "fusion_lon": 0.0, "bike_id": "d7abcf02e813e37f8039ab0bc9035d16", "is_disabled": 0, "is_reserved": 0}, {"rental_uris": {"ios": "https://dc.lft.to/lastmile_qr_scan", "android": "https://dc.lft.to/lastmile_qr_scan"}, "lon": -77.04996533333333, "type": "electric_scooter", "fusion_lat": 0.0, "lat": 38.898891, "name": "496a7e467aa469a0974fc2fc065cf692", "fusion_lon": 0.0, "bike_id": "496a7e467aa469a0974fc2fc065cf692", "is_disabled": 0, "is_reserved": 0}, {"rental_uris": {"ios": "https://dc.lft.to/lastmile_qr_scan", "android": "https://dc.lft.to/lastmile_qr_scan"}, "lon": -77.11219883333334, "type": "electric_bike", "fusion_lat": 0.0, "lat": 38.828727666666666, "name": "59a617c2d9c08f1a2b6c24cda5679059", "fusion_lon": 0.0, "bike_id": "59a617c2d9c08f1a2b6c24cda5679059", "is_disabled": 0, "is_reserved": 0}, {"rental_uris": {"ios": "https://dc.lft.to/lastmile_qr_scan", "android": "https://dc.lft.to/lastmile_qr_scan"}, "lon": -76.9873185, "type": "electric_bike", "fusion_lat": 0.0, "lat": 38.944279, "name": "cba9409bd3234de938697da393e78dba", "fusion_lon": 0.0, "bike_id": "cba9409bd3234de938697da393e78dba", "is_disabled": 0, "is_reserved": 0}, {"rental_uris": {"ios": "https://dc.lft.to/lastmile_qr_scan", "android": "https://dc.lft.to/lastmile_qr_scan"}, "lon": -77.04160733333333, "type": "electric_scooter", "fusion_lat": 0.0, "lat": 38.91929916666667, "name": "d02ba8d24a168f5c07f56fe54acd84be", "fusion_lon": 0.0, "bike_id": "d02ba8d24a168f5c07f56fe54acd84be", "is_disabled": 0, "is_reserved": 0}, {"rental_uris": {"ios": "https://dc.lft.to/lastmile_qr_scan", "android": "https://dc.lft.to/lastmile_qr_scan"}, "lon": -77.0335185, "type": "electric_scooter", "fusion_lat": 0.0, "lat": 38.924385666666666, "name": "478edbfe3315452d882c6775b17bbe59", "fusion_lon": 0.0, "bike_id": "478edbfe3315452d882c6775b17bbe59", "is_disabled": 0, "is_reserved": 0}, {"rental_uris": {"ios": "https://dc.lft.to/lastmile_qr_scan", "android": "https://dc.lft.to/lastmile_qr_scan"}, "lon": -76.93549416666667, "type": "electric_bike", "fusion_lat": 0.0, "lat": 38.955562666666665, "name": "e0987eb5ec667cef301f9d71a1f55831", "fusion_lon": 0.0, "bike_id": "e0987eb5ec667cef301f9d71a1f55831", "is_disabled": 0, "is_reserved": 0}, {"rental_uris": {"ios": "https://dc.lft.to/lastmile_qr_scan", "android": "https://dc.lft.to/lastmile_qr_scan"}, "lon": -77.07683, "type": "electric_bike", "fusion_lat": 0.0, "lat": 38.83192116666667, "name": "8331a30b378fbdc77be4626625d7b578", "fusion_lon": 0.0, "bike_id": "8331a30b378fbdc77be4626625d7b578", "is_disabled": 0, "is_reserved": 0}, {"rental_uris": {"ios": "https://dc.lft.to/lastmile_qr_scan", "android": "https://dc.lft.to/lastmile_qr_scan"}, "lon": -77.056294, "type": "electric_scooter", "fusion_lat": 0.0, "lat": 38.924098666666666, "name": "03754d8fe2aa1b5a86d2257a475c581a", "fusion_lon": 0.0, "bike_id": "03754d8fe2aa1b5a86d2257a475c581a", "is_disabled": 0, "is_reserved": 0}, {"rental_uris": {"ios": "https://dc.lft.to/lastmile_qr_scan", "android": "https://dc.lft.to/lastmile_qr_scan"}, "lon": -77.07360566666667, "type": "electric_scooter", "fusion_lat": 0.0, "lat": 38.933545, "name": "c9192bdd9b7780aee828bec830e76fba", "fusion_lon": 0.0, "bike_id": "c9192bdd9b7780aee828bec830e76fba", "is_disabled": 0, "is_reserved": 0}, {"rental_uris": {"ios": "https://dc.lft.to/lastmile_qr_scan", "android": "https://dc.lft.to/lastmile_qr_scan"}, "lon": -77.04737816666666, "type": "electric_scooter", "fusion_lat": 0.0, "lat": 38.90259016666667, "name": "837a61cfca118861fca049184b720aaf", "fusion_lon": 0.0, "bike_id": "837a61cfca118861fca049184b720aaf", "is_disabled": 0, "is_reserved": 0}, {"rental_uris": {"ios": "https://dc.lft.to/lastmile_qr_scan", "android": "https://dc.lft.to/lastmile_qr_scan"}, "lon": -77.02688316666666, "type": "electric_scooter", "fusion_lat": 0.0, "lat": 38.899311166666664, "name": "3bdea682fd4d3e8c7adc931fd85ea0bf", "fusion_lon": 0.0, "bike_id": "3bdea682fd4d3e8c7adc931fd85ea0bf", "is_disabled": 0, "is_reserved": 0}, {"rental_uris": {"ios": "https://dc.lft.to/lastmile_qr_scan", "android": "https://dc.lft.to/lastmile_qr_scan"}, "lon": -77.12259783333333, "type": "electric_bike", "fusion_lat": 0.0, "lat": 38.89187833333333, "name": "a880f951b0a1c937420d2456cd73e743", "fusion_lon": 0.0, "bike_id": "a880f951b0a1c937420d2456cd73e743", "is_disabled": 0, "is_reserved": 0}, {"rental_uris": {"ios": "https://dc.lft.to/lastmile_qr_scan", "android": "https://dc.lft.to/lastmile_qr_scan"}, "lon": -76.937517, "type": "electric_scooter", "fusion_lat": 0.0, "lat": 38.890466, "name": "2cdb1fc838b0c12cbc2ec6ecc30d3471", "fusion_lon": 0.0, "bike_id": "2cdb1fc838b0c12cbc2ec6ecc30d3471", "is_disabled": 0, "is_reserved": 0}, {"rental_uris": {"ios": "https://dc.lft.to/lastmile_qr_scan", "android": "https://dc.lft.to/lastmile_qr_scan"}, "lon": -77.04189433333333, "type": "electric_scooter", "fusion_lat": 0.0, "lat": 38.920198166666665, "name": "fbc9631a722497d1082816ac7e53cfff", "fusion_lon": 0.0, "bike_id": "fbc9631a722497d1082816ac7e53cfff", "is_disabled": 0, "is_reserved": 0}, {"rental_uris": {"ios": "https://dc.lft.to/lastmile_qr_scan", "android": "https://dc.lft.to/lastmile_qr_scan"}, "lon": -77.02989983333333, "type": "electric_scooter", "fusion_lat": 0.0, "lat": 38.91696266666667, "name": "441dadbcf853d10016ecc19db9aa2765", "fusion_lon": 0.0, "bike_id": "441dadbcf853d10016ecc19db9aa2765", "is_disabled": 0, "is_reserved": 0}, {"rental_uris": {"ios": "https://dc.lft.to/lastmile_qr_scan", "android": "https://dc.lft.to/lastmile_qr_scan"}, "lon": -76.96625116666667, "type": "electric_bike", "fusion_lat": 0.0, "lat": 38.942022333333334, "name": "babe391ad5932705fe9e66b9b0066402", "fusion_lon": 0.0, "bike_id": "babe391ad5932705fe9e66b9b0066402", "is_disabled": 0, "is_reserved": 0}, {"rental_uris": {"ios": "https://dc.lft.to/lastmile_qr_scan", "android": "https://dc.lft.to/lastmile_qr_scan"}, "lon": -77.02387783333333, "type": "electric_scooter", "fusion_lat": 0.0, "lat": 38.952873833333335, "name": "e77185c3321830ceb59d60494a4f54d4", "fusion_lon": 0.0, "bike_id": "e77185c3321830ceb59d60494a4f54d4", "is_disabled": 0, "is_reserved": 0}, {"rental_uris": {"ios": "https://dc.lft.to/lastmile_qr_scan", "android": "https://dc.lft.to/lastmile_qr_scan"}, "lon": -77.03873033333333, "type": "electric_scooter", "fusion_lat": 0.0, "lat": 38.91686, "name": "e75fa1afb88fb85be304a0b00395c2e0", "fusion_lon": 0.0, "bike_id": "e75fa1afb88fb85be304a0b00395c2e0", "is_disabled": 0, "is_reserved": 0}, {"rental_uris": {"ios": "https://dc.lft.to/lastmile_qr_scan", "android": "https://dc.lft.to/lastmile_qr_scan"}, "lon": -77.02383666666667, "type": "electric_scooter", "fusion_lat": 0.0, "lat": 38.90984566666667, "name": "1f33e21e41df6bd117f53cb322faa51a", "fusion_lon": 0.0, "bike_id": "1f33e21e41df6bd117f53cb322faa51a", "is_disabled": 0, "is_reserved": 0}, {"rental_uris": {"ios": "https://dc.lft.to/lastmile_qr_scan", "android": "https://dc.lft.to/lastmile_qr_scan"}, "lon": -77.02649383333333, "type": "electric_scooter", "fusion_lat": 0.0, "lat": 38.93860216666667, "name": "013b310bdf404d256d13715be262fa29", "fusion_lon": 0.0, "bike_id": "013b310bdf404d256d13715be262fa29", "is_disabled": 0, "is_reserved": 0}, {"rental_uris": {"ios": "https://dc.lft.to/lastmile_qr_scan", "android": "https://dc.lft.to/lastmile_qr_scan"}, "lon": -77.03263883333334, "type": "electric_scooter", "fusion_lat": 0.0, "lat": 38.92904466666667, "name": "9f47c559211b73b084936d0a96cc0aad", "fusion_lon": 0.0, "bike_id": "9f47c559211b73b084936d0a96cc0aad", "is_disabled": 0, "is_reserved": 0}, {"rental_uris": {"ios": "https://dc.lft.to/lastmile_qr_scan", "android": "https://dc.lft.to/lastmile_qr_scan"}, "lon": -77.01858066666667, "type": "electric_scooter", "fusion_lat": 0.0, "lat": 38.903696333333336, "name": "35c62b965c325f94055a01f1b2a44dbb", "fusion_lon": 0.0, "bike_id": "35c62b965c325f94055a01f1b2a44dbb", "is_disabled": 0, "is_reserved": 0}, {"rental_uris": {"ios": "https://dc.lft.to/lastmile_qr_scan", "android": "https://dc.lft.to/lastmile_qr_scan"}, "lon": -77.02110783333333, "type": "electric_scooter", "fusion_lat": 0.0, "lat": 38.91304266666667, "name": "2edd121f4e8b0d8c9a70d418a9b84d38", "fusion_lon": 0.0, "bike_id": "2edd121f4e8b0d8c9a70d418a9b84d38", "is_disabled": 0, "is_reserved": 0}, {"rental_uris": {"ios": "https://dc.lft.to/lastmile_qr_scan", "android": "https://dc.lft.to/lastmile_qr_scan"}, "lon": -77.01050016666667, "type": "electric_scooter", "fusion_lat": 0.0, "lat": 38.87934466666667, "name": "d3b396ed9b6e427617a70539dc968ca4", "fusion_lon": 0.0, "bike_id": "d3b396ed9b6e427617a70539dc968ca4", "is_disabled": 0, "is_reserved": 0}, {"rental_uris": {"ios": "https://dc.lft.to/lastmile_qr_scan", "android": "https://dc.lft.to/lastmile_qr_scan"}, "lon": -77.06749116666667, "type": "electric_scooter", "fusion_lat": 0.0, "lat": 38.915606, "name": "614b86eb61db75e6ea94c8bf471f175c", "fusion_lon": 0.0, "bike_id": "614b86eb61db75e6ea94c8bf471f175c", "is_disabled": 0, "is_reserved": 0}, {"rental_uris": {"ios": "https://dc.lft.to/lastmile_qr_scan", "android": "https://dc.lft.to/lastmile_qr_scan"}, "lon": -77.03820283333333, "type": "electric_scooter", "fusion_lat": 0.0, "lat": 38.91689816666667, "name": "68292c62cc8adf4f8fc3daf25dcbbc81", "fusion_lon": 0.0, "bike_id": "68292c62cc8adf4f8fc3daf25dcbbc81", "is_disabled": 0, "is_reserved": 0}, {"rental_uris": {"ios": "https://dc.lft.to/lastmile_qr_scan", "android": "https://dc.lft.to/lastmile_qr_scan"}, "lon": -77.0259045, "type": "electric_scooter", "fusion_lat": 0.0, "lat": 38.8960405, "name": "411e8894612fa29d2c3e6e3bcef2330f", "fusion_lon": 0.0, "bike_id": "411e8894612fa29d2c3e6e3bcef2330f", "is_disabled": 0, "is_reserved": 0}, {"rental_uris": {"ios": "https://dc.lft.to/lastmile_qr_scan", "android": "https://dc.lft.to/lastmile_qr_scan"}, "lon": -76.947713, "type": "electric_bike", "fusion_lat": 0.0, "lat": 38.89637466666667, "name": "861b3a14ecc2397a1bc68309ade638f8", "fusion_lon": 0.0, "bike_id": "861b3a14ecc2397a1bc68309ade638f8", "is_disabled": 0, "is_reserved": 0}, {"rental_uris": {"ios": "https://dc.lft.to/lastmile_qr_scan", "android": "https://dc.lft.to/lastmile_qr_scan"}, "lon": -77.02908983333333, "type": "electric_scooter", "fusion_lat": 0.0, "lat": 38.8983725, "name": "4346789f276c6589cb9fcb166c882d22", "fusion_lon": 0.0, "bike_id": "4346789f276c6589cb9fcb166c882d22", "is_disabled": 0, "is_reserved": 0}, {"rental_uris": {"ios": "https://dc.lft.to/lastmile_qr_scan", "android": "https://dc.lft.to/lastmile_qr_scan"}, "lon": -77.005531, "type": "electric_scooter", "fusion_lat": 0.0, "lat": 38.87653, "name": "c9c19216e7a4affa2c97f33d8c864486", "fusion_lon": 0.0, "bike_id": "c9c19216e7a4affa2c97f33d8c864486", "is_disabled": 0, "is_reserved": 0}, {"rental_uris": {"ios": "https://dc.lft.to/lastmile_qr_scan", "android": "https://dc.lft.to/lastmile_qr_scan"}, "lon": -77.0454165, "type": "electric_scooter", "fusion_lat": 0.0, "lat": 38.894817, "name": "c54e66f272ae26eb60a826dd218cb617", "fusion_lon": 0.0, "bike_id": "c54e66f272ae26eb60a826dd218cb617", "is_disabled": 0, "is_reserved": 0}, {"rental_uris": {"ios": "https://dc.lft.to/lastmile_qr_scan", "android": "https://dc.lft.to/lastmile_qr_scan"}, "lon": -76.990626, "type": "electric_scooter", "fusion_lat": 0.0, "lat": 38.86354133333333, "name": "022f85734212018490e41af05566b7c5", "fusion_lon": 0.0, "bike_id": "022f85734212018490e41af05566b7c5", "is_disabled": 0, "is_reserved": 0}, {"rental_uris": {"ios": "https://dc.lft.to/lastmile_qr_scan", "android": "https://dc.lft.to/lastmile_qr_scan"}, "lon": -77.05005666666666, "type": "electric_scooter", "fusion_lat": 0.0, "lat": 38.892289, "name": "14d1f233996de27a405a1ae3b5dbbe3d", "fusion_lon": 0.0, "bike_id": "14d1f233996de27a405a1ae3b5dbbe3d", "is_disabled": 0, "is_reserved": 0}, {"rental_uris": {"ios": "https://dc.lft.to/lastmile_qr_scan", "android": "https://dc.lft.to/lastmile_qr_scan"}, "lon": -77.031981, "type": "electric_scooter", "fusion_lat": 0.0, "lat": 38.9003565, "name": "74e5da7b9a996514f73102db35f91eb9", "fusion_lon": 0.0, "bike_id": "74e5da7b9a996514f73102db35f91eb9", "is_disabled": 0, "is_reserved": 0}, {"rental_uris": {"ios": "https://dc.lft.to/lastmile_qr_scan", "android": "https://dc.lft.to/lastmile_qr_scan"}, "lon": -77.03334, "type": "electric_scooter", "fusion_lat": 0.0, "lat": 38.898575, "name": "dcf637defdfdc95accb11773ca21b749", "fusion_lon": 0.0, "bike_id": "dcf637defdfdc95accb11773ca21b749", "is_disabled": 0, "is_reserved": 0}, {"rental_uris": {"ios": "https://dc.lft.to/lastmile_qr_scan", "android": "https://dc.lft.to/lastmile_qr_scan"}, "lon": -77.02721666666666, "type": "electric_scooter", "fusion_lat": 0.0, "lat": 38.9408545, "name": "0a02ab78ff2007ca1449ae033f0dd427", "fusion_lon": 0.0, "bike_id": "0a02ab78ff2007ca1449ae033f0dd427", "is_disabled": 0, "is_reserved": 0}, {"rental_uris": {"ios": "https://dc.lft.to/lastmile_qr_scan", "android": "https://dc.lft.to/lastmile_qr_scan"}, "lon": -77.0271395, "type": "electric_scooter", "fusion_lat": 0.0, "lat": 38.909417166666664, "name": "e96f3194fd5e6035065361057acc2891", "fusion_lon": 0.0, "bike_id": "e96f3194fd5e6035065361057acc2891", "is_disabled": 0, "is_reserved": 0}, {"rental_uris": {"ios": "https://dc.lft.to/lastmile_qr_scan", "android": "https://dc.lft.to/lastmile_qr_scan"}, "lon": -77.02712266666667, "type": "electric_scooter", "fusion_lat": 0.0, "lat": 38.899904, "name": "86b43dd90441ec57ef189435ea178ac8", "fusion_lon": 0.0, "bike_id": "86b43dd90441ec57ef189435ea178ac8", "is_disabled": 0, "is_reserved": 0}, {"rental_uris": {"ios": "https://dc.lft.to/lastmile_qr_scan", "android": "https://dc.lft.to/lastmile_qr_scan"}, "lon": -77.02648966666666, "type": "electric_scooter", "fusion_lat": 0.0, "lat": 38.88118083333333, "name": "4a586e0b4af17c4847c1c86f28659d6d", "fusion_lon": 0.0, "bike_id": "4a586e0b4af17c4847c1c86f28659d6d", "is_disabled": 0, "is_reserved": 0}, {"rental_uris": {"ios": "https://dc.lft.to/lastmile_qr_scan", "android": "https://dc.lft.to/lastmile_qr_scan"}, "lon": -76.98348233333333, "type": "electric_scooter", "fusion_lat": 0.0, "lat": 38.9152715, "name": "6f810864e53ad3958e6a3b19ec0e24ab", "fusion_lon": 0.0, "bike_id": "6f810864e53ad3958e6a3b19ec0e24ab", "is_disabled": 0, "is_reserved": 0}, {"rental_uris": {"ios": "https://dc.lft.to/lastmile_qr_scan", "android": "https://dc.lft.to/lastmile_qr_scan"}, "lon": -77.04008933333333, "type": "electric_scooter", "fusion_lat": 0.0, "lat": 38.924236666666665, "name": "970a2072fbe283baaa843a1243b9a7b7", "fusion_lon": 0.0, "bike_id": "970a2072fbe283baaa843a1243b9a7b7", "is_disabled": 0, "is_reserved": 0}, {"rental_uris": {"ios": "https://dc.lft.to/lastmile_qr_scan", "android": "https://dc.lft.to/lastmile_qr_scan"}, "lon": -77.07305, "type": "electric_scooter", "fusion_lat": 0.0, "lat": 38.936135, "name": "09ffcaec08fe027aa8e9c4a2ac9ba7a2", "fusion_lon": 0.0, "bike_id": "09ffcaec08fe027aa8e9c4a2ac9ba7a2", "is_disabled": 0, "is_reserved": 0}, {"rental_uris": {"ios": "https://dc.lft.to/lastmile_qr_scan", "android": "https://dc.lft.to/lastmile_qr_scan"}, "lon": -77.032175, "type": "electric_scooter", "fusion_lat": 0.0, "lat": 38.909752, "name": "d919f3cc665b48ca0d9ee3defe73a332", "fusion_lon": 0.0, "bike_id": "d919f3cc665b48ca0d9ee3defe73a332", "is_disabled": 0, "is_reserved": 0}, {"rental_uris": {"ios": "https://dc.lft.to/lastmile_qr_scan", "android": "https://dc.lft.to/lastmile_qr_scan"}, "lon": -77.03164383333333, "type": "electric_scooter", "fusion_lat": 0.0, "lat": 38.91409083333333, "name": "5fd6ffffb4702a990cd5cf1f8e4583f6", "fusion_lon": 0.0, "bike_id": "5fd6ffffb4702a990cd5cf1f8e4583f6", "is_disabled": 0, "is_reserved": 0}, {"rental_uris": {"ios": "https://dc.lft.to/lastmile_qr_scan", "android": "https://dc.lft.to/lastmile_qr_scan"}, "lon": -77.00502883333333, "type": "electric_scooter", "fusion_lat": 0.0, "lat": 38.87533633333334, "name": "c57422a53c5782ab97514986d0efa2dc", "fusion_lon": 0.0, "bike_id": "c57422a53c5782ab97514986d0efa2dc", "is_disabled": 0, "is_reserved": 0}, {"rental_uris": {"ios": "https://dc.lft.to/lastmile_qr_scan", "android": "https://dc.lft.to/lastmile_qr_scan"}, "lon": -77.00216666666667, "type": "electric_scooter", "fusion_lat": 0.0, "lat": 38.90512583333334, "name": "467abd68bc57f1112fa39adaf4ba98ce", "fusion_lon": 0.0, "bike_id": "467abd68bc57f1112fa39adaf4ba98ce", "is_disabled": 0, "is_reserved": 0}, {"rental_uris": {"ios": "https://dc.lft.to/lastmile_qr_scan", "android": "https://dc.lft.to/lastmile_qr_scan"}, "lon": -77.031473, "type": "electric_scooter", "fusion_lat": 0.0, "lat": 38.9096615, "name": "19894aee5a277e9e4dde890412727f93", "fusion_lon": 0.0, "bike_id": "19894aee5a277e9e4dde890412727f93", "is_disabled": 0, "is_reserved": 0}, {"rental_uris": {"ios": "https://dc.lft.to/lastmile_qr_scan", "android": "https://dc.lft.to/lastmile_qr_scan"}, "lon": -76.99168066666667, "type": "electric_scooter", "fusion_lat": 0.0, "lat": 38.87924866666667, "name": "c40ac35e278201df5db7a872737fd7cf", "fusion_lon": 0.0, "bike_id": "c40ac35e278201df5db7a872737fd7cf", "is_disabled": 0, "is_reserved": 0}, {"rental_uris": {"ios": "https://dc.lft.to/lastmile_qr_scan", "android": "https://dc.lft.to/lastmile_qr_scan"}, "lon": -77.02055283333333, "type": "electric_scooter", "fusion_lat": 0.0, "lat": 38.92013016666667, "name": "652c6ee097841d4a82e1dc964e3c63e9", "fusion_lon": 0.0, "bike_id": "652c6ee097841d4a82e1dc964e3c63e9", "is_disabled": 0, "is_reserved": 0}, {"rental_uris": {"ios": "https://dc.lft.to/lastmile_qr_scan", "android": "https://dc.lft.to/lastmile_qr_scan"}, "lon": -77.03795666666667, "type": "electric_scooter", "fusion_lat": 0.0, "lat": 38.925440333333334, "name": "965209860ccf9e7d2e23c7cceecf6ddd", "fusion_lon": 0.0, "bike_id": "965209860ccf9e7d2e23c7cceecf6ddd", "is_disabled": 0, "is_reserved": 0}, {"rental_uris": {"ios": "https://dc.lft.to/lastmile_qr_scan", "android": "https://dc.lft.to/lastmile_qr_scan"}, "lon": -77.0338115, "type": "electric_scooter", "fusion_lat": 0.0, "lat": 38.92150066666667, "name": "57fee86b1fd319fd6f8968fdee9726f8", "fusion_lon": 0.0, "bike_id": "57fee86b1fd319fd6f8968fdee9726f8", "is_disabled": 0, "is_reserved": 0}, {"rental_uris": {"ios": "https://dc.lft.to/lastmile_qr_scan", "android": "https://dc.lft.to/lastmile_qr_scan"}, "lon": -77.02459, "type": "electric_scooter", "fusion_lat": 0.0, "lat": 38.916896666666666, "name": "cd42e9152f43b9b68b65cb51e6c58f2a", "fusion_lon": 0.0, "bike_id": "cd42e9152f43b9b68b65cb51e6c58f2a", "is_disabled": 0, "is_reserved": 0}, {"rental_uris": {"ios": "https://dc.lft.to/lastmile_qr_scan", "android": "https://dc.lft.to/lastmile_qr_scan"}, "lon": -77.0207105, "type": "electric_scooter", "fusion_lat": 0.0, "lat": 38.90409183333333, "name": "d6ad5b1da30a4826dcfc968c2a02ba6a", "fusion_lon": 0.0, "bike_id": "d6ad5b1da30a4826dcfc968c2a02ba6a", "is_disabled": 0, "is_reserved": 0}, {"rental_uris": {"ios": "https://dc.lft.to/lastmile_qr_scan", "android": "https://dc.lft.to/lastmile_qr_scan"}, "lon": -77.02491916666666, "type": "electric_scooter", "fusion_lat": 0.0, "lat": 38.94283316666667, "name": "8d3814c049ed4c8272a4354283c25492", "fusion_lon": 0.0, "bike_id": "8d3814c049ed4c8272a4354283c25492", "is_disabled": 0, "is_reserved": 0}, {"rental_uris": {"ios": "https://dc.lft.to/lastmile_qr_scan", "android": "https://dc.lft.to/lastmile_qr_scan"}, "lon": -77.02691883333334, "type": "electric_scooter", "fusion_lat": 0.0, "lat": 38.89998083333333, "name": "e70e278b43459cd9d515680ff5a46e54", "fusion_lon": 0.0, "bike_id": "e70e278b43459cd9d515680ff5a46e54", "is_disabled": 0, "is_reserved": 0}, {"rental_uris": {"ios": "https://dc.lft.to/lastmile_qr_scan", "android": "https://dc.lft.to/lastmile_qr_scan"}, "lon": -77.00251233333333, "type": "electric_scooter", "fusion_lat": 0.0, "lat": 38.90126266666667, "name": "4b5057a0428ed314228a77a712e320c5", "fusion_lon": 0.0, "bike_id": "4b5057a0428ed314228a77a712e320c5", "is_disabled": 0, "is_reserved": 0}, {"rental_uris": {"ios": "https://dc.lft.to/lastmile_qr_scan", "android": "https://dc.lft.to/lastmile_qr_scan"}, "lon": -77.04622, "type": "electric_bike", "fusion_lat": 0.0, "lat": 38.99907783333333, "name": "1d4c980477cb28b897e3b1913feae65d", "fusion_lon": 0.0, "bike_id": "1d4c980477cb28b897e3b1913feae65d", "is_disabled": 0, "is_reserved": 0}, {"rental_uris": {"ios": "https://dc.lft.to/lastmile_qr_scan", "android": "https://dc.lft.to/lastmile_qr_scan"}, "lon": -77.03644783333333, "type": "electric_bike", "fusion_lat": 0.0, "lat": 38.956285333333334, "name": "65ce943840231dce3962454d674fdc3c", "fusion_lon": 0.0, "bike_id": "65ce943840231dce3962454d674fdc3c", "is_disabled": 0, "is_reserved": 0}, {"rental_uris": {"ios": "https://dc.lft.to/lastmile_qr_scan", "android": "https://dc.lft.to/lastmile_qr_scan"}, "lon": -77.00048, "type": "electric_scooter", "fusion_lat": 0.0, "lat": 38.906941333333336, "name": "befc5fe5a79975fc8607eb0880c426fb", "fusion_lon": 0.0, "bike_id": "befc5fe5a79975fc8607eb0880c426fb", "is_disabled": 0, "is_reserved": 0}, {"rental_uris": {"ios": "https://dc.lft.to/lastmile_qr_scan", "android": "https://dc.lft.to/lastmile_qr_scan"}, "lon": -77.064707, "type": "electric_bike", "fusion_lat": 0.0, "lat": 38.97384266666667, "name": "83d5128fcf30d37834f798d63d3e47a0", "fusion_lon": 0.0, "bike_id": "83d5128fcf30d37834f798d63d3e47a0", "is_disabled": 0, "is_reserved": 0}, {"rental_uris": {"ios": "https://dc.lft.to/lastmile_qr_scan", "android": "https://dc.lft.to/lastmile_qr_scan"}, "lon": -76.977445, "type": "electric_scooter", "fusion_lat": 0.0, "lat": 38.900089333333334, "name": "21d3ac866c7c10cadd03730e75620bad", "fusion_lon": 0.0, "bike_id": "21d3ac866c7c10cadd03730e75620bad", "is_disabled": 0, "is_reserved": 0}, {"rental_uris": {"ios": "https://dc.lft.to/lastmile_qr_scan", "android": "https://dc.lft.to/lastmile_qr_scan"}, "lon": -76.9761095, "type": "electric_scooter", "fusion_lat": 0.0, "lat": 38.90383, "name": "4d03f1acacf1880e924ed4dcf0d677fa", "fusion_lon": 0.0, "bike_id": "4d03f1acacf1880e924ed4dcf0d677fa", "is_disabled": 0, "is_reserved": 0}, {"rental_uris": {"ios": "https://dc.lft.to/lastmile_qr_scan", "android": "https://dc.lft.to/lastmile_qr_scan"}, "lon": -76.878142, "type": "electric_bike", "fusion_lat": 0.0, "lat": 38.9922855, "name": "bab15b192bd76d11b26593d7c55acec3", "fusion_lon": 0.0, "bike_id": "bab15b192bd76d11b26593d7c55acec3", "is_disabled": 0, "is_reserved": 0}, {"rental_uris": {"ios": "https://dc.lft.to/lastmile_qr_scan", "android": "https://dc.lft.to/lastmile_qr_scan"}, "lon": -77.03310916666666, "type": "electric_scooter", "fusion_lat": 0.0, "lat": 38.91412066666667, "name": "b068a2bda46f94430a54cef0f4f81dce", "fusion_lon": 0.0, "bike_id": "b068a2bda46f94430a54cef0f4f81dce", "is_disabled": 0, "is_reserved": 0}, {"rental_uris": {"ios": "https://dc.lft.to/lastmile_qr_scan", "android": "https://dc.lft.to/lastmile_qr_scan"}, "lon": -77.05537166666667, "type": "electric_scooter", "fusion_lat": 0.0, "lat": 38.89934616666667, "name": "4a309ab73151bed1894a149d20d5a364", "fusion_lon": 0.0, "bike_id": "4a309ab73151bed1894a149d20d5a364", "is_disabled": 0, "is_reserved": 0}, {"rental_uris": {"ios": "https://dc.lft.to/lastmile_qr_scan", "android": "https://dc.lft.to/lastmile_qr_scan"}, "lon": -77.0249005, "type": "electric_bike", "fusion_lat": 0.0, "lat": 38.91750716666667, "name": "298aaa4dff21a04e91da9821edd19fb8", "fusion_lon": 0.0, "bike_id": "298aaa4dff21a04e91da9821edd19fb8", "is_disabled": 0, "is_reserved": 0}, {"rental_uris": {"ios": "https://dc.lft.to/lastmile_qr_scan", "android": "https://dc.lft.to/lastmile_qr_scan"}, "lon": -76.9486805, "type": "electric_bike", "fusion_lat": 0.0, "lat": 38.8896145, "name": "f944c06b1cf4ad5c7dc016e3ae937e73", "fusion_lon": 0.0, "bike_id": "f944c06b1cf4ad5c7dc016e3ae937e73", "is_disabled": 0, "is_reserved": 0}, {"rental_uris": {"ios": "https://dc.lft.to/lastmile_qr_scan", "android": "https://dc.lft.to/lastmile_qr_scan"}, "lon": -77.02140183333333, "type": "electric_bike", "fusion_lat": 0.0, "lat": 38.94806466666667, "name": "3bbd873e054f4f49c001667e28d15c87", "fusion_lon": 0.0, "bike_id": "3bbd873e054f4f49c001667e28d15c87", "is_disabled": 0, "is_reserved": 0}, {"rental_uris": {"ios": "https://dc.lft.to/lastmile_qr_scan", "android": "https://dc.lft.to/lastmile_qr_scan"}, "lon": -77.10724666666667, "type": "electric_bike", "fusion_lat": 0.0, "lat": 38.85524916666667, "name": "ca8acf5abc842c5a725806b179635a50", "fusion_lon": 0.0, "bike_id": "ca8acf5abc842c5a725806b179635a50", "is_disabled": 0, "is_reserved": 0}, {"rental_uris": {"ios": "https://dc.lft.to/lastmile_qr_scan", "android": "https://dc.lft.to/lastmile_qr_scan"}, "lon": -77.037825, "type": "electric_scooter", "fusion_lat": 0.0, "lat": 38.9262755, "name": "5c5efd2695e7cd986b40e64fe1a8b568", "fusion_lon": 0.0, "bike_id": "5c5efd2695e7cd986b40e64fe1a8b568", "is_disabled": 0, "is_reserved": 0}, {"rental_uris": {"ios": "https://dc.lft.to/lastmile_qr_scan", "android": "https://dc.lft.to/lastmile_qr_scan"}, "lon": -77.02161766666667, "type": "electric_scooter", "fusion_lat": 0.0, "lat": 38.92508816666667, "name": "dc084b56dec36e56b45cca9edf8c9e94", "fusion_lon": 0.0, "bike_id": "dc084b56dec36e56b45cca9edf8c9e94", "is_disabled": 0, "is_reserved": 0}, {"rental_uris": {"ios": "https://dc.lft.to/lastmile_qr_scan", "android": "https://dc.lft.to/lastmile_qr_scan"}, "lon": -76.94715766666667, "type": "electric_scooter", "fusion_lat": 0.0, "lat": 38.89691883333333, "name": "35cd193e482037af08039cb5aee9bbe6", "fusion_lon": 0.0, "bike_id": "35cd193e482037af08039cb5aee9bbe6", "is_disabled": 0, "is_reserved": 0}, {"rental_uris": {"ios": "https://dc.lft.to/lastmile_qr_scan", "android": "https://dc.lft.to/lastmile_qr_scan"}, "lon": -77.04645716666667, "type": "electric_bike", "fusion_lat": 0.0, "lat": 38.852096, "name": "20514533e88c38094d68486c96ad6848", "fusion_lon": 0.0, "bike_id": "20514533e88c38094d68486c96ad6848", "is_disabled": 0, "is_reserved": 0}, {"rental_uris": {"ios": "https://dc.lft.to/lastmile_qr_scan", "android": "https://dc.lft.to/lastmile_qr_scan"}, "lon": -77.04381583333333, "type": "electric_scooter", "fusion_lat": 0.0, "lat": 38.917968333333334, "name": "5d2e45b4e3cbfc4f9c876864093b6284", "fusion_lon": 0.0, "bike_id": "5d2e45b4e3cbfc4f9c876864093b6284", "is_disabled": 0, "is_reserved": 0}, {"rental_uris": {"ios": "https://dc.lft.to/lastmile_qr_scan", "android": "https://dc.lft.to/lastmile_qr_scan"}, "lon": -77.031841, "type": "electric_scooter", "fusion_lat": 0.0, "lat": 38.9117715, "name": "9adf44d6ec3450efde78f5849f6b9fe9", "fusion_lon": 0.0, "bike_id": "9adf44d6ec3450efde78f5849f6b9fe9", "is_disabled": 0, "is_reserved": 0}, {"rental_uris": {"ios": "https://dc.lft.to/lastmile_qr_scan", "android": "https://dc.lft.to/lastmile_qr_scan"}, "lon": -77.0332395, "type": "electric_scooter", "fusion_lat": 0.0, "lat": 38.90016, "name": "3c559e12e1d067e733ab7e5688bea435", "fusion_lon": 0.0, "bike_id": "3c559e12e1d067e733ab7e5688bea435", "is_disabled": 0, "is_reserved": 0}, {"rental_uris": {"ios": "https://dc.lft.to/lastmile_qr_scan", "android": "https://dc.lft.to/lastmile_qr_scan"}, "lon": -76.98142933333334, "type": "electric_scooter", "fusion_lat": 0.0, "lat": 38.905647333333334, "name": "80e752e28449d16acb5a69091b5cc0be", "fusion_lon": 0.0, "bike_id": "80e752e28449d16acb5a69091b5cc0be", "is_disabled": 0, "is_reserved": 0}, {"rental_uris": {"ios": "https://dc.lft.to/lastmile_qr_scan", "android": "https://dc.lft.to/lastmile_qr_scan"}, "lon": -77.04563, "type": "electric_scooter", "fusion_lat": 0.0, "lat": 38.9177415, "name": "1193ee4d02b60128b4c0b67df291065b", "fusion_lon": 0.0, "bike_id": "1193ee4d02b60128b4c0b67df291065b", "is_disabled": 0, "is_reserved": 0}, {"rental_uris": {"ios": "https://dc.lft.to/lastmile_qr_scan", "android": "https://dc.lft.to/lastmile_qr_scan"}, "lon": -77.02562766666667, "type": "electric_scooter", "fusion_lat": 0.0, "lat": 38.925317, "name": "ea4639770bef525c5bf47612f6bcad1e", "fusion_lon": 0.0, "bike_id": "ea4639770bef525c5bf47612f6bcad1e", "is_disabled": 0, "is_reserved": 0}, {"rental_uris": {"ios": "https://dc.lft.to/lastmile_qr_scan", "android": "https://dc.lft.to/lastmile_qr_scan"}, "lon": -77.01091533333333, "type": "electric_scooter", "fusion_lat": 0.0, "lat": 38.89499983333333, "name": "80bf70911957420b9f533b49857a8fc8", "fusion_lon": 0.0, "bike_id": "80bf70911957420b9f533b49857a8fc8", "is_disabled": 0, "is_reserved": 0}, {"rental_uris": {"ios": "https://dc.lft.to/lastmile_qr_scan", "android": "https://dc.lft.to/lastmile_qr_scan"}, "lon": -77.0415585, "type": "electric_scooter", "fusion_lat": 0.0, "lat": 38.914157333333335, "name": "6c7d330dc658ff9ab71d8e01e6a0a468", "fusion_lon": 0.0, "bike_id": "6c7d330dc658ff9ab71d8e01e6a0a468", "is_disabled": 0, "is_reserved": 0}, {"rental_uris": {"ios": "https://dc.lft.to/lastmile_qr_scan", "android": "https://dc.lft.to/lastmile_qr_scan"}, "lon": -76.999453, "type": "electric_scooter", "fusion_lat": 0.0, "lat": 38.84290166666667, "name": "b36605ffe7a0057db42c9b7e302cea1a", "fusion_lon": 0.0, "bike_id": "b36605ffe7a0057db42c9b7e302cea1a", "is_disabled": 0, "is_reserved": 0}, {"rental_uris": {"ios": "https://dc.lft.to/lastmile_qr_scan", "android": "https://dc.lft.to/lastmile_qr_scan"}, "lon": -77.06353666666666, "type": "electric_scooter", "fusion_lat": 0.0, "lat": 38.944469, "name": "49e631f99f962e52faef059fec5c6aa2", "fusion_lon": 0.0, "bike_id": "49e631f99f962e52faef059fec5c6aa2", "is_disabled": 0, "is_reserved": 0}, {"rental_uris": {"ios": "https://dc.lft.to/lastmile_qr_scan", "android": "https://dc.lft.to/lastmile_qr_scan"}, "lon": -77.032587, "type": "electric_scooter", "fusion_lat": 0.0, "lat": 38.935582833333335, "name": "7a731826fbd61d14217a1933df7c31e3", "fusion_lon": 0.0, "bike_id": "7a731826fbd61d14217a1933df7c31e3", "is_disabled": 0, "is_reserved": 0}, {"rental_uris": {"ios": "https://dc.lft.to/lastmile_qr_scan", "android": "https://dc.lft.to/lastmile_qr_scan"}, "lon": -77.02349916666667, "type": "electric_scooter", "fusion_lat": 0.0, "lat": 38.92274533333333, "name": "2556d98837b8f53970422ba6802cb0af", "fusion_lon": 0.0, "bike_id": "2556d98837b8f53970422ba6802cb0af", "is_disabled": 0, "is_reserved": 0}, {"rental_uris": {"ios": "https://dc.lft.to/lastmile_qr_scan", "android": "https://dc.lft.to/lastmile_qr_scan"}, "lon": -77.00207516666667, "type": "electric_scooter", "fusion_lat": 0.0, "lat": 38.9021525, "name": "8288e180519ab06456035d3c868984ed", "fusion_lon": 0.0, "bike_id": "8288e180519ab06456035d3c868984ed", "is_disabled": 0, "is_reserved": 0}, {"rental_uris": {"ios": "https://dc.lft.to/lastmile_qr_scan", "android": "https://dc.lft.to/lastmile_qr_scan"}, "lon": -77.03496366666667, "type": "electric_scooter", "fusion_lat": 0.0, "lat": 38.916987666666664, "name": "24523aca7166b97fa345cd0fab7a4fb2", "fusion_lon": 0.0, "bike_id": "24523aca7166b97fa345cd0fab7a4fb2", "is_disabled": 0, "is_reserved": 0}, {"rental_uris": {"ios": "https://dc.lft.to/lastmile_qr_scan", "android": "https://dc.lft.to/lastmile_qr_scan"}, "lon": -77.03208733333334, "type": "electric_scooter", "fusion_lat": 0.0, "lat": 38.91183383333333, "name": "207f126f7d8042dc8b693dc907e7bc7b", "fusion_lon": 0.0, "bike_id": "207f126f7d8042dc8b693dc907e7bc7b", "is_disabled": 0, "is_reserved": 0}, {"rental_uris": {"ios": "https://dc.lft.to/lastmile_qr_scan", "android": "https://dc.lft.to/lastmile_qr_scan"}, "lon": -77.03258516666666, "type": "electric_scooter", "fusion_lat": 0.0, "lat": 38.93636983333333, "name": "ed973f88d12cefcc85f67164f6ed9b7b", "fusion_lon": 0.0, "bike_id": "ed973f88d12cefcc85f67164f6ed9b7b", "is_disabled": 0, "is_reserved": 0}, {"rental_uris": {"ios": "https://dc.lft.to/lastmile_qr_scan", "android": "https://dc.lft.to/lastmile_qr_scan"}, "lon": -77.00736666666667, "type": "electric_scooter", "fusion_lat": 0.0, "lat": 38.95519866666667, "name": "89afeab8151090509ceac1fa78a9a834", "fusion_lon": 0.0, "bike_id": "89afeab8151090509ceac1fa78a9a834", "is_disabled": 0, "is_reserved": 0}, {"rental_uris": {"ios": "https://dc.lft.to/lastmile_qr_scan", "android": "https://dc.lft.to/lastmile_qr_scan"}, "lon": -77.03467283333333, "type": "electric_scooter", "fusion_lat": 0.0, "lat": 38.90545983333333, "name": "086dd1d5484ea6165e594e602a1f1d0c", "fusion_lon": 0.0, "bike_id": "086dd1d5484ea6165e594e602a1f1d0c", "is_disabled": 0, "is_reserved": 0}, {"rental_uris": {"ios": "https://dc.lft.to/lastmile_qr_scan", "android": "https://dc.lft.to/lastmile_qr_scan"}, "lon": -77.0320315, "type": "electric_scooter", "fusion_lat": 0.0, "lat": 38.91347916666667, "name": "bfd14eeae2b064c4fb0bec76adb48376", "fusion_lon": 0.0, "bike_id": "bfd14eeae2b064c4fb0bec76adb48376", "is_disabled": 0, "is_reserved": 0}, {"rental_uris": {"ios": "https://dc.lft.to/lastmile_qr_scan", "android": "https://dc.lft.to/lastmile_qr_scan"}, "lon": -77.046872, "type": "electric_scooter", "fusion_lat": 0.0, "lat": 38.92127883333333, "name": "f8596a80318a5a4de26691ec1186bcb4", "fusion_lon": 0.0, "bike_id": "f8596a80318a5a4de26691ec1186bcb4", "is_disabled": 0, "is_reserved": 0}, {"rental_uris": {"ios": "https://dc.lft.to/lastmile_qr_scan", "android": "https://dc.lft.to/lastmile_qr_scan"}, "lon": -77.0209695, "type": "electric_scooter", "fusion_lat": 0.0, "lat": 38.93447666666667, "name": "957c22c24afd2717784b6a2181788edf", "fusion_lon": 0.0, "bike_id": "957c22c24afd2717784b6a2181788edf", "is_disabled": 0, "is_reserved": 0}, {"rental_uris": {"ios": "https://dc.lft.to/lastmile_qr_scan", "android": "https://dc.lft.to/lastmile_qr_scan"}, "lon": -77.03943916666667, "type": "electric_scooter", "fusion_lat": 0.0, "lat": 38.908123333333336, "name": "395d3735931ecc28daf9125e694a60bf", "fusion_lon": 0.0, "bike_id": "395d3735931ecc28daf9125e694a60bf", "is_disabled": 0, "is_reserved": 0}, {"rental_uris": {"ios": "https://dc.lft.to/lastmile_qr_scan", "android": "https://dc.lft.to/lastmile_qr_scan"}, "lon": -77.0183905, "type": "electric_bike", "fusion_lat": 0.0, "lat": 38.931049333333334, "name": "86fbdb63babb99ea5195d8976f35ae53", "fusion_lon": 0.0, "bike_id": "86fbdb63babb99ea5195d8976f35ae53", "is_disabled": 0, "is_reserved": 0}, {"rental_uris": {"ios": "https://dc.lft.to/lastmile_qr_scan", "android": "https://dc.lft.to/lastmile_qr_scan"}, "lon": -76.94664866666666, "type": "electric_scooter", "fusion_lat": 0.0, "lat": 38.89870233333333, "name": "df8c19a4a6d0fd80f8d94290a9c915e4", "fusion_lon": 0.0, "bike_id": "df8c19a4a6d0fd80f8d94290a9c915e4", "is_disabled": 0, "is_reserved": 0}, {"rental_uris": {"ios": "https://dc.lft.to/lastmile_qr_scan", "android": "https://dc.lft.to/lastmile_qr_scan"}, "lon": -77.03301333333333, "type": "electric_scooter", "fusion_lat": 0.0, "lat": 38.909805, "name": "0dd47d6e27b62fdabd2403c73801952c", "fusion_lon": 0.0, "bike_id": "0dd47d6e27b62fdabd2403c73801952c", "is_disabled": 0, "is_reserved": 0}, {"rental_uris": {"ios": "https://dc.lft.to/lastmile_qr_scan", "android": "https://dc.lft.to/lastmile_qr_scan"}, "lon": -76.99694583333333, "type": "electric_scooter", "fusion_lat": 0.0, "lat": 38.90832983333333, "name": "d67637407e1d85ca0d3f71737aa6f8dc", "fusion_lon": 0.0, "bike_id": "d67637407e1d85ca0d3f71737aa6f8dc", "is_disabled": 0, "is_reserved": 0}, {"rental_uris": {"ios": "https://dc.lft.to/lastmile_qr_scan", "android": "https://dc.lft.to/lastmile_qr_scan"}, "lon": -77.00336616666667, "type": "electric_scooter", "fusion_lat": 0.0, "lat": 38.8935315, "name": "20b211008f609bf8fac677f7ec42c08a", "fusion_lon": 0.0, "bike_id": "20b211008f609bf8fac677f7ec42c08a", "is_disabled": 0, "is_reserved": 0}, {"rental_uris": {"ios": "https://dc.lft.to/lastmile_qr_scan", "android": "https://dc.lft.to/lastmile_qr_scan"}, "lon": -77.033648, "type": "electric_scooter", "fusion_lat": 0.0, "lat": 38.89999666666667, "name": "024aec04d007a162ef12eeca3d67c810", "fusion_lon": 0.0, "bike_id": "024aec04d007a162ef12eeca3d67c810", "is_disabled": 0, "is_reserved": 0}, {"rental_uris": {"ios": "https://dc.lft.to/lastmile_qr_scan", "android": "https://dc.lft.to/lastmile_qr_scan"}, "lon": -77.0513035, "type": "electric_scooter", "fusion_lat": 0.0, "lat": 38.90207216666667, "name": "437892764bd0f2116f1e46893db2c78c", "fusion_lon": 0.0, "bike_id": "437892764bd0f2116f1e46893db2c78c", "is_disabled": 0, "is_reserved": 0}, {"rental_uris": {"ios": "https://dc.lft.to/lastmile_qr_scan", "android": "https://dc.lft.to/lastmile_qr_scan"}, "lon": -76.99584633333333, "type": "electric_scooter", "fusion_lat": 0.0, "lat": 38.95503983333333, "name": "1f4edc50c8224300dfa5ea4fca0ce032", "fusion_lon": 0.0, "bike_id": "1f4edc50c8224300dfa5ea4fca0ce032", "is_disabled": 0, "is_reserved": 0}, {"rental_uris": {"ios": "https://dc.lft.to/lastmile_qr_scan", "android": "https://dc.lft.to/lastmile_qr_scan"}, "lon": -76.91915383333334, "type": "electric_scooter", "fusion_lat": 0.0, "lat": 38.890741166666665, "name": "ee2d3376a9e70308e8396f12462ca52b", "fusion_lon": 0.0, "bike_id": "ee2d3376a9e70308e8396f12462ca52b", "is_disabled": 0, "is_reserved": 0}, {"rental_uris": {"ios": "https://dc.lft.to/lastmile_qr_scan", "android": "https://dc.lft.to/lastmile_qr_scan"}, "lon": -77.04506083333334, "type": "electric_scooter", "fusion_lat": 0.0, "lat": 38.9110835, "name": "8c2cb44ce2de713aeb550f8d4e5d2367", "fusion_lon": 0.0, "bike_id": "8c2cb44ce2de713aeb550f8d4e5d2367", "is_disabled": 0, "is_reserved": 0}, {"rental_uris": {"ios": "https://dc.lft.to/lastmile_qr_scan", "android": "https://dc.lft.to/lastmile_qr_scan"}, "lon": -77.03265366666666, "type": "electric_scooter", "fusion_lat": 0.0, "lat": 38.907279833333334, "name": "88ae4d8566ba57c1624cadf8fb5ea8ce", "fusion_lon": 0.0, "bike_id": "88ae4d8566ba57c1624cadf8fb5ea8ce", "is_disabled": 0, "is_reserved": 0}, {"rental_uris": {"ios": "https://dc.lft.to/lastmile_qr_scan", "android": "https://dc.lft.to/lastmile_qr_scan"}, "lon": -76.99792616666667, "type": "electric_bike", "fusion_lat": 0.0, "lat": 38.905585333333335, "name": "592e3c272c8d61eed6bde7c2d3e64721", "fusion_lon": 0.0, "bike_id": "592e3c272c8d61eed6bde7c2d3e64721", "is_disabled": 0, "is_reserved": 0}, {"rental_uris": {"ios": "https://dc.lft.to/lastmile_qr_scan", "android": "https://dc.lft.to/lastmile_qr_scan"}, "lon": -77.0381515, "type": "electric_scooter", "fusion_lat": 0.0, "lat": 38.920632499999996, "name": "728cc79bf80987948e426887283fba12", "fusion_lon": 0.0, "bike_id": "728cc79bf80987948e426887283fba12", "is_disabled": 0, "is_reserved": 0}, {"rental_uris": {"ios": "https://dc.lft.to/lastmile_qr_scan", "android": "https://dc.lft.to/lastmile_qr_scan"}, "lon": -76.92368466666667, "type": "electric_bike", "fusion_lat": 0.0, "lat": 38.88372733333333, "name": "459bdfa6ab392621c78a3180b7eb8ac6", "fusion_lon": 0.0, "bike_id": "459bdfa6ab392621c78a3180b7eb8ac6", "is_disabled": 0, "is_reserved": 0}, {"rental_uris": {"ios": "https://dc.lft.to/lastmile_qr_scan", "android": "https://dc.lft.to/lastmile_qr_scan"}, "lon": -77.04788033333334, "type": "electric_scooter", "fusion_lat": 0.0, "lat": 38.89365016666667, "name": "2e233d6a4fc9bb2905ccf24d663fdd03", "fusion_lon": 0.0, "bike_id": "2e233d6a4fc9bb2905ccf24d663fdd03", "is_disabled": 0, "is_reserved": 0}, {"rental_uris": {"ios": "https://dc.lft.to/lastmile_qr_scan", "android": "https://dc.lft.to/lastmile_qr_scan"}, "lon": -77.023577, "type": "electric_scooter", "fusion_lat": 0.0, "lat": 38.920492833333334, "name": "d45ad4739cf00eec91459f0991fb0ed0", "fusion_lon": 0.0, "bike_id": "d45ad4739cf00eec91459f0991fb0ed0", "is_disabled": 0, "is_reserved": 0}, {"rental_uris": {"ios": "https://dc.lft.to/lastmile_qr_scan", "android": "https://dc.lft.to/lastmile_qr_scan"}, "lon": -77.0385015, "type": "electric_scooter", "fusion_lat": 0.0, "lat": 38.9116975, "name": "dae9792967f9ffa986fc944a33bdcbac", "fusion_lon": 0.0, "bike_id": "dae9792967f9ffa986fc944a33bdcbac", "is_disabled": 0, "is_reserved": 0}, {"rental_uris": {"ios": "https://dc.lft.to/lastmile_qr_scan", "android": "https://dc.lft.to/lastmile_qr_scan"}, "lon": -77.03205083333333, "type": "electric_scooter", "fusion_lat": 0.0, "lat": 38.894022666666665, "name": "2c43e46cfc76d6e70477e65c9091f93b", "fusion_lon": 0.0, "bike_id": "2c43e46cfc76d6e70477e65c9091f93b", "is_disabled": 0, "is_reserved": 0}, {"rental_uris": {"ios": "https://dc.lft.to/lastmile_qr_scan", "android": "https://dc.lft.to/lastmile_qr_scan"}, "lon": -77.041928, "type": "electric_scooter", "fusion_lat": 0.0, "lat": 38.918667666666664, "name": "4ec3d581e1dcbf274f436979592741c8", "fusion_lon": 0.0, "bike_id": "4ec3d581e1dcbf274f436979592741c8", "is_disabled": 0, "is_reserved": 0}, {"rental_uris": {"ios": "https://dc.lft.to/lastmile_qr_scan", "android": "https://dc.lft.to/lastmile_qr_scan"}, "lon": -77.019742, "type": "electric_scooter", "fusion_lat": 0.0, "lat": 38.90237183333333, "name": "7f190b0a2039fa9728e2771077dd397b", "fusion_lon": 0.0, "bike_id": "7f190b0a2039fa9728e2771077dd397b", "is_disabled": 0, "is_reserved": 0}, {"rental_uris": {"ios": "https://dc.lft.to/lastmile_qr_scan", "android": "https://dc.lft.to/lastmile_qr_scan"}, "lon": -76.97568283333334, "type": "electric_bike", "fusion_lat": 0.0, "lat": 38.9250425, "name": "7aa92947573d07945ea990f5e94abd92", "fusion_lon": 0.0, "bike_id": "7aa92947573d07945ea990f5e94abd92", "is_disabled": 0, "is_reserved": 0}, {"rental_uris": {"ios": "https://dc.lft.to/lastmile_qr_scan", "android": "https://dc.lft.to/lastmile_qr_scan"}, "lon": -77.02286366666667, "type": "electric_scooter", "fusion_lat": 0.0, "lat": 38.956402, "name": "42f9bcb2846781ad5b32ac6c8b36c01a", "fusion_lon": 0.0, "bike_id": "42f9bcb2846781ad5b32ac6c8b36c01a", "is_disabled": 0, "is_reserved": 0}, {"rental_uris": {"ios": "https://dc.lft.to/lastmile_qr_scan", "android": "https://dc.lft.to/lastmile_qr_scan"}, "lon": -77.0445535, "type": "electric_scooter", "fusion_lat": 0.0, "lat": 38.903201333333335, "name": "928c9017e758a6c96ef737139664882d", "fusion_lon": 0.0, "bike_id": "928c9017e758a6c96ef737139664882d", "is_disabled": 0, "is_reserved": 0}, {"rental_uris": {"ios": "https://dc.lft.to/lastmile_qr_scan", "android": "https://dc.lft.to/lastmile_qr_scan"}, "lon": -77.00812033333334, "type": "electric_scooter", "fusion_lat": 0.0, "lat": 38.90568416666667, "name": "9edffbdd2494a8a19f1e6ca679abdbbb", "fusion_lon": 0.0, "bike_id": "9edffbdd2494a8a19f1e6ca679abdbbb", "is_disabled": 0, "is_reserved": 0}, {"rental_uris": {"ios": "https://dc.lft.to/lastmile_qr_scan", "android": "https://dc.lft.to/lastmile_qr_scan"}, "lon": -77.02159183333333, "type": "electric_scooter", "fusion_lat": 0.0, "lat": 38.92496416666667, "name": "6e92359898e912cb7ff15b5cd66f59c5", "fusion_lon": 0.0, "bike_id": "6e92359898e912cb7ff15b5cd66f59c5", "is_disabled": 0, "is_reserved": 0}, {"rental_uris": {"ios": "https://dc.lft.to/lastmile_qr_scan", "android": "https://dc.lft.to/lastmile_qr_scan"}, "lon": -76.93174616666667, "type": "electric_scooter", "fusion_lat": 0.0, "lat": 38.89884583333333, "name": "c59447fdf7fec9da65657f7fb1b05d3b", "fusion_lon": 0.0, "bike_id": "c59447fdf7fec9da65657f7fb1b05d3b", "is_disabled": 0, "is_reserved": 0}, {"rental_uris": {"ios": "https://dc.lft.to/lastmile_qr_scan", "android": "https://dc.lft.to/lastmile_qr_scan"}, "lon": -77.02760583333334, "type": "electric_scooter", "fusion_lat": 0.0, "lat": 38.91340733333333, "name": "8a1f4663f7452ea8dcead98fd97d825c", "fusion_lon": 0.0, "bike_id": "8a1f4663f7452ea8dcead98fd97d825c", "is_disabled": 0, "is_reserved": 0}, {"rental_uris": {"ios": "https://dc.lft.to/lastmile_qr_scan", "android": "https://dc.lft.to/lastmile_qr_scan"}, "lon": -76.995738, "type": "electric_scooter", "fusion_lat": 0.0, "lat": 38.9003, "name": "2efe76583d325c6941d7c957d2069b8a", "fusion_lon": 0.0, "bike_id": "2efe76583d325c6941d7c957d2069b8a", "is_disabled": 0, "is_reserved": 0}, {"rental_uris": {"ios": "https://dc.lft.to/lastmile_qr_scan", "android": "https://dc.lft.to/lastmile_qr_scan"}, "lon": -77.03182966666667, "type": "electric_scooter", "fusion_lat": 0.0, "lat": 38.91325466666667, "name": "a9222ff51a046e468215af6e8a8ad01f", "fusion_lon": 0.0, "bike_id": "a9222ff51a046e468215af6e8a8ad01f", "is_disabled": 0, "is_reserved": 0}, {"rental_uris": {"ios": "https://dc.lft.to/lastmile_qr_scan", "android": "https://dc.lft.to/lastmile_qr_scan"}, "lon": -77.0283665, "type": "electric_scooter", "fusion_lat": 0.0, "lat": 38.942600166666665, "name": "c2a49f0a30f19409fe9b8b0cf2251cf2", "fusion_lon": 0.0, "bike_id": "c2a49f0a30f19409fe9b8b0cf2251cf2", "is_disabled": 0, "is_reserved": 0}, {"rental_uris": {"ios": "https://dc.lft.to/lastmile_qr_scan", "android": "https://dc.lft.to/lastmile_qr_scan"}, "lon": -77.00720583333333, "type": "electric_scooter", "fusion_lat": 0.0, "lat": 38.88491166666667, "name": "f34a30313c717bfe0b3f2548cde79007", "fusion_lon": 0.0, "bike_id": "f34a30313c717bfe0b3f2548cde79007", "is_disabled": 0, "is_reserved": 0}, {"rental_uris": {"ios": "https://dc.lft.to/lastmile_qr_scan", "android": "https://dc.lft.to/lastmile_qr_scan"}, "lon": -77.00443416666667, "type": "electric_scooter", "fusion_lat": 0.0, "lat": 38.87630683333333, "name": "ad8e704ace3bc33d7c6c0efa00dad5c2", "fusion_lon": 0.0, "bike_id": "ad8e704ace3bc33d7c6c0efa00dad5c2", "is_disabled": 0, "is_reserved": 0}, {"rental_uris": {"ios": "https://dc.lft.to/lastmile_qr_scan", "android": "https://dc.lft.to/lastmile_qr_scan"}, "lon": -77.02123033333334, "type": "electric_scooter", "fusion_lat": 0.0, "lat": 38.9029115, "name": "1e9eab8ee3d7e9bc55952d1c351f68a1", "fusion_lon": 0.0, "bike_id": "1e9eab8ee3d7e9bc55952d1c351f68a1", "is_disabled": 0, "is_reserved": 0}, {"rental_uris": {"ios": "https://dc.lft.to/lastmile_qr_scan", "android": "https://dc.lft.to/lastmile_qr_scan"}, "lon": -77.04403383333333, "type": "electric_scooter", "fusion_lat": 0.0, "lat": 38.920515333333334, "name": "d101a28d5bd8f745e23b2bcd24856350", "fusion_lon": 0.0, "bike_id": "d101a28d5bd8f745e23b2bcd24856350", "is_disabled": 0, "is_reserved": 0}, {"rental_uris": {"ios": "https://dc.lft.to/lastmile_qr_scan", "android": "https://dc.lft.to/lastmile_qr_scan"}, "lon": -76.93172016666666, "type": "electric_scooter", "fusion_lat": 0.0, "lat": 38.89879633333334, "name": "7a7eec6ba857af1de88c7b08c9a117bb", "fusion_lon": 0.0, "bike_id": "7a7eec6ba857af1de88c7b08c9a117bb", "is_disabled": 0, "is_reserved": 0}, {"rental_uris": {"ios": "https://dc.lft.to/lastmile_qr_scan", "android": "https://dc.lft.to/lastmile_qr_scan"}, "lon": -77.35309666666667, "type": "electric_bike", "fusion_lat": 0.0, "lat": 38.949983, "name": "ce9644398ca7086afc3a7a9cc80acb5e", "fusion_lon": 0.0, "bike_id": "ce9644398ca7086afc3a7a9cc80acb5e", "is_disabled": 0, "is_reserved": 0}, {"rental_uris": {"ios": "https://dc.lft.to/lastmile_qr_scan", "android": "https://dc.lft.to/lastmile_qr_scan"}, "lon": -76.9981085, "type": "electric_scooter", "fusion_lat": 0.0, "lat": 38.900232333333335, "name": "9390063f4cc03a0a35d3b70643ceb76d", "fusion_lon": 0.0, "bike_id": "9390063f4cc03a0a35d3b70643ceb76d", "is_disabled": 0, "is_reserved": 0}, {"rental_uris": {"ios": "https://dc.lft.to/lastmile_qr_scan", "android": "https://dc.lft.to/lastmile_qr_scan"}, "lon": -77.063795, "type": "electric_scooter", "fusion_lat": 0.0, "lat": 38.90500383333333, "name": "d73b117345ae7fe2d4b3cbeabe1c186e", "fusion_lon": 0.0, "bike_id": "d73b117345ae7fe2d4b3cbeabe1c186e", "is_disabled": 0, "is_reserved": 0}, {"rental_uris": {"ios": "https://dc.lft.to/lastmile_qr_scan", "android": "https://dc.lft.to/lastmile_qr_scan"}, "lon": -77.039924, "type": "electric_scooter", "fusion_lat": 0.0, "lat": 38.90028066666667, "name": "defd22c66ab0abcb9b52bed7f0d80b4d", "fusion_lon": 0.0, "bike_id": "defd22c66ab0abcb9b52bed7f0d80b4d", "is_disabled": 0, "is_reserved": 0}, {"rental_uris": {"ios": "https://dc.lft.to/lastmile_qr_scan", "android": "https://dc.lft.to/lastmile_qr_scan"}, "lon": -77.04844766666666, "type": "electric_scooter", "fusion_lat": 0.0, "lat": 38.919579666666664, "name": "45d8fd2b6cc0df69520109cb9723edc3", "fusion_lon": 0.0, "bike_id": "45d8fd2b6cc0df69520109cb9723edc3", "is_disabled": 0, "is_reserved": 0}, {"rental_uris": {"ios": "https://dc.lft.to/lastmile_qr_scan", "android": "https://dc.lft.to/lastmile_qr_scan"}, "lon": -77.034897, "type": "electric_scooter", "fusion_lat": 0.0, "lat": 38.917035, "name": "a1e1762f06aa857f99384f6776263852", "fusion_lon": 0.0, "bike_id": "a1e1762f06aa857f99384f6776263852", "is_disabled": 0, "is_reserved": 0}, {"rental_uris": {"ios": "https://dc.lft.to/lastmile_qr_scan", "android": "https://dc.lft.to/lastmile_qr_scan"}, "lon": -77.02524733333334, "type": "electric_scooter", "fusion_lat": 0.0, "lat": 38.892200333333335, "name": "3ea13889a280d7caf07d0f07122f189b", "fusion_lon": 0.0, "bike_id": "3ea13889a280d7caf07d0f07122f189b", "is_disabled": 0, "is_reserved": 0}, {"rental_uris": {"ios": "https://dc.lft.to/lastmile_qr_scan", "android": "https://dc.lft.to/lastmile_qr_scan"}, "lon": -77.01858616666667, "type": "electric_scooter", "fusion_lat": 0.0, "lat": 38.8926825, "name": "f7bab33ccbd29007d7781b5c7fdf02fe", "fusion_lon": 0.0, "bike_id": "f7bab33ccbd29007d7781b5c7fdf02fe", "is_disabled": 0, "is_reserved": 0}, {"rental_uris": {"ios": "https://dc.lft.to/lastmile_qr_scan", "android": "https://dc.lft.to/lastmile_qr_scan"}, "lon": -77.038704, "type": "electric_scooter", "fusion_lat": 0.0, "lat": 38.908177333333335, "name": "52baba28bd0175c6772191010f83a534", "fusion_lon": 0.0, "bike_id": "52baba28bd0175c6772191010f83a534", "is_disabled": 0, "is_reserved": 0}, {"rental_uris": {"ios": "https://dc.lft.to/lastmile_qr_scan", "android": "https://dc.lft.to/lastmile_qr_scan"}, "lon": -76.99183216666667, "type": "electric_scooter", "fusion_lat": 0.0, "lat": 38.9050665, "name": "76bb583ea5c7bbe9c45221bf866bc45f", "fusion_lon": 0.0, "bike_id": "76bb583ea5c7bbe9c45221bf866bc45f", "is_disabled": 0, "is_reserved": 0}, {"rental_uris": {"ios": "https://dc.lft.to/lastmile_qr_scan", "android": "https://dc.lft.to/lastmile_qr_scan"}, "lon": -77.03250316666667, "type": "electric_scooter", "fusion_lat": 0.0, "lat": 38.930333166666664, "name": "d428f8f34b981f59f510ae0d7c695216", "fusion_lon": 0.0, "bike_id": "d428f8f34b981f59f510ae0d7c695216", "is_disabled": 0, "is_reserved": 0}, {"rental_uris": {"ios": "https://dc.lft.to/lastmile_qr_scan", "android": "https://dc.lft.to/lastmile_qr_scan"}, "lon": -77.04199166666666, "type": "electric_bike", "fusion_lat": 0.0, "lat": 38.920287333333334, "name": "85b17b31996db282701771ea82389ca4", "fusion_lon": 0.0, "bike_id": "85b17b31996db282701771ea82389ca4", "is_disabled": 0, "is_reserved": 0}, {"rental_uris": {"ios": "https://dc.lft.to/lastmile_qr_scan", "android": "https://dc.lft.to/lastmile_qr_scan"}, "lon": -76.97814533333333, "type": "electric_scooter", "fusion_lat": 0.0, "lat": 38.895165166666665, "name": "438eb6fe831f9b45dbd98398dbd2071a", "fusion_lon": 0.0, "bike_id": "438eb6fe831f9b45dbd98398dbd2071a", "is_disabled": 0, "is_reserved": 0}, {"rental_uris": {"ios": "https://dc.lft.to/lastmile_qr_scan", "android": "https://dc.lft.to/lastmile_qr_scan"}, "lon": -77.0500065, "type": "electric_scooter", "fusion_lat": 0.0, "lat": 38.892304833333334, "name": "7091f6765f747d68871a0a8e80c01dfb", "fusion_lon": 0.0, "bike_id": "7091f6765f747d68871a0a8e80c01dfb", "is_disabled": 0, "is_reserved": 0}, {"rental_uris": {"ios": "https://dc.lft.to/lastmile_qr_scan", "android": "https://dc.lft.to/lastmile_qr_scan"}, "lon": -76.990186, "type": "electric_scooter", "fusion_lat": 0.0, "lat": 38.85865483333333, "name": "3b189334db764941c1fb5bd758b8efa6", "fusion_lon": 0.0, "bike_id": "3b189334db764941c1fb5bd758b8efa6", "is_disabled": 0, "is_reserved": 0}, {"rental_uris": {"ios": "https://dc.lft.to/lastmile_qr_scan", "android": "https://dc.lft.to/lastmile_qr_scan"}, "lon": -77.01745133333333, "type": "electric_scooter", "fusion_lat": 0.0, "lat": 38.90557333333334, "name": "ca66ba7688ba15bb39851635bcfa8a15", "fusion_lon": 0.0, "bike_id": "ca66ba7688ba15bb39851635bcfa8a15", "is_disabled": 0, "is_reserved": 0}, {"rental_uris": {"ios": "https://dc.lft.to/lastmile_qr_scan", "android": "https://dc.lft.to/lastmile_qr_scan"}, "lon": -77.03727266666667, "type": "electric_scooter", "fusion_lat": 0.0, "lat": 38.917042333333335, "name": "7de7cf057983d258c9569eba86d7e896", "fusion_lon": 0.0, "bike_id": "7de7cf057983d258c9569eba86d7e896", "is_disabled": 0, "is_reserved": 0}, {"rental_uris": {"ios": "https://dc.lft.to/lastmile_qr_scan", "android": "https://dc.lft.to/lastmile_qr_scan"}, "lon": -77.18289566666667, "type": "electric_bike", "fusion_lat": 0.0, "lat": 38.88343, "name": "5c13298a7820f2c5e5411ceea880158c", "fusion_lon": 0.0, "bike_id": "5c13298a7820f2c5e5411ceea880158c", "is_disabled": 0, "is_reserved": 0}, {"rental_uris": {"ios": "https://dc.lft.to/lastmile_qr_scan", "android": "https://dc.lft.to/lastmile_qr_scan"}, "lon": -77.0444815, "type": "electric_scooter", "fusion_lat": 0.0, "lat": 38.91929066666667, "name": "42a1945a78d5acd8230c19626a5d29c4", "fusion_lon": 0.0, "bike_id": "42a1945a78d5acd8230c19626a5d29c4", "is_disabled": 0, "is_reserved": 0}, {"rental_uris": {"ios": "https://dc.lft.to/lastmile_qr_scan", "android": "https://dc.lft.to/lastmile_qr_scan"}, "lon": -77.03656883333333, "type": "electric_scooter", "fusion_lat": 0.0, "lat": 38.92120166666667, "name": "f8e85d45f67025616d1b040e25d5e04e", "fusion_lon": 0.0, "bike_id": "f8e85d45f67025616d1b040e25d5e04e", "is_disabled": 0, "is_reserved": 0}, {"rental_uris": {"ios": "https://dc.lft.to/lastmile_qr_scan", "android": "https://dc.lft.to/lastmile_qr_scan"}, "lon": -77.02233966666667, "type": "electric_scooter", "fusion_lat": 0.0, "lat": 38.91116566666667, "name": "891e1a175ec2fb012861b9232f81fccb", "fusion_lon": 0.0, "bike_id": "891e1a175ec2fb012861b9232f81fccb", "is_disabled": 0, "is_reserved": 0}, {"rental_uris": {"ios": "https://dc.lft.to/lastmile_qr_scan", "android": "https://dc.lft.to/lastmile_qr_scan"}, "lon": -77.03074683333334, "type": "electric_scooter", "fusion_lat": 0.0, "lat": 38.899716833333336, "name": "6bde18da8dc2403e861ff5520cf6ccd8", "fusion_lon": 0.0, "bike_id": "6bde18da8dc2403e861ff5520cf6ccd8", "is_disabled": 0, "is_reserved": 0}, {"rental_uris": {"ios": "https://dc.lft.to/lastmile_qr_scan", "android": "https://dc.lft.to/lastmile_qr_scan"}, "lon": -77.03317933333334, "type": "electric_scooter", "fusion_lat": 0.0, "lat": 38.898477, "name": "10599341139aa6fa575c794b5d48415d", "fusion_lon": 0.0, "bike_id": "10599341139aa6fa575c794b5d48415d", "is_disabled": 0, "is_reserved": 0}, {"rental_uris": {"ios": "https://dc.lft.to/lastmile_qr_scan", "android": "https://dc.lft.to/lastmile_qr_scan"}, "lon": -77.02430166666667, "type": "electric_scooter", "fusion_lat": 0.0, "lat": 38.927028666666665, "name": "a243a8977c3a8cffb486f235f3a4e9a5", "fusion_lon": 0.0, "bike_id": "a243a8977c3a8cffb486f235f3a4e9a5", "is_disabled": 0, "is_reserved": 0}, {"rental_uris": {"ios": "https://dc.lft.to/lastmile_qr_scan", "android": "https://dc.lft.to/lastmile_qr_scan"}, "lon": -77.05654066666666, "type": "electric_scooter", "fusion_lat": 0.0, "lat": 38.916607166666665, "name": "668924275187444b5aa531a9b66e867b", "fusion_lon": 0.0, "bike_id": "668924275187444b5aa531a9b66e867b", "is_disabled": 0, "is_reserved": 0}, {"rental_uris": {"ios": "https://dc.lft.to/lastmile_qr_scan", "android": "https://dc.lft.to/lastmile_qr_scan"}, "lon": -77.038025, "type": "electric_scooter", "fusion_lat": 0.0, "lat": 38.912283, "name": "51a3ce43ca413049afa42055a46b6b67", "fusion_lon": 0.0, "bike_id": "51a3ce43ca413049afa42055a46b6b67", "is_disabled": 0, "is_reserved": 0}, {"rental_uris": {"ios": "https://dc.lft.to/lastmile_qr_scan", "android": "https://dc.lft.to/lastmile_qr_scan"}, "lon": -77.03846016666667, "type": "electric_scooter", "fusion_lat": 0.0, "lat": 38.91238583333333, "name": "318e39d3a1863188519106adb6c79c45", "fusion_lon": 0.0, "bike_id": "318e39d3a1863188519106adb6c79c45", "is_disabled": 0, "is_reserved": 0}, {"rental_uris": {"ios": "https://dc.lft.to/lastmile_qr_scan", "android": "https://dc.lft.to/lastmile_qr_scan"}, "lon": -77.02723616666667, "type": "electric_scooter", "fusion_lat": 0.0, "lat": 38.9379105, "name": "4afb8fab430886e8eefee6824cd5672e", "fusion_lon": 0.0, "bike_id": "4afb8fab430886e8eefee6824cd5672e", "is_disabled": 0, "is_reserved": 0}, {"rental_uris": {"ios": "https://dc.lft.to/lastmile_qr_scan", "android": "https://dc.lft.to/lastmile_qr_scan"}, "lon": -77.03841, "type": "electric_scooter", "fusion_lat": 0.0, "lat": 38.91015483333334, "name": "0167b6fdf6a7c81d520ae55d335f259b", "fusion_lon": 0.0, "bike_id": "0167b6fdf6a7c81d520ae55d335f259b", "is_disabled": 0, "is_reserved": 0}, {"rental_uris": {"ios": "https://dc.lft.to/lastmile_qr_scan", "android": "https://dc.lft.to/lastmile_qr_scan"}, "lon": -77.01937883333333, "type": "electric_scooter", "fusion_lat": 0.0, "lat": 38.94925166666667, "name": "a34307b75b7a666a400bfde3c2203e6c", "fusion_lon": 0.0, "bike_id": "a34307b75b7a666a400bfde3c2203e6c", "is_disabled": 0, "is_reserved": 0}, {"rental_uris": {"ios": "https://dc.lft.to/lastmile_qr_scan", "android": "https://dc.lft.to/lastmile_qr_scan"}, "lon": -77.04340316666666, "type": "electric_scooter", "fusion_lat": 0.0, "lat": 38.896678, "name": "682868cc77155db4d27b1ee974a3fc2f", "fusion_lon": 0.0, "bike_id": "682868cc77155db4d27b1ee974a3fc2f", "is_disabled": 0, "is_reserved": 0}, {"rental_uris": {"ios": "https://dc.lft.to/lastmile_qr_scan", "android": "https://dc.lft.to/lastmile_qr_scan"}, "lon": -77.02704233333333, "type": "electric_scooter", "fusion_lat": 0.0, "lat": 38.906745, "name": "545af220987a41b02bf76777a55bd24c", "fusion_lon": 0.0, "bike_id": "545af220987a41b02bf76777a55bd24c", "is_disabled": 0, "is_reserved": 0}, {"rental_uris": {"ios": "https://dc.lft.to/lastmile_qr_scan", "android": "https://dc.lft.to/lastmile_qr_scan"}, "lon": -77.10161833333333, "type": "electric_bike", "fusion_lat": 0.0, "lat": 38.8495225, "name": "f5957f02b6516ef6ce80e041fd6d8f66", "fusion_lon": 0.0, "bike_id": "f5957f02b6516ef6ce80e041fd6d8f66", "is_disabled": 0, "is_reserved": 0}, {"rental_uris": {"ios": "https://dc.lft.to/lastmile_qr_scan", "android": "https://dc.lft.to/lastmile_qr_scan"}, "lon": -77.02894783333333, "type": "electric_scooter", "fusion_lat": 0.0, "lat": 38.88418433333333, "name": "fc8284c9f66d19572d99e9295c90baf5", "fusion_lon": 0.0, "bike_id": "fc8284c9f66d19572d99e9295c90baf5", "is_disabled": 0, "is_reserved": 0}, {"rental_uris": {"ios": "https://dc.lft.to/lastmile_qr_scan", "android": "https://dc.lft.to/lastmile_qr_scan"}, "lon": -77.01528816666666, "type": "electric_scooter", "fusion_lat": 0.0, "lat": 38.887364, "name": "587e2edffbfc44dc49122d5bf3b500a5", "fusion_lon": 0.0, "bike_id": "587e2edffbfc44dc49122d5bf3b500a5", "is_disabled": 0, "is_reserved": 0}, {"rental_uris": {"ios": "https://dc.lft.to/lastmile_qr_scan", "android": "https://dc.lft.to/lastmile_qr_scan"}, "lon": -77.02509266666667, "type": "electric_scooter", "fusion_lat": 0.0, "lat": 38.921266833333334, "name": "a1178ce3623f72300584575800bfa080", "fusion_lon": 0.0, "bike_id": "a1178ce3623f72300584575800bfa080", "is_disabled": 0, "is_reserved": 0}, {"rental_uris": {"ios": "https://dc.lft.to/lastmile_qr_scan", "android": "https://dc.lft.to/lastmile_qr_scan"}, "lon": -77.02196566666667, "type": "electric_scooter", "fusion_lat": 0.0, "lat": 38.911225, "name": "84b5dc207daf967efaddd6bef25210a6", "fusion_lon": 0.0, "bike_id": "84b5dc207daf967efaddd6bef25210a6", "is_disabled": 0, "is_reserved": 0}, {"rental_uris": {"ios": "https://dc.lft.to/lastmile_qr_scan", "android": "https://dc.lft.to/lastmile_qr_scan"}, "lon": -77.02972833333334, "type": "electric_scooter", "fusion_lat": 0.0, "lat": 38.89566116666666, "name": "0b36bc7d84254cdaa6c9d33bdd4242d2", "fusion_lon": 0.0, "bike_id": "0b36bc7d84254cdaa6c9d33bdd4242d2", "is_disabled": 0, "is_reserved": 0}, {"rental_uris": {"ios": "https://dc.lft.to/lastmile_qr_scan", "android": "https://dc.lft.to/lastmile_qr_scan"}, "lon": -77.078971, "type": "electric_bike", "fusion_lat": 0.0, "lat": 38.8393145, "name": "fb0156e5b50387fd88d5f1bb12c2fff5", "fusion_lon": 0.0, "bike_id": "fb0156e5b50387fd88d5f1bb12c2fff5", "is_disabled": 0, "is_reserved": 0}, {"rental_uris": {"ios": "https://dc.lft.to/lastmile_qr_scan", "android": "https://dc.lft.to/lastmile_qr_scan"}, "lon": -77.000945, "type": "electric_scooter", "fusion_lat": 0.0, "lat": 38.8736675, "name": "21c746a03979a7360573607073e591ca", "fusion_lon": 0.0, "bike_id": "21c746a03979a7360573607073e591ca", "is_disabled": 0, "is_reserved": 0}, {"rental_uris": {"ios": "https://dc.lft.to/lastmile_qr_scan", "android": "https://dc.lft.to/lastmile_qr_scan"}, "lon": -77.037047, "type": "electric_scooter", "fusion_lat": 0.0, "lat": 38.9166145, "name": "7c5be6eca800ca23bf856fcde5edbdeb", "fusion_lon": 0.0, "bike_id": "7c5be6eca800ca23bf856fcde5edbdeb", "is_disabled": 0, "is_reserved": 0}, {"rental_uris": {"ios": "https://dc.lft.to/lastmile_qr_scan", "android": "https://dc.lft.to/lastmile_qr_scan"}, "lon": -77.0112605, "type": "electric_scooter", "fusion_lat": 0.0, "lat": 38.913297, "name": "bc8bfec5480c98bd3da95b8f04094b72", "fusion_lon": 0.0, "bike_id": "bc8bfec5480c98bd3da95b8f04094b72", "is_disabled": 0, "is_reserved": 0}, {"rental_uris": {"ios": "https://dc.lft.to/lastmile_qr_scan", "android": "https://dc.lft.to/lastmile_qr_scan"}, "lon": -76.99954116666666, "type": "electric_scooter", "fusion_lat": 0.0, "lat": 38.908661333333335, "name": "7f27f84fd9e654ac15dc7cb80267f5ca", "fusion_lon": 0.0, "bike_id": "7f27f84fd9e654ac15dc7cb80267f5ca", "is_disabled": 0, "is_reserved": 0}, {"rental_uris": {"ios": "https://dc.lft.to/lastmile_qr_scan", "android": "https://dc.lft.to/lastmile_qr_scan"}, "lon": -77.05091016666667, "type": "electric_bike", "fusion_lat": 0.0, "lat": 38.8133065, "name": "e41dd30fa190a74b71e2a23a38aaacdb", "fusion_lon": 0.0, "bike_id": "e41dd30fa190a74b71e2a23a38aaacdb", "is_disabled": 0, "is_reserved": 0}, {"rental_uris": {"ios": "https://dc.lft.to/lastmile_qr_scan", "android": "https://dc.lft.to/lastmile_qr_scan"}, "lon": -77.03832716666666, "type": "electric_scooter", "fusion_lat": 0.0, "lat": 38.92174516666667, "name": "a98c5f26c9575ff2242d83297f51f787", "fusion_lon": 0.0, "bike_id": "a98c5f26c9575ff2242d83297f51f787", "is_disabled": 0, "is_reserved": 0}, {"rental_uris": {"ios": "https://dc.lft.to/lastmile_qr_scan", "android": "https://dc.lft.to/lastmile_qr_scan"}, "lon": -77.0246485, "type": "electric_scooter", "fusion_lat": 0.0, "lat": 38.91706166666667, "name": "da47aab5fa71133cb752a43157d683cc", "fusion_lon": 0.0, "bike_id": "da47aab5fa71133cb752a43157d683cc", "is_disabled": 0, "is_reserved": 0}, {"rental_uris": {"ios": "https://dc.lft.to/lastmile_qr_scan", "android": "https://dc.lft.to/lastmile_qr_scan"}, "lon": -77.02337183333333, "type": "electric_scooter", "fusion_lat": 0.0, "lat": 38.96206816666667, "name": "ff66b93db1eac332500351e612721fe5", "fusion_lon": 0.0, "bike_id": "ff66b93db1eac332500351e612721fe5", "is_disabled": 0, "is_reserved": 0}, {"rental_uris": {"ios": "https://dc.lft.to/lastmile_qr_scan", "android": "https://dc.lft.to/lastmile_qr_scan"}, "lon": -77.0051125, "type": "electric_scooter", "fusion_lat": 0.0, "lat": 38.928932833333334, "name": "7cee0b8974802e0eb14995afc283b76f", "fusion_lon": 0.0, "bike_id": "7cee0b8974802e0eb14995afc283b76f", "is_disabled": 0, "is_reserved": 0}, {"rental_uris": {"ios": "https://dc.lft.to/lastmile_qr_scan", "android": "https://dc.lft.to/lastmile_qr_scan"}, "lon": -76.995479, "type": "electric_scooter", "fusion_lat": 0.0, "lat": 38.88418583333333, "name": "e0e55bd4e7101ceb41a3fff9083fb871", "fusion_lon": 0.0, "bike_id": "e0e55bd4e7101ceb41a3fff9083fb871", "is_disabled": 0, "is_reserved": 0}, {"rental_uris": {"ios": "https://dc.lft.to/lastmile_qr_scan", "android": "https://dc.lft.to/lastmile_qr_scan"}, "lon": -77.05316883333333, "type": "electric_scooter", "fusion_lat": 0.0, "lat": 38.9235285, "name": "c159c7b2f3f84f6986b5c804b5a65bba", "fusion_lon": 0.0, "bike_id": "c159c7b2f3f84f6986b5c804b5a65bba", "is_disabled": 0, "is_reserved": 0}, {"rental_uris": {"ios": "https://dc.lft.to/lastmile_qr_scan", "android": "https://dc.lft.to/lastmile_qr_scan"}, "lon": -77.03870066666667, "type": "electric_scooter", "fusion_lat": 0.0, "lat": 38.908136166666665, "name": "d64dd4efc4d5777237fb1db1d1961773", "fusion_lon": 0.0, "bike_id": "d64dd4efc4d5777237fb1db1d1961773", "is_disabled": 0, "is_reserved": 0}, {"rental_uris": {"ios": "https://dc.lft.to/lastmile_qr_scan", "android": "https://dc.lft.to/lastmile_qr_scan"}, "lon": -77.05726716666666, "type": "electric_scooter", "fusion_lat": 0.0, "lat": 38.933692, "name": "bea0318ee280220b91b62968f34f9fc9", "fusion_lon": 0.0, "bike_id": "bea0318ee280220b91b62968f34f9fc9", "is_disabled": 0, "is_reserved": 0}, {"rental_uris": {"ios": "https://dc.lft.to/lastmile_qr_scan", "android": "https://dc.lft.to/lastmile_qr_scan"}, "lon": -77.02190616666667, "type": "electric_scooter", "fusion_lat": 0.0, "lat": 38.8963245, "name": "641b6a302a1fbd4f6c6b9b024f2f858b", "fusion_lon": 0.0, "bike_id": "641b6a302a1fbd4f6c6b9b024f2f858b", "is_disabled": 0, "is_reserved": 0}, {"rental_uris": {"ios": "https://dc.lft.to/lastmile_qr_scan", "android": "https://dc.lft.to/lastmile_qr_scan"}, "lon": -77.02389783333334, "type": "electric_scooter", "fusion_lat": 0.0, "lat": 38.909755, "name": "c17ebeca8848627e6e3eec2035dcabb7", "fusion_lon": 0.0, "bike_id": "c17ebeca8848627e6e3eec2035dcabb7", "is_disabled": 0, "is_reserved": 0}, {"rental_uris": {"ios": "https://dc.lft.to/lastmile_qr_scan", "android": "https://dc.lft.to/lastmile_qr_scan"}, "lon": -77.0138255, "type": "electric_scooter", "fusion_lat": 0.0, "lat": 38.91946766666667, "name": "64a48ca8b865855a73e5f20f99d6beb4", "fusion_lon": 0.0, "bike_id": "64a48ca8b865855a73e5f20f99d6beb4", "is_disabled": 0, "is_reserved": 0}, {"rental_uris": {"ios": "https://dc.lft.to/lastmile_qr_scan", "android": "https://dc.lft.to/lastmile_qr_scan"}, "lon": -77.00565316666666, "type": "electric_scooter", "fusion_lat": 0.0, "lat": 38.927243833333335, "name": "aeeaf5d58ed749150592e2b31be65ad8", "fusion_lon": 0.0, "bike_id": "aeeaf5d58ed749150592e2b31be65ad8", "is_disabled": 0, "is_reserved": 0}, {"rental_uris": {"ios": "https://dc.lft.to/lastmile_qr_scan", "android": "https://dc.lft.to/lastmile_qr_scan"}, "lon": -77.01188166666667, "type": "electric_scooter", "fusion_lat": 0.0, "lat": 38.90031033333333, "name": "7d77ffcc1272486e19c1e1d9b61c0798", "fusion_lon": 0.0, "bike_id": "7d77ffcc1272486e19c1e1d9b61c0798", "is_disabled": 0, "is_reserved": 0}, {"rental_uris": {"ios": "https://dc.lft.to/lastmile_qr_scan", "android": "https://dc.lft.to/lastmile_qr_scan"}, "lon": -77.029731, "type": "electric_scooter", "fusion_lat": 0.0, "lat": 38.96225333333334, "name": "99e17ec5cc911841c3c7ae28ece8cc4f", "fusion_lon": 0.0, "bike_id": "99e17ec5cc911841c3c7ae28ece8cc4f", "is_disabled": 0, "is_reserved": 0}, {"rental_uris": {"ios": "https://dc.lft.to/lastmile_qr_scan", "android": "https://dc.lft.to/lastmile_qr_scan"}, "lon": -77.008769, "type": "electric_scooter", "fusion_lat": 0.0, "lat": 38.914042, "name": "220098bfbf0f952007a89eddca49c7bc", "fusion_lon": 0.0, "bike_id": "220098bfbf0f952007a89eddca49c7bc", "is_disabled": 0, "is_reserved": 0}, {"rental_uris": {"ios": "https://dc.lft.to/lastmile_qr_scan", "android": "https://dc.lft.to/lastmile_qr_scan"}, "lon": -77.03186016666666, "type": "electric_scooter", "fusion_lat": 0.0, "lat": 38.91458633333333, "name": "0a08fb039e5575fb5a7b4f98b5b97b7a", "fusion_lon": 0.0, "bike_id": "0a08fb039e5575fb5a7b4f98b5b97b7a", "is_disabled": 0, "is_reserved": 0}, {"rental_uris": {"ios": "https://dc.lft.to/lastmile_qr_scan", "android": "https://dc.lft.to/lastmile_qr_scan"}, "lon": -77.03163916666666, "type": "electric_scooter", "fusion_lat": 0.0, "lat": 38.9141435, "name": "bcd250c8fd193ae571e9c277c9d59efd", "fusion_lon": 0.0, "bike_id": "bcd250c8fd193ae571e9c277c9d59efd", "is_disabled": 0, "is_reserved": 0}, {"rental_uris": {"ios": "https://dc.lft.to/lastmile_qr_scan", "android": "https://dc.lft.to/lastmile_qr_scan"}, "lon": -77.04207116666667, "type": "electric_bike", "fusion_lat": 0.0, "lat": 38.933283833333334, "name": "f3b07959d50f2a9755ff4197c12b8332", "fusion_lon": 0.0, "bike_id": "f3b07959d50f2a9755ff4197c12b8332", "is_disabled": 0, "is_reserved": 0}, {"rental_uris": {"ios": "https://dc.lft.to/lastmile_qr_scan", "android": "https://dc.lft.to/lastmile_qr_scan"}, "lon": -77.10340816666667, "type": "electric_bike", "fusion_lat": 0.0, "lat": 38.852200333333336, "name": "8a11fbc96baba14b16ba1a456456dac6", "fusion_lon": 0.0, "bike_id": "8a11fbc96baba14b16ba1a456456dac6", "is_disabled": 0, "is_reserved": 0}, {"rental_uris": {"ios": "https://dc.lft.to/lastmile_qr_scan", "android": "https://dc.lft.to/lastmile_qr_scan"}, "lon": -77.02160833333333, "type": "electric_scooter", "fusion_lat": 0.0, "lat": 38.886251333333334, "name": "8f63794a555079dc51ec5d73cc0b54b2", "fusion_lon": 0.0, "bike_id": "8f63794a555079dc51ec5d73cc0b54b2", "is_disabled": 0, "is_reserved": 0}, {"rental_uris": {"ios": "https://dc.lft.to/lastmile_qr_scan", "android": "https://dc.lft.to/lastmile_qr_scan"}, "lon": -77.00137183333334, "type": "electric_scooter", "fusion_lat": 0.0, "lat": 38.90402683333333, "name": "be8c2c663483b73d8fea45ee4310b6a2", "fusion_lon": 0.0, "bike_id": "be8c2c663483b73d8fea45ee4310b6a2", "is_disabled": 0, "is_reserved": 0}, {"rental_uris": {"ios": "https://dc.lft.to/lastmile_qr_scan", "android": "https://dc.lft.to/lastmile_qr_scan"}, "lon": -77.0338125, "type": "electric_scooter", "fusion_lat": 0.0, "lat": 38.921565, "name": "502695acfbf68930c5ab1e89f2d04b4e", "fusion_lon": 0.0, "bike_id": "502695acfbf68930c5ab1e89f2d04b4e", "is_disabled": 0, "is_reserved": 0}, {"rental_uris": {"ios": "https://dc.lft.to/lastmile_qr_scan", "android": "https://dc.lft.to/lastmile_qr_scan"}, "lon": -77.05589133333334, "type": "electric_scooter", "fusion_lat": 0.0, "lat": 38.936952, "name": "c6962cd1898d05a9cebe546ed5728e18", "fusion_lon": 0.0, "bike_id": "c6962cd1898d05a9cebe546ed5728e18", "is_disabled": 0, "is_reserved": 0}, {"rental_uris": {"ios": "https://dc.lft.to/lastmile_qr_scan", "android": "https://dc.lft.to/lastmile_qr_scan"}, "lon": -77.0133725, "type": "electric_scooter", "fusion_lat": 0.0, "lat": 38.96611, "name": "576886b00a7a7d6e2c2e7eed4b653ab7", "fusion_lon": 0.0, "bike_id": "576886b00a7a7d6e2c2e7eed4b653ab7", "is_disabled": 0, "is_reserved": 0}, {"rental_uris": {"ios": "https://dc.lft.to/lastmile_qr_scan", "android": "https://dc.lft.to/lastmile_qr_scan"}, "lon": -76.96177833333333, "type": "electric_bike", "fusion_lat": 0.0, "lat": 38.918577, "name": "828b5e503d2a3e3f727c0b8d9fdf3ff0", "fusion_lon": 0.0, "bike_id": "828b5e503d2a3e3f727c0b8d9fdf3ff0", "is_disabled": 0, "is_reserved": 0}, {"rental_uris": {"ios": "https://dc.lft.to/lastmile_qr_scan", "android": "https://dc.lft.to/lastmile_qr_scan"}, "lon": -77.0419245, "type": "electric_scooter", "fusion_lat": 0.0, "lat": 38.901303, "name": "71490c7aed31502e1be262c13230f7d2", "fusion_lon": 0.0, "bike_id": "71490c7aed31502e1be262c13230f7d2", "is_disabled": 0, "is_reserved": 0}, {"rental_uris": {"ios": "https://dc.lft.to/lastmile_qr_scan", "android": "https://dc.lft.to/lastmile_qr_scan"}, "lon": -77.04182383333334, "type": "electric_scooter", "fusion_lat": 0.0, "lat": 38.920434666666665, "name": "5328003926b7aa71060899e500f58013", "fusion_lon": 0.0, "bike_id": "5328003926b7aa71060899e500f58013", "is_disabled": 0, "is_reserved": 0}, {"rental_uris": {"ios": "https://dc.lft.to/lastmile_qr_scan", "android": "https://dc.lft.to/lastmile_qr_scan"}, "lon": -77.03249833333334, "type": "electric_scooter", "fusion_lat": 0.0, "lat": 38.8960625, "name": "59b2cf8254e2819692d5b1f8a068edde", "fusion_lon": 0.0, "bike_id": "59b2cf8254e2819692d5b1f8a068edde", "is_disabled": 0, "is_reserved": 0}, {"rental_uris": {"ios": "https://dc.lft.to/lastmile_qr_scan", "android": "https://dc.lft.to/lastmile_qr_scan"}, "lon": -77.02859583333333, "type": "electric_scooter", "fusion_lat": 0.0, "lat": 38.90723466666667, "name": "a153f91098593e8b9d247e3d9ef038a6", "fusion_lon": 0.0, "bike_id": "a153f91098593e8b9d247e3d9ef038a6", "is_disabled": 0, "is_reserved": 0}, {"rental_uris": {"ios": "https://dc.lft.to/lastmile_qr_scan", "android": "https://dc.lft.to/lastmile_qr_scan"}, "lon": -77.13093533333333, "type": "electric_bike", "fusion_lat": 0.0, "lat": 38.861617333333335, "name": "150eadbfffafdb5a4d2f5e0bd2782d0f", "fusion_lon": 0.0, "bike_id": "150eadbfffafdb5a4d2f5e0bd2782d0f", "is_disabled": 0, "is_reserved": 0}, {"rental_uris": {"ios": "https://dc.lft.to/lastmile_qr_scan", "android": "https://dc.lft.to/lastmile_qr_scan"}, "lon": -77.022935, "type": "electric_scooter", "fusion_lat": 0.0, "lat": 38.918384333333336, "name": "4fc705e7e0f7a793554a72727b805c72", "fusion_lon": 0.0, "bike_id": "4fc705e7e0f7a793554a72727b805c72", "is_disabled": 0, "is_reserved": 0}, {"rental_uris": {"ios": "https://dc.lft.to/lastmile_qr_scan", "android": "https://dc.lft.to/lastmile_qr_scan"}, "lon": -77.037718, "type": "electric_scooter", "fusion_lat": 0.0, "lat": 38.936099166666665, "name": "0ee3b60d8c535bc133761750ae23b4f0", "fusion_lon": 0.0, "bike_id": "0ee3b60d8c535bc133761750ae23b4f0", "is_disabled": 0, "is_reserved": 0}, {"rental_uris": {"ios": "https://dc.lft.to/lastmile_qr_scan", "android": "https://dc.lft.to/lastmile_qr_scan"}, "lon": -77.02341316666667, "type": "electric_scooter", "fusion_lat": 0.0, "lat": 38.88352616666667, "name": "547da83c91b390f493a6a445816a6d12", "fusion_lon": 0.0, "bike_id": "547da83c91b390f493a6a445816a6d12", "is_disabled": 0, "is_reserved": 0}, {"rental_uris": {"ios": "https://dc.lft.to/lastmile_qr_scan", "android": "https://dc.lft.to/lastmile_qr_scan"},