{"data": {"bikes": [{"is_reserved": 0, "fusion_lon": 0.0, "fusion_lat": 0.0, "name": "4467d8c2dcad5d16f4a2849a9bea00db", "type": "electric_bike", "is_disabled": 0, "lat": 38.941673333333334, "rental_uris": {"android": "https://dc.lft.to/lastmile_qr_scan", "ios": "https://dc.lft.to/lastmile_qr_scan"}, "bike_id": "4467d8c2dcad5d16f4a2849a9bea00db", "lon": -76.9926105}, {"is_reserved": 0, "fusion_lon": 0.0, "fusion_lat": 0.0, "name": "6c966a8b1f95432e41665ffc8304ed5a", "type": "electric_scooter", "is_disabled": 0, "lat": 38.886143833333335, "rental_uris": {"android": "https://dc.lft.to/lastmile_qr_scan", "ios": "https://dc.lft.to/lastmile_qr_scan"}, "bike_id": "6c966a8b1f95432e41665ffc8304ed5a", "lon": -76.95583416666666}, {"is_reserved": 0, "fusion_lon": 0.0, "fusion_lat": 0.0, "name": "4f80fc0e3529134e1ac5d132ced8eb17", "type": "electric_scooter", "is_disabled": 0, "lat": 38.905963666666665, "rental_uris": {"android": "https://dc.lft.to/lastmile_qr_scan", "ios": "https://dc.lft.to/lastmile_qr_scan"}, "bike_id": "4f80fc0e3529134e1ac5d132ced8eb17", "lon": -77.04177616666666}, {"is_reserved": 0, "fusion_lon": 0.0, "fusion_lat": 0.0, "name": "1ffa770747fe8c9aaa35cb53bffea918", "type": "electric_scooter", "is_disabled": 0, "lat": 38.8707885, "rental_uris": {"android": "https://dc.lft.to/lastmile_qr_scan", "ios": "https://dc.lft.to/lastmile_qr_scan"}, "bike_id": "1ffa770747fe8c9aaa35cb53bffea918", "lon": -76.96793666666667}, {"is_reserved": 0, "fusion_lon": 0.0, "fusion_lat": 0.0, "name": "16674576e4ed5b1b8d224b8fad767948", "type": "electric_scooter", "is_disabled": 0, "lat": 38.88304616666667, "rental_uris": {"android": "https://dc.lft.to/lastmile_qr_scan", "ios": "https://dc.lft.to/lastmile_qr_scan"}, "bike_id": "16674576e4ed5b1b8d224b8fad767948", "lon": -77.03142783333334}, {"is_reserved": 0, "fusion_lon": 0.0, "fusion_lat": 0.0, "name": "9bcfd1efeb60762134f86fde162f53df", "type": "electric_scooter", "is_disabled": 0, "lat": 38.89540133333333, "rental_uris": {"android": "https://dc.lft.to/lastmile_qr_scan", "ios": "https://dc.lft.to/lastmile_qr_scan"}, "bike_id": "9bcfd1efeb60762134f86fde162f53df", "lon": -77.03256816666666}, {"is_reserved": 0, "fusion_lon": 0.0, "fusion_lat": 0.0, "name": "6800303e7b6910a03ce906418a8c6f89", "type": "electric_scooter", "is_disabled": 0, "lat": 38.8873535, "rental_uris": {"android": "https://dc.lft.to/lastmile_qr_scan", "ios": "https://dc.lft.to/lastmile_qr_scan"}, "bike_id": "6800303e7b6910a03ce906418a8c6f89", "lon": -77.02833616666666}, {"is_reserved": 0, "fusion_lon": 0.0, "fusion_lat": 0.0, "name": "99f7e473c440f6b472502020cb182594", "type": "electric_bike", "is_disabled": 0, "lat": 38.85321116666667, "rental_uris": {"android": "https://dc.lft.to/lastmile_qr_scan", "ios": "https://dc.lft.to/lastmile_qr_scan"}, "bike_id": "99f7e473c440f6b472502020cb182594", "lon": -76.98017583333333}, {"is_reserved": 0, "fusion_lon": 0.0, "fusion_lat": 0.0, "name": "d71535335012a3834dd22426cb6c0337", "type": "electric_scooter", "is_disabled": 0, "lat": 38.90137816666667, "rental_uris": {"android": "https://dc.lft.to/lastmile_qr_scan", "ios": "https://dc.lft.to/lastmile_qr_scan"}, "bike_id": "d71535335012a3834dd22426cb6c0337", "lon": -76.9909665}, {"is_reserved": 0, "fusion_lon": 0.0, "fusion_lat": 0.0, "name": "15b66b34eb1e219f1ebfc87c0bb6846b", "type": "electric_scooter", "is_disabled": 0, "lat": 38.910800333333334, "rental_uris": {"android": "https://dc.lft.to/lastmile_qr_scan", "ios": "https://dc.lft.to/lastmile_qr_scan"}, "bike_id": "15b66b34eb1e219f1ebfc87c0bb6846b", "lon": -77.06553333333333}, {"is_reserved": 0, "fusion_lon": 0.0, "fusion_lat": 0.0, "name": "05fdd7993d5e369ca7c3544496e6d8eb", "type": "electric_bike", "is_disabled": 0, "lat": 38.807528, "rental_uris": {"android": "https://dc.lft.to/lastmile_qr_scan", "ios": "https://dc.lft.to/lastmile_qr_scan"}, "bike_id": "05fdd7993d5e369ca7c3544496e6d8eb", "lon": -77.0945475}, {"is_reserved": 0, "fusion_lon": 0.0, "fusion_lat": 0.0, "name": "972adf72fd233599a7b9550ce3f024aa", "type": "electric_scooter", "is_disabled": 0, "lat": 38.88328966666667, "rental_uris": {"android": "https://dc.lft.to/lastmile_qr_scan", "ios": "https://dc.lft.to/lastmile_qr_scan"}, "bike_id": "972adf72fd233599a7b9550ce3f024aa", "lon": -77.01670283333333}, {"is_reserved": 0, "fusion_lon": 0.0, "fusion_lat": 0.0, "name": "6f2b13a8615a894e37012eaded105de2", "type": "electric_bike", "is_disabled": 0, "lat": 38.8076125, "rental_uris": {"android": "https://dc.lft.to/lastmile_qr_scan", "ios": "https://dc.lft.to/lastmile_qr_scan"}, "bike_id": "6f2b13a8615a894e37012eaded105de2", "lon": -77.09471983333333}, {"is_reserved": 0, "fusion_lon": 0.0, "fusion_lat": 0.0, "name": "00d92e68e5977bace6ddfba909504484", "type": "electric_scooter", "is_disabled": 0, "lat": 38.90031, "rental_uris": {"android": "https://dc.lft.to/lastmile_qr_scan", "ios": "https://dc.lft.to/lastmile_qr_scan"}, "bike_id": "00d92e68e5977bace6ddfba909504484", "lon": -77.0334125}, {"is_reserved": 0, "fusion_lon": 0.0, "fusion_lat": 0.0, "name": "11016435a09d198a6479f6980a3329b7", "type": "electric_scooter", "is_disabled": 0, "lat": 38.90029233333333, "rental_uris": {"android": "https://dc.lft.to/lastmile_qr_scan", "ios": "https://dc.lft.to/lastmile_qr_scan"}, "bike_id": "11016435a09d198a6479f6980a3329b7", "lon": -77.0439405}, {"is_reserved": 0, "fusion_lon": 0.0, "fusion_lat": 0.0, "name": "65d4012fc7b9f1ffd7d50bc08985fb91", "type": "electric_scooter", "is_disabled": 0, "lat": 38.897613666666665, "rental_uris": {"android": "https://dc.lft.to/lastmile_qr_scan", "ios": "https://dc.lft.to/lastmile_qr_scan"}, "bike_id": "65d4012fc7b9f1ffd7d50bc08985fb91", "lon": -77.04658583333334}, {"is_reserved": 0, "fusion_lon": 0.0, "fusion_lat": 0.0, "name": "f3a1e266028e4f8a4e6a065c2bf0550f", "type": "electric_scooter", "is_disabled": 0, "lat": 38.90207183333333, "rental_uris": {"android": "https://dc.lft.to/lastmile_qr_scan", "ios": "https://dc.lft.to/lastmile_qr_scan"}, "bike_id": "f3a1e266028e4f8a4e6a065c2bf0550f", "lon": -76.97605566666667}, {"is_reserved": 0, "fusion_lon": 0.0, "fusion_lat": 0.0, "name": "c2ce7b3fd27627775795d873bc680f91", "type": "electric_scooter", "is_disabled": 0, "lat": 38.90077466666666, "rental_uris": {"android": "https://dc.lft.to/lastmile_qr_scan", "ios": "https://dc.lft.to/lastmile_qr_scan"}, "bike_id": "c2ce7b3fd27627775795d873bc680f91", "lon": -77.01315866666667}, {"is_reserved": 0, "fusion_lon": 0.0, "fusion_lat": 0.0, "name": "404647d023ecaab67c7fded4a998767b", "type": "electric_scooter", "is_disabled": 0, "lat": 38.8985015, "rental_uris": {"android": "https://dc.lft.to/lastmile_qr_scan", "ios": "https://dc.lft.to/lastmile_qr_scan"}, "bike_id": "404647d023ecaab67c7fded4a998767b", "lon": -76.98179216666666}, {"is_reserved": 0, "fusion_lon": 0.0, "fusion_lat": 0.0, "name": "98a6de7eb6f43cdd43331e6b1b8c5954", "type": "electric_scooter", "is_disabled": 0, "lat": 38.866991666666664, "rental_uris": {"android": "https://dc.lft.to/lastmile_qr_scan", "ios": "https://dc.lft.to/lastmile_qr_scan"}, "bike_id": "98a6de7eb6f43cdd43331e6b1b8c5954", "lon": -76.985947}, {"is_reserved": 0, "fusion_lon": 0.0, "fusion_lat": 0.0, "name": "56d06fe7844b4c30d4bd21aac49832e2", "type": "electric_scooter", "is_disabled": 0, "lat": 38.92867416666667, "rental_uris": {"android": "https://dc.lft.to/lastmile_qr_scan", "ios": "https://dc.lft.to/lastmile_qr_scan"}, "bike_id": "56d06fe7844b4c30d4bd21aac49832e2", "lon": -77.0141975}, {"is_reserved": 0, "fusion_lon": 0.0, "fusion_lat": 0.0, "name": "e922d2cb3da225e231a5d1eefb5c8f24", "type": "electric_scooter", "is_disabled": 0, "lat": 38.92719233333333, "rental_uris": {"android": "https://dc.lft.to/lastmile_qr_scan", "ios": "https://dc.lft.to/lastmile_qr_scan"}, "bike_id": "e922d2cb3da225e231a5d1eefb5c8f24", "lon": -77.03996933333333}, {"is_reserved": 0, "fusion_lon": 0.0, "fusion_lat": 0.0, "name": "5d43ccd1be70de720ce0a20d0c562c9e", "type": "electric_scooter", "is_disabled": 0, "lat": 38.9056745, "rental_uris": {"android": "https://dc.lft.to/lastmile_qr_scan", "ios": "https://dc.lft.to/lastmile_qr_scan"}, "bike_id": "5d43ccd1be70de720ce0a20d0c562c9e", "lon": -77.003083}, {"is_reserved": 0, "fusion_lon": 0.0, "fusion_lat": 0.0, "name": "580de9be5164d3fe01055976b165f9c7", "type": "electric_scooter", "is_disabled": 0, "lat": 38.908270333333334, "rental_uris": {"android": "https://dc.lft.to/lastmile_qr_scan", "ios": "https://dc.lft.to/lastmile_qr_scan"}, "bike_id": "580de9be5164d3fe01055976b165f9c7", "lon": -76.94159516666667}, {"is_reserved": 0, "fusion_lon": 0.0, "fusion_lat": 0.0, "name": "3c0184d6b56f2a7b543d7eb23de037c9", "type": "electric_scooter", "is_disabled": 0, "lat": 38.90128416666667, "rental_uris": {"android": "https://dc.lft.to/lastmile_qr_scan", "ios": "https://dc.lft.to/lastmile_qr_scan"}, "bike_id": "3c0184d6b56f2a7b543d7eb23de037c9", "lon": -77.04013766666667}, {"is_reserved": 0, "fusion_lon": 0.0, "fusion_lat": 0.0, "name": "6fbbf4602f42a3f6675dde9c3fdb1f9d", "type": "electric_scooter", "is_disabled": 0, "lat": 38.909733833333334, "rental_uris": {"android": "https://dc.lft.to/lastmile_qr_scan", "ios": "https://dc.lft.to/lastmile_qr_scan"}, "bike_id": "6fbbf4602f42a3f6675dde9c3fdb1f9d", "lon": -77.03861416666666}, {"is_reserved": 0, "fusion_lon": 0.0, "fusion_lat": 0.0, "name": "f6ef5c78aa15aabe8c36ad56ed708687", "type": "electric_scooter", "is_disabled": 0, "lat": 38.9233705, "rental_uris": {"android": "https://dc.lft.to/lastmile_qr_scan", "ios": "https://dc.lft.to/lastmile_qr_scan"}, "bike_id": "f6ef5c78aa15aabe8c36ad56ed708687", "lon": -77.04188533333334}, {"is_reserved": 0, "fusion_lon": 0.0, "fusion_lat": 0.0, "name": "03d90e837eff7a61179833ab6609ebdf", "type": "electric_scooter", "is_disabled": 0, "lat": 38.9017025, "rental_uris": {"android": "https://dc.lft.to/lastmile_qr_scan", "ios": "https://dc.lft.to/lastmile_qr_scan"}, "bike_id": "03d90e837eff7a61179833ab6609ebdf", "lon": -77.06008416666667}, {"is_reserved": 0, "fusion_lon": 0.0, "fusion_lat": 0.0, "name": "988045ca392fbd2f7a4856e7785cff22", "type": "electric_scooter", "is_disabled": 0, "lat": 38.90747483333333, "rental_uris": {"android": "https://dc.lft.to/lastmile_qr_scan", "ios": "https://dc.lft.to/lastmile_qr_scan"}, "bike_id": "988045ca392fbd2f7a4856e7785cff22", "lon": -76.98512466666666}, {"is_reserved": 0, "fusion_lon": 0.0, "fusion_lat": 0.0, "name": "a9e0e0bbc5c06d73ae939e63757ccbed", "type": "electric_scooter", "is_disabled": 0, "lat": 38.913786333333334, "rental_uris": {"android": "https://dc.lft.to/lastmile_qr_scan", "ios": "https://dc.lft.to/lastmile_qr_scan"}, "bike_id": "a9e0e0bbc5c06d73ae939e63757ccbed", "lon": -77.0413375}, {"is_reserved": 0, "fusion_lon": 0.0, "fusion_lat": 0.0, "name": "c0e107485294de94fe44f0e1d3a1e07e", "type": "electric_scooter", "is_disabled": 0, "lat": 38.90531933333333, "rental_uris": {"android": "https://dc.lft.to/lastmile_qr_scan", "ios": "https://dc.lft.to/lastmile_qr_scan"}, "bike_id": "c0e107485294de94fe44f0e1d3a1e07e", "lon": -77.04853966666667}, {"is_reserved": 0, "fusion_lon": 0.0, "fusion_lat": 0.0, "name": "713c217bec72942ad2beb8d0d22f9059", "type": "electric_scooter", "is_disabled": 0, "lat": 38.92506083333333, "rental_uris": {"android": "https://dc.lft.to/lastmile_qr_scan", "ios": "https://dc.lft.to/lastmile_qr_scan"}, "bike_id": "713c217bec72942ad2beb8d0d22f9059", "lon": -77.02357616666667}, {"is_reserved": 0, "fusion_lon": 0.0, "fusion_lat": 0.0, "name": "4d8e13d87f39cd31f89648ec28e11839", "type": "electric_scooter", "is_disabled": 0, "lat": 38.92949483333334, "rental_uris": {"android": "https://dc.lft.to/lastmile_qr_scan", "ios": "https://dc.lft.to/lastmile_qr_scan"}, "bike_id": "4d8e13d87f39cd31f89648ec28e11839", "lon": -77.02789466666667}, {"is_reserved": 0, "fusion_lon": 0.0, "fusion_lat": 0.0, "name": "55f0ce1224471a0352b6de676913c1db", "type": "electric_scooter", "is_disabled": 0, "lat": 38.8955095, "rental_uris": {"android": "https://dc.lft.to/lastmile_qr_scan", "ios": "https://dc.lft.to/lastmile_qr_scan"}, "bike_id": "55f0ce1224471a0352b6de676913c1db", "lon": -76.94878216666666}, {"is_reserved": 0, "fusion_lon": 0.0, "fusion_lat": 0.0, "name": "6281142304592e1eff5aef9231e06449", "type": "electric_bike", "is_disabled": 0, "lat": 38.872732, "rental_uris": {"android": "https://dc.lft.to/lastmile_qr_scan", "ios": "https://dc.lft.to/lastmile_qr_scan"}, "bike_id": "6281142304592e1eff5aef9231e06449", "lon": -77.2332815}, {"is_reserved": 0, "fusion_lon": 0.0, "fusion_lat": 0.0, "name": "74fa5b3f888ac071aa226872eac1ac86", "type": "electric_scooter", "is_disabled": 0, "lat": 38.907838166666664, "rental_uris": {"android": "https://dc.lft.to/lastmile_qr_scan", "ios": "https://dc.lft.to/lastmile_qr_scan"}, "bike_id": "74fa5b3f888ac071aa226872eac1ac86", "lon": -77.07261333333334}, {"is_reserved": 0, "fusion_lon": 0.0, "fusion_lat": 0.0, "name": "76df65f92f2935a4b5b944150189be00", "type": "electric_scooter", "is_disabled": 0, "lat": 38.90713733333333, "rental_uris": {"android": "https://dc.lft.to/lastmile_qr_scan", "ios": "https://dc.lft.to/lastmile_qr_scan"}, "bike_id": "76df65f92f2935a4b5b944150189be00", "lon": -77.08209716666667}, {"is_reserved": 0, "fusion_lon": 0.0, "fusion_lat": 0.0, "name": "c62caa7cc973b0968338572869a10d80", "type": "electric_scooter", "is_disabled": 0, "lat": 38.906377166666665, "rental_uris": {"android": "https://dc.lft.to/lastmile_qr_scan", "ios": "https://dc.lft.to/lastmile_qr_scan"}, "bike_id": "c62caa7cc973b0968338572869a10d80", "lon": -77.06889166666667}, {"is_reserved": 0, "fusion_lon": 0.0, "fusion_lat": 0.0, "name": "2511cf74fd88afcbda271878cfaeffc9", "type": "electric_scooter", "is_disabled": 0, "lat": 38.934436, "rental_uris": {"android": "https://dc.lft.to/lastmile_qr_scan", "ios": "https://dc.lft.to/lastmile_qr_scan"}, "bike_id": "2511cf74fd88afcbda271878cfaeffc9", "lon": -76.99883633333333}, {"is_reserved": 0, "fusion_lon": 0.0, "fusion_lat": 0.0, "name": "a631c08a00b6b158d2ce38ef0f54d1da", "type": "electric_scooter", "is_disabled": 0, "lat": 38.926754, "rental_uris": {"android": "https://dc.lft.to/lastmile_qr_scan", "ios": "https://dc.lft.to/lastmile_qr_scan"}, "bike_id": "a631c08a00b6b158d2ce38ef0f54d1da", "lon": -77.02783883333333}, {"is_reserved": 0, "fusion_lon": 0.0, "fusion_lat": 0.0, "name": "4cc1b94f3052cd6061c2029dd2645d25", "type": "electric_scooter", "is_disabled": 0, "lat": 38.92170866666667, "rental_uris": {"android": "https://dc.lft.to/lastmile_qr_scan", "ios": "https://dc.lft.to/lastmile_qr_scan"}, "bike_id": "4cc1b94f3052cd6061c2029dd2645d25", "lon": -77.0401515}, {"is_reserved": 0, "fusion_lon": 0.0, "fusion_lat": 0.0, "name": "2d46f1a33b24e36b74af810c521c9a94", "type": "electric_scooter", "is_disabled": 0, "lat": 38.90066733333333, "rental_uris": {"android": "https://dc.lft.to/lastmile_qr_scan", "ios": "https://dc.lft.to/lastmile_qr_scan"}, "bike_id": "2d46f1a33b24e36b74af810c521c9a94", "lon": -76.946935}, {"is_reserved": 0, "fusion_lon": 0.0, "fusion_lat": 0.0, "name": "30e8595ca1ff8da7d489f225ce368b4b", "type": "electric_scooter", "is_disabled": 0, "lat": 38.950876, "rental_uris": {"android": "https://dc.lft.to/lastmile_qr_scan", "ios": "https://dc.lft.to/lastmile_qr_scan"}, "bike_id": "30e8595ca1ff8da7d489f225ce368b4b", "lon": -77.02325733333333}, {"is_reserved": 0, "fusion_lon": 0.0, "fusion_lat": 0.0, "name": "6f2abd5068ea0bdd6c61d92fe372a7ef", "type": "electric_scooter", "is_disabled": 0, "lat": 38.89220366666667, "rental_uris": {"android": "https://dc.lft.to/lastmile_qr_scan", "ios": "https://dc.lft.to/lastmile_qr_scan"}, "bike_id": "6f2abd5068ea0bdd6c61d92fe372a7ef", "lon": -77.02626766666667}, {"is_reserved": 0, "fusion_lon": 0.0, "fusion_lat": 0.0, "name": "fa3606934d37c493af3dc86c57963245", "type": "electric_bike", "is_disabled": 0, "lat": 38.96280016666667, "rental_uris": {"android": "https://dc.lft.to/lastmile_qr_scan", "ios": "https://dc.lft.to/lastmile_qr_scan"}, "bike_id": "fa3606934d37c493af3dc86c57963245", "lon": -77.014562}, {"is_reserved": 0, "fusion_lon": 0.0, "fusion_lat": 0.0, "name": "df07c0cdc1d62d0b91d60dd66139faa4", "type": "electric_bike", "is_disabled": 0, "lat": 38.930950333333335, "rental_uris": {"android": "https://dc.lft.to/lastmile_qr_scan", "ios": "https://dc.lft.to/lastmile_qr_scan"}, "bike_id": "df07c0cdc1d62d0b91d60dd66139faa4", "lon": -77.02588066666667}, {"is_reserved": 0, "fusion_lon": 0.0, "fusion_lat": 0.0, "name": "202dd841e4daf6c1bbf98c28fe378ae1", "type": "electric_scooter", "is_disabled": 0, "lat": 38.9215745, "rental_uris": {"android": "https://dc.lft.to/lastmile_qr_scan", "ios": "https://dc.lft.to/lastmile_qr_scan"}, "bike_id": "202dd841e4daf6c1bbf98c28fe378ae1", "lon": -77.02093366666666}, {"is_reserved": 0, "fusion_lon": 0.0, "fusion_lat": 0.0, "name": "6cfa2d18214fec27a603ad618c5896da", "type": "electric_scooter", "is_disabled": 0, "lat": 38.89147533333333, "rental_uris": {"android": "https://dc.lft.to/lastmile_qr_scan", "ios": "https://dc.lft.to/lastmile_qr_scan"}, "bike_id": "6cfa2d18214fec27a603ad618c5896da", "lon": -76.9838485}, {"is_reserved": 0, "fusion_lon": 0.0, "fusion_lat": 0.0, "name": "61aefea2b27b627bbbbb3ef0b914bcb2", "type": "electric_scooter", "is_disabled": 0, "lat": 38.9201625, "rental_uris": {"android": "https://dc.lft.to/lastmile_qr_scan", "ios": "https://dc.lft.to/lastmile_qr_scan"}, "bike_id": "61aefea2b27b627bbbbb3ef0b914bcb2", "lon": -77.03472533333333}, {"is_reserved": 0, "fusion_lon": 0.0, "fusion_lat": 0.0, "name": "deaee7e7db5202411a38cd660ed3919c", "type": "electric_scooter", "is_disabled": 0, "lat": 38.9180745, "rental_uris": {"android": "https://dc.lft.to/lastmile_qr_scan", "ios": "https://dc.lft.to/lastmile_qr_scan"}, "bike_id": "deaee7e7db5202411a38cd660ed3919c", "lon": -77.02496033333334}, {"is_reserved": 0, "fusion_lon": 0.0, "fusion_lat": 0.0, "name": "a8cc4d9aed163c95cb35ef07d9ae5ec3", "type": "electric_scooter", "is_disabled": 0, "lat": 38.871673666666666, "rental_uris": {"android": "https://dc.lft.to/lastmile_qr_scan", "ios": "https://dc.lft.to/lastmile_qr_scan"}, "bike_id": "a8cc4d9aed163c95cb35ef07d9ae5ec3", "lon": -76.97749766666666}, {"is_reserved": 0, "fusion_lon": 0.0, "fusion_lat": 0.0, "name": "a98a02a8a9118aa83c7e0afa16a7b240", "type": "electric_scooter", "is_disabled": 0, "lat": 38.900802666666664, "rental_uris": {"android": "https://dc.lft.to/lastmile_qr_scan", "ios": "https://dc.lft.to/lastmile_qr_scan"}, "bike_id": "a98a02a8a9118aa83c7e0afa16a7b240", "lon": -77.04888183333334}, {"is_reserved": 0, "fusion_lon": 0.0, "fusion_lat": 0.0, "name": "bd781be7874b940c39670466ee7ef121", "type": "electric_scooter", "is_disabled": 0, "lat": 38.91723666666667, "rental_uris": {"android": "https://dc.lft.to/lastmile_qr_scan", "ios": "https://dc.lft.to/lastmile_qr_scan"}, "bike_id": "bd781be7874b940c39670466ee7ef121", "lon": -77.03662}, {"is_reserved": 0, "fusion_lon": 0.0, "fusion_lat": 0.0, "name": "f7d81dc1ce02764cd96a433ab0f7fdf7", "type": "electric_scooter", "is_disabled": 0, "lat": 38.92452483333334, "rental_uris": {"android": "https://dc.lft.to/lastmile_qr_scan", "ios": "https://dc.lft.to/lastmile_qr_scan"}, "bike_id": "f7d81dc1ce02764cd96a433ab0f7fdf7", "lon": -77.03282833333333}, {"is_reserved": 0, "fusion_lon": 0.0, "fusion_lat": 0.0, "name": "2311d668c6ef4b9c995ec1121f953bf9", "type": "electric_scooter", "is_disabled": 0, "lat": 38.914765, "rental_uris": {"android": "https://dc.lft.to/lastmile_qr_scan", "ios": "https://dc.lft.to/lastmile_qr_scan"}, "bike_id": "2311d668c6ef4b9c995ec1121f953bf9", "lon": -77.020902}, {"is_reserved": 0, "fusion_lon": 0.0, "fusion_lat": 0.0, "name": "051260b2a156ae93de4e9c0e8ec7d5f2", "type": "electric_scooter", "is_disabled": 0, "lat": 38.919332833333335, "rental_uris": {"android": "https://dc.lft.to/lastmile_qr_scan", "ios": "https://dc.lft.to/lastmile_qr_scan"}, "bike_id": "051260b2a156ae93de4e9c0e8ec7d5f2", "lon": -77.04489033333333}, {"is_reserved": 0, "fusion_lon": 0.0, "fusion_lat": 0.0, "name": "c4b5d2a946056e55c9051b6a6c22a09c", "type": "electric_scooter", "is_disabled": 0, "lat": 38.9211255, "rental_uris": {"android": "https://dc.lft.to/lastmile_qr_scan", "ios": "https://dc.lft.to/lastmile_qr_scan"}, "bike_id": "c4b5d2a946056e55c9051b6a6c22a09c", "lon": -77.04127083333333}, {"is_reserved": 0, "fusion_lon": 0.0, "fusion_lat": 0.0, "name": "a494c2b21f82a3f420629f594e2ccade", "type": "electric_scooter", "is_disabled": 0, "lat": 38.887262666666665, "rental_uris": {"android": "https://dc.lft.to/lastmile_qr_scan", "ios": "https://dc.lft.to/lastmile_qr_scan"}, "bike_id": "a494c2b21f82a3f420629f594e2ccade", "lon": -77.0283215}, {"is_reserved": 0, "fusion_lon": 0.0, "fusion_lat": 0.0, "name": "83106e49d2c471cc34357290dac3ff95", "type": "electric_scooter", "is_disabled": 0, "lat": 38.91122033333333, "rental_uris": {"android": "https://dc.lft.to/lastmile_qr_scan", "ios": "https://dc.lft.to/lastmile_qr_scan"}, "bike_id": "83106e49d2c471cc34357290dac3ff95", "lon": -77.03831333333333}, {"is_reserved": 0, "fusion_lon": 0.0, "fusion_lat": 0.0, "name": "4fc370f86aa60a64f70ab366b013483f", "type": "electric_scooter", "is_disabled": 0, "lat": 38.8666345, "rental_uris": {"android": "https://dc.lft.to/lastmile_qr_scan", "ios": "https://dc.lft.to/lastmile_qr_scan"}, "bike_id": "4fc370f86aa60a64f70ab366b013483f", "lon": -76.98882133333333}, {"is_reserved": 0, "fusion_lon": 0.0, "fusion_lat": 0.0, "name": "bf8f84d546e5f6c42486758915e76aa7", "type": "electric_scooter", "is_disabled": 0, "lat": 38.869991166666665, "rental_uris": {"android": "https://dc.lft.to/lastmile_qr_scan", "ios": "https://dc.lft.to/lastmile_qr_scan"}, "bike_id": "bf8f84d546e5f6c42486758915e76aa7", "lon": -76.97583716666666}, {"is_reserved": 0, "fusion_lon": 0.0, "fusion_lat": 0.0, "name": "ac42380d740203dd00967493a2b98c4c", "type": "electric_scooter", "is_disabled": 0, "lat": 38.905657833333336, "rental_uris": {"android": "https://dc.lft.to/lastmile_qr_scan", "ios": "https://dc.lft.to/lastmile_qr_scan"}, "bike_id": "ac42380d740203dd00967493a2b98c4c", "lon": -77.00589283333333}, {"is_reserved": 0, "fusion_lon": 0.0, "fusion_lat": 0.0, "name": "54a895131fe8efdc91b91489720beb5a", "type": "electric_scooter", "is_disabled": 0, "lat": 38.902531, "rental_uris": {"android": "https://dc.lft.to/lastmile_qr_scan", "ios": "https://dc.lft.to/lastmile_qr_scan"}, "bike_id": "54a895131fe8efdc91b91489720beb5a", "lon": -76.9955805}, {"is_reserved": 0, "fusion_lon": 0.0, "fusion_lat": 0.0, "name": "1039eb3b95545bcb764b03a25720cbbb", "type": "electric_scooter", "is_disabled": 0, "lat": 38.87829816666667, "rental_uris": {"android": "https://dc.lft.to/lastmile_qr_scan", "ios": "https://dc.lft.to/lastmile_qr_scan"}, "bike_id": "1039eb3b95545bcb764b03a25720cbbb", "lon": -76.963096}, {"is_reserved": 0, "fusion_lon": 0.0, "fusion_lat": 0.0, "name": "2da1061fd4d37c18967e528e8151cf69", "type": "electric_scooter", "is_disabled": 0, "lat": 38.98453716666667, "rental_uris": {"android": "https://dc.lft.to/lastmile_qr_scan", "ios": "https://dc.lft.to/lastmile_qr_scan"}, "bike_id": "2da1061fd4d37c18967e528e8151cf69", "lon": -77.02644383333333}, {"is_reserved": 0, "fusion_lon": 0.0, "fusion_lat": 0.0, "name": "c67591d0a36bda777bbeb58dc74d2bc4", "type": "electric_scooter", "is_disabled": 0, "lat": 38.932330666666665, "rental_uris": {"android": "https://dc.lft.to/lastmile_qr_scan", "ios": "https://dc.lft.to/lastmile_qr_scan"}, "bike_id": "c67591d0a36bda777bbeb58dc74d2bc4", "lon": -77.03871766666667}, {"is_reserved": 0, "fusion_lon": 0.0, "fusion_lat": 0.0, "name": "fc7ae143ec4ba657d4572b34c8c82822", "type": "electric_scooter", "is_disabled": 0, "lat": 38.9155605, "rental_uris": {"android": "https://dc.lft.to/lastmile_qr_scan", "ios": "https://dc.lft.to/lastmile_qr_scan"}, "bike_id": "fc7ae143ec4ba657d4572b34c8c82822", "lon": -77.0204875}, {"is_reserved": 0, "fusion_lon": 0.0, "fusion_lat": 0.0, "name": "5f4983aa1a01d5c43d9d85faa5147130", "type": "electric_bike", "is_disabled": 0, "lat": 39.0527745, "rental_uris": {"android": "https://dc.lft.to/lastmile_qr_scan", "ios": "https://dc.lft.to/lastmile_qr_scan"}, "bike_id": "5f4983aa1a01d5c43d9d85faa5147130", "lon": -77.08072016666667}, {"is_reserved": 0, "fusion_lon": 0.0, "fusion_lat": 0.0, "name": "d07e02065e484dfced78658f510ba10e", "type": "electric_scooter", "is_disabled": 0, "lat": 38.92327216666666, "rental_uris": {"android": "https://dc.lft.to/lastmile_qr_scan", "ios": "https://dc.lft.to/lastmile_qr_scan"}, "bike_id": "d07e02065e484dfced78658f510ba10e", "lon": -77.00050083333333}, {"is_reserved": 0, "fusion_lon": 0.0, "fusion_lat": 0.0, "name": "58f53efb9f7ced93a73e2ac8d97a5075", "type": "electric_scooter", "is_disabled": 0, "lat": 38.91264266666667, "rental_uris": {"android": "https://dc.lft.to/lastmile_qr_scan", "ios": "https://dc.lft.to/lastmile_qr_scan"}, "bike_id": "58f53efb9f7ced93a73e2ac8d97a5075", "lon": -77.03114666666667}, {"is_reserved": 0, "fusion_lon": 0.0, "fusion_lat": 0.0, "name": "be0a20e64bf7217494cd8e13416fa8a0", "type": "electric_scooter", "is_disabled": 0, "lat": 38.928868, "rental_uris": {"android": "https://dc.lft.to/lastmile_qr_scan", "ios": "https://dc.lft.to/lastmile_qr_scan"}, "bike_id": "be0a20e64bf7217494cd8e13416fa8a0", "lon": -77.03642833333333}, {"is_reserved": 0, "fusion_lon": 0.0, "fusion_lat": 0.0, "name": "ae46fbc2a8adcb1f6049785542da9bd1", "type": "electric_scooter", "is_disabled": 0, "lat": 38.9304485, "rental_uris": {"android": "https://dc.lft.to/lastmile_qr_scan", "ios": "https://dc.lft.to/lastmile_qr_scan"}, "bike_id": "ae46fbc2a8adcb1f6049785542da9bd1", "lon": -77.01224233333333}, {"is_reserved": 0, "fusion_lon": 0.0, "fusion_lat": 0.0, "name": "88307acbb39157d366bf2f27e1f8e4d7", "type": "electric_scooter", "is_disabled": 0, "lat": 38.924898, "rental_uris": {"android": "https://dc.lft.to/lastmile_qr_scan", "ios": "https://dc.lft.to/lastmile_qr_scan"}, "bike_id": "88307acbb39157d366bf2f27e1f8e4d7", "lon": -77.02693383333333}, {"is_reserved": 0, "fusion_lon": 0.0, "fusion_lat": 0.0, "name": "cdf546394bbccc170755c7d95bfcdaf7", "type": "electric_bike", "is_disabled": 0, "lat": 38.862601, "rental_uris": {"android": "https://dc.lft.to/lastmile_qr_scan", "ios": "https://dc.lft.to/lastmile_qr_scan"}, "bike_id": "cdf546394bbccc170755c7d95bfcdaf7", "lon": -76.98355016666666}, {"is_reserved": 0, "fusion_lon": 0.0, "fusion_lat": 0.0, "name": "7ef16f5c12be5a7f2bc525583fc3e88a", "type": "electric_scooter", "is_disabled": 0, "lat": 38.90867866666667, "rental_uris": {"android": "https://dc.lft.to/lastmile_qr_scan", "ios": "https://dc.lft.to/lastmile_qr_scan"}, "bike_id": "7ef16f5c12be5a7f2bc525583fc3e88a", "lon": -77.08598083333334}, {"is_reserved": 0, "fusion_lon": 0.0, "fusion_lat": 0.0, "name": "d4902f4526becca2a0de97771376c714", "type": "electric_scooter", "is_disabled": 0, "lat": 38.91818083333333, "rental_uris": {"android": "https://dc.lft.to/lastmile_qr_scan", "ios": "https://dc.lft.to/lastmile_qr_scan"}, "bike_id": "d4902f4526becca2a0de97771376c714", "lon": -77.08946633333333}, {"is_reserved": 0, "fusion_lon": 0.0, "fusion_lat": 0.0, "name": "731be72e6ce03d655208e1292e4ab2e4", "type": "electric_scooter", "is_disabled": 0, "lat": 38.91736233333334, "rental_uris": {"android": "https://dc.lft.to/lastmile_qr_scan", "ios": "https://dc.lft.to/lastmile_qr_scan"}, "bike_id": "731be72e6ce03d655208e1292e4ab2e4", "lon": -77.02698866666667}, {"is_reserved": 0, "fusion_lon": 0.0, "fusion_lat": 0.0, "name": "3506da29bf69dbaaa0492ec5c791002b", "type": "electric_scooter", "is_disabled": 0, "lat": 38.9360985, "rental_uris": {"android": "https://dc.lft.to/lastmile_qr_scan", "ios": "https://dc.lft.to/lastmile_qr_scan"}, "bike_id": "3506da29bf69dbaaa0492ec5c791002b", "lon": -77.037775}, {"is_reserved": 0, "fusion_lon": 0.0, "fusion_lat": 0.0, "name": "51fa16d06e8c8554d21abbc6df66503b", "type": "electric_bike", "is_disabled": 0, "lat": 38.963216333333335, "rental_uris": {"android": "https://dc.lft.to/lastmile_qr_scan", "ios": "https://dc.lft.to/lastmile_qr_scan"}, "bike_id": "51fa16d06e8c8554d21abbc6df66503b", "lon": -76.97361616666667}, {"is_reserved": 0, "fusion_lon": 0.0, "fusion_lat": 0.0, "name": "a433a075ebae60be7f3bb12c437fde29", "type": "electric_bike", "is_disabled": 0, "lat": 38.969162, "rental_uris": {"android": "https://dc.lft.to/lastmile_qr_scan", "ios": "https://dc.lft.to/lastmile_qr_scan"}, "bike_id": "a433a075ebae60be7f3bb12c437fde29", "lon": -76.99491566666667}, {"is_reserved": 0, "fusion_lon": 0.0, "fusion_lat": 0.0, "name": "20531dff5e056d38c072df6a6d5de4aa", "type": "electric_scooter", "is_disabled": 0, "lat": 38.892195666666666, "rental_uris": {"android": "https://dc.lft.to/lastmile_qr_scan", "ios": "https://dc.lft.to/lastmile_qr_scan"}, "bike_id": "20531dff5e056d38c072df6a6d5de4aa", "lon": -77.04502416666666}, {"is_reserved": 0, "fusion_lon": 0.0, "fusion_lat": 0.0, "name": "1596f2563ae572f4534bc1ae0fedefe7", "type": "electric_scooter", "is_disabled": 0, "lat": 38.952314, "rental_uris": {"android": "https://dc.lft.to/lastmile_qr_scan", "ios": "https://dc.lft.to/lastmile_qr_scan"}, "bike_id": "1596f2563ae572f4534bc1ae0fedefe7", "lon": -77.01428883333334}, {"is_reserved": 0, "fusion_lon": 0.0, "fusion_lat": 0.0, "name": "82b5948b1385c97e34f55426b8302325", "type": "electric_scooter", "is_disabled": 0, "lat": 38.87883433333333, "rental_uris": {"android": "https://dc.lft.to/lastmile_qr_scan", "ios": "https://dc.lft.to/lastmile_qr_scan"}, "bike_id": "82b5948b1385c97e34f55426b8302325", "lon": -77.02323433333333}, {"is_reserved": 0, "fusion_lon": 0.0, "fusion_lat": 0.0, "name": "b43d76b6d05cb99838ace9d17e9b5dc2", "type": "electric_scooter", "is_disabled": 0, "lat": 38.92275216666667, "rental_uris": {"android": "https://dc.lft.to/lastmile_qr_scan", "ios": "https://dc.lft.to/lastmile_qr_scan"}, "bike_id": "b43d76b6d05cb99838ace9d17e9b5dc2", "lon": -77.03219416666667}, {"is_reserved": 0, "fusion_lon": 0.0, "fusion_lat": 0.0, "name": "babc93bf749109b24d0b82764ed667a8", "type": "electric_scooter", "is_disabled": 0, "lat": 38.90720816666666, "rental_uris": {"android": "https://dc.lft.to/lastmile_qr_scan", "ios": "https://dc.lft.to/lastmile_qr_scan"}, "bike_id": "babc93bf749109b24d0b82764ed667a8", "lon": -77.03816816666667}, {"is_reserved": 0, "fusion_lon": 0.0, "fusion_lat": 0.0, "name": "da0654e7b80486ddb983c6fefd534d68", "type": "electric_scooter", "is_disabled": 0, "lat": 38.887132666666666, "rental_uris": {"android": "https://dc.lft.to/lastmile_qr_scan", "ios": "https://dc.lft.to/lastmile_qr_scan"}, "bike_id": "da0654e7b80486ddb983c6fefd534d68", "lon": -77.02183683333334}, {"is_reserved": 0, "fusion_lon": 0.0, "fusion_lat": 0.0, "name": "8aec00fe0ed651688cbf80f2381b96d5", "type": "electric_scooter", "is_disabled": 0, "lat": 38.919395333333334, "rental_uris": {"android": "https://dc.lft.to/lastmile_qr_scan", "ios": "https://dc.lft.to/lastmile_qr_scan"}, "bike_id": "8aec00fe0ed651688cbf80f2381b96d5", "lon": -77.070612}, {"is_reserved": 0, "fusion_lon": 0.0, "fusion_lat": 0.0, "name": "715b1f083417879ba450630478bd4971", "type": "electric_scooter", "is_disabled": 0, "lat": 38.89494, "rental_uris": {"android": "https://dc.lft.to/lastmile_qr_scan", "ios": "https://dc.lft.to/lastmile_qr_scan"}, "bike_id": "715b1f083417879ba450630478bd4971", "lon": -77.002132}, {"is_reserved": 0, "fusion_lon": 0.0, "fusion_lat": 0.0, "name": "0a03721f8dddd7496eea2191ca3cf3a7", "type": "electric_scooter", "is_disabled": 0, "lat": 38.908765, "rental_uris": {"android": "https://dc.lft.to/lastmile_qr_scan", "ios": "https://dc.lft.to/lastmile_qr_scan"}, "bike_id": "0a03721f8dddd7496eea2191ca3cf3a7", "lon": -77.0008545}, {"is_reserved": 0, "fusion_lon": 0.0, "fusion_lat": 0.0, "name": "e37ebfb4a17980eac7feccf5f7950be9", "type": "electric_scooter", "is_disabled": 0, "lat": 38.90719383333333, "rental_uris": {"android": "https://dc.lft.to/lastmile_qr_scan", "ios": "https://dc.lft.to/lastmile_qr_scan"}, "bike_id": "e37ebfb4a17980eac7feccf5f7950be9", "lon": -77.01749883333333}, {"is_reserved": 0, "fusion_lon": 0.0, "fusion_lat": 0.0, "name": "11225492fa99122ea385cacb0df8fe65", "type": "electric_scooter", "is_disabled": 0, "lat": 38.924813666666665, "rental_uris": {"android": "https://dc.lft.to/lastmile_qr_scan", "ios": "https://dc.lft.to/lastmile_qr_scan"}, "bike_id": "11225492fa99122ea385cacb0df8fe65", "lon": -77.03499833333333}, {"is_reserved": 0, "fusion_lon": 0.0, "fusion_lat": 0.0, "name": "fa89a0221c06f2968dc2f30bbec6a316", "type": "electric_scooter", "is_disabled": 0, "lat": 38.930162, "rental_uris": {"android": "https://dc.lft.to/lastmile_qr_scan", "ios": "https://dc.lft.to/lastmile_qr_scan"}, "bike_id": "fa89a0221c06f2968dc2f30bbec6a316", "lon": -77.013023}, {"is_reserved": 0, "fusion_lon": 0.0, "fusion_lat": 0.0, "name": "14f6ecbf2cab6508fb455a9231f1a422", "type": "electric_scooter", "is_disabled": 0, "lat": 38.918212, "rental_uris": {"android": "https://dc.lft.to/lastmile_qr_scan", "ios": "https://dc.lft.to/lastmile_qr_scan"}, "bike_id": "14f6ecbf2cab6508fb455a9231f1a422", "lon": -77.035672}, {"is_reserved": 0, "fusion_lon": 0.0, "fusion_lat": 0.0, "name": "828705aa3fdf92f280af451067549724", "type": "electric_bike", "is_disabled": 0, "lat": 38.8981285, "rental_uris": {"android": "https://dc.lft.to/lastmile_qr_scan", "ios": "https://dc.lft.to/lastmile_qr_scan"}, "bike_id": "828705aa3fdf92f280af451067549724", "lon": -77.00596083333333}, {"is_reserved": 0, "fusion_lon": 0.0, "fusion_lat": 0.0, "name": "f6cb4cde44de60797a0d51f3dfd35ca8", "type": "electric_scooter", "is_disabled": 0, "lat": 38.900316833333335, "rental_uris": {"android": "https://dc.lft.to/lastmile_qr_scan", "ios": "https://dc.lft.to/lastmile_qr_scan"}, "bike_id": "f6cb4cde44de60797a0d51f3dfd35ca8", "lon": -77.01186833333334}, {"is_reserved": 0, "fusion_lon": 0.0, "fusion_lat": 0.0, "name": "e2c606fc601949b2d14d1b6fc8223d2c", "type": "electric_scooter", "is_disabled": 0, "lat": 38.914880833333335, "rental_uris": {"android": "https://dc.lft.to/lastmile_qr_scan", "ios": "https://dc.lft.to/lastmile_qr_scan"}, "bike_id": "e2c606fc601949b2d14d1b6fc8223d2c", "lon": -77.01999433333333}, {"is_reserved": 0, "fusion_lon": 0.0, "fusion_lat": 0.0, "name": "cf089a4a2acf4df4a211644c77c41821", "type": "electric_scooter", "is_disabled": 0, "lat": 38.9396825, "rental_uris": {"android": "https://dc.lft.to/lastmile_qr_scan", "ios": "https://dc.lft.to/lastmile_qr_scan"}, "bike_id": "cf089a4a2acf4df4a211644c77c41821", "lon": -77.02498066666666}, {"is_reserved": 0, "fusion_lon": 0.0, "fusion_lat": 0.0, "name": "f8eef47c0f7e75697128af9df84202d4", "type": "electric_scooter", "is_disabled": 0, "lat": 38.9217605, "rental_uris": {"android": "https://dc.lft.to/lastmile_qr_scan", "ios": "https://dc.lft.to/lastmile_qr_scan"}, "bike_id": "f8eef47c0f7e75697128af9df84202d4", "lon": -77.0320125}, {"is_reserved": 0, "fusion_lon": 0.0, "fusion_lat": 0.0, "name": "0d1501d821d37faf36c0cb11b4953758", "type": "electric_scooter", "is_disabled": 0, "lat": 38.92322983333333, "rental_uris": {"android": "https://dc.lft.to/lastmile_qr_scan", "ios": "https://dc.lft.to/lastmile_qr_scan"}, "bike_id": "0d1501d821d37faf36c0cb11b4953758", "lon": -77.035497}, {"is_reserved": 0, "fusion_lon": 0.0, "fusion_lat": 0.0, "name": "7162b1812badbcf4c7365b2773683d39", "type": "electric_scooter", "is_disabled": 0, "lat": 38.90884466666667, "rental_uris": {"android": "https://dc.lft.to/lastmile_qr_scan", "ios": "https://dc.lft.to/lastmile_qr_scan"}, "bike_id": "7162b1812badbcf4c7365b2773683d39", "lon": -76.998577}, {"is_reserved": 0, "fusion_lon": 0.0, "fusion_lat": 0.0, "name": "d7dfcc3abd8c438d3cbc8404f583e564", "type": "electric_scooter", "is_disabled": 0, "lat": 38.99609616666667, "rental_uris": {"android": "https://dc.lft.to/lastmile_qr_scan", "ios": "https://dc.lft.to/lastmile_qr_scan"}, "bike_id": "d7dfcc3abd8c438d3cbc8404f583e564", "lon": -77.0322065}, {"is_reserved": 0, "fusion_lon": 0.0, "fusion_lat": 0.0, "name": "397ff919d7bba5289fa7f91fb46ec3ad", "type": "electric_scooter", "is_disabled": 0, "lat": 38.9037915, "rental_uris": {"android": "https://dc.lft.to/lastmile_qr_scan", "ios": "https://dc.lft.to/lastmile_qr_scan"}, "bike_id": "397ff919d7bba5289fa7f91fb46ec3ad", "lon": -77.05396233333333}, {"is_reserved": 0, "fusion_lon": 0.0, "fusion_lat": 0.0, "name": "22aca68ff279fe77a74be97fdd8156d1", "type": "electric_scooter", "is_disabled": 0, "lat": 38.90276166666666, "rental_uris": {"android": "https://dc.lft.to/lastmile_qr_scan", "ios": "https://dc.lft.to/lastmile_qr_scan"}, "bike_id": "22aca68ff279fe77a74be97fdd8156d1", "lon": -77.0364535}, {"is_reserved": 0, "fusion_lon": 0.0, "fusion_lat": 0.0, "name": "b52e3f53e3a7e4c3bc93959e6b6d4b12", "type": "electric_scooter", "is_disabled": 0, "lat": 38.90598266666667, "rental_uris": {"android": "https://dc.lft.to/lastmile_qr_scan", "ios": "https://dc.lft.to/lastmile_qr_scan"}, "bike_id": "b52e3f53e3a7e4c3bc93959e6b6d4b12", "lon": -77.0038335}, {"is_reserved": 0, "fusion_lon": 0.0, "fusion_lat": 0.0, "name": "6fabcbf6ae109063bd62c57c3565cb8e", "type": "electric_scooter", "is_disabled": 0, "lat": 38.864718, "rental_uris": {"android": "https://dc.lft.to/lastmile_qr_scan", "ios": "https://dc.lft.to/lastmile_qr_scan"}, "bike_id": "6fabcbf6ae109063bd62c57c3565cb8e", "lon": -76.982252}, {"is_reserved": 0, "fusion_lon": 0.0, "fusion_lat": 0.0, "name": "59bb251124e8d6a5819ad783aea68053", "type": "electric_scooter", "is_disabled": 0, "lat": 38.911167666666664, "rental_uris": {"android": "https://dc.lft.to/lastmile_qr_scan", "ios": "https://dc.lft.to/lastmile_qr_scan"}, "bike_id": "59bb251124e8d6a5819ad783aea68053", "lon": -77.0103085}, {"is_reserved": 0, "fusion_lon": 0.0, "fusion_lat": 0.0, "name": "13d6c860a6783e09707786c33bddc0da", "type": "electric_scooter", "is_disabled": 0, "lat": 38.89498366666667, "rental_uris": {"android": "https://dc.lft.to/lastmile_qr_scan", "ios": "https://dc.lft.to/lastmile_qr_scan"}, "bike_id": "13d6c860a6783e09707786c33bddc0da", "lon": -77.00214483333333}, {"is_reserved": 0, "fusion_lon": 0.0, "fusion_lat": 0.0, "name": "56cc89e5b6ad304496b248bdfc8e3512", "type": "electric_scooter", "is_disabled": 0, "lat": 38.93448383333333, "rental_uris": {"android": "https://dc.lft.to/lastmile_qr_scan", "ios": "https://dc.lft.to/lastmile_qr_scan"}, "bike_id": "56cc89e5b6ad304496b248bdfc8e3512", "lon": -77.030816}, {"is_reserved": 0, "fusion_lon": 0.0, "fusion_lat": 0.0, "name": "979bf30221eb9f0d1bac673bfd95a043", "type": "electric_scooter", "is_disabled": 0, "lat": 38.899009166666666, "rental_uris": {"android": "https://dc.lft.to/lastmile_qr_scan", "ios": "https://dc.lft.to/lastmile_qr_scan"}, "bike_id": "979bf30221eb9f0d1bac673bfd95a043", "lon": -77.03187966666667}, {"is_reserved": 0, "fusion_lon": 0.0, "fusion_lat": 0.0, "name": "38bdc90f11cb0b206239b810acf8e687", "type": "electric_scooter", "is_disabled": 0, "lat": 38.95935033333333, "rental_uris": {"android": "https://dc.lft.to/lastmile_qr_scan", "ios": "https://dc.lft.to/lastmile_qr_scan"}, "bike_id": "38bdc90f11cb0b206239b810acf8e687", "lon": -77.03128083333333}, {"is_reserved": 0, "fusion_lon": 0.0, "fusion_lat": 0.0, "name": "e929e11edb94000ccec3d7802f945cba", "type": "electric_scooter", "is_disabled": 0, "lat": 38.90779716666667, "rental_uris": {"android": "https://dc.lft.to/lastmile_qr_scan", "ios": "https://dc.lft.to/lastmile_qr_scan"}, "bike_id": "e929e11edb94000ccec3d7802f945cba", "lon": -77.038304}, {"is_reserved": 0, "fusion_lon": 0.0, "fusion_lat": 0.0, "name": "6ac4eb404ef40e3929f2a069753a3ba7", "type": "electric_scooter", "is_disabled": 0, "lat": 38.909638666666666, "rental_uris": {"android": "https://dc.lft.to/lastmile_qr_scan", "ios": "https://dc.lft.to/lastmile_qr_scan"}, "bike_id": "6ac4eb404ef40e3929f2a069753a3ba7", "lon": -77.00830033333334}, {"is_reserved": 0, "fusion_lon": 0.0, "fusion_lat": 0.0, "name": "1c06d298289cc50b82c8271594c26c1f", "type": "electric_scooter", "is_disabled": 0, "lat": 38.895542666666664, "rental_uris": {"android": "https://dc.lft.to/lastmile_qr_scan", "ios": "https://dc.lft.to/lastmile_qr_scan"}, "bike_id": "1c06d298289cc50b82c8271594c26c1f", "lon": -76.99842383333333}, {"is_reserved": 0, "fusion_lon": 0.0, "fusion_lat": 0.0, "name": "883379e874c40115652c88cd00e5d4da", "type": "electric_scooter", "is_disabled": 0, "lat": 38.87367183333333, "rental_uris": {"android": "https://dc.lft.to/lastmile_qr_scan", "ios": "https://dc.lft.to/lastmile_qr_scan"}, "bike_id": "883379e874c40115652c88cd00e5d4da", "lon": -76.97014866666666}, {"is_reserved": 0, "fusion_lon": 0.0, "fusion_lat": 0.0, "name": "e6c87fb812712bb3ebadcc71605eec0c", "type": "electric_bike", "is_disabled": 0, "lat": 38.9127445, "rental_uris": {"android": "https://dc.lft.to/lastmile_qr_scan", "ios": "https://dc.lft.to/lastmile_qr_scan"}, "bike_id": "e6c87fb812712bb3ebadcc71605eec0c", "lon": -77.0122305}, {"is_reserved": 0, "fusion_lon": 0.0, "fusion_lat": 0.0, "name": "c3389e82ef677c2dec9ab3a34cc49d24", "type": "electric_scooter", "is_disabled": 0, "lat": 38.9429125, "rental_uris": {"android": "https://dc.lft.to/lastmile_qr_scan", "ios": "https://dc.lft.to/lastmile_qr_scan"}, "bike_id": "c3389e82ef677c2dec9ab3a34cc49d24", "lon": -77.02175983333333}, {"is_reserved": 0, "fusion_lon": 0.0, "fusion_lat": 0.0, "name": "949656dd0213333932a3388cf879ef5f", "type": "electric_bike", "is_disabled": 0, "lat": 38.83431183333333, "rental_uris": {"android": "https://dc.lft.to/lastmile_qr_scan", "ios": "https://dc.lft.to/lastmile_qr_scan"}, "bike_id": "949656dd0213333932a3388cf879ef5f", "lon": -77.10352416666667}, {"is_reserved": 0, "fusion_lon": 0.0, "fusion_lat": 0.0, "name": "cff26875a6e8910382b0a2115a076375", "type": "electric_scooter", "is_disabled": 0, "lat": 38.938921666666666, "rental_uris": {"android": "https://dc.lft.to/lastmile_qr_scan", "ios": "https://dc.lft.to/lastmile_qr_scan"}, "bike_id": "cff26875a6e8910382b0a2115a076375", "lon": -77.033411}, {"is_reserved": 0, "fusion_lon": 0.0, "fusion_lat": 0.0, "name": "de8d10c5e9aa3e5d97757a2b4989ae8f", "type": "electric_scooter", "is_disabled": 0, "lat": 38.90245133333333, "rental_uris": {"android": "https://dc.lft.to/lastmile_qr_scan", "ios": "https://dc.lft.to/lastmile_qr_scan"}, "bike_id": "de8d10c5e9aa3e5d97757a2b4989ae8f", "lon": -77.06109966666666}, {"is_reserved": 0, "fusion_lon": 0.0, "fusion_lat": 0.0, "name": "5eaa2f3e5d7404dbc2e1ed4e85b74cbc", "type": "electric_scooter", "is_disabled": 0, "lat": 38.94838566666667, "rental_uris": {"android": "https://dc.lft.to/lastmile_qr_scan", "ios": "https://dc.lft.to/lastmile_qr_scan"}, "bike_id": "5eaa2f3e5d7404dbc2e1ed4e85b74cbc", "lon": -77.02545066666667}, {"is_reserved": 0, "fusion_lon": 0.0, "fusion_lat": 0.0, "name": "b0c53345787a4cf982ebb93f5f76b31c", "type": "electric_scooter", "is_disabled": 0, "lat": 38.913573, "rental_uris": {"android": "https://dc.lft.to/lastmile_qr_scan", "ios": "https://dc.lft.to/lastmile_qr_scan"}, "bike_id": "b0c53345787a4cf982ebb93f5f76b31c", "lon": -77.02959266666667}, {"is_reserved": 0, "fusion_lon": 0.0, "fusion_lat": 0.0, "name": "64e5c9e15973d159f896b25399136bc6", "type": "electric_scooter", "is_disabled": 0, "lat": 38.90823683333333, "rental_uris": {"android": "https://dc.lft.to/lastmile_qr_scan", "ios": "https://dc.lft.to/lastmile_qr_scan"}, "bike_id": "64e5c9e15973d159f896b25399136bc6", "lon": -77.04326833333333}, {"is_reserved": 0, "fusion_lon": 0.0, "fusion_lat": 0.0, "name": "526e5ab8f44bc993e3d0136b9ccf0346", "type": "electric_scooter", "is_disabled": 0, "lat": 38.923761999999996, "rental_uris": {"android": "https://dc.lft.to/lastmile_qr_scan", "ios": "https://dc.lft.to/lastmile_qr_scan"}, "bike_id": "526e5ab8f44bc993e3d0136b9ccf0346", "lon": -77.03134616666667}, {"is_reserved": 0, "fusion_lon": 0.0, "fusion_lat": 0.0, "name": "da60de960bb9720b18926ec33b7c2046", "type": "electric_scooter", "is_disabled": 0, "lat": 38.949583833333335, "rental_uris": {"android": "https://dc.lft.to/lastmile_qr_scan", "ios": "https://dc.lft.to/lastmile_qr_scan"}, "bike_id": "da60de960bb9720b18926ec33b7c2046", "lon": -77.02722166666666}, {"is_reserved": 0, "fusion_lon": 0.0, "fusion_lat": 0.0, "name": "a804d602824f567221dc370415e529df", "type": "electric_scooter", "is_disabled": 0, "lat": 38.844327, "rental_uris": {"android": "https://dc.lft.to/lastmile_qr_scan", "ios": "https://dc.lft.to/lastmile_qr_scan"}, "bike_id": "a804d602824f567221dc370415e529df", "lon": -76.99813033333334}, {"is_reserved": 0, "fusion_lon": 0.0, "fusion_lat": 0.0, "name": "a99bd2b6bf8fe134b6b83ddb6585b085", "type": "electric_bike", "is_disabled": 0, "lat": 38.91385, "rental_uris": {"android": "https://dc.lft.to/lastmile_qr_scan", "ios": "https://dc.lft.to/lastmile_qr_scan"}, "bike_id": "a99bd2b6bf8fe134b6b83ddb6585b085", "lon": -77.089251}, {"is_reserved": 0, "fusion_lon": 0.0, "fusion_lat": 0.0, "name": "494da6a4a30a17a6a354aab502033e5d", "type": "electric_scooter", "is_disabled": 0, "lat": 38.91422433333334, "rental_uris": {"android": "https://dc.lft.to/lastmile_qr_scan", "ios": "https://dc.lft.to/lastmile_qr_scan"}, "bike_id": "494da6a4a30a17a6a354aab502033e5d", "lon": -77.032136}, {"is_reserved": 0, "fusion_lon": 0.0, "fusion_lat": 0.0, "name": "315c5787d06b88ff0351975114e0b0e0", "type": "electric_scooter", "is_disabled": 0, "lat": 38.900861166666665, "rental_uris": {"android": "https://dc.lft.to/lastmile_qr_scan", "ios": "https://dc.lft.to/lastmile_qr_scan"}, "bike_id": "315c5787d06b88ff0351975114e0b0e0", "lon": -77.04749366666667}, {"is_reserved": 0, "fusion_lon": 0.0, "fusion_lat": 0.0, "name": "94987fbe99d316c748698434b20c8b57", "type": "electric_scooter", "is_disabled": 0, "lat": 38.908802, "rental_uris": {"android": "https://dc.lft.to/lastmile_qr_scan", "ios": "https://dc.lft.to/lastmile_qr_scan"}, "bike_id": "94987fbe99d316c748698434b20c8b57", "lon": -77.0716985}, {"is_reserved": 0, "fusion_lon": 0.0, "fusion_lat": 0.0, "name": "a9dc505c50340bd4cb77bf763a0cac36", "type": "electric_scooter", "is_disabled": 0, "lat": 38.87978016666667, "rental_uris": {"android": "https://dc.lft.to/lastmile_qr_scan", "ios": "https://dc.lft.to/lastmile_qr_scan"}, "bike_id": "a9dc505c50340bd4cb77bf763a0cac36", "lon": -77.01377533333333}, {"is_reserved": 0, "fusion_lon": 0.0, "fusion_lat": 0.0, "name": "b343f5750161519a30d2ecaa1e51e582", "type": "electric_scooter", "is_disabled": 0, "lat": 38.95663483333333, "rental_uris": {"android": "https://dc.lft.to/lastmile_qr_scan", "ios": "https://dc.lft.to/lastmile_qr_scan"}, "bike_id": "b343f5750161519a30d2ecaa1e51e582", "lon": -77.0104315}, {"is_reserved": 0, "fusion_lon": 0.0, "fusion_lat": 0.0, "name": "3282974e4966d906dcf6f0fe781f5081", "type": "electric_scooter", "is_disabled": 0, "lat": 38.9420145, "rental_uris": {"android": "https://dc.lft.to/lastmile_qr_scan", "ios": "https://dc.lft.to/lastmile_qr_scan"}, "bike_id": "3282974e4966d906dcf6f0fe781f5081", "lon": -77.02503766666666}, {"is_reserved": 0, "fusion_lon": 0.0, "fusion_lat": 0.0, "name": "ea3631fee2afaf6bf86ad4443019129c", "type": "electric_scooter", "is_disabled": 0, "lat": 38.92510766666667, "rental_uris": {"android": "https://dc.lft.to/lastmile_qr_scan", "ios": "https://dc.lft.to/lastmile_qr_scan"}, "bike_id": "ea3631fee2afaf6bf86ad4443019129c", "lon": -77.0022705}, {"is_reserved": 0, "fusion_lon": 0.0, "fusion_lat": 0.0, "name": "5ae9bbb47c03a046d3eb313eed3e3d4c", "type": "electric_scooter", "is_disabled": 0, "lat": 38.93342533333333, "rental_uris": {"android": "https://dc.lft.to/lastmile_qr_scan", "ios": "https://dc.lft.to/lastmile_qr_scan"}, "bike_id": "5ae9bbb47c03a046d3eb313eed3e3d4c", "lon": -77.02623066666666}, {"is_reserved": 0, "fusion_lon": 0.0, "fusion_lat": 0.0, "name": "899b569c095d0e2ae286a2af9ce6a679", "type": "electric_scooter", "is_disabled": 0, "lat": 38.9112735, "rental_uris": {"android": "https://dc.lft.to/lastmile_qr_scan", "ios": "https://dc.lft.to/lastmile_qr_scan"}, "bike_id": "899b569c095d0e2ae286a2af9ce6a679", "lon": -77.04418983333333}, {"is_reserved": 0, "fusion_lon": 0.0, "fusion_lat": 0.0, "name": "367c1764af93da5d0cf3305d87f958d7", "type": "electric_scooter", "is_disabled": 0, "lat": 38.886261166666664, "rental_uris": {"android": "https://dc.lft.to/lastmile_qr_scan", "ios": "https://dc.lft.to/lastmile_qr_scan"}, "bike_id": "367c1764af93da5d0cf3305d87f958d7", "lon": -77.01981816666667}, {"is_reserved": 0, "fusion_lon": 0.0, "fusion_lat": 0.0, "name": "083949a1e8a111bffb0bd4045246fece", "type": "electric_scooter", "is_disabled": 0, "lat": 38.944973833333336, "rental_uris": {"android": "https://dc.lft.to/lastmile_qr_scan", "ios": "https://dc.lft.to/lastmile_qr_scan"}, "bike_id": "083949a1e8a111bffb0bd4045246fece", "lon": -77.03496616666666}, {"is_reserved": 0, "fusion_lon": 0.0, "fusion_lat": 0.0, "name": "a384eeff16c428f11163170bc52eafdf", "type": "electric_scooter", "is_disabled": 0, "lat": 38.89195516666667, "rental_uris": {"android": "https://dc.lft.to/lastmile_qr_scan", "ios": "https://dc.lft.to/lastmile_qr_scan"}, "bike_id": "a384eeff16c428f11163170bc52eafdf", "lon": -76.95713916666666}, {"is_reserved": 0, "fusion_lon": 0.0, "fusion_lat": 0.0, "name": "6e1a0cd3675b6852cdec98b8ce6d1f28", "type": "electric_scooter", "is_disabled": 0, "lat": 38.878464, "rental_uris": {"android": "https://dc.lft.to/lastmile_qr_scan", "ios": "https://dc.lft.to/lastmile_qr_scan"}, "bike_id": "6e1a0cd3675b6852cdec98b8ce6d1f28", "lon": -77.0196515}, {"is_reserved": 0, "fusion_lon": 0.0, "fusion_lat": 0.0, "name": "1617f18748bb691ecda8ccad3b904ae7", "type": "electric_scooter", "is_disabled": 0, "lat": 38.91824283333333, "rental_uris": {"android": "https://dc.lft.to/lastmile_qr_scan", "ios": "https://dc.lft.to/lastmile_qr_scan"}, "bike_id": "1617f18748bb691ecda8ccad3b904ae7", "lon": -77.01208416666667}, {"is_reserved": 0, "fusion_lon": 0.0, "fusion_lat": 0.0, "name": "d5eb721ff19529ad572fe371b245144d", "type": "electric_scooter", "is_disabled": 0, "lat": 38.90085783333333, "rental_uris": {"android": "https://dc.lft.to/lastmile_qr_scan", "ios": "https://dc.lft.to/lastmile_qr_scan"}, "bike_id": "d5eb721ff19529ad572fe371b245144d", "lon": -76.93030983333334}, {"is_reserved": 0, "fusion_lon": 0.0, "fusion_lat": 0.0, "name": "72b51153cd52b04253830fc7b91804c1", "type": "electric_scooter", "is_disabled": 0, "lat": 38.89886533333333, "rental_uris": {"android": "https://dc.lft.to/lastmile_qr_scan", "ios": "https://dc.lft.to/lastmile_qr_scan"}, "bike_id": "72b51153cd52b04253830fc7b91804c1", "lon": -77.01385233333333}, {"is_reserved": 0, "fusion_lon": 0.0, "fusion_lat": 0.0, "name": "8755c3e7cfbef9357c0d4969386f350c", "type": "electric_scooter", "is_disabled": 0, "lat": 38.924050333333334, "rental_uris": {"android": "https://dc.lft.to/lastmile_qr_scan", "ios": "https://dc.lft.to/lastmile_qr_scan"}, "bike_id": "8755c3e7cfbef9357c0d4969386f350c", "lon": -77.0272125}, {"is_reserved": 0, "fusion_lon": 0.0, "fusion_lat": 0.0, "name": "ea9e952c6991e7b48d2ce5cf454589cb", "type": "electric_scooter", "is_disabled": 0, "lat": 38.87076666666667, "rental_uris": {"android": "https://dc.lft.to/lastmile_qr_scan", "ios": "https://dc.lft.to/lastmile_qr_scan"}, "bike_id": "ea9e952c6991e7b48d2ce5cf454589cb", "lon": -76.9888975}, {"is_reserved": 0, "fusion_lon": 0.0, "fusion_lat": 0.0, "name": "d5b9a9a12faf738cbd46ccbb5725ed2f", "type": "electric_scooter", "is_disabled": 0, "lat": 38.918228166666665, "rental_uris": {"android": "https://dc.lft.to/lastmile_qr_scan", "ios": "https://dc.lft.to/lastmile_qr_scan"}, "bike_id": "d5b9a9a12faf738cbd46ccbb5725ed2f", "lon": -77.03250233333333}, {"is_reserved": 0, "fusion_lon": 0.0, "fusion_lat": 0.0, "name": "9d129b4d9ff82d08b38899ded1eb375e", "type": "electric_scooter", "is_disabled": 0, "lat": 38.912580166666665, "rental_uris": {"android": "https://dc.lft.to/lastmile_qr_scan", "ios": "https://dc.lft.to/lastmile_qr_scan"}, "bike_id": "9d129b4d9ff82d08b38899ded1eb375e", "lon": -77.03868866666667}, {"is_reserved": 0, "fusion_lon": 0.0, "fusion_lat": 0.0, "name": "02c2733f3be9b2639daf006a77e9a588", "type": "electric_scooter", "is_disabled": 0, "lat": 38.89220483333333, "rental_uris": {"android": "https://dc.lft.to/lastmile_qr_scan", "ios": "https://dc.lft.to/lastmile_qr_scan"}, "bike_id": "02c2733f3be9b2639daf006a77e9a588", "lon": -77.023428}, {"is_reserved": 0, "fusion_lon": 0.0, "fusion_lat": 0.0, "name": "a4a4e7ac57ab44b8ab238ece7dcafa02", "type": "electric_scooter", "is_disabled": 0, "lat": 38.924412833333335, "rental_uris": {"android": "https://dc.lft.to/lastmile_qr_scan", "ios": "https://dc.lft.to/lastmile_qr_scan"}, "bike_id": "a4a4e7ac57ab44b8ab238ece7dcafa02", "lon": -77.03404166666667}, {"is_reserved": 0, "fusion_lon": 0.0, "fusion_lat": 0.0, "name": "1bcb94b5f452abd9130c9d64f06a8ae5", "type": "electric_scooter", "is_disabled": 0, "lat": 38.90254616666667, "rental_uris": {"android": "https://dc.lft.to/lastmile_qr_scan", "ios": "https://dc.lft.to/lastmile_qr_scan"}, "bike_id": "1bcb94b5f452abd9130c9d64f06a8ae5", "lon": -77.03952616666666}, {"is_reserved": 0, "fusion_lon": 0.0, "fusion_lat": 0.0, "name": "da7b483c7aa88a3b7e775874e25f5cbd", "type": "electric_scooter", "is_disabled": 0, "lat": 38.91949783333333, "rental_uris": {"android": "https://dc.lft.to/lastmile_qr_scan", "ios": "https://dc.lft.to/lastmile_qr_scan"}, "bike_id": "da7b483c7aa88a3b7e775874e25f5cbd", "lon": -77.0138565}, {"is_reserved": 0, "fusion_lon": 0.0, "fusion_lat": 0.0, "name": "83abab76a26f7d2aae114310806010d9", "type": "electric_scooter", "is_disabled": 0, "lat": 38.935103833333336, "rental_uris": {"android": "https://dc.lft.to/lastmile_qr_scan", "ios": "https://dc.lft.to/lastmile_qr_scan"}, "bike_id": "83abab76a26f7d2aae114310806010d9", "lon": -77.03295183333333}, {"is_reserved": 0, "fusion_lon": 0.0, "fusion_lat": 0.0, "name": "73db2aca5e62ff0fa03433ec5c9f5b79", "type": "electric_scooter", "is_disabled": 0, "lat": 38.911893166666665, "rental_uris": {"android": "https://dc.lft.to/lastmile_qr_scan", "ios": "https://dc.lft.to/lastmile_qr_scan"}, "bike_id": "73db2aca5e62ff0fa03433ec5c9f5b79", "lon": -77.03464883333334}, {"is_reserved": 0, "fusion_lon": 0.0, "fusion_lat": 0.0, "name": "3e55537e4dbaf6266f4277339fe7f5be", "type": "electric_scooter", "is_disabled": 0, "lat": 38.922509166666664, "rental_uris": {"android": "https://dc.lft.to/lastmile_qr_scan", "ios": "https://dc.lft.to/lastmile_qr_scan"}, "bike_id": "3e55537e4dbaf6266f4277339fe7f5be", "lon": -77.030822}, {"is_reserved": 0, "fusion_lon": 0.0, "fusion_lat": 0.0, "name": "f2997a7ba44071a5520d3ffca9b6a355", "type": "electric_scooter", "is_disabled": 0, "lat": 38.89961866666667, "rental_uris": {"android": "https://dc.lft.to/lastmile_qr_scan", "ios": "https://dc.lft.to/lastmile_qr_scan"}, "bike_id": "f2997a7ba44071a5520d3ffca9b6a355", "lon": -77.05153566666667}, {"is_reserved": 0, "fusion_lon": 0.0, "fusion_lat": 0.0, "name": "2076a148bf326a472911dbe01312a7c9", "type": "electric_scooter", "is_disabled": 0, "lat": 38.9234425, "rental_uris": {"android": "https://dc.lft.to/lastmile_qr_scan", "ios": "https://dc.lft.to/lastmile_qr_scan"}, "bike_id": "2076a148bf326a472911dbe01312a7c9", "lon": -77.05124666666667}, {"is_reserved": 0, "fusion_lon": 0.0, "fusion_lat": 0.0, "name": "edfa83dfe14550873352134493dcd39d", "type": "electric_scooter", "is_disabled": 0, "lat": 38.8859155, "rental_uris": {"android": "https://dc.lft.to/lastmile_qr_scan", "ios": "https://dc.lft.to/lastmile_qr_scan"}, "bike_id": "edfa83dfe14550873352134493dcd39d", "lon": -76.99103383333333}, {"is_reserved": 0, "fusion_lon": 0.0, "fusion_lat": 0.0, "name": "71167a89f8e0d29d4d28a023ed1cee87", "type": "electric_scooter", "is_disabled": 0, "lat": 38.881158666666664, "rental_uris": {"android": "https://dc.lft.to/lastmile_qr_scan", "ios": "https://dc.lft.to/lastmile_qr_scan"}, "bike_id": "71167a89f8e0d29d4d28a023ed1cee87", "lon": -77.01667766666667}, {"is_reserved": 0, "fusion_lon": 0.0, "fusion_lat": 0.0, "name": "3610df841549a6711bd8663d12c3b094", "type": "electric_scooter", "is_disabled": 0, "lat": 38.90454183333333, "rental_uris": {"android": "https://dc.lft.to/lastmile_qr_scan", "ios": "https://dc.lft.to/lastmile_qr_scan"}, "bike_id": "3610df841549a6711bd8663d12c3b094", "lon": -77.04482133333333}, {"is_reserved": 0, "fusion_lon": 0.0, "fusion_lat": 0.0, "name": "fc7f487356332f7c677115193bc62cd1", "type": "electric_scooter", "is_disabled": 0, "lat": 38.90022116666667, "rental_uris": {"android": "https://dc.lft.to/lastmile_qr_scan", "ios": "https://dc.lft.to/lastmile_qr_scan"}, "bike_id": "fc7f487356332f7c677115193bc62cd1", "lon": -77.011971}, {"is_reserved": 0, "fusion_lon": 0.0, "fusion_lat": 0.0, "name": "7df662696f57c9d48ef94c440e92bb1b", "type": "electric_scooter", "is_disabled": 0, "lat": 38.9220695, "rental_uris": {"android": "https://dc.lft.to/lastmile_qr_scan", "ios": "https://dc.lft.to/lastmile_qr_scan"}, "bike_id": "7df662696f57c9d48ef94c440e92bb1b", "lon": -77.04025066666667}, {"is_reserved": 0, "fusion_lon": 0.0, "fusion_lat": 0.0, "name": "dbcf0ccf2d441efc81af5eadad386648", "type": "electric_bike", "is_disabled": 0, "lat": 38.91566066666667, "rental_uris": {"android": "https://dc.lft.to/lastmile_qr_scan", "ios": "https://dc.lft.to/lastmile_qr_scan"}, "bike_id": "dbcf0ccf2d441efc81af5eadad386648", "lon": -77.02995866666667}, {"is_reserved": 0, "fusion_lon": 0.0, "fusion_lat": 0.0, "name": "72ac3ff7cce6ea23d4850bc9322d1ae2", "type": "electric_scooter", "is_disabled": 0, "lat": 38.9062145, "rental_uris": {"android": "https://dc.lft.to/lastmile_qr_scan", "ios": "https://dc.lft.to/lastmile_qr_scan"}, "bike_id": "72ac3ff7cce6ea23d4850bc9322d1ae2", "lon": -77.03969933333333}, {"is_reserved": 0, "fusion_lon": 0.0, "fusion_lat": 0.0, "name": "ffc4378b8e037aa1c5fb301afedafef8", "type": "electric_scooter", "is_disabled": 0, "lat": 38.90433433333333, "rental_uris": {"android": "https://dc.lft.to/lastmile_qr_scan", "ios": "https://dc.lft.to/lastmile_qr_scan"}, "bike_id": "ffc4378b8e037aa1c5fb301afedafef8", "lon": -77.05343683333334}, {"is_reserved": 0, "fusion_lon": 0.0, "fusion_lat": 0.0, "name": "99d3de11605749e09ead9dece9991bcc", "type": "electric_scooter", "is_disabled": 0, "lat": 38.9013605, "rental_uris": {"android": "https://dc.lft.to/lastmile_qr_scan", "ios": "https://dc.lft.to/lastmile_qr_scan"}, "bike_id": "99d3de11605749e09ead9dece9991bcc", "lon": -77.00014766666666}, {"is_reserved": 0, "fusion_lon": 0.0, "fusion_lat": 0.0, "name": "e28572535b3949c27e9bb84004c2284f", "type": "electric_scooter", "is_disabled": 0, "lat": 38.89916183333333, "rental_uris": {"android": "https://dc.lft.to/lastmile_qr_scan", "ios": "https://dc.lft.to/lastmile_qr_scan"}, "bike_id": "e28572535b3949c27e9bb84004c2284f", "lon": -76.93368866666667}, {"is_reserved": 0, "fusion_lon": 0.0, "fusion_lat": 0.0, "name": "60e04b3f4bfcfe94718334b40dd81380", "type": "electric_scooter", "is_disabled": 0, "lat": 38.917112333333336, "rental_uris": {"android": "https://dc.lft.to/lastmile_qr_scan", "ios": "https://dc.lft.to/lastmile_qr_scan"}, "bike_id": "60e04b3f4bfcfe94718334b40dd81380", "lon": -77.00889883333333}, {"is_reserved": 0, "fusion_lon": 0.0, "fusion_lat": 0.0, "name": "9b2b4e2c0bee04fc27c6cfa4b2f920fb", "type": "electric_scooter", "is_disabled": 0, "lat": 38.917919499999996, "rental_uris": {"android": "https://dc.lft.to/lastmile_qr_scan", "ios": "https://dc.lft.to/lastmile_qr_scan"}, "bike_id": "9b2b4e2c0bee04fc27c6cfa4b2f920fb", "lon": -77.0239785}, {"is_reserved": 0, "fusion_lon": 0.0, "fusion_lat": 0.0, "name": "efb2f515c4aa674b8433079f15244e84", "type": "electric_scooter", "is_disabled": 0, "lat": 38.901566, "rental_uris": {"android": "https://dc.lft.to/lastmile_qr_scan", "ios": "https://dc.lft.to/lastmile_qr_scan"}, "bike_id": "efb2f515c4aa674b8433079f15244e84", "lon": -76.9763045}, {"is_reserved": 0, "fusion_lon": 0.0, "fusion_lat": 0.0, "name": "951afb1a27304d03afe54b95b188e393", "type": "electric_scooter", "is_disabled": 0, "lat": 38.924022666666666, "rental_uris": {"android": "https://dc.lft.to/lastmile_qr_scan", "ios": "https://dc.lft.to/lastmile_qr_scan"}, "bike_id": "951afb1a27304d03afe54b95b188e393", "lon": -77.026953}, {"is_reserved": 0, "fusion_lon": 0.0, "fusion_lat": 0.0, "name": "944c75778f96fff8e46490d33f1c26ed", "type": "electric_bike", "is_disabled": 0, "lat": 38.85773016666667, "rental_uris": {"android": "https://dc.lft.to/lastmile_qr_scan", "ios": "https://dc.lft.to/lastmile_qr_scan"}, "bike_id": "944c75778f96fff8e46490d33f1c26ed", "lon": -76.987649}, {"is_reserved": 0, "fusion_lon": 0.0, "fusion_lat": 0.0, "name": "1c76c2eb124ac2a32ebdaf76ce70d456", "type": "electric_scooter", "is_disabled": 0, "lat": 38.941772, "rental_uris": {"android": "https://dc.lft.to/lastmile_qr_scan", "ios": "https://dc.lft.to/lastmile_qr_scan"}, "bike_id": "1c76c2eb124ac2a32ebdaf76ce70d456", "lon": -77.02557983333334}, {"is_reserved": 0, "fusion_lon": 0.0, "fusion_lat": 0.0, "name": "a12c064cc1d105ed57e32216c08b3556", "type": "electric_scooter", "is_disabled": 0, "lat": 38.86667883333333, "rental_uris": {"android": "https://dc.lft.to/lastmile_qr_scan", "ios": "https://dc.lft.to/lastmile_qr_scan"}, "bike_id": "a12c064cc1d105ed57e32216c08b3556", "lon": -76.98512433333333}, {"is_reserved": 0, "fusion_lon": 0.0, "fusion_lat": 0.0, "name": "cea0cfb17ce76d2539e20d63e3c89447", "type": "electric_scooter", "is_disabled": 0, "lat": 38.94983233333333, "rental_uris": {"android": "https://dc.lft.to/lastmile_qr_scan", "ios": "https://dc.lft.to/lastmile_qr_scan"}, "bike_id": "cea0cfb17ce76d2539e20d63e3c89447", "lon": -77.0271095}, {"is_reserved": 0, "fusion_lon": 0.0, "fusion_lat": 0.0, "name": "79381beb0d183c82366259d643bd4431", "type": "electric_scooter", "is_disabled": 0, "lat": 38.93017916666667, "rental_uris": {"android": "https://dc.lft.to/lastmile_qr_scan", "ios": "https://dc.lft.to/lastmile_qr_scan"}, "bike_id": "79381beb0d183c82366259d643bd4431", "lon": -77.06095516666667}, {"is_reserved": 0, "fusion_lon": 0.0, "fusion_lat": 0.0, "name": "9647eceb940be953e8d02b5bbe153861", "type": "electric_scooter", "is_disabled": 0, "lat": 38.888403833333335, "rental_uris": {"android": "https://dc.lft.to/lastmile_qr_scan", "ios": "https://dc.lft.to/lastmile_qr_scan"}, "bike_id": "9647eceb940be953e8d02b5bbe153861", "lon": -77.04904583333334}, {"is_reserved": 0, "fusion_lon": 0.0, "fusion_lat": 0.0, "name": "801b0045f66efe0f77561cc4b1a3643c", "type": "electric_bike", "is_disabled": 0, "lat": 38.838125833333336, "rental_uris": {"android": "https://dc.lft.to/lastmile_qr_scan", "ios": "https://dc.lft.to/lastmile_qr_scan"}, "bike_id": "801b0045f66efe0f77561cc4b1a3643c", "lon": -77.09526166666667}, {"is_reserved": 0, "fusion_lon": 0.0, "fusion_lat": 0.0, "name": "c41d16bfca1340c2278273a90d451dd4", "type": "electric_scooter", "is_disabled": 0, "lat": 38.97123783333333, "rental_uris": {"android": "https://dc.lft.to/lastmile_qr_scan", "ios": "https://dc.lft.to/lastmile_qr_scan"}, "bike_id": "c41d16bfca1340c2278273a90d451dd4", "lon": -77.01691233333334}, {"is_reserved": 0, "fusion_lon": 0.0, "fusion_lat": 0.0, "name": "50812b95d4db289a82026c43874a869a", "type": "electric_scooter", "is_disabled": 0, "lat": 38.9345405, "rental_uris": {"android": "https://dc.lft.to/lastmile_qr_scan", "ios": "https://dc.lft.to/lastmile_qr_scan"}, "bike_id": "50812b95d4db289a82026c43874a869a", "lon": -77.03757816666666}, {"is_reserved": 0, "fusion_lon": 0.0, "fusion_lat": 0.0, "name": "792af822b0c334bc0c98c9065541a098", "type": "electric_scooter", "is_disabled": 0, "lat": 38.9002855, "rental_uris": {"android": "https://dc.lft.to/lastmile_qr_scan", "ios": "https://dc.lft.to/lastmile_qr_scan"}, "bike_id": "792af822b0c334bc0c98c9065541a098", "lon": -76.9885895}, {"is_reserved": 0, "fusion_lon": 0.0, "fusion_lat": 0.0, "name": "a0408a3f63730544fbbe4fb0cb665b05", "type": "electric_scooter", "is_disabled": 0, "lat": 38.907601666666665, "rental_uris": {"android": "https://dc.lft.to/lastmile_qr_scan", "ios": "https://dc.lft.to/lastmile_qr_scan"}, "bike_id": "a0408a3f63730544fbbe4fb0cb665b05", "lon": -77.04144316666667}, {"is_reserved": 0, "fusion_lon": 0.0, "fusion_lat": 0.0, "name": "84ebd0f4e13dcd4ea79eabcba3194cee", "type": "electric_scooter", "is_disabled": 0, "lat": 38.93618816666667, "rental_uris": {"android": "https://dc.lft.to/lastmile_qr_scan", "ios": "https://dc.lft.to/lastmile_qr_scan"}, "bike_id": "84ebd0f4e13dcd4ea79eabcba3194cee", "lon": -77.05894883333333}, {"is_reserved": 0, "fusion_lon": 0.0, "fusion_lat": 0.0, "name": "144c605c5ca34048320ce509427153f5", "type": "electric_scooter", "is_disabled": 0, "lat": 38.89616983333333, "rental_uris": {"android": "https://dc.lft.to/lastmile_qr_scan", "ios": "https://dc.lft.to/lastmile_qr_scan"}, "bike_id": "144c605c5ca34048320ce509427153f5", "lon": -77.032171}, {"is_reserved": 0, "fusion_lon": 0.0, "fusion_lat": 0.0, "name": "32448fc243666eeb5bfca5e226823c19", "type": "electric_scooter", "is_disabled": 0, "lat": 38.92826766666667, "rental_uris": {"android": "https://dc.lft.to/lastmile_qr_scan", "ios": "https://dc.lft.to/lastmile_qr_scan"}, "bike_id": "32448fc243666eeb5bfca5e226823c19", "lon": -77.02257266666666}, {"is_reserved": 0, "fusion_lon": 0.0, "fusion_lat": 0.0, "name": "ddff7f20e17006869df765f25e5ed6fd", "type": "electric_scooter", "is_disabled": 0, "lat": 38.9043775, "rental_uris": {"android": "https://dc.lft.to/lastmile_qr_scan", "ios": "https://dc.lft.to/lastmile_qr_scan"}, "bike_id": "ddff7f20e17006869df765f25e5ed6fd", "lon": -77.02591166666667}, {"is_reserved": 0, "fusion_lon": 0.0, "fusion_lat": 0.0, "name": "9a83228d92c7b12bf3b46b725c5095a9", "type": "electric_scooter", "is_disabled": 0, "lat": 38.90607116666666, "rental_uris": {"android": "https://dc.lft.to/lastmile_qr_scan", "ios": "https://dc.lft.to/lastmile_qr_scan"}, "bike_id": "9a83228d92c7b12bf3b46b725c5095a9", "lon": -77.00716183333333}, {"is_reserved": 0, "fusion_lon": 0.0, "fusion_lat": 0.0, "name": "2eae10b0dc9d4b529ba5ac27350f6e9f", "type": "electric_scooter", "is_disabled": 0, "lat": 38.917859, "rental_uris": {"android": "https://dc.lft.to/lastmile_qr_scan", "ios": "https://dc.lft.to/lastmile_qr_scan"}, "bike_id": "2eae10b0dc9d4b529ba5ac27350f6e9f", "lon": -77.025971}, {"is_reserved": 0, "fusion_lon": 0.0, "fusion_lat": 0.0, "name": "cf5efa2f19b14667fb4408357ddf7475", "type": "electric_scooter", "is_disabled": 0, "lat": 38.890148833333335, "rental_uris": {"android": "https://dc.lft.to/lastmile_qr_scan", "ios": "https://dc.lft.to/lastmile_qr_scan"}, "bike_id": "cf5efa2f19b14667fb4408357ddf7475", "lon": -76.93732416666667}, {"is_reserved": 0, "fusion_lon": 0.0, "fusion_lat": 0.0, "name": "586df556aa09091b364966e3cbba5225", "type": "electric_scooter", "is_disabled": 0, "lat": 38.90245, "rental_uris": {"android": "https://dc.lft.to/lastmile_qr_scan", "ios": "https://dc.lft.to/lastmile_qr_scan"}, "bike_id": "586df556aa09091b364966e3cbba5225", "lon": -77.0314265}, {"is_reserved": 0, "fusion_lon": 0.0, "fusion_lat": 0.0, "name": "b19dfd7b4ce746a15f639b2abb7e8215", "type": "electric_scooter", "is_disabled": 0, "lat": 38.90811266666667, "rental_uris": {"android": "https://dc.lft.to/lastmile_qr_scan", "ios": "https://dc.lft.to/lastmile_qr_scan"}, "bike_id": "b19dfd7b4ce746a15f639b2abb7e8215", "lon": -77.03444083333333}, {"is_reserved": 0, "fusion_lon": 0.0, "fusion_lat": 0.0, "name": "cbd039ea98ea4eac09a2114d2d1a4c28", "type": "electric_bike", "is_disabled": 0, "lat": 38.88111983333334, "rental_uris": {"android": "https://dc.lft.to/lastmile_qr_scan", "ios": "https://dc.lft.to/lastmile_qr_scan"}, "bike_id": "cbd039ea98ea4eac09a2114d2d1a4c28", "lon": -77.0164755}, {"is_reserved": 0, "fusion_lon": 0.0, "fusion_lat": 0.0, "name": "16e1cfa29ff80f6c7bc3505a7ae1a426", "type": "electric_scooter", "is_disabled": 0, "lat": 38.922532833333335, "rental_uris": {"android": "https://dc.lft.to/lastmile_qr_scan", "ios": "https://dc.lft.to/lastmile_qr_scan"}, "bike_id": "16e1cfa29ff80f6c7bc3505a7ae1a426", "lon": -77.02954766666667}, {"is_reserved": 0, "fusion_lon": 0.0, "fusion_lat": 0.0, "name": "4992181a7b0f60af4304fb9bfaed5026", "type": "electric_scooter", "is_disabled": 0, "lat": 38.922675166666664, "rental_uris": {"android": "https://dc.lft.to/lastmile_qr_scan", "ios": "https://dc.lft.to/lastmile_qr_scan"}, "bike_id": "4992181a7b0f60af4304fb9bfaed5026", "lon": -77.02963666666666}, {"is_reserved": 0, "fusion_lon": 0.0, "fusion_lat": 0.0, "name": "cc0578064982e74f52c1ef4fec1be2cd", "type": "electric_scooter", "is_disabled": 0, "lat": 38.9233845, "rental_uris": {"android": "https://dc.lft.to/lastmile_qr_scan", "ios": "https://dc.lft.to/lastmile_qr_scan"}, "bike_id": "cc0578064982e74f52c1ef4fec1be2cd", "lon": -77.04789166666667}, {"is_reserved": 0, "fusion_lon": 0.0, "fusion_lat": 0.0, "name": "fa9d2ab25acd44ce477ab47f5181bf6c", "type": "electric_scooter", "is_disabled": 0, "lat": 38.914094, "rental_uris": {"android": "https://dc.lft.to/lastmile_qr_scan", "ios": "https://dc.lft.to/lastmile_qr_scan"}, "bike_id": "fa9d2ab25acd44ce477ab47f5181bf6c", "lon": -77.04197466666666}, {"is_reserved": 0, "fusion_lon": 0.0, "fusion_lat": 0.0, "name": "cfdb246576ab3f158bf6d3c7fdd5f2cd", "type": "electric_scooter", "is_disabled": 0, "lat": 38.878253666666666, "rental_uris": {"android": "https://dc.lft.to/lastmile_qr_scan", "ios": "https://dc.lft.to/lastmile_qr_scan"}, "bike_id": "cfdb246576ab3f158bf6d3c7fdd5f2cd", "lon": -76.93103333333333}, {"is_reserved": 0, "fusion_lon": 0.0, "fusion_lat": 0.0, "name": "cb706e68f39eb4fa3c4237676bb23f6e", "type": "electric_scooter", "is_disabled": 0, "lat": 38.9129985, "rental_uris": {"android": "https://dc.lft.to/lastmile_qr_scan", "ios": "https://dc.lft.to/lastmile_qr_scan"}, "bike_id": "cb706e68f39eb4fa3c4237676bb23f6e", "lon": -76.98471216666667}, {"is_reserved": 0, "fusion_lon": 0.0, "fusion_lat": 0.0, "name": "831c8616a0d6134647bb08b2680f03ce", "type": "electric_scooter", "is_disabled": 0, "lat": 38.89221583333333, "rental_uris": {"android": "https://dc.lft.to/lastmile_qr_scan", "ios": "https://dc.lft.to/lastmile_qr_scan"}, "bike_id": "831c8616a0d6134647bb08b2680f03ce", "lon": -77.04262883333334}, {"is_reserved": 0, "fusion_lon": 0.0, "fusion_lat": 0.0, "name": "986516b40933038759ba89ec758f662f", "type": "electric_scooter", "is_disabled": 0, "lat": 38.92011183333334, "rental_uris": {"android": "https://dc.lft.to/lastmile_qr_scan", "ios": "https://dc.lft.to/lastmile_qr_scan"}, "bike_id": "986516b40933038759ba89ec758f662f", "lon": -77.02178816666667}, {"is_reserved": 0, "fusion_lon": 0.0, "fusion_lat": 0.0, "name": "dd04351ccff164175209caa782c95ed9", "type": "electric_scooter", "is_disabled": 0, "lat": 38.939605, "rental_uris": {"android": "https://dc.lft.to/lastmile_qr_scan", "ios": "https://dc.lft.to/lastmile_qr_scan"}, "bike_id": "dd04351ccff164175209caa782c95ed9", "lon": -77.027517}, {"is_reserved": 0, "fusion_lon": 0.0, "fusion_lat": 0.0, "name": "0407d4debaf4fd5bea9ca29226279318", "type": "electric_scooter", "is_disabled": 0, "lat": 38.93676333333333, "rental_uris": {"android": "https://dc.lft.to/lastmile_qr_scan", "ios": "https://dc.lft.to/lastmile_qr_scan"}, "bike_id": "0407d4debaf4fd5bea9ca29226279318", "lon": -77.036387}, {"is_reserved": 0, "fusion_lon": 0.0, "fusion_lat": 0.0, "name": "85c05ce551747aab673793865ce61970", "type": "electric_scooter", "is_disabled": 0, "lat": 38.915419166666666, "rental_uris": {"android": "https://dc.lft.to/lastmile_qr_scan", "ios": "https://dc.lft.to/lastmile_qr_scan"}, "bike_id": "85c05ce551747aab673793865ce61970", "lon": -77.0127215}, {"is_reserved": 0, "fusion_lon": 0.0, "fusion_lat": 0.0, "name": "9c30d28c735c9c39da9ab71fbc927149", "type": "electric_scooter", "is_disabled": 0, "lat": 38.885949, "rental_uris": {"android": "https://dc.lft.to/lastmile_qr_scan", "ios": "https://dc.lft.to/lastmile_qr_scan"}, "bike_id": "9c30d28c735c9c39da9ab71fbc927149", "lon": -76.99627916666667}, {"is_reserved": 0, "fusion_lon": 0.0, "fusion_lat": 0.0, "name": "7ace73f2584fda12ab3d3a59db09a1f4", "type": "electric_scooter", "is_disabled": 0, "lat": 38.8650705, "rental_uris": {"android": "https://dc.lft.to/lastmile_qr_scan", "ios": "https://dc.lft.to/lastmile_qr_scan"}, "bike_id": "7ace73f2584fda12ab3d3a59db09a1f4", "lon": -76.990005}, {"is_reserved": 0, "fusion_lon": 0.0, "fusion_lat": 0.0, "name": "e7f5c148a193f664efb2f51a2671beca", "type": "electric_scooter", "is_disabled": 0, "lat": 38.9073465, "rental_uris": {"android": "https://dc.lft.to/lastmile_qr_scan", "ios": "https://dc.lft.to/lastmile_qr_scan"}, "bike_id": "e7f5c148a193f664efb2f51a2671beca", "lon": -77.02693183333334}, {"is_reserved": 0, "fusion_lon": 0.0, "fusion_lat": 0.0, "name": "e695864ba1ee1132cc97eb5b6f9c7d74", "type": "electric_scooter", "is_disabled": 0, "lat": 38.93540633333333, "rental_uris": {"android": "https://dc.lft.to/lastmile_qr_scan", "ios": "https://dc.lft.to/lastmile_qr_scan"}, "bike_id": "e695864ba1ee1132cc97eb5b6f9c7d74", "lon": -77.0574545}, {"is_reserved": 0, "fusion_lon": 0.0, "fusion_lat": 0.0, "name": "574c2f27a391c96ab94628d28e524000", "type": "electric_scooter", "is_disabled": 0, "lat": 38.8909945, "rental_uris": {"android": "https://dc.lft.to/lastmile_qr_scan", "ios": "https://dc.lft.to/lastmile_qr_scan"}, "bike_id": "574c2f27a391c96ab94628d28e524000", "lon": -77.00279933333333}, {"is_reserved": 0, "fusion_lon": 0.0, "fusion_lat": 0.0, "name": "015e24168433525aac16c10085c9f67d", "type": "electric_scooter", "is_disabled": 0, "lat": 38.918952833333336, "rental_uris": {"android": "https://dc.lft.to/lastmile_qr_scan", "ios": "https://dc.lft.to/lastmile_qr_scan"}, "bike_id": "015e24168433525aac16c10085c9f67d", "lon": -77.02971483333333}, {"is_reserved": 0, "fusion_lon": 0.0, "fusion_lat": 0.0, "name": "01c05d6af099bebb5a5f901af0be8ae1", "type": "electric_scooter", "is_disabled": 0, "lat": 38.92274883333333, "rental_uris": {"android": "https://dc.lft.to/lastmile_qr_scan", "ios": "https://dc.lft.to/lastmile_qr_scan"}, "bike_id": "01c05d6af099bebb5a5f901af0be8ae1", "lon": -77.04287533333333}, {"is_reserved": 0, "fusion_lon": 0.0, "fusion_lat": 0.0, "name": "fbe534814a7527cc041e9d9a5c39bca3", "type": "electric_scooter", "is_disabled": 0, "lat": 38.895013, "rental_uris": {"android": "https://dc.lft.to/lastmile_qr_scan", "ios": "https://dc.lft.to/lastmile_qr_scan"}, "bike_id": "fbe534814a7527cc041e9d9a5c39bca3", "lon": -76.93472533333333}, {"is_reserved": 0, "fusion_lon": 0.0, "fusion_lat": 0.0, "name": "25ceb4bfe1927143c64d9ee04db24aa1", "type": "electric_scooter", "is_disabled": 0, "lat": 38.915759, "rental_uris": {"android": "https://dc.lft.to/lastmile_qr_scan", "ios": "https://dc.lft.to/lastmile_qr_scan"}, "bike_id": "25ceb4bfe1927143c64d9ee04db24aa1", "lon": -77.02408066666666}, {"is_reserved": 0, "fusion_lon": 0.0, "fusion_lat": 0.0, "name": "e1733c7ffd850c83ed502a660bd5df3c", "type": "electric_scooter", "is_disabled": 0, "lat": 38.922761, "rental_uris": {"android": "https://dc.lft.to/lastmile_qr_scan", "ios": "https://dc.lft.to/lastmile_qr_scan"}, "bike_id": "e1733c7ffd850c83ed502a660bd5df3c", "lon": -77.042834}, {"is_reserved": 0, "fusion_lon": 0.0, "fusion_lat": 0.0, "name": "6227a3ee86260c24087dabebe1b6c8a0", "type": "electric_scooter", "is_disabled": 0, "lat": 38.887663833333335, "rental_uris": {"android": "https://dc.lft.to/lastmile_qr_scan", "ios": "https://dc.lft.to/lastmile_qr_scan"}, "bike_id": "6227a3ee86260c24087dabebe1b6c8a0", "lon": -76.98685916666666}, {"is_reserved": 0, "fusion_lon": 0.0, "fusion_lat": 0.0, "name": "882ed61225dcb3e88c8538c5ccfaf832", "type": "electric_scooter", "is_disabled": 0, "lat": 38.92057833333333, "rental_uris": {"android": "https://dc.lft.to/lastmile_qr_scan", "ios": "https://dc.lft.to/lastmile_qr_scan"}, "bike_id": "882ed61225dcb3e88c8538c5ccfaf832", "lon": -77.02418616666667}, {"is_reserved": 0, "fusion_lon": 0.0, "fusion_lat": 0.0, "name": "e246845f7f2cdda3ad5b94bbde89408d", "type": "electric_bike", "is_disabled": 0, "lat": 39.05633383333333, "rental_uris": {"android": "https://dc.lft.to/lastmile_qr_scan", "ios": "https://dc.lft.to/lastmile_qr_scan"}, "bike_id": "e246845f7f2cdda3ad5b94bbde89408d", "lon": -77.12526433333333}, {"is_reserved": 0, "fusion_lon": 0.0, "fusion_lat": 0.0, "name": "d25570debe0d109bf08022b1fb83649f", "type": "electric_scooter", "is_disabled": 0, "lat": 38.91967983333333, "rental_uris": {"android": "https://dc.lft.to/lastmile_qr_scan", "ios": "https://dc.lft.to/lastmile_qr_scan"}, "bike_id": "d25570debe0d109bf08022b1fb83649f", "lon": -77.043099}, {"is_reserved": 0, "fusion_lon": 0.0, "fusion_lat": 0.0, "name": "90ee67b31c193cc71db4f248e8809f87", "type": "electric_scooter", "is_disabled": 0, "lat": 38.903938, "rental_uris": {"android": "https://dc.lft.to/lastmile_qr_scan", "ios": "https://dc.lft.to/lastmile_qr_scan"}, "bike_id": "90ee67b31c193cc71db4f248e8809f87", "lon": -77.03840983333333}, {"is_reserved": 0, "fusion_lon": 0.0, "fusion_lat": 0.0, "name": "0c2ab55c4d44d82051a50583e8afb1f2", "type": "electric_scooter", "is_disabled": 0, "lat": 38.8974685, "rental_uris": {"android": "https://dc.lft.to/lastmile_qr_scan", "ios": "https://dc.lft.to/lastmile_qr_scan"}, "bike_id": "0c2ab55c4d44d82051a50583e8afb1f2", "lon": -77.033371}, {"is_reserved": 0, "fusion_lon": 0.0, "fusion_lat": 0.0, "name": "9e5dc7aaa75702ddea130eec7ba39e05", "type": "electric_scooter", "is_disabled": 0, "lat": 38.94510733333333, "rental_uris": {"android": "https://dc.lft.to/lastmile_qr_scan", "ios": "https://dc.lft.to/lastmile_qr_scan"}, "bike_id": "9e5dc7aaa75702ddea130eec7ba39e05", "lon": -77.07456733333333}, {"is_reserved": 0, "fusion_lon": 0.0, "fusion_lat": 0.0, "name": "f768874e5f31b8b42589b6d4e67510a7", "type": "electric_scooter", "is_disabled": 0, "lat": 38.92448183333333, "rental_uris": {"android": "https://dc.lft.to/lastmile_qr_scan", "ios": "https://dc.lft.to/lastmile_qr_scan"}, "bike_id": "f768874e5f31b8b42589b6d4e67510a7", "lon": -76.9791475}, {"is_reserved": 0, "fusion_lon": 0.0, "fusion_lat": 0.0, "name": "180fd053a85c1d3fcab58d5c3076f887", "type": "electric_scooter", "is_disabled": 0, "lat": 38.905033833333334, "rental_uris": {"android": "https://dc.lft.to/lastmile_qr_scan", "ios": "https://dc.lft.to/lastmile_qr_scan"}, "bike_id": "180fd053a85c1d3fcab58d5c3076f887", "lon": -77.02954216666667}, {"is_reserved": 0, "fusion_lon": 0.0, "fusion_lat": 0.0, "name": "6f77858abc87417cd7081550b82d7c34", "type": "electric_scooter", "is_disabled": 0, "lat": 38.909911, "rental_uris": {"android": "https://dc.lft.to/lastmile_qr_scan", "ios": "https://dc.lft.to/lastmile_qr_scan"}, "bike_id": "6f77858abc87417cd7081550b82d7c34", "lon": -77.02816533333333}, {"is_reserved": 0, "fusion_lon": 0.0, "fusion_lat": 0.0, "name": "6065fb5c36f70c889100e79ceb862f6a", "type": "electric_scooter", "is_disabled": 0, "lat": 38.91020533333333, "rental_uris": {"android": "https://dc.lft.to/lastmile_qr_scan", "ios": "https://dc.lft.to/lastmile_qr_scan"}, "bike_id": "6065fb5c36f70c889100e79ceb862f6a", "lon": -77.03437883333334}, {"is_reserved": 0, "fusion_lon": 0.0, "fusion_lat": 0.0, "name": "9a9eac4cb5e80dd55ae0b7733b5998c9", "type": "electric_scooter", "is_disabled": 0, "lat": 38.91816333333333, "rental_uris": {"android": "https://dc.lft.to/lastmile_qr_scan", "ios": "https://dc.lft.to/lastmile_qr_scan"}, "bike_id": "9a9eac4cb5e80dd55ae0b7733b5998c9", "lon": -77.02979316666666}, {"is_reserved": 0, "fusion_lon": 0.0, "fusion_lat": 0.0, "name": "e0ae34112ced0dfb73343b19853f1121", "type": "electric_scooter", "is_disabled": 0, "lat": 38.90963583333333, "rental_uris": {"android": "https://dc.lft.to/lastmile_qr_scan", "ios": "https://dc.lft.to/lastmile_qr_scan"}, "bike_id": "e0ae34112ced0dfb73343b19853f1121", "lon": -77.038645}, {"is_reserved": 0, "fusion_lon": 0.0, "fusion_lat": 0.0, "name": "adb10e902fc2bf8c87a15b3a9a1adfa0", "type": "electric_scooter", "is_disabled": 0, "lat": 38.908327, "rental_uris": {"android": "https://dc.lft.to/lastmile_qr_scan", "ios": "https://dc.lft.to/lastmile_qr_scan"}, "bike_id": "adb10e902fc2bf8c87a15b3a9a1adfa0", "lon": -77.03316266666667}, {"is_reserved": 0, "fusion_lon": 0.0, "fusion_lat": 0.0, "name": "7473324438932ef1d90e3ca960479985", "type": "electric_scooter", "is_disabled": 0, "lat": 38.9203905, "rental_uris": {"android": "https://dc.lft.to/lastmile_qr_scan", "ios": "https://dc.lft.to/lastmile_qr_scan"}, "bike_id": "7473324438932ef1d90e3ca960479985", "lon": -77.02367316666667}, {"is_reserved": 0, "fusion_lon": 0.0, "fusion_lat": 0.0, "name": "3ddb2d4e6621d2811ab77c0f72a5dc4a", "type": "electric_scooter", "is_disabled": 0, "lat": 38.880796833333335, "rental_uris": {"android": "https://dc.lft.to/lastmile_qr_scan", "ios": "https://dc.lft.to/lastmile_qr_scan"}, "bike_id": "3ddb2d4e6621d2811ab77c0f72a5dc4a", "lon": -76.9852}, {"is_reserved": 0, "fusion_lon": 0.0, "fusion_lat": 0.0, "name": "b61624d8b04607420003e2e69932b04e", "type": "electric_scooter", "is_disabled": 0, "lat": 38.926494, "rental_uris": {"android": "https://dc.lft.to/lastmile_qr_scan", "ios": "https://dc.lft.to/lastmile_qr_scan"}, "bike_id": "b61624d8b04607420003e2e69932b04e", "lon": -77.04139933333333}, {"is_reserved": 0, "fusion_lon": 0.0, "fusion_lat": 0.0, "name": "5af4c6037aedc44326d8a517acf3deda", "type": "electric_scooter", "is_disabled": 0, "lat": 38.883022, "rental_uris": {"android": "https://dc.lft.to/lastmile_qr_scan", "ios": "https://dc.lft.to/lastmile_qr_scan"}, "bike_id": "5af4c6037aedc44326d8a517acf3deda", "lon": -77.03145716666667}, {"is_reserved": 0, "fusion_lon": 0.0, "fusion_lat": 0.0, "name": "d3af19914040b989cd3ac27f3602bfb5", "type": "electric_scooter", "is_disabled": 0, "lat": 38.89367, "rental_uris": {"android": "https://dc.lft.to/lastmile_qr_scan", "ios": "https://dc.lft.to/lastmile_qr_scan"}, "bike_id": "d3af19914040b989cd3ac27f3602bfb5", "lon": -77.04789283333334}, {"is_reserved": 0, "fusion_lon": 0.0, "fusion_lat": 0.0, "name": "30736e54a2488692873d6ba5f677734b", "type": "electric_scooter", "is_disabled": 0, "lat": 38.892230166666664, "rental_uris": {"android": "https://dc.lft.to/lastmile_qr_scan", "ios": "https://dc.lft.to/lastmile_qr_scan"}, "bike_id": "30736e54a2488692873d6ba5f677734b", "lon": -77.02347416666667}, {"is_reserved": 0, "fusion_lon": 0.0, "fusion_lat": 0.0, "name": "c5ad8ab0c3dd47035e6cfa046c9b6fd8", "type": "electric_scooter", "is_disabled": 0, "lat": 38.903771666666664, "rental_uris": {"android": "https://dc.lft.to/lastmile_qr_scan", "ios": "https://dc.lft.to/lastmile_qr_scan"}, "bike_id": "c5ad8ab0c3dd47035e6cfa046c9b6fd8", "lon": -77.043624}, {"is_reserved": 0, "fusion_lon": 0.0, "fusion_lat": 0.0, "name": "bb5c04f1c66b6dae0a823b1352d8e67c", "type": "electric_scooter", "is_disabled": 0, "lat": 38.922272166666666, "rental_uris": {"android": "https://dc.lft.to/lastmile_qr_scan", "ios": "https://dc.lft.to/lastmile_qr_scan"}, "bike_id": "bb5c04f1c66b6dae0a823b1352d8e67c", "lon": -77.04491516666667}, {"is_reserved": 0, "fusion_lon": 0.0, "fusion_lat": 0.0, "name": "97578953b5a4c01015bfa077b885bad8", "type": "electric_scooter", "is_disabled": 0, "lat": 38.9312625, "rental_uris": {"android": "https://dc.lft.to/lastmile_qr_scan", "ios": "https://dc.lft.to/lastmile_qr_scan"}, "bike_id": "97578953b5a4c01015bfa077b885bad8", "lon": -77.02354983333333}, {"is_reserved": 0, "fusion_lon": 0.0, "fusion_lat": 0.0, "name": "9327443f19043a8fe8b377004051925b", "type": "electric_scooter", "is_disabled": 0, "lat": 38.905033333333336, "rental_uris": {"android": "https://dc.lft.to/lastmile_qr_scan", "ios": "https://dc.lft.to/lastmile_qr_scan"}, "bike_id": "9327443f19043a8fe8b377004051925b", "lon": -77.0294885}, {"is_reserved": 0, "fusion_lon": 0.0, "fusion_lat": 0.0, "name": "dc8effd19b25b34461f5b14fae674518", "type": "electric_scooter", "is_disabled": 0, "lat": 38.920341, "rental_uris": {"android": "https://dc.lft.to/lastmile_qr_scan", "ios": "https://dc.lft.to/lastmile_qr_scan"}, "bike_id": "dc8effd19b25b34461f5b14fae674518", "lon": -76.98486433333333}, {"is_reserved": 0, "fusion_lon": 0.0, "fusion_lat": 0.0, "name": "a4b275229e52414d0ddf0c881574e799", "type": "electric_scooter", "is_disabled": 0, "lat": 38.892247833333336, "rental_uris": {"android": "https://dc.lft.to/lastmile_qr_scan", "ios": "https://dc.lft.to/lastmile_qr_scan"}, "bike_id": "a4b275229e52414d0ddf0c881574e799", "lon": -77.04866183333333}, {"is_reserved": 0, "fusion_lon": 0.0, "fusion_lat": 0.0, "name": "7807fe62314757f6af0191ec62cfa5cc", "type": "electric_scooter", "is_disabled": 0, "lat": 38.93823016666666, "rental_uris": {"android": "https://dc.lft.to/lastmile_qr_scan", "ios": "https://dc.lft.to/lastmile_qr_scan"}, "bike_id": "7807fe62314757f6af0191ec62cfa5cc", "lon": -77.0338035}, {"is_reserved": 0, "fusion_lon": 0.0, "fusion_lat": 0.0, "name": "15748f132a372683060fa0b3021226d1", "type": "electric_scooter", "is_disabled": 0, "lat": 38.9111445, "rental_uris": {"android": "https://dc.lft.to/lastmile_qr_scan", "ios": "https://dc.lft.to/lastmile_qr_scan"}, "bike_id": "15748f132a372683060fa0b3021226d1", "lon": -77.0228485}, {"is_reserved": 0, "fusion_lon": 0.0, "fusion_lat": 0.0, "name": "808dfe18ab8d7989ef6f656296e8d966", "type": "electric_scooter", "is_disabled": 0, "lat": 38.9208835, "rental_uris": {"android": "https://dc.lft.to/lastmile_qr_scan", "ios": "https://dc.lft.to/lastmile_qr_scan"}, "bike_id": "808dfe18ab8d7989ef6f656296e8d966", "lon": -77.024199}, {"is_reserved": 0, "fusion_lon": 0.0, "fusion_lat": 0.0, "name": "6cb2f16688ab1b6ef20a872ad75eba15", "type": "electric_scooter", "is_disabled": 0, "lat": 38.87236383333333, "rental_uris": {"android": "https://dc.lft.to/lastmile_qr_scan", "ios": "https://dc.lft.to/lastmile_qr_scan"}, "bike_id": "6cb2f16688ab1b6ef20a872ad75eba15", "lon": -77.01167816666667}, {"is_reserved": 0, "fusion_lon": 0.0, "fusion_lat": 0.0, "name": "457690269eff65c820df8925106c823c", "type": "electric_scooter", "is_disabled": 0, "lat": 38.91702266666667, "rental_uris": {"android": "https://dc.lft.to/lastmile_qr_scan", "ios": "https://dc.lft.to/lastmile_qr_scan"}, "bike_id": "457690269eff65c820df8925106c823c", "lon": -77.03114616666667}, {"is_reserved": 0, "fusion_lon": 0.0, "fusion_lat": 0.0, "name": "4b20f3f561edd3254f7238688cd7168a", "type": "electric_scooter", "is_disabled": 0, "lat": 38.89959133333333, "rental_uris": {"android": "https://dc.lft.to/lastmile_qr_scan", "ios": "https://dc.lft.to/lastmile_qr_scan"}, "bike_id": "4b20f3f561edd3254f7238688cd7168a", "lon": -77.0425225}, {"is_reserved": 0, "fusion_lon": 0.0, "fusion_lat": 0.0, "name": "fd1d3e8086b492b6646ed412c3eda349", "type": "electric_scooter", "is_disabled": 0, "lat": 38.90984616666667, "rental_uris": {"android": "https://dc.lft.to/lastmile_qr_scan", "ios": "https://dc.lft.to/lastmile_qr_scan"}, "bike_id": "fd1d3e8086b492b6646ed412c3eda349", "lon": -77.04261483333333}, {"is_reserved": 0, "fusion_lon": 0.0, "fusion_lat": 0.0, "name": "3201e6dbf5570ad3391e8181f58902d5", "type": "electric_scooter", "is_disabled": 0, "lat": 38.89221083333333, "rental_uris": {"android": "https://dc.lft.to/lastmile_qr_scan", "ios": "https://dc.lft.to/lastmile_qr_scan"}, "bike_id": "3201e6dbf5570ad3391e8181f58902d5", "lon": -77.04380416666666}, {"is_reserved": 0, "fusion_lon": 0.0, "fusion_lat": 0.0, "name": "0847d73ba901dd45edd2faae268c7758", "type": "electric_scooter", "is_disabled": 0, "lat": 38.89297583333333, "rental_uris": {"android": "https://dc.lft.to/lastmile_qr_scan", "ios": "https://dc.lft.to/lastmile_qr_scan"}, "bike_id": "0847d73ba901dd45edd2faae268c7758", "lon": -76.93926116666667}, {"is_reserved": 0, "fusion_lon": 0.0, "fusion_lat": 0.0, "name": "5a24d2c4b279c1d6c868935770e137de", "type": "electric_scooter", "is_disabled": 0, "lat": 38.89219416666667, "rental_uris": {"android": "https://dc.lft.to/lastmile_qr_scan", "ios": "https://dc.lft.to/lastmile_qr_scan"}, "bike_id": "5a24d2c4b279c1d6c868935770e137de", "lon": -77.04373366666667}, {"is_reserved": 0, "fusion_lon": 0.0, "fusion_lat": 0.0, "name": "0d0c50ae6e4fd04693ef1756abc45d09", "type": "electric_scooter", "is_disabled": 0, "lat": 38.921267666666665, "rental_uris": {"android": "https://dc.lft.to/lastmile_qr_scan", "ios": "https://dc.lft.to/lastmile_qr_scan"}, "bike_id": "0d0c50ae6e4fd04693ef1756abc45d09", "lon": -77.04353816666666}, {"is_reserved": 0, "fusion_lon": 0.0, "fusion_lat": 0.0, "name": "a85cb01ee4f6114d9e997832bc421646", "type": "electric_scooter", "is_disabled": 0, "lat": 38.8812885, "rental_uris": {"android": "https://dc.lft.to/lastmile_qr_scan", "ios": "https://dc.lft.to/lastmile_qr_scan"}, "bike_id": "a85cb01ee4f6114d9e997832bc421646", "lon": -77.01658033333334}, {"is_reserved": 0, "fusion_lon": 0.0, "fusion_lat": 0.0, "name": "fe86234cb70acc6d5eb9b9dacf6855ab", "type": "electric_scooter", "is_disabled": 0, "lat": 38.928520166666665, "rental_uris": {"android": "https://dc.lft.to/lastmile_qr_scan", "ios": "https://dc.lft.to/lastmile_qr_scan"}, "bike_id": "fe86234cb70acc6d5eb9b9dacf6855ab", "lon": -77.01422066666667}, {"is_reserved": 0, "fusion_lon": 0.0, "fusion_lat": 0.0, "name": "3e21e02ec5c199bf8de0430e73b318e9", "type": "electric_scooter", "is_disabled": 0, "lat": 38.936744166666664, "rental_uris": {"android": "https://dc.lft.to/lastmile_qr_scan", "ios": "https://dc.lft.to/lastmile_qr_scan"}, "bike_id": "3e21e02ec5c199bf8de0430e73b318e9", "lon": -77.03578483333334}, {"is_reserved": 0, "fusion_lon": 0.0, "fusion_lat": 0.0, "name": "351587a15e6ef43d60fc6eda2fb0700f", "type": "electric_scooter", "is_disabled": 0, "lat": 38.893474499999996, "rental_uris": {"android": "https://dc.lft.to/lastmile_qr_scan", "ios": "https://dc.lft.to/lastmile_qr_scan"}, "bike_id": "351587a15e6ef43d60fc6eda2fb0700f", "lon": -77.0419505}, {"is_reserved": 0, "fusion_lon": 0.0, "fusion_lat": 0.0, "name": "024dfcf7f34d304374be2f1c1ba0af35", "type": "electric_bike", "is_disabled": 0, "lat": 38.9593095, "rental_uris": {"android": "https://dc.lft.to/lastmile_qr_scan", "ios": "https://dc.lft.to/lastmile_qr_scan"}, "bike_id": "024dfcf7f34d304374be2f1c1ba0af35", "lon": -76.92542433333334}, {"is_reserved": 0, "fusion_lon": 0.0, "fusion_lat": 0.0, "name": "3fb30ad862409ea21726fc5b75b9ece7", "type": "electric_scooter", "is_disabled": 0, "lat": 38.907312166666664, "rental_uris": {"android": "https://dc.lft.to/lastmile_qr_scan", "ios": "https://dc.lft.to/lastmile_qr_scan"}, "bike_id": "3fb30ad862409ea21726fc5b75b9ece7", "lon": -76.98694966666666}, {"is_reserved": 0, "fusion_lon": 0.0, "fusion_lat": 0.0, "name": "541102f2a34c5a1c90207fb9637c1ac7", "type": "electric_bike", "is_disabled": 0, "lat": 38.819129833333335, "rental_uris": {"android": "https://dc.lft.to/lastmile_qr_scan", "ios": "https://dc.lft.to/lastmile_qr_scan"}, "bike_id": "541102f2a34c5a1c90207fb9637c1ac7", "lon": -76.99912916666666}, {"is_reserved": 0, "fusion_lon": 0.0, "fusion_lat": 0.0, "name": "adc552a10c7f3aa169ceb286cd31aefc", "type": "electric_scooter", "is_disabled": 0, "lat": 38.9328685, "rental_uris": {"android": "https://dc.lft.to/lastmile_qr_scan", "ios": "https://dc.lft.to/lastmile_qr_scan"}, "bike_id": "adc552a10c7f3aa169ceb286cd31aefc", "lon": -77.02126433333333}, {"is_reserved": 0, "fusion_lon": 0.0, "fusion_lat": 0.0, "name": "a7f34190a9a9c6f1733de9b942e194c6", "type": "electric_scooter", "is_disabled": 0, "lat": 38.917728333333336, "rental_uris": {"android": "https://dc.lft.to/lastmile_qr_scan", "ios": "https://dc.lft.to/lastmile_qr_scan"}, "bike_id": "a7f34190a9a9c6f1733de9b942e194c6", "lon": -77.04558283333333}, {"is_reserved": 0, "fusion_lon": 0.0, "fusion_lat": 0.0, "name": "d65088510ca3b5bc2af6df48554e89d0", "type": "electric_scooter", "is_disabled": 0, "lat": 38.92134883333333, "rental_uris": {"android": "https://dc.lft.to/lastmile_qr_scan", "ios": "https://dc.lft.to/lastmile_qr_scan"}, "bike_id": "d65088510ca3b5bc2af6df48554e89d0", "lon": -77.00404516666667}, {"is_reserved": 0, "fusion_lon": 0.0, "fusion_lat": 0.0, "name": "c2c760b6e5b1ae0aca8c94c447795ce9", "type": "electric_scooter", "is_disabled": 0, "lat": 38.90963, "rental_uris": {"android": "https://dc.lft.to/lastmile_qr_scan", "ios": "https://dc.lft.to/lastmile_qr_scan"}, "bike_id": "c2c760b6e5b1ae0aca8c94c447795ce9", "lon": -77.0386645}, {"is_reserved": 0, "fusion_lon": 0.0, "fusion_lat": 0.0, "name": "c54822ca5d485c6606f0b0f9c0166ec6", "type": "electric_scooter", "is_disabled": 0, "lat": 38.89238233333333, "rental_uris": {"android": "https://dc.lft.to/lastmile_qr_scan", "ios": "https://dc.lft.to/lastmile_qr_scan"}, "bike_id": "c54822ca5d485c6606f0b0f9c0166ec6", "lon": -77.03208616666667}, {"is_reserved": 0, "fusion_lon": 0.0, "fusion_lat": 0.0, "name": "e51672e4daf8be1649925e459cfe9208", "type": "electric_scooter", "is_disabled": 0, "lat": 38.917492833333334, "rental_uris": {"android": "https://dc.lft.to/lastmile_qr_scan", "ios": "https://dc.lft.to/lastmile_qr_scan"}, "bike_id": "e51672e4daf8be1649925e459cfe9208", "lon": -77.023069}, {"is_reserved": 0, "fusion_lon": 0.0, "fusion_lat": 0.0, "name": "ec4f5c820960865b0c6766eb3dbc5a7d", "type": "electric_scooter", "is_disabled": 0, "lat": 38.87011416666667, "rental_uris": {"android": "https://dc.lft.to/lastmile_qr_scan", "ios": "https://dc.lft.to/lastmile_qr_scan"}, "bike_id": "ec4f5c820960865b0c6766eb3dbc5a7d", "lon": -76.98082}, {"is_reserved": 0, "fusion_lon": 0.0, "fusion_lat": 0.0, "name": "7cb8b250aa1d9229186df361607f16c9", "type": "electric_scooter", "is_disabled": 0, "lat": 38.9846125, "rental_uris": {"android": "https://dc.lft.to/lastmile_qr_scan", "ios": "https://dc.lft.to/lastmile_qr_scan"}, "bike_id": "7cb8b250aa1d9229186df361607f16c9", "lon": -77.02684883333333}, {"is_reserved": 0, "fusion_lon": 0.0, "fusion_lat": 0.0, "name": "053abfeb3334d88d2e3a7a0f09591e8a", "type": "electric_scooter", "is_disabled": 0, "lat": 38.9141935, "rental_uris": {"android": "https://dc.lft.to/lastmile_qr_scan", "ios": "https://dc.lft.to/lastmile_qr_scan"}, "bike_id": "053abfeb3334d88d2e3a7a0f09591e8a", "lon": -77.03152233333333}, {"is_reserved": 0, "fusion_lon": 0.0, "fusion_lat": 0.0, "name": "c0c8af3276a32581c2d95b12830c792d", "type": "electric_scooter", "is_disabled": 0, "lat": 38.877594333333334, "rental_uris": {"android": "https://dc.lft.to/lastmile_qr_scan", "ios": "https://dc.lft.to/lastmile_qr_scan"}, "bike_id": "c0c8af3276a32581c2d95b12830c792d", "lon": -77.00594633333333}, {"is_reserved": 0, "fusion_lon": 0.0, "fusion_lat": 0.0, "name": "456557dd36194235b2e7014882a9e29b", "type": "electric_bike", "is_disabled": 0, "lat": 38.9415475, "rental_uris": {"android": "https://dc.lft.to/lastmile_qr_scan", "ios": "https://dc.lft.to/lastmile_qr_scan"}, "bike_id": "456557dd36194235b2e7014882a9e29b", "lon": -77.001969}, {"is_reserved": 0, "fusion_lon": 0.0, "fusion_lat": 0.0, "name": "2b2bbbc743ec8a18fd69f1195a02c5fe", "type": "electric_scooter", "is_disabled": 0, "lat": 38.914742, "rental_uris": {"android": "https://dc.lft.to/lastmile_qr_scan", "ios": "https://dc.lft.to/lastmile_qr_scan"}, "bike_id": "2b2bbbc743ec8a18fd69f1195a02c5fe", "lon": -77.03214233333334}, {"is_reserved": 0, "fusion_lon": 0.0, "fusion_lat": 0.0, "name": "d735f7934d44f53d05035ddec6212074", "type": "electric_scooter", "is_disabled": 0, "lat": 38.912667166666665, "rental_uris": {"android": "https://dc.lft.to/lastmile_qr_scan", "ios": "https://dc.lft.to/lastmile_qr_scan"}, "bike_id": "d735f7934d44f53d05035ddec6212074", "lon": -77.03863983333333}, {"is_reserved": 0, "fusion_lon": 0.0, "fusion_lat": 0.0, "name": "7b7197e8e04e5ad9865fc74d630b7914", "type": "electric_scooter", "is_disabled": 0, "lat": 38.915747833333334, "rental_uris": {"android": "https://dc.lft.to/lastmile_qr_scan", "ios": "https://dc.lft.to/lastmile_qr_scan"}, "bike_id": "7b7197e8e04e5ad9865fc74d630b7914", "lon": -77.01249383333334}, {"is_reserved": 0, "fusion_lon": 0.0, "fusion_lat": 0.0, "name": "1d613814c72f500d66f579205a598eaf", "type": "electric_scooter", "is_disabled": 0, "lat": 38.87848866666667, "rental_uris": {"android": "https://dc.lft.to/lastmile_qr_scan", "ios": "https://dc.lft.to/lastmile_qr_scan"}, "bike_id": "1d613814c72f500d66f579205a598eaf", "lon": -77.030179}, {"is_reserved": 0, "fusion_lon": 0.0, "fusion_lat": 0.0, "name": "fd039a1bfd9980b361f3161fdb090f1a", "type": "electric_scooter", "is_disabled": 0, "lat": 38.935688666666664, "rental_uris": {"android": "https://dc.lft.to/lastmile_qr_scan", "ios": "https://dc.lft.to/lastmile_qr_scan"}, "bike_id": "fd039a1bfd9980b361f3161fdb090f1a", "lon": -77.07308316666666}, {"is_reserved": 0, "fusion_lon": 0.0, "fusion_lat": 0.0, "name": "cb6fa8ab400e41925bbabaae5b9ce2ee", "type": "electric_scooter", "is_disabled": 0, "lat": 38.948695666666666, "rental_uris": {"android": "https://dc.lft.to/lastmile_qr_scan", "ios": "https://dc.lft.to/lastmile_qr_scan"}, "bike_id": "cb6fa8ab400e41925bbabaae5b9ce2ee", "lon": -77.03888166666667}, {"is_reserved": 0, "fusion_lon": 0.0, "fusion_lat": 0.0, "name": "1bffd209f50f3d32d3f7bdb3825af101", "type": "electric_scooter", "is_disabled": 0, "lat": 38.919187666666666, "rental_uris": {"android": "https://dc.lft.to/lastmile_qr_scan", "ios": "https://dc.lft.to/lastmile_qr_scan"}, "bike_id": "1bffd209f50f3d32d3f7bdb3825af101", "lon": -77.02504566666667}, {"is_reserved": 0, "fusion_lon": 0.0, "fusion_lat": 0.0, "name": "ef757d6d5e12038370e05aeec4a62c41", "type": "electric_scooter", "is_disabled": 0, "lat": 38.8950415, "rental_uris": {"android": "https://dc.lft.to/lastmile_qr_scan", "ios": "https://dc.lft.to/lastmile_qr_scan"}, "bike_id": "ef757d6d5e12038370e05aeec4a62c41", "lon": -77.02874133333333}, {"is_reserved": 0, "fusion_lon": 0.0, "fusion_lat": 0.0, "name": "397f5da5c215ad7ce73964919f9ff1e0", "type": "electric_scooter", "is_disabled": 0, "lat": 38.90037733333333, "rental_uris": {"android": "https://dc.lft.to/lastmile_qr_scan", "ios": "https://dc.lft.to/lastmile_qr_scan"}, "bike_id": "397f5da5c215ad7ce73964919f9ff1e0", "lon": -76.9960795}, {"is_reserved": 0, "fusion_lon": 0.0, "fusion_lat": 0.0, "name": "c10516d0650eddc77963d33999ed2f77", "type": "electric_scooter", "is_disabled": 0, "lat": 38.89867316666667, "rental_uris": {"android": "https://dc.lft.to/lastmile_qr_scan", "ios": "https://dc.lft.to/lastmile_qr_scan"}, "bike_id": "c10516d0650eddc77963d33999ed2f77", "lon": -76.946594}, {"is_reserved": 0, "fusion_lon": 0.0, "fusion_lat": 0.0, "name": "f76cd713b897fc2afea19431f05f08f1", "type": "electric_scooter", "is_disabled": 0, "lat": 38.893499, "rental_uris": {"android": "https://dc.lft.to/lastmile_qr_scan", "ios": "https://dc.lft.to/lastmile_qr_scan"}, "bike_id": "f76cd713b897fc2afea19431f05f08f1", "lon": -77.017228}, {"is_reserved": 0, "fusion_lon": 0.0, "fusion_lat": 0.0, "name": "fd352c64a9871ddb0c5b4a64cf99024a", "type": "electric_bike", "is_disabled": 0, "lat": 38.87875433333333, "rental_uris": {"android": "https://dc.lft.to/lastmile_qr_scan", "ios": "https://dc.lft.to/lastmile_qr_scan"}, "bike_id": "fd352c64a9871ddb0c5b4a64cf99024a", "lon": -76.9901775}, {"is_reserved": 0, "fusion_lon": 0.0, "fusion_lat": 0.0, "name": "d73d1879dc500987331249b6970dd08d", "type": "electric_scooter", "is_disabled": 0, "lat": 38.91417033333333, "rental_uris": {"android": "https://dc.lft.to/lastmile_qr_scan", "ios": "https://dc.lft.to/lastmile_qr_scan"}, "bike_id": "d73d1879dc500987331249b6970dd08d", "lon": -77.038098}, {"is_reserved": 0, "fusion_lon": 0.0, "fusion_lat": 0.0, "name": "7109a87dd2b53da2d2794f3efbf155ac", "type": "electric_bike", "is_disabled": 0, "lat": 38.854881666666664, "rental_uris": {"android": "https://dc.lft.to/lastmile_qr_scan", "ios": "https://dc.lft.to/lastmile_qr_scan"}, "bike_id": "7109a87dd2b53da2d2794f3efbf155ac", "lon": -77.1161045}, {"is_reserved": 0, "fusion_lon": 0.0, "fusion_lat": 0.0, "name": "e3c89e17598c93207325906519c3e880", "type": "electric_scooter", "is_disabled": 0, "lat": 38.900695999999996, "rental_uris": {"android": "https://dc.lft.to/lastmile_qr_scan", "ios": "https://dc.lft.to/lastmile_qr_scan"}, "bike_id": "e3c89e17598c93207325906519c3e880", "lon": -77.04901316666667}, {"is_reserved": 0, "fusion_lon": 0.0, "fusion_lat": 0.0, "name": "c22f7e2e5e92e729cf3b2eed854dcaeb", "type": "electric_scooter", "is_disabled": 0, "lat": 38.91118516666667, "rental_uris": {"android": "https://dc.lft.to/lastmile_qr_scan", "ios": "https://dc.lft.to/lastmile_qr_scan"}, "bike_id": "c22f7e2e5e92e729cf3b2eed854dcaeb", "lon": -77.031485},