{"data": {"bikes": [{"fusion_lat": 0.0, "name": "a43302b57f4f9bceb1e46030fbe352d7", "is_disabled": 0, "rental_uris": {"android": "https://dc.lft.to/lastmile_qr_scan", "ios": "https://dc.lft.to/lastmile_qr_scan"}, "fusion_lon": 0.0, "lat": 38.9274855, "bike_id": "a43302b57f4f9bceb1e46030fbe352d7", "type": "electric_scooter", "is_reserved": 0, "lon": -77.021481}, {"fusion_lat": 0.0, "name": "b4c9576edb4035ff536e36e4acac6c1e", "is_disabled": 0, "rental_uris": {"android": "https://dc.lft.to/lastmile_qr_scan", "ios": "https://dc.lft.to/lastmile_qr_scan"}, "fusion_lon": 0.0, "lat": 38.907999833333335, "bike_id": "b4c9576edb4035ff536e36e4acac6c1e", "type": "electric_scooter", "is_reserved": 0, "lon": -77.043279}, {"fusion_lat": 0.0, "name": "fe8029fcfd08118f9bd81b9a6e0a5650", "is_disabled": 0, "rental_uris": {"android": "https://dc.lft.to/lastmile_qr_scan", "ios": "https://dc.lft.to/lastmile_qr_scan"}, "fusion_lon": 0.0, "lat": 38.93170166666667, "bike_id": "fe8029fcfd08118f9bd81b9a6e0a5650", "type": "electric_scooter", "is_reserved": 0, "lon": -77.0281605}, {"fusion_lat": 0.0, "name": "27400d1a35ce2aed7cfaf9dd9fa486a5", "is_disabled": 0, "rental_uris": {"android": "https://dc.lft.to/lastmile_qr_scan", "ios": "https://dc.lft.to/lastmile_qr_scan"}, "fusion_lon": 0.0, "lat": 38.922405, "bike_id": "27400d1a35ce2aed7cfaf9dd9fa486a5", "type": "electric_scooter", "is_reserved": 0, "lon": -77.03175116666667}, {"fusion_lat": 0.0, "name": "2a4581025b8c922c6284dfee22c34730", "is_disabled": 0, "rental_uris": {"android": "https://dc.lft.to/lastmile_qr_scan", "ios": "https://dc.lft.to/lastmile_qr_scan"}, "fusion_lon": 0.0, "lat": 38.887442166666666, "bike_id": "2a4581025b8c922c6284dfee22c34730", "type": "electric_scooter", "is_reserved": 0, "lon": -77.025713}, {"fusion_lat": 0.0, "name": "620d48fa5c639d516cb6200205ba80b5", "is_disabled": 0, "rental_uris": {"android": "https://dc.lft.to/lastmile_qr_scan", "ios": "https://dc.lft.to/lastmile_qr_scan"}, "fusion_lon": 0.0, "lat": 38.935846166666664, "bike_id": "620d48fa5c639d516cb6200205ba80b5", "type": "electric_scooter", "is_reserved": 0, "lon": -77.028437}, {"fusion_lat": 0.0, "name": "05e72d68a9c55014134c79bac5d6d065", "is_disabled": 0, "rental_uris": {"android": "https://dc.lft.to/lastmile_qr_scan", "ios": "https://dc.lft.to/lastmile_qr_scan"}, "fusion_lon": 0.0, "lat": 38.87628383333333, "bike_id": "05e72d68a9c55014134c79bac5d6d065", "type": "electric_scooter", "is_reserved": 0, "lon": -77.001326}, {"fusion_lat": 0.0, "name": "c553662f081f869c2fd35af46ec60d4d", "is_disabled": 0, "rental_uris": {"android": "https://dc.lft.to/lastmile_qr_scan", "ios": "https://dc.lft.to/lastmile_qr_scan"}, "fusion_lon": 0.0, "lat": 38.91704983333333, "bike_id": "c553662f081f869c2fd35af46ec60d4d", "type": "electric_scooter", "is_reserved": 0, "lon": -77.03109516666666}, {"fusion_lat": 0.0, "name": "dc3e5a6c898687adb04fe3c6491657b8", "is_disabled": 0, "rental_uris": {"android": "https://dc.lft.to/lastmile_qr_scan", "ios": "https://dc.lft.to/lastmile_qr_scan"}, "fusion_lon": 0.0, "lat": 38.908756833333335, "bike_id": "dc3e5a6c898687adb04fe3c6491657b8", "type": "electric_scooter", "is_reserved": 0, "lon": -77.00908216666667}, {"fusion_lat": 0.0, "name": "ce55e50b636b3374d56b0d21ea916c46", "is_disabled": 0, "rental_uris": {"android": "https://dc.lft.to/lastmile_qr_scan", "ios": "https://dc.lft.to/lastmile_qr_scan"}, "fusion_lon": 0.0, "lat": 38.88503383333333, "bike_id": "ce55e50b636b3374d56b0d21ea916c46", "type": "electric_scooter", "is_reserved": 0, "lon": -77.005694}, {"fusion_lat": 0.0, "name": "44086415c7efc8812c27ce14b4044439", "is_disabled": 0, "rental_uris": {"android": "https://dc.lft.to/lastmile_qr_scan", "ios": "https://dc.lft.to/lastmile_qr_scan"}, "fusion_lon": 0.0, "lat": 38.887442166666666, "bike_id": "44086415c7efc8812c27ce14b4044439", "type": "electric_scooter", "is_reserved": 0, "lon": -77.01739083333334}, {"fusion_lat": 0.0, "name": "a4fe3277bf395bc84cde8374056f817b", "is_disabled": 0, "rental_uris": {"android": "https://dc.lft.to/lastmile_qr_scan", "ios": "https://dc.lft.to/lastmile_qr_scan"}, "fusion_lon": 0.0, "lat": 38.919588833333336, "bike_id": "a4fe3277bf395bc84cde8374056f817b", "type": "electric_bike", "is_reserved": 0, "lon": -77.1010595}, {"fusion_lat": 0.0, "name": "8fdeef9b8ec38ed7473744bcc474c358", "is_disabled": 0, "rental_uris": {"android": "https://dc.lft.to/lastmile_qr_scan", "ios": "https://dc.lft.to/lastmile_qr_scan"}, "fusion_lon": 0.0, "lat": 38.94204333333333, "bike_id": "8fdeef9b8ec38ed7473744bcc474c358", "type": "electric_scooter", "is_reserved": 0, "lon": -77.0258855}, {"fusion_lat": 0.0, "name": "16473b057eb60694008ef6ed92afcb51", "is_disabled": 0, "rental_uris": {"android": "https://dc.lft.to/lastmile_qr_scan", "ios": "https://dc.lft.to/lastmile_qr_scan"}, "fusion_lon": 0.0, "lat": 38.927467666666665, "bike_id": "16473b057eb60694008ef6ed92afcb51", "type": "electric_scooter", "is_reserved": 0, "lon": -77.0363905}, {"fusion_lat": 0.0, "name": "81b6b05c642988d25558de9b1b02f8ab", "is_disabled": 0, "rental_uris": {"android": "https://dc.lft.to/lastmile_qr_scan", "ios": "https://dc.lft.to/lastmile_qr_scan"}, "fusion_lon": 0.0, "lat": 38.90689916666667, "bike_id": "81b6b05c642988d25558de9b1b02f8ab", "type": "electric_scooter", "is_reserved": 0, "lon": -77.06038266666667}, {"fusion_lat": 0.0, "name": "299bc7f37f5c2c62713ccf854c7830b3", "is_disabled": 0, "rental_uris": {"android": "https://dc.lft.to/lastmile_qr_scan", "ios": "https://dc.lft.to/lastmile_qr_scan"}, "fusion_lon": 0.0, "lat": 38.97884716666667, "bike_id": "299bc7f37f5c2c62713ccf854c7830b3", "type": "electric_bike", "is_reserved": 0, "lon": -77.06025933333333}, {"fusion_lat": 0.0, "name": "ab4b6e3697063df7222661c1f1d49e14", "is_disabled": 0, "rental_uris": {"android": "https://dc.lft.to/lastmile_qr_scan", "ios": "https://dc.lft.to/lastmile_qr_scan"}, "fusion_lon": 0.0, "lat": 38.928734166666665, "bike_id": "ab4b6e3697063df7222661c1f1d49e14", "type": "electric_scooter", "is_reserved": 0, "lon": -77.03239966666666}, {"fusion_lat": 0.0, "name": "cfeeb6c8a52ac01e7f0d03905f10288a", "is_disabled": 0, "rental_uris": {"android": "https://dc.lft.to/lastmile_qr_scan", "ios": "https://dc.lft.to/lastmile_qr_scan"}, "fusion_lon": 0.0, "lat": 38.92154, "bike_id": "cfeeb6c8a52ac01e7f0d03905f10288a", "type": "electric_scooter", "is_reserved": 0, "lon": -77.03444}, {"fusion_lat": 0.0, "name": "beb5cfca7f4d389c36ce15cbfdd988e9", "is_disabled": 0, "rental_uris": {"android": "https://dc.lft.to/lastmile_qr_scan", "ios": "https://dc.lft.to/lastmile_qr_scan"}, "fusion_lon": 0.0, "lat": 38.839353333333335, "bike_id": "beb5cfca7f4d389c36ce15cbfdd988e9", "type": "electric_bike", "is_reserved": 0, "lon": -77.07901316666667}, {"fusion_lat": 0.0, "name": "150127aa63122d17ead0574871fb157c", "is_disabled": 0, "rental_uris": {"android": "https://dc.lft.to/lastmile_qr_scan", "ios": "https://dc.lft.to/lastmile_qr_scan"}, "fusion_lon": 0.0, "lat": 38.895145166666666, "bike_id": "150127aa63122d17ead0574871fb157c", "type": "electric_scooter", "is_reserved": 0, "lon": -76.99958683333334}, {"fusion_lat": 0.0, "name": "8955052f0a785091a94bf24fbd445ea8", "is_disabled": 0, "rental_uris": {"android": "https://dc.lft.to/lastmile_qr_scan", "ios": "https://dc.lft.to/lastmile_qr_scan"}, "fusion_lon": 0.0, "lat": 38.92620933333333, "bike_id": "8955052f0a785091a94bf24fbd445ea8", "type": "electric_scooter", "is_reserved": 0, "lon": -77.04335516666667}, {"fusion_lat": 0.0, "name": "2e2c6158a4cf9a75ade1a96f1abaa44e", "is_disabled": 0, "rental_uris": {"android": "https://dc.lft.to/lastmile_qr_scan", "ios": "https://dc.lft.to/lastmile_qr_scan"}, "fusion_lon": 0.0, "lat": 38.93297916666667, "bike_id": "2e2c6158a4cf9a75ade1a96f1abaa44e", "type": "electric_scooter", "is_reserved": 0, "lon": -77.0283025}, {"fusion_lat": 0.0, "name": "c2bad5fe671b106ea864e04fde44d949", "is_disabled": 0, "rental_uris": {"android": "https://dc.lft.to/lastmile_qr_scan", "ios": "https://dc.lft.to/lastmile_qr_scan"}, "fusion_lon": 0.0, "lat": 38.91662566666667, "bike_id": "c2bad5fe671b106ea864e04fde44d949", "type": "electric_scooter", "is_reserved": 0, "lon": -77.02798283333334}, {"fusion_lat": 0.0, "name": "0ea609a213eb5c2b21232465af45d42b", "is_disabled": 0, "rental_uris": {"android": "https://dc.lft.to/lastmile_qr_scan", "ios": "https://dc.lft.to/lastmile_qr_scan"}, "fusion_lon": 0.0, "lat": 38.901979833333336, "bike_id": "0ea609a213eb5c2b21232465af45d42b", "type": "electric_scooter", "is_reserved": 0, "lon": -76.978596}, {"fusion_lat": 0.0, "name": "e523f675766cb8b6e71553f9381716d9", "is_disabled": 0, "rental_uris": {"android": "https://dc.lft.to/lastmile_qr_scan", "ios": "https://dc.lft.to/lastmile_qr_scan"}, "fusion_lon": 0.0, "lat": 38.91626433333333, "bike_id": "e523f675766cb8b6e71553f9381716d9", "type": "electric_scooter", "is_reserved": 0, "lon": -77.03144166666667}, {"fusion_lat": 0.0, "name": "e153ff477a43f4a7bb13b15368684059", "is_disabled": 0, "rental_uris": {"android": "https://dc.lft.to/lastmile_qr_scan", "ios": "https://dc.lft.to/lastmile_qr_scan"}, "fusion_lon": 0.0, "lat": 38.92296783333333, "bike_id": "e153ff477a43f4a7bb13b15368684059", "type": "electric_scooter", "is_reserved": 0, "lon": -77.04147066666667}, {"fusion_lat": 0.0, "name": "df633228f0f49bba0bbff659e08d2ee5", "is_disabled": 0, "rental_uris": {"android": "https://dc.lft.to/lastmile_qr_scan", "ios": "https://dc.lft.to/lastmile_qr_scan"}, "fusion_lon": 0.0, "lat": 38.90909166666667, "bike_id": "df633228f0f49bba0bbff659e08d2ee5", "type": "electric_scooter", "is_reserved": 0, "lon": -76.99928833333334}, {"fusion_lat": 0.0, "name": "6fb9c7a3fce5f26d8db72129f88822e4", "is_disabled": 0, "rental_uris": {"android": "https://dc.lft.to/lastmile_qr_scan", "ios": "https://dc.lft.to/lastmile_qr_scan"}, "fusion_lon": 0.0, "lat": 38.902203, "bike_id": "6fb9c7a3fce5f26d8db72129f88822e4", "type": "electric_scooter", "is_reserved": 0, "lon": -77.02276466666666}, {"fusion_lat": 0.0, "name": "b079d921299013cd98741f100bb13330", "is_disabled": 0, "rental_uris": {"android": "https://dc.lft.to/lastmile_qr_scan", "ios": "https://dc.lft.to/lastmile_qr_scan"}, "fusion_lon": 0.0, "lat": 38.88638816666667, "bike_id": "b079d921299013cd98741f100bb13330", "type": "electric_scooter", "is_reserved": 0, "lon": -77.01960283333334}, {"fusion_lat": 0.0, "name": "3524284fbf0a6429631bafeb42b6a346", "is_disabled": 0, "rental_uris": {"android": "https://dc.lft.to/lastmile_qr_scan", "ios": "https://dc.lft.to/lastmile_qr_scan"}, "fusion_lon": 0.0, "lat": 38.89230466666667, "bike_id": "3524284fbf0a6429631bafeb42b6a346", "type": "electric_scooter", "is_reserved": 0, "lon": -77.05006833333333}, {"fusion_lat": 0.0, "name": "d789d41d1a8476e0ace8c092125bd85e", "is_disabled": 0, "rental_uris": {"android": "https://dc.lft.to/lastmile_qr_scan", "ios": "https://dc.lft.to/lastmile_qr_scan"}, "fusion_lon": 0.0, "lat": 38.928641666666664, "bike_id": "d789d41d1a8476e0ace8c092125bd85e", "type": "electric_scooter", "is_reserved": 0, "lon": -77.01355083333333}, {"fusion_lat": 0.0, "name": "75f33b9fce1d12be4001e82da3a1f717", "is_disabled": 0, "rental_uris": {"android": "https://dc.lft.to/lastmile_qr_scan", "ios": "https://dc.lft.to/lastmile_qr_scan"}, "fusion_lon": 0.0, "lat": 38.93319433333333, "bike_id": "75f33b9fce1d12be4001e82da3a1f717", "type": "electric_scooter", "is_reserved": 0, "lon": -77.02757216666667}, {"fusion_lat": 0.0, "name": "f1a7eb5e1dccf5b6a841e199c0157d06", "is_disabled": 0, "rental_uris": {"android": "https://dc.lft.to/lastmile_qr_scan", "ios": "https://dc.lft.to/lastmile_qr_scan"}, "fusion_lon": 0.0, "lat": 38.937779166666665, "bike_id": "f1a7eb5e1dccf5b6a841e199c0157d06", "type": "electric_bike", "is_reserved": 0, "lon": -77.019092}, {"fusion_lat": 0.0, "name": "6a13fd86ef56fee2e35f7d8f5df50f59", "is_disabled": 0, "rental_uris": {"android": "https://dc.lft.to/lastmile_qr_scan", "ios": "https://dc.lft.to/lastmile_qr_scan"}, "fusion_lon": 0.0, "lat": 38.92251316666667, "bike_id": "6a13fd86ef56fee2e35f7d8f5df50f59", "type": "electric_scooter", "is_reserved": 0, "lon": -77.03384066666666}, {"fusion_lat": 0.0, "name": "89741ab78bbf2617532cf4e9639f566f", "is_disabled": 0, "rental_uris": {"android": "https://dc.lft.to/lastmile_qr_scan", "ios": "https://dc.lft.to/lastmile_qr_scan"}, "fusion_lon": 0.0, "lat": 38.9357755, "bike_id": "89741ab78bbf2617532cf4e9639f566f", "type": "electric_scooter", "is_reserved": 0, "lon": -77.01929816666667}, {"fusion_lat": 0.0, "name": "81539ff3948368854620f5d98ffeec28", "is_disabled": 0, "rental_uris": {"android": "https://dc.lft.to/lastmile_qr_scan", "ios": "https://dc.lft.to/lastmile_qr_scan"}, "fusion_lon": 0.0, "lat": 38.90409733333333, "bike_id": "81539ff3948368854620f5d98ffeec28", "type": "electric_scooter", "is_reserved": 0, "lon": -76.97330733333334}, {"fusion_lat": 0.0, "name": "34e1baf5e7df0dd4369a777d777a6d40", "is_disabled": 0, "rental_uris": {"android": "https://dc.lft.to/lastmile_qr_scan", "ios": "https://dc.lft.to/lastmile_qr_scan"}, "fusion_lon": 0.0, "lat": 38.897529166666665, "bike_id": "34e1baf5e7df0dd4369a777d777a6d40", "type": "electric_scooter", "is_reserved": 0, "lon": -77.05119883333333}, {"fusion_lat": 0.0, "name": "838320b15220412dadf33de786445dad", "is_disabled": 0, "rental_uris": {"android": "https://dc.lft.to/lastmile_qr_scan", "ios": "https://dc.lft.to/lastmile_qr_scan"}, "fusion_lon": 0.0, "lat": 38.901833833333335, "bike_id": "838320b15220412dadf33de786445dad", "type": "electric_scooter", "is_reserved": 0, "lon": -77.02030183333333}, {"fusion_lat": 0.0, "name": "19370be2ee8e33e6aac2f250913d279c", "is_disabled": 0, "rental_uris": {"android": "https://dc.lft.to/lastmile_qr_scan", "ios": "https://dc.lft.to/lastmile_qr_scan"}, "fusion_lon": 0.0, "lat": 38.862154, "bike_id": "19370be2ee8e33e6aac2f250913d279c", "type": "electric_bike", "is_reserved": 0, "lon": -76.9955235}, {"fusion_lat": 0.0, "name": "a975e4c06d3347a35292beb368c3dd6f", "is_disabled": 0, "rental_uris": {"android": "https://dc.lft.to/lastmile_qr_scan", "ios": "https://dc.lft.to/lastmile_qr_scan"}, "fusion_lon": 0.0, "lat": 38.91555366666667, "bike_id": "a975e4c06d3347a35292beb368c3dd6f", "type": "electric_scooter", "is_reserved": 0, "lon": -77.03663366666666}, {"fusion_lat": 0.0, "name": "fc61850ac161191dbccead1525602516", "is_disabled": 0, "rental_uris": {"android": "https://dc.lft.to/lastmile_qr_scan", "ios": "https://dc.lft.to/lastmile_qr_scan"}, "fusion_lon": 0.0, "lat": 38.884382333333335, "bike_id": "fc61850ac161191dbccead1525602516", "type": "electric_scooter", "is_reserved": 0, "lon": -77.00346666666667}, {"fusion_lat": 0.0, "name": "fb7511e9b29ae7fd9458fb3b185c3c48", "is_disabled": 0, "rental_uris": {"android": "https://dc.lft.to/lastmile_qr_scan", "ios": "https://dc.lft.to/lastmile_qr_scan"}, "fusion_lon": 0.0, "lat": 38.93763466666667, "bike_id": "fb7511e9b29ae7fd9458fb3b185c3c48", "type": "electric_scooter", "is_reserved": 0, "lon": -77.032666}, {"fusion_lat": 0.0, "name": "447d8013b997571a2d6f7b712dda9050", "is_disabled": 0, "rental_uris": {"android": "https://dc.lft.to/lastmile_qr_scan", "ios": "https://dc.lft.to/lastmile_qr_scan"}, "fusion_lon": 0.0, "lat": 38.919329166666664, "bike_id": "447d8013b997571a2d6f7b712dda9050", "type": "electric_scooter", "is_reserved": 0, "lon": -77.0706955}, {"fusion_lat": 0.0, "name": "7ef2b05de9b5886da5beaeec3e02b1b6", "is_disabled": 0, "rental_uris": {"android": "https://dc.lft.to/lastmile_qr_scan", "ios": "https://dc.lft.to/lastmile_qr_scan"}, "fusion_lon": 0.0, "lat": 38.90422316666667, "bike_id": "7ef2b05de9b5886da5beaeec3e02b1b6", "type": "electric_scooter", "is_reserved": 0, "lon": -77.02641533333333}, {"fusion_lat": 0.0, "name": "1af9898dcc48880f8a80c07daf96176b", "is_disabled": 0, "rental_uris": {"android": "https://dc.lft.to/lastmile_qr_scan", "ios": "https://dc.lft.to/lastmile_qr_scan"}, "fusion_lon": 0.0, "lat": 38.913091333333334, "bike_id": "1af9898dcc48880f8a80c07daf96176b", "type": "electric_scooter", "is_reserved": 0, "lon": -77.04871533333333}, {"fusion_lat": 0.0, "name": "30739c16bc1ef1fe29b5b3b87b8943af", "is_disabled": 0, "rental_uris": {"android": "https://dc.lft.to/lastmile_qr_scan", "ios": "https://dc.lft.to/lastmile_qr_scan"}, "fusion_lon": 0.0, "lat": 38.804958666666664, "bike_id": "30739c16bc1ef1fe29b5b3b87b8943af", "type": "electric_bike", "is_reserved": 0, "lon": -77.10159766666666}, {"fusion_lat": 0.0, "name": "2be925b062b6b0ddbb50f9fb21ee5b23", "is_disabled": 0, "rental_uris": {"android": "https://dc.lft.to/lastmile_qr_scan", "ios": "https://dc.lft.to/lastmile_qr_scan"}, "fusion_lon": 0.0, "lat": 38.920415, "bike_id": "2be925b062b6b0ddbb50f9fb21ee5b23", "type": "electric_scooter", "is_reserved": 0, "lon": -77.01725916666666}, {"fusion_lat": 0.0, "name": "2edb01c8e44ec5fb94d7ded7581acbb9", "is_disabled": 0, "rental_uris": {"android": "https://dc.lft.to/lastmile_qr_scan", "ios": "https://dc.lft.to/lastmile_qr_scan"}, "fusion_lon": 0.0, "lat": 38.89284283333333, "bike_id": "2edb01c8e44ec5fb94d7ded7581acbb9", "type": "electric_scooter", "is_reserved": 0, "lon": -76.983073}, {"fusion_lat": 0.0, "name": "75a836b15d941ca6d4c98b9af4e7899c", "is_disabled": 0, "rental_uris": {"android": "https://dc.lft.to/lastmile_qr_scan", "ios": "https://dc.lft.to/lastmile_qr_scan"}, "fusion_lon": 0.0, "lat": 38.919296333333335, "bike_id": "75a836b15d941ca6d4c98b9af4e7899c", "type": "electric_scooter", "is_reserved": 0, "lon": -77.03216066666667}, {"fusion_lat": 0.0, "name": "39942424e033a824344c36eb64fdda7a", "is_disabled": 0, "rental_uris": {"android": "https://dc.lft.to/lastmile_qr_scan", "ios": "https://dc.lft.to/lastmile_qr_scan"}, "fusion_lon": 0.0, "lat": 38.936332666666665, "bike_id": "39942424e033a824344c36eb64fdda7a", "type": "electric_scooter", "is_reserved": 0, "lon": -77.03662316666667}, {"fusion_lat": 0.0, "name": "46306a96830a9c83cbed09e3256b0324", "is_disabled": 0, "rental_uris": {"android": "https://dc.lft.to/lastmile_qr_scan", "ios": "https://dc.lft.to/lastmile_qr_scan"}, "fusion_lon": 0.0, "lat": 38.92785633333333, "bike_id": "46306a96830a9c83cbed09e3256b0324", "type": "electric_scooter", "is_reserved": 0, "lon": -77.03210616666667}, {"fusion_lat": 0.0, "name": "69950d84f98b7b0bebca660eaf051734", "is_disabled": 0, "rental_uris": {"android": "https://dc.lft.to/lastmile_qr_scan", "ios": "https://dc.lft.to/lastmile_qr_scan"}, "fusion_lon": 0.0, "lat": 38.878344166666665, "bike_id": "69950d84f98b7b0bebca660eaf051734", "type": "electric_scooter", "is_reserved": 0, "lon": -76.963209}, {"fusion_lat": 0.0, "name": "1ea9df52ecf445a8d40ac1caf7c45c70", "is_disabled": 0, "rental_uris": {"android": "https://dc.lft.to/lastmile_qr_scan", "ios": "https://dc.lft.to/lastmile_qr_scan"}, "fusion_lon": 0.0, "lat": 38.925511666666665, "bike_id": "1ea9df52ecf445a8d40ac1caf7c45c70", "type": "electric_scooter", "is_reserved": 0, "lon": -77.07765733333333}, {"fusion_lat": 0.0, "name": "ad92d35fe4b07df4cfc1b934de133464", "is_disabled": 0, "rental_uris": {"android": "https://dc.lft.to/lastmile_qr_scan", "ios": "https://dc.lft.to/lastmile_qr_scan"}, "fusion_lon": 0.0, "lat": 38.88523933333333, "bike_id": "ad92d35fe4b07df4cfc1b934de133464", "type": "electric_scooter", "is_reserved": 0, "lon": -77.0150925}, {"fusion_lat": 0.0, "name": "2bccacef9b1ceb98305fefe949bbbc51", "is_disabled": 0, "rental_uris": {"android": "https://dc.lft.to/lastmile_qr_scan", "ios": "https://dc.lft.to/lastmile_qr_scan"}, "fusion_lon": 0.0, "lat": 38.9280895, "bike_id": "2bccacef9b1ceb98305fefe949bbbc51", "type": "electric_scooter", "is_reserved": 0, "lon": -77.04357016666667}, {"fusion_lat": 0.0, "name": "7129da08af41fa487a8f226fe71fb2a0", "is_disabled": 0, "rental_uris": {"android": "https://dc.lft.to/lastmile_qr_scan", "ios": "https://dc.lft.to/lastmile_qr_scan"}, "fusion_lon": 0.0, "lat": 38.92491916666667, "bike_id": "7129da08af41fa487a8f226fe71fb2a0", "type": "electric_scooter", "is_reserved": 0, "lon": -77.0576045}, {"fusion_lat": 0.0, "name": "4eeb221ee0dbeab9d850943826a39d47", "is_disabled": 0, "rental_uris": {"android": "https://dc.lft.to/lastmile_qr_scan", "ios": "https://dc.lft.to/lastmile_qr_scan"}, "fusion_lon": 0.0, "lat": 38.90877283333333, "bike_id": "4eeb221ee0dbeab9d850943826a39d47", "type": "electric_scooter", "is_reserved": 0, "lon": -77.0345675}, {"fusion_lat": 0.0, "name": "4c27c9943c6766622822cb853ad15d7f", "is_disabled": 0, "rental_uris": {"android": "https://dc.lft.to/lastmile_qr_scan", "ios": "https://dc.lft.to/lastmile_qr_scan"}, "fusion_lon": 0.0, "lat": 38.8960085, "bike_id": "4c27c9943c6766622822cb853ad15d7f", "type": "electric_scooter", "is_reserved": 0, "lon": -77.02539533333334}, {"fusion_lat": 0.0, "name": "222df7d189ab731bb7a5fb2ea770862d", "is_disabled": 0, "rental_uris": {"android": "https://dc.lft.to/lastmile_qr_scan", "ios": "https://dc.lft.to/lastmile_qr_scan"}, "fusion_lon": 0.0, "lat": 38.9261185, "bike_id": "222df7d189ab731bb7a5fb2ea770862d", "type": "electric_scooter", "is_reserved": 0, "lon": -77.039594}, {"fusion_lat": 0.0, "name": "52ba61b50aabcdaaa55ea065037a357e", "is_disabled": 0, "rental_uris": {"android": "https://dc.lft.to/lastmile_qr_scan", "ios": "https://dc.lft.to/lastmile_qr_scan"}, "fusion_lon": 0.0, "lat": 38.90455816666667, "bike_id": "52ba61b50aabcdaaa55ea065037a357e", "type": "electric_scooter", "is_reserved": 0, "lon": -77.00164266666667}, {"fusion_lat": 0.0, "name": "b38afabd9df2038e975f3ff41671b9f1", "is_disabled": 0, "rental_uris": {"android": "https://dc.lft.to/lastmile_qr_scan", "ios": "https://dc.lft.to/lastmile_qr_scan"}, "fusion_lon": 0.0, "lat": 38.904251, "bike_id": "b38afabd9df2038e975f3ff41671b9f1", "type": "electric_scooter", "is_reserved": 0, "lon": -76.94974783333333}, {"fusion_lat": 0.0, "name": "fb69865b7fbf736676418af23773fe2b", "is_disabled": 0, "rental_uris": {"android": "https://dc.lft.to/lastmile_qr_scan", "ios": "https://dc.lft.to/lastmile_qr_scan"}, "fusion_lon": 0.0, "lat": 38.90956966666667, "bike_id": "fb69865b7fbf736676418af23773fe2b", "type": "electric_scooter", "is_reserved": 0, "lon": -77.010422}, {"fusion_lat": 0.0, "name": "eed8d4fd9f1335cd9fe481588ec02579", "is_disabled": 0, "rental_uris": {"android": "https://dc.lft.to/lastmile_qr_scan", "ios": "https://dc.lft.to/lastmile_qr_scan"}, "fusion_lon": 0.0, "lat": 38.94077716666666, "bike_id": "eed8d4fd9f1335cd9fe481588ec02579", "type": "electric_scooter", "is_reserved": 0, "lon": -77.02390883333334}, {"fusion_lat": 0.0, "name": "1b242bed243bf183036bc8eb6d398fb6", "is_disabled": 0, "rental_uris": {"android": "https://dc.lft.to/lastmile_qr_scan", "ios": "https://dc.lft.to/lastmile_qr_scan"}, "fusion_lon": 0.0, "lat": 38.928285833333334, "bike_id": "1b242bed243bf183036bc8eb6d398fb6", "type": "electric_scooter", "is_reserved": 0, "lon": -77.02255916666667}, {"fusion_lat": 0.0, "name": "33ae5a3d6fb1573e5d1855448281e163", "is_disabled": 0, "rental_uris": {"android": "https://dc.lft.to/lastmile_qr_scan", "ios": "https://dc.lft.to/lastmile_qr_scan"}, "fusion_lon": 0.0, "lat": 38.89737816666667, "bike_id": "33ae5a3d6fb1573e5d1855448281e163", "type": "electric_scooter", "is_reserved": 0, "lon": -77.0485735}, {"fusion_lat": 0.0, "name": "9d89a40caaa239d3095216bcfdd24d5a", "is_disabled": 0, "rental_uris": {"android": "https://dc.lft.to/lastmile_qr_scan", "ios": "https://dc.lft.to/lastmile_qr_scan"}, "fusion_lon": 0.0, "lat": 38.95954733333333, "bike_id": "9d89a40caaa239d3095216bcfdd24d5a", "type": "electric_scooter", "is_reserved": 0, "lon": -77.0089305}, {"fusion_lat": 0.0, "name": "a6bb7e8b75d13008f0d2549422b1cbde", "is_disabled": 0, "rental_uris": {"android": "https://dc.lft.to/lastmile_qr_scan", "ios": "https://dc.lft.to/lastmile_qr_scan"}, "fusion_lon": 0.0, "lat": 38.9420555, "bike_id": "a6bb7e8b75d13008f0d2549422b1cbde", "type": "electric_scooter", "is_reserved": 0, "lon": -77.02591416666667}, {"fusion_lat": 0.0, "name": "c3aeef3f33c5f7df6af05bfac3563d62", "is_disabled": 0, "rental_uris": {"android": "https://dc.lft.to/lastmile_qr_scan", "ios": "https://dc.lft.to/lastmile_qr_scan"}, "fusion_lon": 0.0, "lat": 38.915539833333334, "bike_id": "c3aeef3f33c5f7df6af05bfac3563d62", "type": "electric_scooter", "is_reserved": 0, "lon": -77.0322575}, {"fusion_lat": 0.0, "name": "392889f09d48268bfa3154f5b41d78c4", "is_disabled": 0, "rental_uris": {"android": "https://dc.lft.to/lastmile_qr_scan", "ios": "https://dc.lft.to/lastmile_qr_scan"}, "fusion_lon": 0.0, "lat": 38.879451, "bike_id": "392889f09d48268bfa3154f5b41d78c4", "type": "electric_scooter", "is_reserved": 0, "lon": -77.00817816666667}, {"fusion_lat": 0.0, "name": "913535222c3d1636e95cef5a39fd5826", "is_disabled": 0, "rental_uris": {"android": "https://dc.lft.to/lastmile_qr_scan", "ios": "https://dc.lft.to/lastmile_qr_scan"}, "fusion_lon": 0.0, "lat": 38.92043833333334, "bike_id": "913535222c3d1636e95cef5a39fd5826", "type": "electric_scooter", "is_reserved": 0, "lon": -77.0418345}, {"fusion_lat": 0.0, "name": "1359a10aea7a0f653faaac96ab0f3b90", "is_disabled": 0, "rental_uris": {"android": "https://dc.lft.to/lastmile_qr_scan", "ios": "https://dc.lft.to/lastmile_qr_scan"}, "fusion_lon": 0.0, "lat": 38.917232166666665, "bike_id": "1359a10aea7a0f653faaac96ab0f3b90", "type": "electric_scooter", "is_reserved": 0, "lon": -77.03652966666667}, {"fusion_lat": 0.0, "name": "21db5dbf6d019e2aa0fe62a7eb731000", "is_disabled": 0, "rental_uris": {"android": "https://dc.lft.to/lastmile_qr_scan", "ios": "https://dc.lft.to/lastmile_qr_scan"}, "fusion_lon": 0.0, "lat": 38.9200165, "bike_id": "21db5dbf6d019e2aa0fe62a7eb731000", "type": "electric_scooter", "is_reserved": 0, "lon": -77.04175816666667}, {"fusion_lat": 0.0, "name": "b6bffd4eefc8b8fac68485f77a2bde5f", "is_disabled": 0, "rental_uris": {"android": "https://dc.lft.to/lastmile_qr_scan", "ios": "https://dc.lft.to/lastmile_qr_scan"}, "fusion_lon": 0.0, "lat": 38.9286615, "bike_id": "b6bffd4eefc8b8fac68485f77a2bde5f", "type": "electric_scooter", "is_reserved": 0, "lon": -77.03294383333333}, {"fusion_lat": 0.0, "name": "79c6ac933af40967a87c863e421d8e8d", "is_disabled": 0, "rental_uris": {"android": "https://dc.lft.to/lastmile_qr_scan", "ios": "https://dc.lft.to/lastmile_qr_scan"}, "fusion_lon": 0.0, "lat": 38.86687, "bike_id": "79c6ac933af40967a87c863e421d8e8d", "type": "electric_bike", "is_reserved": 0, "lon": -76.98233933333333}, {"fusion_lat": 0.0, "name": "5e3d0c17754c20215ea5edefe2728a52", "is_disabled": 0, "rental_uris": {"android": "https://dc.lft.to/lastmile_qr_scan", "ios": "https://dc.lft.to/lastmile_qr_scan"}, "fusion_lon": 0.0, "lat": 38.95690416666667, "bike_id": "5e3d0c17754c20215ea5edefe2728a52", "type": "electric_scooter", "is_reserved": 0, "lon": -77.032556}, {"fusion_lat": 0.0, "name": "c7c38d9d32b12d02307d80ef60c90523", "is_disabled": 0, "rental_uris": {"android": "https://dc.lft.to/lastmile_qr_scan", "ios": "https://dc.lft.to/lastmile_qr_scan"}, "fusion_lon": 0.0, "lat": 38.909726666666664, "bike_id": "c7c38d9d32b12d02307d80ef60c90523", "type": "electric_scooter", "is_reserved": 0, "lon": -77.0451515}, {"fusion_lat": 0.0, "name": "205a386e9f8e226cb49a4dd3a02ee39d", "is_disabled": 0, "rental_uris": {"android": "https://dc.lft.to/lastmile_qr_scan", "ios": "https://dc.lft.to/lastmile_qr_scan"}, "fusion_lon": 0.0, "lat": 38.90282583333333, "bike_id": "205a386e9f8e226cb49a4dd3a02ee39d", "type": "electric_scooter", "is_reserved": 0, "lon": -77.02274633333333}, {"fusion_lat": 0.0, "name": "f66fb71047ed06b8f1e36b515d1cab4b", "is_disabled": 0, "rental_uris": {"android": "https://dc.lft.to/lastmile_qr_scan", "ios": "https://dc.lft.to/lastmile_qr_scan"}, "fusion_lon": 0.0, "lat": 38.9623695, "bike_id": "f66fb71047ed06b8f1e36b515d1cab4b", "type": "electric_bike", "is_reserved": 0, "lon": -76.92776116666667}, {"fusion_lat": 0.0, "name": "70431819764dd6bb7579c1cdbe3d02a3", "is_disabled": 0, "rental_uris": {"android": "https://dc.lft.to/lastmile_qr_scan", "ios": "https://dc.lft.to/lastmile_qr_scan"}, "fusion_lon": 0.0, "lat": 38.95666766666667, "bike_id": "70431819764dd6bb7579c1cdbe3d02a3", "type": "electric_bike", "is_reserved": 0, "lon": -77.01132216666667}, {"fusion_lat": 0.0, "name": "e987dd53a2372ed68013c2be4c960762", "is_disabled": 0, "rental_uris": {"android": "https://dc.lft.to/lastmile_qr_scan", "ios": "https://dc.lft.to/lastmile_qr_scan"}, "fusion_lon": 0.0, "lat": 38.90730083333333, "bike_id": "e987dd53a2372ed68013c2be4c960762", "type": "electric_scooter", "is_reserved": 0, "lon": -77.00502016666667}, {"fusion_lat": 0.0, "name": "f57cc216890cf45d2c990fe11a8f6060", "is_disabled": 0, "rental_uris": {"android": "https://dc.lft.to/lastmile_qr_scan", "ios": "https://dc.lft.to/lastmile_qr_scan"}, "fusion_lon": 0.0, "lat": 38.9234775, "bike_id": "f57cc216890cf45d2c990fe11a8f6060", "type": "electric_scooter", "is_reserved": 0, "lon": -77.03398066666666}, {"fusion_lat": 0.0, "name": "f2b146fdf1338983124dfdaf37cc69dc", "is_disabled": 0, "rental_uris": {"android": "https://dc.lft.to/lastmile_qr_scan", "ios": "https://dc.lft.to/lastmile_qr_scan"}, "fusion_lon": 0.0, "lat": 38.93508583333333, "bike_id": "f2b146fdf1338983124dfdaf37cc69dc", "type": "electric_scooter", "is_reserved": 0, "lon": -77.02414766666666}, {"fusion_lat": 0.0, "name": "8342c891cff91b91333e22ceb7330ba3", "is_disabled": 0, "rental_uris": {"android": "https://dc.lft.to/lastmile_qr_scan", "ios": "https://dc.lft.to/lastmile_qr_scan"}, "fusion_lon": 0.0, "lat": 38.92417666666667, "bike_id": "8342c891cff91b91333e22ceb7330ba3", "type": "electric_scooter", "is_reserved": 0, "lon": -77.02267616666667}, {"fusion_lat": 0.0, "name": "acf12d28814aca8a8fae2301fe8233ca", "is_disabled": 0, "rental_uris": {"android": "https://dc.lft.to/lastmile_qr_scan", "ios": "https://dc.lft.to/lastmile_qr_scan"}, "fusion_lon": 0.0, "lat": 38.92537183333334, "bike_id": "acf12d28814aca8a8fae2301fe8233ca", "type": "electric_scooter", "is_reserved": 0, "lon": -77.03528616666667}, {"fusion_lat": 0.0, "name": "f33e2b9f25b62e5cbee029759bba9abf", "is_disabled": 0, "rental_uris": {"android": "https://dc.lft.to/lastmile_qr_scan", "ios": "https://dc.lft.to/lastmile_qr_scan"}, "fusion_lon": 0.0, "lat": 38.90654766666667, "bike_id": "f33e2b9f25b62e5cbee029759bba9abf", "type": "electric_scooter", "is_reserved": 0, "lon": -77.02401833333333}, {"fusion_lat": 0.0, "name": "44150590d3e1468b3a485bc7556922b6", "is_disabled": 0, "rental_uris": {"android": "https://dc.lft.to/lastmile_qr_scan", "ios": "https://dc.lft.to/lastmile_qr_scan"}, "fusion_lon": 0.0, "lat": 38.915377666666664, "bike_id": "44150590d3e1468b3a485bc7556922b6", "type": "electric_scooter", "is_reserved": 0, "lon": -77.032041}, {"fusion_lat": 0.0, "name": "6781c772eff6551a754509d7daa52df9", "is_disabled": 0, "rental_uris": {"android": "https://dc.lft.to/lastmile_qr_scan", "ios": "https://dc.lft.to/lastmile_qr_scan"}, "fusion_lon": 0.0, "lat": 38.899662, "bike_id": "6781c772eff6551a754509d7daa52df9", "type": "electric_scooter", "is_reserved": 0, "lon": -77.03338833333333}, {"fusion_lat": 0.0, "name": "3c981f5eb0aa6825b2a4e9bd2e4de1d4", "is_disabled": 0, "rental_uris": {"android": "https://dc.lft.to/lastmile_qr_scan", "ios": "https://dc.lft.to/lastmile_qr_scan"}, "fusion_lon": 0.0, "lat": 38.81246683333333, "bike_id": "3c981f5eb0aa6825b2a4e9bd2e4de1d4", "type": "electric_bike", "is_reserved": 0, "lon": -77.11775916666667}, {"fusion_lat": 0.0, "name": "d2c0fc9b196b9a4a0fd3d9e51916ab24", "is_disabled": 0, "rental_uris": {"android": "https://dc.lft.to/lastmile_qr_scan", "ios": "https://dc.lft.to/lastmile_qr_scan"}, "fusion_lon": 0.0, "lat": 38.80710066666666, "bike_id": "d2c0fc9b196b9a4a0fd3d9e51916ab24", "type": "electric_bike", "is_reserved": 0, "lon": -77.06173466666667}, {"fusion_lat": 0.0, "name": "8ef063abca23f78910866728c72fdd51", "is_disabled": 0, "rental_uris": {"android": "https://dc.lft.to/lastmile_qr_scan", "ios": "https://dc.lft.to/lastmile_qr_scan"}, "fusion_lon": 0.0, "lat": 38.92537766666667, "bike_id": "8ef063abca23f78910866728c72fdd51", "type": "electric_scooter", "is_reserved": 0, "lon": -77.007597}, {"fusion_lat": 0.0, "name": "abe5cb7527e679f337ce5fd1df84671e", "is_disabled": 0, "rental_uris": {"android": "https://dc.lft.to/lastmile_qr_scan", "ios": "https://dc.lft.to/lastmile_qr_scan"}, "fusion_lon": 0.0, "lat": 38.8910435, "bike_id": "abe5cb7527e679f337ce5fd1df84671e", "type": "electric_scooter", "is_reserved": 0, "lon": -76.99627683333334}, {"fusion_lat": 0.0, "name": "8f30810fbf7f58f45007886d6f44f9eb", "is_disabled": 0, "rental_uris": {"android": "https://dc.lft.to/lastmile_qr_scan", "ios": "https://dc.lft.to/lastmile_qr_scan"}, "fusion_lon": 0.0, "lat": 38.9219575, "bike_id": "8f30810fbf7f58f45007886d6f44f9eb", "type": "electric_scooter", "is_reserved": 0, "lon": -77.04237216666667}, {"fusion_lat": 0.0, "name": "d2bf88a999edd806d9ab9d6286488437", "is_disabled": 0, "rental_uris": {"android": "https://dc.lft.to/lastmile_qr_scan", "ios": "https://dc.lft.to/lastmile_qr_scan"}, "fusion_lon": 0.0, "lat": 38.90366683333333, "bike_id": "d2bf88a999edd806d9ab9d6286488437", "type": "electric_scooter", "is_reserved": 0, "lon": -77.03863016666666}, {"fusion_lat": 0.0, "name": "fb92ffc95862d8f26ca62add56343564", "is_disabled": 0, "rental_uris": {"android": "https://dc.lft.to/lastmile_qr_scan", "ios": "https://dc.lft.to/lastmile_qr_scan"}, "fusion_lon": 0.0, "lat": 38.81914783333333, "bike_id": "fb92ffc95862d8f26ca62add56343564", "type": "electric_bike", "is_reserved": 0, "lon": -77.04799933333334}, {"fusion_lat": 0.0, "name": "c47d1cf1a1fa9d94a9ec27d907756d26", "is_disabled": 0, "rental_uris": {"android": "https://dc.lft.to/lastmile_qr_scan", "ios": "https://dc.lft.to/lastmile_qr_scan"}, "fusion_lon": 0.0, "lat": 38.907348, "bike_id": "c47d1cf1a1fa9d94a9ec27d907756d26", "type": "electric_scooter", "is_reserved": 0, "lon": -76.93541533333334}, {"fusion_lat": 0.0, "name": "f3be0d1ad5dd3c19aca59055da4f07e7", "is_disabled": 0, "rental_uris": {"android": "https://dc.lft.to/lastmile_qr_scan", "ios": "https://dc.lft.to/lastmile_qr_scan"}, "fusion_lon": 0.0, "lat": 38.907246666666666, "bike_id": "f3be0d1ad5dd3c19aca59055da4f07e7", "type": "electric_scooter", "is_reserved": 0, "lon": -77.04753433333333}, {"fusion_lat": 0.0, "name": "eed98a9b39f75ca88d8705ba39245399", "is_disabled": 0, "rental_uris": {"android": "https://dc.lft.to/lastmile_qr_scan", "ios": "https://dc.lft.to/lastmile_qr_scan"}, "fusion_lon": 0.0, "lat": 38.9035885, "bike_id": "eed98a9b39f75ca88d8705ba39245399", "type": "electric_scooter", "is_reserved": 0, "lon": -77.06654266666666}, {"fusion_lat": 0.0, "name": "57a71ba7d787f4d8085e019ee7670b01", "is_disabled": 0, "rental_uris": {"android": "https://dc.lft.to/lastmile_qr_scan", "ios": "https://dc.lft.to/lastmile_qr_scan"}, "fusion_lon": 0.0, "lat": 38.926787, "bike_id": "57a71ba7d787f4d8085e019ee7670b01", "type": "electric_scooter", "is_reserved": 0, "lon": -77.03077033333334}, {"fusion_lat": 0.0, "name": "149a356fd8abd772ac13824d531cfd03", "is_disabled": 0, "rental_uris": {"android": "https://dc.lft.to/lastmile_qr_scan", "ios": "https://dc.lft.to/lastmile_qr_scan"}, "fusion_lon": 0.0, "lat": 38.906001, "bike_id": "149a356fd8abd772ac13824d531cfd03", "type": "electric_scooter", "is_reserved": 0, "lon": -77.03427883333333}, {"fusion_lat": 0.0, "name": "b91a537a13b477208cd0d5ae1af873e0", "is_disabled": 0, "rental_uris": {"android": "https://dc.lft.to/lastmile_qr_scan", "ios": "https://dc.lft.to/lastmile_qr_scan"}, "fusion_lon": 0.0, "lat": 38.88302766666666, "bike_id": "b91a537a13b477208cd0d5ae1af873e0", "type": "electric_scooter", "is_reserved": 0, "lon": -76.94857383333333}, {"fusion_lat": 0.0, "name": "f9e33c60833f09f9fa1f3ac637472def", "is_disabled": 0, "rental_uris": {"android": "https://dc.lft.to/lastmile_qr_scan", "ios": "https://dc.lft.to/lastmile_qr_scan"}, "fusion_lon": 0.0, "lat": 38.91554583333333, "bike_id": "f9e33c60833f09f9fa1f3ac637472def", "type": "electric_scooter", "is_reserved": 0, "lon": -77.01132133333333}, {"fusion_lat": 0.0, "name": "332f1c9a9753c51754a99bf4c59223bb", "is_disabled": 0, "rental_uris": {"android": "https://dc.lft.to/lastmile_qr_scan", "ios": "https://dc.lft.to/lastmile_qr_scan"}, "fusion_lon": 0.0, "lat": 38.89729, "bike_id": "332f1c9a9753c51754a99bf4c59223bb", "type": "electric_scooter", "is_reserved": 0, "lon": -77.02150216666666}, {"fusion_lat": 0.0, "name": "0eacdc9379140710e48e1a2aeaab5250", "is_disabled": 0, "rental_uris": {"android": "https://dc.lft.to/lastmile_qr_scan", "ios": "https://dc.lft.to/lastmile_qr_scan"}, "fusion_lon": 0.0, "lat": 38.902633, "bike_id": "0eacdc9379140710e48e1a2aeaab5250", "type": "electric_scooter", "is_reserved": 0, "lon": -77.017496}, {"fusion_lat": 0.0, "name": "af6db057fcbf2c9acc1f51472d3be27f", "is_disabled": 0, "rental_uris": {"android": "https://dc.lft.to/lastmile_qr_scan", "ios": "https://dc.lft.to/lastmile_qr_scan"}, "fusion_lon": 0.0, "lat": 38.94007033333333, "bike_id": "af6db057fcbf2c9acc1f51472d3be27f", "type": "electric_scooter", "is_reserved": 0, "lon": -77.08417416666667}, {"fusion_lat": 0.0, "name": "c57bcf7ae74cae3d7be1e04fd32243fb", "is_disabled": 0, "rental_uris": {"android": "https://dc.lft.to/lastmile_qr_scan", "ios": "https://dc.lft.to/lastmile_qr_scan"}, "fusion_lon": 0.0, "lat": 38.83515583333333, "bike_id": "c57bcf7ae74cae3d7be1e04fd32243fb", "type": "electric_bike", "is_reserved": 0, "lon": -76.98673666666667}, {"fusion_lat": 0.0, "name": "37e847ac2592bea4dd5a67ca02c994e4", "is_disabled": 0, "rental_uris": {"android": "https://dc.lft.to/lastmile_qr_scan", "ios": "https://dc.lft.to/lastmile_qr_scan"}, "fusion_lon": 0.0, "lat": 38.90032, "bike_id": "37e847ac2592bea4dd5a67ca02c994e4", "type": "electric_scooter", "is_reserved": 0, "lon": -77.01618816666667}, {"fusion_lat": 0.0, "name": "8271c2ec3fd1ee37d485ef120b718e66", "is_disabled": 0, "rental_uris": {"android": "https://dc.lft.to/lastmile_qr_scan", "ios": "https://dc.lft.to/lastmile_qr_scan"}, "fusion_lon": 0.0, "lat": 38.907674666666665, "bike_id": "8271c2ec3fd1ee37d485ef120b718e66", "type": "electric_scooter", "is_reserved": 0, "lon": -77.05594383333333}, {"fusion_lat": 0.0, "name": "ccdae7a81c5c4fedaa0bc83e1425ea80", "is_disabled": 0, "rental_uris": {"android": "https://dc.lft.to/lastmile_qr_scan", "ios": "https://dc.lft.to/lastmile_qr_scan"}, "fusion_lon": 0.0, "lat": 38.8873285, "bike_id": "ccdae7a81c5c4fedaa0bc83e1425ea80", "type": "electric_scooter", "is_reserved": 0, "lon": -77.03172983333333}, {"fusion_lat": 0.0, "name": "a7e8f339ffa55c49afab36a12d44c0d6", "is_disabled": 0, "rental_uris": {"android": "https://dc.lft.to/lastmile_qr_scan", "ios": "https://dc.lft.to/lastmile_qr_scan"}, "fusion_lon": 0.0, "lat": 38.900631, "bike_id": "a7e8f339ffa55c49afab36a12d44c0d6", "type": "electric_scooter", "is_reserved": 0, "lon": -76.93386166666667}, {"fusion_lat": 0.0, "name": "6cdd794b3d7799f0e6af35841ff68b21", "is_disabled": 0, "rental_uris": {"android": "https://dc.lft.to/lastmile_qr_scan", "ios": "https://dc.lft.to/lastmile_qr_scan"}, "fusion_lon": 0.0, "lat": 38.886784166666665, "bike_id": "6cdd794b3d7799f0e6af35841ff68b21", "type": "electric_scooter", "is_reserved": 0, "lon": -77.013709}, {"fusion_lat": 0.0, "name": "b367defbbb31687b77c7bf0d6471d282", "is_disabled": 0, "rental_uris": {"android": "https://dc.lft.to/lastmile_qr_scan", "ios": "https://dc.lft.to/lastmile_qr_scan"}, "fusion_lon": 0.0, "lat": 38.94274716666666, "bike_id": "b367defbbb31687b77c7bf0d6471d282", "type": "electric_scooter", "is_reserved": 0, "lon": -77.0325435}, {"fusion_lat": 0.0, "name": "b353596b23663da9b24d2ab968cfa40d", "is_disabled": 0, "rental_uris": {"android": "https://dc.lft.to/lastmile_qr_scan", "ios": "https://dc.lft.to/lastmile_qr_scan"}, "fusion_lon": 0.0, "lat": 38.920488, "bike_id": "b353596b23663da9b24d2ab968cfa40d", "type": "electric_scooter", "is_reserved": 0, "lon": -77.0440715}, {"fusion_lat": 0.0, "name": "f1ab44aa3157be279e4b9963e44b5c5e", "is_disabled": 0, "rental_uris": {"android": "https://dc.lft.to/lastmile_qr_scan", "ios": "https://dc.lft.to/lastmile_qr_scan"}, "fusion_lon": 0.0, "lat": 38.875335166666666, "bike_id": "f1ab44aa3157be279e4b9963e44b5c5e", "type": "electric_scooter", "is_reserved": 0, "lon": -77.0050815}, {"fusion_lat": 0.0, "name": "95b0211caceaeb11dc91a68ccf6265e5", "is_disabled": 0, "rental_uris": {"android": "https://dc.lft.to/lastmile_qr_scan", "ios": "https://dc.lft.to/lastmile_qr_scan"}, "fusion_lon": 0.0, "lat": 38.91588016666667, "bike_id": "95b0211caceaeb11dc91a68ccf6265e5", "type": "electric_scooter", "is_reserved": 0, "lon": -77.045551}, {"fusion_lat": 0.0, "name": "218976fa31c51de7f4c633f8460268ec", "is_disabled": 0, "rental_uris": {"android": "https://dc.lft.to/lastmile_qr_scan", "ios": "https://dc.lft.to/lastmile_qr_scan"}, "fusion_lon": 0.0, "lat": 38.9229485, "bike_id": "218976fa31c51de7f4c633f8460268ec", "type": "electric_scooter", "is_reserved": 0, "lon": -77.04249566666667}, {"fusion_lat": 0.0, "name": "9ed43e522e78050a86e5427c0eee0177", "is_disabled": 0, "rental_uris": {"android": "https://dc.lft.to/lastmile_qr_scan", "ios": "https://dc.lft.to/lastmile_qr_scan"}, "fusion_lon": 0.0, "lat": 38.877489, "bike_id": "9ed43e522e78050a86e5427c0eee0177", "type": "electric_scooter", "is_reserved": 0, "lon": -77.0035015}, {"fusion_lat": 0.0, "name": "c55bf25ef15fbd3a7157303315ff7232", "is_disabled": 0, "rental_uris": {"android": "https://dc.lft.to/lastmile_qr_scan", "ios": "https://dc.lft.to/lastmile_qr_scan"}, "fusion_lon": 0.0, "lat": 38.92741, "bike_id": "c55bf25ef15fbd3a7157303315ff7232", "type": "electric_scooter", "is_reserved": 0, "lon": -77.03385266666666}, {"fusion_lat": 0.0, "name": "a628dc956f267f26ed8e975c118be301", "is_disabled": 0, "rental_uris": {"android": "https://dc.lft.to/lastmile_qr_scan", "ios": "https://dc.lft.to/lastmile_qr_scan"}, "fusion_lon": 0.0, "lat": 38.8955285, "bike_id": "a628dc956f267f26ed8e975c118be301", "type": "electric_scooter", "is_reserved": 0, "lon": -76.94938433333333}, {"fusion_lat": 0.0, "name": "331000cbc76a8e22fdbcae3d8536c40a", "is_disabled": 0, "rental_uris": {"android": "https://dc.lft.to/lastmile_qr_scan", "ios": "https://dc.lft.to/lastmile_qr_scan"}, "fusion_lon": 0.0, "lat": 38.87664383333333, "bike_id": "331000cbc76a8e22fdbcae3d8536c40a", "type": "electric_scooter", "is_reserved": 0, "lon": -76.9962465}, {"fusion_lat": 0.0, "name": "1c0b4e80c4c47129dc1d4e32f3fa6f7a", "is_disabled": 0, "rental_uris": {"android": "https://dc.lft.to/lastmile_qr_scan", "ios": "https://dc.lft.to/lastmile_qr_scan"}, "fusion_lon": 0.0, "lat": 38.9248235, "bike_id": "1c0b4e80c4c47129dc1d4e32f3fa6f7a", "type": "electric_scooter", "is_reserved": 0, "lon": -77.039114}, {"fusion_lat": 0.0, "name": "dc172a208258e322e6e876e7e32e4e8c", "is_disabled": 0, "rental_uris": {"android": "https://dc.lft.to/lastmile_qr_scan", "ios": "https://dc.lft.to/lastmile_qr_scan"}, "fusion_lon": 0.0, "lat": 38.8803855, "bike_id": "dc172a208258e322e6e876e7e32e4e8c", "type": "electric_scooter", "is_reserved": 0, "lon": -77.02511816666667}, {"fusion_lat": 0.0, "name": "199b55d4e4680a3b9555b9acac221f12", "is_disabled": 0, "rental_uris": {"android": "https://dc.lft.to/lastmile_qr_scan", "ios": "https://dc.lft.to/lastmile_qr_scan"}, "fusion_lon": 0.0, "lat": 38.914596333333336, "bike_id": "199b55d4e4680a3b9555b9acac221f12", "type": "electric_scooter", "is_reserved": 0, "lon": -77.07221616666666}, {"fusion_lat": 0.0, "name": "9921929fb2a86f3aa962e76321fcee5c", "is_disabled": 0, "rental_uris": {"android": "https://dc.lft.to/lastmile_qr_scan", "ios": "https://dc.lft.to/lastmile_qr_scan"}, "fusion_lon": 0.0, "lat": 38.91401883333333, "bike_id": "9921929fb2a86f3aa962e76321fcee5c", "type": "electric_scooter", "is_reserved": 0, "lon": -77.01684766666666}, {"fusion_lat": 0.0, "name": "8ca32ca3c97a332f6f4ae562b7973157", "is_disabled": 0, "rental_uris": {"android": "https://dc.lft.to/lastmile_qr_scan", "ios": "https://dc.lft.to/lastmile_qr_scan"}, "fusion_lon": 0.0, "lat": 38.917889833333334, "bike_id": "8ca32ca3c97a332f6f4ae562b7973157", "type": "electric_scooter", "is_reserved": 0, "lon": -77.04022033333334}, {"fusion_lat": 0.0, "name": "f58627550d3f35c9fd8f77aae67039e7", "is_disabled": 0, "rental_uris": {"android": "https://dc.lft.to/lastmile_qr_scan", "ios": "https://dc.lft.to/lastmile_qr_scan"}, "fusion_lon": 0.0, "lat": 38.90622416666667, "bike_id": "f58627550d3f35c9fd8f77aae67039e7", "type": "electric_scooter", "is_reserved": 0, "lon": -77.06288683333334}, {"fusion_lat": 0.0, "name": "1c1bc68e2e295100a8d8c02f4a57bf3d", "is_disabled": 0, "rental_uris": {"android": "https://dc.lft.to/lastmile_qr_scan", "ios": "https://dc.lft.to/lastmile_qr_scan"}, "fusion_lon": 0.0, "lat": 38.900668, "bike_id": "1c1bc68e2e295100a8d8c02f4a57bf3d", "type": "electric_scooter", "is_reserved": 0, "lon": -76.92744266666666}, {"fusion_lat": 0.0, "name": "f0ba2dea917ffd5f31b78e6438584da4", "is_disabled": 0, "rental_uris": {"android": "https://dc.lft.to/lastmile_qr_scan", "ios": "https://dc.lft.to/lastmile_qr_scan"}, "fusion_lon": 0.0, "lat": 38.877501333333335, "bike_id": "f0ba2dea917ffd5f31b78e6438584da4", "type": "electric_scooter", "is_reserved": 0, "lon": -77.0142865}, {"fusion_lat": 0.0, "name": "b7083c1acc1c2c9f2930eec658f1802a", "is_disabled": 0, "rental_uris": {"android": "https://dc.lft.to/lastmile_qr_scan", "ios": "https://dc.lft.to/lastmile_qr_scan"}, "fusion_lon": 0.0, "lat": 38.896890666666664, "bike_id": "b7083c1acc1c2c9f2930eec658f1802a", "type": "electric_scooter", "is_reserved": 0, "lon": -77.05088116666667}, {"fusion_lat": 0.0, "name": "8adc9d7f7482d2e33eaac3b42e9fa540", "is_disabled": 0, "rental_uris": {"android": "https://dc.lft.to/lastmile_qr_scan", "ios": "https://dc.lft.to/lastmile_qr_scan"}, "fusion_lon": 0.0, "lat": 38.88818583333333, "bike_id": "8adc9d7f7482d2e33eaac3b42e9fa540", "type": "electric_scooter", "is_reserved": 0, "lon": -76.9836285}, {"fusion_lat": 0.0, "name": "564ac2897f5a1a827afdf2e96a1e1603", "is_disabled": 0, "rental_uris": {"android": "https://dc.lft.to/lastmile_qr_scan", "ios": "https://dc.lft.to/lastmile_qr_scan"}, "fusion_lon": 0.0, "lat": 38.8994585, "bike_id": "564ac2897f5a1a827afdf2e96a1e1603", "type": "electric_scooter", "is_reserved": 0, "lon": -77.05357033333334}, {"fusion_lat": 0.0, "name": "fe3433b5fc6f6c37be67310507dd61a0", "is_disabled": 0, "rental_uris": {"android": "https://dc.lft.to/lastmile_qr_scan", "ios": "https://dc.lft.to/lastmile_qr_scan"}, "fusion_lon": 0.0, "lat": 38.886616333333336, "bike_id": "fe3433b5fc6f6c37be67310507dd61a0", "type": "electric_scooter", "is_reserved": 0, "lon": -77.03388716666667}, {"fusion_lat": 0.0, "name": "a57928dc393e5530c822b08807c5e3f4", "is_disabled": 0, "rental_uris": {"android": "https://dc.lft.to/lastmile_qr_scan", "ios": "https://dc.lft.to/lastmile_qr_scan"}, "fusion_lon": 0.0, "lat": 38.887451166666665, "bike_id": "a57928dc393e5530c822b08807c5e3f4", "type": "electric_scooter", "is_reserved": 0, "lon": -76.983584}, {"fusion_lat": 0.0, "name": "14a0f73e91796aa342722ec5bb1cfaaf", "is_disabled": 0, "rental_uris": {"android": "https://dc.lft.to/lastmile_qr_scan", "ios": "https://dc.lft.to/lastmile_qr_scan"}, "fusion_lon": 0.0, "lat": 38.926877166666664, "bike_id": "14a0f73e91796aa342722ec5bb1cfaaf", "type": "electric_scooter", "is_reserved": 0, "lon": -77.03146683333334}, {"fusion_lat": 0.0, "name": "80f40068a48b693a1d50fc880b7fc4e4", "is_disabled": 0, "rental_uris": {"android": "https://dc.lft.to/lastmile_qr_scan", "ios": "https://dc.lft.to/lastmile_qr_scan"}, "fusion_lon": 0.0, "lat": 38.94314116666666, "bike_id": "80f40068a48b693a1d50fc880b7fc4e4", "type": "electric_scooter", "is_reserved": 0, "lon": -77.02008766666667}, {"fusion_lat": 0.0, "name": "9a588a0c9475d2a7181323a8e03dddba", "is_disabled": 0, "rental_uris": {"android": "https://dc.lft.to/lastmile_qr_scan", "ios": "https://dc.lft.to/lastmile_qr_scan"}, "fusion_lon": 0.0, "lat": 38.91345333333334, "bike_id": "9a588a0c9475d2a7181323a8e03dddba", "type": "electric_bike", "is_reserved": 0, "lon": -76.98895816666666}, {"fusion_lat": 0.0, "name": "98eaeef351b79c4897bb1abc811f1102", "is_disabled": 0, "rental_uris": {"android": "https://dc.lft.to/lastmile_qr_scan", "ios": "https://dc.lft.to/lastmile_qr_scan"}, "fusion_lon": 0.0, "lat": 38.9029565, "bike_id": "98eaeef351b79c4897bb1abc811f1102", "type": "electric_scooter", "is_reserved": 0, "lon": -76.99259666666667}, {"fusion_lat": 0.0, "name": "ee4378ec2419674048a921a48dddbf5a", "is_disabled": 0, "rental_uris": {"android": "https://dc.lft.to/lastmile_qr_scan", "ios": "https://dc.lft.to/lastmile_qr_scan"}, "fusion_lon": 0.0, "lat": 38.92414616666667, "bike_id": "ee4378ec2419674048a921a48dddbf5a", "type": "electric_scooter", "is_reserved": 0, "lon": -77.02007633333334}, {"fusion_lat": 0.0, "name": "f277c1d2320aae93c003e643c180eaef", "is_disabled": 0, "rental_uris": {"android": "https://dc.lft.to/lastmile_qr_scan", "ios": "https://dc.lft.to/lastmile_qr_scan"}, "fusion_lon": 0.0, "lat": 38.892633000000004, "bike_id": "f277c1d2320aae93c003e643c180eaef", "type": "electric_scooter", "is_reserved": 0, "lon": -77.05030316666667}, {"fusion_lat": 0.0, "name": "ad3c312d432bba554a68411b03045d93", "is_disabled": 0, "rental_uris": {"android": "https://dc.lft.to/lastmile_qr_scan", "ios": "https://dc.lft.to/lastmile_qr_scan"}, "fusion_lon": 0.0, "lat": 38.9245015, "bike_id": "ad3c312d432bba554a68411b03045d93", "type": "electric_scooter", "is_reserved": 0, "lon": -77.03965766666667}, {"fusion_lat": 0.0, "name": "81c6dc19285b9803ac43d316d794b5f8", "is_disabled": 0, "rental_uris": {"android": "https://dc.lft.to/lastmile_qr_scan", "ios": "https://dc.lft.to/lastmile_qr_scan"}, "fusion_lon": 0.0, "lat": 38.9095295, "bike_id": "81c6dc19285b9803ac43d316d794b5f8", "type": "electric_scooter", "is_reserved": 0, "lon": -77.03269433333334}, {"fusion_lat": 0.0, "name": "efc9cd496d841b631114f60eada8a8e3", "is_disabled": 0, "rental_uris": {"android": "https://dc.lft.to/lastmile_qr_scan", "ios": "https://dc.lft.to/lastmile_qr_scan"}, "fusion_lon": 0.0, "lat": 38.920908833333336, "bike_id": "efc9cd496d841b631114f60eada8a8e3", "type": "electric_scooter", "is_reserved": 0, "lon": -77.0416075}, {"fusion_lat": 0.0, "name": "a5e964a5b25f220182a99e7d7378b460", "is_disabled": 0, "rental_uris": {"android": "https://dc.lft.to/lastmile_qr_scan", "ios": "https://dc.lft.to/lastmile_qr_scan"}, "fusion_lon": 0.0, "lat": 38.88711933333333, "bike_id": "a5e964a5b25f220182a99e7d7378b460", "type": "electric_scooter", "is_reserved": 0, "lon": -76.99677166666666}, {"fusion_lat": 0.0, "name": "6c43388c22a2a42d1992968eaddeffd1", "is_disabled": 0, "rental_uris": {"android": "https://dc.lft.to/lastmile_qr_scan", "ios": "https://dc.lft.to/lastmile_qr_scan"}, "fusion_lon": 0.0, "lat": 38.90755133333333, "bike_id": "6c43388c22a2a42d1992968eaddeffd1", "type": "electric_scooter", "is_reserved": 0, "lon": -77.02946333333334}, {"fusion_lat": 0.0, "name": "3d5972e737cdc5541e74f6e082740a2a", "is_disabled": 0, "rental_uris": {"android": "https://dc.lft.to/lastmile_qr_scan", "ios": "https://dc.lft.to/lastmile_qr_scan"}, "fusion_lon": 0.0, "lat": 38.906334, "bike_id": "3d5972e737cdc5541e74f6e082740a2a", "type": "electric_scooter", "is_reserved": 0, "lon": -77.03143166666666}, {"fusion_lat": 0.0, "name": "c3b7708446221ce1c6ac589e9bf9fb44", "is_disabled": 0, "rental_uris": {"android": "https://dc.lft.to/lastmile_qr_scan", "ios": "https://dc.lft.to/lastmile_qr_scan"}, "fusion_lon": 0.0, "lat": 38.915708333333335, "bike_id": "c3b7708446221ce1c6ac589e9bf9fb44", "type": "electric_scooter", "is_reserved": 0, "lon": -77.02289966666666}, {"fusion_lat": 0.0, "name": "ffb31af6f46e4541ff8a36192caafe82", "is_disabled": 0, "rental_uris": {"android": "https://dc.lft.to/lastmile_qr_scan", "ios": "https://dc.lft.to/lastmile_qr_scan"}, "fusion_lon": 0.0, "lat": 38.91694566666666, "bike_id": "ffb31af6f46e4541ff8a36192caafe82", "type": "electric_scooter", "is_reserved": 0, "lon": -77.03496466666667}, {"fusion_lat": 0.0, "name": "133aca561a2a5da79f708840656bc7fa", "is_disabled": 0, "rental_uris": {"android": "https://dc.lft.to/lastmile_qr_scan", "ios": "https://dc.lft.to/lastmile_qr_scan"}, "fusion_lon": 0.0, "lat": 38.8948605, "bike_id": "133aca561a2a5da79f708840656bc7fa", "type": "electric_scooter", "is_reserved": 0, "lon": -77.01078383333333}, {"fusion_lat": 0.0, "name": "28b8cbd838dec2f54b33d9bce1cf7f61", "is_disabled": 0, "rental_uris": {"android": "https://dc.lft.to/lastmile_qr_scan", "ios": "https://dc.lft.to/lastmile_qr_scan"}, "fusion_lon": 0.0, "lat": 38.930496166666664, "bike_id": "28b8cbd838dec2f54b33d9bce1cf7f61", "type": "electric_scooter", "is_reserved": 0, "lon": -77.04067266666667}, {"fusion_lat": 0.0, "name": "8a05ad425972f18123bb6ebad8062b02", "is_disabled": 0, "rental_uris": {"android": "https://dc.lft.to/lastmile_qr_scan", "ios": "https://dc.lft.to/lastmile_qr_scan"}, "fusion_lon": 0.0, "lat": 38.91486533333333, "bike_id": "8a05ad425972f18123bb6ebad8062b02", "type": "electric_scooter", "is_reserved": 0, "lon": -77.03252966666666}, {"fusion_lat": 0.0, "name": "943bc9f61abcfe9ce5f925a0bf29e824", "is_disabled": 0, "rental_uris": {"android": "https://dc.lft.to/lastmile_qr_scan", "ios": "https://dc.lft.to/lastmile_qr_scan"}, "fusion_lon": 0.0, "lat": 38.919263666666666, "bike_id": "943bc9f61abcfe9ce5f925a0bf29e824", "type": "electric_scooter", "is_reserved": 0, "lon": -77.01212016666666}, {"fusion_lat": 0.0, "name": "6293f9cab277da91378f7e7435fc99a5", "is_disabled": 0, "rental_uris": {"android": "https://dc.lft.to/lastmile_qr_scan", "ios": "https://dc.lft.to/lastmile_qr_scan"}, "fusion_lon": 0.0, "lat": 38.925597, "bike_id": "6293f9cab277da91378f7e7435fc99a5", "type": "electric_scooter", "is_reserved": 0, "lon": -77.022806}, {"fusion_lat": 0.0, "name": "04c62ecedd677a22124c4aacfc65ec38", "is_disabled": 0, "rental_uris": {"android": "https://dc.lft.to/lastmile_qr_scan", "ios": "https://dc.lft.to/lastmile_qr_scan"}, "fusion_lon": 0.0, "lat": 38.90959133333333, "bike_id": "04c62ecedd677a22124c4aacfc65ec38", "type": "electric_scooter", "is_reserved": 0, "lon": -77.04864}, {"fusion_lat": 0.0, "name": "645802b9a50113a1b72c232a9fa1a89e", "is_disabled": 0, "rental_uris": {"android": "https://dc.lft.to/lastmile_qr_scan", "ios": "https://dc.lft.to/lastmile_qr_scan"}, "fusion_lon": 0.0, "lat": 38.956299333333334, "bike_id": "645802b9a50113a1b72c232a9fa1a89e", "type": "electric_bike", "is_reserved": 0, "lon": -76.93874016666666}, {"fusion_lat": 0.0, "name": "3bf9fa02d8f78309d672ef7b20c8e855", "is_disabled": 0, "rental_uris": {"android": "https://dc.lft.to/lastmile_qr_scan", "ios": "https://dc.lft.to/lastmile_qr_scan"}, "fusion_lon": 0.0, "lat": 39.01080616666667, "bike_id": "3bf9fa02d8f78309d672ef7b20c8e855", "type": "electric_bike", "is_reserved": 0, "lon": -76.91064433333334}, {"fusion_lat": 0.0, "name": "bb4603884fc4ad1b462a234fe60a6f68", "is_disabled": 0, "rental_uris": {"android": "https://dc.lft.to/lastmile_qr_scan", "ios": "https://dc.lft.to/lastmile_qr_scan"}, "fusion_lon": 0.0, "lat": 38.945297833333335, "bike_id": "bb4603884fc4ad1b462a234fe60a6f68", "type": "electric_scooter", "is_reserved": 0, "lon": -77.02090533333333}, {"fusion_lat": 0.0, "name": "c1486ac19630cb650903b35769825efc", "is_disabled": 0, "rental_uris": {"android": "https://dc.lft.to/lastmile_qr_scan", "ios": "https://dc.lft.to/lastmile_qr_scan"}, "fusion_lon": 0.0, "lat": 38.916829666666665, "bike_id": "c1486ac19630cb650903b35769825efc", "type": "electric_scooter", "is_reserved": 0, "lon": -77.02975933333333}, {"fusion_lat": 0.0, "name": "27f8c25bde5bc9cdb51ea36faaffc6f6", "is_disabled": 0, "rental_uris": {"android": "https://dc.lft.to/lastmile_qr_scan", "ios": "https://dc.lft.to/lastmile_qr_scan"}, "fusion_lon": 0.0, "lat": 38.88161616666667, "bike_id": "27f8c25bde5bc9cdb51ea36faaffc6f6", "type": "electric_scooter", "is_reserved": 0, "lon": -77.02768816666666}, {"fusion_lat": 0.0, "name": "2fb0ab18d8bdaf5e55e7aef1e7448f6f", "is_disabled": 0, "rental_uris": {"android": "https://dc.lft.to/lastmile_qr_scan", "ios": "https://dc.lft.to/lastmile_qr_scan"}, "fusion_lon": 0.0, "lat": 38.924702333333336, "bike_id": "2fb0ab18d8bdaf5e55e7aef1e7448f6f", "type": "electric_scooter", "is_reserved": 0, "lon": -76.993309}, {"fusion_lat": 0.0, "name": "b86757e3c9d9d82f4e28c387f12a3f97", "is_disabled": 0, "rental_uris": {"android": "https://dc.lft.to/lastmile_qr_scan", "ios": "https://dc.lft.to/lastmile_qr_scan"}, "fusion_lon": 0.0, "lat": 38.920255833333336, "bike_id": "b86757e3c9d9d82f4e28c387f12a3f97", "type": "electric_scooter", "is_reserved": 0, "lon": -76.99564983333333}, {"fusion_lat": 0.0, "name": "e6a090e4e84e8d0bc389751fec61b920", "is_disabled": 0, "rental_uris": {"android": "https://dc.lft.to/lastmile_qr_scan", "ios": "https://dc.lft.to/lastmile_qr_scan"}, "fusion_lon": 0.0, "lat": 38.9173385, "bike_id": "e6a090e4e84e8d0bc389751fec61b920", "type": "electric_scooter", "is_reserved": 0, "lon": -77.0417275}, {"fusion_lat": 0.0, "name": "ce80f0cddcd225672ee6c5f3a8b613fa", "is_disabled": 0, "rental_uris": {"android": "https://dc.lft.to/lastmile_qr_scan", "ios": "https://dc.lft.to/lastmile_qr_scan"}, "fusion_lon": 0.0, "lat": 38.900940166666665, "bike_id": "ce80f0cddcd225672ee6c5f3a8b613fa", "type": "electric_scooter", "is_reserved": 0, "lon": -77.01946366666667}, {"fusion_lat": 0.0, "name": "e95a7733854028639f21cb0d04168157", "is_disabled": 0, "rental_uris": {"android": "https://dc.lft.to/lastmile_qr_scan", "ios": "https://dc.lft.to/lastmile_qr_scan"}, "fusion_lon": 0.0, "lat": 38.89478733333333, "bike_id": "e95a7733854028639f21cb0d04168157", "type": "electric_scooter", "is_reserved": 0, "lon": -77.0218315}, {"fusion_lat": 0.0, "name": "d9186ed1f8754311844bef0f19ede73f", "is_disabled": 0, "rental_uris": {"android": "https://dc.lft.to/lastmile_qr_scan", "ios": "https://dc.lft.to/lastmile_qr_scan"}, "fusion_lon": 0.0, "lat": 38.90759533333333, "bike_id": "d9186ed1f8754311844bef0f19ede73f", "type": "electric_scooter", "is_reserved": 0, "lon": -77.03604766666666}, {"fusion_lat": 0.0, "name": "334fb13977f61f1e2dd654a801a770ef", "is_disabled": 0, "rental_uris": {"android": "https://dc.lft.to/lastmile_qr_scan", "ios": "https://dc.lft.to/lastmile_qr_scan"}, "fusion_lon": 0.0, "lat": 38.85801283333333, "bike_id": "334fb13977f61f1e2dd654a801a770ef", "type": "electric_bike", "is_reserved": 0, "lon": -76.987239}, {"fusion_lat": 0.0, "name": "c01da41f5b9ca5ca897accdf2576eaa4", "is_disabled": 0, "rental_uris": {"android": "https://dc.lft.to/lastmile_qr_scan", "ios": "https://dc.lft.to/lastmile_qr_scan"}, "fusion_lon": 0.0, "lat": 38.90600033333333, "bike_id": "c01da41f5b9ca5ca897accdf2576eaa4", "type": "electric_bike", "is_reserved": 0, "lon": -77.06346533333334}, {"fusion_lat": 0.0, "name": "17423ac1122574ca9625a7846076016d", "is_disabled": 0, "rental_uris": {"android": "https://dc.lft.to/lastmile_qr_scan", "ios": "https://dc.lft.to/lastmile_qr_scan"}, "fusion_lon": 0.0, "lat": 38.86262216666667, "bike_id": "17423ac1122574ca9625a7846076016d", "type": "electric_bike", "is_reserved": 0, "lon": -76.983507}, {"fusion_lat": 0.0, "name": "7a4a5c84a2def1492bfa32114f097655", "is_disabled": 0, "rental_uris": {"android": "https://dc.lft.to/lastmile_qr_scan", "ios": "https://dc.lft.to/lastmile_qr_scan"}, "fusion_lon": 0.0, "lat": 38.9078315, "bike_id": "7a4a5c84a2def1492bfa32114f097655", "type": "electric_scooter", "is_reserved": 0, "lon": -77.04509633333333}, {"fusion_lat": 0.0, "name": "e7dcff1197da00b7d07e5b7ee1cd0192", "is_disabled": 0, "rental_uris": {"android": "https://dc.lft.to/lastmile_qr_scan", "ios": "https://dc.lft.to/lastmile_qr_scan"}, "fusion_lon": 0.0, "lat": 38.9206215, "bike_id": "e7dcff1197da00b7d07e5b7ee1cd0192", "type": "electric_scooter", "is_reserved": 0, "lon": -76.99857416666667}, {"fusion_lat": 0.0, "name": "f89287996b7b7eee6edcf4f73c636184", "is_disabled": 0, "rental_uris": {"android": "https://dc.lft.to/lastmile_qr_scan", "ios": "https://dc.lft.to/lastmile_qr_scan"}, "fusion_lon": 0.0, "lat": 38.923654, "bike_id": "f89287996b7b7eee6edcf4f73c636184", "type": "electric_scooter", "is_reserved": 0, "lon": -77.04250333333333}, {"fusion_lat": 0.0, "name": "6a04b42827b3e5f244093c03942465bf", "is_disabled": 0, "rental_uris": {"android": "https://dc.lft.to/lastmile_qr_scan", "ios": "https://dc.lft.to/lastmile_qr_scan"}, "fusion_lon": 0.0, "lat": 38.917238833333336, "bike_id": "6a04b42827b3e5f244093c03942465bf", "type": "electric_scooter", "is_reserved": 0, "lon": -77.00816233333333}, {"fusion_lat": 0.0, "name": "049f907d24a08accb534970290998362", "is_disabled": 0, "rental_uris": {"android": "https://dc.lft.to/lastmile_qr_scan", "ios": "https://dc.lft.to/lastmile_qr_scan"}, "fusion_lon": 0.0, "lat": 38.91026566666667, "bike_id": "049f907d24a08accb534970290998362", "type": "electric_scooter", "is_reserved": 0, "lon": -77.0076785}, {"fusion_lat": 0.0, "name": "000a4a2621bd9a83454256a24ba772a9", "is_disabled": 0, "rental_uris": {"android": "https://dc.lft.to/lastmile_qr_scan", "ios": "https://dc.lft.to/lastmile_qr_scan"}, "fusion_lon": 0.0, "lat": 38.920540833333334, "bike_id": "000a4a2621bd9a83454256a24ba772a9", "type": "electric_scooter", "is_reserved": 0, "lon": -77.04198583333333}, {"fusion_lat": 0.0, "name": "a71b9aa7e4377459e6a7fbf6695be6d4", "is_disabled": 0, "rental_uris": {"android": "https://dc.lft.to/lastmile_qr_scan", "ios": "https://dc.lft.to/lastmile_qr_scan"}, "fusion_lon": 0.0, "lat": 38.894647666666664, "bike_id": "a71b9aa7e4377459e6a7fbf6695be6d4", "type": "electric_scooter", "is_reserved": 0, "lon": -77.01088316666667}, {"fusion_lat": 0.0, "name": "5c93d80be07389034682f0d3d0065640", "is_disabled": 0, "rental_uris": {"android": "https://dc.lft.to/lastmile_qr_scan", "ios": "https://dc.lft.to/lastmile_qr_scan"}, "fusion_lon": 0.0, "lat": 38.886305166666666, "bike_id": "5c93d80be07389034682f0d3d0065640", "type": "electric_scooter", "is_reserved": 0, "lon": -77.01534633333333}, {"fusion_lat": 0.0, "name": "62f17857e2b327120128a5444a3d4617", "is_disabled": 0, "rental_uris": {"android": "https://dc.lft.to/lastmile_qr_scan", "ios": "https://dc.lft.to/lastmile_qr_scan"}, "fusion_lon": 0.0, "lat": 38.95554216666667, "bike_id": "62f17857e2b327120128a5444a3d4617", "type": "electric_bike", "is_reserved": 0, "lon": -77.06935216666666}, {"fusion_lat": 0.0, "name": "d11204e89f955941cac54ff69e4b29f9", "is_disabled": 0, "rental_uris": {"android": "https://dc.lft.to/lastmile_qr_scan", "ios": "https://dc.lft.to/lastmile_qr_scan"}, "fusion_lon": 0.0, "lat": 38.90475283333333, "bike_id": "d11204e89f955941cac54ff69e4b29f9", "type": "electric_scooter", "is_reserved": 0, "lon": -76.95200683333333}, {"fusion_lat": 0.0, "name": "05882d6e720d196e1875bea5e0c399cd", "is_disabled": 0, "rental_uris": {"android": "https://dc.lft.to/lastmile_qr_scan", "ios": "https://dc.lft.to/lastmile_qr_scan"}, "fusion_lon": 0.0, "lat": 38.922406333333335, "bike_id": "05882d6e720d196e1875bea5e0c399cd", "type": "electric_scooter", "is_reserved": 0, "lon": -77.04328033333333}, {"fusion_lat": 0.0, "name": "3418f43bb35efe322b633a662b4f969b", "is_disabled": 0, "rental_uris": {"android": "https://dc.lft.to/lastmile_qr_scan", "ios": "https://dc.lft.to/lastmile_qr_scan"}, "fusion_lon": 0.0, "lat": 38.90645983333334, "bike_id": "3418f43bb35efe322b633a662b4f969b", "type": "electric_scooter", "is_reserved": 0, "lon": -77.04276566666667}, {"fusion_lat": 0.0, "name": "9c3995a0dc9b9d1fd5669d74264ed720", "is_disabled": 0, "rental_uris": {"android": "https://dc.lft.to/lastmile_qr_scan", "ios": "https://dc.lft.to/lastmile_qr_scan"}, "fusion_lon": 0.0, "lat": 38.92079233333333, "bike_id": "9c3995a0dc9b9d1fd5669d74264ed720", "type": "electric_scooter", "is_reserved": 0, "lon": -77.02399066666666}, {"fusion_lat": 0.0, "name": "8796d1ea96c7b0c12d1a1ac8e3cd8040", "is_disabled": 0, "rental_uris": {"android": "https://dc.lft.to/lastmile_qr_scan", "ios": "https://dc.lft.to/lastmile_qr_scan"}, "fusion_lon": 0.0, "lat": 38.908485, "bike_id": "8796d1ea96c7b0c12d1a1ac8e3cd8040", "type": "electric_scooter", "is_reserved": 0, "lon": -77.063994}, {"fusion_lat": 0.0, "name": "8f10df1085f1fafeceb1eb01dfacf224", "is_disabled": 0, "rental_uris": {"android": "https://dc.lft.to/lastmile_qr_scan", "ios": "https://dc.lft.to/lastmile_qr_scan"}, "fusion_lon": 0.0, "lat": 38.9606755, "bike_id": "8f10df1085f1fafeceb1eb01dfacf224", "type": "electric_scooter", "is_reserved": 0, "lon": -77.00104883333333}, {"fusion_lat": 0.0, "name": "af1e49dede1df289beeb0f7d6af4bf58", "is_disabled": 0, "rental_uris": {"android": "https://dc.lft.to/lastmile_qr_scan", "ios": "https://dc.lft.to/lastmile_qr_scan"}, "fusion_lon": 0.0, "lat": 38.855643, "bike_id": "af1e49dede1df289beeb0f7d6af4bf58", "type": "electric_bike", "is_reserved": 0, "lon": -77.1131565}, {"fusion_lat": 0.0, "name": "b028a39eb45997bc706c2eb767a8fe50", "is_disabled": 0, "rental_uris": {"android": "https://dc.lft.to/lastmile_qr_scan", "ios": "https://dc.lft.to/lastmile_qr_scan"}, "fusion_lon": 0.0, "lat": 38.90075816666667, "bike_id": "b028a39eb45997bc706c2eb767a8fe50", "type": "electric_scooter", "is_reserved": 0, "lon": -77.02711616666667}, {"fusion_lat": 0.0, "name": "db93aad6dc6a87e68dbd9b7a50cb3cae", "is_disabled": 0, "rental_uris": {"android": "https://dc.lft.to/lastmile_qr_scan", "ios": "https://dc.lft.to/lastmile_qr_scan"}, "fusion_lon": 0.0, "lat": 38.897295666666665, "bike_id": "db93aad6dc6a87e68dbd9b7a50cb3cae", "type": "electric_scooter", "is_reserved": 0, "lon": -76.94699616666666}, {"fusion_lat": 0.0, "name": "9f7adad67506023bf9055ecd5d21fc36", "is_disabled": 0, "rental_uris": {"android": "https://dc.lft.to/lastmile_qr_scan", "ios": "https://dc.lft.to/lastmile_qr_scan"}, "fusion_lon": 0.0, "lat": 38.905633333333334, "bike_id": "9f7adad67506023bf9055ecd5d21fc36", "type": "electric_scooter", "is_reserved": 0, "lon": -77.04079566666667}, {"fusion_lat": 0.0, "name": "1827949cfbdf9447f1c074b372768496", "is_disabled": 0, "rental_uris": {"android": "https://dc.lft.to/lastmile_qr_scan", "ios": "https://dc.lft.to/lastmile_qr_scan"}, "fusion_lon": 0.0, "lat": 38.94392833333333, "bike_id": "1827949cfbdf9447f1c074b372768496", "type": "electric_scooter", "is_reserved": 0, "lon": -77.0950555}, {"fusion_lat": 0.0, "name": "1d605fdcd1215caa17258cfe58de204f", "is_disabled": 0, "rental_uris": {"android": "https://dc.lft.to/lastmile_qr_scan", "ios": "https://dc.lft.to/lastmile_qr_scan"}, "fusion_lon": 0.0, "lat": 38.92871516666666, "bike_id": "1d605fdcd1215caa17258cfe58de204f", "type": "electric_scooter", "is_reserved": 0, "lon": -77.03222116666667}, {"fusion_lat": 0.0, "name": "968be8d536d772ba74b30c8086bd70c9", "is_disabled": 0, "rental_uris": {"android": "https://dc.lft.to/lastmile_qr_scan", "ios": "https://dc.lft.to/lastmile_qr_scan"}, "fusion_lon": 0.0, "lat": 38.91744116666667, "bike_id": "968be8d536d772ba74b30c8086bd70c9", "type": "electric_scooter", "is_reserved": 0, "lon": -77.006669}, {"fusion_lat": 0.0, "name": "e8b2f1352c1881a63f796e7e68b83e2f", "is_disabled": 0, "rental_uris": {"android": "https://dc.lft.to/lastmile_qr_scan", "ios": "https://dc.lft.to/lastmile_qr_scan"}, "fusion_lon": 0.0, "lat": 38.912063333333336, "bike_id": "e8b2f1352c1881a63f796e7e68b83e2f", "type": "electric_scooter", "is_reserved": 0, "lon": -77.03658383333334}, {"fusion_lat": 0.0, "name": "5e8651d73ba5a890d97f17b3b0e1ea6d", "is_disabled": 0, "rental_uris": {"android": "https://dc.lft.to/lastmile_qr_scan", "ios": "https://dc.lft.to/lastmile_qr_scan"}, "fusion_lon": 0.0, "lat": 38.91424466666667, "bike_id": "5e8651d73ba5a890d97f17b3b0e1ea6d", "type": "electric_scooter", "is_reserved": 0, "lon": -77.0320925}, {"fusion_lat": 0.0, "name": "7e265b2a40a2a154a632f8e86f403ee4", "is_disabled": 0, "rental_uris": {"android": "https://dc.lft.to/lastmile_qr_scan", "ios": "https://dc.lft.to/lastmile_qr_scan"}, "fusion_lon": 0.0, "lat": 38.88694683333333, "bike_id": "7e265b2a40a2a154a632f8e86f403ee4", "type": "electric_scooter", "is_reserved": 0, "lon": -77.03173516666666}, {"fusion_lat": 0.0, "name": "796ab875c134597a585820d8c8816e66", "is_disabled": 0, "rental_uris": {"android": "https://dc.lft.to/lastmile_qr_scan", "ios": "https://dc.lft.to/lastmile_qr_scan"}, "fusion_lon": 0.0, "lat": 38.895451333333334, "bike_id": "796ab875c134597a585820d8c8816e66", "type": "electric_scooter", "is_reserved": 0, "lon": -77.01091316666667}, {"fusion_lat": 0.0, "name": "30583e620d0d34fb0bc9685f45b729a6", "is_disabled": 0, "rental_uris": {"android": "https://dc.lft.to/lastmile_qr_scan", "ios": "https://dc.lft.to/lastmile_qr_scan"}, "fusion_lon": 0.0, "lat": 38.919656, "bike_id": "30583e620d0d34fb0bc9685f45b729a6", "type": "electric_scooter", "is_reserved": 0, "lon": -77.02271616666667}, {"fusion_lat": 0.0, "name": "65050c487ee90738287ab7ef9433b811", "is_disabled": 0, "rental_uris": {"android": "https://dc.lft.to/lastmile_qr_scan", "ios": "https://dc.lft.to/lastmile_qr_scan"}, "fusion_lon": 0.0, "lat": 38.90777833333333, "bike_id": "65050c487ee90738287ab7ef9433b811", "type": "electric_scooter", "is_reserved": 0, "lon": -77.07171866666667}, {"fusion_lat": 0.0, "name": "aab4bd8ff8bd0eee919bc9afd5cc43f7", "is_disabled": 0, "rental_uris": {"android": "https://dc.lft.to/lastmile_qr_scan", "ios": "https://dc.lft.to/lastmile_qr_scan"}, "fusion_lon": 0.0, "lat": 38.83600666666667, "bike_id": "aab4bd8ff8bd0eee919bc9afd5cc43f7", "type": "electric_bike", "is_reserved": 0, "lon": -77.00377433333334}, {"fusion_lat": 0.0, "name": "4f794e843b676361d6eca627c5cc9c19", "is_disabled": 0, "rental_uris": {"android": "https://dc.lft.to/lastmile_qr_scan", "ios": "https://dc.lft.to/lastmile_qr_scan"}, "fusion_lon": 0.0, "lat": 38.902762833333334, "bike_id": "4f794e843b676361d6eca627c5cc9c19", "type": "electric_scooter", "is_reserved": 0, "lon": -77.01675616666667}, {"fusion_lat": 0.0, "name": "cc4585130f3e4b4c71890c9e6d6d9e59", "is_disabled": 0, "rental_uris": {"android": "https://dc.lft.to/lastmile_qr_scan", "ios": "https://dc.lft.to/lastmile_qr_scan"}, "fusion_lon": 0.0, "lat": 38.907997, "bike_id": "cc4585130f3e4b4c71890c9e6d6d9e59", "type": "electric_scooter", "is_reserved": 0, "lon": -77.0433215}, {"fusion_lat": 0.0, "name": "eed94ee28a73df74a35ed011f967ae0b", "is_disabled": 0, "rental_uris": {"android": "https://dc.lft.to/lastmile_qr_scan", "ios": "https://dc.lft.to/lastmile_qr_scan"}, "fusion_lon": 0.0, "lat": 38.916488333333334, "bike_id": "eed94ee28a73df74a35ed011f967ae0b", "type": "electric_scooter", "is_reserved": 0, "lon": -77.02273666666666}, {"fusion_lat": 0.0, "name": "80f1e21a59ba22e89b64d623b7908a99", "is_disabled": 0, "rental_uris": {"android": "https://dc.lft.to/lastmile_qr_scan", "ios": "https://dc.lft.to/lastmile_qr_scan"}, "fusion_lon": 0.0, "lat": 38.88798533333333, "bike_id": "80f1e21a59ba22e89b64d623b7908a99", "type": "electric_bike", "is_reserved": 0, "lon": -76.929942}, {"fusion_lat": 0.0, "name": "88e07356f6460cc6242126512c008f07", "is_disabled": 0, "rental_uris": {"android": "https://dc.lft.to/lastmile_qr_scan", "ios": "https://dc.lft.to/lastmile_qr_scan"}, "fusion_lon": 0.0, "lat": 38.91687833333334, "bike_id": "88e07356f6460cc6242126512c008f07", "type": "electric_scooter", "is_reserved": 0, "lon": -77.0374995}, {"fusion_lat": 0.0, "name": "99f6fed6eb443cde28b22bbf28a07732", "is_disabled": 0, "rental_uris": {"android": "https://dc.lft.to/lastmile_qr_scan", "ios": "https://dc.lft.to/lastmile_qr_scan"}, "fusion_lon": 0.0, "lat": 38.91337516666667, "bike_id": "99f6fed6eb443cde28b22bbf28a07732", "type": "electric_scooter", "is_reserved": 0, "lon": -77.03984183333333}, {"fusion_lat": 0.0, "name": "f15cc48852b6ddf28ef74e5fb79832a9", "is_disabled": 0, "rental_uris": {"android": "https://dc.lft.to/lastmile_qr_scan", "ios": "https://dc.lft.to/lastmile_qr_scan"}, "fusion_lon": 0.0, "lat": 38.85702083333334, "bike_id": "f15cc48852b6ddf28ef74e5fb79832a9", "type": "electric_scooter", "is_reserved": 0, "lon": -76.99590416666666}, {"fusion_lat": 0.0, "name": "273ca9db1345ea496cf5da27c36e7e14", "is_disabled": 0, "rental_uris": {"android": "https://dc.lft.to/lastmile_qr_scan", "ios": "https://dc.lft.to/lastmile_qr_scan"}, "fusion_lon": 0.0, "lat": 38.9017815, "bike_id": "273ca9db1345ea496cf5da27c36e7e14", "type": "electric_scooter", "is_reserved": 0, "lon": -77.04624666666666}, {"fusion_lat": 0.0, "name": "a606038515c1d2ec54e1b5b579595986", "is_disabled": 0, "rental_uris": {"android": "https://dc.lft.to/lastmile_qr_scan", "ios": "https://dc.lft.to/lastmile_qr_scan"}, "fusion_lon": 0.0, "lat": 38.898898, "bike_id": "a606038515c1d2ec54e1b5b579595986", "type": "electric_scooter", "is_reserved": 0, "lon": -77.0151605}, {"fusion_lat": 0.0, "name": "2929e6fe56d1c2966a3b4124887067b9", "is_disabled": 0, "rental_uris": {"android": "https://dc.lft.to/lastmile_qr_scan", "ios": "https://dc.lft.to/lastmile_qr_scan"}, "fusion_lon": 0.0, "lat": 38.905379, "bike_id": "2929e6fe56d1c2966a3b4124887067b9", "type": "electric_scooter", "is_reserved": 0, "lon": -77.05619866666666}, {"fusion_lat": 0.0, "name": "a7e04f8ec1eecbb66cb4eac6a1c0ac81", "is_disabled": 0, "rental_uris": {"android": "https://dc.lft.to/lastmile_qr_scan", "ios": "https://dc.lft.to/lastmile_qr_scan"}, "fusion_lon": 0.0, "lat": 38.87945216666667, "bike_id": "a7e04f8ec1eecbb66cb4eac6a1c0ac81", "type": "electric_bike", "is_reserved": 0, "lon": -77.0101355}, {"fusion_lat": 0.0, "name": "dc636893026bcaca3c13d2116d5e692b", "is_disabled": 0, "rental_uris": {"android": "https://dc.lft.to/lastmile_qr_scan", "ios": "https://dc.lft.to/lastmile_qr_scan"}, "fusion_lon": 0.0, "lat": 38.911986666666664, "bike_id": "dc636893026bcaca3c13d2116d5e692b", "type": "electric_scooter", "is_reserved": 0, "lon": -77.04542116666667}, {"fusion_lat": 0.0, "name": "3b60cf4723dcbe6fe83b1ba99afa597d", "is_disabled": 0, "rental_uris": {"android": "https://dc.lft.to/lastmile_qr_scan", "ios": "https://dc.lft.to/lastmile_qr_scan"}, "fusion_lon": 0.0, "lat": 38.921142333333336, "bike_id": "3b60cf4723dcbe6fe83b1ba99afa597d", "type": "electric_scooter", "is_reserved": 0, "lon": -77.04199916666667}, {"fusion_lat": 0.0, "name": "147b40e1232732d9982dacfdf1957c98", "is_disabled": 0, "rental_uris": {"android": "https://dc.lft.to/lastmile_qr_scan", "ios": "https://dc.lft.to/lastmile_qr_scan"}, "fusion_lon": 0.0, "lat": 38.922615666666665, "bike_id": "147b40e1232732d9982dacfdf1957c98", "type": "electric_scooter", "is_reserved": 0, "lon": -77.07482816666666}, {"fusion_lat": 0.0, "name": "6757187c4786dbf7932715a381f1a1ad", "is_disabled": 0, "rental_uris": {"android": "https://dc.lft.to/lastmile_qr_scan", "ios": "https://dc.lft.to/lastmile_qr_scan"}, "fusion_lon": 0.0, "lat": 38.866249333333336, "bike_id": "6757187c4786dbf7932715a381f1a1ad", "type": "electric_bike", "is_reserved": 0, "lon": -76.94574233333333}, {"fusion_lat": 0.0, "name": "fd8ecb090ebdd6c909058c8bbfee44ee", "is_disabled": 0, "rental_uris": {"android": "https://dc.lft.to/lastmile_qr_scan", "ios": "https://dc.lft.to/lastmile_qr_scan"}, "fusion_lon": 0.0, "lat": 38.932591333333335, "bike_id": "fd8ecb090ebdd6c909058c8bbfee44ee", "type": "electric_scooter", "is_reserved": 0, "lon": -77.04005133333334}, {"fusion_lat": 0.0, "name": "22d7dabfbae77c965412919ffb0d9cf6", "is_disabled": 0, "rental_uris": {"android": "https://dc.lft.to/lastmile_qr_scan", "ios": "https://dc.lft.to/lastmile_qr_scan"}, "fusion_lon": 0.0, "lat": 38.92964083333333, "bike_id": "22d7dabfbae77c965412919ffb0d9cf6", "type": "electric_scooter", "is_reserved": 0, "lon": -77.03186183333334}, {"fusion_lat": 0.0, "name": "a6b263aef47c601c5543d19c0d5d9152", "is_disabled": 0, "rental_uris": {"android": "https://dc.lft.to/lastmile_qr_scan", "ios": "https://dc.lft.to/lastmile_qr_scan"}, "fusion_lon": 0.0, "lat": 38.929045333333335, "bike_id": "a6b263aef47c601c5543d19c0d5d9152", "type": "electric_scooter", "is_reserved": 0, "lon": -77.0376005}, {"fusion_lat": 0.0, "name": "74fcf272a0be8458aa02e5ab4dba94c6", "is_disabled": 0, "rental_uris": {"android": "https://dc.lft.to/lastmile_qr_scan", "ios": "https://dc.lft.to/lastmile_qr_scan"}, "fusion_lon": 0.0, "lat": 38.93519966666667, "bike_id": "74fcf272a0be8458aa02e5ab4dba94c6", "type": "electric_scooter", "is_reserved": 0, "lon": -77.03086116666667}, {"fusion_lat": 0.0, "name": "8f5f6f47a630e7e403ab6b25c36a657d", "is_disabled": 0, "rental_uris": {"android": "https://dc.lft.to/lastmile_qr_scan", "ios": "https://dc.lft.to/lastmile_qr_scan"}, "fusion_lon": 0.0, "lat": 38.907736, "bike_id": "8f5f6f47a630e7e403ab6b25c36a657d", "type": "electric_scooter", "is_reserved": 0, "lon": -77.03462766666667}, {"fusion_lat": 0.0, "name": "230dbde7548858c4455d1f7574209bcc", "is_disabled": 0, "rental_uris": {"android": "https://dc.lft.to/lastmile_qr_scan", "ios": "https://dc.lft.to/lastmile_qr_scan"}, "fusion_lon": 0.0, "lat": 38.92278783333333, "bike_id": "230dbde7548858c4455d1f7574209bcc", "type": "electric_scooter", "is_reserved": 0, "lon": -77.0423865}, {"fusion_lat": 0.0, "name": "c0ffbe85e3ef1c0185c0933e6731bf22", "is_disabled": 0, "rental_uris": {"android": "https://dc.lft.to/lastmile_qr_scan", "ios": "https://dc.lft.to/lastmile_qr_scan"}, "fusion_lon": 0.0, "lat": 38.907241, "bike_id": "c0ffbe85e3ef1c0185c0933e6731bf22", "type": "electric_scooter", "is_reserved": 0, "lon": -77.02430133333333}, {"fusion_lat": 0.0, "name": "688a3fa8f970ea74868449b8720ba53f", "is_disabled": 0, "rental_uris": {"android": "https://dc.lft.to/lastmile_qr_scan", "ios": "https://dc.lft.to/lastmile_qr_scan"}, "fusion_lon": 0.0, "lat": 38.9141305, "bike_id": "688a3fa8f970ea74868449b8720ba53f", "type": "electric_scooter", "is_reserved": 0, "lon": -77.03439316666666}, {"fusion_lat": 0.0, "name": "78b31cd08dcec11cc6f8db54c4d906cb", "is_disabled": 0, "rental_uris": {"android": "https://dc.lft.to/lastmile_qr_scan", "ios": "https://dc.lft.to/lastmile_qr_scan"}, "fusion_lon": 0.0, "lat": 38.9798055, "bike_id": "78b31cd08dcec11cc6f8db54c4d906cb", "type": "electric_scooter", "is_reserved": 0, "lon": -77.02634866666666}, {"fusion_lat": 0.0, "name": "a8f0fefa604295fb0e87343417a4dafc", "is_disabled": 0, "rental_uris": {"android": "https://dc.lft.to/lastmile_qr_scan", "ios": "https://dc.lft.to/lastmile_qr_scan"}, "fusion_lon": 0.0, "lat": 38.894725666666666, "bike_id": "a8f0fefa604295fb0e87343417a4dafc", "type": "electric_scooter", "is_reserved": 0, "lon": -77.010302}, {"fusion_lat": 0.0, "name": "b9a74a4951e7cae6e8ac315919a773b4", "is_disabled": 0, "rental_uris": {"android": "https://dc.lft.to/lastmile_qr_scan", "ios": "https://dc.lft.to/lastmile_qr_scan"}, "fusion_lon": 0.0, "lat": 38.8984195, "bike_id": "b9a74a4951e7cae6e8ac315919a773b4", "type": "electric_scooter", "is_reserved": 0, "lon": -77.04069416666667}, {"fusion_lat": 0.0, "name": "f5c901db7454648a10d01b296e79f5d7", "is_disabled": 0, "rental_uris": {"android": "https://dc.lft.to/lastmile_qr_scan", "ios": "https://dc.lft.to/lastmile_qr_scan"}, "fusion_lon": 0.0, "lat": 38.93380233333333, "bike_id": "f5c901db7454648a10d01b296e79f5d7", "type": "electric_scooter", "is_reserved": 0, "lon": -77.03895866666667}, {"fusion_lat": 0.0, "name": "09fdf3d9993aee1bc83a53aba6d75730", "is_disabled": 0, "rental_uris": {"android": "https://dc.lft.to/lastmile_qr_scan", "ios": "https://dc.lft.to/lastmile_qr_scan"}, "fusion_lon": 0.0, "lat": 38.90237666666667, "bike_id": "09fdf3d9993aee1bc83a53aba6d75730", "type": "electric_scooter", "is_reserved": 0, "lon": -77.0534515}, {"fusion_lat": 0.0, "name": "f7f232c51fefb77c348c1e279cac8bbd", "is_disabled": 0, "rental_uris": {"android": "https://dc.lft.to/lastmile_qr_scan", "ios": "https://dc.lft.to/lastmile_qr_scan"}, "fusion_lon": 0.0, "lat": 38.91964766666667, "bike_id": "f7f232c51fefb77c348c1e279cac8bbd", "type": "electric_scooter", "is_reserved": 0, "lon": -77.03193216666666}, {"fusion_lat": 0.0, "name": "da5d82002cb0c11e9333228f44345aa5", "is_disabled": 0, "rental_uris": {"android": "https://dc.lft.to/lastmile_qr_scan", "ios": "https://dc.lft.to/lastmile_qr_scan"}, "fusion_lon": 0.0, "lat": 38.9002185, "bike_id": "da5d82002cb0c11e9333228f44345aa5", "type": "electric_scooter", "is_reserved": 0, "lon": -76.98860416666666}, {"fusion_lat": 0.0, "name": "89f8c318b7f31f46fc27f955dd732234", "is_disabled": 0, "rental_uris": {"android": "https://dc.lft.to/lastmile_qr_scan", "ios": "https://dc.lft.to/lastmile_qr_scan"}, "fusion_lon": 0.0, "lat": 38.92084833333333, "bike_id": "89f8c318b7f31f46fc27f955dd732234", "type": "electric_scooter", "is_reserved": 0, "lon": -77.00448366666667}, {"fusion_lat": 0.0, "name": "68cda4d6ee970b5978228e20334a23d6", "is_disabled": 0, "rental_uris": {"android": "https://dc.lft.to/lastmile_qr_scan", "ios": "https://dc.lft.to/lastmile_qr_scan"}, "fusion_lon": 0.0, "lat": 38.8820135, "bike_id": "68cda4d6ee970b5978228e20334a23d6", "type": "electric_scooter", "is_reserved": 0, "lon": -77.00054716666666}, {"fusion_lat": 0.0, "name": "e51f05e126ac1db6d68f5e6c6191ddf1", "is_disabled": 0, "rental_uris": {"android": "https://dc.lft.to/lastmile_qr_scan", "ios": "https://dc.lft.to/lastmile_qr_scan"}, "fusion_lon": 0.0, "lat": 38.973758333333336, "bike_id": "e51f05e126ac1db6d68f5e6c6191ddf1", "type": "electric_scooter", "is_reserved": 0, "lon": -77.01852083333333}, {"fusion_lat": 0.0, "name": "13270729d5c0d580db11721192523811", "is_disabled": 0, "rental_uris": {"android": "https://dc.lft.to/lastmile_qr_scan", "ios": "https://dc.lft.to/lastmile_qr_scan"}, "fusion_lon": 0.0, "lat": 38.881175999999996, "bike_id": "13270729d5c0d580db11721192523811", "type": "electric_scooter", "is_reserved": 0, "lon": -77.01631366666666}, {"fusion_lat": 0.0, "name": "7ccd54a3865f481aff848099f6ac6bc9", "is_disabled": 0, "rental_uris": {"android": "https://dc.lft.to/lastmile_qr_scan", "ios": "https://dc.lft.to/lastmile_qr_scan"}, "fusion_lon": 0.0, "lat": 38.8831125, "bike_id": "7ccd54a3865f481aff848099f6ac6bc9", "type": "electric_scooter", "is_reserved": 0, "lon": -76.99483566666666}, {"fusion_lat": 0.0, "name": "b99bef5348b399d36f3e8787710eb99f", "is_disabled": 0, "rental_uris": {"android": "https://dc.lft.to/lastmile_qr_scan", "ios": "https://dc.lft.to/lastmile_qr_scan"}, "fusion_lon": 0.0, "lat": 38.92872466666667, "bike_id": "b99bef5348b399d36f3e8787710eb99f", "type": "electric_scooter", "is_reserved": 0, "lon": -77.032836}, {"fusion_lat": 0.0, "name": "63f705a5efc157261eb5c8dc863d9aad", "is_disabled": 0, "rental_uris": {"android": "https://dc.lft.to/lastmile_qr_scan", "ios": "https://dc.lft.to/lastmile_qr_scan"}, "fusion_lon": 0.0, "lat": 38.926011833333334, "bike_id": "63f705a5efc157261eb5c8dc863d9aad", "type": "electric_scooter", "is_reserved": 0, "lon": -77.021538}, {"fusion_lat": 0.0, "name": "c2e4f13dc9f794447ff7628515be1683", "is_disabled": 0, "rental_uris": {"android": "https://dc.lft.to/lastmile_qr_scan", "ios": "https://dc.lft.to/lastmile_qr_scan"}, "fusion_lon": 0.0, "lat": 38.909953333333334, "bike_id": "c2e4f13dc9f794447ff7628515be1683", "type": "electric_scooter", "is_reserved": 0, "lon": -77.03443}, {"fusion_lat": 0.0, "name": "ea776907c0477b1a4d62ebfb37d565ca", "is_disabled": 0, "rental_uris": {"android": "https://dc.lft.to/lastmile_qr_scan", "ios": "https://dc.lft.to/lastmile_qr_scan"}, "fusion_lon": 0.0, "lat": 38.93085116666666, "bike_id": "ea776907c0477b1a4d62ebfb37d565ca", "type": "electric_scooter", "is_reserved": 0, "lon": -77.03265666666667}, {"fusion_lat": 0.0, "name": "41c0c25581c3e2238821d9856d4b7abd", "is_disabled": 0, "rental_uris": {"android": "https://dc.lft.to/lastmile_qr_scan", "ios": "https://dc.lft.to/lastmile_qr_scan"}, "fusion_lon": 0.0, "lat": 38.919821166666665, "bike_id": "41c0c25581c3e2238821d9856d4b7abd", "type": "electric_scooter", "is_reserved": 0, "lon": -77.03328316666666}, {"fusion_lat": 0.0, "name": "f2445ac90cd456c8935c8bcc0e067c6c", "is_disabled": 0, "rental_uris": {"android": "https://dc.lft.to/lastmile_qr_scan", "ios": "https://dc.lft.to/lastmile_qr_scan"}, "fusion_lon": 0.0, "lat": 38.95569833333333, "bike_id": "f2445ac90cd456c8935c8bcc0e067c6c", "type": "electric_bike", "is_reserved": 0, "lon": -77.0100715}, {"fusion_lat": 0.0, "name": "04ab5fa65a6aad11cd09370ecafa1842", "is_disabled": 0, "rental_uris": {"android": "https://dc.lft.to/lastmile_qr_scan", "ios": "https://dc.lft.to/lastmile_qr_scan"}, "fusion_lon": 0.0, "lat": 38.958785166666665, "bike_id": "04ab5fa65a6aad11cd09370ecafa1842", "type": "electric_bike", "is_reserved": 0, "lon": -76.97052616666667}, {"fusion_lat": 0.0, "name": "4713e63c5afcdd648dc73228ea23c2ce", "is_disabled": 0, "rental_uris": {"android": "https://dc.lft.to/lastmile_qr_scan", "ios": "https://dc.lft.to/lastmile_qr_scan"}, "fusion_lon": 0.0, "lat": 38.95635466666667, "bike_id": "4713e63c5afcdd648dc73228ea23c2ce", "type": "electric_scooter", "is_reserved": 0, "lon": -77.03303033333333}, {"fusion_lat": 0.0, "name": "bbafddd1e4b54615dd8cbc5225fed9d6", "is_disabled": 0, "rental_uris": {"android": "https://dc.lft.to/lastmile_qr_scan", "ios": "https://dc.lft.to/lastmile_qr_scan"}, "fusion_lon": 0.0, "lat": 38.92188, "bike_id": "bbafddd1e4b54615dd8cbc5225fed9d6", "type": "electric_scooter", "is_reserved": 0, "lon": -77.04348283333333}, {"fusion_lat": 0.0, "name": "481b25aeb70475518c274b80fc4564dc", "is_disabled": 0, "rental_uris": {"android": "https://dc.lft.to/lastmile_qr_scan", "ios": "https://dc.lft.to/lastmile_qr_scan"}, "fusion_lon": 0.0, "lat": 38.90377433333333, "bike_id": "481b25aeb70475518c274b80fc4564dc", "type": "electric_scooter", "is_reserved": 0, "lon": -77.05026033333333}, {"fusion_lat": 0.0, "name": "69fa1f8847fa3c5d38e37cdd61f33145", "is_disabled": 0, "rental_uris": {"android": "https://dc.lft.to/lastmile_qr_scan", "ios": "https://dc.lft.to/lastmile_qr_scan"}, "fusion_lon": 0.0, "lat": 38.930647666666665, "bike_id": "69fa1f8847fa3c5d38e37cdd61f33145", "type": "electric_scooter", "is_reserved": 0, "lon": -77.03941766666667}, {"fusion_lat": 0.0, "name": "3b4163272286b5fdfd9ec1220c771852", "is_disabled": 0, "rental_uris": {"android": "https://dc.lft.to/lastmile_qr_scan", "ios": "https://dc.lft.to/lastmile_qr_scan"}, "fusion_lon": 0.0, "lat": 38.927923, "bike_id": "3b4163272286b5fdfd9ec1220c771852", "type": "electric_scooter", "is_reserved": 0, "lon": -76.9556135}, {"fusion_lat": 0.0, "name": "fb2a9d0b3b9ee4b0f9661c48a9d46ff8", "is_disabled": 0, "rental_uris": {"android": "https://dc.lft.to/lastmile_qr_scan", "ios": "https://dc.lft.to/lastmile_qr_scan"}, "fusion_lon": 0.0, "lat": 38.91614583333333, "bike_id": "fb2a9d0b3b9ee4b0f9661c48a9d46ff8", "type": "electric_scooter", "is_reserved": 0, "lon": -77.031865}, {"fusion_lat": 0.0, "name": "60e65b6893da40f658a1d25f70881037", "is_disabled": 0, "rental_uris": {"android": "https://dc.lft.to/lastmile_qr_scan", "ios": "https://dc.lft.to/lastmile_qr_scan"}, "fusion_lon": 0.0, "lat": 38.92405183333333, "bike_id": "60e65b6893da40f658a1d25f70881037", "type": "electric_scooter", "is_reserved": 0, "lon": -77.04276966666667}, {"fusion_lat": 0.0, "name": "f7308f757c9fd71f53b298ab4c9cfbac", "is_disabled": 0, "rental_uris": {"android": "https://dc.lft.to/lastmile_qr_scan", "ios": "https://dc.lft.to/lastmile_qr_scan"}, "fusion_lon": 0.0, "lat": 38.92602866666667, "bike_id": "f7308f757c9fd71f53b298ab4c9cfbac", "type": "electric_scooter", "is_reserved": 0, "lon": -77.02154033333333}, {"fusion_lat": 0.0, "name": "d2aaa7202ad6c722745303f16c403af3", "is_disabled": 0, "rental_uris": {"android": "https://dc.lft.to/lastmile_qr_scan", "ios": "https://dc.lft.to/lastmile_qr_scan"}, "fusion_lon": 0.0, "lat": 38.917646166666664, "bike_id": "d2aaa7202ad6c722745303f16c403af3", "type": "electric_scooter", "is_reserved": 0, "lon": -77.03637283333333}, {"fusion_lat": 0.0, "name": "0bbcf544f33555eb356b03198661aac6", "is_disabled": 0, "rental_uris": {"android": "https://dc.lft.to/lastmile_qr_scan", "ios": "https://dc.lft.to/lastmile_qr_scan"}, "fusion_lon": 0.0, "lat": 38.904872, "bike_id": "0bbcf544f33555eb356b03198661aac6", "type": "electric_scooter", "is_reserved": 0, "lon": -76.949594}, {"fusion_lat": 0.0, "name": "6ebc5a01eae448bf237b5c668ca5ae9a", "is_disabled": 0, "rental_uris": {"android": "https://dc.lft.to/lastmile_qr_scan", "ios": "https://dc.lft.to/lastmile_qr_scan"}, "fusion_lon": 0.0, "lat": 38.90766433333334, "bike_id": "6ebc5a01eae448bf237b5c668ca5ae9a", "type": "electric_scooter", "is_reserved": 0, "lon": -77.06231983333333}, {"fusion_lat": 0.0, "name": "65b6d027f6e2799491db9cafa3b145ce", "is_disabled": 0, "rental_uris": {"android": "https://dc.lft.to/lastmile_qr_scan", "ios": "https://dc.lft.to/lastmile_qr_scan"}, "fusion_lon": 0.0, "lat": 38.9491845, "bike_id": "65b6d027f6e2799491db9cafa3b145ce", "type": "electric_scooter", "is_reserved": 0, "lon": -77.01856}, {"fusion_lat": 0.0, "name": "3a4e09cb0a03b2aaaec8d9e90ec54dac", "is_disabled": 0, "rental_uris": {"android": "https://dc.lft.to/lastmile_qr_scan", "ios": "https://dc.lft.to/lastmile_qr_scan"}, "fusion_lon": 0.0, "lat": 38.929392166666666, "bike_id": "3a4e09cb0a03b2aaaec8d9e90ec54dac", "type": "electric_scooter", "is_reserved": 0, "lon": -77.032239}, {"fusion_lat": 0.0, "name": "a8d69a501f982db08686a0e7fd1e514b", "is_disabled": 0, "rental_uris": {"android": "https://dc.lft.to/lastmile_qr_scan", "ios": "https://dc.lft.to/lastmile_qr_scan"}, "fusion_lon": 0.0, "lat": 38.927700333333334, "bike_id": "a8d69a501f982db08686a0e7fd1e514b", "type": "electric_scooter", "is_reserved": 0, "lon": -77.03633733333334}, {"fusion_lat": 0.0, "name": "c640301e400f4488ac44fb723730c84e", "is_disabled": 0, "rental_uris": {"android": "https://dc.lft.to/lastmile_qr_scan", "ios": "https://dc.lft.to/lastmile_qr_scan"}, "fusion_lon": 0.0, "lat": 38.9027035, "bike_id": "c640301e400f4488ac44fb723730c84e", "type": "electric_scooter", "is_reserved": 0, "lon": -77.03957283333334}, {"fusion_lat": 0.0, "name": "a32fce61cffac37e0ac58856009e67d2", "is_disabled": 0, "rental_uris": {"android": "https://dc.lft.to/lastmile_qr_scan", "ios": "https://dc.lft.to/lastmile_qr_scan"}, "fusion_lon": 0.0, "lat": 38.84833033333334, "bike_id": "a32fce61cffac37e0ac58856009e67d2", "type": "electric_bike", "is_reserved": 0, "lon": -77.07919016666666}, {"fusion_lat": 0.0, "name": "5d2928e7c3f9f31bdf0585213eaefb2b", "is_disabled": 0, "rental_uris": {"android": "https://dc.lft.to/lastmile_qr_scan", "ios": "https://dc.lft.to/lastmile_qr_scan"}, "fusion_lon": 0.0, "lat": 38.9053315, "bike_id": "5d2928e7c3f9f31bdf0585213eaefb2b", "type": "electric_scooter", "is_reserved": 0, "lon": -77.05678716666667}, {"fusion_lat": 0.0, "name": "9a8360748a08cbbc3b8b0ce41a6323c3", "is_disabled": 0, "rental_uris": {"android": "https://dc.lft.to/lastmile_qr_scan", "ios": "https://dc.lft.to/lastmile_qr_scan"}, "fusion_lon": 0.0, "lat": 38.937063333333334, "bike_id": "9a8360748a08cbbc3b8b0ce41a6323c3", "type": "electric_scooter", "is_reserved": 0, "lon": -77.06104133333334}, {"fusion_lat": 0.0, "name": "fb8021cb3d5486b689081efbc4d83748", "is_disabled": 0, "rental_uris": {"android": "https://dc.lft.to/lastmile_qr_scan", "ios": "https://dc.lft.to/lastmile_qr_scan"}, "fusion_lon": 0.0, "lat": 38.90772116666667, "bike_id": "fb8021cb3d5486b689081efbc4d83748", "type": "electric_scooter", "is_reserved": 0, "lon": -77.03467433333333}, {"fusion_lat": 0.0, "name": "ea49fbb860a286a28c06bf760e6985e9", "is_disabled": 0, "rental_uris": {"android": "https://dc.lft.to/lastmile_qr_scan", "ios": "https://dc.lft.to/lastmile_qr_scan"}, "fusion_lon": 0.0, "lat": 38.91974666666667, "bike_id": "ea49fbb860a286a28c06bf760e6985e9", "type": "electric_scooter", "is_reserved": 0, "lon": -77.07096733333333}, {"fusion_lat": 0.0, "name": "d33dae8462573bf073cdb50f332ca904", "is_disabled": 0, "rental_uris": {"android": "https://dc.lft.to/lastmile_qr_scan", "ios": "https://dc.lft.to/lastmile_qr_scan"}, "fusion_lon": 0.0, "lat": 38.90064, "bike_id": "d33dae8462573bf073cdb50f332ca904", "type": "electric_scooter", "is_reserved": 0, "lon": -76.93387183333333}, {"fusion_lat": 0.0, "name": "7be59bc33e11baf51566317ddbe66851", "is_disabled": 0, "rental_uris": {"android": "https://dc.lft.to/lastmile_qr_scan", "ios": "https://dc.lft.to/lastmile_qr_scan"}, "fusion_lon": 0.0, "lat": 38.9428435, "bike_id": "7be59bc33e11baf51566317ddbe66851", "type": "electric_scooter", "is_reserved": 0, "lon": -77.02002466666667}, {"fusion_lat": 0.0, "name": "794d127017715cc30ae0e98db3aacd8d", "is_disabled": 0, "rental_uris": {"android": "https://dc.lft.to/lastmile_qr_scan", "ios": "https://dc.lft.to/lastmile_qr_scan"}, "fusion_lon": 0.0, "lat": 38.903937666666664, "bike_id": "794d127017715cc30ae0e98db3aacd8d", "type": "electric_scooter", "is_reserved": 0, "lon": -77.06132983333333}, {"fusion_lat": 0.0, "name": "4b4bf9bb48e12ca831ba3f9990ba4d5e", "is_disabled": 0, "rental_uris": {"android": "https://dc.lft.to/lastmile_qr_scan", "ios": "https://dc.lft.to/lastmile_qr_scan"}, "fusion_lon": 0.0, "lat": 38.93752, "bike_id": "4b4bf9bb48e12ca831ba3f9990ba4d5e", "type": "electric_scooter", "is_reserved": 0, "lon": -77.0252545}, {"fusion_lat": 0.0, "name": "0f32c53ce07bacb02792187ae3344906", "is_disabled": 0, "rental_uris": {"android": "https://dc.lft.to/lastmile_qr_scan", "ios": "https://dc.lft.to/lastmile_qr_scan"}, "fusion_lon": 0.0, "lat": 38.8960705, "bike_id": "0f32c53ce07bacb02792187ae3344906", "type": "electric_scooter", "is_reserved": 0, "lon": -77.04974133333333}, {"fusion_lat": 0.0, "name": "b00b6d6bb53c33e0fb36384c2241b5b1", "is_disabled": 0, "rental_uris": {"android": "https://dc.lft.to/lastmile_qr_scan", "ios": "https://dc.lft.to/lastmile_qr_scan"}, "fusion_lon": 0.0, "lat": 38.9426515, "bike_id": "b00b6d6bb53c33e0fb36384c2241b5b1", "type": "electric_bike", "is_reserved": 0, "lon": -76.98514166666666}, {"fusion_lat": 0.0, "name": "0693b0d74fb6dc0a34f65b1ccb966804", "is_disabled": 0, "rental_uris": {"android": "https://dc.lft.to/lastmile_qr_scan", "ios": "https://dc.lft.to/lastmile_qr_scan"}, "fusion_lon": 0.0, "lat": 38.89828683333333, "bike_id": "0693b0d74fb6dc0a34f65b1ccb966804", "type": "electric_scooter", "is_reserved": 0, "lon": -77.02432433333334}, {"fusion_lat": 0.0, "name": "1935942fe11d8b5f50b874e8468ef2e8", "is_disabled": 0, "rental_uris": {"android": "https://dc.lft.to/lastmile_qr_scan", "ios": "https://dc.lft.to/lastmile_qr_scan"}, "fusion_lon": 0.0, "lat": 38.8956585, "bike_id": "1935942fe11d8b5f50b874e8468ef2e8", "type": "electric_bike", "is_reserved": 0, "lon": -77.12741233333334}, {"fusion_lat": 0.0, "name": "540e820f9855b9d288685e21fec955cc", "is_disabled": 0, "rental_uris": {"android": "https://dc.lft.to/lastmile_qr_scan", "ios": "https://dc.lft.to/lastmile_qr_scan"}, "fusion_lon": 0.0, "lat": 38.840540833333336, "bike_id": "540e820f9855b9d288685e21fec955cc", "type": "electric_scooter", "is_reserved": 0, "lon": -76.9766615}, {"fusion_lat": 0.0, "name": "1f5094f44614956abbdf8575c7554627", "is_disabled": 0, "rental_uris": {"android": "https://dc.lft.to/lastmile_qr_scan", "ios": "https://dc.lft.to/lastmile_qr_scan"}, "fusion_lon": 0.0, "lat": 38.8970215, "bike_id": "1f5094f44614956abbdf8575c7554627", "type": "electric_scooter", "is_reserved": 0, "lon": -77.02589}, {"fusion_lat": 0.0, "name": "d555faf253fae1d0178e0332a67b14eb", "is_disabled": 0, "rental_uris": {"android": "https://dc.lft.to/lastmile_qr_scan", "ios": "https://dc.lft.to/lastmile_qr_scan"}, "fusion_lon": 0.0, "lat": 38.92719366666667, "bike_id": "d555faf253fae1d0178e0332a67b14eb", "type": "electric_scooter", "is_reserved": 0, "lon": -77.02055116666666}, {"fusion_lat": 0.0, "name": "618242063c4ac4d0fe82c4b501c89ed3", "is_disabled": 0, "rental_uris": {"android": "https://dc.lft.to/lastmile_qr_scan", "ios": "https://dc.lft.to/lastmile_qr_scan"}, "fusion_lon": 0.0, "lat": 38.9497825, "bike_id": "618242063c4ac4d0fe82c4b501c89ed3", "type": "electric_scooter", "is_reserved": 0, "lon": -77.02701566666667}, {"fusion_lat": 0.0, "name": "957a8ecae0d0c32746fd10eeccb8dfe2", "is_disabled": 0, "rental_uris": {"android": "https://dc.lft.to/lastmile_qr_scan", "ios": "https://dc.lft.to/lastmile_qr_scan"}, "fusion_lon": 0.0, "lat": 38.86851733333334, "bike_id": "957a8ecae0d0c32746fd10eeccb8dfe2", "type": "electric_scooter", "is_reserved": 0, "lon": -76.9882875}, {"fusion_lat": 0.0, "name": "97767bf3d1f859e0d919664162214dd9", "is_disabled": 0, "rental_uris": {"android": "https://dc.lft.to/lastmile_qr_scan", "ios": "https://dc.lft.to/lastmile_qr_scan"}, "fusion_lon": 0.0, "lat": 38.94383916666666, "bike_id": "97767bf3d1f859e0d919664162214dd9", "type": "electric_scooter", "is_reserved": 0, "lon": -77.032151}, {"fusion_lat": 0.0, "name": "4340404ecc7550a7f3b5076b080399c7", "is_disabled": 0, "rental_uris": {"android": "https://dc.lft.to/lastmile_qr_scan", "ios": "https://dc.lft.to/lastmile_qr_scan"}, "fusion_lon": 0.0, "lat": 38.8874495, "bike_id": "4340404ecc7550a7f3b5076b080399c7", "type": "electric_scooter", "is_reserved": 0, "lon": -77.02177666666667}, {"fusion_lat": 0.0, "name": "46613e7a438e6bcb01c2756dd4d66fe2", "is_disabled": 0, "rental_uris": {"android": "https://dc.lft.to/lastmile_qr_scan", "ios": "https://dc.lft.to/lastmile_qr_scan"}, "fusion_lon": 0.0, "lat": 38.92540316666667, "bike_id": "46613e7a438e6bcb01c2756dd4d66fe2", "type": "electric_scooter", "is_reserved": 0, "lon": -77.0511695}, {"fusion_lat": 0.0, "name": "002272d89e38ad83ae0db8db90ebeb5c", "is_disabled": 0, "rental_uris": {"android": "https://dc.lft.to/lastmile_qr_scan", "ios": "https://dc.lft.to/lastmile_qr_scan"}, "fusion_lon": 0.0, "lat": 38.94130966666667, "bike_id": "002272d89e38ad83ae0db8db90ebeb5c", "type": "electric_bike", "is_reserved": 0, "lon": -77.0007115}, {"fusion_lat": 0.0, "name": "dbac5629df942046a9641624cf6e19d8", "is_disabled": 0, "rental_uris": {"android": "https://dc.lft.to/lastmile_qr_scan", "ios": "https://dc.lft.to/lastmile_qr_scan"}, "fusion_lon": 0.0, "lat": 38.88493366666667, "bike_id": "dbac5629df942046a9641624cf6e19d8", "type": "electric_scooter", "is_reserved": 0, "lon": -77.01729133333333}, {"fusion_lat": 0.0, "name": "504838e451d4b274dec62f6e37516bd7", "is_disabled": 0, "rental_uris": {"android": "https://dc.lft.to/lastmile_qr_scan", "ios": "https://dc.lft.to/lastmile_qr_scan"}, "fusion_lon": 0.0, "lat": 38.9166015, "bike_id": "504838e451d4b274dec62f6e37516bd7", "type": "electric_bike", "is_reserved": 0, "lon": -76.98227883333334}, {"fusion_lat": 0.0, "name": "a7f70ede1eb4d4d4d928a56db8dacb91", "is_disabled": 0, "rental_uris": {"android": "https://dc.lft.to/lastmile_qr_scan", "ios": "https://dc.lft.to/lastmile_qr_scan"}, "fusion_lon": 0.0, "lat": 38.95346216666667, "bike_id": "a7f70ede1eb4d4d4d928a56db8dacb91", "type": "electric_scooter", "is_reserved": 0, "lon": -77.07948083333333}, {"fusion_lat": 0.0, "name": "78ef7ffefed6f9fc4d48a230bdf93b36", "is_disabled": 0, "rental_uris": {"android": "https://dc.lft.to/lastmile_qr_scan", "ios": "https://dc.lft.to/lastmile_qr_scan"}, "fusion_lon": 0.0, "lat": 38.8951895, "bike_id": "78ef7ffefed6f9fc4d48a230bdf93b36", "type": "electric_scooter", "is_reserved": 0, "lon": -76.98082983333333}, {"fusion_lat": 0.0, "name": "6f9e592be3439bfc6a88035bbe13469a", "is_disabled": 0, "rental_uris": {"android": "https://dc.lft.to/lastmile_qr_scan", "ios": "https://dc.lft.to/lastmile_qr_scan"}, "fusion_lon": 0.0, "lat": 38.93058283333333, "bike_id": "6f9e592be3439bfc6a88035bbe13469a", "type": "electric_scooter", "is_reserved": 0, "lon": -77.03944866666667}, {"fusion_lat": 0.0, "name": "f8f44eb7956a1c8cf4e9ab334dc41134", "is_disabled": 0, "rental_uris": {"android": "https://dc.lft.to/lastmile_qr_scan", "ios": "https://dc.lft.to/lastmile_qr_scan"}, "fusion_lon": 0.0, "lat": 38.959110833333334, "bike_id": "f8f44eb7956a1c8cf4e9ab334dc41134", "type": "electric_scooter", "is_reserved": 0, "lon": -77.08493666666666}, {"fusion_lat": 0.0, "name": "45bf832a5219c9f09b4714e65cf1adbc", "is_disabled": 0, "rental_uris": {"android": "https://dc.lft.to/lastmile_qr_scan", "ios": "https://dc.lft.to/lastmile_qr_scan"}, "fusion_lon": 0.0, "lat": 38.87562783333333, "bike_id": "45bf832a5219c9f09b4714e65cf1adbc", "type": "electric_scooter", "is_reserved": 0, "lon": -77.00746183333334}, {"fusion_lat": 0.0, "name": "ae9bdb3b3d3487a5ad12e654030dfd51", "is_disabled": 0, "rental_uris": {"android": "https://dc.lft.to/lastmile_qr_scan", "ios": "https://dc.lft.to/lastmile_qr_scan"}, "fusion_lon": 0.0, "lat": 38.92477266666667, "bike_id": "ae9bdb3b3d3487a5ad12e654030dfd51", "type": "electric_scooter", "is_reserved": 0, "lon": -77.043398},