{"data": {"bikes": [{"fusion_lat": 0.0, "name": "05650db724cfc2f9165839eed09b45cf", "is_disabled": 0, "rental_uris": {"android": "https://dc.lft.to/lastmile_qr_scan", "ios": "https://dc.lft.to/lastmile_qr_scan"}, "fusion_lon": 0.0, "lat": 38.918470666666664, "bike_id": "05650db724cfc2f9165839eed09b45cf", "type": "electric_scooter", "is_reserved": 0, "lon": -76.9653805}, {"fusion_lat": 0.0, "name": "64f05d1e7f290515359a866540d3e6fe", "is_disabled": 0, "rental_uris": {"android": "https://dc.lft.to/lastmile_qr_scan", "ios": "https://dc.lft.to/lastmile_qr_scan"}, "fusion_lon": 0.0, "lat": 38.913532333333336, "bike_id": "64f05d1e7f290515359a866540d3e6fe", "type": "electric_scooter", "is_reserved": 0, "lon": -77.03333033333334}, {"fusion_lat": 0.0, "name": "4efe61e358020d6d98e7315d4a775d5b", "is_disabled": 0, "rental_uris": {"android": "https://dc.lft.to/lastmile_qr_scan", "ios": "https://dc.lft.to/lastmile_qr_scan"}, "fusion_lon": 0.0, "lat": 38.984722166666664, "bike_id": "4efe61e358020d6d98e7315d4a775d5b", "type": "electric_scooter", "is_reserved": 0, "lon": -77.0264525}, {"fusion_lat": 0.0, "name": "af7ee8e67327b99d419e161f4c17b068", "is_disabled": 0, "rental_uris": {"android": "https://dc.lft.to/lastmile_qr_scan", "ios": "https://dc.lft.to/lastmile_qr_scan"}, "fusion_lon": 0.0, "lat": 38.90155416666666, "bike_id": "af7ee8e67327b99d419e161f4c17b068", "type": "electric_scooter", "is_reserved": 0, "lon": -77.02584716666667}, {"fusion_lat": 0.0, "name": "12cfabe8727bcae7f3d12d51ed9d6949", "is_disabled": 0, "rental_uris": {"android": "https://dc.lft.to/lastmile_qr_scan", "ios": "https://dc.lft.to/lastmile_qr_scan"}, "fusion_lon": 0.0, "lat": 38.921374, "bike_id": "12cfabe8727bcae7f3d12d51ed9d6949", "type": "electric_scooter", "is_reserved": 0, "lon": -77.01797366666666}, {"fusion_lat": 0.0, "name": "44118fd745a85249861649cf90c16a25", "is_disabled": 0, "rental_uris": {"android": "https://dc.lft.to/lastmile_qr_scan", "ios": "https://dc.lft.to/lastmile_qr_scan"}, "fusion_lon": 0.0, "lat": 38.91656316666667, "bike_id": "44118fd745a85249861649cf90c16a25", "type": "electric_scooter", "is_reserved": 0, "lon": -77.0282025}, {"fusion_lat": 0.0, "name": "4721422f6a2d5601f487e3b01cfb9f5d", "is_disabled": 0, "rental_uris": {"android": "https://dc.lft.to/lastmile_qr_scan", "ios": "https://dc.lft.to/lastmile_qr_scan"}, "fusion_lon": 0.0, "lat": 38.92651983333333, "bike_id": "4721422f6a2d5601f487e3b01cfb9f5d", "type": "electric_scooter", "is_reserved": 0, "lon": -77.03714583333333}, {"fusion_lat": 0.0, "name": "379bdccbfcabbebeb3e2baedea5bf3a5", "is_disabled": 0, "rental_uris": {"android": "https://dc.lft.to/lastmile_qr_scan", "ios": "https://dc.lft.to/lastmile_qr_scan"}, "fusion_lon": 0.0, "lat": 38.88763933333333, "bike_id": "379bdccbfcabbebeb3e2baedea5bf3a5", "type": "electric_scooter", "is_reserved": 0, "lon": -76.99468166666666}, {"fusion_lat": 0.0, "name": "3eb255b5436221dc22739cd2a467839a", "is_disabled": 0, "rental_uris": {"android": "https://dc.lft.to/lastmile_qr_scan", "ios": "https://dc.lft.to/lastmile_qr_scan"}, "fusion_lon": 0.0, "lat": 38.921696833333336, "bike_id": "3eb255b5436221dc22739cd2a467839a", "type": "electric_scooter", "is_reserved": 0, "lon": -77.03649116666666}, {"fusion_lat": 0.0, "name": "07e7f382d23ac1658a7b0571176e0240", "is_disabled": 0, "rental_uris": {"android": "https://dc.lft.to/lastmile_qr_scan", "ios": "https://dc.lft.to/lastmile_qr_scan"}, "fusion_lon": 0.0, "lat": 38.92474416666667, "bike_id": "07e7f382d23ac1658a7b0571176e0240", "type": "electric_scooter", "is_reserved": 0, "lon": -77.02829983333334}, {"fusion_lat": 0.0, "name": "9a8a1922befeb0e9938af50902ea00d6", "is_disabled": 0, "rental_uris": {"android": "https://dc.lft.to/lastmile_qr_scan", "ios": "https://dc.lft.to/lastmile_qr_scan"}, "fusion_lon": 0.0, "lat": 38.937036, "bike_id": "9a8a1922befeb0e9938af50902ea00d6", "type": "electric_scooter", "is_reserved": 0, "lon": -77.02408683333333}, {"fusion_lat": 0.0, "name": "0b02b46eabd83693ced5b077fbeeac11", "is_disabled": 0, "rental_uris": {"android": "https://dc.lft.to/lastmile_qr_scan", "ios": "https://dc.lft.to/lastmile_qr_scan"}, "fusion_lon": 0.0, "lat": 38.9007885, "bike_id": "0b02b46eabd83693ced5b077fbeeac11", "type": "electric_scooter", "is_reserved": 0, "lon": -77.02463883333333}, {"fusion_lat": 0.0, "name": "23bc982521e208d85e25adda2fb22898", "is_disabled": 0, "rental_uris": {"android": "https://dc.lft.to/lastmile_qr_scan", "ios": "https://dc.lft.to/lastmile_qr_scan"}, "fusion_lon": 0.0, "lat": 38.901205166666664, "bike_id": "23bc982521e208d85e25adda2fb22898", "type": "electric_scooter", "is_reserved": 0, "lon": -77.002851}, {"fusion_lat": 0.0, "name": "c4debe6cb6aef6b7ecfd4a29c7b1793f", "is_disabled": 0, "rental_uris": {"android": "https://dc.lft.to/lastmile_qr_scan", "ios": "https://dc.lft.to/lastmile_qr_scan"}, "fusion_lon": 0.0, "lat": 38.9003115, "bike_id": "c4debe6cb6aef6b7ecfd4a29c7b1793f", "type": "electric_scooter", "is_reserved": 0, "lon": -76.99775566666666}, {"fusion_lat": 0.0, "name": "9bf0789698f7517d9b75fd9e79e0295b", "is_disabled": 0, "rental_uris": {"android": "https://dc.lft.to/lastmile_qr_scan", "ios": "https://dc.lft.to/lastmile_qr_scan"}, "fusion_lon": 0.0, "lat": 38.93539716666667, "bike_id": "9bf0789698f7517d9b75fd9e79e0295b", "type": "electric_scooter", "is_reserved": 0, "lon": -77.03091416666666}, {"fusion_lat": 0.0, "name": "6dcf089a5363d1fcdf7256e2e63e5413", "is_disabled": 0, "rental_uris": {"android": "https://dc.lft.to/lastmile_qr_scan", "ios": "https://dc.lft.to/lastmile_qr_scan"}, "fusion_lon": 0.0, "lat": 38.96439483333333, "bike_id": "6dcf089a5363d1fcdf7256e2e63e5413", "type": "electric_scooter", "is_reserved": 0, "lon": -77.02065616666667}, {"fusion_lat": 0.0, "name": "07107ff6daef6ec3cf3d3e3c21bc1c01", "is_disabled": 0, "rental_uris": {"android": "https://dc.lft.to/lastmile_qr_scan", "ios": "https://dc.lft.to/lastmile_qr_scan"}, "fusion_lon": 0.0, "lat": 38.88893733333333, "bike_id": "07107ff6daef6ec3cf3d3e3c21bc1c01", "type": "electric_bike", "is_reserved": 0, "lon": -77.11527766666667}, {"fusion_lat": 0.0, "name": "f9fa77283ddf5a5f66fc5d065385ea76", "is_disabled": 0, "rental_uris": {"android": "https://dc.lft.to/lastmile_qr_scan", "ios": "https://dc.lft.to/lastmile_qr_scan"}, "fusion_lon": 0.0, "lat": 38.921959, "bike_id": "f9fa77283ddf5a5f66fc5d065385ea76", "type": "electric_scooter", "is_reserved": 0, "lon": -77.03517283333333}, {"fusion_lat": 0.0, "name": "85a1a8b7a5b33c49b48fda30dc5cd6e4", "is_disabled": 0, "rental_uris": {"android": "https://dc.lft.to/lastmile_qr_scan", "ios": "https://dc.lft.to/lastmile_qr_scan"}, "fusion_lon": 0.0, "lat": 38.92175916666667, "bike_id": "85a1a8b7a5b33c49b48fda30dc5cd6e4", "type": "electric_scooter", "is_reserved": 0, "lon": -77.04236233333333}, {"fusion_lat": 0.0, "name": "4487a641d959b2aea835f23ed3a89662", "is_disabled": 0, "rental_uris": {"android": "https://dc.lft.to/lastmile_qr_scan", "ios": "https://dc.lft.to/lastmile_qr_scan"}, "fusion_lon": 0.0, "lat": 38.897606833333334, "bike_id": "4487a641d959b2aea835f23ed3a89662", "type": "electric_scooter", "is_reserved": 0, "lon": -77.02723866666666}, {"fusion_lat": 0.0, "name": "bc0ecf5fc134851bf5377256784629ce", "is_disabled": 0, "rental_uris": {"android": "https://dc.lft.to/lastmile_qr_scan", "ios": "https://dc.lft.to/lastmile_qr_scan"}, "fusion_lon": 0.0, "lat": 38.901089, "bike_id": "bc0ecf5fc134851bf5377256784629ce", "type": "electric_scooter", "is_reserved": 0, "lon": -77.033905}, {"fusion_lat": 0.0, "name": "f0ac525d5f104856c51c913382fc7ee7", "is_disabled": 0, "rental_uris": {"android": "https://dc.lft.to/lastmile_qr_scan", "ios": "https://dc.lft.to/lastmile_qr_scan"}, "fusion_lon": 0.0, "lat": 38.925040333333335, "bike_id": "f0ac525d5f104856c51c913382fc7ee7", "type": "electric_scooter", "is_reserved": 0, "lon": -77.03790983333333}, {"fusion_lat": 0.0, "name": "c7aa68c919d2926f9887ade76b54cd45", "is_disabled": 0, "rental_uris": {"android": "https://dc.lft.to/lastmile_qr_scan", "ios": "https://dc.lft.to/lastmile_qr_scan"}, "fusion_lon": 0.0, "lat": 38.9180725, "bike_id": "c7aa68c919d2926f9887ade76b54cd45", "type": "electric_scooter", "is_reserved": 0, "lon": -77.02818416666666}, {"fusion_lat": 0.0, "name": "3331c037022cd550a58155bca0749db8", "is_disabled": 0, "rental_uris": {"android": "https://dc.lft.to/lastmile_qr_scan", "ios": "https://dc.lft.to/lastmile_qr_scan"}, "fusion_lon": 0.0, "lat": 38.89850283333333, "bike_id": "3331c037022cd550a58155bca0749db8", "type": "electric_scooter", "is_reserved": 0, "lon": -76.992722}, {"fusion_lat": 0.0, "name": "c665009c5c00f873b2b4be5a6784374e", "is_disabled": 0, "rental_uris": {"android": "https://dc.lft.to/lastmile_qr_scan", "ios": "https://dc.lft.to/lastmile_qr_scan"}, "fusion_lon": 0.0, "lat": 38.8922435, "bike_id": "c665009c5c00f873b2b4be5a6784374e", "type": "electric_scooter", "is_reserved": 0, "lon": -77.03141083333334}, {"fusion_lat": 0.0, "name": "32852af174abb5ffc2bbf263b42698d8", "is_disabled": 0, "rental_uris": {"android": "https://dc.lft.to/lastmile_qr_scan", "ios": "https://dc.lft.to/lastmile_qr_scan"}, "fusion_lon": 0.0, "lat": 38.905338666666665, "bike_id": "32852af174abb5ffc2bbf263b42698d8", "type": "electric_scooter", "is_reserved": 0, "lon": -77.05151233333333}, {"fusion_lat": 0.0, "name": "4d57e0cb1c97f0c19ccb98585ff07498", "is_disabled": 0, "rental_uris": {"android": "https://dc.lft.to/lastmile_qr_scan", "ios": "https://dc.lft.to/lastmile_qr_scan"}, "fusion_lon": 0.0, "lat": 38.88116616666667, "bike_id": "4d57e0cb1c97f0c19ccb98585ff07498", "type": "electric_bike", "is_reserved": 0, "lon": -77.01670833333333}, {"fusion_lat": 0.0, "name": "f2fb5cd1e75ed1f7d84445d9cf14b7af", "is_disabled": 0, "rental_uris": {"android": "https://dc.lft.to/lastmile_qr_scan", "ios": "https://dc.lft.to/lastmile_qr_scan"}, "fusion_lon": 0.0, "lat": 38.89680633333333, "bike_id": "f2fb5cd1e75ed1f7d84445d9cf14b7af", "type": "electric_scooter", "is_reserved": 0, "lon": -77.05129533333333}, {"fusion_lat": 0.0, "name": "74409af6d87e3d24d7b353e2e55e3b94", "is_disabled": 0, "rental_uris": {"android": "https://dc.lft.to/lastmile_qr_scan", "ios": "https://dc.lft.to/lastmile_qr_scan"}, "fusion_lon": 0.0, "lat": 38.877463666666664, "bike_id": "74409af6d87e3d24d7b353e2e55e3b94", "type": "electric_scooter", "is_reserved": 0, "lon": -77.00344833333334}, {"fusion_lat": 0.0, "name": "656777571bff95f256b88a00902c758a", "is_disabled": 0, "rental_uris": {"android": "https://dc.lft.to/lastmile_qr_scan", "ios": "https://dc.lft.to/lastmile_qr_scan"}, "fusion_lon": 0.0, "lat": 38.93058533333333, "bike_id": "656777571bff95f256b88a00902c758a", "type": "electric_scooter", "is_reserved": 0, "lon": -77.032698}, {"fusion_lat": 0.0, "name": "ff9b248822edccd95dbf4369d5fbd78e", "is_disabled": 0, "rental_uris": {"android": "https://dc.lft.to/lastmile_qr_scan", "ios": "https://dc.lft.to/lastmile_qr_scan"}, "fusion_lon": 0.0, "lat": 38.893593, "bike_id": "ff9b248822edccd95dbf4369d5fbd78e", "type": "electric_scooter", "is_reserved": 0, "lon": -77.02254}, {"fusion_lat": 0.0, "name": "5f4f834cff8d97a98f99336ea7f3989d", "is_disabled": 0, "rental_uris": {"android": "https://dc.lft.to/lastmile_qr_scan", "ios": "https://dc.lft.to/lastmile_qr_scan"}, "fusion_lon": 0.0, "lat": 38.86664316666667, "bike_id": "5f4f834cff8d97a98f99336ea7f3989d", "type": "electric_scooter", "is_reserved": 0, "lon": -77.01045416666666}, {"fusion_lat": 0.0, "name": "51d16be7ab488ecdbb5f369be62f96d3", "is_disabled": 0, "rental_uris": {"android": "https://dc.lft.to/lastmile_qr_scan", "ios": "https://dc.lft.to/lastmile_qr_scan"}, "fusion_lon": 0.0, "lat": 38.93392633333333, "bike_id": "51d16be7ab488ecdbb5f369be62f96d3", "type": "electric_scooter", "is_reserved": 0, "lon": -77.03220016666667}, {"fusion_lat": 0.0, "name": "ec7d4a339ac1f1aef33cb3f83292efe8", "is_disabled": 0, "rental_uris": {"android": "https://dc.lft.to/lastmile_qr_scan", "ios": "https://dc.lft.to/lastmile_qr_scan"}, "fusion_lon": 0.0, "lat": 38.907078166666665, "bike_id": "ec7d4a339ac1f1aef33cb3f83292efe8", "type": "electric_scooter", "is_reserved": 0, "lon": -77.05136583333334}, {"fusion_lat": 0.0, "name": "2b92c577f2b584aef2786d1465c1e353", "is_disabled": 0, "rental_uris": {"android": "https://dc.lft.to/lastmile_qr_scan", "ios": "https://dc.lft.to/lastmile_qr_scan"}, "fusion_lon": 0.0, "lat": 38.90026616666667, "bike_id": "2b92c577f2b584aef2786d1465c1e353", "type": "electric_scooter", "is_reserved": 0, "lon": -77.00221966666666}, {"fusion_lat": 0.0, "name": "07d799d52e016224e9bd720973a8e28e", "is_disabled": 0, "rental_uris": {"android": "https://dc.lft.to/lastmile_qr_scan", "ios": "https://dc.lft.to/lastmile_qr_scan"}, "fusion_lon": 0.0, "lat": 38.92471716666667, "bike_id": "07d799d52e016224e9bd720973a8e28e", "type": "electric_scooter", "is_reserved": 0, "lon": -77.0391765}, {"fusion_lat": 0.0, "name": "1ac42e3adfd52ab64747eeb0b807db5f", "is_disabled": 0, "rental_uris": {"android": "https://dc.lft.to/lastmile_qr_scan", "ios": "https://dc.lft.to/lastmile_qr_scan"}, "fusion_lon": 0.0, "lat": 38.90939383333333, "bike_id": "1ac42e3adfd52ab64747eeb0b807db5f", "type": "electric_scooter", "is_reserved": 0, "lon": -77.02189766666666}, {"fusion_lat": 0.0, "name": "d3f894ea48bb24a5a71a5a7115bf39d4", "is_disabled": 0, "rental_uris": {"android": "https://dc.lft.to/lastmile_qr_scan", "ios": "https://dc.lft.to/lastmile_qr_scan"}, "fusion_lon": 0.0, "lat": 38.90605466666667, "bike_id": "d3f894ea48bb24a5a71a5a7115bf39d4", "type": "electric_scooter", "is_reserved": 0, "lon": -77.062622}, {"fusion_lat": 0.0, "name": "902175463bddcc54b93134ce60ab0fd8", "is_disabled": 0, "rental_uris": {"android": "https://dc.lft.to/lastmile_qr_scan", "ios": "https://dc.lft.to/lastmile_qr_scan"}, "fusion_lon": 0.0, "lat": 38.90064, "bike_id": "902175463bddcc54b93134ce60ab0fd8", "type": "electric_scooter", "is_reserved": 0, "lon": -76.92742716666666}, {"fusion_lat": 0.0, "name": "5fb97283680373c05a5f61b14bc518e4", "is_disabled": 0, "rental_uris": {"android": "https://dc.lft.to/lastmile_qr_scan", "ios": "https://dc.lft.to/lastmile_qr_scan"}, "fusion_lon": 0.0, "lat": 38.87747733333333, "bike_id": "5fb97283680373c05a5f61b14bc518e4", "type": "electric_scooter", "is_reserved": 0, "lon": -77.014296}, {"fusion_lat": 0.0, "name": "2070ec63b12e7f9a0b7259dd4f1225c4", "is_disabled": 0, "rental_uris": {"android": "https://dc.lft.to/lastmile_qr_scan", "ios": "https://dc.lft.to/lastmile_qr_scan"}, "fusion_lon": 0.0, "lat": 38.89552066666667, "bike_id": "2070ec63b12e7f9a0b7259dd4f1225c4", "type": "electric_scooter", "is_reserved": 0, "lon": -76.94949516666667}, {"fusion_lat": 0.0, "name": "3e64d5629c3c667477bc8154dbd2b151", "is_disabled": 0, "rental_uris": {"android": "https://dc.lft.to/lastmile_qr_scan", "ios": "https://dc.lft.to/lastmile_qr_scan"}, "fusion_lon": 0.0, "lat": 38.92257716666667, "bike_id": "3e64d5629c3c667477bc8154dbd2b151", "type": "electric_scooter", "is_reserved": 0, "lon": -77.03665083333334}, {"fusion_lat": 0.0, "name": "584fc31d47f640c2bd180cfe6374bc5b", "is_disabled": 0, "rental_uris": {"android": "https://dc.lft.to/lastmile_qr_scan", "ios": "https://dc.lft.to/lastmile_qr_scan"}, "fusion_lon": 0.0, "lat": 38.892218, "bike_id": "584fc31d47f640c2bd180cfe6374bc5b", "type": "electric_scooter", "is_reserved": 0, "lon": -77.0322045}, {"fusion_lat": 0.0, "name": "5f1896eb3106ed42c5cd092b121433c6", "is_disabled": 0, "rental_uris": {"android": "https://dc.lft.to/lastmile_qr_scan", "ios": "https://dc.lft.to/lastmile_qr_scan"}, "fusion_lon": 0.0, "lat": 38.9160585, "bike_id": "5f1896eb3106ed42c5cd092b121433c6", "type": "electric_scooter", "is_reserved": 0, "lon": -77.0460515}, {"fusion_lat": 0.0, "name": "55de465546d4bf2c334ae3d4555d77f9", "is_disabled": 0, "rental_uris": {"android": "https://dc.lft.to/lastmile_qr_scan", "ios": "https://dc.lft.to/lastmile_qr_scan"}, "fusion_lon": 0.0, "lat": 38.916014, "bike_id": "55de465546d4bf2c334ae3d4555d77f9", "type": "electric_scooter", "is_reserved": 0, "lon": -77.04535383333334}, {"fusion_lat": 0.0, "name": "17787c6becd14501fdc12d63087bcce6", "is_disabled": 0, "rental_uris": {"android": "https://dc.lft.to/lastmile_qr_scan", "ios": "https://dc.lft.to/lastmile_qr_scan"}, "fusion_lon": 0.0, "lat": 38.903178, "bike_id": "17787c6becd14501fdc12d63087bcce6", "type": "electric_scooter", "is_reserved": 0, "lon": -77.01194383333333}, {"fusion_lat": 0.0, "name": "3aebd060b36cc39aab232fa7be06d73c", "is_disabled": 0, "rental_uris": {"android": "https://dc.lft.to/lastmile_qr_scan", "ios": "https://dc.lft.to/lastmile_qr_scan"}, "fusion_lon": 0.0, "lat": 38.9367255, "bike_id": "3aebd060b36cc39aab232fa7be06d73c", "type": "electric_scooter", "is_reserved": 0, "lon": -77.03656233333334}, {"fusion_lat": 0.0, "name": "4a732bddc6333049f3703b5197382d22", "is_disabled": 0, "rental_uris": {"android": "https://dc.lft.to/lastmile_qr_scan", "ios": "https://dc.lft.to/lastmile_qr_scan"}, "fusion_lon": 0.0, "lat": 38.88988333333333, "bike_id": "4a732bddc6333049f3703b5197382d22", "type": "electric_scooter", "is_reserved": 0, "lon": -76.92985816666666}, {"fusion_lat": 0.0, "name": "c65719bf4215774ab38356244cbe4b51", "is_disabled": 0, "rental_uris": {"android": "https://dc.lft.to/lastmile_qr_scan", "ios": "https://dc.lft.to/lastmile_qr_scan"}, "fusion_lon": 0.0, "lat": 38.9370485, "bike_id": "c65719bf4215774ab38356244cbe4b51", "type": "electric_scooter", "is_reserved": 0, "lon": -77.06104216666667}, {"fusion_lat": 0.0, "name": "971c9944b6c386908fc3bc62c5a10119", "is_disabled": 0, "rental_uris": {"android": "https://dc.lft.to/lastmile_qr_scan", "ios": "https://dc.lft.to/lastmile_qr_scan"}, "fusion_lon": 0.0, "lat": 38.93582833333333, "bike_id": "971c9944b6c386908fc3bc62c5a10119", "type": "electric_scooter", "is_reserved": 0, "lon": -77.02386733333333}, {"fusion_lat": 0.0, "name": "e0ecccfc1ce0d173a5854a82479c7a79", "is_disabled": 0, "rental_uris": {"android": "https://dc.lft.to/lastmile_qr_scan", "ios": "https://dc.lft.to/lastmile_qr_scan"}, "fusion_lon": 0.0, "lat": 38.901308666666665, "bike_id": "e0ecccfc1ce0d173a5854a82479c7a79", "type": "electric_scooter", "is_reserved": 0, "lon": -77.04060066666666}, {"fusion_lat": 0.0, "name": "306d2bc02872c12e2771d10f190a906f", "is_disabled": 0, "rental_uris": {"android": "https://dc.lft.to/lastmile_qr_scan", "ios": "https://dc.lft.to/lastmile_qr_scan"}, "fusion_lon": 0.0, "lat": 38.8875605, "bike_id": "306d2bc02872c12e2771d10f190a906f", "type": "electric_scooter", "is_reserved": 0, "lon": -76.99788733333334}, {"fusion_lat": 0.0, "name": "0c25108b163d68cb88edd1a9b4d94412", "is_disabled": 0, "rental_uris": {"android": "https://dc.lft.to/lastmile_qr_scan", "ios": "https://dc.lft.to/lastmile_qr_scan"}, "fusion_lon": 0.0, "lat": 38.91706333333333, "bike_id": "0c25108b163d68cb88edd1a9b4d94412", "type": "electric_scooter", "is_reserved": 0, "lon": -77.027485}, {"fusion_lat": 0.0, "name": "234cf74f47eed6aefc9fecf7a4b83f56", "is_disabled": 0, "rental_uris": {"android": "https://dc.lft.to/lastmile_qr_scan", "ios": "https://dc.lft.to/lastmile_qr_scan"}, "fusion_lon": 0.0, "lat": 38.92114683333333, "bike_id": "234cf74f47eed6aefc9fecf7a4b83f56", "type": "electric_scooter", "is_reserved": 0, "lon": -77.03166216666666}, {"fusion_lat": 0.0, "name": "5c8569365de7ee1e8f65fe344c3abbf2", "is_disabled": 0, "rental_uris": {"android": "https://dc.lft.to/lastmile_qr_scan", "ios": "https://dc.lft.to/lastmile_qr_scan"}, "fusion_lon": 0.0, "lat": 38.847580666666666, "bike_id": "5c8569365de7ee1e8f65fe344c3abbf2", "type": "electric_scooter", "is_reserved": 0, "lon": -76.9950055}, {"fusion_lat": 0.0, "name": "3869c08e38b1bf5cbc559395d3512d12", "is_disabled": 0, "rental_uris": {"android": "https://dc.lft.to/lastmile_qr_scan", "ios": "https://dc.lft.to/lastmile_qr_scan"}, "fusion_lon": 0.0, "lat": 38.8844185, "bike_id": "3869c08e38b1bf5cbc559395d3512d12", "type": "electric_scooter", "is_reserved": 0, "lon": -77.02904616666666}, {"fusion_lat": 0.0, "name": "6c5f4209317a1057aebff63857ea08ea", "is_disabled": 0, "rental_uris": {"android": "https://dc.lft.to/lastmile_qr_scan", "ios": "https://dc.lft.to/lastmile_qr_scan"}, "fusion_lon": 0.0, "lat": 38.92346116666667, "bike_id": "6c5f4209317a1057aebff63857ea08ea", "type": "electric_scooter", "is_reserved": 0, "lon": -76.992467}, {"fusion_lat": 0.0, "name": "ba38068fc9d6c430aae00e71addfdf12", "is_disabled": 0, "rental_uris": {"android": "https://dc.lft.to/lastmile_qr_scan", "ios": "https://dc.lft.to/lastmile_qr_scan"}, "fusion_lon": 0.0, "lat": 38.9451735, "bike_id": "ba38068fc9d6c430aae00e71addfdf12", "type": "electric_scooter", "is_reserved": 0, "lon": -77.03888616666667}, {"fusion_lat": 0.0, "name": "78c657dd5afe9d8361fa5d5bbba1fe45", "is_disabled": 0, "rental_uris": {"android": "https://dc.lft.to/lastmile_qr_scan", "ios": "https://dc.lft.to/lastmile_qr_scan"}, "fusion_lon": 0.0, "lat": 38.899816333333334, "bike_id": "78c657dd5afe9d8361fa5d5bbba1fe45", "type": "electric_scooter", "is_reserved": 0, "lon": -77.03179716666666}, {"fusion_lat": 0.0, "name": "801d41cc0f8ed885a7717ab6e1215212", "is_disabled": 0, "rental_uris": {"android": "https://dc.lft.to/lastmile_qr_scan", "ios": "https://dc.lft.to/lastmile_qr_scan"}, "fusion_lon": 0.0, "lat": 38.89482666666667, "bike_id": "801d41cc0f8ed885a7717ab6e1215212", "type": "electric_scooter", "is_reserved": 0, "lon": -77.02175116666666}, {"fusion_lat": 0.0, "name": "0af4fd732c4bb6a8e83db5a4a80b0540", "is_disabled": 0, "rental_uris": {"android": "https://dc.lft.to/lastmile_qr_scan", "ios": "https://dc.lft.to/lastmile_qr_scan"}, "fusion_lon": 0.0, "lat": 38.917993833333334, "bike_id": "0af4fd732c4bb6a8e83db5a4a80b0540", "type": "electric_scooter", "is_reserved": 0, "lon": -77.03302316666667}, {"fusion_lat": 0.0, "name": "1ce456295dd9ae640901ec401aea8a9c", "is_disabled": 0, "rental_uris": {"android": "https://dc.lft.to/lastmile_qr_scan", "ios": "https://dc.lft.to/lastmile_qr_scan"}, "fusion_lon": 0.0, "lat": 38.94429066666667, "bike_id": "1ce456295dd9ae640901ec401aea8a9c", "type": "electric_bike", "is_reserved": 0, "lon": -77.02605283333334}, {"fusion_lat": 0.0, "name": "d77f6ad860ff4f2b8b48c7a5ac35c753", "is_disabled": 0, "rental_uris": {"android": "https://dc.lft.to/lastmile_qr_scan", "ios": "https://dc.lft.to/lastmile_qr_scan"}, "fusion_lon": 0.0, "lat": 38.79020516666667, "bike_id": "d77f6ad860ff4f2b8b48c7a5ac35c753", "type": "electric_bike", "is_reserved": 0, "lon": -77.01545766666666}, {"fusion_lat": 0.0, "name": "0f28d5b4229f72f45c42d16773594ee8", "is_disabled": 0, "rental_uris": {"android": "https://dc.lft.to/lastmile_qr_scan", "ios": "https://dc.lft.to/lastmile_qr_scan"}, "fusion_lon": 0.0, "lat": 38.901240666666666, "bike_id": "0f28d5b4229f72f45c42d16773594ee8", "type": "electric_scooter", "is_reserved": 0, "lon": -77.0218065}, {"fusion_lat": 0.0, "name": "d43fffcd75e42a20f116d38e9ed6d036", "is_disabled": 0, "rental_uris": {"android": "https://dc.lft.to/lastmile_qr_scan", "ios": "https://dc.lft.to/lastmile_qr_scan"}, "fusion_lon": 0.0, "lat": 38.88578716666667, "bike_id": "d43fffcd75e42a20f116d38e9ed6d036", "type": "electric_scooter", "is_reserved": 0, "lon": -77.01213883333334}, {"fusion_lat": 0.0, "name": "4a0f4801d1c208a68dca4c48e4180100", "is_disabled": 0, "rental_uris": {"android": "https://dc.lft.to/lastmile_qr_scan", "ios": "https://dc.lft.to/lastmile_qr_scan"}, "fusion_lon": 0.0, "lat": 38.92120466666667, "bike_id": "4a0f4801d1c208a68dca4c48e4180100", "type": "electric_scooter", "is_reserved": 0, "lon": -77.04692316666667}, {"fusion_lat": 0.0, "name": "863e8bbee6e4cb33357fd93cc8083c80", "is_disabled": 0, "rental_uris": {"android": "https://dc.lft.to/lastmile_qr_scan", "ios": "https://dc.lft.to/lastmile_qr_scan"}, "fusion_lon": 0.0, "lat": 38.8922355, "bike_id": "863e8bbee6e4cb33357fd93cc8083c80", "type": "electric_scooter", "is_reserved": 0, "lon": -77.0437615}, {"fusion_lat": 0.0, "name": "96d6ecf23779c2bbc7e659f6cfb85c5f", "is_disabled": 0, "rental_uris": {"android": "https://dc.lft.to/lastmile_qr_scan", "ios": "https://dc.lft.to/lastmile_qr_scan"}, "fusion_lon": 0.0, "lat": 38.90772966666667, "bike_id": "96d6ecf23779c2bbc7e659f6cfb85c5f", "type": "electric_scooter", "is_reserved": 0, "lon": -77.032065}, {"fusion_lat": 0.0, "name": "9db55db1335e2cd480a267ae0d6c9b77", "is_disabled": 0, "rental_uris": {"android": "https://dc.lft.to/lastmile_qr_scan", "ios": "https://dc.lft.to/lastmile_qr_scan"}, "fusion_lon": 0.0, "lat": 38.906021, "bike_id": "9db55db1335e2cd480a267ae0d6c9b77", "type": "electric_scooter", "is_reserved": 0, "lon": -77.06470633333333}, {"fusion_lat": 0.0, "name": "a02b66302b24c1040cda108be701c459", "is_disabled": 0, "rental_uris": {"android": "https://dc.lft.to/lastmile_qr_scan", "ios": "https://dc.lft.to/lastmile_qr_scan"}, "fusion_lon": 0.0, "lat": 38.92662216666667, "bike_id": "a02b66302b24c1040cda108be701c459", "type": "electric_scooter", "is_reserved": 0, "lon": -77.03051616666667}, {"fusion_lat": 0.0, "name": "03a54da9ddaa42ca5ccdc69b3928d485", "is_disabled": 0, "rental_uris": {"android": "https://dc.lft.to/lastmile_qr_scan", "ios": "https://dc.lft.to/lastmile_qr_scan"}, "fusion_lon": 0.0, "lat": 38.89087116666666, "bike_id": "03a54da9ddaa42ca5ccdc69b3928d485", "type": "electric_scooter", "is_reserved": 0, "lon": -76.91929816666666}, {"fusion_lat": 0.0, "name": "968a2986a8a1586ee3490add788dc4aa", "is_disabled": 0, "rental_uris": {"android": "https://dc.lft.to/lastmile_qr_scan", "ios": "https://dc.lft.to/lastmile_qr_scan"}, "fusion_lon": 0.0, "lat": 38.88745683333333, "bike_id": "968a2986a8a1586ee3490add788dc4aa", "type": "electric_scooter", "is_reserved": 0, "lon": -77.03159183333334}, {"fusion_lat": 0.0, "name": "c70c0f088e8a79089c4f6d8aaa6decf2", "is_disabled": 0, "rental_uris": {"android": "https://dc.lft.to/lastmile_qr_scan", "ios": "https://dc.lft.to/lastmile_qr_scan"}, "fusion_lon": 0.0, "lat": 38.93602883333333, "bike_id": "c70c0f088e8a79089c4f6d8aaa6decf2", "type": "electric_scooter", "is_reserved": 0, "lon": -77.02302866666666}, {"fusion_lat": 0.0, "name": "f8a0d7b310d5ced91482b1000a05b210", "is_disabled": 0, "rental_uris": {"android": "https://dc.lft.to/lastmile_qr_scan", "ios": "https://dc.lft.to/lastmile_qr_scan"}, "fusion_lon": 0.0, "lat": 38.91842316666666, "bike_id": "f8a0d7b310d5ced91482b1000a05b210", "type": "electric_scooter", "is_reserved": 0, "lon": -77.02427466666667}, {"fusion_lat": 0.0, "name": "d249c578385efdd59ef0fa0d3065de0d", "is_disabled": 0, "rental_uris": {"android": "https://dc.lft.to/lastmile_qr_scan", "ios": "https://dc.lft.to/lastmile_qr_scan"}, "fusion_lon": 0.0, "lat": 38.91562733333333, "bike_id": "d249c578385efdd59ef0fa0d3065de0d", "type": "electric_scooter", "is_reserved": 0, "lon": -77.03856166666667}, {"fusion_lat": 0.0, "name": "e2fa32b4305854428dd6ef1921f0230b", "is_disabled": 0, "rental_uris": {"android": "https://dc.lft.to/lastmile_qr_scan", "ios": "https://dc.lft.to/lastmile_qr_scan"}, "fusion_lon": 0.0, "lat": 38.900868333333335, "bike_id": "e2fa32b4305854428dd6ef1921f0230b", "type": "electric_scooter", "is_reserved": 0, "lon": -76.98331483333334}, {"fusion_lat": 0.0, "name": "41a533882a0435ba633ad1ebdc72a40f", "is_disabled": 0, "rental_uris": {"android": "https://dc.lft.to/lastmile_qr_scan", "ios": "https://dc.lft.to/lastmile_qr_scan"}, "fusion_lon": 0.0, "lat": 38.910366, "bike_id": "41a533882a0435ba633ad1ebdc72a40f", "type": "electric_scooter", "is_reserved": 0, "lon": -77.00832633333333}, {"fusion_lat": 0.0, "name": "3b6c9b45837eb46ba532f670dd6e0249", "is_disabled": 0, "rental_uris": {"android": "https://dc.lft.to/lastmile_qr_scan", "ios": "https://dc.lft.to/lastmile_qr_scan"}, "fusion_lon": 0.0, "lat": 38.95276766666667, "bike_id": "3b6c9b45837eb46ba532f670dd6e0249", "type": "electric_scooter", "is_reserved": 0, "lon": -77.0687935}, {"fusion_lat": 0.0, "name": "e112ead551e70b296e52edd6b12d5232", "is_disabled": 0, "rental_uris": {"android": "https://dc.lft.to/lastmile_qr_scan", "ios": "https://dc.lft.to/lastmile_qr_scan"}, "fusion_lon": 0.0, "lat": 38.9253655, "bike_id": "e112ead551e70b296e52edd6b12d5232", "type": "electric_scooter", "is_reserved": 0, "lon": -77.03824533333334}, {"fusion_lat": 0.0, "name": "48732f2e3eca6e965cfb713c0ee117ef", "is_disabled": 0, "rental_uris": {"android": "https://dc.lft.to/lastmile_qr_scan", "ios": "https://dc.lft.to/lastmile_qr_scan"}, "fusion_lon": 0.0, "lat": 38.92891766666666, "bike_id": "48732f2e3eca6e965cfb713c0ee117ef", "type": "electric_bike", "is_reserved": 0, "lon": -77.23178883333334}, {"fusion_lat": 0.0, "name": "2091293ff67dce49f2a6dbc5d1b136b5", "is_disabled": 0, "rental_uris": {"android": "https://dc.lft.to/lastmile_qr_scan", "ios": "https://dc.lft.to/lastmile_qr_scan"}, "fusion_lon": 0.0, "lat": 38.89221416666667, "bike_id": "2091293ff67dce49f2a6dbc5d1b136b5", "type": "electric_scooter", "is_reserved": 0, "lon": -77.0314345}, {"fusion_lat": 0.0, "name": "74fa7842a63f83fcf2f0e558c8afaf9c", "is_disabled": 0, "rental_uris": {"android": "https://dc.lft.to/lastmile_qr_scan", "ios": "https://dc.lft.to/lastmile_qr_scan"}, "fusion_lon": 0.0, "lat": 38.89887983333333, "bike_id": "74fa7842a63f83fcf2f0e558c8afaf9c", "type": "electric_scooter", "is_reserved": 0, "lon": -77.01513433333334}, {"fusion_lat": 0.0, "name": "a68bc34ed9ff093d63d9a85988e338f3", "is_disabled": 0, "rental_uris": {"android": "https://dc.lft.to/lastmile_qr_scan", "ios": "https://dc.lft.to/lastmile_qr_scan"}, "fusion_lon": 0.0, "lat": 38.93875216666667, "bike_id": "a68bc34ed9ff093d63d9a85988e338f3", "type": "electric_scooter", "is_reserved": 0, "lon": -77.024749}, {"fusion_lat": 0.0, "name": "e3f999edc451714fe9954d0724f09a44", "is_disabled": 0, "rental_uris": {"android": "https://dc.lft.to/lastmile_qr_scan", "ios": "https://dc.lft.to/lastmile_qr_scan"}, "fusion_lon": 0.0, "lat": 38.9024005, "bike_id": "e3f999edc451714fe9954d0724f09a44", "type": "electric_scooter", "is_reserved": 0, "lon": -77.00204466666666}, {"fusion_lat": 0.0, "name": "b562c4e2ea7ac886ae8029bf5e384568", "is_disabled": 0, "rental_uris": {"android": "https://dc.lft.to/lastmile_qr_scan", "ios": "https://dc.lft.to/lastmile_qr_scan"}, "fusion_lon": 0.0, "lat": 38.9256905, "bike_id": "b562c4e2ea7ac886ae8029bf5e384568", "type": "electric_scooter", "is_reserved": 0, "lon": -77.02269983333333}, {"fusion_lat": 0.0, "name": "4da3762695f75df9737b191b8656a994", "is_disabled": 0, "rental_uris": {"android": "https://dc.lft.to/lastmile_qr_scan", "ios": "https://dc.lft.to/lastmile_qr_scan"}, "fusion_lon": 0.0, "lat": 38.935484833333334, "bike_id": "4da3762695f75df9737b191b8656a994", "type": "electric_scooter", "is_reserved": 0, "lon": -77.03473183333334}, {"fusion_lat": 0.0, "name": "d3df49333b9300992ed6570ee026fac8", "is_disabled": 0, "rental_uris": {"android": "https://dc.lft.to/lastmile_qr_scan", "ios": "https://dc.lft.to/lastmile_qr_scan"}, "fusion_lon": 0.0, "lat": 38.905711333333336, "bike_id": "d3df49333b9300992ed6570ee026fac8", "type": "electric_scooter", "is_reserved": 0, "lon": -77.03604983333334}, {"fusion_lat": 0.0, "name": "f07dffae18c76ed03feb4064adc510df", "is_disabled": 0, "rental_uris": {"android": "https://dc.lft.to/lastmile_qr_scan", "ios": "https://dc.lft.to/lastmile_qr_scan"}, "fusion_lon": 0.0, "lat": 39.070516, "bike_id": "f07dffae18c76ed03feb4064adc510df", "type": "electric_bike", "is_reserved": 0, "lon": -77.11482933333333}, {"fusion_lat": 0.0, "name": "bb95088101cd4298d1b793c449a07275", "is_disabled": 0, "rental_uris": {"android": "https://dc.lft.to/lastmile_qr_scan", "ios": "https://dc.lft.to/lastmile_qr_scan"}, "fusion_lon": 0.0, "lat": 38.88739566666667, "bike_id": "bb95088101cd4298d1b793c449a07275", "type": "electric_scooter", "is_reserved": 0, "lon": -77.02179533333333}, {"fusion_lat": 0.0, "name": "3a83773f52c979978a6c239e0991f888", "is_disabled": 0, "rental_uris": {"android": "https://dc.lft.to/lastmile_qr_scan", "ios": "https://dc.lft.to/lastmile_qr_scan"}, "fusion_lon": 0.0, "lat": 38.946733333333334, "bike_id": "3a83773f52c979978a6c239e0991f888", "type": "electric_scooter", "is_reserved": 0, "lon": -77.03096083333334}, {"fusion_lat": 0.0, "name": "4b6d3258bad760bb789256cd65c4ac48", "is_disabled": 0, "rental_uris": {"android": "https://dc.lft.to/lastmile_qr_scan", "ios": "https://dc.lft.to/lastmile_qr_scan"}, "fusion_lon": 0.0, "lat": 38.9309665, "bike_id": "4b6d3258bad760bb789256cd65c4ac48", "type": "electric_scooter", "is_reserved": 0, "lon": -77.02660733333333}, {"fusion_lat": 0.0, "name": "fae81209494e0868b6ee9e450c9436b5", "is_disabled": 0, "rental_uris": {"android": "https://dc.lft.to/lastmile_qr_scan", "ios": "https://dc.lft.to/lastmile_qr_scan"}, "fusion_lon": 0.0, "lat": 38.904187, "bike_id": "fae81209494e0868b6ee9e450c9436b5", "type": "electric_scooter", "is_reserved": 0, "lon": -77.03194733333333}, {"fusion_lat": 0.0, "name": "2edc079bbe7d7fa3c9a0befa3609e15c", "is_disabled": 0, "rental_uris": {"android": "https://dc.lft.to/lastmile_qr_scan", "ios": "https://dc.lft.to/lastmile_qr_scan"}, "fusion_lon": 0.0, "lat": 38.907933, "bike_id": "2edc079bbe7d7fa3c9a0befa3609e15c", "type": "electric_scooter", "is_reserved": 0, "lon": -77.04338933333334}, {"fusion_lat": 0.0, "name": "74bf14739970b80216b1d8d3e2fd2d0d", "is_disabled": 0, "rental_uris": {"android": "https://dc.lft.to/lastmile_qr_scan", "ios": "https://dc.lft.to/lastmile_qr_scan"}, "fusion_lon": 0.0, "lat": 38.93579916666667, "bike_id": "74bf14739970b80216b1d8d3e2fd2d0d", "type": "electric_scooter", "is_reserved": 0, "lon": -77.02361383333333}, {"fusion_lat": 0.0, "name": "e9fec3bee29c09b42759e449844a7298", "is_disabled": 0, "rental_uris": {"android": "https://dc.lft.to/lastmile_qr_scan", "ios": "https://dc.lft.to/lastmile_qr_scan"}, "fusion_lon": 0.0, "lat": 38.91101966666667, "bike_id": "e9fec3bee29c09b42759e449844a7298", "type": "electric_scooter", "is_reserved": 0, "lon": -77.01150816666667}, {"fusion_lat": 0.0, "name": "0a1fe4bb0175e8d48b735cae5237a753", "is_disabled": 0, "rental_uris": {"android": "https://dc.lft.to/lastmile_qr_scan", "ios": "https://dc.lft.to/lastmile_qr_scan"}, "fusion_lon": 0.0, "lat": 38.95710033333334, "bike_id": "0a1fe4bb0175e8d48b735cae5237a753", "type": "electric_scooter", "is_reserved": 0, "lon": -77.02405283333333}, {"fusion_lat": 0.0, "name": "ded16c4c33d84947540bdba7dee80cbe", "is_disabled": 0, "rental_uris": {"android": "https://dc.lft.to/lastmile_qr_scan", "ios": "https://dc.lft.to/lastmile_qr_scan"}, "fusion_lon": 0.0, "lat": 38.9298205, "bike_id": "ded16c4c33d84947540bdba7dee80cbe", "type": "electric_scooter", "is_reserved": 0, "lon": -77.03231516666666}, {"fusion_lat": 0.0, "name": "8eecc6b915504642a145ad44c07ef144", "is_disabled": 0, "rental_uris": {"android": "https://dc.lft.to/lastmile_qr_scan", "ios": "https://dc.lft.to/lastmile_qr_scan"}, "fusion_lon": 0.0, "lat": 38.9207395, "bike_id": "8eecc6b915504642a145ad44c07ef144", "type": "electric_scooter", "is_reserved": 0, "lon": -77.031955}, {"fusion_lat": 0.0, "name": "3c4f5501980026e7e4116a2e6c10a150", "is_disabled": 0, "rental_uris": {"android": "https://dc.lft.to/lastmile_qr_scan", "ios": "https://dc.lft.to/lastmile_qr_scan"}, "fusion_lon": 0.0, "lat": 38.900258666666666, "bike_id": "3c4f5501980026e7e4116a2e6c10a150", "type": "electric_scooter", "is_reserved": 0, "lon": -76.99135783333334}, {"fusion_lat": 0.0, "name": "7596ed46b3db522af17cd93d86d755ba", "is_disabled": 0, "rental_uris": {"android": "https://dc.lft.to/lastmile_qr_scan", "ios": "https://dc.lft.to/lastmile_qr_scan"}, "fusion_lon": 0.0, "lat": 38.947032166666666, "bike_id": "7596ed46b3db522af17cd93d86d755ba", "type": "electric_scooter", "is_reserved": 0, "lon": -77.01940916666666}, {"fusion_lat": 0.0, "name": "1242107f7448385092c22d5d33e2ac0d", "is_disabled": 0, "rental_uris": {"android": "https://dc.lft.to/lastmile_qr_scan", "ios": "https://dc.lft.to/lastmile_qr_scan"}, "fusion_lon": 0.0, "lat": 38.931793666666664, "bike_id": "1242107f7448385092c22d5d33e2ac0d", "type": "electric_scooter", "is_reserved": 0, "lon": -77.0429415}, {"fusion_lat": 0.0, "name": "8b2df120098ea9000dd475b8914d73b0", "is_disabled": 0, "rental_uris": {"android": "https://dc.lft.to/lastmile_qr_scan", "ios": "https://dc.lft.to/lastmile_qr_scan"}, "fusion_lon": 0.0, "lat": 38.8921755, "bike_id": "8b2df120098ea9000dd475b8914d73b0", "type": "electric_scooter", "is_reserved": 0, "lon": -77.04511016666666}, {"fusion_lat": 0.0, "name": "50abbf5335865dd22b81bad130b8352d", "is_disabled": 0, "rental_uris": {"android": "https://dc.lft.to/lastmile_qr_scan", "ios": "https://dc.lft.to/lastmile_qr_scan"}, "fusion_lon": 0.0, "lat": 38.884620166666664, "bike_id": "50abbf5335865dd22b81bad130b8352d", "type": "electric_scooter", "is_reserved": 0, "lon": -76.99832033333334}, {"fusion_lat": 0.0, "name": "cc9da4004aa883cc36b54ed9dd05c0b0", "is_disabled": 0, "rental_uris": {"android": "https://dc.lft.to/lastmile_qr_scan", "ios": "https://dc.lft.to/lastmile_qr_scan"}, "fusion_lon": 0.0, "lat": 38.9243935, "bike_id": "cc9da4004aa883cc36b54ed9dd05c0b0", "type": "electric_scooter", "is_reserved": 0, "lon": -77.0336075}, {"fusion_lat": 0.0, "name": "7bf8427dec4ca2daa13bdeabe54c42d6", "is_disabled": 0, "rental_uris": {"android": "https://dc.lft.to/lastmile_qr_scan", "ios": "https://dc.lft.to/lastmile_qr_scan"}, "fusion_lon": 0.0, "lat": 38.890338666666665, "bike_id": "7bf8427dec4ca2daa13bdeabe54c42d6", "type": "electric_scooter", "is_reserved": 0, "lon": -76.93749083333333}, {"fusion_lat": 0.0, "name": "c78c7c959b5f5c1ba1f1c51b949b8182", "is_disabled": 0, "rental_uris": {"android": "https://dc.lft.to/lastmile_qr_scan", "ios": "https://dc.lft.to/lastmile_qr_scan"}, "fusion_lon": 0.0, "lat": 38.891160666666664, "bike_id": "c78c7c959b5f5c1ba1f1c51b949b8182", "type": "electric_scooter", "is_reserved": 0, "lon": -76.94381766666666}, {"fusion_lat": 0.0, "name": "018bc2391cacf86ad3544191840547d5", "is_disabled": 0, "rental_uris": {"android": "https://dc.lft.to/lastmile_qr_scan", "ios": "https://dc.lft.to/lastmile_qr_scan"}, "fusion_lon": 0.0, "lat": 38.91193083333334, "bike_id": "018bc2391cacf86ad3544191840547d5", "type": "electric_scooter", "is_reserved": 0, "lon": -77.01197333333333}, {"fusion_lat": 0.0, "name": "d4a1743caf0b3e0a6e2bd6920d3bb1fb", "is_disabled": 0, "rental_uris": {"android": "https://dc.lft.to/lastmile_qr_scan", "ios": "https://dc.lft.to/lastmile_qr_scan"}, "fusion_lon": 0.0, "lat": 38.915663333333335, "bike_id": "d4a1743caf0b3e0a6e2bd6920d3bb1fb", "type": "electric_scooter", "is_reserved": 0, "lon": -77.03854216666667}, {"fusion_lat": 0.0, "name": "bcd3bdbb575662d9ea20edbf05a9eada", "is_disabled": 0, "rental_uris": {"android": "https://dc.lft.to/lastmile_qr_scan", "ios": "https://dc.lft.to/lastmile_qr_scan"}, "fusion_lon": 0.0, "lat": 38.91109683333333, "bike_id": "bcd3bdbb575662d9ea20edbf05a9eada", "type": "electric_scooter", "is_reserved": 0, "lon": -77.02927083333333}, {"fusion_lat": 0.0, "name": "e1a1842bf38a8cfbbb45f44f2d9ebb70", "is_disabled": 0, "rental_uris": {"android": "https://dc.lft.to/lastmile_qr_scan", "ios": "https://dc.lft.to/lastmile_qr_scan"}, "fusion_lon": 0.0, "lat": 38.904241166666665, "bike_id": "e1a1842bf38a8cfbbb45f44f2d9ebb70", "type": "electric_scooter", "is_reserved": 0, "lon": -77.01891983333333}, {"fusion_lat": 0.0, "name": "5e996878a1113b260eb2b18f34abf380", "is_disabled": 0, "rental_uris": {"android": "https://dc.lft.to/lastmile_qr_scan", "ios": "https://dc.lft.to/lastmile_qr_scan"}, "fusion_lon": 0.0, "lat": 38.911133, "bike_id": "5e996878a1113b260eb2b18f34abf380", "type": "electric_scooter", "is_reserved": 0, "lon": -77.03617566666667}, {"fusion_lat": 0.0, "name": "39d7a82f7dc03eee819d9dcc230598ad", "is_disabled": 0, "rental_uris": {"android": "https://dc.lft.to/lastmile_qr_scan", "ios": "https://dc.lft.to/lastmile_qr_scan"}, "fusion_lon": 0.0, "lat": 38.897585666666664, "bike_id": "39d7a82f7dc03eee819d9dcc230598ad", "type": "electric_scooter", "is_reserved": 0, "lon": -77.025011}, {"fusion_lat": 0.0, "name": "c703de353d2aceb9ef67bf13bcd802ad", "is_disabled": 0, "rental_uris": {"android": "https://dc.lft.to/lastmile_qr_scan", "ios": "https://dc.lft.to/lastmile_qr_scan"}, "fusion_lon": 0.0, "lat": 38.961822833333336, "bike_id": "c703de353d2aceb9ef67bf13bcd802ad", "type": "electric_bike", "is_reserved": 0, "lon": -77.05266783333333}, {"fusion_lat": 0.0, "name": "8e8b806a6b344a903870f40a9ed71a46", "is_disabled": 0, "rental_uris": {"android": "https://dc.lft.to/lastmile_qr_scan", "ios": "https://dc.lft.to/lastmile_qr_scan"}, "fusion_lon": 0.0, "lat": 38.924348333333334, "bike_id": "8e8b806a6b344a903870f40a9ed71a46", "type": "electric_scooter", "is_reserved": 0, "lon": -77.04467516666666}, {"fusion_lat": 0.0, "name": "b02f8bdafc22d72a7a87827cf5403f45", "is_disabled": 0, "rental_uris": {"android": "https://dc.lft.to/lastmile_qr_scan", "ios": "https://dc.lft.to/lastmile_qr_scan"}, "fusion_lon": 0.0, "lat": 38.973730833333335, "bike_id": "b02f8bdafc22d72a7a87827cf5403f45", "type": "electric_scooter", "is_reserved": 0, "lon": -77.01280816666667}, {"fusion_lat": 0.0, "name": "70f4cc0592589fd49f9364d9e0d2a9b2", "is_disabled": 0, "rental_uris": {"android": "https://dc.lft.to/lastmile_qr_scan", "ios": "https://dc.lft.to/lastmile_qr_scan"}, "fusion_lon": 0.0, "lat": 38.9340885, "bike_id": "70f4cc0592589fd49f9364d9e0d2a9b2", "type": "electric_scooter", "is_reserved": 0, "lon": -77.04161983333333}, {"fusion_lat": 0.0, "name": "be4aaf60ca7d25a9c60059d2abf546ee", "is_disabled": 0, "rental_uris": {"android": "https://dc.lft.to/lastmile_qr_scan", "ios": "https://dc.lft.to/lastmile_qr_scan"}, "fusion_lon": 0.0, "lat": 38.916183333333336, "bike_id": "be4aaf60ca7d25a9c60059d2abf546ee", "type": "electric_scooter", "is_reserved": 0, "lon": -77.03853483333333}, {"fusion_lat": 0.0, "name": "ee1678c24853b71cc3acbf5f874057d2", "is_disabled": 0, "rental_uris": {"android": "https://dc.lft.to/lastmile_qr_scan", "ios": "https://dc.lft.to/lastmile_qr_scan"}, "fusion_lon": 0.0, "lat": 38.89717183333333, "bike_id": "ee1678c24853b71cc3acbf5f874057d2", "type": "electric_scooter", "is_reserved": 0, "lon": -77.021574}, {"fusion_lat": 0.0, "name": "10afe678698f0f223a5d59e0c2a13fcb", "is_disabled": 0, "rental_uris": {"android": "https://dc.lft.to/lastmile_qr_scan", "ios": "https://dc.lft.to/lastmile_qr_scan"}, "fusion_lon": 0.0, "lat": 38.9256535, "bike_id": "10afe678698f0f223a5d59e0c2a13fcb", "type": "electric_scooter", "is_reserved": 0, "lon": -77.037386}, {"fusion_lat": 0.0, "name": "95a9a03bb4df0629637da4c75c8d7393", "is_disabled": 0, "rental_uris": {"android": "https://dc.lft.to/lastmile_qr_scan", "ios": "https://dc.lft.to/lastmile_qr_scan"}, "fusion_lon": 0.0, "lat": 38.90678066666667, "bike_id": "95a9a03bb4df0629637da4c75c8d7393", "type": "electric_scooter", "is_reserved": 0, "lon": -77.07011466666667}, {"fusion_lat": 0.0, "name": "1c444e5ada8e7ea0ed50d8ccb782af5a", "is_disabled": 0, "rental_uris": {"android": "https://dc.lft.to/lastmile_qr_scan", "ios": "https://dc.lft.to/lastmile_qr_scan"}, "fusion_lon": 0.0, "lat": 38.90080716666667, "bike_id": "1c444e5ada8e7ea0ed50d8ccb782af5a", "type": "electric_scooter", "is_reserved": 0, "lon": -77.05838366666667}, {"fusion_lat": 0.0, "name": "0eda902fc7bbf8d2c7ca6babf4c4e6cc", "is_disabled": 0, "rental_uris": {"android": "https://dc.lft.to/lastmile_qr_scan", "ios": "https://dc.lft.to/lastmile_qr_scan"}, "fusion_lon": 0.0, "lat": 38.899049166666664, "bike_id": "0eda902fc7bbf8d2c7ca6babf4c4e6cc", "type": "electric_scooter", "is_reserved": 0, "lon": -76.93339966666667}, {"fusion_lat": 0.0, "name": "3df7f2d30b0850fba156076f9bb44539", "is_disabled": 0, "rental_uris": {"android": "https://dc.lft.to/lastmile_qr_scan", "ios": "https://dc.lft.to/lastmile_qr_scan"}, "fusion_lon": 0.0, "lat": 38.93505, "bike_id": "3df7f2d30b0850fba156076f9bb44539", "type": "electric_scooter", "is_reserved": 0, "lon": -77.02401616666667}, {"fusion_lat": 0.0, "name": "30fcf31dd675e6f31136697c17a50af6", "is_disabled": 0, "rental_uris": {"android": "https://dc.lft.to/lastmile_qr_scan", "ios": "https://dc.lft.to/lastmile_qr_scan"}, "fusion_lon": 0.0, "lat": 38.90968266666667, "bike_id": "30fcf31dd675e6f31136697c17a50af6", "type": "electric_scooter", "is_reserved": 0, "lon": -77.03253683333334}, {"fusion_lat": 0.0, "name": "d06f94df2e5713025ad0d9176376f0e2", "is_disabled": 0, "rental_uris": {"android": "https://dc.lft.to/lastmile_qr_scan", "ios": "https://dc.lft.to/lastmile_qr_scan"}, "fusion_lon": 0.0, "lat": 38.885266666666666, "bike_id": "d06f94df2e5713025ad0d9176376f0e2", "type": "electric_scooter", "is_reserved": 0, "lon": -76.929182}, {"fusion_lat": 0.0, "name": "154d7c85cb54c985315d4044cabd86bf", "is_disabled": 0, "rental_uris": {"android": "https://dc.lft.to/lastmile_qr_scan", "ios": "https://dc.lft.to/lastmile_qr_scan"}, "fusion_lon": 0.0, "lat": 38.899048, "bike_id": "154d7c85cb54c985315d4044cabd86bf", "type": "electric_scooter", "is_reserved": 0, "lon": -76.93356183333333}, {"fusion_lat": 0.0, "name": "1b81145a4ed1e69f7f2bbeeabeeb0d8f", "is_disabled": 0, "rental_uris": {"android": "https://dc.lft.to/lastmile_qr_scan", "ios": "https://dc.lft.to/lastmile_qr_scan"}, "fusion_lon": 0.0, "lat": 38.87578166666667, "bike_id": "1b81145a4ed1e69f7f2bbeeabeeb0d8f", "type": "electric_bike", "is_reserved": 0, "lon": -77.2340845}, {"fusion_lat": 0.0, "name": "79abf1259125bb970f8bccfae635138f", "is_disabled": 0, "rental_uris": {"android": "https://dc.lft.to/lastmile_qr_scan", "ios": "https://dc.lft.to/lastmile_qr_scan"}, "fusion_lon": 0.0, "lat": 38.8932475, "bike_id": "79abf1259125bb970f8bccfae635138f", "type": "electric_scooter", "is_reserved": 0, "lon": -77.03960166666667}, {"fusion_lat": 0.0, "name": "46d316a864846d1634d7be5550dd34cc", "is_disabled": 0, "rental_uris": {"android": "https://dc.lft.to/lastmile_qr_scan", "ios": "https://dc.lft.to/lastmile_qr_scan"}, "fusion_lon": 0.0, "lat": 38.93086433333333, "bike_id": "46d316a864846d1634d7be5550dd34cc", "type": "electric_scooter", "is_reserved": 0, "lon": -77.02554916666666}, {"fusion_lat": 0.0, "name": "b5c579134e93376c7e72b26a0729707c", "is_disabled": 0, "rental_uris": {"android": "https://dc.lft.to/lastmile_qr_scan", "ios": "https://dc.lft.to/lastmile_qr_scan"}, "fusion_lon": 0.0, "lat": 38.9161665, "bike_id": "b5c579134e93376c7e72b26a0729707c", "type": "electric_scooter", "is_reserved": 0, "lon": -77.0033595}, {"fusion_lat": 0.0, "name": "a32b0778ddaff7de41974be1ff48383b", "is_disabled": 0, "rental_uris": {"android": "https://dc.lft.to/lastmile_qr_scan", "ios": "https://dc.lft.to/lastmile_qr_scan"}, "fusion_lon": 0.0, "lat": 38.91842033333333, "bike_id": "a32b0778ddaff7de41974be1ff48383b", "type": "electric_scooter", "is_reserved": 0, "lon": -77.02427}, {"fusion_lat": 0.0, "name": "05da5482c4004b3ae97cbf7e65fa259a", "is_disabled": 0, "rental_uris": {"android": "https://dc.lft.to/lastmile_qr_scan", "ios": "https://dc.lft.to/lastmile_qr_scan"}, "fusion_lon": 0.0, "lat": 38.92840283333334, "bike_id": "05da5482c4004b3ae97cbf7e65fa259a", "type": "electric_scooter", "is_reserved": 0, "lon": -77.015825}, {"fusion_lat": 0.0, "name": "cdb1b34b98ab8fd8dff9385c7a1371bb", "is_disabled": 0, "rental_uris": {"android": "https://dc.lft.to/lastmile_qr_scan", "ios": "https://dc.lft.to/lastmile_qr_scan"}, "fusion_lon": 0.0, "lat": 38.90835333333333, "bike_id": "cdb1b34b98ab8fd8dff9385c7a1371bb", "type": "electric_scooter", "is_reserved": 0, "lon": -76.99975033333334}, {"fusion_lat": 0.0, "name": "8f69b6dbe66dde5f07fb91dbc4b35c3c", "is_disabled": 0, "rental_uris": {"android": "https://dc.lft.to/lastmile_qr_scan", "ios": "https://dc.lft.to/lastmile_qr_scan"}, "fusion_lon": 0.0, "lat": 38.93532916666667, "bike_id": "8f69b6dbe66dde5f07fb91dbc4b35c3c", "type": "electric_scooter", "is_reserved": 0, "lon": -77.02356183333333}, {"fusion_lat": 0.0, "name": "c9dd954a507ffe05e9e1dc6409f118bb", "is_disabled": 0, "rental_uris": {"android": "https://dc.lft.to/lastmile_qr_scan", "ios": "https://dc.lft.to/lastmile_qr_scan"}, "fusion_lon": 0.0, "lat": 38.96314, "bike_id": "c9dd954a507ffe05e9e1dc6409f118bb", "type": "electric_scooter", "is_reserved": 0, "lon": -77.0749615}, {"fusion_lat": 0.0, "name": "980f5bb7aba6a597874797f5cc281f6b", "is_disabled": 0, "rental_uris": {"android": "https://dc.lft.to/lastmile_qr_scan", "ios": "https://dc.lft.to/lastmile_qr_scan"}, "fusion_lon": 0.0, "lat": 38.899096666666665, "bike_id": "980f5bb7aba6a597874797f5cc281f6b", "type": "electric_scooter", "is_reserved": 0, "lon": -76.94586266666667}, {"fusion_lat": 0.0, "name": "50564ae7dddff91ff2fbbbeeda8c482e", "is_disabled": 0, "rental_uris": {"android": "https://dc.lft.to/lastmile_qr_scan", "ios": "https://dc.lft.to/lastmile_qr_scan"}, "fusion_lon": 0.0, "lat": 38.967512666666664, "bike_id": "50564ae7dddff91ff2fbbbeeda8c482e", "type": "electric_bike", "is_reserved": 0, "lon": -77.03363916666666}, {"fusion_lat": 0.0, "name": "0cafd43f59f7dfc4252a2d1e8800551e", "is_disabled": 0, "rental_uris": {"android": "https://dc.lft.to/lastmile_qr_scan", "ios": "https://dc.lft.to/lastmile_qr_scan"}, "fusion_lon": 0.0, "lat": 38.91558933333334, "bike_id": "0cafd43f59f7dfc4252a2d1e8800551e", "type": "electric_scooter", "is_reserved": 0, "lon": -77.03170633333333}, {"fusion_lat": 0.0, "name": "0dfbe932a04bb7ccaa013a5cd87de48b", "is_disabled": 0, "rental_uris": {"android": "https://dc.lft.to/lastmile_qr_scan", "ios": "https://dc.lft.to/lastmile_qr_scan"}, "fusion_lon": 0.0, "lat": 38.89338466666667, "bike_id": "0dfbe932a04bb7ccaa013a5cd87de48b", "type": "electric_scooter", "is_reserved": 0, "lon": -76.993793}, {"fusion_lat": 0.0, "name": "668044e2e1c198252d75c2e4ceeb608c", "is_disabled": 0, "rental_uris": {"android": "https://dc.lft.to/lastmile_qr_scan", "ios": "https://dc.lft.to/lastmile_qr_scan"}, "fusion_lon": 0.0, "lat": 38.84913433333333, "bike_id": "668044e2e1c198252d75c2e4ceeb608c", "type": "electric_bike", "is_reserved": 0, "lon": -77.09980133333333}, {"fusion_lat": 0.0, "name": "5c2a0db79b04bb1a2123f691b5d3bf8c", "is_disabled": 0, "rental_uris": {"android": "https://dc.lft.to/lastmile_qr_scan", "ios": "https://dc.lft.to/lastmile_qr_scan"}, "fusion_lon": 0.0, "lat": 38.87685283333333, "bike_id": "5c2a0db79b04bb1a2123f691b5d3bf8c", "type": "electric_scooter", "is_reserved": 0, "lon": -77.007396}, {"fusion_lat": 0.0, "name": "750d0f1a6b381683bd2a005f897b72c8", "is_disabled": 0, "rental_uris": {"android": "https://dc.lft.to/lastmile_qr_scan", "ios": "https://dc.lft.to/lastmile_qr_scan"}, "fusion_lon": 0.0, "lat": 38.865125, "bike_id": "750d0f1a6b381683bd2a005f897b72c8", "type": "electric_bike", "is_reserved": 0, "lon": -76.97329633333334}, {"fusion_lat": 0.0, "name": "e2e997f931d2603489bff7be700a5ef6", "is_disabled": 0, "rental_uris": {"android": "https://dc.lft.to/lastmile_qr_scan", "ios": "https://dc.lft.to/lastmile_qr_scan"}, "fusion_lon": 0.0, "lat": 38.93362583333333, "bike_id": "e2e997f931d2603489bff7be700a5ef6", "type": "electric_scooter", "is_reserved": 0, "lon": -77.03264233333333}, {"fusion_lat": 0.0, "name": "015c82abeddc96b36ad36ac5380c1395", "is_disabled": 0, "rental_uris": {"android": "https://dc.lft.to/lastmile_qr_scan", "ios": "https://dc.lft.to/lastmile_qr_scan"}, "fusion_lon": 0.0, "lat": 38.90360366666667, "bike_id": "015c82abeddc96b36ad36ac5380c1395", "type": "electric_scooter", "is_reserved": 0, "lon": -77.06272783333333}, {"fusion_lat": 0.0, "name": "e1a56ce009210eefaf5c658f8a440e3a", "is_disabled": 0, "rental_uris": {"android": "https://dc.lft.to/lastmile_qr_scan", "ios": "https://dc.lft.to/lastmile_qr_scan"}, "fusion_lon": 0.0, "lat": 38.926524666666666, "bike_id": "e1a56ce009210eefaf5c658f8a440e3a", "type": "electric_scooter", "is_reserved": 0, "lon": -77.03717816666666}, {"fusion_lat": 0.0, "name": "b066e8d4b454ce6f511967ac1d5160c0", "is_disabled": 0, "rental_uris": {"android": "https://dc.lft.to/lastmile_qr_scan", "ios": "https://dc.lft.to/lastmile_qr_scan"}, "fusion_lon": 0.0, "lat": 38.92868716666667, "bike_id": "b066e8d4b454ce6f511967ac1d5160c0", "type": "electric_scooter", "is_reserved": 0, "lon": -77.03479783333333}, {"fusion_lat": 0.0, "name": "c36970e1495577748c5cc616b5b9b39e", "is_disabled": 0, "rental_uris": {"android": "https://dc.lft.to/lastmile_qr_scan", "ios": "https://dc.lft.to/lastmile_qr_scan"}, "fusion_lon": 0.0, "lat": 38.914061333333336, "bike_id": "c36970e1495577748c5cc616b5b9b39e", "type": "electric_scooter", "is_reserved": 0, "lon": -77.0314535}, {"fusion_lat": 0.0, "name": "7b5259b0d2a6a42d86ebbaa9574e40f6", "is_disabled": 0, "rental_uris": {"android": "https://dc.lft.to/lastmile_qr_scan", "ios": "https://dc.lft.to/lastmile_qr_scan"}, "fusion_lon": 0.0, "lat": 38.938803166666666, "bike_id": "7b5259b0d2a6a42d86ebbaa9574e40f6", "type": "electric_scooter", "is_reserved": 0, "lon": -77.02479633333333}, {"fusion_lat": 0.0, "name": "34bd2f1f7b8dc4cc9a570b3f00f47854", "is_disabled": 0, "rental_uris": {"android": "https://dc.lft.to/lastmile_qr_scan", "ios": "https://dc.lft.to/lastmile_qr_scan"}, "fusion_lon": 0.0, "lat": 38.90799066666666, "bike_id": "34bd2f1f7b8dc4cc9a570b3f00f47854", "type": "electric_scooter", "is_reserved": 0, "lon": -77.03830966666666}, {"fusion_lat": 0.0, "name": "bb488012c5c260ebf911c8f29d5d145c", "is_disabled": 0, "rental_uris": {"android": "https://dc.lft.to/lastmile_qr_scan", "ios": "https://dc.lft.to/lastmile_qr_scan"}, "fusion_lon": 0.0, "lat": 38.914976833333334, "bike_id": "bb488012c5c260ebf911c8f29d5d145c", "type": "electric_scooter", "is_reserved": 0, "lon": -76.98362266666666}, {"fusion_lat": 0.0, "name": "d058cb88675a06281f106f557ba7d5ac", "is_disabled": 0, "rental_uris": {"android": "https://dc.lft.to/lastmile_qr_scan", "ios": "https://dc.lft.to/lastmile_qr_scan"}, "fusion_lon": 0.0, "lat": 38.807533166666666, "bike_id": "d058cb88675a06281f106f557ba7d5ac", "type": "electric_bike", "is_reserved": 0, "lon": -77.09454883333333}, {"fusion_lat": 0.0, "name": "8d142f367192654d03ef608bf2448341", "is_disabled": 0, "rental_uris": {"android": "https://dc.lft.to/lastmile_qr_scan", "ios": "https://dc.lft.to/lastmile_qr_scan"}, "fusion_lon": 0.0, "lat": 38.905575166666665, "bike_id": "8d142f367192654d03ef608bf2448341", "type": "electric_scooter", "is_reserved": 0, "lon": -76.99791883333333}, {"fusion_lat": 0.0, "name": "3c1cec0980a0ac693bbb2b9097cbaa25", "is_disabled": 0, "rental_uris": {"android": "https://dc.lft.to/lastmile_qr_scan", "ios": "https://dc.lft.to/lastmile_qr_scan"}, "fusion_lon": 0.0, "lat": 38.905607333333336, "bike_id": "3c1cec0980a0ac693bbb2b9097cbaa25", "type": "electric_scooter", "is_reserved": 0, "lon": -76.98199666666666}, {"fusion_lat": 0.0, "name": "ab8131ee75a9a11ced7acbdee32f6cd0", "is_disabled": 0, "rental_uris": {"android": "https://dc.lft.to/lastmile_qr_scan", "ios": "https://dc.lft.to/lastmile_qr_scan"}, "fusion_lon": 0.0, "lat": 38.907937, "bike_id": "ab8131ee75a9a11ced7acbdee32f6cd0", "type": "electric_scooter", "is_reserved": 0, "lon": -76.99426866666667}, {"fusion_lat": 0.0, "name": "cc7c5e8b5f9f7ff5d70c8afa7cc0596e", "is_disabled": 0, "rental_uris": {"android": "https://dc.lft.to/lastmile_qr_scan", "ios": "https://dc.lft.to/lastmile_qr_scan"}, "fusion_lon": 0.0, "lat": 38.88821933333333, "bike_id": "cc7c5e8b5f9f7ff5d70c8afa7cc0596e", "type": "electric_scooter", "is_reserved": 0, "lon": -76.98667366666666}, {"fusion_lat": 0.0, "name": "eca66765b9a6fece0f7a3d2a837f3ca7", "is_disabled": 0, "rental_uris": {"android": "https://dc.lft.to/lastmile_qr_scan", "ios": "https://dc.lft.to/lastmile_qr_scan"}, "fusion_lon": 0.0, "lat": 38.905544666666664, "bike_id": "eca66765b9a6fece0f7a3d2a837f3ca7", "type": "electric_scooter", "is_reserved": 0, "lon": -77.065295}, {"fusion_lat": 0.0, "name": "405aed02ed5ab471cd76401a1e325d34", "is_disabled": 0, "rental_uris": {"android": "https://dc.lft.to/lastmile_qr_scan", "ios": "https://dc.lft.to/lastmile_qr_scan"}, "fusion_lon": 0.0, "lat": 38.9225065, "bike_id": "405aed02ed5ab471cd76401a1e325d34", "type": "electric_scooter", "is_reserved": 0, "lon": -77.07448366666667}, {"fusion_lat": 0.0, "name": "194d91151c7d4c7621f25eaf39f52f45", "is_disabled": 0, "rental_uris": {"android": "https://dc.lft.to/lastmile_qr_scan", "ios": "https://dc.lft.to/lastmile_qr_scan"}, "fusion_lon": 0.0, "lat": 38.9248775, "bike_id": "194d91151c7d4c7621f25eaf39f52f45", "type": "electric_scooter", "is_reserved": 0, "lon": -77.057489}, {"fusion_lat": 0.0, "name": "228ff40c434dd6c2b6e4959a3326fce5", "is_disabled": 0, "rental_uris": {"android": "https://dc.lft.to/lastmile_qr_scan", "ios": "https://dc.lft.to/lastmile_qr_scan"}, "fusion_lon": 0.0, "lat": 38.896033, "bike_id": "228ff40c434dd6c2b6e4959a3326fce5", "type": "electric_scooter", "is_reserved": 0, "lon": -77.025171}, {"fusion_lat": 0.0, "name": "b1a863964901849dd6b785cdffb09640", "is_disabled": 0, "rental_uris": {"android": "https://dc.lft.to/lastmile_qr_scan", "ios": "https://dc.lft.to/lastmile_qr_scan"}, "fusion_lon": 0.0, "lat": 38.9262325, "bike_id": "b1a863964901849dd6b785cdffb09640", "type": "electric_scooter", "is_reserved": 0, "lon": -77.05471533333333}, {"fusion_lat": 0.0, "name": "5e62beae2ed6a485f9f5e2d440fb854e", "is_disabled": 0, "rental_uris": {"android": "https://dc.lft.to/lastmile_qr_scan", "ios": "https://dc.lft.to/lastmile_qr_scan"}, "fusion_lon": 0.0, "lat": 38.90456116666667, "bike_id": "5e62beae2ed6a485f9f5e2d440fb854e", "type": "electric_scooter", "is_reserved": 0, "lon": -77.00171583333334}, {"fusion_lat": 0.0, "name": "506ae417f5131746df7e52a9b1122982", "is_disabled": 0, "rental_uris": {"android": "https://dc.lft.to/lastmile_qr_scan", "ios": "https://dc.lft.to/lastmile_qr_scan"}, "fusion_lon": 0.0, "lat": 38.911555666666665, "bike_id": "506ae417f5131746df7e52a9b1122982", "type": "electric_scooter", "is_reserved": 0, "lon": -77.01998366666666}, {"fusion_lat": 0.0, "name": "1a9987716b9ff8908918c3404cd26742", "is_disabled": 0, "rental_uris": {"android": "https://dc.lft.to/lastmile_qr_scan", "ios": "https://dc.lft.to/lastmile_qr_scan"}, "fusion_lon": 0.0, "lat": 38.896790833333334, "bike_id": "1a9987716b9ff8908918c3404cd26742", "type": "electric_scooter", "is_reserved": 0, "lon": -77.00791866666667}, {"fusion_lat": 0.0, "name": "9e8eaf2a2aa36e9b0eb2f98c5957f8c1", "is_disabled": 0, "rental_uris": {"android": "https://dc.lft.to/lastmile_qr_scan", "ios": "https://dc.lft.to/lastmile_qr_scan"}, "fusion_lon": 0.0, "lat": 38.9002105, "bike_id": "9e8eaf2a2aa36e9b0eb2f98c5957f8c1", "type": "electric_scooter", "is_reserved": 0, "lon": -77.006705}, {"fusion_lat": 0.0, "name": "27e72409cd9c918227ef2e52b30ef72d", "is_disabled": 0, "rental_uris": {"android": "https://dc.lft.to/lastmile_qr_scan", "ios": "https://dc.lft.to/lastmile_qr_scan"}, "fusion_lon": 0.0, "lat": 38.885182, "bike_id": "27e72409cd9c918227ef2e52b30ef72d", "type": "electric_scooter", "is_reserved": 0, "lon": -77.01525433333333}, {"fusion_lat": 0.0, "name": "4498904c5a303701708331f6453d071f", "is_disabled": 0, "rental_uris": {"android": "https://dc.lft.to/lastmile_qr_scan", "ios": "https://dc.lft.to/lastmile_qr_scan"}, "fusion_lon": 0.0, "lat": 38.93050516666667, "bike_id": "4498904c5a303701708331f6453d071f", "type": "electric_scooter", "is_reserved": 0, "lon": -77.03178316666667}, {"fusion_lat": 0.0, "name": "3636f8e0f1717db5cf743993a6742b9e", "is_disabled": 0, "rental_uris": {"android": "https://dc.lft.to/lastmile_qr_scan", "ios": "https://dc.lft.to/lastmile_qr_scan"}, "fusion_lon": 0.0, "lat": 38.904214833333334, "bike_id": "3636f8e0f1717db5cf743993a6742b9e", "type": "electric_scooter", "is_reserved": 0, "lon": -76.94975533333333}, {"fusion_lat": 0.0, "name": "48b0823639403fca23db12c313454c8c", "is_disabled": 0, "rental_uris": {"android": "https://dc.lft.to/lastmile_qr_scan", "ios": "https://dc.lft.to/lastmile_qr_scan"}, "fusion_lon": 0.0, "lat": 38.93704066666667, "bike_id": "48b0823639403fca23db12c313454c8c", "type": "electric_scooter", "is_reserved": 0, "lon": -77.055978}, {"fusion_lat": 0.0, "name": "8bcdd6d52074ee91a37c3e72a8371fd9", "is_disabled": 0, "rental_uris": {"android": "https://dc.lft.to/lastmile_qr_scan", "ios": "https://dc.lft.to/lastmile_qr_scan"}, "fusion_lon": 0.0, "lat": 38.940711666666665, "bike_id": "8bcdd6d52074ee91a37c3e72a8371fd9", "type": "electric_scooter", "is_reserved": 0, "lon": -77.02391316666667}, {"fusion_lat": 0.0, "name": "7fb4a8738b0d7790db1b2090c2437273", "is_disabled": 0, "rental_uris": {"android": "https://dc.lft.to/lastmile_qr_scan", "ios": "https://dc.lft.to/lastmile_qr_scan"}, "fusion_lon": 0.0, "lat": 38.90956333333333, "bike_id": "7fb4a8738b0d7790db1b2090c2437273", "type": "electric_scooter", "is_reserved": 0, "lon": -77.01037633333334}, {"fusion_lat": 0.0, "name": "cf97a6bcbe55861404e5a7748f5fcece", "is_disabled": 0, "rental_uris": {"android": "https://dc.lft.to/lastmile_qr_scan", "ios": "https://dc.lft.to/lastmile_qr_scan"}, "fusion_lon": 0.0, "lat": 38.93245616666667, "bike_id": "cf97a6bcbe55861404e5a7748f5fcece", "type": "electric_scooter", "is_reserved": 0, "lon": -77.040103}, {"fusion_lat": 0.0, "name": "8a2baf6ff1e0d7e4327d2e8f1e5f9d7a", "is_disabled": 0, "rental_uris": {"android": "https://dc.lft.to/lastmile_qr_scan", "ios": "https://dc.lft.to/lastmile_qr_scan"}, "fusion_lon": 0.0, "lat": 38.928227, "bike_id": "8a2baf6ff1e0d7e4327d2e8f1e5f9d7a", "type": "electric_scooter", "is_reserved": 0, "lon": -77.02256033333333}, {"fusion_lat": 0.0, "name": "e223a067a26f7a8904b7ca61afbb4924", "is_disabled": 0, "rental_uris": {"android": "https://dc.lft.to/lastmile_qr_scan", "ios": "https://dc.lft.to/lastmile_qr_scan"}, "fusion_lon": 0.0, "lat": 38.91447483333334, "bike_id": "e223a067a26f7a8904b7ca61afbb4924", "type": "electric_scooter", "is_reserved": 0, "lon": -77.01282866666666}, {"fusion_lat": 0.0, "name": "c1a29193d3d84050ff9df9556ff1f3d6", "is_disabled": 0, "rental_uris": {"android": "https://dc.lft.to/lastmile_qr_scan", "ios": "https://dc.lft.to/lastmile_qr_scan"}, "fusion_lon": 0.0, "lat": 38.93523283333333, "bike_id": "c1a29193d3d84050ff9df9556ff1f3d6", "type": "electric_scooter", "is_reserved": 0, "lon": -77.0307785}, {"fusion_lat": 0.0, "name": "62eb78c3c464068370f5d5edde462514", "is_disabled": 0, "rental_uris": {"android": "https://dc.lft.to/lastmile_qr_scan", "ios": "https://dc.lft.to/lastmile_qr_scan"}, "fusion_lon": 0.0, "lat": 38.93572016666667, "bike_id": "62eb78c3c464068370f5d5edde462514", "type": "electric_scooter", "is_reserved": 0, "lon": -77.01920316666667}, {"fusion_lat": 0.0, "name": "2eaa9d2f06e47f37d648aa43e5c5773d", "is_disabled": 0, "rental_uris": {"android": "https://dc.lft.to/lastmile_qr_scan", "ios": "https://dc.lft.to/lastmile_qr_scan"}, "fusion_lon": 0.0, "lat": 38.892996333333336, "bike_id": "2eaa9d2f06e47f37d648aa43e5c5773d", "type": "electric_scooter", "is_reserved": 0, "lon": -77.04660716666666}, {"fusion_lat": 0.0, "name": "829b12479fac7025038c2cf5420fd7a3", "is_disabled": 0, "rental_uris": {"android": "https://dc.lft.to/lastmile_qr_scan", "ios": "https://dc.lft.to/lastmile_qr_scan"}, "fusion_lon": 0.0, "lat": 38.928982500000004, "bike_id": "829b12479fac7025038c2cf5420fd7a3", "type": "electric_scooter", "is_reserved": 0, "lon": -77.0374205}, {"fusion_lat": 0.0, "name": "1aa2ce17ebfa489b3a96f9fef1aba55f", "is_disabled": 0, "rental_uris": {"android": "https://dc.lft.to/lastmile_qr_scan", "ios": "https://dc.lft.to/lastmile_qr_scan"}, "fusion_lon": 0.0, "lat": 38.9169145, "bike_id": "1aa2ce17ebfa489b3a96f9fef1aba55f", "type": "electric_scooter", "is_reserved": 0, "lon": -77.04044533333334}, {"fusion_lat": 0.0, "name": "78ff26a5039718f7926176da34728d96", "is_disabled": 0, "rental_uris": {"android": "https://dc.lft.to/lastmile_qr_scan", "ios": "https://dc.lft.to/lastmile_qr_scan"}, "fusion_lon": 0.0, "lat": 38.89475133333333, "bike_id": "78ff26a5039718f7926176da34728d96", "type": "electric_scooter", "is_reserved": 0, "lon": -77.01038916666667}, {"fusion_lat": 0.0, "name": "403b6843338643a6ec2d427f730bb9ac", "is_disabled": 0, "rental_uris": {"android": "https://dc.lft.to/lastmile_qr_scan", "ios": "https://dc.lft.to/lastmile_qr_scan"}, "fusion_lon": 0.0, "lat": 38.91918583333333, "bike_id": "403b6843338643a6ec2d427f730bb9ac", "type": "electric_scooter", "is_reserved": 0, "lon": -77.03262616666666}, {"fusion_lat": 0.0, "name": "4d21f0b6a566ecb4ac167880e77681b9", "is_disabled": 0, "rental_uris": {"android": "https://dc.lft.to/lastmile_qr_scan", "ios": "https://dc.lft.to/lastmile_qr_scan"}, "fusion_lon": 0.0, "lat": 38.9311555, "bike_id": "4d21f0b6a566ecb4ac167880e77681b9", "type": "electric_scooter", "is_reserved": 0, "lon": -77.03639833333334}, {"fusion_lat": 0.0, "name": "5b9f4ff737a818d26e2f2c418c960a1f", "is_disabled": 0, "rental_uris": {"android": "https://dc.lft.to/lastmile_qr_scan", "ios": "https://dc.lft.to/lastmile_qr_scan"}, "fusion_lon": 0.0, "lat": 38.902165, "bike_id": "5b9f4ff737a818d26e2f2c418c960a1f", "type": "electric_scooter", "is_reserved": 0, "lon": -77.0511495}, {"fusion_lat": 0.0, "name": "10e04bb972bd1ffa4607856e89037ead", "is_disabled": 0, "rental_uris": {"android": "https://dc.lft.to/lastmile_qr_scan", "ios": "https://dc.lft.to/lastmile_qr_scan"}, "fusion_lon": 0.0, "lat": 38.932632166666664, "bike_id": "10e04bb972bd1ffa4607856e89037ead", "type": "electric_scooter", "is_reserved": 0, "lon": -77.0389275}, {"fusion_lat": 0.0, "name": "38fca8363776bf0b4cf5fe4bd19cce40", "is_disabled": 0, "rental_uris": {"android": "https://dc.lft.to/lastmile_qr_scan", "ios": "https://dc.lft.to/lastmile_qr_scan"}, "fusion_lon": 0.0, "lat": 38.90737466666667, "bike_id": "38fca8363776bf0b4cf5fe4bd19cce40", "type": "electric_scooter", "is_reserved": 0, "lon": -77.00180616666667}, {"fusion_lat": 0.0, "name": "fc9e7d194e21b39d220508f00b2cb035", "is_disabled": 0, "rental_uris": {"android": "https://dc.lft.to/lastmile_qr_scan", "ios": "https://dc.lft.to/lastmile_qr_scan"}, "fusion_lon": 0.0, "lat": 38.91262433333333, "bike_id": "fc9e7d194e21b39d220508f00b2cb035", "type": "electric_scooter", "is_reserved": 0, "lon": -77.03382166666667}, {"fusion_lat": 0.0, "name": "162f748c28e0774e2457660792629018", "is_disabled": 0, "rental_uris": {"android": "https://dc.lft.to/lastmile_qr_scan", "ios": "https://dc.lft.to/lastmile_qr_scan"}, "fusion_lon": 0.0, "lat": 38.90726, "bike_id": "162f748c28e0774e2457660792629018", "type": "electric_scooter", "is_reserved": 0, "lon": -77.02508383333333}, {"fusion_lat": 0.0, "name": "e11412640ff53f0aaa4593c5580e3403", "is_disabled": 0, "rental_uris": {"android": "https://dc.lft.to/lastmile_qr_scan", "ios": "https://dc.lft.to/lastmile_qr_scan"}, "fusion_lon": 0.0, "lat": 38.91253716666667, "bike_id": "e11412640ff53f0aaa4593c5580e3403", "type": "electric_scooter", "is_reserved": 0, "lon": -77.04933116666666}, {"fusion_lat": 0.0, "name": "1534c46db04e98794e86f4479e2ec2d0", "is_disabled": 0, "rental_uris": {"android": "https://dc.lft.to/lastmile_qr_scan", "ios": "https://dc.lft.to/lastmile_qr_scan"}, "fusion_lon": 0.0, "lat": 38.91341333333333, "bike_id": "1534c46db04e98794e86f4479e2ec2d0", "type": "electric_scooter", "is_reserved": 0, "lon": -77.0487235}, {"fusion_lat": 0.0, "name": "dabd9e6dfa64518d53eeac383b61c5a0", "is_disabled": 0, "rental_uris": {"android": "https://dc.lft.to/lastmile_qr_scan", "ios": "https://dc.lft.to/lastmile_qr_scan"}, "fusion_lon": 0.0, "lat": 38.923016, "bike_id": "dabd9e6dfa64518d53eeac383b61c5a0", "type": "electric_scooter", "is_reserved": 0, "lon": -77.04258716666666}, {"fusion_lat": 0.0, "name": "771c80f6fc58885f256114c989a05362", "is_disabled": 0, "rental_uris": {"android": "https://dc.lft.to/lastmile_qr_scan", "ios": "https://dc.lft.to/lastmile_qr_scan"}, "fusion_lon": 0.0, "lat": 38.892262333333335, "bike_id": "771c80f6fc58885f256114c989a05362", "type": "electric_scooter", "is_reserved": 0, "lon": -77.0499835}, {"fusion_lat": 0.0, "name": "ef8f8087dd849d7837beb8c55323c34d", "is_disabled": 0, "rental_uris": {"android": "https://dc.lft.to/lastmile_qr_scan", "ios": "https://dc.lft.to/lastmile_qr_scan"}, "fusion_lon": 0.0, "lat": 38.904584, "bike_id": "ef8f8087dd849d7837beb8c55323c34d", "type": "electric_scooter", "is_reserved": 0, "lon": -77.0335285}, {"fusion_lat": 0.0, "name": "c105882ac736ff18ebb4cf416c00d66a", "is_disabled": 0, "rental_uris": {"android": "https://dc.lft.to/lastmile_qr_scan", "ios": "https://dc.lft.to/lastmile_qr_scan"}, "fusion_lon": 0.0, "lat": 38.87649366666667, "bike_id": "c105882ac736ff18ebb4cf416c00d66a", "type": "electric_scooter", "is_reserved": 0, "lon": -77.0078645}, {"fusion_lat": 0.0, "name": "366a2a94cf8dc022aea40dc9a20024ad", "is_disabled": 0, "rental_uris": {"android": "https://dc.lft.to/lastmile_qr_scan", "ios": "https://dc.lft.to/lastmile_qr_scan"}, "fusion_lon": 0.0, "lat": 38.923651666666665, "bike_id": "366a2a94cf8dc022aea40dc9a20024ad", "type": "electric_scooter", "is_reserved": 0, "lon": -77.0206065}, {"fusion_lat": 0.0, "name": "514afa5b5da088354111b33ec6dc6a39", "is_disabled": 0, "rental_uris": {"android": "https://dc.lft.to/lastmile_qr_scan", "ios": "https://dc.lft.to/lastmile_qr_scan"}, "fusion_lon": 0.0, "lat": 38.949744833333334, "bike_id": "514afa5b5da088354111b33ec6dc6a39", "type": "electric_scooter", "is_reserved": 0, "lon": -77.0270205}, {"fusion_lat": 0.0, "name": "5a019dfc3a143527d6bede52435f2209", "is_disabled": 0, "rental_uris": {"android": "https://dc.lft.to/lastmile_qr_scan", "ios": "https://dc.lft.to/lastmile_qr_scan"}, "fusion_lon": 0.0, "lat": 38.91656833333333, "bike_id": "5a019dfc3a143527d6bede52435f2209", "type": "electric_bike", "is_reserved": 0, "lon": -76.98229883333333}, {"fusion_lat": 0.0, "name": "735bbb6966db55a5ca0654c0326b0287", "is_disabled": 0, "rental_uris": {"android": "https://dc.lft.to/lastmile_qr_scan", "ios": "https://dc.lft.to/lastmile_qr_scan"}, "fusion_lon": 0.0, "lat": 38.868498, "bike_id": "735bbb6966db55a5ca0654c0326b0287", "type": "electric_scooter", "is_reserved": 0, "lon": -76.988312}, {"fusion_lat": 0.0, "name": "7a64ad38259a83434b36a4f30589f655", "is_disabled": 0, "rental_uris": {"android": "https://dc.lft.to/lastmile_qr_scan", "ios": "https://dc.lft.to/lastmile_qr_scan"}, "fusion_lon": 0.0, "lat": 38.875694, "bike_id": "7a64ad38259a83434b36a4f30589f655", "type": "electric_scooter", "is_reserved": 0, "lon": -77.0073905}, {"fusion_lat": 0.0, "name": "977f81507fd23247668a18b12e7ef2e6", "is_disabled": 0, "rental_uris": {"android": "https://dc.lft.to/lastmile_qr_scan", "ios": "https://dc.lft.to/lastmile_qr_scan"}, "fusion_lon": 0.0, "lat": 38.925376, "bike_id": "977f81507fd23247668a18b12e7ef2e6", "type": "electric_scooter", "is_reserved": 0, "lon": -77.05119433333333}, {"fusion_lat": 0.0, "name": "114277a14bae08082fd6587e7e1252c3", "is_disabled": 0, "rental_uris": {"android": "https://dc.lft.to/lastmile_qr_scan", "ios": "https://dc.lft.to/lastmile_qr_scan"}, "fusion_lon": 0.0, "lat": 38.892508166666666, "bike_id": "114277a14bae08082fd6587e7e1252c3", "type": "electric_scooter", "is_reserved": 0, "lon": -77.03376316666666}, {"fusion_lat": 0.0, "name": "6031c910724ed7cae6a4c1943a14e011", "is_disabled": 0, "rental_uris": {"android": "https://dc.lft.to/lastmile_qr_scan", "ios": "https://dc.lft.to/lastmile_qr_scan"}, "fusion_lon": 0.0, "lat": 38.8936025, "bike_id": "6031c910724ed7cae6a4c1943a14e011", "type": "electric_scooter", "is_reserved": 0, "lon": -77.02251466666667}, {"fusion_lat": 0.0, "name": "c578af0c1b3143aed5a1deda82097ae4", "is_disabled": 0, "rental_uris": {"android": "https://dc.lft.to/lastmile_qr_scan", "ios": "https://dc.lft.to/lastmile_qr_scan"}, "fusion_lon": 0.0, "lat": 38.8951215, "bike_id": "c578af0c1b3143aed5a1deda82097ae4", "type": "electric_scooter", "is_reserved": 0, "lon": -76.9808105}, {"fusion_lat": 0.0, "name": "472971c317dedb02da1d3d4c3a6596b1", "is_disabled": 0, "rental_uris": {"android": "https://dc.lft.to/lastmile_qr_scan", "ios": "https://dc.lft.to/lastmile_qr_scan"}, "fusion_lon": 0.0, "lat": 38.94389566666667, "bike_id": "472971c317dedb02da1d3d4c3a6596b1", "type": "electric_scooter", "is_reserved": 0, "lon": -77.032152}, {"fusion_lat": 0.0, "name": "238fe695c87cf9f2e170c7a108900e47", "is_disabled": 0, "rental_uris": {"android": "https://dc.lft.to/lastmile_qr_scan", "ios": "https://dc.lft.to/lastmile_qr_scan"}, "fusion_lon": 0.0, "lat": 38.9534475, "bike_id": "238fe695c87cf9f2e170c7a108900e47", "type": "electric_scooter", "is_reserved": 0, "lon": -77.079498}, {"fusion_lat": 0.0, "name": "e251c7aadeb87d1c3f081cf3c0ac1c18", "is_disabled": 0, "rental_uris": {"android": "https://dc.lft.to/lastmile_qr_scan", "ios": "https://dc.lft.to/lastmile_qr_scan"}, "fusion_lon": 0.0, "lat": 38.90638466666667, "bike_id": "e251c7aadeb87d1c3f081cf3c0ac1c18", "type": "electric_scooter", "is_reserved": 0, "lon": -77.02942883333333}, {"fusion_lat": 0.0, "name": "14d5989a3fd52f34292b0b65c652b303", "is_disabled": 0, "rental_uris": {"android": "https://dc.lft.to/lastmile_qr_scan", "ios": "https://dc.lft.to/lastmile_qr_scan"}, "fusion_lon": 0.0, "lat": 38.9451225, "bike_id": "14d5989a3fd52f34292b0b65c652b303", "type": "electric_bike", "is_reserved": 0, "lon": -77.00679083333333}, {"fusion_lat": 0.0, "name": "4d929b10cc57fd55a3bf46483a1f6fff", "is_disabled": 0, "rental_uris": {"android": "https://dc.lft.to/lastmile_qr_scan", "ios": "https://dc.lft.to/lastmile_qr_scan"}, "fusion_lon": 0.0, "lat": 38.91112233333333, "bike_id": "4d929b10cc57fd55a3bf46483a1f6fff", "type": "electric_scooter", "is_reserved": 0, "lon": -76.997661}, {"fusion_lat": 0.0, "name": "0600be7e18e4f7cc614b6d3b524f8253", "is_disabled": 0, "rental_uris": {"android": "https://dc.lft.to/lastmile_qr_scan", "ios": "https://dc.lft.to/lastmile_qr_scan"}, "fusion_lon": 0.0, "lat": 38.9354935, "bike_id": "0600be7e18e4f7cc614b6d3b524f8253", "type": "electric_scooter", "is_reserved": 0, "lon": -77.02226383333333}, {"fusion_lat": 0.0, "name": "bc4cb66eb3ddc11ff97b208c6b66b5bd", "is_disabled": 0, "rental_uris": {"android": "https://dc.lft.to/lastmile_qr_scan", "ios": "https://dc.lft.to/lastmile_qr_scan"}, "fusion_lon": 0.0, "lat": 38.959265, "bike_id": "bc4cb66eb3ddc11ff97b208c6b66b5bd", "type": "electric_scooter", "is_reserved": 0, "lon": -77.08477816666667}, {"fusion_lat": 0.0, "name": "3085079768b7245b850eae60ff876f13", "is_disabled": 0, "rental_uris": {"android": "https://dc.lft.to/lastmile_qr_scan", "ios": "https://dc.lft.to/lastmile_qr_scan"}, "fusion_lon": 0.0, "lat": 38.93063466666667, "bike_id": "3085079768b7245b850eae60ff876f13", "type": "electric_scooter", "is_reserved": 0, "lon": -77.03941783333333}, {"fusion_lat": 0.0, "name": "30aa4891fa776114d82fd0e93b280035", "is_disabled": 0, "rental_uris": {"android": "https://dc.lft.to/lastmile_qr_scan", "ios": "https://dc.lft.to/lastmile_qr_scan"}, "fusion_lon": 0.0, "lat": 38.926777666666666, "bike_id": "30aa4891fa776114d82fd0e93b280035", "type": "electric_scooter", "is_reserved": 0, "lon": -77.02258866666666}, {"fusion_lat": 0.0, "name": "c337a2165e3ff68c6d52ff5eb4dbb0b2", "is_disabled": 0, "rental_uris": {"android": "https://dc.lft.to/lastmile_qr_scan", "ios": "https://dc.lft.to/lastmile_qr_scan"}, "fusion_lon": 0.0, "lat": 38.949806, "bike_id": "c337a2165e3ff68c6d52ff5eb4dbb0b2", "type": "electric_scooter", "is_reserved": 0, "lon": -77.026978}, {"fusion_lat": 0.0, "name": "40f83c9fd19668f6a80871e4e7e5d428", "is_disabled": 0, "rental_uris": {"android": "https://dc.lft.to/lastmile_qr_scan", "ios": "https://dc.lft.to/lastmile_qr_scan"}, "fusion_lon": 0.0, "lat": 38.89509533333333, "bike_id": "40f83c9fd19668f6a80871e4e7e5d428", "type": "electric_scooter", "is_reserved": 0, "lon": -77.01112516666667}, {"fusion_lat": 0.0, "name": "df4d195351118090caf649d21ef34944", "is_disabled": 0, "rental_uris": {"android": "https://dc.lft.to/lastmile_qr_scan", "ios": "https://dc.lft.to/lastmile_qr_scan"}, "fusion_lon": 0.0, "lat": 38.916696, "bike_id": "df4d195351118090caf649d21ef34944", "type": "electric_scooter", "is_reserved": 0, "lon": -77.0271095}, {"fusion_lat": 0.0, "name": "03bbdb3eb05a2b66e4a1809a19037573", "is_disabled": 0, "rental_uris": {"android": "https://dc.lft.to/lastmile_qr_scan", "ios": "https://dc.lft.to/lastmile_qr_scan"}, "fusion_lon": 0.0, "lat": 38.96195066666667, "bike_id": "03bbdb3eb05a2b66e4a1809a19037573", "type": "electric_bike", "is_reserved": 0, "lon": -77.0191365}, {"fusion_lat": 0.0, "name": "1409369dfd15f4e8cc0cbce8b6256fa5", "is_disabled": 0, "rental_uris": {"android": "https://dc.lft.to/lastmile_qr_scan", "ios": "https://dc.lft.to/lastmile_qr_scan"}, "fusion_lon": 0.0, "lat": 38.949124, "bike_id": "1409369dfd15f4e8cc0cbce8b6256fa5", "type": "electric_scooter", "is_reserved": 0, "lon": -77.01859316666666}, {"fusion_lat": 0.0, "name": "4f3856bc3b2939374751cd2aa3e0a000", "is_disabled": 0, "rental_uris": {"android": "https://dc.lft.to/lastmile_qr_scan", "ios": "https://dc.lft.to/lastmile_qr_scan"}, "fusion_lon": 0.0, "lat": 38.891814, "bike_id": "4f3856bc3b2939374751cd2aa3e0a000", "type": "electric_scooter", "is_reserved": 0, "lon": -77.02174683333334}, {"fusion_lat": 0.0, "name": "3e6232c1e004dcbf644323caabd2faa9", "is_disabled": 0, "rental_uris": {"android": "https://dc.lft.to/lastmile_qr_scan", "ios": "https://dc.lft.to/lastmile_qr_scan"}, "fusion_lon": 0.0, "lat": 38.93558016666667, "bike_id": "3e6232c1e004dcbf644323caabd2faa9", "type": "electric_scooter", "is_reserved": 0, "lon": -77.03488816666666}, {"fusion_lat": 0.0, "name": "a23716e795d01279f815fbd49fe393ab", "is_disabled": 0, "rental_uris": {"android": "https://dc.lft.to/lastmile_qr_scan", "ios": "https://dc.lft.to/lastmile_qr_scan"}, "fusion_lon": 0.0, "lat": 38.902249, "bike_id": "a23716e795d01279f815fbd49fe393ab", "type": "electric_scooter", "is_reserved": 0, "lon": -77.0192565}, {"fusion_lat": 0.0, "name": "94d2a3cbfa239abad295a7b96eb359a7", "is_disabled": 0, "rental_uris": {"android": "https://dc.lft.to/lastmile_qr_scan", "ios": "https://dc.lft.to/lastmile_qr_scan"}, "fusion_lon": 0.0, "lat": 38.93050066666667, "bike_id": "94d2a3cbfa239abad295a7b96eb359a7", "type": "electric_scooter", "is_reserved": 0, "lon": -77.03367066666667}, {"fusion_lat": 0.0, "name": "0f7674c19bfeff8277927619e73782b7", "is_disabled": 0, "rental_uris": {"android": "https://dc.lft.to/lastmile_qr_scan", "ios": "https://dc.lft.to/lastmile_qr_scan"}, "fusion_lon": 0.0, "lat": 38.85794283333333, "bike_id": "0f7674c19bfeff8277927619e73782b7", "type": "electric_bike", "is_reserved": 0, "lon": -77.1201315}, {"fusion_lat": 0.0, "name": "27ad099d3a327428a7cd7f65419c87de", "is_disabled": 0, "rental_uris": {"android": "https://dc.lft.to/lastmile_qr_scan", "ios": "https://dc.lft.to/lastmile_qr_scan"}, "fusion_lon": 0.0, "lat": 38.930545333333335, "bike_id": "27ad099d3a327428a7cd7f65419c87de", "type": "electric_scooter", "is_reserved": 0, "lon": -77.02970183333333}, {"fusion_lat": 0.0, "name": "dbb6535471c54e5fec0848123860383d", "is_disabled": 0, "rental_uris": {"android": "https://dc.lft.to/lastmile_qr_scan", "ios": "https://dc.lft.to/lastmile_qr_scan"}, "fusion_lon": 0.0, "lat": 38.926882, "bike_id": "dbb6535471c54e5fec0848123860383d", "type": "electric_scooter", "is_reserved": 0, "lon": -77.00777}, {"fusion_lat": 0.0, "name": "cef57fb99b13d4101214b881eeb80300", "is_disabled": 0, "rental_uris": {"android": "https://dc.lft.to/lastmile_qr_scan", "ios": "https://dc.lft.to/lastmile_qr_scan"}, "fusion_lon": 0.0, "lat": 38.929525, "bike_id": "cef57fb99b13d4101214b881eeb80300", "type": "electric_scooter", "is_reserved": 0, "lon": -77.03465783333333}, {"fusion_lat": 0.0, "name": "9b3a8397af246e6bf7d258c61bd9829d", "is_disabled": 0, "rental_uris": {"android": "https://dc.lft.to/lastmile_qr_scan", "ios": "https://dc.lft.to/lastmile_qr_scan"}, "fusion_lon": 0.0, "lat": 38.91129733333333, "bike_id": "9b3a8397af246e6bf7d258c61bd9829d", "type": "electric_scooter", "is_reserved": 0, "lon": -77.01050116666667}, {"fusion_lat": 0.0, "name": "5d14860420afe0de8b150bd94ed3d41f", "is_disabled": 0, "rental_uris": {"android": "https://dc.lft.to/lastmile_qr_scan", "ios": "https://dc.lft.to/lastmile_qr_scan"}, "fusion_lon": 0.0, "lat": 38.89293833333333, "bike_id": "5d14860420afe0de8b150bd94ed3d41f", "type": "electric_scooter", "is_reserved": 0, "lon": -77.0465935}, {"fusion_lat": 0.0, "name": "d112d664750c3fffdda9908449c4bc2e", "is_disabled": 0, "rental_uris": {"android": "https://dc.lft.to/lastmile_qr_scan", "ios": "https://dc.lft.to/lastmile_qr_scan"}, "fusion_lon": 0.0, "lat": 38.84283166666667, "bike_id": "d112d664750c3fffdda9908449c4bc2e", "type": "electric_bike", "is_reserved": 0, "lon": -77.044966}, {"fusion_lat": 0.0, "name": "a7d2eaaea6430f1a84905e5265834afb", "is_disabled": 0, "rental_uris": {"android": "https://dc.lft.to/lastmile_qr_scan", "ios": "https://dc.lft.to/lastmile_qr_scan"}, "fusion_lon": 0.0, "lat": 38.90276216666667, "bike_id": "a7d2eaaea6430f1a84905e5265834afb", "type": "electric_scooter", "is_reserved": 0, "lon": -77.0335885}, {"fusion_lat": 0.0, "name": "b395332e57a1d7431252849bcc2f99ab", "is_disabled": 0, "rental_uris": {"android": "https://dc.lft.to/lastmile_qr_scan", "ios": "https://dc.lft.to/lastmile_qr_scan"}, "fusion_lon": 0.0, "lat": 38.89563966666667, "bike_id": "b395332e57a1d7431252849bcc2f99ab", "type": "electric_bike", "is_reserved": 0, "lon": -77.12738733333333}, {"fusion_lat": 0.0, "name": "02a629cc0f5d1c7e7b6599d6152846a3", "is_disabled": 0, "rental_uris": {"android": "https://dc.lft.to/lastmile_qr_scan", "ios": "https://dc.lft.to/lastmile_qr_scan"}, "fusion_lon": 0.0, "lat": 38.91704283333333, "bike_id": "02a629cc0f5d1c7e7b6599d6152846a3", "type": "electric_scooter", "is_reserved": 0, "lon": -77.03467733333333}, {"fusion_lat": 0.0, "name": "77865f993394d95eaf0b22f8392a54f3", "is_disabled": 0, "rental_uris": {"android": "https://dc.lft.to/lastmile_qr_scan", "ios": "https://dc.lft.to/lastmile_qr_scan"}, "fusion_lon": 0.0, "lat": 38.85308716666667, "bike_id": "77865f993394d95eaf0b22f8392a54f3", "type": "electric_bike", "is_reserved": 0, "lon": -77.0461245}, {"fusion_lat": 0.0, "name": "c5578e4de02681657e397ae64bf86ece", "is_disabled": 0, "rental_uris": {"android": "https://dc.lft.to/lastmile_qr_scan", "ios": "https://dc.lft.to/lastmile_qr_scan"}, "fusion_lon": 0.0, "lat": 38.897135666666664, "bike_id": "c5578e4de02681657e397ae64bf86ece", "type": "electric_scooter", "is_reserved": 0, "lon": -77.0271385}, {"fusion_lat": 0.0, "name": "5c51dc4bbd551a05d1bd956ed89d1214", "is_disabled": 0, "rental_uris": {"android": "https://dc.lft.to/lastmile_qr_scan", "ios": "https://dc.lft.to/lastmile_qr_scan"}, "fusion_lon": 0.0, "lat": 38.935230833333335, "bike_id": "5c51dc4bbd551a05d1bd956ed89d1214", "type": "electric_scooter", "is_reserved": 0, "lon": -77.07265633333333}, {"fusion_lat": 0.0, "name": "b1b141130827d9443fc3e8c681c369d2", "is_disabled": 0, "rental_uris": {"android": "https://dc.lft.to/lastmile_qr_scan", "ios": "https://dc.lft.to/lastmile_qr_scan"}, "fusion_lon": 0.0, "lat": 38.89221633333333, "bike_id": "b1b141130827d9443fc3e8c681c369d2", "type": "electric_scooter", "is_reserved": 0, "lon": -77.0283145}, {"fusion_lat": 0.0, "name": "c34252be497f3947ddc325e1b1480e34", "is_disabled": 0, "rental_uris": {"android": "https://dc.lft.to/lastmile_qr_scan", "ios": "https://dc.lft.to/lastmile_qr_scan"}, "fusion_lon": 0.0, "lat": 38.915659, "bike_id": "c34252be497f3947ddc325e1b1480e34", "type": "electric_scooter", "is_reserved": 0, "lon": -77.0385895}, {"fusion_lat": 0.0, "name": "f02392dd94054d888232a9745a07a96d", "is_disabled": 0, "rental_uris": {"android": "https://dc.lft.to/lastmile_qr_scan", "ios": "https://dc.lft.to/lastmile_qr_scan"}, "fusion_lon": 0.0, "lat": 38.89437933333333, "bike_id": "f02392dd94054d888232a9745a07a96d", "type": "electric_scooter", "is_reserved": 0, "lon": -76.93676566666667}, {"fusion_lat": 0.0, "name": "825cb99952c26f4c01a722ec9d605d71", "is_disabled": 0, "rental_uris": {"android": "https://dc.lft.to/lastmile_qr_scan", "ios": "https://dc.lft.to/lastmile_qr_scan"}, "fusion_lon": 0.0, "lat": 38.898501, "bike_id": "825cb99952c26f4c01a722ec9d605d71", "type": "electric_scooter", "is_reserved": 0, "lon": -76.99032433333333}, {"fusion_lat": 0.0, "name": "669298769d2fc7ebcdc3b8f4340733b5", "is_disabled": 0, "rental_uris": {"android": "https://dc.lft.to/lastmile_qr_scan", "ios": "https://dc.lft.to/lastmile_qr_scan"}, "fusion_lon": 0.0, "lat": 38.91354666666667, "bike_id": "669298769d2fc7ebcdc3b8f4340733b5", "type": "electric_scooter", "is_reserved": 0, "lon": -77.04594533333334}, {"fusion_lat": 0.0, "name": "d54562bd472d299484b4418d21574db1", "is_disabled": 0, "rental_uris": {"android": "https://dc.lft.to/lastmile_qr_scan", "ios": "https://dc.lft.to/lastmile_qr_scan"}, "fusion_lon": 0.0, "lat": 38.847560666666666, "bike_id": "d54562bd472d299484b4418d21574db1", "type": "electric_scooter", "is_reserved": 0, "lon": -76.994997}, {"fusion_lat": 0.0, "name": "f8ab8036bac66800e2e59dc8a943836b", "is_disabled": 0, "rental_uris": {"android": "https://dc.lft.to/lastmile_qr_scan", "ios": "https://dc.lft.to/lastmile_qr_scan"}, "fusion_lon": 0.0, "lat": 38.90805133333333, "bike_id": "f8ab8036bac66800e2e59dc8a943836b", "type": "electric_scooter", "is_reserved": 0, "lon": -77.03434333333334}, {"fusion_lat": 0.0, "name": "e17c8924a51b04f3046a2a1a62644510", "is_disabled": 0, "rental_uris": {"android": "https://dc.lft.to/lastmile_qr_scan", "ios": "https://dc.lft.to/lastmile_qr_scan"}, "fusion_lon": 0.0, "lat": 39.05255016666667, "bike_id": "e17c8924a51b04f3046a2a1a62644510", "type": "electric_bike", "is_reserved": 0, "lon": -77.08068733333333}, {"fusion_lat": 0.0, "name": "82d524786b1edad34c4393f02d0731d5", "is_disabled": 0, "rental_uris": {"android": "https://dc.lft.to/lastmile_qr_scan", "ios": "https://dc.lft.to/lastmile_qr_scan"}, "fusion_lon": 0.0, "lat": 38.89877, "bike_id": "82d524786b1edad34c4393f02d0731d5", "type": "electric_scooter", "is_reserved": 0, "lon": -76.93184233333334}, {"fusion_lat": 0.0, "name": "4990d83c424e60fe7fe39ec09de8201f", "is_disabled": 0, "rental_uris": {"android": "https://dc.lft.to/lastmile_qr_scan", "ios": "https://dc.lft.to/lastmile_qr_scan"}, "fusion_lon": 0.0, "lat": 38.89220533333334, "bike_id": "4990d83c424e60fe7fe39ec09de8201f", "type": "electric_scooter", "is_reserved": 0, "lon": -77.027774}, {"fusion_lat": 0.0, "name": "59c6efd89fb6bab470a2f6d7692aa6e2", "is_disabled": 0, "rental_uris": {"android": "https://dc.lft.to/lastmile_qr_scan", "ios": "https://dc.lft.to/lastmile_qr_scan"}, "fusion_lon": 0.0, "lat": 38.93367116666667, "bike_id": "59c6efd89fb6bab470a2f6d7692aa6e2", "type": "electric_scooter", "is_reserved": 0, "lon": -77.0241475}, {"fusion_lat": 0.0, "name": "2c78c4f645207a60e259a9113b700eb3", "is_disabled": 0, "rental_uris": {"android": "https://dc.lft.to/lastmile_qr_scan", "ios": "https://dc.lft.to/lastmile_qr_scan"}, "fusion_lon": 0.0, "lat": 38.9357195, "bike_id": "2c78c4f645207a60e259a9113b700eb3", "type": "electric_scooter", "is_reserved": 0, "lon": -77.01928733333334}, {"fusion_lat": 0.0, "name": "e1c64ee071de590b2c3e6a8e644eea04", "is_disabled": 0, "rental_uris": {"android": "https://dc.lft.to/lastmile_qr_scan", "ios": "https://dc.lft.to/lastmile_qr_scan"}, "fusion_lon": 0.0, "lat": 38.922494666666665, "bike_id": "e1c64ee071de590b2c3e6a8e644eea04", "type": "electric_scooter", "is_reserved": 0, "lon": -77.03387533333333}, {"fusion_lat": 0.0, "name": "eb7a54f77abdc9d3ca02d624a6271b59", "is_disabled": 0, "rental_uris": {"android": "https://dc.lft.to/lastmile_qr_scan", "ios": "https://dc.lft.to/lastmile_qr_scan"}, "fusion_lon": 0.0, "lat": 38.915524, "bike_id": "eb7a54f77abdc9d3ca02d624a6271b59", "type": "electric_scooter", "is_reserved": 0, "lon": -77.03814533333333}, {"fusion_lat": 0.0, "name": "df6fc3718749718183e7055c26d04bc9", "is_disabled": 0, "rental_uris": {"android": "https://dc.lft.to/lastmile_qr_scan", "ios": "https://dc.lft.to/lastmile_qr_scan"}, "fusion_lon": 0.0, "lat": 38.90410333333333, "bike_id": "df6fc3718749718183e7055c26d04bc9", "type": "electric_scooter", "is_reserved": 0, "lon": -76.973302}, {"fusion_lat": 0.0, "name": "1f31030f3150ab9cccd6e7a12c9964f6", "is_disabled": 0, "rental_uris": {"android": "https://dc.lft.to/lastmile_qr_scan", "ios": "https://dc.lft.to/lastmile_qr_scan"}, "fusion_lon": 0.0, "lat": 38.8775665, "bike_id": "1f31030f3150ab9cccd6e7a12c9964f6", "type": "electric_scooter", "is_reserved": 0, "lon": -76.9938305}, {"fusion_lat": 0.0, "name": "957fe6c1b91c7e130a41651997ef8746", "is_disabled": 0, "rental_uris": {"android": "https://dc.lft.to/lastmile_qr_scan", "ios": "https://dc.lft.to/lastmile_qr_scan"}, "fusion_lon": 0.0, "lat": 38.90003016666667, "bike_id": "957fe6c1b91c7e130a41651997ef8746", "type": "electric_scooter", "is_reserved": 0, "lon": -77.0251935}, {"fusion_lat": 0.0, "name": "173bac1ba1d2c76d9ee5876c7e69ada1", "is_disabled": 0, "rental_uris": {"android": "https://dc.lft.to/lastmile_qr_scan", "ios": "https://dc.lft.to/lastmile_qr_scan"}, "fusion_lon": 0.0, "lat": 38.833996666666664, "bike_id": "173bac1ba1d2c76d9ee5876c7e69ada1", "type": "electric_bike", "is_reserved": 0, "lon": -77.0033235}, {"fusion_lat": 0.0, "name": "4c45ee17b11573a7d7f1aa928dc55948", "is_disabled": 0, "rental_uris": {"android": "https://dc.lft.to/lastmile_qr_scan", "ios": "https://dc.lft.to/lastmile_qr_scan"}, "fusion_lon": 0.0, "lat": 38.8974005, "bike_id": "4c45ee17b11573a7d7f1aa928dc55948", "type": "electric_scooter", "is_reserved": 0, "lon": -77.0512485}, {"fusion_lat": 0.0, "name": "2b2be84eb9b34ae77633fac311b753c2", "is_disabled": 0, "rental_uris": {"android": "https://dc.lft.to/lastmile_qr_scan", "ios": "https://dc.lft.to/lastmile_qr_scan"}, "fusion_lon": 0.0, "lat": 38.905812, "bike_id": "2b2be84eb9b34ae77633fac311b753c2", "type": "electric_scooter", "is_reserved": 0, "lon": -77.00892016666667}, {"fusion_lat": 0.0, "name": "eb1a413c65fb1baf8499068d30ac6209", "is_disabled": 0, "rental_uris": {"android": "https://dc.lft.to/lastmile_qr_scan", "ios": "https://dc.lft.to/lastmile_qr_scan"}, "fusion_lon": 0.0, "lat": 38.89732166666667, "bike_id": "eb1a413c65fb1baf8499068d30ac6209", "type": "electric_scooter", "is_reserved": 0, "lon": -77.04535033333333}, {"fusion_lat": 0.0, "name": "d9ec53a7eefae97d92510592d58552cb", "is_disabled": 0, "rental_uris": {"android": "https://dc.lft.to/lastmile_qr_scan", "ios": "https://dc.lft.to/lastmile_qr_scan"}, "fusion_lon": 0.0, "lat": 38.88436166666666, "bike_id": "d9ec53a7eefae97d92510592d58552cb", "type": "electric_scooter", "is_reserved": 0, "lon": -77.003477}, {"fusion_lat": 0.0, "name": "74fa9577c0c686168b69d019d19323c8", "is_disabled": 0, "rental_uris": {"android": "https://dc.lft.to/lastmile_qr_scan", "ios": "https://dc.lft.to/lastmile_qr_scan"}, "fusion_lon": 0.0, "lat": 38.92926966666667, "bike_id": "74fa9577c0c686168b69d019d19323c8", "type": "electric_scooter", "is_reserved": 0, "lon": -77.03257633333334}, {"fusion_lat": 0.0, "name": "0ff998a681f649b93ef7f33b929c75f3", "is_disabled": 0, "rental_uris": {"android": "https://dc.lft.to/lastmile_qr_scan", "ios": "https://dc.lft.to/lastmile_qr_scan"}, "fusion_lon": 0.0, "lat": 38.89604116666667, "bike_id": "0ff998a681f649b93ef7f33b929c75f3", "type": "electric_scooter", "is_reserved": 0, "lon": -76.98108633333334}, {"fusion_lat": 0.0, "name": "2cb4b03c103aa20d7ff278f26b63af7f", "is_disabled": 0, "rental_uris": {"android": "https://dc.lft.to/lastmile_qr_scan", "ios": "https://dc.lft.to/lastmile_qr_scan"}, "fusion_lon": 0.0, "lat": 38.897289, "bike_id": "2cb4b03c103aa20d7ff278f26b63af7f", "type": "electric_scooter", "is_reserved": 0, "lon": -77.02790833333333}, {"fusion_lat": 0.0, "name": "9f33896e4be67e8ed2e850c29d697732", "is_disabled": 0, "rental_uris": {"android": "https://dc.lft.to/lastmile_qr_scan", "ios": "https://dc.lft.to/lastmile_qr_scan"}, "fusion_lon": 0.0, "lat": 38.90836933333333, "bike_id": "9f33896e4be67e8ed2e850c29d697732", "type": "electric_scooter", "is_reserved": 0, "lon": -77.00089916666667}, {"fusion_lat": 0.0, "name": "5515bc7cff0d534eee58867d9b7767c0", "is_disabled": 0, "rental_uris": {"android": "https://dc.lft.to/lastmile_qr_scan", "ios": "https://dc.lft.to/lastmile_qr_scan"}, "fusion_lon": 0.0, "lat": 38.890120333333336, "bike_id": "5515bc7cff0d534eee58867d9b7767c0", "type": "electric_scooter", "is_reserved": 0, "lon": -76.93739383333333}, {"fusion_lat": 0.0, "name": "4bedb3e32c82ea010ce8fd1959411311", "is_disabled": 0, "rental_uris": {"android": "https://dc.lft.to/lastmile_qr_scan", "ios": "https://dc.lft.to/lastmile_qr_scan"}, "fusion_lon": 0.0, "lat": 38.906667666666664, "bike_id": "4bedb3e32c82ea010ce8fd1959411311", "type": "electric_scooter", "is_reserved": 0, "lon": -77.02404166666666}, {"fusion_lat": 0.0, "name": "c9a612ab779088f2ca8062e687d37e79", "is_disabled": 0, "rental_uris": {"android": "https://dc.lft.to/lastmile_qr_scan", "ios": "https://dc.lft.to/lastmile_qr_scan"}, "fusion_lon": 0.0, "lat": 38.89362783333333, "bike_id": "c9a612ab779088f2ca8062e687d37e79", "type": "electric_scooter", "is_reserved": 0, "lon": -77.0225585}, {"fusion_lat": 0.0, "name": "514717830e1a31458122645d4498e556", "is_disabled": 0, "rental_uris": {"android": "https://dc.lft.to/lastmile_qr_scan", "ios": "https://dc.lft.to/lastmile_qr_scan"}, "fusion_lon": 0.0, "lat": 38.896179000000004, "bike_id": "514717830e1a31458122645d4498e556", "type": "electric_scooter", "is_reserved": 0, "lon": -77.02274666666666}, {"fusion_lat": 0.0, "name": "abf3ba3aed6fb428575180888c640845", "is_disabled": 0, "rental_uris": {"android": "https://dc.lft.to/lastmile_qr_scan", "ios": "https://dc.lft.to/lastmile_qr_scan"}, "fusion_lon": 0.0, "lat": 38.939791666666665, "bike_id": "abf3ba3aed6fb428575180888c640845", "type": "electric_scooter", "is_reserved": 0, "lon": -77.0287235}, {"fusion_lat": 0.0, "name": "9f735c62ab8dad2e53a6beab4bedbc11", "is_disabled": 0, "rental_uris": {"android": "https://dc.lft.to/lastmile_qr_scan", "ios": "https://dc.lft.to/lastmile_qr_scan"}, "fusion_lon": 0.0, "lat": 38.90728566666667, "bike_id": "9f735c62ab8dad2e53a6beab4bedbc11", "type": "electric_scooter", "is_reserved": 0, "lon": -77.04770216666667}, {"fusion_lat": 0.0, "name": "8d1b1de5217c6138681050c496101b99", "is_disabled": 0, "rental_uris": {"android": "https://dc.lft.to/lastmile_qr_scan", "ios": "https://dc.lft.to/lastmile_qr_scan"}, "fusion_lon": 0.0, "lat": 38.887315666666666, "bike_id": "8d1b1de5217c6138681050c496101b99", "type": "electric_bike", "is_reserved": 0, "lon": -77.01526366666667}, {"fusion_lat": 0.0, "name": "744dbf9ae9ab1e1ff4c77712c5e9a9c2", "is_disabled": 0, "rental_uris": {"android": "https://dc.lft.to/lastmile_qr_scan", "ios": "https://dc.lft.to/lastmile_qr_scan"}, "fusion_lon": 0.0, "lat": 38.911077666666664, "bike_id": "744dbf9ae9ab1e1ff4c77712c5e9a9c2", "type": "electric_scooter", "is_reserved": 0, "lon": -77.0099945}, {"fusion_lat": 0.0, "name": "f7f6b108afa497e3f309934f94f434bb", "is_disabled": 0, "rental_uris": {"android": "https://dc.lft.to/lastmile_qr_scan", "ios": "https://dc.lft.to/lastmile_qr_scan"}, "fusion_lon": 0.0, "lat": 38.90390983333333, "bike_id": "f7f6b108afa497e3f309934f94f434bb", "type": "electric_scooter", "is_reserved": 0, "lon": -77.03571983333333}, {"fusion_lat": 0.0, "name": "f9833adcf4e14b60a3857bed8f7b79c8", "is_disabled": 0, "rental_uris": {"android": "https://dc.lft.to/lastmile_qr_scan", "ios": "https://dc.lft.to/lastmile_qr_scan"}, "fusion_lon": 0.0, "lat": 38.914037, "bike_id": "f9833adcf4e14b60a3857bed8f7b79c8", "type": "electric_scooter", "is_reserved": 0, "lon": -77.04569833333333}, {"fusion_lat": 0.0, "name": "0b4da729135108311da4f90bdc30a7d9", "is_disabled": 0, "rental_uris": {"android": "https://dc.lft.to/lastmile_qr_scan", "ios": "https://dc.lft.to/lastmile_qr_scan"}, "fusion_lon": 0.0, "lat": 38.92257816666667, "bike_id": "0b4da729135108311da4f90bdc30a7d9", "type": "electric_scooter", "is_reserved": 0, "lon": -77.07481066666666}, {"fusion_lat": 0.0, "name": "6451b0f1277be4feafeb148d12c62b85", "is_disabled": 0, "rental_uris": {"android": "https://dc.lft.to/lastmile_qr_scan", "ios": "https://dc.lft.to/lastmile_qr_scan"}, "fusion_lon": 0.0, "lat": 38.899092, "bike_id": "6451b0f1277be4feafeb148d12c62b85", "type": "electric_scooter", "is_reserved": 0, "lon": -77.01526133333333}, {"fusion_lat": 0.0, "name": "24c460e13a985a1350a4b037da466d94", "is_disabled": 0, "rental_uris": {"android": "https://dc.lft.to/lastmile_qr_scan", "ios": "https://dc.lft.to/lastmile_qr_scan"}, "fusion_lon": 0.0, "lat": 38.911786166666666, "bike_id": "24c460e13a985a1350a4b037da466d94", "type": "electric_scooter", "is_reserved": 0, "lon": -77.04547966666667}, {"fusion_lat": 0.0, "name": "21156a8ed70756bfa2721398a606f76d", "is_disabled": 0, "rental_uris": {"android": "https://dc.lft.to/lastmile_qr_scan", "ios": "https://dc.lft.to/lastmile_qr_scan"}, "fusion_lon": 0.0, "lat": 38.94268016666667, "bike_id": "21156a8ed70756bfa2721398a606f76d", "type": "electric_bike", "is_reserved": 0, "lon": -76.9945885}, {"fusion_lat": 0.0, "name": "b1d95924c970977c2b99fba8ddab176b", "is_disabled": 0, "rental_uris": {"android": "https://dc.lft.to/lastmile_qr_scan", "ios": "https://dc.lft.to/lastmile_qr_scan"}, "fusion_lon": 0.0, "lat": 38.866214666666664, "bike_id": "b1d95924c970977c2b99fba8ddab176b", "type": "electric_bike", "is_reserved": 0, "lon": -76.945737}, {"fusion_lat": 0.0, "name": "7e65352f30f12f1a4312eff9b5a49e32", "is_disabled": 0, "rental_uris": {"android": "https://dc.lft.to/lastmile_qr_scan", "ios": "https://dc.lft.to/lastmile_qr_scan"}, "fusion_lon": 0.0, "lat": 38.9613845, "bike_id": "7e65352f30f12f1a4312eff9b5a49e32", "type": "electric_bike", "is_reserved": 0, "lon": -77.084992}, {"fusion_lat": 0.0, "name": "357c65950ded33953c7c506856ef4b31", "is_disabled": 0, "rental_uris": {"android": "https://dc.lft.to/lastmile_qr_scan", "ios": "https://dc.lft.to/lastmile_qr_scan"}, "fusion_lon": 0.0, "lat": 38.919354, "bike_id": "357c65950ded33953c7c506856ef4b31", "type": "electric_scooter", "is_reserved": 0, "lon": -77.0250215}, {"fusion_lat": 0.0, "name": "5487da1ec1796c30f14c54cd3607f35d", "is_disabled": 0, "rental_uris": {"android": "https://dc.lft.to/lastmile_qr_scan", "ios": "https://dc.lft.to/lastmile_qr_scan"}, "fusion_lon": 0.0, "lat": 38.903666333333334, "bike_id": "5487da1ec1796c30f14c54cd3607f35d", "type": "electric_scooter", "is_reserved": 0, "lon": -77.044744}, {"fusion_lat": 0.0, "name": "4d34cd0091d46c189f1261eff226e26c", "is_disabled": 0, "rental_uris": {"android": "https://dc.lft.to/lastmile_qr_scan", "ios": "https://dc.lft.to/lastmile_qr_scan"}, "fusion_lon": 0.0, "lat": 38.879433166666665, "bike_id": "4d34cd0091d46c189f1261eff226e26c", "type": "electric_bike", "is_reserved": 0, "lon": -77.01010016666666}, {"fusion_lat": 0.0, "name": "2f0190a41e31a8965a12bbb956233349", "is_disabled": 0, "rental_uris": {"android": "https://dc.lft.to/lastmile_qr_scan", "ios": "https://dc.lft.to/lastmile_qr_scan"}, "fusion_lon": 0.0, "lat": 38.932540833333334, "bike_id": "2f0190a41e31a8965a12bbb956233349", "type": "electric_scooter", "is_reserved": 0, "lon": -77.04009516666666}, {"fusion_lat": 0.0, "name": "ae0f06bc4375ed516a16aa1c8881a444", "is_disabled": 0, "rental_uris": {"android": "https://dc.lft.to/lastmile_qr_scan", "ios": "https://dc.lft.to/lastmile_qr_scan"}, "fusion_lon": 0.0, "lat": 38.9257775, "bike_id": "ae0f06bc4375ed516a16aa1c8881a444", "type": "electric_scooter", "is_reserved": 0, "lon": -77.02762983333334}, {"fusion_lat": 0.0, "name": "1ff9e8ba7dd63992cbf33816ac50cc68", "is_disabled": 0, "rental_uris": {"android": "https://dc.lft.to/lastmile_qr_scan", "ios": "https://dc.lft.to/lastmile_qr_scan"}, "fusion_lon": 0.0, "lat": 38.87813583333333, "bike_id": "1ff9e8ba7dd63992cbf33816ac50cc68", "type": "electric_scooter", "is_reserved": 0, "lon": -77.01320933333334}, {"fusion_lat": 0.0, "name": "0521f79502ceaa121177e97177e1bdd2", "is_disabled": 0, "rental_uris": {"android": "https://dc.lft.to/lastmile_qr_scan", "ios": "https://dc.lft.to/lastmile_qr_scan"}, "fusion_lon": 0.0, "lat": 38.9225835, "bike_id": "0521f79502ceaa121177e97177e1bdd2", "type": "electric_scooter", "is_reserved": 0, "lon": -77.0352425}, {"fusion_lat": 0.0, "name": "9165dacbf46c5dc627fe00c355e2ae95", "is_disabled": 0, "rental_uris": {"android": "https://dc.lft.to/lastmile_qr_scan", "ios": "https://dc.lft.to/lastmile_qr_scan"}, "fusion_lon": 0.0, "lat": 38.88444716666667, "bike_id": "9165dacbf46c5dc627fe00c355e2ae95", "type": "electric_scooter", "is_reserved": 0, "lon": -76.985856},