{"data": {"bikes": [{"is_disabled": 0, "fusion_lon": 0.0, "fusion_lat": 0.0, "lat": 38.90575966666667, "type": "electric_scooter", "lon": -77.02200933333333, "bike_id": "a1f53005adb920d4f5037163d81d8172", "rental_uris": {"android": "https://dc.lft.to/lastmile_qr_scan", "ios": "https://dc.lft.to/lastmile_qr_scan"}, "name": "a1f53005adb920d4f5037163d81d8172", "is_reserved": 0}, {"is_disabled": 0, "fusion_lon": 0.0, "fusion_lat": 0.0, "lat": 38.883753166666665, "type": "electric_scooter", "lon": -76.98565533333333, "bike_id": "c642c223dca693623a6674ed828f94a0", "rental_uris": {"android": "https://dc.lft.to/lastmile_qr_scan", "ios": "https://dc.lft.to/lastmile_qr_scan"}, "name": "c642c223dca693623a6674ed828f94a0", "is_reserved": 0}, {"is_disabled": 0, "fusion_lon": 0.0, "fusion_lat": 0.0, "lat": 38.9191845, "type": "electric_scooter", "lon": -77.03130466666667, "bike_id": "21908b1da9737b375e1e45c72a3d47d5", "rental_uris": {"android": "https://dc.lft.to/lastmile_qr_scan", "ios": "https://dc.lft.to/lastmile_qr_scan"}, "name": "21908b1da9737b375e1e45c72a3d47d5", "is_reserved": 0}, {"is_disabled": 0, "fusion_lon": 0.0, "fusion_lat": 0.0, "lat": 38.859876, "type": "electric_bike", "lon": -76.97053183333334, "bike_id": "f70bbf9e9067dba62323f0a266657177", "rental_uris": {"android": "https://dc.lft.to/lastmile_qr_scan", "ios": "https://dc.lft.to/lastmile_qr_scan"}, "name": "f70bbf9e9067dba62323f0a266657177", "is_reserved": 0}, {"is_disabled": 0, "fusion_lon": 0.0, "fusion_lat": 0.0, "lat": 38.868907666666665, "type": "electric_scooter", "lon": -76.9831875, "bike_id": "1c5ce3317d7adc4eba3f05f5ee94eea5", "rental_uris": {"android": "https://dc.lft.to/lastmile_qr_scan", "ios": "https://dc.lft.to/lastmile_qr_scan"}, "name": "1c5ce3317d7adc4eba3f05f5ee94eea5", "is_reserved": 0}, {"is_disabled": 0, "fusion_lon": 0.0, "fusion_lat": 0.0, "lat": 38.91461833333334, "type": "electric_scooter", "lon": -77.02796683333334, "bike_id": "3f31a68fe4265736203d6d3c58982d27", "rental_uris": {"android": "https://dc.lft.to/lastmile_qr_scan", "ios": "https://dc.lft.to/lastmile_qr_scan"}, "name": "3f31a68fe4265736203d6d3c58982d27", "is_reserved": 0}, {"is_disabled": 0, "fusion_lon": 0.0, "fusion_lat": 0.0, "lat": 38.99454583333333, "type": "electric_bike", "lon": -76.90817566666666, "bike_id": "fad6c2d108c4bcb821746d0d0fbbab3f", "rental_uris": {"android": "https://dc.lft.to/lastmile_qr_scan", "ios": "https://dc.lft.to/lastmile_qr_scan"}, "name": "fad6c2d108c4bcb821746d0d0fbbab3f", "is_reserved": 0}, {"is_disabled": 0, "fusion_lon": 0.0, "fusion_lat": 0.0, "lat": 38.880106166666664, "type": "electric_bike", "lon": -76.915992, "bike_id": "49c22ba5670fbb48c98bbed2f170370c", "rental_uris": {"android": "https://dc.lft.to/lastmile_qr_scan", "ios": "https://dc.lft.to/lastmile_qr_scan"}, "name": "49c22ba5670fbb48c98bbed2f170370c", "is_reserved": 0}, {"is_disabled": 0, "fusion_lon": 0.0, "fusion_lat": 0.0, "lat": 38.949708333333334, "type": "electric_scooter", "lon": -77.09442566666667, "bike_id": "c614ba82a7d3c35a95ee98d9ab9e73af", "rental_uris": {"android": "https://dc.lft.to/lastmile_qr_scan", "ios": "https://dc.lft.to/lastmile_qr_scan"}, "name": "c614ba82a7d3c35a95ee98d9ab9e73af", "is_reserved": 0}, {"is_disabled": 0, "fusion_lon": 0.0, "fusion_lat": 0.0, "lat": 38.91271666666667, "type": "electric_scooter", "lon": -77.033663, "bike_id": "0af7d26f9042c13bc8eee6a0fef5bc8d", "rental_uris": {"android": "https://dc.lft.to/lastmile_qr_scan", "ios": "https://dc.lft.to/lastmile_qr_scan"}, "name": "0af7d26f9042c13bc8eee6a0fef5bc8d", "is_reserved": 0}, {"is_disabled": 0, "fusion_lon": 0.0, "fusion_lat": 0.0, "lat": 38.95000233333333, "type": "electric_bike", "lon": -77.35316, "bike_id": "643a183294adf31608811e19014d40f8", "rental_uris": {"android": "https://dc.lft.to/lastmile_qr_scan", "ios": "https://dc.lft.to/lastmile_qr_scan"}, "name": "643a183294adf31608811e19014d40f8", "is_reserved": 0}, {"is_disabled": 0, "fusion_lon": 0.0, "fusion_lat": 0.0, "lat": 38.92052916666667, "type": "electric_scooter", "lon": -77.04191683333333, "bike_id": "b8eb50b6ac1e7325f0c57f44961ceb9b", "rental_uris": {"android": "https://dc.lft.to/lastmile_qr_scan", "ios": "https://dc.lft.to/lastmile_qr_scan"}, "name": "b8eb50b6ac1e7325f0c57f44961ceb9b", "is_reserved": 0}, {"is_disabled": 0, "fusion_lon": 0.0, "fusion_lat": 0.0, "lat": 38.894871333333334, "type": "electric_scooter", "lon": -77.02223466666666, "bike_id": "94da926d70ebcf84d8e535c066c38280", "rental_uris": {"android": "https://dc.lft.to/lastmile_qr_scan", "ios": "https://dc.lft.to/lastmile_qr_scan"}, "name": "94da926d70ebcf84d8e535c066c38280", "is_reserved": 0}, {"is_disabled": 0, "fusion_lon": 0.0, "fusion_lat": 0.0, "lat": 38.87826716666667, "type": "electric_scooter", "lon": -76.96315933333334, "bike_id": "89020f1636af9831b581da8387b51dcb", "rental_uris": {"android": "https://dc.lft.to/lastmile_qr_scan", "ios": "https://dc.lft.to/lastmile_qr_scan"}, "name": "89020f1636af9831b581da8387b51dcb", "is_reserved": 0}, {"is_disabled": 0, "fusion_lon": 0.0, "fusion_lat": 0.0, "lat": 38.876717, "type": "electric_scooter", "lon": -76.9319495, "bike_id": "d1e63b1e408c9c452c45104bbd3a64bc", "rental_uris": {"android": "https://dc.lft.to/lastmile_qr_scan", "ios": "https://dc.lft.to/lastmile_qr_scan"}, "name": "d1e63b1e408c9c452c45104bbd3a64bc", "is_reserved": 0}, {"is_disabled": 0, "fusion_lon": 0.0, "fusion_lat": 0.0, "lat": 38.8343255, "type": "electric_bike", "lon": -77.10355066666666, "bike_id": "e11fad93e4fe590d0b2b93d3e10703db", "rental_uris": {"android": "https://dc.lft.to/lastmile_qr_scan", "ios": "https://dc.lft.to/lastmile_qr_scan"}, "name": "e11fad93e4fe590d0b2b93d3e10703db", "is_reserved": 0}, {"is_disabled": 0, "fusion_lon": 0.0, "fusion_lat": 0.0, "lat": 38.9009655, "type": "electric_scooter", "lon": -77.04926883333333, "bike_id": "a0af82859f4d7e90ca21fd5d148caeb8", "rental_uris": {"android": "https://dc.lft.to/lastmile_qr_scan", "ios": "https://dc.lft.to/lastmile_qr_scan"}, "name": "a0af82859f4d7e90ca21fd5d148caeb8", "is_reserved": 0}, {"is_disabled": 0, "fusion_lon": 0.0, "fusion_lat": 0.0, "lat": 38.9396075, "type": "electric_scooter", "lon": -77.03262533333333, "bike_id": "c59773d1750b85b04c909ab01bf30869", "rental_uris": {"android": "https://dc.lft.to/lastmile_qr_scan", "ios": "https://dc.lft.to/lastmile_qr_scan"}, "name": "c59773d1750b85b04c909ab01bf30869", "is_reserved": 0}, {"is_disabled": 0, "fusion_lon": 0.0, "fusion_lat": 0.0, "lat": 38.90641033333333, "type": "electric_scooter", "lon": -77.045293, "bike_id": "1faa09c46e28e52d8bd89208390685bc", "rental_uris": {"android": "https://dc.lft.to/lastmile_qr_scan", "ios": "https://dc.lft.to/lastmile_qr_scan"}, "name": "1faa09c46e28e52d8bd89208390685bc", "is_reserved": 0}, {"is_disabled": 0, "fusion_lon": 0.0, "fusion_lat": 0.0, "lat": 38.9051675, "type": "electric_scooter", "lon": -76.98249383333334, "bike_id": "a47b2bfc1127eb13655bc3543313a9ff", "rental_uris": {"android": "https://dc.lft.to/lastmile_qr_scan", "ios": "https://dc.lft.to/lastmile_qr_scan"}, "name": "a47b2bfc1127eb13655bc3543313a9ff", "is_reserved": 0}, {"is_disabled": 0, "fusion_lon": 0.0, "fusion_lat": 0.0, "lat": 38.911014, "type": "electric_scooter", "lon": -77.03558233333334, "bike_id": "d91434014217091807416b6bf9c3dc14", "rental_uris": {"android": "https://dc.lft.to/lastmile_qr_scan", "ios": "https://dc.lft.to/lastmile_qr_scan"}, "name": "d91434014217091807416b6bf9c3dc14", "is_reserved": 0}, {"is_disabled": 0, "fusion_lon": 0.0, "fusion_lat": 0.0, "lat": 38.916916666666665, "type": "electric_scooter", "lon": -77.02597133333333, "bike_id": "3b6e4d802900d8114b81937f9b96d0b9", "rental_uris": {"android": "https://dc.lft.to/lastmile_qr_scan", "ios": "https://dc.lft.to/lastmile_qr_scan"}, "name": "3b6e4d802900d8114b81937f9b96d0b9", "is_reserved": 0}, {"is_disabled": 0, "fusion_lon": 0.0, "fusion_lat": 0.0, "lat": 38.896597, "type": "electric_scooter", "lon": -77.009227, "bike_id": "4087a623ac37123ba881ea4145943123", "rental_uris": {"android": "https://dc.lft.to/lastmile_qr_scan", "ios": "https://dc.lft.to/lastmile_qr_scan"}, "name": "4087a623ac37123ba881ea4145943123", "is_reserved": 0}, {"is_disabled": 0, "fusion_lon": 0.0, "fusion_lat": 0.0, "lat": 38.9003365, "type": "electric_scooter", "lon": -77.019997, "bike_id": "00967aa442f46a0d5c05fe503618b393", "rental_uris": {"android": "https://dc.lft.to/lastmile_qr_scan", "ios": "https://dc.lft.to/lastmile_qr_scan"}, "name": "00967aa442f46a0d5c05fe503618b393", "is_reserved": 0}, {"is_disabled": 0, "fusion_lon": 0.0, "fusion_lat": 0.0, "lat": 38.91702133333333, "type": "electric_scooter", "lon": -77.02988016666667, "bike_id": "509f14d4f8a46c60551d48bac53c4d5b", "rental_uris": {"android": "https://dc.lft.to/lastmile_qr_scan", "ios": "https://dc.lft.to/lastmile_qr_scan"}, "name": "509f14d4f8a46c60551d48bac53c4d5b", "is_reserved": 0}, {"is_disabled": 0, "fusion_lon": 0.0, "fusion_lat": 0.0, "lat": 39.00794466666667, "type": "electric_bike", "lon": -76.9957325, "bike_id": "62db44f072f5ac1dc695e00b644bf2f3", "rental_uris": {"android": "https://dc.lft.to/lastmile_qr_scan", "ios": "https://dc.lft.to/lastmile_qr_scan"}, "name": "62db44f072f5ac1dc695e00b644bf2f3", "is_reserved": 0}, {"is_disabled": 0, "fusion_lon": 0.0, "fusion_lat": 0.0, "lat": 38.91658733333333, "type": "electric_scooter", "lon": -77.04652483333334, "bike_id": "a6f541a3ee504ae2d79a7d241a5be5c6", "rental_uris": {"android": "https://dc.lft.to/lastmile_qr_scan", "ios": "https://dc.lft.to/lastmile_qr_scan"}, "name": "a6f541a3ee504ae2d79a7d241a5be5c6", "is_reserved": 0}, {"is_disabled": 0, "fusion_lon": 0.0, "fusion_lat": 0.0, "lat": 38.88688833333333, "type": "electric_scooter", "lon": -77.01379283333333, "bike_id": "f3ffc79382a5cb92711b54c42a067fb8", "rental_uris": {"android": "https://dc.lft.to/lastmile_qr_scan", "ios": "https://dc.lft.to/lastmile_qr_scan"}, "name": "f3ffc79382a5cb92711b54c42a067fb8", "is_reserved": 0}, {"is_disabled": 0, "fusion_lon": 0.0, "fusion_lat": 0.0, "lat": 38.90189683333333, "type": "electric_scooter", "lon": -77.05020416666666, "bike_id": "2a7d5331f954c68bd4913003d534e4d3", "rental_uris": {"android": "https://dc.lft.to/lastmile_qr_scan", "ios": "https://dc.lft.to/lastmile_qr_scan"}, "name": "2a7d5331f954c68bd4913003d534e4d3", "is_reserved": 0}, {"is_disabled": 0, "fusion_lon": 0.0, "fusion_lat": 0.0, "lat": 38.9390255, "type": "electric_scooter", "lon": -77.07800966666667, "bike_id": "f4772b2b4541372044ac7a17278d123e", "rental_uris": {"android": "https://dc.lft.to/lastmile_qr_scan", "ios": "https://dc.lft.to/lastmile_qr_scan"}, "name": "f4772b2b4541372044ac7a17278d123e", "is_reserved": 0}, {"is_disabled": 0, "fusion_lon": 0.0, "fusion_lat": 0.0, "lat": 38.886584666666664, "type": "electric_scooter", "lon": -77.00367883333334, "bike_id": "873a97ed5002317ddc04b1026d7976fd", "rental_uris": {"android": "https://dc.lft.to/lastmile_qr_scan", "ios": "https://dc.lft.to/lastmile_qr_scan"}, "name": "873a97ed5002317ddc04b1026d7976fd", "is_reserved": 0}, {"is_disabled": 0, "fusion_lon": 0.0, "fusion_lat": 0.0, "lat": 38.90560933333333, "type": "electric_scooter", "lon": -77.032559, "bike_id": "6a6fdb61163a744685e13a67ff2780a4", "rental_uris": {"android": "https://dc.lft.to/lastmile_qr_scan", "ios": "https://dc.lft.to/lastmile_qr_scan"}, "name": "6a6fdb61163a744685e13a67ff2780a4", "is_reserved": 0}, {"is_disabled": 0, "fusion_lon": 0.0, "fusion_lat": 0.0, "lat": 38.9001855, "type": "electric_scooter", "lon": -77.04043733333333, "bike_id": "3353fa84fe418c33e5fa9a0c4ed95e05", "rental_uris": {"android": "https://dc.lft.to/lastmile_qr_scan", "ios": "https://dc.lft.to/lastmile_qr_scan"}, "name": "3353fa84fe418c33e5fa9a0c4ed95e05", "is_reserved": 0}, {"is_disabled": 0, "fusion_lon": 0.0, "fusion_lat": 0.0, "lat": 38.897322333333335, "type": "electric_bike", "lon": -76.905399, "bike_id": "451df431b5aaa6f748b89462fc11163e", "rental_uris": {"android": "https://dc.lft.to/lastmile_qr_scan", "ios": "https://dc.lft.to/lastmile_qr_scan"}, "name": "451df431b5aaa6f748b89462fc11163e", "is_reserved": 0}, {"is_disabled": 0, "fusion_lon": 0.0, "fusion_lat": 0.0, "lat": 38.9681705, "type": "electric_scooter", "lon": -77.008936, "bike_id": "843583faddb81f83cd768fd3158112ac", "rental_uris": {"android": "https://dc.lft.to/lastmile_qr_scan", "ios": "https://dc.lft.to/lastmile_qr_scan"}, "name": "843583faddb81f83cd768fd3158112ac", "is_reserved": 0}, {"is_disabled": 0, "fusion_lon": 0.0, "fusion_lat": 0.0, "lat": 38.9127815, "type": "electric_scooter", "lon": -77.02248433333334, "bike_id": "213b2c705a634a0d090ed9d02d167511", "rental_uris": {"android": "https://dc.lft.to/lastmile_qr_scan", "ios": "https://dc.lft.to/lastmile_qr_scan"}, "name": "213b2c705a634a0d090ed9d02d167511", "is_reserved": 0}, {"is_disabled": 0, "fusion_lon": 0.0, "fusion_lat": 0.0, "lat": 38.92856966666667, "type": "electric_bike", "lon": -76.98933583333333, "bike_id": "de74c20ba9d525008d4b3dc97004f34f", "rental_uris": {"android": "https://dc.lft.to/lastmile_qr_scan", "ios": "https://dc.lft.to/lastmile_qr_scan"}, "name": "de74c20ba9d525008d4b3dc97004f34f", "is_reserved": 0}, {"is_disabled": 0, "fusion_lon": 0.0, "fusion_lat": 0.0, "lat": 38.904418666666665, "type": "electric_scooter", "lon": -77.03165933333334, "bike_id": "932fcc2eb7ef39ae81b4004920283650", "rental_uris": {"android": "https://dc.lft.to/lastmile_qr_scan", "ios": "https://dc.lft.to/lastmile_qr_scan"}, "name": "932fcc2eb7ef39ae81b4004920283650", "is_reserved": 0}, {"is_disabled": 0, "fusion_lon": 0.0, "fusion_lat": 0.0, "lat": 39.05206916666667, "type": "electric_bike", "lon": -77.04412416666666, "bike_id": "37e98e5d45051b4e24ee28f9ac6a2447", "rental_uris": {"android": "https://dc.lft.to/lastmile_qr_scan", "ios": "https://dc.lft.to/lastmile_qr_scan"}, "name": "37e98e5d45051b4e24ee28f9ac6a2447", "is_reserved": 0}, {"is_disabled": 0, "fusion_lon": 0.0, "fusion_lat": 0.0, "lat": 38.90745316666667, "type": "electric_scooter", "lon": -77.03839033333334, "bike_id": "00b32584ef819619c58bda39394ce41a", "rental_uris": {"android": "https://dc.lft.to/lastmile_qr_scan", "ios": "https://dc.lft.to/lastmile_qr_scan"}, "name": "00b32584ef819619c58bda39394ce41a", "is_reserved": 0}, {"is_disabled": 0, "fusion_lon": 0.0, "fusion_lat": 0.0, "lat": 38.909747333333335, "type": "electric_scooter", "lon": -77.03848016666667, "bike_id": "2f831f20f52c423ebfafca9f41c01728", "rental_uris": {"android": "https://dc.lft.to/lastmile_qr_scan", "ios": "https://dc.lft.to/lastmile_qr_scan"}, "name": "2f831f20f52c423ebfafca9f41c01728", "is_reserved": 0}, {"is_disabled": 0, "fusion_lon": 0.0, "fusion_lat": 0.0, "lat": 38.909524, "type": "electric_scooter", "lon": -77.02185866666666, "bike_id": "cad802773a908b382775bff88a691a66", "rental_uris": {"android": "https://dc.lft.to/lastmile_qr_scan", "ios": "https://dc.lft.to/lastmile_qr_scan"}, "name": "cad802773a908b382775bff88a691a66", "is_reserved": 0}, {"is_disabled": 0, "fusion_lon": 0.0, "fusion_lat": 0.0, "lat": 38.865192666666665, "type": "electric_scooter", "lon": -76.98971933333333, "bike_id": "7c0159881ff2575329e1597d2eccb923", "rental_uris": {"android": "https://dc.lft.to/lastmile_qr_scan", "ios": "https://dc.lft.to/lastmile_qr_scan"}, "name": "7c0159881ff2575329e1597d2eccb923", "is_reserved": 0}, {"is_disabled": 0, "fusion_lon": 0.0, "fusion_lat": 0.0, "lat": 38.8462115, "type": "electric_scooter", "lon": -76.9963305, "bike_id": "aa6bdcbbba34514a02a8f2119c2cb8e2", "rental_uris": {"android": "https://dc.lft.to/lastmile_qr_scan", "ios": "https://dc.lft.to/lastmile_qr_scan"}, "name": "aa6bdcbbba34514a02a8f2119c2cb8e2", "is_reserved": 0}, {"is_disabled": 0, "fusion_lon": 0.0, "fusion_lat": 0.0, "lat": 38.92446533333333, "type": "electric_scooter", "lon": -77.02614516666667, "bike_id": "9f248dfc95c482d3f2d7e7feef3add4f", "rental_uris": {"android": "https://dc.lft.to/lastmile_qr_scan", "ios": "https://dc.lft.to/lastmile_qr_scan"}, "name": "9f248dfc95c482d3f2d7e7feef3add4f", "is_reserved": 0}, {"is_disabled": 0, "fusion_lon": 0.0, "fusion_lat": 0.0, "lat": 38.907205, "type": "electric_scooter", "lon": -77.034386, "bike_id": "af5530781ecd9a2060f8f19c0e20d6a7", "rental_uris": {"android": "https://dc.lft.to/lastmile_qr_scan", "ios": "https://dc.lft.to/lastmile_qr_scan"}, "name": "af5530781ecd9a2060f8f19c0e20d6a7", "is_reserved": 0}, {"is_disabled": 0, "fusion_lon": 0.0, "fusion_lat": 0.0, "lat": 38.898913, "type": "electric_scooter", "lon": -77.03988516666666, "bike_id": "058d5e4c22f670ce439d729e6b12554d", "rental_uris": {"android": "https://dc.lft.to/lastmile_qr_scan", "ios": "https://dc.lft.to/lastmile_qr_scan"}, "name": "058d5e4c22f670ce439d729e6b12554d", "is_reserved": 0}, {"is_disabled": 0, "fusion_lon": 0.0, "fusion_lat": 0.0, "lat": 38.96015283333333, "type": "electric_scooter", "lon": -77.033127, "bike_id": "a480b5d17b54bbc32a2e51954546f89c", "rental_uris": {"android": "https://dc.lft.to/lastmile_qr_scan", "ios": "https://dc.lft.to/lastmile_qr_scan"}, "name": "a480b5d17b54bbc32a2e51954546f89c", "is_reserved": 0}, {"is_disabled": 0, "fusion_lon": 0.0, "fusion_lat": 0.0, "lat": 38.918011166666666, "type": "electric_scooter", "lon": -77.03146083333333, "bike_id": "bbf341944a6ab69ce49cc42ba6770358", "rental_uris": {"android": "https://dc.lft.to/lastmile_qr_scan", "ios": "https://dc.lft.to/lastmile_qr_scan"}, "name": "bbf341944a6ab69ce49cc42ba6770358", "is_reserved": 0}, {"is_disabled": 0, "fusion_lon": 0.0, "fusion_lat": 0.0, "lat": 38.9276245, "type": "electric_scooter", "lon": -77.02792916666667, "bike_id": "6400a8eaf9b61028d15141d44958f9cf", "rental_uris": {"android": "https://dc.lft.to/lastmile_qr_scan", "ios": "https://dc.lft.to/lastmile_qr_scan"}, "name": "6400a8eaf9b61028d15141d44958f9cf", "is_reserved": 0}, {"is_disabled": 0, "fusion_lon": 0.0, "fusion_lat": 0.0, "lat": 38.878977666666664, "type": "electric_scooter", "lon": -76.93526466666667, "bike_id": "db70e8a7074da6a8cca83a4ec733ca5c", "rental_uris": {"android": "https://dc.lft.to/lastmile_qr_scan", "ios": "https://dc.lft.to/lastmile_qr_scan"}, "name": "db70e8a7074da6a8cca83a4ec733ca5c", "is_reserved": 0}, {"is_disabled": 0, "fusion_lon": 0.0, "fusion_lat": 0.0, "lat": 38.913039833333336, "type": "electric_scooter", "lon": -77.038419, "bike_id": "8a221d1e70fe4460a49ba5041cf266de", "rental_uris": {"android": "https://dc.lft.to/lastmile_qr_scan", "ios": "https://dc.lft.to/lastmile_qr_scan"}, "name": "8a221d1e70fe4460a49ba5041cf266de", "is_reserved": 0}, {"is_disabled": 0, "fusion_lon": 0.0, "fusion_lat": 0.0, "lat": 38.8997345, "type": "electric_scooter", "lon": -77.0515205, "bike_id": "aa85d400f752967f102c93559a17dd55", "rental_uris": {"android": "https://dc.lft.to/lastmile_qr_scan", "ios": "https://dc.lft.to/lastmile_qr_scan"}, "name": "aa85d400f752967f102c93559a17dd55", "is_reserved": 0}, {"is_disabled": 0, "fusion_lon": 0.0, "fusion_lat": 0.0, "lat": 38.936072, "type": "electric_scooter", "lon": -77.05863316666667, "bike_id": "4dbe6254a02790c7f7e7772c7d43844f", "rental_uris": {"android": "https://dc.lft.to/lastmile_qr_scan", "ios": "https://dc.lft.to/lastmile_qr_scan"}, "name": "4dbe6254a02790c7f7e7772c7d43844f", "is_reserved": 0}, {"is_disabled": 0, "fusion_lon": 0.0, "fusion_lat": 0.0, "lat": 38.923429166666665, "type": "electric_scooter", "lon": -77.04189983333333, "bike_id": "8e008cc617a8952f278cf39668669ed5", "rental_uris": {"android": "https://dc.lft.to/lastmile_qr_scan", "ios": "https://dc.lft.to/lastmile_qr_scan"}, "name": "8e008cc617a8952f278cf39668669ed5", "is_reserved": 0}, {"is_disabled": 0, "fusion_lon": 0.0, "fusion_lat": 0.0, "lat": 38.90063083333333, "type": "electric_scooter", "lon": -76.93385933333333, "bike_id": "98badfbca191248d72806ae873731aa5", "rental_uris": {"android": "https://dc.lft.to/lastmile_qr_scan", "ios": "https://dc.lft.to/lastmile_qr_scan"}, "name": "98badfbca191248d72806ae873731aa5", "is_reserved": 0}, {"is_disabled": 0, "fusion_lon": 0.0, "fusion_lat": 0.0, "lat": 38.88592366666666, "type": "electric_scooter", "lon": -77.01762616666667, "bike_id": "0ab61dc0bd365f4a0627f08f5fc99ac1", "rental_uris": {"android": "https://dc.lft.to/lastmile_qr_scan", "ios": "https://dc.lft.to/lastmile_qr_scan"}, "name": "0ab61dc0bd365f4a0627f08f5fc99ac1", "is_reserved": 0}, {"is_disabled": 0, "fusion_lon": 0.0, "fusion_lat": 0.0, "lat": 38.898446666666665, "type": "electric_scooter", "lon": -76.94633116666667, "bike_id": "8a2ede209fbf218953ccfb4691c8a78e", "rental_uris": {"android": "https://dc.lft.to/lastmile_qr_scan", "ios": "https://dc.lft.to/lastmile_qr_scan"}, "name": "8a2ede209fbf218953ccfb4691c8a78e", "is_reserved": 0}, {"is_disabled": 0, "fusion_lon": 0.0, "fusion_lat": 0.0, "lat": 38.90311, "type": "electric_scooter", "lon": -76.98248533333333, "bike_id": "34c3d96f946265bb85e8c82da2eb35ff", "rental_uris": {"android": "https://dc.lft.to/lastmile_qr_scan", "ios": "https://dc.lft.to/lastmile_qr_scan"}, "name": "34c3d96f946265bb85e8c82da2eb35ff", "is_reserved": 0}, {"is_disabled": 0, "fusion_lon": 0.0, "fusion_lat": 0.0, "lat": 38.87336916666667, "type": "electric_bike", "lon": -77.01854283333333, "bike_id": "e7fbf7b096c76cf45b47f68b86907c69", "rental_uris": {"android": "https://dc.lft.to/lastmile_qr_scan", "ios": "https://dc.lft.to/lastmile_qr_scan"}, "name": "e7fbf7b096c76cf45b47f68b86907c69", "is_reserved": 0}, {"is_disabled": 0, "fusion_lon": 0.0, "fusion_lat": 0.0, "lat": 38.907895833333335, "type": "electric_scooter", "lon": -77.04098583333334, "bike_id": "bf98c83f53491b19eccacfcd6a78a21e", "rental_uris": {"android": "https://dc.lft.to/lastmile_qr_scan", "ios": "https://dc.lft.to/lastmile_qr_scan"}, "name": "bf98c83f53491b19eccacfcd6a78a21e", "is_reserved": 0}, {"is_disabled": 0, "fusion_lon": 0.0, "fusion_lat": 0.0, "lat": 38.9509055, "type": "electric_bike", "lon": -76.96561266666667, "bike_id": "70c2292fccf3bd422800f92f584d1845", "rental_uris": {"android": "https://dc.lft.to/lastmile_qr_scan", "ios": "https://dc.lft.to/lastmile_qr_scan"}, "name": "70c2292fccf3bd422800f92f584d1845", "is_reserved": 0}, {"is_disabled": 0, "fusion_lon": 0.0, "fusion_lat": 0.0, "lat": 38.91125383333333, "type": "electric_scooter", "lon": -77.04211716666667, "bike_id": "a6bab10fccce9757e1d8034bfce3c525", "rental_uris": {"android": "https://dc.lft.to/lastmile_qr_scan", "ios": "https://dc.lft.to/lastmile_qr_scan"}, "name": "a6bab10fccce9757e1d8034bfce3c525", "is_reserved": 0}, {"is_disabled": 0, "fusion_lon": 0.0, "fusion_lat": 0.0, "lat": 38.91255066666667, "type": "electric_scooter", "lon": -77.009334, "bike_id": "390ad35785d712eaa45c4e6de0a8a570", "rental_uris": {"android": "https://dc.lft.to/lastmile_qr_scan", "ios": "https://dc.lft.to/lastmile_qr_scan"}, "name": "390ad35785d712eaa45c4e6de0a8a570", "is_reserved": 0}, {"is_disabled": 0, "fusion_lon": 0.0, "fusion_lat": 0.0, "lat": 38.90527983333333, "type": "electric_scooter", "lon": -77.0501835, "bike_id": "8002f52990008aaa4e8df13a894dc5bb", "rental_uris": {"android": "https://dc.lft.to/lastmile_qr_scan", "ios": "https://dc.lft.to/lastmile_qr_scan"}, "name": "8002f52990008aaa4e8df13a894dc5bb", "is_reserved": 0}, {"is_disabled": 0, "fusion_lon": 0.0, "fusion_lat": 0.0, "lat": 38.9369815, "type": "electric_scooter", "lon": -77.05602816666666, "bike_id": "0ecd30cc04046c56557263540d56f209", "rental_uris": {"android": "https://dc.lft.to/lastmile_qr_scan", "ios": "https://dc.lft.to/lastmile_qr_scan"}, "name": "0ecd30cc04046c56557263540d56f209", "is_reserved": 0}, {"is_disabled": 0, "fusion_lon": 0.0, "fusion_lat": 0.0, "lat": 38.91704083333333, "type": "electric_scooter", "lon": -77.00116933333334, "bike_id": "59791505a4bbfb9883126f6506294131", "rental_uris": {"android": "https://dc.lft.to/lastmile_qr_scan", "ios": "https://dc.lft.to/lastmile_qr_scan"}, "name": "59791505a4bbfb9883126f6506294131", "is_reserved": 0}, {"is_disabled": 0, "fusion_lon": 0.0, "fusion_lat": 0.0, "lat": 38.8974295, "type": "electric_scooter", "lon": -77.0218885, "bike_id": "9df83deebaeb2b43d97d398d1141ac65", "rental_uris": {"android": "https://dc.lft.to/lastmile_qr_scan", "ios": "https://dc.lft.to/lastmile_qr_scan"}, "name": "9df83deebaeb2b43d97d398d1141ac65", "is_reserved": 0}, {"is_disabled": 0, "fusion_lon": 0.0, "fusion_lat": 0.0, "lat": 38.88456383333333, "type": "electric_bike", "lon": -76.9163875, "bike_id": "4d8a1671ee05f2fd6bf9751c16acaead", "rental_uris": {"android": "https://dc.lft.to/lastmile_qr_scan", "ios": "https://dc.lft.to/lastmile_qr_scan"}, "name": "4d8a1671ee05f2fd6bf9751c16acaead", "is_reserved": 0}, {"is_disabled": 0, "fusion_lon": 0.0, "fusion_lat": 0.0, "lat": 38.9162255, "type": "electric_scooter", "lon": -77.022838, "bike_id": "99ff656d3339352f27620974167505fd", "rental_uris": {"android": "https://dc.lft.to/lastmile_qr_scan", "ios": "https://dc.lft.to/lastmile_qr_scan"}, "name": "99ff656d3339352f27620974167505fd", "is_reserved": 0}, {"is_disabled": 0, "fusion_lon": 0.0, "fusion_lat": 0.0, "lat": 38.915968666666664, "type": "electric_scooter", "lon": -77.07275766666666, "bike_id": "50dc55e4059d6fbd48bd9ba123e7d93c", "rental_uris": {"android": "https://dc.lft.to/lastmile_qr_scan", "ios": "https://dc.lft.to/lastmile_qr_scan"}, "name": "50dc55e4059d6fbd48bd9ba123e7d93c", "is_reserved": 0}, {"is_disabled": 0, "fusion_lon": 0.0, "fusion_lat": 0.0, "lat": 39.05263466666667, "type": "electric_bike", "lon": -77.04385233333333, "bike_id": "72396a0b9b982d1e832316550946d63a", "rental_uris": {"android": "https://dc.lft.to/lastmile_qr_scan", "ios": "https://dc.lft.to/lastmile_qr_scan"}, "name": "72396a0b9b982d1e832316550946d63a", "is_reserved": 0}, {"is_disabled": 0, "fusion_lon": 0.0, "fusion_lat": 0.0, "lat": 38.90825383333333, "type": "electric_scooter", "lon": -77.038449, "bike_id": "868a7aeeb6fc0a27f647f49c9d0a8c44", "rental_uris": {"android": "https://dc.lft.to/lastmile_qr_scan", "ios": "https://dc.lft.to/lastmile_qr_scan"}, "name": "868a7aeeb6fc0a27f647f49c9d0a8c44", "is_reserved": 0}, {"is_disabled": 0, "fusion_lon": 0.0, "fusion_lat": 0.0, "lat": 38.948994166666665, "type": "electric_bike", "lon": -76.963723, "bike_id": "095df20acd8237d9f568b6ec3b6f0cd1", "rental_uris": {"android": "https://dc.lft.to/lastmile_qr_scan", "ios": "https://dc.lft.to/lastmile_qr_scan"}, "name": "095df20acd8237d9f568b6ec3b6f0cd1", "is_reserved": 0}, {"is_disabled": 0, "fusion_lon": 0.0, "fusion_lat": 0.0, "lat": 38.90576033333333, "type": "electric_scooter", "lon": -77.0468585, "bike_id": "285d175a154ce998bb47102406023957", "rental_uris": {"android": "https://dc.lft.to/lastmile_qr_scan", "ios": "https://dc.lft.to/lastmile_qr_scan"}, "name": "285d175a154ce998bb47102406023957", "is_reserved": 0}, {"is_disabled": 0, "fusion_lon": 0.0, "fusion_lat": 0.0, "lat": 38.89566466666667, "type": "electric_bike", "lon": -77.12736816666667, "bike_id": "4433239681f92ace8082ab18c42f33e0", "rental_uris": {"android": "https://dc.lft.to/lastmile_qr_scan", "ios": "https://dc.lft.to/lastmile_qr_scan"}, "name": "4433239681f92ace8082ab18c42f33e0", "is_reserved": 0}, {"is_disabled": 0, "fusion_lon": 0.0, "fusion_lat": 0.0, "lat": 38.922503166666665, "type": "electric_scooter", "lon": -77.04132866666667, "bike_id": "0ac83954863370e24c77c490d3180ca2", "rental_uris": {"android": "https://dc.lft.to/lastmile_qr_scan", "ios": "https://dc.lft.to/lastmile_qr_scan"}, "name": "0ac83954863370e24c77c490d3180ca2", "is_reserved": 0}, {"is_disabled": 0, "fusion_lon": 0.0, "fusion_lat": 0.0, "lat": 38.915673166666664, "type": "electric_scooter", "lon": -77.011732, "bike_id": "958e8beebe50dbb75483ddaff3899b9a", "rental_uris": {"android": "https://dc.lft.to/lastmile_qr_scan", "ios": "https://dc.lft.to/lastmile_qr_scan"}, "name": "958e8beebe50dbb75483ddaff3899b9a", "is_reserved": 0}, {"is_disabled": 0, "fusion_lon": 0.0, "fusion_lat": 0.0, "lat": 38.925816, "type": "electric_scooter", "lon": -76.994963, "bike_id": "6e75114f6d81155040b62fb62c4a0575", "rental_uris": {"android": "https://dc.lft.to/lastmile_qr_scan", "ios": "https://dc.lft.to/lastmile_qr_scan"}, "name": "6e75114f6d81155040b62fb62c4a0575", "is_reserved": 0}, {"is_disabled": 0, "fusion_lon": 0.0, "fusion_lat": 0.0, "lat": 38.937871666666666, "type": "electric_scooter", "lon": -77.0188225, "bike_id": "a00f1dd43a4415971b7925d1a2d1307c", "rental_uris": {"android": "https://dc.lft.to/lastmile_qr_scan", "ios": "https://dc.lft.to/lastmile_qr_scan"}, "name": "a00f1dd43a4415971b7925d1a2d1307c", "is_reserved": 0}, {"is_disabled": 0, "fusion_lon": 0.0, "fusion_lat": 0.0, "lat": 38.92221383333333, "type": "electric_scooter", "lon": -77.033007, "bike_id": "88ee1f15f0806b7dfee87f7338279df7", "rental_uris": {"android": "https://dc.lft.to/lastmile_qr_scan", "ios": "https://dc.lft.to/lastmile_qr_scan"}, "name": "88ee1f15f0806b7dfee87f7338279df7", "is_reserved": 0}, {"is_disabled": 0, "fusion_lon": 0.0, "fusion_lat": 0.0, "lat": 38.89485116666667, "type": "electric_bike", "lon": -76.99525266666667, "bike_id": "7b3f4f0ecd96faf1fed0825592512687", "rental_uris": {"android": "https://dc.lft.to/lastmile_qr_scan", "ios": "https://dc.lft.to/lastmile_qr_scan"}, "name": "7b3f4f0ecd96faf1fed0825592512687", "is_reserved": 0}, {"is_disabled": 0, "fusion_lon": 0.0, "fusion_lat": 0.0, "lat": 38.8874905, "type": "electric_scooter", "lon": -77.01543266666667, "bike_id": "af68af9f1175c4110b0314f3c384c948", "rental_uris": {"android": "https://dc.lft.to/lastmile_qr_scan", "ios": "https://dc.lft.to/lastmile_qr_scan"}, "name": "af68af9f1175c4110b0314f3c384c948", "is_reserved": 0}, {"is_disabled": 0, "fusion_lon": 0.0, "fusion_lat": 0.0, "lat": 38.916122333333334, "type": "electric_scooter", "lon": -77.04862333333334, "bike_id": "7253fc87031da9e38a88af0e69c4cbf2", "rental_uris": {"android": "https://dc.lft.to/lastmile_qr_scan", "ios": "https://dc.lft.to/lastmile_qr_scan"}, "name": "7253fc87031da9e38a88af0e69c4cbf2", "is_reserved": 0}, {"is_disabled": 0, "fusion_lon": 0.0, "fusion_lat": 0.0, "lat": 38.90542933333333, "type": "electric_scooter", "lon": -77.03574316666666, "bike_id": "7a0a13902ebdec4e6627375a27a6d936", "rental_uris": {"android": "https://dc.lft.to/lastmile_qr_scan", "ios": "https://dc.lft.to/lastmile_qr_scan"}, "name": "7a0a13902ebdec4e6627375a27a6d936", "is_reserved": 0}, {"is_disabled": 0, "fusion_lon": 0.0, "fusion_lat": 0.0, "lat": 38.951736833333335, "type": "electric_scooter", "lon": -77.03333383333333, "bike_id": "a49675620160e0d01b54636ddfc080e2", "rental_uris": {"android": "https://dc.lft.to/lastmile_qr_scan", "ios": "https://dc.lft.to/lastmile_qr_scan"}, "name": "a49675620160e0d01b54636ddfc080e2", "is_reserved": 0}, {"is_disabled": 0, "fusion_lon": 0.0, "fusion_lat": 0.0, "lat": 38.9131105, "type": "electric_scooter", "lon": -77.00847566666667, "bike_id": "4a0ff81e8b542928af006ce60a97be34", "rental_uris": {"android": "https://dc.lft.to/lastmile_qr_scan", "ios": "https://dc.lft.to/lastmile_qr_scan"}, "name": "4a0ff81e8b542928af006ce60a97be34", "is_reserved": 0}, {"is_disabled": 0, "fusion_lon": 0.0, "fusion_lat": 0.0, "lat": 38.914702166666665, "type": "electric_scooter", "lon": -77.03845916666667, "bike_id": "0f9e4473377acda7005d4c169bc1e115", "rental_uris": {"android": "https://dc.lft.to/lastmile_qr_scan", "ios": "https://dc.lft.to/lastmile_qr_scan"}, "name": "0f9e4473377acda7005d4c169bc1e115", "is_reserved": 0}, {"is_disabled": 0, "fusion_lon": 0.0, "fusion_lat": 0.0, "lat": 38.91272, "type": "electric_scooter", "lon": -77.03368916666666, "bike_id": "21e617b5df87eedce8365cf40158a612", "rental_uris": {"android": "https://dc.lft.to/lastmile_qr_scan", "ios": "https://dc.lft.to/lastmile_qr_scan"}, "name": "21e617b5df87eedce8365cf40158a612", "is_reserved": 0}, {"is_disabled": 0, "fusion_lon": 0.0, "fusion_lat": 0.0, "lat": 38.96617216666667, "type": "electric_scooter", "lon": -77.03533933333334, "bike_id": "e74331d76b54f12984968e3f1ae5e35d", "rental_uris": {"android": "https://dc.lft.to/lastmile_qr_scan", "ios": "https://dc.lft.to/lastmile_qr_scan"}, "name": "e74331d76b54f12984968e3f1ae5e35d", "is_reserved": 0}, {"is_disabled": 0, "fusion_lon": 0.0, "fusion_lat": 0.0, "lat": 38.93431916666667, "type": "electric_scooter", "lon": -77.02589516666667, "bike_id": "9d47add7c7781caeb7134a5372b079a6", "rental_uris": {"android": "https://dc.lft.to/lastmile_qr_scan", "ios": "https://dc.lft.to/lastmile_qr_scan"}, "name": "9d47add7c7781caeb7134a5372b079a6", "is_reserved": 0}, {"is_disabled": 0, "fusion_lon": 0.0, "fusion_lat": 0.0, "lat": 38.92965216666666, "type": "electric_scooter", "lon": -77.0420405, "bike_id": "2bab67d92e66fe9bc63ed53ee76f0acd", "rental_uris": {"android": "https://dc.lft.to/lastmile_qr_scan", "ios": "https://dc.lft.to/lastmile_qr_scan"}, "name": "2bab67d92e66fe9bc63ed53ee76f0acd", "is_reserved": 0}, {"is_disabled": 0, "fusion_lon": 0.0, "fusion_lat": 0.0, "lat": 38.94618083333334, "type": "electric_scooter", "lon": -77.03623533333334, "bike_id": "8a1e73c5a6948363dc14f493f8f9299b", "rental_uris": {"android": "https://dc.lft.to/lastmile_qr_scan", "ios": "https://dc.lft.to/lastmile_qr_scan"}, "name": "8a1e73c5a6948363dc14f493f8f9299b", "is_reserved": 0}, {"is_disabled": 0, "fusion_lon": 0.0, "fusion_lat": 0.0, "lat": 38.91847966666667, "type": "electric_bike", "lon": -76.960887, "bike_id": "3bf88f8fee96afb76a92a01e064b1ae3", "rental_uris": {"android": "https://dc.lft.to/lastmile_qr_scan", "ios": "https://dc.lft.to/lastmile_qr_scan"}, "name": "3bf88f8fee96afb76a92a01e064b1ae3", "is_reserved": 0}, {"is_disabled": 0, "fusion_lon": 0.0, "fusion_lat": 0.0, "lat": 38.938277, "type": "electric_scooter", "lon": -77.0279575, "bike_id": "28d47b0eeddde8827f3289d80ca2bba2", "rental_uris": {"android": "https://dc.lft.to/lastmile_qr_scan", "ios": "https://dc.lft.to/lastmile_qr_scan"}, "name": "28d47b0eeddde8827f3289d80ca2bba2", "is_reserved": 0}, {"is_disabled": 0, "fusion_lon": 0.0, "fusion_lat": 0.0, "lat": 38.929059, "type": "electric_scooter", "lon": -77.0226925, "bike_id": "217362023bf37526a8044094097c5a30", "rental_uris": {"android": "https://dc.lft.to/lastmile_qr_scan", "ios": "https://dc.lft.to/lastmile_qr_scan"}, "name": "217362023bf37526a8044094097c5a30", "is_reserved": 0}, {"is_disabled": 0, "fusion_lon": 0.0, "fusion_lat": 0.0, "lat": 38.93705333333333, "type": "electric_scooter", "lon": -77.06109016666667, "bike_id": "6ebfc8c80afad19319751fa3fc8462a1", "rental_uris": {"android": "https://dc.lft.to/lastmile_qr_scan", "ios": "https://dc.lft.to/lastmile_qr_scan"}, "name": "6ebfc8c80afad19319751fa3fc8462a1", "is_reserved": 0}, {"is_disabled": 0, "fusion_lon": 0.0, "fusion_lat": 0.0, "lat": 38.906884, "type": "electric_scooter", "lon": -77.06286116666666, "bike_id": "8a5386c5c1382a0e14c93f2b4ee27738", "rental_uris": {"android": "https://dc.lft.to/lastmile_qr_scan", "ios": "https://dc.lft.to/lastmile_qr_scan"}, "name": "8a5386c5c1382a0e14c93f2b4ee27738", "is_reserved": 0}, {"is_disabled": 0, "fusion_lon": 0.0, "fusion_lat": 0.0, "lat": 38.9050185, "type": "electric_scooter", "lon": -76.9953215, "bike_id": "5e505fca7689bdb1669c60ab01c52a83", "rental_uris": {"android": "https://dc.lft.to/lastmile_qr_scan", "ios": "https://dc.lft.to/lastmile_qr_scan"}, "name": "5e505fca7689bdb1669c60ab01c52a83", "is_reserved": 0}, {"is_disabled": 0, "fusion_lon": 0.0, "fusion_lat": 0.0, "lat": 38.9988135, "type": "electric_bike", "lon": -77.02869983333333, "bike_id": "b5ecd71ab9f8e54d5dd7d497ecf31652", "rental_uris": {"android": "https://dc.lft.to/lastmile_qr_scan", "ios": "https://dc.lft.to/lastmile_qr_scan"}, "name": "b5ecd71ab9f8e54d5dd7d497ecf31652", "is_reserved": 0}, {"is_disabled": 0, "fusion_lon": 0.0, "fusion_lat": 0.0, "lat": 38.8633065, "type": "electric_scooter", "lon": -76.990453, "bike_id": "2784c2e9db36f0fd6ce0172a8fd7b238", "rental_uris": {"android": "https://dc.lft.to/lastmile_qr_scan", "ios": "https://dc.lft.to/lastmile_qr_scan"}, "name": "2784c2e9db36f0fd6ce0172a8fd7b238", "is_reserved": 0}, {"is_disabled": 0, "fusion_lon": 0.0, "fusion_lat": 0.0, "lat": 38.92486683333333, "type": "electric_scooter", "lon": -77.034918, "bike_id": "2e58bdc79612b63dec024eaca457254e", "rental_uris": {"android": "https://dc.lft.to/lastmile_qr_scan", "ios": "https://dc.lft.to/lastmile_qr_scan"}, "name": "2e58bdc79612b63dec024eaca457254e", "is_reserved": 0}, {"is_disabled": 0, "fusion_lon": 0.0, "fusion_lat": 0.0, "lat": 38.917027833333336, "type": "electric_scooter", "lon": -77.03479833333333, "bike_id": "363e911b366f0bb679b6bf488a14bb15", "rental_uris": {"android": "https://dc.lft.to/lastmile_qr_scan", "ios": "https://dc.lft.to/lastmile_qr_scan"}, "name": "363e911b366f0bb679b6bf488a14bb15", "is_reserved": 0}, {"is_disabled": 0, "fusion_lon": 0.0, "fusion_lat": 0.0, "lat": 38.919697, "type": "electric_scooter", "lon": -77.0236115, "bike_id": "6f6226017747af679050c8f85d991310", "rental_uris": {"android": "https://dc.lft.to/lastmile_qr_scan", "ios": "https://dc.lft.to/lastmile_qr_scan"}, "name": "6f6226017747af679050c8f85d991310", "is_reserved": 0}, {"is_disabled": 0, "fusion_lon": 0.0, "fusion_lat": 0.0, "lat": 38.846053166666664, "type": "electric_bike", "lon": -76.96882683333334, "bike_id": "7157715e9151de7c2e00df21cd59fa61", "rental_uris": {"android": "https://dc.lft.to/lastmile_qr_scan", "ios": "https://dc.lft.to/lastmile_qr_scan"}, "name": "7157715e9151de7c2e00df21cd59fa61", "is_reserved": 0}, {"is_disabled": 0, "fusion_lon": 0.0, "fusion_lat": 0.0, "lat": 38.892408333333336, "type": "electric_scooter", "lon": -77.02809066666667, "bike_id": "46f21546ca2d402b7d7c936723c46a0a", "rental_uris": {"android": "https://dc.lft.to/lastmile_qr_scan", "ios": "https://dc.lft.to/lastmile_qr_scan"}, "name": "46f21546ca2d402b7d7c936723c46a0a", "is_reserved": 0}, {"is_disabled": 0, "fusion_lon": 0.0, "fusion_lat": 0.0, "lat": 38.924833166666666, "type": "electric_scooter", "lon": -77.02716066666666, "bike_id": "8a8aef085e28ac0a439c7007a455e329", "rental_uris": {"android": "https://dc.lft.to/lastmile_qr_scan", "ios": "https://dc.lft.to/lastmile_qr_scan"}, "name": "8a8aef085e28ac0a439c7007a455e329", "is_reserved": 0}, {"is_disabled": 0, "fusion_lon": 0.0, "fusion_lat": 0.0, "lat": 38.915775, "type": "electric_scooter", "lon": -76.98114683333333, "bike_id": "5fea6b7ee742eb59cdd32eb10caf4847", "rental_uris": {"android": "https://dc.lft.to/lastmile_qr_scan", "ios": "https://dc.lft.to/lastmile_qr_scan"}, "name": "5fea6b7ee742eb59cdd32eb10caf4847", "is_reserved": 0}, {"is_disabled": 0, "fusion_lon": 0.0, "fusion_lat": 0.0, "lat": 38.96761816666667, "type": "electric_bike", "lon": -77.09165433333334, "bike_id": "13445218628f727a7083b978b243bc06", "rental_uris": {"android": "https://dc.lft.to/lastmile_qr_scan", "ios": "https://dc.lft.to/lastmile_qr_scan"}, "name": "13445218628f727a7083b978b243bc06", "is_reserved": 0}, {"is_disabled": 0, "fusion_lon": 0.0, "fusion_lat": 0.0, "lat": 38.85806983333333, "type": "electric_scooter", "lon": -76.98655233333334, "bike_id": "50a4984300d60b461c213fa75887c920", "rental_uris": {"android": "https://dc.lft.to/lastmile_qr_scan", "ios": "https://dc.lft.to/lastmile_qr_scan"}, "name": "50a4984300d60b461c213fa75887c920", "is_reserved": 0}, {"is_disabled": 0, "fusion_lon": 0.0, "fusion_lat": 0.0, "lat": 38.841963666666665, "type": "electric_bike", "lon": -77.1069125, "bike_id": "e7f1a37b5169fe37c4670201a175a217", "rental_uris": {"android": "https://dc.lft.to/lastmile_qr_scan", "ios": "https://dc.lft.to/lastmile_qr_scan"}, "name": "e7f1a37b5169fe37c4670201a175a217", "is_reserved": 0}, {"is_disabled": 0, "fusion_lon": 0.0, "fusion_lat": 0.0, "lat": 38.92825666666667, "type": "electric_scooter", "lon": -77.01411583333334, "bike_id": "524d3c8fa33f4e89ec6dfd678d73833a", "rental_uris": {"android": "https://dc.lft.to/lastmile_qr_scan", "ios": "https://dc.lft.to/lastmile_qr_scan"}, "name": "524d3c8fa33f4e89ec6dfd678d73833a", "is_reserved": 0}, {"is_disabled": 0, "fusion_lon": 0.0, "fusion_lat": 0.0, "lat": 38.908408666666666, "type": "electric_scooter", "lon": -77.02695366666667, "bike_id": "df4c47ef4d675811b22bbf5b3f62f98b", "rental_uris": {"android": "https://dc.lft.to/lastmile_qr_scan", "ios": "https://dc.lft.to/lastmile_qr_scan"}, "name": "df4c47ef4d675811b22bbf5b3f62f98b", "is_reserved": 0}, {"is_disabled": 0, "fusion_lon": 0.0, "fusion_lat": 0.0, "lat": 38.93055116666667, "type": "electric_scooter", "lon": -77.0280745, "bike_id": "0028e683a1d72ba91c022b72cd7afc57", "rental_uris": {"android": "https://dc.lft.to/lastmile_qr_scan", "ios": "https://dc.lft.to/lastmile_qr_scan"}, "name": "0028e683a1d72ba91c022b72cd7afc57", "is_reserved": 0}, {"is_disabled": 0, "fusion_lon": 0.0, "fusion_lat": 0.0, "lat": 38.89483083333333, "type": "electric_scooter", "lon": -77.02296366666667, "bike_id": "b039bc1aab7e57d2da2e0fae81fa2c39", "rental_uris": {"android": "https://dc.lft.to/lastmile_qr_scan", "ios": "https://dc.lft.to/lastmile_qr_scan"}, "name": "b039bc1aab7e57d2da2e0fae81fa2c39", "is_reserved": 0}, {"is_disabled": 0, "fusion_lon": 0.0, "fusion_lat": 0.0, "lat": 38.902378666666664, "type": "electric_bike", "lon": -77.0193515, "bike_id": "84230fcbe78101523899d9c15c772c47", "rental_uris": {"android": "https://dc.lft.to/lastmile_qr_scan", "ios": "https://dc.lft.to/lastmile_qr_scan"}, "name": "84230fcbe78101523899d9c15c772c47", "is_reserved": 0}, {"is_disabled": 0, "fusion_lon": 0.0, "fusion_lat": 0.0, "lat": 38.9140695, "type": "electric_scooter", "lon": -77.0033505, "bike_id": "28eb5ef355f1b5a46d58fe777bf2a619", "rental_uris": {"android": "https://dc.lft.to/lastmile_qr_scan", "ios": "https://dc.lft.to/lastmile_qr_scan"}, "name": "28eb5ef355f1b5a46d58fe777bf2a619", "is_reserved": 0}, {"is_disabled": 0, "fusion_lon": 0.0, "fusion_lat": 0.0, "lat": 38.94494183333333, "type": "electric_bike", "lon": -76.98666816666666, "bike_id": "fa6426168f88876e91b557bda3952512", "rental_uris": {"android": "https://dc.lft.to/lastmile_qr_scan", "ios": "https://dc.lft.to/lastmile_qr_scan"}, "name": "fa6426168f88876e91b557bda3952512", "is_reserved": 0}, {"is_disabled": 0, "fusion_lon": 0.0, "fusion_lat": 0.0, "lat": 38.93548233333333, "type": "electric_scooter", "lon": -77.05813966666666, "bike_id": "ef3270d720bd40db9c0163b51127a67b", "rental_uris": {"android": "https://dc.lft.to/lastmile_qr_scan", "ios": "https://dc.lft.to/lastmile_qr_scan"}, "name": "ef3270d720bd40db9c0163b51127a67b", "is_reserved": 0}, {"is_disabled": 0, "fusion_lon": 0.0, "fusion_lat": 0.0, "lat": 38.917899166666665, "type": "electric_scooter", "lon": -77.04304066666667, "bike_id": "946f5c3facce6bb5dec1efbcddb6c5ea", "rental_uris": {"android": "https://dc.lft.to/lastmile_qr_scan", "ios": "https://dc.lft.to/lastmile_qr_scan"}, "name": "946f5c3facce6bb5dec1efbcddb6c5ea", "is_reserved": 0}, {"is_disabled": 0, "fusion_lon": 0.0, "fusion_lat": 0.0, "lat": 38.90742066666667, "type": "electric_scooter", "lon": -77.03845883333334, "bike_id": "0c2ffdf6a5f941c62104458a0927c08d", "rental_uris": {"android": "https://dc.lft.to/lastmile_qr_scan", "ios": "https://dc.lft.to/lastmile_qr_scan"}, "name": "0c2ffdf6a5f941c62104458a0927c08d", "is_reserved": 0}, {"is_disabled": 0, "fusion_lon": 0.0, "fusion_lat": 0.0, "lat": 38.8826535, "type": "electric_scooter", "lon": -76.98544566666666, "bike_id": "446af9a25be20b258bd0e9f4b52089b2", "rental_uris": {"android": "https://dc.lft.to/lastmile_qr_scan", "ios": "https://dc.lft.to/lastmile_qr_scan"}, "name": "446af9a25be20b258bd0e9f4b52089b2", "is_reserved": 0}, {"is_disabled": 0, "fusion_lon": 0.0, "fusion_lat": 0.0, "lat": 38.828743, "type": "electric_bike", "lon": -77.11227066666666, "bike_id": "0d69c42753d737af6ce6b393a70a975a", "rental_uris": {"android": "https://dc.lft.to/lastmile_qr_scan", "ios": "https://dc.lft.to/lastmile_qr_scan"}, "name": "0d69c42753d737af6ce6b393a70a975a", "is_reserved": 0}, {"is_disabled": 0, "fusion_lon": 0.0, "fusion_lat": 0.0, "lat": 38.92124366666667, "type": "electric_scooter", "lon": -77.044289, "bike_id": "ae086c5b53c4ed878de8864d057c9e27", "rental_uris": {"android": "https://dc.lft.to/lastmile_qr_scan", "ios": "https://dc.lft.to/lastmile_qr_scan"}, "name": "ae086c5b53c4ed878de8864d057c9e27", "is_reserved": 0}, {"is_disabled": 0, "fusion_lon": 0.0, "fusion_lat": 0.0, "lat": 38.8331775, "type": "electric_scooter", "lon": -77.00007933333333, "bike_id": "42a7c348416f2737bfdf3958acdcedc4", "rental_uris": {"android": "https://dc.lft.to/lastmile_qr_scan", "ios": "https://dc.lft.to/lastmile_qr_scan"}, "name": "42a7c348416f2737bfdf3958acdcedc4", "is_reserved": 0}, {"is_disabled": 0, "fusion_lon": 0.0, "fusion_lat": 0.0, "lat": 38.874784166666664, "type": "electric_scooter", "lon": -77.01070183333333, "bike_id": "74ec1ff6196ccfb239c73d75701976b4", "rental_uris": {"android": "https://dc.lft.to/lastmile_qr_scan", "ios": "https://dc.lft.to/lastmile_qr_scan"}, "name": "74ec1ff6196ccfb239c73d75701976b4", "is_reserved": 0}, {"is_disabled": 0, "fusion_lon": 0.0, "fusion_lat": 0.0, "lat": 38.92743566666667, "type": "electric_scooter", "lon": -77.033086, "bike_id": "8dfd822e36f7a74a042a2ec4dc7aaf16", "rental_uris": {"android": "https://dc.lft.to/lastmile_qr_scan", "ios": "https://dc.lft.to/lastmile_qr_scan"}, "name": "8dfd822e36f7a74a042a2ec4dc7aaf16", "is_reserved": 0}, {"is_disabled": 0, "fusion_lon": 0.0, "fusion_lat": 0.0, "lat": 38.91336416666667, "type": "electric_scooter", "lon": -77.04862833333334, "bike_id": "aefc62e9f762b0f0924884f4fdd7b7dc", "rental_uris": {"android": "https://dc.lft.to/lastmile_qr_scan", "ios": "https://dc.lft.to/lastmile_qr_scan"}, "name": "aefc62e9f762b0f0924884f4fdd7b7dc", "is_reserved": 0}, {"is_disabled": 0, "fusion_lon": 0.0, "fusion_lat": 0.0, "lat": 38.955359333333334, "type": "electric_bike", "lon": -76.93529466666666, "bike_id": "aacc3f333639a7fd0d7297dc694388b5", "rental_uris": {"android": "https://dc.lft.to/lastmile_qr_scan", "ios": "https://dc.lft.to/lastmile_qr_scan"}, "name": "aacc3f333639a7fd0d7297dc694388b5", "is_reserved": 0}, {"is_disabled": 0, "fusion_lon": 0.0, "fusion_lat": 0.0, "lat": 38.83194666666667, "type": "electric_bike", "lon": -77.07686116666666, "bike_id": "ad4e38ac8453e520d2b4b05935f9725c", "rental_uris": {"android": "https://dc.lft.to/lastmile_qr_scan", "ios": "https://dc.lft.to/lastmile_qr_scan"}, "name": "ad4e38ac8453e520d2b4b05935f9725c", "is_reserved": 0}, {"is_disabled": 0, "fusion_lon": 0.0, "fusion_lat": 0.0, "lat": 38.9517845, "type": "electric_scooter", "lon": -77.05651316666666, "bike_id": "e4f5d0602e625d2cccc2232af1298904", "rental_uris": {"android": "https://dc.lft.to/lastmile_qr_scan", "ios": "https://dc.lft.to/lastmile_qr_scan"}, "name": "e4f5d0602e625d2cccc2232af1298904", "is_reserved": 0}, {"is_disabled": 0, "fusion_lon": 0.0, "fusion_lat": 0.0, "lat": 38.92479683333333, "type": "electric_scooter", "lon": -77.03777383333333, "bike_id": "e851db2f691f34078ace80a45f6ea88d", "rental_uris": {"android": "https://dc.lft.to/lastmile_qr_scan", "ios": "https://dc.lft.to/lastmile_qr_scan"}, "name": "e851db2f691f34078ace80a45f6ea88d", "is_reserved": 0}, {"is_disabled": 0, "fusion_lon": 0.0, "fusion_lat": 0.0, "lat": 38.91592416666667, "type": "electric_scooter", "lon": -77.02132066666667, "bike_id": "3e7ac9825135522d958559525ad570b4", "rental_uris": {"android": "https://dc.lft.to/lastmile_qr_scan", "ios": "https://dc.lft.to/lastmile_qr_scan"}, "name": "3e7ac9825135522d958559525ad570b4", "is_reserved": 0}, {"is_disabled": 0, "fusion_lon": 0.0, "fusion_lat": 0.0, "lat": 38.900047, "type": "electric_scooter", "lon": -77.039673, "bike_id": "caf930484ad08b97fbd01abdbd068c05", "rental_uris": {"android": "https://dc.lft.to/lastmile_qr_scan", "ios": "https://dc.lft.to/lastmile_qr_scan"}, "name": "caf930484ad08b97fbd01abdbd068c05", "is_reserved": 0}, {"is_disabled": 0, "fusion_lon": 0.0, "fusion_lat": 0.0, "lat": 38.886339666666665, "type": "electric_scooter", "lon": -76.9551665, "bike_id": "ab78b005b7e5cd66e33a5ad2020dc5b5", "rental_uris": {"android": "https://dc.lft.to/lastmile_qr_scan", "ios": "https://dc.lft.to/lastmile_qr_scan"}, "name": "ab78b005b7e5cd66e33a5ad2020dc5b5", "is_reserved": 0}, {"is_disabled": 0, "fusion_lon": 0.0, "fusion_lat": 0.0, "lat": 38.9447565, "type": "electric_bike", "lon": -77.00646016666667, "bike_id": "c7e4c0afae88b8f78ee01650e85c3d7e", "rental_uris": {"android": "https://dc.lft.to/lastmile_qr_scan", "ios": "https://dc.lft.to/lastmile_qr_scan"}, "name": "c7e4c0afae88b8f78ee01650e85c3d7e", "is_reserved": 0}, {"is_disabled": 0, "fusion_lon": 0.0, "fusion_lat": 0.0, "lat": 38.945564, "type": "electric_bike", "lon": -77.05121716666666, "bike_id": "10c8d12037c96e4193bfa17a705c4f8b", "rental_uris": {"android": "https://dc.lft.to/lastmile_qr_scan", "ios": "https://dc.lft.to/lastmile_qr_scan"}, "name": "10c8d12037c96e4193bfa17a705c4f8b", "is_reserved": 0}, {"is_disabled": 0, "fusion_lon": 0.0, "fusion_lat": 0.0, "lat": 38.925826, "type": "electric_scooter", "lon": -77.03211366666666, "bike_id": "d24e50f569b6a9fa34c45b1fe90cc4f0", "rental_uris": {"android": "https://dc.lft.to/lastmile_qr_scan", "ios": "https://dc.lft.to/lastmile_qr_scan"}, "name": "d24e50f569b6a9fa34c45b1fe90cc4f0", "is_reserved": 0}, {"is_disabled": 0, "fusion_lon": 0.0, "fusion_lat": 0.0, "lat": 38.92214583333333, "type": "electric_scooter", "lon": -77.03509933333333, "bike_id": "bb2b894bfb624fd2ec9e059877238d34", "rental_uris": {"android": "https://dc.lft.to/lastmile_qr_scan", "ios": "https://dc.lft.to/lastmile_qr_scan"}, "name": "bb2b894bfb624fd2ec9e059877238d34", "is_reserved": 0}, {"is_disabled": 0, "fusion_lon": 0.0, "fusion_lat": 0.0, "lat": 38.91611283333334, "type": "electric_scooter", "lon": -77.04600233333333, "bike_id": "99292a45e31901c374ce49b23449d45d", "rental_uris": {"android": "https://dc.lft.to/lastmile_qr_scan", "ios": "https://dc.lft.to/lastmile_qr_scan"}, "name": "99292a45e31901c374ce49b23449d45d", "is_reserved": 0}, {"is_disabled": 0, "fusion_lon": 0.0, "fusion_lat": 0.0, "lat": 38.90851283333333, "type": "electric_scooter", "lon": -77.07408816666667, "bike_id": "ce9c5656e31b7e5d2ecb3398f8873ce6", "rental_uris": {"android": "https://dc.lft.to/lastmile_qr_scan", "ios": "https://dc.lft.to/lastmile_qr_scan"}, "name": "ce9c5656e31b7e5d2ecb3398f8873ce6", "is_reserved": 0}, {"is_disabled": 0, "fusion_lon": 0.0, "fusion_lat": 0.0, "lat": 38.90554383333333, "type": "electric_scooter", "lon": -77.05035116666667, "bike_id": "b7055aac8b561382a3f0cd364a5fff7e", "rental_uris": {"android": "https://dc.lft.to/lastmile_qr_scan", "ios": "https://dc.lft.to/lastmile_qr_scan"}, "name": "b7055aac8b561382a3f0cd364a5fff7e", "is_reserved": 0}, {"is_disabled": 0, "fusion_lon": 0.0, "fusion_lat": 0.0, "lat": 38.934171666666664, "type": "electric_scooter", "lon": -77.04273033333334, "bike_id": "206d90fec4449465cada8a0770f790a8", "rental_uris": {"android": "https://dc.lft.to/lastmile_qr_scan", "ios": "https://dc.lft.to/lastmile_qr_scan"}, "name": "206d90fec4449465cada8a0770f790a8", "is_reserved": 0}, {"is_disabled": 0, "fusion_lon": 0.0, "fusion_lat": 0.0, "lat": 38.90899833333334, "type": "electric_scooter", "lon": -77.0429115, "bike_id": "b955f427d49adcf98917ab5e137f6479", "rental_uris": {"android": "https://dc.lft.to/lastmile_qr_scan", "ios": "https://dc.lft.to/lastmile_qr_scan"}, "name": "b955f427d49adcf98917ab5e137f6479", "is_reserved": 0}, {"is_disabled": 0, "fusion_lon": 0.0, "fusion_lat": 0.0, "lat": 38.895747, "type": "electric_bike", "lon": -76.9761935, "bike_id": "81a8b76cbbebfc1dc77b4d98a8781160", "rental_uris": {"android": "https://dc.lft.to/lastmile_qr_scan", "ios": "https://dc.lft.to/lastmile_qr_scan"}, "name": "81a8b76cbbebfc1dc77b4d98a8781160", "is_reserved": 0}, {"is_disabled": 0, "fusion_lon": 0.0, "fusion_lat": 0.0, "lat": 38.92094783333334, "type": "electric_scooter", "lon": -77.02595233333334, "bike_id": "a4cdb02431c598f73fa477b00daa395e", "rental_uris": {"android": "https://dc.lft.to/lastmile_qr_scan", "ios": "https://dc.lft.to/lastmile_qr_scan"}, "name": "a4cdb02431c598f73fa477b00daa395e", "is_reserved": 0}, {"is_disabled": 0, "fusion_lon": 0.0, "fusion_lat": 0.0, "lat": 38.884533, "type": "electric_scooter", "lon": -76.95097766666666, "bike_id": "78c2b7b7803135fc1ba3747910cc01a0", "rental_uris": {"android": "https://dc.lft.to/lastmile_qr_scan", "ios": "https://dc.lft.to/lastmile_qr_scan"}, "name": "78c2b7b7803135fc1ba3747910cc01a0", "is_reserved": 0}, {"is_disabled": 0, "fusion_lon": 0.0, "fusion_lat": 0.0, "lat": 38.897861666666664, "type": "electric_scooter", "lon": -77.0475375, "bike_id": "f3dcf82462238533a64385a06e5ddbb2", "rental_uris": {"android": "https://dc.lft.to/lastmile_qr_scan", "ios": "https://dc.lft.to/lastmile_qr_scan"}, "name": "f3dcf82462238533a64385a06e5ddbb2", "is_reserved": 0}, {"is_disabled": 0, "fusion_lon": 0.0, "fusion_lat": 0.0, "lat": 38.91047066666667, "type": "electric_scooter", "lon": -77.04271983333334, "bike_id": "d14e479635b708cc9f8d074bcff17414", "rental_uris": {"android": "https://dc.lft.to/lastmile_qr_scan", "ios": "https://dc.lft.to/lastmile_qr_scan"}, "name": "d14e479635b708cc9f8d074bcff17414", "is_reserved": 0}, {"is_disabled": 0, "fusion_lon": 0.0, "fusion_lat": 0.0, "lat": 38.911726, "type": "electric_scooter", "lon": -77.00460666666666, "bike_id": "34cf0f4d8f03b0d3be2937f631056cbf", "rental_uris": {"android": "https://dc.lft.to/lastmile_qr_scan", "ios": "https://dc.lft.to/lastmile_qr_scan"}, "name": "34cf0f4d8f03b0d3be2937f631056cbf", "is_reserved": 0}, {"is_disabled": 0, "fusion_lon": 0.0, "fusion_lat": 0.0, "lat": 38.92345316666667, "type": "electric_scooter", "lon": -77.03896616666667, "bike_id": "9b9f076610c894491f859ca2ecf3a12c", "rental_uris": {"android": "https://dc.lft.to/lastmile_qr_scan", "ios": "https://dc.lft.to/lastmile_qr_scan"}, "name": "9b9f076610c894491f859ca2ecf3a12c", "is_reserved": 0}, {"is_disabled": 0, "fusion_lon": 0.0, "fusion_lat": 0.0, "lat": 38.89962333333333, "type": "electric_scooter", "lon": -77.019934, "bike_id": "2a2151ea6afc10c017442487b8618435", "rental_uris": {"android": "https://dc.lft.to/lastmile_qr_scan", "ios": "https://dc.lft.to/lastmile_qr_scan"}, "name": "2a2151ea6afc10c017442487b8618435", "is_reserved": 0}, {"is_disabled": 0, "fusion_lon": 0.0, "fusion_lat": 0.0, "lat": 38.9215125, "type": "electric_scooter", "lon": -77.0351145, "bike_id": "1ffec904fbee68bad07118ab7e86edb3", "rental_uris": {"android": "https://dc.lft.to/lastmile_qr_scan", "ios": "https://dc.lft.to/lastmile_qr_scan"}, "name": "1ffec904fbee68bad07118ab7e86edb3", "is_reserved": 0}, {"is_disabled": 0, "fusion_lon": 0.0, "fusion_lat": 0.0, "lat": 38.91605716666667, "type": "electric_scooter", "lon": -77.046009, "bike_id": "940010c9f20f734262e963c0499e0c7a", "rental_uris": {"android": "https://dc.lft.to/lastmile_qr_scan", "ios": "https://dc.lft.to/lastmile_qr_scan"}, "name": "940010c9f20f734262e963c0499e0c7a", "is_reserved": 0}, {"is_disabled": 0, "fusion_lon": 0.0, "fusion_lat": 0.0, "lat": 38.93525616666667, "type": "electric_scooter", "lon": -77.066336, "bike_id": "9a1cd051404244b2b62bf4545b0d519d", "rental_uris": {"android": "https://dc.lft.to/lastmile_qr_scan", "ios": "https://dc.lft.to/lastmile_qr_scan"}, "name": "9a1cd051404244b2b62bf4545b0d519d", "is_reserved": 0}, {"is_disabled": 0, "fusion_lon": 0.0, "fusion_lat": 0.0, "lat": 38.9104665, "type": "electric_scooter", "lon": -77.04290216666666, "bike_id": "8430fc901607fdd0e99440e4723014d5", "rental_uris": {"android": "https://dc.lft.to/lastmile_qr_scan", "ios": "https://dc.lft.to/lastmile_qr_scan"}, "name": "8430fc901607fdd0e99440e4723014d5", "is_reserved": 0}, {"is_disabled": 0, "fusion_lon": 0.0, "fusion_lat": 0.0, "lat": 38.90723416666667, "type": "electric_scooter", "lon": -77.0320965, "bike_id": "e56e19b5eb742f433da60de3fa8585c0", "rental_uris": {"android": "https://dc.lft.to/lastmile_qr_scan", "ios": "https://dc.lft.to/lastmile_qr_scan"}, "name": "e56e19b5eb742f433da60de3fa8585c0", "is_reserved": 0}, {"is_disabled": 0, "fusion_lon": 0.0, "fusion_lat": 0.0, "lat": 38.917874, "type": "electric_scooter", "lon": -77.0429875, "bike_id": "1ac83598df14e623ce05364e9b5503e8", "rental_uris": {"android": "https://dc.lft.to/lastmile_qr_scan", "ios": "https://dc.lft.to/lastmile_qr_scan"}, "name": "1ac83598df14e623ce05364e9b5503e8", "is_reserved": 0}, {"is_disabled": 0, "fusion_lon": 0.0, "fusion_lat": 0.0, "lat": 38.91903466666667, "type": "electric_scooter", "lon": -77.02759983333333, "bike_id": "01d1c727ef127a03d1ba833cebc6851d", "rental_uris": {"android": "https://dc.lft.to/lastmile_qr_scan", "ios": "https://dc.lft.to/lastmile_qr_scan"}, "name": "01d1c727ef127a03d1ba833cebc6851d", "is_reserved": 0}, {"is_disabled": 0, "fusion_lon": 0.0, "fusion_lat": 0.0, "lat": 38.89643216666666, "type": "electric_scooter", "lon": -77.026079, "bike_id": "b95638a3ae111003ea702b1dd2cec2c5", "rental_uris": {"android": "https://dc.lft.to/lastmile_qr_scan", "ios": "https://dc.lft.to/lastmile_qr_scan"}, "name": "b95638a3ae111003ea702b1dd2cec2c5", "is_reserved": 0}, {"is_disabled": 0, "fusion_lon": 0.0, "fusion_lat": 0.0, "lat": 38.873517, "type": "electric_scooter", "lon": -77.017444, "bike_id": "91e19e538bee326c3991adff12e7ac5f", "rental_uris": {"android": "https://dc.lft.to/lastmile_qr_scan", "ios": "https://dc.lft.to/lastmile_qr_scan"}, "name": "91e19e538bee326c3991adff12e7ac5f", "is_reserved": 0}, {"is_disabled": 0, "fusion_lon": 0.0, "fusion_lat": 0.0, "lat": 38.90120733333333, "type": "electric_bike", "lon": -77.0343895, "bike_id": "7e837dedf6f3a51ec594c45af86b8f80", "rental_uris": {"android": "https://dc.lft.to/lastmile_qr_scan", "ios": "https://dc.lft.to/lastmile_qr_scan"}, "name": "7e837dedf6f3a51ec594c45af86b8f80", "is_reserved": 0}, {"is_disabled": 0, "fusion_lon": 0.0, "fusion_lat": 0.0, "lat": 38.90847483333334, "type": "electric_scooter", "lon": -77.0608115, "bike_id": "42461500b8144c1bec2f2b2acaa33c26", "rental_uris": {"android": "https://dc.lft.to/lastmile_qr_scan", "ios": "https://dc.lft.to/lastmile_qr_scan"}, "name": "42461500b8144c1bec2f2b2acaa33c26", "is_reserved": 0}, {"is_disabled": 0, "fusion_lon": 0.0, "fusion_lat": 0.0, "lat": 38.936366666666665, "type": "electric_scooter", "lon": -77.02693916666666, "bike_id": "d49bda831cecc5b0fd98e12c17112929", "rental_uris": {"android": "https://dc.lft.to/lastmile_qr_scan", "ios": "https://dc.lft.to/lastmile_qr_scan"}, "name": "d49bda831cecc5b0fd98e12c17112929", "is_reserved": 0}, {"is_disabled": 0, "fusion_lon": 0.0, "fusion_lat": 0.0, "lat": 38.89788383333333, "type": "electric_scooter", "lon": -77.05113333333334, "bike_id": "cacdd0a73c9f57fd8048fb3708f133bc", "rental_uris": {"android": "https://dc.lft.to/lastmile_qr_scan", "ios": "https://dc.lft.to/lastmile_qr_scan"}, "name": "cacdd0a73c9f57fd8048fb3708f133bc", "is_reserved": 0}, {"is_disabled": 0, "fusion_lon": 0.0, "fusion_lat": 0.0, "lat": 38.8967115, "type": "electric_scooter", "lon": -77.011647, "bike_id": "56f93a4424dffd29b2fff6c78d981ec9", "rental_uris": {"android": "https://dc.lft.to/lastmile_qr_scan", "ios": "https://dc.lft.to/lastmile_qr_scan"}, "name": "56f93a4424dffd29b2fff6c78d981ec9", "is_reserved": 0}, {"is_disabled": 0, "fusion_lon": 0.0, "fusion_lat": 0.0, "lat": 38.872916333333336, "type": "electric_scooter", "lon": -77.00989833333334, "bike_id": "e3b3a6e4403097ad09ce47494cad6d18", "rental_uris": {"android": "https://dc.lft.to/lastmile_qr_scan", "ios": "https://dc.lft.to/lastmile_qr_scan"}, "name": "e3b3a6e4403097ad09ce47494cad6d18", "is_reserved": 0}, {"is_disabled": 0, "fusion_lon": 0.0, "fusion_lat": 0.0, "lat": 38.88480066666666, "type": "electric_scooter", "lon": -76.92970933333334, "bike_id": "6e8589eb739c4df73233932670b5803c", "rental_uris": {"android": "https://dc.lft.to/lastmile_qr_scan", "ios": "https://dc.lft.to/lastmile_qr_scan"}, "name": "6e8589eb739c4df73233932670b5803c", "is_reserved": 0}, {"is_disabled": 0, "fusion_lon": 0.0, "fusion_lat": 0.0, "lat": 38.89567666666667, "type": "electric_scooter", "lon": -77.02169566666667, "bike_id": "40126294f24ce091cdf5da0cc16b3646", "rental_uris": {"android": "https://dc.lft.to/lastmile_qr_scan", "ios": "https://dc.lft.to/lastmile_qr_scan"}, "name": "40126294f24ce091cdf5da0cc16b3646", "is_reserved": 0}, {"is_disabled": 0, "fusion_lon": 0.0, "fusion_lat": 0.0, "lat": 38.911328166666664, "type": "electric_scooter", "lon": -77.05939683333334, "bike_id": "f0adc9bf327bd1724ccac7e02518b8f9", "rental_uris": {"android": "https://dc.lft.to/lastmile_qr_scan", "ios": "https://dc.lft.to/lastmile_qr_scan"}, "name": "f0adc9bf327bd1724ccac7e02518b8f9", "is_reserved": 0}, {"is_disabled": 0, "fusion_lon": 0.0, "fusion_lat": 0.0, "lat": 38.92150266666667, "type": "electric_scooter", "lon": -77.03412316666666, "bike_id": "b8486870ffb1f753ee78f79bd8e438cd", "rental_uris": {"android": "https://dc.lft.to/lastmile_qr_scan", "ios": "https://dc.lft.to/lastmile_qr_scan"}, "name": "b8486870ffb1f753ee78f79bd8e438cd", "is_reserved": 0}, {"is_disabled": 0, "fusion_lon": 0.0, "fusion_lat": 0.0, "lat": 38.90774966666667, "type": "electric_scooter", "lon": -77.03184366666666, "bike_id": "9f4d25a8064354189718c4c5b9ef49a9", "rental_uris": {"android": "https://dc.lft.to/lastmile_qr_scan", "ios": "https://dc.lft.to/lastmile_qr_scan"}, "name": "9f4d25a8064354189718c4c5b9ef49a9", "is_reserved": 0}, {"is_disabled": 0, "fusion_lon": 0.0, "fusion_lat": 0.0, "lat": 38.902658333333335, "type": "electric_scooter", "lon": -77.0533535, "bike_id": "11132b5e71f1006d984c92c47dc40eac", "rental_uris": {"android": "https://dc.lft.to/lastmile_qr_scan", "ios": "https://dc.lft.to/lastmile_qr_scan"}, "name": "11132b5e71f1006d984c92c47dc40eac", "is_reserved": 0}, {"is_disabled": 0, "fusion_lon": 0.0, "fusion_lat": 0.0, "lat": 38.918200166666665, "type": "electric_scooter", "lon": -77.0417655, "bike_id": "5b53f54b496be874289944bbcb98bd6e", "rental_uris": {"android": "https://dc.lft.to/lastmile_qr_scan", "ios": "https://dc.lft.to/lastmile_qr_scan"}, "name": "5b53f54b496be874289944bbcb98bd6e", "is_reserved": 0}, {"is_disabled": 0, "fusion_lon": 0.0, "fusion_lat": 0.0, "lat": 38.9360555, "type": "electric_scooter", "lon": -77.05865566666667, "bike_id": "74b3613c527d607c4da5905a07051a83", "rental_uris": {"android": "https://dc.lft.to/lastmile_qr_scan", "ios": "https://dc.lft.to/lastmile_qr_scan"}, "name": "74b3613c527d607c4da5905a07051a83", "is_reserved": 0}, {"is_disabled": 0, "fusion_lon": 0.0, "fusion_lat": 0.0, "lat": 38.9052765, "type": "electric_scooter", "lon": -76.98784316666666, "bike_id": "2a6c77e7acee662b14b6fd33f3b01d96", "rental_uris": {"android": "https://dc.lft.to/lastmile_qr_scan", "ios": "https://dc.lft.to/lastmile_qr_scan"}, "name": "2a6c77e7acee662b14b6fd33f3b01d96", "is_reserved": 0}, {"is_disabled": 0, "fusion_lon": 0.0, "fusion_lat": 0.0, "lat": 38.8957085, "type": "electric_scooter", "lon": -77.02165266666667, "bike_id": "6fcb2fc81f7953f0e74e595e0c45826a", "rental_uris": {"android": "https://dc.lft.to/lastmile_qr_scan", "ios": "https://dc.lft.to/lastmile_qr_scan"}, "name": "6fcb2fc81f7953f0e74e595e0c45826a", "is_reserved": 0}, {"is_disabled": 0, "fusion_lon": 0.0, "fusion_lat": 0.0, "lat": 38.89312433333333, "type": "electric_scooter", "lon": -77.02206766666667, "bike_id": "6125edd45541046ab7a71c5ac8ac025d", "rental_uris": {"android": "https://dc.lft.to/lastmile_qr_scan", "ios": "https://dc.lft.to/lastmile_qr_scan"}, "name": "6125edd45541046ab7a71c5ac8ac025d", "is_reserved": 0}, {"is_disabled": 0, "fusion_lon": 0.0, "fusion_lat": 0.0, "lat": 38.892302666666666, "type": "electric_scooter", "lon": -77.04362283333333, "bike_id": "0c50975d026465e08e7baffccaa6d24b", "rental_uris": {"android": "https://dc.lft.to/lastmile_qr_scan", "ios": "https://dc.lft.to/lastmile_qr_scan"}, "name": "0c50975d026465e08e7baffccaa6d24b", "is_reserved": 0}, {"is_disabled": 0, "fusion_lon": 0.0, "fusion_lat": 0.0, "lat": 38.92334366666667, "type": "electric_scooter", "lon": -77.04751233333333, "bike_id": "cfbe4695d060d96b1c7fa237610d9b86", "rental_uris": {"android": "https://dc.lft.to/lastmile_qr_scan", "ios": "https://dc.lft.to/lastmile_qr_scan"}, "name": "cfbe4695d060d96b1c7fa237610d9b86", "is_reserved": 0}, {"is_disabled": 0, "fusion_lon": 0.0, "fusion_lat": 0.0, "lat": 38.910366, "type": "electric_scooter", "lon": -77.04065566666667, "bike_id": "b4443b3859709a508d415614a95caa33", "rental_uris": {"android": "https://dc.lft.to/lastmile_qr_scan", "ios": "https://dc.lft.to/lastmile_qr_scan"}, "name": "b4443b3859709a508d415614a95caa33", "is_reserved": 0}, {"is_disabled": 0, "fusion_lon": 0.0, "fusion_lat": 0.0, "lat": 38.90506516666667, "type": "electric_scooter", "lon": -76.98854133333333, "bike_id": "fffeafbe7efac95b0d60b3e3af74d463", "rental_uris": {"android": "https://dc.lft.to/lastmile_qr_scan", "ios": "https://dc.lft.to/lastmile_qr_scan"}, "name": "fffeafbe7efac95b0d60b3e3af74d463", "is_reserved": 0}, {"is_disabled": 0, "fusion_lon": 0.0, "fusion_lat": 0.0, "lat": 38.89370066666667, "type": "electric_scooter", "lon": -76.950001, "bike_id": "897ffa90cd3a46cfaf57bbdc93d68655", "rental_uris": {"android": "https://dc.lft.to/lastmile_qr_scan", "ios": "https://dc.lft.to/lastmile_qr_scan"}, "name": "897ffa90cd3a46cfaf57bbdc93d68655", "is_reserved": 0}, {"is_disabled": 0, "fusion_lon": 0.0, "fusion_lat": 0.0, "lat": 38.9526745, "type": "electric_scooter", "lon": -77.068528, "bike_id": "aad8dfe1050af6d682edcc8a8d98f159", "rental_uris": {"android": "https://dc.lft.to/lastmile_qr_scan", "ios": "https://dc.lft.to/lastmile_qr_scan"}, "name": "aad8dfe1050af6d682edcc8a8d98f159", "is_reserved": 0}, {"is_disabled": 0, "fusion_lon": 0.0, "fusion_lat": 0.0, "lat": 38.8798445, "type": "electric_bike", "lon": -76.91601733333333, "bike_id": "ee21be81c03c2d266060dd9f342cb0d1", "rental_uris": {"android": "https://dc.lft.to/lastmile_qr_scan", "ios": "https://dc.lft.to/lastmile_qr_scan"}, "name": "ee21be81c03c2d266060dd9f342cb0d1", "is_reserved": 0}, {"is_disabled": 0, "fusion_lon": 0.0, "fusion_lat": 0.0, "lat": 38.96646833333333, "type": "electric_bike", "lon": -76.93024233333334, "bike_id": "493dc0f246c4ec55463ab8a1af479c3c", "rental_uris": {"android": "https://dc.lft.to/lastmile_qr_scan", "ios": "https://dc.lft.to/lastmile_qr_scan"}, "name": "493dc0f246c4ec55463ab8a1af479c3c", "is_reserved": 0}, {"is_disabled": 0, "fusion_lon": 0.0, "fusion_lat": 0.0, "lat": 38.897255333333334, "type": "electric_scooter", "lon": -77.04816733333334, "bike_id": "fbb63b45af0d9ceb968ad903fc1bb3e7", "rental_uris": {"android": "https://dc.lft.to/lastmile_qr_scan", "ios": "https://dc.lft.to/lastmile_qr_scan"}, "name": "fbb63b45af0d9ceb968ad903fc1bb3e7", "is_reserved": 0}, {"is_disabled": 0, "fusion_lon": 0.0, "fusion_lat": 0.0, "lat": 38.90271666666666, "type": "electric_scooter", "lon": -77.03443866666667, "bike_id": "2d1cb48eda62f63d8e545bc5e3efa0e0", "rental_uris": {"android": "https://dc.lft.to/lastmile_qr_scan", "ios": "https://dc.lft.to/lastmile_qr_scan"}, "name": "2d1cb48eda62f63d8e545bc5e3efa0e0", "is_reserved": 0}, {"is_disabled": 0, "fusion_lon": 0.0, "fusion_lat": 0.0, "lat": 38.91619933333333, "type": "electric_scooter", "lon": -77.04598883333334, "bike_id": "f393297de82f33fcf55f185cfc424c38", "rental_uris": {"android": "https://dc.lft.to/lastmile_qr_scan", "ios": "https://dc.lft.to/lastmile_qr_scan"}, "name": "f393297de82f33fcf55f185cfc424c38", "is_reserved": 0}, {"is_disabled": 0, "fusion_lon": 0.0, "fusion_lat": 0.0, "lat": 38.89355616666667, "type": "electric_scooter", "lon": -77.02226233333333, "bike_id": "baf709c889ac8c248f5d50eb6d28267d", "rental_uris": {"android": "https://dc.lft.to/lastmile_qr_scan", "ios": "https://dc.lft.to/lastmile_qr_scan"}, "name": "baf709c889ac8c248f5d50eb6d28267d", "is_reserved": 0}, {"is_disabled": 0, "fusion_lon": 0.0, "fusion_lat": 0.0, "lat": 38.914935666666665, "type": "electric_scooter", "lon": -77.03243016666667, "bike_id": "2053d7139bce68b23ba98d9f3ef6c660", "rental_uris": {"android": "https://dc.lft.to/lastmile_qr_scan", "ios": "https://dc.lft.to/lastmile_qr_scan"}, "name": "2053d7139bce68b23ba98d9f3ef6c660", "is_reserved": 0}, {"is_disabled": 0, "fusion_lon": 0.0, "fusion_lat": 0.0, "lat": 38.880665666666665, "type": "electric_scooter", "lon": -77.0167995, "bike_id": "2e26a6e55f0462e0052c789b134da032", "rental_uris": {"android": "https://dc.lft.to/lastmile_qr_scan", "ios": "https://dc.lft.to/lastmile_qr_scan"}, "name": "2e26a6e55f0462e0052c789b134da032", "is_reserved": 0}, {"is_disabled": 0, "fusion_lon": 0.0, "fusion_lat": 0.0, "lat": 38.9537555, "type": "electric_scooter", "lon": -77.02560983333333, "bike_id": "01d49b91380e228b4f25cdefdbfa4924", "rental_uris": {"android": "https://dc.lft.to/lastmile_qr_scan", "ios": "https://dc.lft.to/lastmile_qr_scan"}, "name": "01d49b91380e228b4f25cdefdbfa4924", "is_reserved": 0}, {"is_disabled": 0, "fusion_lon": 0.0, "fusion_lat": 0.0, "lat": 38.916281166666664, "type": "electric_bike", "lon": -77.013589, "bike_id": "1e99976094065b3c89780d7ff32c0530", "rental_uris": {"android": "https://dc.lft.to/lastmile_qr_scan", "ios": "https://dc.lft.to/lastmile_qr_scan"}, "name": "1e99976094065b3c89780d7ff32c0530", "is_reserved": 0}, {"is_disabled": 0, "fusion_lon": 0.0, "fusion_lat": 0.0, "lat": 38.922468, "type": "electric_scooter", "lon": -77.030857, "bike_id": "dd25ec16f60540305e59db16410ea424", "rental_uris": {"android": "https://dc.lft.to/lastmile_qr_scan", "ios": "https://dc.lft.to/lastmile_qr_scan"}, "name": "dd25ec16f60540305e59db16410ea424", "is_reserved": 0}, {"is_disabled": 0, "fusion_lon": 0.0, "fusion_lat": 0.0, "lat": 38.903585166666666, "type": "electric_scooter", "lon": -77.03218116666666, "bike_id": "c4ee1bd849ba8cf56d8c40a1db92ebc7", "rental_uris": {"android": "https://dc.lft.to/lastmile_qr_scan", "ios": "https://dc.lft.to/lastmile_qr_scan"}, "name": "c4ee1bd849ba8cf56d8c40a1db92ebc7", "is_reserved": 0}, {"is_disabled": 0, "fusion_lon": 0.0, "fusion_lat": 0.0, "lat": 38.96502916666667, "type": "electric_scooter", "lon": -77.02484933333334, "bike_id": "cc49f7c0976e28c3868fb4f53ba60864", "rental_uris": {"android": "https://dc.lft.to/lastmile_qr_scan", "ios": "https://dc.lft.to/lastmile_qr_scan"}, "name": "cc49f7c0976e28c3868fb4f53ba60864", "is_reserved": 0}, {"is_disabled": 0, "fusion_lon": 0.0, "fusion_lat": 0.0, "lat": 38.89222616666667, "type": "electric_scooter", "lon": -77.03338866666667, "bike_id": "c25021765d109c7331a89dd65baca45a", "rental_uris": {"android": "https://dc.lft.to/lastmile_qr_scan", "ios": "https://dc.lft.to/lastmile_qr_scan"}, "name": "c25021765d109c7331a89dd65baca45a", "is_reserved": 0}, {"is_disabled": 0, "fusion_lon": 0.0, "fusion_lat": 0.0, "lat": 38.95397966666667, "type": "electric_scooter", "lon": -77.0275975, "bike_id": "6a6d3f18e7adadf0b27b89cf25186d93", "rental_uris": {"android": "https://dc.lft.to/lastmile_qr_scan", "ios": "https://dc.lft.to/lastmile_qr_scan"}, "name": "6a6d3f18e7adadf0b27b89cf25186d93", "is_reserved": 0}, {"is_disabled": 0, "fusion_lon": 0.0, "fusion_lat": 0.0, "lat": 38.858418, "type": "electric_bike", "lon": -76.99285216666667, "bike_id": "f25ec76ab8a03dc4f490cde43a01e19d", "rental_uris": {"android": "https://dc.lft.to/lastmile_qr_scan", "ios": "https://dc.lft.to/lastmile_qr_scan"}, "name": "f25ec76ab8a03dc4f490cde43a01e19d", "is_reserved": 0}, {"is_disabled": 0, "fusion_lon": 0.0, "fusion_lat": 0.0, "lat": 38.90726466666667, "type": "electric_scooter", "lon": -77.038641, "bike_id": "4623eff08191b3e69a68b02ba9943f6e", "rental_uris": {"android": "https://dc.lft.to/lastmile_qr_scan", "ios": "https://dc.lft.to/lastmile_qr_scan"}, "name": "4623eff08191b3e69a68b02ba9943f6e", "is_reserved": 0}, {"is_disabled": 0, "fusion_lon": 0.0, "fusion_lat": 0.0, "lat": 38.92423083333333, "type": "electric_scooter", "lon": -77.041523, "bike_id": "2b64b19f7800fa5c5836783f2832e6b1", "rental_uris": {"android": "https://dc.lft.to/lastmile_qr_scan", "ios": "https://dc.lft.to/lastmile_qr_scan"}, "name": "2b64b19f7800fa5c5836783f2832e6b1", "is_reserved": 0}, {"is_disabled": 0, "fusion_lon": 0.0, "fusion_lat": 0.0, "lat": 38.93767733333333, "type": "electric_scooter", "lon": -77.03083, "bike_id": "0d766c233ea657d2419762e6f427316c", "rental_uris": {"android": "https://dc.lft.to/lastmile_qr_scan", "ios": "https://dc.lft.to/lastmile_qr_scan"}, "name": "0d766c233ea657d2419762e6f427316c", "is_reserved": 0}, {"is_disabled": 0, "fusion_lon": 0.0, "fusion_lat": 0.0, "lat": 38.92991266666667, "type": "electric_scooter", "lon": -77.07808933333334, "bike_id": "bb0781006dd7e75358d3cc3d49001d9c", "rental_uris": {"android": "https://dc.lft.to/lastmile_qr_scan", "ios": "https://dc.lft.to/lastmile_qr_scan"}, "name": "bb0781006dd7e75358d3cc3d49001d9c", "is_reserved": 0}, {"is_disabled": 0, "fusion_lon": 0.0, "fusion_lat": 0.0, "lat": 38.90371916666667, "type": "electric_scooter", "lon": -77.05027016666666, "bike_id": "a74b3cef2afc557c217ffaef6daceef4", "rental_uris": {"android": "https://dc.lft.to/lastmile_qr_scan", "ios": "https://dc.lft.to/lastmile_qr_scan"}, "name": "a74b3cef2afc557c217ffaef6daceef4", "is_reserved": 0}, {"is_disabled": 0, "fusion_lon": 0.0, "fusion_lat": 0.0, "lat": 38.928276833333335, "type": "electric_scooter", "lon": -77.05435783333333, "bike_id": "9bc91e80329351fbca955911adf89c11", "rental_uris": {"android": "https://dc.lft.to/lastmile_qr_scan", "ios": "https://dc.lft.to/lastmile_qr_scan"}, "name": "9bc91e80329351fbca955911adf89c11", "is_reserved": 0}, {"is_disabled": 0, "fusion_lon": 0.0, "fusion_lat": 0.0, "lat": 38.90576316666667, "type": "electric_scooter", "lon": -77.00603033333333, "bike_id": "4067cd249ff0b5991983f5208276fd1d", "rental_uris": {"android": "https://dc.lft.to/lastmile_qr_scan", "ios": "https://dc.lft.to/lastmile_qr_scan"}, "name": "4067cd249ff0b5991983f5208276fd1d", "is_reserved": 0}, {"is_disabled": 0, "fusion_lon": 0.0, "fusion_lat": 0.0, "lat": 38.911733, "type": "electric_scooter", "lon": -77.0045615, "bike_id": "f81011153a50fe0fb287ac7b5ec75df4", "rental_uris": {"android": "https://dc.lft.to/lastmile_qr_scan", "ios": "https://dc.lft.to/lastmile_qr_scan"}, "name": "f81011153a50fe0fb287ac7b5ec75df4", "is_reserved": 0}, {"is_disabled": 0, "fusion_lon": 0.0, "fusion_lat": 0.0, "lat": 38.925348166666666, "type": "electric_scooter", "lon": -77.07341833333334, "bike_id": "8868e10b374711b0c64ce23f6b951296", "rental_uris": {"android": "https://dc.lft.to/lastmile_qr_scan", "ios": "https://dc.lft.to/lastmile_qr_scan"}, "name": "8868e10b374711b0c64ce23f6b951296", "is_reserved": 0}, {"is_disabled": 0, "fusion_lon": 0.0, "fusion_lat": 0.0, "lat": 38.8965625, "type": "electric_scooter", "lon": -77.0433765, "bike_id": "41631e013ddd2857d9ae54494f0429e2", "rental_uris": {"android": "https://dc.lft.to/lastmile_qr_scan", "ios": "https://dc.lft.to/lastmile_qr_scan"}, "name": "41631e013ddd2857d9ae54494f0429e2", "is_reserved": 0}, {"is_disabled": 0, "fusion_lon": 0.0, "fusion_lat": 0.0, "lat": 38.95691166666667, "type": "electric_scooter", "lon": -77.02402833333333, "bike_id": "5320ea415239299052d1206fdde9a166", "rental_uris": {"android": "https://dc.lft.to/lastmile_qr_scan", "ios": "https://dc.lft.to/lastmile_qr_scan"}, "name": "5320ea415239299052d1206fdde9a166", "is_reserved": 0}, {"is_disabled": 0, "fusion_lon": 0.0, "fusion_lat": 0.0, "lat": 38.897834, "type": "electric_scooter", "lon": -77.02485, "bike_id": "20847769825bd3c5b8c11b17b46f36c6", "rental_uris": {"android": "https://dc.lft.to/lastmile_qr_scan", "ios": "https://dc.lft.to/lastmile_qr_scan"}, "name": "20847769825bd3c5b8c11b17b46f36c6", "is_reserved": 0}, {"is_disabled": 0, "fusion_lon": 0.0, "fusion_lat": 0.0, "lat": 38.876794333333336, "type": "electric_bike", "lon": -77.01476033333333, "bike_id": "96ca67efcf7d8f75bda1c14a38f2553d", "rental_uris": {"android": "https://dc.lft.to/lastmile_qr_scan", "ios": "https://dc.lft.to/lastmile_qr_scan"}, "name": "96ca67efcf7d8f75bda1c14a38f2553d", "is_reserved": 0}, {"is_disabled": 0, "fusion_lon": 0.0, "fusion_lat": 0.0, "lat": 38.91812566666667, "type": "electric_scooter", "lon": -77.03812016666667, "bike_id": "50108433252f52aa87e2162544a48f3c", "rental_uris": {"android": "https://dc.lft.to/lastmile_qr_scan", "ios": "https://dc.lft.to/lastmile_qr_scan"}, "name": "50108433252f52aa87e2162544a48f3c", "is_reserved": 0}, {"is_disabled": 0, "fusion_lon": 0.0, "fusion_lat": 0.0, "lat": 38.907290333333336, "type": "electric_scooter", "lon": -77.00763416666666, "bike_id": "e7aca3874fcc42d59467b896a612ec9a", "rental_uris": {"android": "https://dc.lft.to/lastmile_qr_scan", "ios": "https://dc.lft.to/lastmile_qr_scan"}, "name": "e7aca3874fcc42d59467b896a612ec9a", "is_reserved": 0}, {"is_disabled": 0, "fusion_lon": 0.0, "fusion_lat": 0.0, "lat": 38.941783666666666, "type": "electric_scooter", "lon": -77.03657116666666, "bike_id": "223c53b9fe5eed21f52cf894e8edf990", "rental_uris": {"android": "https://dc.lft.to/lastmile_qr_scan", "ios": "https://dc.lft.to/lastmile_qr_scan"}, "name": "223c53b9fe5eed21f52cf894e8edf990", "is_reserved": 0}, {"is_disabled": 0, "fusion_lon": 0.0, "fusion_lat": 0.0, "lat": 38.9564545, "type": "electric_scooter", "lon": -77.01500366666667, "bike_id": "c488f22d154eda6cdf82fcedc90c91a3", "rental_uris": {"android": "https://dc.lft.to/lastmile_qr_scan", "ios": "https://dc.lft.to/lastmile_qr_scan"}, "name": "c488f22d154eda6cdf82fcedc90c91a3", "is_reserved": 0}, {"is_disabled": 0, "fusion_lon": 0.0, "fusion_lat": 0.0, "lat": 38.92902, "type": "electric_scooter", "lon": -77.03172016666667, "bike_id": "729693fd8f600014b951ccee52954eaf", "rental_uris": {"android": "https://dc.lft.to/lastmile_qr_scan", "ios": "https://dc.lft.to/lastmile_qr_scan"}, "name": "729693fd8f600014b951ccee52954eaf", "is_reserved": 0}, {"is_disabled": 0, "fusion_lon": 0.0, "fusion_lat": 0.0, "lat": 38.90735083333333, "type": "electric_scooter", "lon": -77.02975183333334, "bike_id": "2bbc691d63b2c31dcba09af2df56a07b", "rental_uris": {"android": "https://dc.lft.to/lastmile_qr_scan", "ios": "https://dc.lft.to/lastmile_qr_scan"}, "name": "2bbc691d63b2c31dcba09af2df56a07b", "is_reserved": 0}, {"is_disabled": 0, "fusion_lon": 0.0, "fusion_lat": 0.0, "lat": 38.92897416666667, "type": "electric_scooter", "lon": -77.0240685, "bike_id": "dba28040e834735a5017b8e9f8f2bea0", "rental_uris": {"android": "https://dc.lft.to/lastmile_qr_scan", "ios": "https://dc.lft.to/lastmile_qr_scan"}, "name": "dba28040e834735a5017b8e9f8f2bea0", "is_reserved": 0}, {"is_disabled": 0, "fusion_lon": 0.0, "fusion_lat": 0.0, "lat": 38.9300285, "type": "electric_scooter", "lon": -77.02407016666666, "bike_id": "d1f7aec1e8958d36c594b8a77602c63a", "rental_uris": {"android": "https://dc.lft.to/lastmile_qr_scan", "ios": "https://dc.lft.to/lastmile_qr_scan"}, "name": "d1f7aec1e8958d36c594b8a77602c63a", "is_reserved": 0}, {"is_disabled": 0, "fusion_lon": 0.0, "fusion_lat": 0.0, "lat": 38.921186, "type": "electric_scooter", "lon": -77.01209716666666, "bike_id": "97b9041af67e34f191b86d87cca35efb", "rental_uris": {"android": "https://dc.lft.to/lastmile_qr_scan", "ios": "https://dc.lft.to/lastmile_qr_scan"}, "name": "97b9041af67e34f191b86d87cca35efb", "is_reserved": 0}, {"is_disabled": 0, "fusion_lon": 0.0, "fusion_lat": 0.0, "lat": 38.90720266666667, "type": "electric_scooter", "lon": -77.032092, "bike_id": "eef89a06d0dc5819e876b768fb2fa462", "rental_uris": {"android": "https://dc.lft.to/lastmile_qr_scan", "ios": "https://dc.lft.to/lastmile_qr_scan"}, "name": "eef89a06d0dc5819e876b768fb2fa462", "is_reserved": 0}, {"is_disabled": 0, "fusion_lon": 0.0, "fusion_lat": 0.0, "lat": 38.930067, "type": "electric_scooter", "lon": -77.0231185, "bike_id": "902429ced357f8ae1b6c8457d9c15ab3", "rental_uris": {"android": "https://dc.lft.to/lastmile_qr_scan", "ios": "https://dc.lft.to/lastmile_qr_scan"}, "name": "902429ced357f8ae1b6c8457d9c15ab3", "is_reserved": 0}, {"is_disabled": 0, "fusion_lon": 0.0, "fusion_lat": 0.0, "lat": 38.93157566666667, "type": "electric_scooter", "lon": -77.07848433333334, "bike_id": "cd7f07549b77932b9e11b7f3d458d0bb", "rental_uris": {"android": "https://dc.lft.to/lastmile_qr_scan", "ios": "https://dc.lft.to/lastmile_qr_scan"}, "name": "cd7f07549b77932b9e11b7f3d458d0bb", "is_reserved": 0}, {"is_disabled": 0, "fusion_lon": 0.0, "fusion_lat": 0.0, "lat": 38.9322005, "type": "electric_scooter", "lon": -77.03658183333333, "bike_id": "b9fd39f1bc233af86df731079cecf23d", "rental_uris": {"android": "https://dc.lft.to/lastmile_qr_scan", "ios": "https://dc.lft.to/lastmile_qr_scan"}, "name": "b9fd39f1bc233af86df731079cecf23d", "is_reserved": 0}, {"is_disabled": 0, "fusion_lon": 0.0, "fusion_lat": 0.0, "lat": 38.935417, "type": "electric_scooter", "lon": -77.03454383333333, "bike_id": "62e51b1dd59668cf1cdf921fcdd5033e", "rental_uris": {"android": "https://dc.lft.to/lastmile_qr_scan", "ios": "https://dc.lft.to/lastmile_qr_scan"}, "name": "62e51b1dd59668cf1cdf921fcdd5033e", "is_reserved": 0}, {"is_disabled": 0, "fusion_lon": 0.0, "fusion_lat": 0.0, "lat": 38.92994616666667, "type": "electric_scooter", "lon": -77.0380065, "bike_id": "5f87226834ae496c20563ae9d96fda8d", "rental_uris": {"android": "https://dc.lft.to/lastmile_qr_scan", "ios": "https://dc.lft.to/lastmile_qr_scan"}, "name": "5f87226834ae496c20563ae9d96fda8d", "is_reserved": 0}, {"is_disabled": 0, "fusion_lon": 0.0, "fusion_lat": 0.0, "lat": 38.875001, "type": "electric_scooter", "lon": -76.99800516666667, "bike_id": "f980269d514acda1937f759efdc1abec", "rental_uris": {"android": "https://dc.lft.to/lastmile_qr_scan", "ios": "https://dc.lft.to/lastmile_qr_scan"}, "name": "f980269d514acda1937f759efdc1abec", "is_reserved": 0}, {"is_disabled": 0, "fusion_lon": 0.0, "fusion_lat": 0.0, "lat": 38.90516816666667, "type": "electric_scooter", "lon": -77.04887883333333, "bike_id": "f6e2646caf19a503bf6ea72248100148", "rental_uris": {"android": "https://dc.lft.to/lastmile_qr_scan", "ios": "https://dc.lft.to/lastmile_qr_scan"}, "name": "f6e2646caf19a503bf6ea72248100148", "is_reserved": 0}, {"is_disabled": 0, "fusion_lon": 0.0, "fusion_lat": 0.0, "lat": 38.894966, "type": "electric_scooter", "lon": -77.0095155, "bike_id": "8364dbc343d5cb0d7b7f861a01e5c2d5", "rental_uris": {"android": "https://dc.lft.to/lastmile_qr_scan", "ios": "https://dc.lft.to/lastmile_qr_scan"}, "name": "8364dbc343d5cb0d7b7f861a01e5c2d5", "is_reserved": 0}, {"is_disabled": 0, "fusion_lon": 0.0, "fusion_lat": 0.0, "lat": 38.89403433333333, "type": "electric_bike", "lon": -76.982796, "bike_id": "c63d25a7713b5e1718e846b8a9e63b26", "rental_uris": {"android": "https://dc.lft.to/lastmile_qr_scan", "ios": "https://dc.lft.to/lastmile_qr_scan"}, "name": "c63d25a7713b5e1718e846b8a9e63b26", "is_reserved": 0}, {"is_disabled": 0, "fusion_lon": 0.0, "fusion_lat": 0.0, "lat": 38.9362455, "type": "electric_scooter", "lon": -77.02457683333333, "bike_id": "1e48362b32042fb79633b54aaf64aaa4", "rental_uris": {"android": "https://dc.lft.to/lastmile_qr_scan", "ios": "https://dc.lft.to/lastmile_qr_scan"}, "name": "1e48362b32042fb79633b54aaf64aaa4", "is_reserved": 0}, {"is_disabled": 0, "fusion_lon": 0.0, "fusion_lat": 0.0, "lat": 38.913052666666665, "type": "electric_scooter", "lon": -77.03184866666666, "bike_id": "19be897d7a7b209473a22d773305747f", "rental_uris": {"android": "https://dc.lft.to/lastmile_qr_scan", "ios": "https://dc.lft.to/lastmile_qr_scan"}, "name": "19be897d7a7b209473a22d773305747f", "is_reserved": 0}, {"is_disabled": 0, "fusion_lon": 0.0, "fusion_lat": 0.0, "lat": 38.916610166666665, "type": "electric_scooter", "lon": -77.02798533333333, "bike_id": "e4f506d6556f43a40af68e0e288f78b3", "rental_uris": {"android": "https://dc.lft.to/lastmile_qr_scan", "ios": "https://dc.lft.to/lastmile_qr_scan"}, "name": "e4f506d6556f43a40af68e0e288f78b3", "is_reserved": 0}, {"is_disabled": 0, "fusion_lon": 0.0, "fusion_lat": 0.0, "lat": 38.90714933333334, "type": "electric_scooter", "lon": -77.02718433333334, "bike_id": "6f2bf3133745ea2e8607932de5361f32", "rental_uris": {"android": "https://dc.lft.to/lastmile_qr_scan", "ios": "https://dc.lft.to/lastmile_qr_scan"}, "name": "6f2bf3133745ea2e8607932de5361f32", "is_reserved": 0}, {"is_disabled": 0, "fusion_lon": 0.0, "fusion_lat": 0.0, "lat": 38.84518, "type": "electric_bike", "lon": -76.9721505, "bike_id": "c1d9a06b14bd62f42eacbc2126a0be12", "rental_uris": {"android": "https://dc.lft.to/lastmile_qr_scan", "ios": "https://dc.lft.to/lastmile_qr_scan"}, "name": "c1d9a06b14bd62f42eacbc2126a0be12", "is_reserved": 0}, {"is_disabled": 0, "fusion_lon": 0.0, "fusion_lat": 0.0, "lat": 38.91698366666667, "type": "electric_scooter", "lon": -77.029908, "bike_id": "61c56f7cdffaad7a47e65dce0809a25e", "rental_uris": {"android": "https://dc.lft.to/lastmile_qr_scan", "ios": "https://dc.lft.to/lastmile_qr_scan"}, "name": "61c56f7cdffaad7a47e65dce0809a25e", "is_reserved": 0}, {"is_disabled": 0, "fusion_lon": 0.0, "fusion_lat": 0.0, "lat": 38.883778166666666, "type": "electric_scooter", "lon": -76.92375766666666, "bike_id": "46b9072b19b1c87b7fbfeba7816aa06c", "rental_uris": {"android": "https://dc.lft.to/lastmile_qr_scan", "ios": "https://dc.lft.to/lastmile_qr_scan"}, "name": "46b9072b19b1c87b7fbfeba7816aa06c", "is_reserved": 0}, {"is_disabled": 0, "fusion_lon": 0.0, "fusion_lat": 0.0, "lat": 38.91808866666667, "type": "electric_scooter", "lon": -77.040328, "bike_id": "16180305d9932c088d4f93f93539fb65", "rental_uris": {"android": "https://dc.lft.to/lastmile_qr_scan", "ios": "https://dc.lft.to/lastmile_qr_scan"}, "name": "16180305d9932c088d4f93f93539fb65", "is_reserved": 0}, {"is_disabled": 0, "fusion_lon": 0.0, "fusion_lat": 0.0, "lat": 38.9180765, "type": "electric_scooter", "lon": -77.03438633333333, "bike_id": "48536b4252ad0bfff6e1ff5768dc17c4", "rental_uris": {"android": "https://dc.lft.to/lastmile_qr_scan", "ios": "https://dc.lft.to/lastmile_qr_scan"}, "name": "48536b4252ad0bfff6e1ff5768dc17c4", "is_reserved": 0}, {"is_disabled": 0, "fusion_lon": 0.0, "fusion_lat": 0.0, "lat": 38.902369666666665, "type": "electric_scooter", "lon": -77.05413116666666, "bike_id": "d29f6ba91f5d32edc919b722aee6c4ea", "rental_uris": {"android": "https://dc.lft.to/lastmile_qr_scan", "ios": "https://dc.lft.to/lastmile_qr_scan"}, "name": "d29f6ba91f5d32edc919b722aee6c4ea", "is_reserved": 0}, {"is_disabled": 0, "fusion_lon": 0.0, "fusion_lat": 0.0, "lat": 38.916288, "type": "electric_scooter", "lon": -77.0409, "bike_id": "b60b9ce7c307817872ee4dcce710bf40", "rental_uris": {"android": "https://dc.lft.to/lastmile_qr_scan", "ios": "https://dc.lft.to/lastmile_qr_scan"}, "name": "b60b9ce7c307817872ee4dcce710bf40", "is_reserved": 0}, {"is_disabled": 0, "fusion_lon": 0.0, "fusion_lat": 0.0, "lat": 38.9159545, "type": "electric_scooter", "lon": -77.03179966666667, "bike_id": "2bd6fa853ee8fb6e2bf9d95fb6cc49ab", "rental_uris": {"android": "https://dc.lft.to/lastmile_qr_scan", "ios": "https://dc.lft.to/lastmile_qr_scan"}, "name": "2bd6fa853ee8fb6e2bf9d95fb6cc49ab", "is_reserved": 0}, {"is_disabled": 0, "fusion_lon": 0.0, "fusion_lat": 0.0, "lat": 38.9108825, "type": "electric_bike", "lon": -77.08770333333334, "bike_id": "d5ac243832607baacc6689c508a6b3e9", "rental_uris": {"android": "https://dc.lft.to/lastmile_qr_scan", "ios": "https://dc.lft.to/lastmile_qr_scan"}, "name": "d5ac243832607baacc6689c508a6b3e9", "is_reserved": 0}, {"is_disabled": 0, "fusion_lon": 0.0, "fusion_lat": 0.0, "lat": 38.907200333333336, "type": "electric_scooter", "lon": -77.0288835, "bike_id": "6c526621cdf1b3056bd3e5b4af0cbc08", "rental_uris": {"android": "https://dc.lft.to/lastmile_qr_scan", "ios": "https://dc.lft.to/lastmile_qr_scan"}, "name": "6c526621cdf1b3056bd3e5b4af0cbc08", "is_reserved": 0}, {"is_disabled": 0, "fusion_lon": 0.0, "fusion_lat": 0.0, "lat": 38.89481766666667, "type": "electric_scooter", "lon": -77.02294366666666, "bike_id": "3ed77c6d4760ffb999a989959ce06c86", "rental_uris": {"android": "https://dc.lft.to/lastmile_qr_scan", "ios": "https://dc.lft.to/lastmile_qr_scan"}, "name": "3ed77c6d4760ffb999a989959ce06c86", "is_reserved": 0}, {"is_disabled": 0, "fusion_lon": 0.0, "fusion_lat": 0.0, "lat": 38.92570666666667, "type": "electric_scooter", "lon": -77.05263183333334, "bike_id": "27c4f47274fc498f7cb4b5fd3b6860f6", "rental_uris": {"android": "https://dc.lft.to/lastmile_qr_scan", "ios": "https://dc.lft.to/lastmile_qr_scan"}, "name": "27c4f47274fc498f7cb4b5fd3b6860f6", "is_reserved": 0}, {"is_disabled": 0, "fusion_lon": 0.0, "fusion_lat": 0.0, "lat": 38.94516216666667, "type": "electric_scooter", "lon": -77.0298225, "bike_id": "f4970c577313f039a686de53009d8f9c", "rental_uris": {"android": "https://dc.lft.to/lastmile_qr_scan", "ios": "https://dc.lft.to/lastmile_qr_scan"}, "name": "f4970c577313f039a686de53009d8f9c", "is_reserved": 0}, {"is_disabled": 0, "fusion_lon": 0.0, "fusion_lat": 0.0, "lat": 38.905664333333334, "type": "electric_scooter", "lon": -77.03415, "bike_id": "1e232d97ea424788baa882d58097ba79", "rental_uris": {"android": "https://dc.lft.to/lastmile_qr_scan", "ios": "https://dc.lft.to/lastmile_qr_scan"}, "name": "1e232d97ea424788baa882d58097ba79", "is_reserved": 0}, {"is_disabled": 0, "fusion_lon": 0.0, "fusion_lat": 0.0, "lat": 38.886057, "type": "electric_scooter", "lon": -77.02182483333333, "bike_id": "ec24173829ceaea07933374ca8f1b48d", "rental_uris": {"android": "https://dc.lft.to/lastmile_qr_scan", "ios": "https://dc.lft.to/lastmile_qr_scan"}, "name": "ec24173829ceaea07933374ca8f1b48d", "is_reserved": 0}, {"is_disabled": 0, "fusion_lon": 0.0, "fusion_lat": 0.0, "lat": 38.891884833333336, "type": "electric_scooter", "lon": -76.988348, "bike_id": "a9cdef73d7dcb2a0129f72a35266f8cc", "rental_uris": {"android": "https://dc.lft.to/lastmile_qr_scan", "ios": "https://dc.lft.to/lastmile_qr_scan"}, "name": "a9cdef73d7dcb2a0129f72a35266f8cc", "is_reserved": 0}, {"is_disabled": 0, "fusion_lon": 0.0, "fusion_lat": 0.0, "lat": 38.90005466666667, "type": "electric_scooter", "lon": -77.02605766666667, "bike_id": "bebe0113b97274761b0f884c481858c9", "rental_uris": {"android": "https://dc.lft.to/lastmile_qr_scan", "ios": "https://dc.lft.to/lastmile_qr_scan"}, "name": "bebe0113b97274761b0f884c481858c9", "is_reserved": 0}, {"is_disabled": 0, "fusion_lon": 0.0, "fusion_lat": 0.0, "lat": 38.904128666666665, "type": "electric_scooter", "lon": -77.02405683333333, "bike_id": "9d5048d30c70af85e499e8327ecac3b2", "rental_uris": {"android": "https://dc.lft.to/lastmile_qr_scan", "ios": "https://dc.lft.to/lastmile_qr_scan"}, "name": "9d5048d30c70af85e499e8327ecac3b2", "is_reserved": 0}, {"is_disabled": 0, "fusion_lon": 0.0, "fusion_lat": 0.0, "lat": 38.91338583333334, "type": "electric_scooter", "lon": -77.03252233333333, "bike_id": "710e93195a442d2730fe7c300393f68b", "rental_uris": {"android": "https://dc.lft.to/lastmile_qr_scan", "ios": "https://dc.lft.to/lastmile_qr_scan"}, "name": "710e93195a442d2730fe7c300393f68b", "is_reserved": 0}, {"is_disabled": 0, "fusion_lon": 0.0, "fusion_lat": 0.0, "lat": 38.93505616666667, "type": "electric_scooter", "lon": -77.02426666666666, "bike_id": "d0e96849ae86aa5b7847dd59905cb55a", "rental_uris": {"android": "https://dc.lft.to/lastmile_qr_scan", "ios": "https://dc.lft.to/lastmile_qr_scan"}, "name": "d0e96849ae86aa5b7847dd59905cb55a", "is_reserved": 0}, {"is_disabled": 0, "fusion_lon": 0.0, "fusion_lat": 0.0, "lat": 38.912555, "type": "electric_scooter", "lon": -77.01068566666666, "bike_id": "768b708aee91a682fa36fb58e919fc4a", "rental_uris": {"android": "https://dc.lft.to/lastmile_qr_scan", "ios": "https://dc.lft.to/lastmile_qr_scan"}, "name": "768b708aee91a682fa36fb58e919fc4a", "is_reserved": 0}, {"is_disabled": 0, "fusion_lon": 0.0, "fusion_lat": 0.0, "lat": 38.910433, "type": "electric_scooter", "lon": -77.06203333333333, "bike_id": "c3c55292e16b0e19e9cd0fbcdf0deec3", "rental_uris": {"android": "https://dc.lft.to/lastmile_qr_scan", "ios": "https://dc.lft.to/lastmile_qr_scan"}, "name": "c3c55292e16b0e19e9cd0fbcdf0deec3", "is_reserved": 0}, {"is_disabled": 0, "fusion_lon": 0.0, "fusion_lat": 0.0, "lat": 38.934778333333334, "type": "electric_scooter", "lon": -77.024028, "bike_id": "b515ca1a0eaf2c1faa239b9e7eb0a3d6", "rental_uris": {"android": "https://dc.lft.to/lastmile_qr_scan", "ios": "https://dc.lft.to/lastmile_qr_scan"}, "name": "b515ca1a0eaf2c1faa239b9e7eb0a3d6", "is_reserved": 0}, {"is_disabled": 0, "fusion_lon": 0.0, "fusion_lat": 0.0, "lat": 38.887405333333334, "type": "electric_scooter", "lon": -77.01536066666667, "bike_id": "7d46ff16f60923855761c63cb63025fa", "rental_uris": {"android": "https://dc.lft.to/lastmile_qr_scan", "ios": "https://dc.lft.to/lastmile_qr_scan"}, "name": "7d46ff16f60923855761c63cb63025fa", "is_reserved": 0}, {"is_disabled": 0, "fusion_lon": 0.0, "fusion_lat": 0.0, "lat": 38.90951833333333, "type": "electric_scooter", "lon": -77.02185033333333, "bike_id": "cbcc15f0630c903bb337115a3a42a104", "rental_uris": {"android": "https://dc.lft.to/lastmile_qr_scan", "ios": "https://dc.lft.to/lastmile_qr_scan"}, "name": "cbcc15f0630c903bb337115a3a42a104", "is_reserved": 0}, {"is_disabled": 0, "fusion_lon": 0.0, "fusion_lat": 0.0, "lat": 38.917405333333335, "type": "electric_scooter", "lon": -77.008853, "bike_id": "aba0282167612f9684c6c8af57263798", "rental_uris": {"android": "https://dc.lft.to/lastmile_qr_scan", "ios": "https://dc.lft.to/lastmile_qr_scan"}, "name": "aba0282167612f9684c6c8af57263798", "is_reserved": 0}, {"is_disabled": 0, "fusion_lon": 0.0, "fusion_lat": 0.0, "lat": 38.884054, "type": "electric_scooter", "lon": -77.02415866666666, "bike_id": "5c116b0c9ab6fbfc2148dadd8af762cf", "rental_uris": {"android": "https://dc.lft.to/lastmile_qr_scan", "ios": "https://dc.lft.to/lastmile_qr_scan"}, "name": "5c116b0c9ab6fbfc2148dadd8af762cf", "is_reserved": 0}, {"is_disabled": 0, "fusion_lon": 0.0, "fusion_lat": 0.0, "lat": 38.91806666666667, "type": "electric_scooter", "lon": -77.03176933333333, "bike_id": "66890d35e6637eddee34d45471b0b0e3", "rental_uris": {"android": "https://dc.lft.to/lastmile_qr_scan", "ios": "https://dc.lft.to/lastmile_qr_scan"}, "name": "66890d35e6637eddee34d45471b0b0e3", "is_reserved": 0}, {"is_disabled": 0, "fusion_lon": 0.0, "fusion_lat": 0.0, "lat": 38.9221835, "type": "electric_scooter", "lon": -77.03321783333334, "bike_id": "4250e9d98aaf0654651089da699b1369", "rental_uris": {"android": "https://dc.lft.to/lastmile_qr_scan", "ios": "https://dc.lft.to/lastmile_qr_scan"}, "name": "4250e9d98aaf0654651089da699b1369", "is_reserved": 0}, {"is_disabled": 0, "fusion_lon": 0.0, "fusion_lat": 0.0, "lat": 38.93665033333333, "type": "electric_scooter", "lon": -77.05939716666667, "bike_id": "e7f9ddf44e7d373afdc0dd33b2f374d3", "rental_uris": {"android": "https://dc.lft.to/lastmile_qr_scan", "ios": "https://dc.lft.to/lastmile_qr_scan"}, "name": "e7f9ddf44e7d373afdc0dd33b2f374d3", "is_reserved": 0}, {"is_disabled": 0, "fusion_lon": 0.0, "fusion_lat": 0.0, "lat": 38.93606033333333, "type": "electric_scooter", "lon": -77.055942, "bike_id": "a504fb752c8572cd8b1fd6d0acefc1d2", "rental_uris": {"android": "https://dc.lft.to/lastmile_qr_scan", "ios": "https://dc.lft.to/lastmile_qr_scan"}, "name": "a504fb752c8572cd8b1fd6d0acefc1d2", "is_reserved": 0}, {"is_disabled": 0, "fusion_lon": 0.0, "fusion_lat": 0.0, "lat": 38.9170915, "type": "electric_scooter", "lon": -77.028813, "bike_id": "d7a5e22e597a4f6b410c340b9fa29a45", "rental_uris": {"android": "https://dc.lft.to/lastmile_qr_scan", "ios": "https://dc.lft.to/lastmile_qr_scan"}, "name": "d7a5e22e597a4f6b410c340b9fa29a45", "is_reserved": 0}, {"is_disabled": 0, "fusion_lon": 0.0, "fusion_lat": 0.0, "lat": 38.85498483333333, "type": "electric_bike", "lon": -77.1204185, "bike_id": "77bb1487c9a90536b7db77ec4cc7982a", "rental_uris": {"android": "https://dc.lft.to/lastmile_qr_scan", "ios": "https://dc.lft.to/lastmile_qr_scan"}, "name": "77bb1487c9a90536b7db77ec4cc7982a", "is_reserved": 0}, {"is_disabled": 0, "fusion_lon": 0.0, "fusion_lat": 0.0, "lat": 38.930361, "type": "electric_bike", "lon": -77.08277116666666, "bike_id": "900504e6b6600aec798a09f5be7b5d24", "rental_uris": {"android": "https://dc.lft.to/lastmile_qr_scan", "ios": "https://dc.lft.to/lastmile_qr_scan"}, "name": "900504e6b6600aec798a09f5be7b5d24", "is_reserved": 0}, {"is_disabled": 0, "fusion_lon": 0.0, "fusion_lat": 0.0, "lat": 38.92203466666667, "type": "electric_scooter", "lon": -77.04249883333334, "bike_id": "1cc8b816b11abf8a00a896c832a5d7d8", "rental_uris": {"android": "https://dc.lft.to/lastmile_qr_scan", "ios": "https://dc.lft.to/lastmile_qr_scan"}, "name": "1cc8b816b11abf8a00a896c832a5d7d8", "is_reserved": 0}, {"is_disabled": 0, "fusion_lon": 0.0, "fusion_lat": 0.0, "lat": 38.89744433333333, "type": "electric_scooter", "lon": -77.02182333333333, "bike_id": "251f958df31ecdc5ae0a17478fab7cec", "rental_uris": {"android": "https://dc.lft.to/lastmile_qr_scan", "ios": "https://dc.lft.to/lastmile_qr_scan"}, "name": "251f958df31ecdc5ae0a17478fab7cec", "is_reserved": 0}, {"is_disabled": 0, "fusion_lon": 0.0, "fusion_lat": 0.0, "lat": 38.907578666666666, "type": "electric_scooter", "lon": -77.00763166666667, "bike_id": "62aa2d2f6e7b077b32dc3f26ca26a716", "rental_uris": {"android": "https://dc.lft.to/lastmile_qr_scan", "ios": "https://dc.lft.to/lastmile_qr_scan"}, "name": "62aa2d2f6e7b077b32dc3f26ca26a716", "is_reserved": 0}, {"is_disabled": 0, "fusion_lon": 0.0, "fusion_lat": 0.0, "lat": 38.919528166666666, "type": "electric_scooter", "lon": -77.01389816666666, "bike_id": "dadeabb3538e46d2830a2fc12605911c", "rental_uris": {"android": "https://dc.lft.to/lastmile_qr_scan", "ios": "https://dc.lft.to/lastmile_qr_scan"}, "name": "dadeabb3538e46d2830a2fc12605911c", "is_reserved": 0}, {"is_disabled": 0, "fusion_lon": 0.0, "fusion_lat": 0.0, "lat": 38.907339, "type": "electric_scooter", "lon": -77.034465, "bike_id": "6b52bd4d07c0ede08e276b35709ff394", "rental_uris": {"android": "https://dc.lft.to/lastmile_qr_scan", "ios": "https://dc.lft.to/lastmile_qr_scan"}, "name": "6b52bd4d07c0ede08e276b35709ff394", "is_reserved": 0}, {"is_disabled": 0, "fusion_lon": 0.0, "fusion_lat": 0.0, "lat": 38.927506, "type": "electric_scooter", "lon": -77.024888, "bike_id": "89f7531ae00c8a7728158100d676f785", "rental_uris": {"android": "https://dc.lft.to/lastmile_qr_scan", "ios": "https://dc.lft.to/lastmile_qr_scan"}, "name": "89f7531ae00c8a7728158100d676f785", "is_reserved": 0}, {"is_disabled": 0, "fusion_lon": 0.0, "fusion_lat": 0.0, "lat": 38.9095045, "type": "electric_scooter", "lon": -77.0218475, "bike_id": "a91658e7affdcaa06f05ed37a6c0fe9d", "rental_uris": {"android": "https://dc.lft.to/lastmile_qr_scan", "ios": "https://dc.lft.to/lastmile_qr_scan"}, "name": "a91658e7affdcaa06f05ed37a6c0fe9d", "is_reserved": 0}, {"is_disabled": 0, "fusion_lon": 0.0, "fusion_lat": 0.0, "lat": 38.90877483333333, "type": "electric_scooter", "lon": -77.076383, "bike_id": "20384eb4becad6d762cfaf8b5651f11b", "rental_uris": {"android": "https://dc.lft.to/lastmile_qr_scan", "ios": "https://dc.lft.to/lastmile_qr_scan"}, "name": "20384eb4becad6d762cfaf8b5651f11b", "is_reserved": 0}, {"is_disabled": 0, "fusion_lon": 0.0, "fusion_lat": 0.0, "lat": 38.897356, "type": "electric_scooter", "lon": -77.0032, "bike_id": "2ddc8f04e03c7546129f928421d83216", "rental_uris": {"android": "https://dc.lft.to/lastmile_qr_scan", "ios": "https://dc.lft.to/lastmile_qr_scan"}, "name": "2ddc8f04e03c7546129f928421d83216", "is_reserved": 0}, {"is_disabled": 0, "fusion_lon": 0.0, "fusion_lat": 0.0, "lat": 38.94752366666667, "type": "electric_scooter", "lon": -77.0298395, "bike_id": "ef7283af9f1317ab9cb0a54ce26e2918", "rental_uris": {"android": "https://dc.lft.to/lastmile_qr_scan", "ios": "https://dc.lft.to/lastmile_qr_scan"}, "name": "ef7283af9f1317ab9cb0a54ce26e2918", "is_reserved": 0}, {"is_disabled": 0, "fusion_lon": 0.0, "fusion_lat": 0.0, "lat": 38.93107883333333, "type": "electric_scooter", "lon": -77.012498, "bike_id": "b6ce6b49ceb9c6350fda4f4184d7ded5", "rental_uris": {"android": "https://dc.lft.to/lastmile_qr_scan", "ios": "https://dc.lft.to/lastmile_qr_scan"}, "name": "b6ce6b49ceb9c6350fda4f4184d7ded5", "is_reserved": 0}, {"is_disabled": 0, "fusion_lon": 0.0, "fusion_lat": 0.0, "lat": 38.86524766666667, "type": "electric_scooter", "lon": -76.98969233333334, "bike_id": "83f916a5ddcd5c05d5bdafd845723544", "rental_uris": {"android": "https://dc.lft.to/lastmile_qr_scan", "ios": "https://dc.lft.to/lastmile_qr_scan"}, "name": "83f916a5ddcd5c05d5bdafd845723544", "is_reserved": 0},