{"data": {"bikes": [{"is_disabled": 0, "rental_uris": {"android": "https://dc.lft.to/lastmile_qr_scan", "ios": "https://dc.lft.to/lastmile_qr_scan"}, "is_reserved": 0, "name": "cb750b735eacb49f1b761c48b6f94a75", "lon": -76.93357316666666, "type": "electric_scooter", "bike_id": "cb750b735eacb49f1b761c48b6f94a75", "fusion_lon": 0.0, "lat": 38.8879805, "fusion_lat": 0.0}, {"is_disabled": 0, "rental_uris": {"android": "https://dc.lft.to/lastmile_qr_scan", "ios": "https://dc.lft.to/lastmile_qr_scan"}, "is_reserved": 0, "name": "c417f0799ead9dadc155f235a36a4207", "lon": -77.04992433333334, "type": "electric_scooter", "bike_id": "c417f0799ead9dadc155f235a36a4207", "fusion_lon": 0.0, "lat": 38.901546833333335, "fusion_lat": 0.0}, {"is_disabled": 0, "rental_uris": {"android": "https://dc.lft.to/lastmile_qr_scan", "ios": "https://dc.lft.to/lastmile_qr_scan"}, "is_reserved": 0, "name": "9d2897ce5082efdbdf255fd6c799899b", "lon": -77.0405845, "type": "electric_scooter", "bike_id": "9d2897ce5082efdbdf255fd6c799899b", "fusion_lon": 0.0, "lat": 38.908669833333335, "fusion_lat": 0.0}, {"is_disabled": 0, "rental_uris": {"android": "https://dc.lft.to/lastmile_qr_scan", "ios": "https://dc.lft.to/lastmile_qr_scan"}, "is_reserved": 0, "name": "ff7757a30c0435a8f6e743dabc1170a9", "lon": -77.00533883333334, "type": "electric_scooter", "bike_id": "ff7757a30c0435a8f6e743dabc1170a9", "fusion_lon": 0.0, "lat": 38.874719166666665, "fusion_lat": 0.0}, {"is_disabled": 0, "rental_uris": {"android": "https://dc.lft.to/lastmile_qr_scan", "ios": "https://dc.lft.to/lastmile_qr_scan"}, "is_reserved": 0, "name": "c734a94b8b7ce2d9ed7b648de2224976", "lon": -77.02168383333333, "type": "electric_scooter", "bike_id": "c734a94b8b7ce2d9ed7b648de2224976", "fusion_lon": 0.0, "lat": 38.92611616666667, "fusion_lat": 0.0}, {"is_disabled": 0, "rental_uris": {"android": "https://dc.lft.to/lastmile_qr_scan", "ios": "https://dc.lft.to/lastmile_qr_scan"}, "is_reserved": 0, "name": "b58c75e84465fadfae5ad93714e198e1", "lon": -76.98749716666667, "type": "electric_bike", "bike_id": "b58c75e84465fadfae5ad93714e198e1", "fusion_lon": 0.0, "lat": 38.98829716666667, "fusion_lat": 0.0}, {"is_disabled": 0, "rental_uris": {"android": "https://dc.lft.to/lastmile_qr_scan", "ios": "https://dc.lft.to/lastmile_qr_scan"}, "is_reserved": 0, "name": "ef12acb3aed1ec82b07cf5d9ce65eb28", "lon": -76.92889433333333, "type": "electric_bike", "bike_id": "ef12acb3aed1ec82b07cf5d9ce65eb28", "fusion_lon": 0.0, "lat": 38.978429, "fusion_lat": 0.0}, {"is_disabled": 0, "rental_uris": {"android": "https://dc.lft.to/lastmile_qr_scan", "ios": "https://dc.lft.to/lastmile_qr_scan"}, "is_reserved": 0, "name": "3dfdc261854726bc8e4920f407a95646", "lon": -77.03726116666667, "type": "electric_scooter", "bike_id": "3dfdc261854726bc8e4920f407a95646", "fusion_lon": 0.0, "lat": 38.91114066666667, "fusion_lat": 0.0}, {"is_disabled": 0, "rental_uris": {"android": "https://dc.lft.to/lastmile_qr_scan", "ios": "https://dc.lft.to/lastmile_qr_scan"}, "is_reserved": 0, "name": "f5704152df1b0d63cdb72432fd399d29", "lon": -76.98076783333333, "type": "electric_scooter", "bike_id": "f5704152df1b0d63cdb72432fd399d29", "fusion_lon": 0.0, "lat": 38.90165266666666, "fusion_lat": 0.0}, {"is_disabled": 0, "rental_uris": {"android": "https://dc.lft.to/lastmile_qr_scan", "ios": "https://dc.lft.to/lastmile_qr_scan"}, "is_reserved": 0, "name": "e340d39db6c31288e1ba816f60acef4b", "lon": -77.035623, "type": "electric_scooter", "bike_id": "e340d39db6c31288e1ba816f60acef4b", "fusion_lon": 0.0, "lat": 38.90463916666667, "fusion_lat": 0.0}, {"is_disabled": 0, "rental_uris": {"android": "https://dc.lft.to/lastmile_qr_scan", "ios": "https://dc.lft.to/lastmile_qr_scan"}, "is_reserved": 0, "name": "7cb221fcd188897a5ca66921ed3db919", "lon": -77.05007033333334, "type": "electric_scooter", "bike_id": "7cb221fcd188897a5ca66921ed3db919", "fusion_lon": 0.0, "lat": 38.9158315, "fusion_lat": 0.0}, {"is_disabled": 0, "rental_uris": {"android": "https://dc.lft.to/lastmile_qr_scan", "ios": "https://dc.lft.to/lastmile_qr_scan"}, "is_reserved": 0, "name": "70ffb50d72061cb6d10fcbebc86c4389", "lon": -77.03638, "type": "electric_scooter", "bike_id": "70ffb50d72061cb6d10fcbebc86c4389", "fusion_lon": 0.0, "lat": 38.9317815, "fusion_lat": 0.0}, {"is_disabled": 0, "rental_uris": {"android": "https://dc.lft.to/lastmile_qr_scan", "ios": "https://dc.lft.to/lastmile_qr_scan"}, "is_reserved": 0, "name": "f317f22de32417c0565548e5f48f3729", "lon": -77.03856, "type": "electric_scooter", "bike_id": "f317f22de32417c0565548e5f48f3729", "fusion_lon": 0.0, "lat": 38.906614166666664, "fusion_lat": 0.0}, {"is_disabled": 0, "rental_uris": {"android": "https://dc.lft.to/lastmile_qr_scan", "ios": "https://dc.lft.to/lastmile_qr_scan"}, "is_reserved": 0, "name": "1ea8f0b9b04450bc0995f3b0d1b6530e", "lon": -77.03153633333334, "type": "electric_scooter", "bike_id": "1ea8f0b9b04450bc0995f3b0d1b6530e", "fusion_lon": 0.0, "lat": 38.928038666666666, "fusion_lat": 0.0}, {"is_disabled": 0, "rental_uris": {"android": "https://dc.lft.to/lastmile_qr_scan", "ios": "https://dc.lft.to/lastmile_qr_scan"}, "is_reserved": 0, "name": "496ba17409d57fe78245aed19c12f6ca", "lon": -77.01757666666667, "type": "electric_scooter", "bike_id": "496ba17409d57fe78245aed19c12f6ca", "fusion_lon": 0.0, "lat": 38.91353616666667, "fusion_lat": 0.0}, {"is_disabled": 0, "rental_uris": {"android": "https://dc.lft.to/lastmile_qr_scan", "ios": "https://dc.lft.to/lastmile_qr_scan"}, "is_reserved": 0, "name": "404ca52df5fbc1b2aaf60344236f38cb", "lon": -76.99633383333334, "type": "electric_scooter", "bike_id": "404ca52df5fbc1b2aaf60344236f38cb", "fusion_lon": 0.0, "lat": 38.84621816666667, "fusion_lat": 0.0}, {"is_disabled": 0, "rental_uris": {"android": "https://dc.lft.to/lastmile_qr_scan", "ios": "https://dc.lft.to/lastmile_qr_scan"}, "is_reserved": 0, "name": "ec0cfc07f5cc8f78a4367542cc51c2fc", "lon": -77.01219866666666, "type": "electric_scooter", "bike_id": "ec0cfc07f5cc8f78a4367542cc51c2fc", "fusion_lon": 0.0, "lat": 38.8952155, "fusion_lat": 0.0}, {"is_disabled": 0, "rental_uris": {"android": "https://dc.lft.to/lastmile_qr_scan", "ios": "https://dc.lft.to/lastmile_qr_scan"}, "is_reserved": 0, "name": "068b3fb17b92a9c318546e73bf712290", "lon": -77.016172, "type": "electric_scooter", "bike_id": "068b3fb17b92a9c318546e73bf712290", "fusion_lon": 0.0, "lat": 38.872366666666665, "fusion_lat": 0.0}, {"is_disabled": 0, "rental_uris": {"android": "https://dc.lft.to/lastmile_qr_scan", "ios": "https://dc.lft.to/lastmile_qr_scan"}, "is_reserved": 0, "name": "be980ee4617301b48eb33f882c1b15fe", "lon": -77.03147083333333, "type": "electric_scooter", "bike_id": "be980ee4617301b48eb33f882c1b15fe", "fusion_lon": 0.0, "lat": 38.91630283333333, "fusion_lat": 0.0}, {"is_disabled": 0, "rental_uris": {"android": "https://dc.lft.to/lastmile_qr_scan", "ios": "https://dc.lft.to/lastmile_qr_scan"}, "is_reserved": 0, "name": "2b3e15f56b5d359d2aa60a1f02d25ba2", "lon": -76.98968816666667, "type": "electric_scooter", "bike_id": "2b3e15f56b5d359d2aa60a1f02d25ba2", "fusion_lon": 0.0, "lat": 38.90245683333333, "fusion_lat": 0.0}, {"is_disabled": 0, "rental_uris": {"android": "https://dc.lft.to/lastmile_qr_scan", "ios": "https://dc.lft.to/lastmile_qr_scan"}, "is_reserved": 0, "name": "9411918120c964c36cd002e30b55ba2a", "lon": -77.05003466666666, "type": "electric_scooter", "bike_id": "9411918120c964c36cd002e30b55ba2a", "fusion_lon": 0.0, "lat": 38.8923085, "fusion_lat": 0.0}, {"is_disabled": 0, "rental_uris": {"android": "https://dc.lft.to/lastmile_qr_scan", "ios": "https://dc.lft.to/lastmile_qr_scan"}, "is_reserved": 0, "name": "e893dcf3f4a60973e126c5ec9efb0107", "lon": -77.03668816666666, "type": "electric_scooter", "bike_id": "e893dcf3f4a60973e126c5ec9efb0107", "fusion_lon": 0.0, "lat": 38.902769666666664, "fusion_lat": 0.0}, {"is_disabled": 0, "rental_uris": {"android": "https://dc.lft.to/lastmile_qr_scan", "ios": "https://dc.lft.to/lastmile_qr_scan"}, "is_reserved": 0, "name": "cb66199bc4f56a7573e681a327ece2ce", "lon": -76.94952866666667, "type": "electric_bike", "bike_id": "cb66199bc4f56a7573e681a327ece2ce", "fusion_lon": 0.0, "lat": 38.93506466666667, "fusion_lat": 0.0}, {"is_disabled": 0, "rental_uris": {"android": "https://dc.lft.to/lastmile_qr_scan", "ios": "https://dc.lft.to/lastmile_qr_scan"}, "is_reserved": 0, "name": "697f2ecc641eb30a42343720b7d196f5", "lon": -77.03175083333333, "type": "electric_scooter", "bike_id": "697f2ecc641eb30a42343720b7d196f5", "fusion_lon": 0.0, "lat": 38.91926866666667, "fusion_lat": 0.0}, {"is_disabled": 0, "rental_uris": {"android": "https://dc.lft.to/lastmile_qr_scan", "ios": "https://dc.lft.to/lastmile_qr_scan"}, "is_reserved": 0, "name": "6be32f691dbd39469b082350e2ed3572", "lon": -77.01109416666667, "type": "electric_scooter", "bike_id": "6be32f691dbd39469b082350e2ed3572", "fusion_lon": 0.0, "lat": 38.90357633333333, "fusion_lat": 0.0}, {"is_disabled": 0, "rental_uris": {"android": "https://dc.lft.to/lastmile_qr_scan", "ios": "https://dc.lft.to/lastmile_qr_scan"}, "is_reserved": 0, "name": "674d7eeeccec4b52e6571b6a854827ec", "lon": -76.99960233333333, "type": "electric_scooter", "bike_id": "674d7eeeccec4b52e6571b6a854827ec", "fusion_lon": 0.0, "lat": 38.84288316666667, "fusion_lat": 0.0}, {"is_disabled": 0, "rental_uris": {"android": "https://dc.lft.to/lastmile_qr_scan", "ios": "https://dc.lft.to/lastmile_qr_scan"}, "is_reserved": 0, "name": "791626ad7356072dff79da1a0ae3a1dd", "lon": -77.022049, "type": "electric_scooter", "bike_id": "791626ad7356072dff79da1a0ae3a1dd", "fusion_lon": 0.0, "lat": 38.91022783333333, "fusion_lat": 0.0}, {"is_disabled": 0, "rental_uris": {"android": "https://dc.lft.to/lastmile_qr_scan", "ios": "https://dc.lft.to/lastmile_qr_scan"}, "is_reserved": 0, "name": "9b8b36b2ff3225160eed9f245dfd58a0", "lon": -76.96529866666667, "type": "electric_scooter", "bike_id": "9b8b36b2ff3225160eed9f245dfd58a0", "fusion_lon": 0.0, "lat": 38.87628516666667, "fusion_lat": 0.0}, {"is_disabled": 0, "rental_uris": {"android": "https://dc.lft.to/lastmile_qr_scan", "ios": "https://dc.lft.to/lastmile_qr_scan"}, "is_reserved": 0, "name": "080e28c4ee617d4f180ab31f439d6bf7", "lon": -77.0493305, "type": "electric_scooter", "bike_id": "080e28c4ee617d4f180ab31f439d6bf7", "fusion_lon": 0.0, "lat": 38.907004666666666, "fusion_lat": 0.0}, {"is_disabled": 0, "rental_uris": {"android": "https://dc.lft.to/lastmile_qr_scan", "ios": "https://dc.lft.to/lastmile_qr_scan"}, "is_reserved": 0, "name": "f63a615f5b6121016fe9e778fade6f2f", "lon": -77.0337925, "type": "electric_scooter", "bike_id": "f63a615f5b6121016fe9e778fade6f2f", "fusion_lon": 0.0, "lat": 38.921537666666666, "fusion_lat": 0.0}, {"is_disabled": 0, "rental_uris": {"android": "https://dc.lft.to/lastmile_qr_scan", "ios": "https://dc.lft.to/lastmile_qr_scan"}, "is_reserved": 0, "name": "327526b047386eee23e3b15b76766e08", "lon": -77.00676516666667, "type": "electric_bike", "bike_id": "327526b047386eee23e3b15b76766e08", "fusion_lon": 0.0, "lat": 38.94511683333333, "fusion_lat": 0.0}, {"is_disabled": 0, "rental_uris": {"android": "https://dc.lft.to/lastmile_qr_scan", "ios": "https://dc.lft.to/lastmile_qr_scan"}, "is_reserved": 0, "name": "09124d5ebf51fa637f5866e9fce62b5e", "lon": -77.0280215, "type": "electric_scooter", "bike_id": "09124d5ebf51fa637f5866e9fce62b5e", "fusion_lon": 0.0, "lat": 38.962142, "fusion_lat": 0.0}, {"is_disabled": 0, "rental_uris": {"android": "https://dc.lft.to/lastmile_qr_scan", "ios": "https://dc.lft.to/lastmile_qr_scan"}, "is_reserved": 0, "name": "1bf6a4f31ce6397a38806ac78ec3ae1f", "lon": -77.0724845, "type": "electric_scooter", "bike_id": "1bf6a4f31ce6397a38806ac78ec3ae1f", "fusion_lon": 0.0, "lat": 38.907855166666664, "fusion_lat": 0.0}, {"is_disabled": 0, "rental_uris": {"android": "https://dc.lft.to/lastmile_qr_scan", "ios": "https://dc.lft.to/lastmile_qr_scan"}, "is_reserved": 0, "name": "6665cfd8c5611e29b068a09a8c8026ce", "lon": -77.02699866666667, "type": "electric_scooter", "bike_id": "6665cfd8c5611e29b068a09a8c8026ce", "fusion_lon": 0.0, "lat": 38.9498475, "fusion_lat": 0.0}, {"is_disabled": 0, "rental_uris": {"android": "https://dc.lft.to/lastmile_qr_scan", "ios": "https://dc.lft.to/lastmile_qr_scan"}, "is_reserved": 0, "name": "653d86e8ceedaf4e408559a42cca23ee", "lon": -77.03633616666667, "type": "electric_scooter", "bike_id": "653d86e8ceedaf4e408559a42cca23ee", "fusion_lon": 0.0, "lat": 38.930462166666665, "fusion_lat": 0.0}, {"is_disabled": 0, "rental_uris": {"android": "https://dc.lft.to/lastmile_qr_scan", "ios": "https://dc.lft.to/lastmile_qr_scan"}, "is_reserved": 0, "name": "e58f2394f47a97d2d60d2f45318cedc3", "lon": -77.02880133333333, "type": "electric_scooter", "bike_id": "e58f2394f47a97d2d60d2f45318cedc3", "fusion_lon": 0.0, "lat": 38.901459, "fusion_lat": 0.0}, {"is_disabled": 0, "rental_uris": {"android": "https://dc.lft.to/lastmile_qr_scan", "ios": "https://dc.lft.to/lastmile_qr_scan"}, "is_reserved": 0, "name": "4b463da37be53ce1508d7c4affbe9292", "lon": -77.0392385, "type": "electric_scooter", "bike_id": "4b463da37be53ce1508d7c4affbe9292", "fusion_lon": 0.0, "lat": 38.91910683333333, "fusion_lat": 0.0}, {"is_disabled": 0, "rental_uris": {"android": "https://dc.lft.to/lastmile_qr_scan", "ios": "https://dc.lft.to/lastmile_qr_scan"}, "is_reserved": 0, "name": "b80032fcc914c713ee574928c4cf2c80", "lon": -77.0415375, "type": "electric_scooter", "bike_id": "b80032fcc914c713ee574928c4cf2c80", "fusion_lon": 0.0, "lat": 38.91416733333333, "fusion_lat": 0.0}, {"is_disabled": 0, "rental_uris": {"android": "https://dc.lft.to/lastmile_qr_scan", "ios": "https://dc.lft.to/lastmile_qr_scan"}, "is_reserved": 0, "name": "034f818cdc817dfb38fb14cd133b6c96", "lon": -77.01757733333334, "type": "electric_scooter", "bike_id": "034f818cdc817dfb38fb14cd133b6c96", "fusion_lon": 0.0, "lat": 38.92107333333333, "fusion_lat": 0.0}, {"is_disabled": 0, "rental_uris": {"android": "https://dc.lft.to/lastmile_qr_scan", "ios": "https://dc.lft.to/lastmile_qr_scan"}, "is_reserved": 0, "name": "da1e82bd84fb03ed25597f7a60632105", "lon": -77.033384, "type": "electric_scooter", "bike_id": "da1e82bd84fb03ed25597f7a60632105", "fusion_lon": 0.0, "lat": 38.91809283333333, "fusion_lat": 0.0}, {"is_disabled": 0, "rental_uris": {"android": "https://dc.lft.to/lastmile_qr_scan", "ios": "https://dc.lft.to/lastmile_qr_scan"}, "is_reserved": 0, "name": "e9c1d845e3aadfa47c599adafbeb0334", "lon": -77.02225133333333, "type": "electric_scooter", "bike_id": "e9c1d845e3aadfa47c599adafbeb0334", "fusion_lon": 0.0, "lat": 38.935508, "fusion_lat": 0.0}, {"is_disabled": 0, "rental_uris": {"android": "https://dc.lft.to/lastmile_qr_scan", "ios": "https://dc.lft.to/lastmile_qr_scan"}, "is_reserved": 0, "name": "4c88174b8b563b1e59ca7260d264ad7c", "lon": -76.93049666666667, "type": "electric_scooter", "bike_id": "4c88174b8b563b1e59ca7260d264ad7c", "fusion_lon": 0.0, "lat": 38.89787116666667, "fusion_lat": 0.0}, {"is_disabled": 0, "rental_uris": {"android": "https://dc.lft.to/lastmile_qr_scan", "ios": "https://dc.lft.to/lastmile_qr_scan"}, "is_reserved": 0, "name": "5012f996508172ef16cb25540344e25d", "lon": -77.02167583333333, "type": "electric_scooter", "bike_id": "5012f996508172ef16cb25540344e25d", "fusion_lon": 0.0, "lat": 38.894649, "fusion_lat": 0.0}, {"is_disabled": 0, "rental_uris": {"android": "https://dc.lft.to/lastmile_qr_scan", "ios": "https://dc.lft.to/lastmile_qr_scan"}, "is_reserved": 0, "name": "6ab4aae47bb22dd442761d8453cac276", "lon": -77.04041033333333, "type": "electric_scooter", "bike_id": "6ab4aae47bb22dd442761d8453cac276", "fusion_lon": 0.0, "lat": 38.9002055, "fusion_lat": 0.0}, {"is_disabled": 0, "rental_uris": {"android": "https://dc.lft.to/lastmile_qr_scan", "ios": "https://dc.lft.to/lastmile_qr_scan"}, "is_reserved": 0, "name": "419b3e98512b86f05589f4771337999d", "lon": -77.03177033333333, "type": "electric_scooter", "bike_id": "419b3e98512b86f05589f4771337999d", "fusion_lon": 0.0, "lat": 38.91413816666667, "fusion_lat": 0.0}, {"is_disabled": 0, "rental_uris": {"android": "https://dc.lft.to/lastmile_qr_scan", "ios": "https://dc.lft.to/lastmile_qr_scan"}, "is_reserved": 0, "name": "f21862df5b8858531274c5ecdd6a6e67", "lon": -77.0432615, "type": "electric_scooter", "bike_id": "f21862df5b8858531274c5ecdd6a6e67", "fusion_lon": 0.0, "lat": 38.911083166666664, "fusion_lat": 0.0}, {"is_disabled": 0, "rental_uris": {"android": "https://dc.lft.to/lastmile_qr_scan", "ios": "https://dc.lft.to/lastmile_qr_scan"}, "is_reserved": 0, "name": "442fc2c87a1294905d4c31a18c52c690", "lon": -77.03215383333334, "type": "electric_scooter", "bike_id": "442fc2c87a1294905d4c31a18c52c690", "fusion_lon": 0.0, "lat": 38.918440333333336, "fusion_lat": 0.0}, {"is_disabled": 0, "rental_uris": {"android": "https://dc.lft.to/lastmile_qr_scan", "ios": "https://dc.lft.to/lastmile_qr_scan"}, "is_reserved": 0, "name": "5aff797ef5c8b08e0a3120c642644b0e", "lon": -76.99632, "type": "electric_scooter", "bike_id": "5aff797ef5c8b08e0a3120c642644b0e", "fusion_lon": 0.0, "lat": 38.846194833333335, "fusion_lat": 0.0}, {"is_disabled": 0, "rental_uris": {"android": "https://dc.lft.to/lastmile_qr_scan", "ios": "https://dc.lft.to/lastmile_qr_scan"}, "is_reserved": 0, "name": "3907a4af30979552f625778eb7464421", "lon": -77.03211283333333, "type": "electric_scooter", "bike_id": "3907a4af30979552f625778eb7464421", "fusion_lon": 0.0, "lat": 38.92012016666666, "fusion_lat": 0.0}, {"is_disabled": 0, "rental_uris": {"android": "https://dc.lft.to/lastmile_qr_scan", "ios": "https://dc.lft.to/lastmile_qr_scan"}, "is_reserved": 0, "name": "d34194a8c4c0ebe5aa995af5cf98bcb4", "lon": -77.03652966666667, "type": "electric_scooter", "bike_id": "d34194a8c4c0ebe5aa995af5cf98bcb4", "fusion_lon": 0.0, "lat": 38.90304033333334, "fusion_lat": 0.0}, {"is_disabled": 0, "rental_uris": {"android": "https://dc.lft.to/lastmile_qr_scan", "ios": "https://dc.lft.to/lastmile_qr_scan"}, "is_reserved": 0, "name": "5b23461a1bec9784f672a5bf6aadde97", "lon": -77.033494, "type": "electric_scooter", "bike_id": "5b23461a1bec9784f672a5bf6aadde97", "fusion_lon": 0.0, "lat": 38.898443666666665, "fusion_lat": 0.0}, {"is_disabled": 0, "rental_uris": {"android": "https://dc.lft.to/lastmile_qr_scan", "ios": "https://dc.lft.to/lastmile_qr_scan"}, "is_reserved": 0, "name": "d1ef682ad429e75d37d8d3046349bbc4", "lon": -77.12401266666667, "type": "electric_bike", "bike_id": "d1ef682ad429e75d37d8d3046349bbc4", "fusion_lon": 0.0, "lat": 38.893351833333334, "fusion_lat": 0.0}, {"is_disabled": 0, "rental_uris": {"android": "https://dc.lft.to/lastmile_qr_scan", "ios": "https://dc.lft.to/lastmile_qr_scan"}, "is_reserved": 0, "name": "18602905f448c7bbf931443f82ab9fbc", "lon": -77.0057915, "type": "electric_scooter", "bike_id": "18602905f448c7bbf931443f82ab9fbc", "fusion_lon": 0.0, "lat": 38.875447666666666, "fusion_lat": 0.0}, {"is_disabled": 0, "rental_uris": {"android": "https://dc.lft.to/lastmile_qr_scan", "ios": "https://dc.lft.to/lastmile_qr_scan"}, "is_reserved": 0, "name": "1af5325b0f8cda61a84084bc79e0f942", "lon": -77.0238635, "type": "electric_scooter", "bike_id": "1af5325b0f8cda61a84084bc79e0f942", "fusion_lon": 0.0, "lat": 38.90580966666667, "fusion_lat": 0.0}, {"is_disabled": 0, "rental_uris": {"android": "https://dc.lft.to/lastmile_qr_scan", "ios": "https://dc.lft.to/lastmile_qr_scan"}, "is_reserved": 0, "name": "11786b25dee35542cde080d87f9de0dd", "lon": -77.03237466666667, "type": "electric_scooter", "bike_id": "11786b25dee35542cde080d87f9de0dd", "fusion_lon": 0.0, "lat": 38.91257933333333, "fusion_lat": 0.0}, {"is_disabled": 0, "rental_uris": {"android": "https://dc.lft.to/lastmile_qr_scan", "ios": "https://dc.lft.to/lastmile_qr_scan"}, "is_reserved": 0, "name": "2269df3f76388e4b46d4a4473c6fba3f", "lon": -77.04558883333333, "type": "electric_scooter", "bike_id": "2269df3f76388e4b46d4a4473c6fba3f", "fusion_lon": 0.0, "lat": 38.907249666666665, "fusion_lat": 0.0}, {"is_disabled": 0, "rental_uris": {"android": "https://dc.lft.to/lastmile_qr_scan", "ios": "https://dc.lft.to/lastmile_qr_scan"}, "is_reserved": 0, "name": "66b69996a072315fda4ce196d8471046", "lon": -76.99903266666666, "type": "electric_scooter", "bike_id": "66b69996a072315fda4ce196d8471046", "fusion_lon": 0.0, "lat": 38.9565485, "fusion_lat": 0.0}, {"is_disabled": 0, "rental_uris": {"android": "https://dc.lft.to/lastmile_qr_scan", "ios": "https://dc.lft.to/lastmile_qr_scan"}, "is_reserved": 0, "name": "5c025f6fb9d7f13b890dd3b18b42f34e", "lon": -77.0239745, "type": "electric_scooter", "bike_id": "5c025f6fb9d7f13b890dd3b18b42f34e", "fusion_lon": 0.0, "lat": 38.90704233333334, "fusion_lat": 0.0}, {"is_disabled": 0, "rental_uris": {"android": "https://dc.lft.to/lastmile_qr_scan", "ios": "https://dc.lft.to/lastmile_qr_scan"}, "is_reserved": 0, "name": "4aa7b161cfc5226cbe3651e1ae3b4b99", "lon": -77.03171783333333, "type": "electric_scooter", "bike_id": "4aa7b161cfc5226cbe3651e1ae3b4b99", "fusion_lon": 0.0, "lat": 38.921109666666666, "fusion_lat": 0.0}, {"is_disabled": 0, "rental_uris": {"android": "https://dc.lft.to/lastmile_qr_scan", "ios": "https://dc.lft.to/lastmile_qr_scan"}, "is_reserved": 0, "name": "93b8ec6f87292cec97b2ff72f9d46ac0", "lon": -76.99342066666667, "type": "electric_scooter", "bike_id": "93b8ec6f87292cec97b2ff72f9d46ac0", "fusion_lon": 0.0, "lat": 38.89901066666667, "fusion_lat": 0.0}, {"is_disabled": 0, "rental_uris": {"android": "https://dc.lft.to/lastmile_qr_scan", "ios": "https://dc.lft.to/lastmile_qr_scan"}, "is_reserved": 0, "name": "02eb26020ccfca27785126bd71342fcf", "lon": -77.03867816666667, "type": "electric_scooter", "bike_id": "02eb26020ccfca27785126bd71342fcf", "fusion_lon": 0.0, "lat": 38.91547633333333, "fusion_lat": 0.0}, {"is_disabled": 0, "rental_uris": {"android": "https://dc.lft.to/lastmile_qr_scan", "ios": "https://dc.lft.to/lastmile_qr_scan"}, "is_reserved": 0, "name": "120267b02c31e0f72caa5ee20078a173", "lon": -76.9865785, "type": "electric_scooter", "bike_id": "120267b02c31e0f72caa5ee20078a173", "fusion_lon": 0.0, "lat": 38.913114666666665, "fusion_lat": 0.0}, {"is_disabled": 0, "rental_uris": {"android": "https://dc.lft.to/lastmile_qr_scan", "ios": "https://dc.lft.to/lastmile_qr_scan"}, "is_reserved": 0, "name": "42f0b0c6a3027ba72007e6d62be0617d", "lon": -77.03390783333333, "type": "electric_scooter", "bike_id": "42f0b0c6a3027ba72007e6d62be0617d", "fusion_lon": 0.0, "lat": 38.93236383333333, "fusion_lat": 0.0}, {"is_disabled": 0, "rental_uris": {"android": "https://dc.lft.to/lastmile_qr_scan", "ios": "https://dc.lft.to/lastmile_qr_scan"}, "is_reserved": 0, "name": "f4ab858787099864803b76fc6c7857f0", "lon": -77.009172, "type": "electric_scooter", "bike_id": "f4ab858787099864803b76fc6c7857f0", "fusion_lon": 0.0, "lat": 38.895549, "fusion_lat": 0.0}, {"is_disabled": 0, "rental_uris": {"android": "https://dc.lft.to/lastmile_qr_scan", "ios": "https://dc.lft.to/lastmile_qr_scan"}, "is_reserved": 0, "name": "405d05294b61162a6f2287666d57edad", "lon": -77.03462083333334, "type": "electric_scooter", "bike_id": "405d05294b61162a6f2287666d57edad", "fusion_lon": 0.0, "lat": 38.917591333333334, "fusion_lat": 0.0}, {"is_disabled": 0, "rental_uris": {"android": "https://dc.lft.to/lastmile_qr_scan", "ios": "https://dc.lft.to/lastmile_qr_scan"}, "is_reserved": 0, "name": "a0efb3a273d12dfcd41ec356f51d6f95", "lon": -77.03472633333334, "type": "electric_scooter", "bike_id": "a0efb3a273d12dfcd41ec356f51d6f95", "fusion_lon": 0.0, "lat": 38.917072166666664, "fusion_lat": 0.0}, {"is_disabled": 0, "rental_uris": {"android": "https://dc.lft.to/lastmile_qr_scan", "ios": "https://dc.lft.to/lastmile_qr_scan"}, "is_reserved": 0, "name": "7004d6c43c88dca024e6bda982f4a15a", "lon": -76.94895466666667, "type": "electric_scooter", "bike_id": "7004d6c43c88dca024e6bda982f4a15a", "fusion_lon": 0.0, "lat": 38.895298333333336, "fusion_lat": 0.0}, {"is_disabled": 0, "rental_uris": {"android": "https://dc.lft.to/lastmile_qr_scan", "ios": "https://dc.lft.to/lastmile_qr_scan"}, "is_reserved": 0, "name": "d3a480e5c489f1440845fab1059d2860", "lon": -76.9865625, "type": "electric_scooter", "bike_id": "d3a480e5c489f1440845fab1059d2860", "fusion_lon": 0.0, "lat": 38.858064666666664, "fusion_lat": 0.0}, {"is_disabled": 0, "rental_uris": {"android": "https://dc.lft.to/lastmile_qr_scan", "ios": "https://dc.lft.to/lastmile_qr_scan"}, "is_reserved": 0, "name": "e20a33a0250603c80ef94241cab8a51c", "lon": -77.03169016666666, "type": "electric_scooter", "bike_id": "e20a33a0250603c80ef94241cab8a51c", "fusion_lon": 0.0, "lat": 38.88340433333333, "fusion_lat": 0.0}, {"is_disabled": 0, "rental_uris": {"android": "https://dc.lft.to/lastmile_qr_scan", "ios": "https://dc.lft.to/lastmile_qr_scan"}, "is_reserved": 0, "name": "0f7d62b28b62704e3cb38fc433cc2f73", "lon": -77.03090933333333, "type": "electric_scooter", "bike_id": "0f7d62b28b62704e3cb38fc433cc2f73", "fusion_lon": 0.0, "lat": 38.9095995, "fusion_lat": 0.0}, {"is_disabled": 0, "rental_uris": {"android": "https://dc.lft.to/lastmile_qr_scan", "ios": "https://dc.lft.to/lastmile_qr_scan"}, "is_reserved": 0, "name": "7393ddbac3c1679cecb460c4b1a45bbe", "lon": -76.98027816666666, "type": "electric_bike", "bike_id": "7393ddbac3c1679cecb460c4b1a45bbe", "fusion_lon": 0.0, "lat": 38.88753966666667, "fusion_lat": 0.0}, {"is_disabled": 0, "rental_uris": {"android": "https://dc.lft.to/lastmile_qr_scan", "ios": "https://dc.lft.to/lastmile_qr_scan"}, "is_reserved": 0, "name": "0138535b23b4fdc405d5cc73f281b8af", "lon": -77.0259375, "type": "electric_scooter", "bike_id": "0138535b23b4fdc405d5cc73f281b8af", "fusion_lon": 0.0, "lat": 38.94202883333333, "fusion_lat": 0.0}, {"is_disabled": 0, "rental_uris": {"android": "https://dc.lft.to/lastmile_qr_scan", "ios": "https://dc.lft.to/lastmile_qr_scan"}, "is_reserved": 0, "name": "b7e826f6306411c2897ee7fd7674920b", "lon": -77.043431, "type": "electric_scooter", "bike_id": "b7e826f6306411c2897ee7fd7674920b", "fusion_lon": 0.0, "lat": 38.903459833333336, "fusion_lat": 0.0}, {"is_disabled": 0, "rental_uris": {"android": "https://dc.lft.to/lastmile_qr_scan", "ios": "https://dc.lft.to/lastmile_qr_scan"}, "is_reserved": 0, "name": "fa5f48ea6e05416d17a0eb4fa13df4f5", "lon": -77.043072, "type": "electric_scooter", "bike_id": "fa5f48ea6e05416d17a0eb4fa13df4f5", "fusion_lon": 0.0, "lat": 38.9110795, "fusion_lat": 0.0}, {"is_disabled": 0, "rental_uris": {"android": "https://dc.lft.to/lastmile_qr_scan", "ios": "https://dc.lft.to/lastmile_qr_scan"}, "is_reserved": 0, "name": "99bc494c78780a86013c12d868f55141", "lon": -77.03451383333334, "type": "electric_scooter", "bike_id": "99bc494c78780a86013c12d868f55141", "fusion_lon": 0.0, "lat": 38.9043175, "fusion_lat": 0.0}, {"is_disabled": 0, "rental_uris": {"android": "https://dc.lft.to/lastmile_qr_scan", "ios": "https://dc.lft.to/lastmile_qr_scan"}, "is_reserved": 0, "name": "fa4ecc8886a7a5878da5596850b7d4ed", "lon": -77.04011916666667, "type": "electric_scooter", "bike_id": "fa4ecc8886a7a5878da5596850b7d4ed", "fusion_lon": 0.0, "lat": 38.910376666666664, "fusion_lat": 0.0}, {"is_disabled": 0, "rental_uris": {"android": "https://dc.lft.to/lastmile_qr_scan", "ios": "https://dc.lft.to/lastmile_qr_scan"}, "is_reserved": 0, "name": "834987bbe24ab0c354d057065a328e14", "lon": -77.03426, "type": "electric_scooter", "bike_id": "834987bbe24ab0c354d057065a328e14", "fusion_lon": 0.0, "lat": 38.902682, "fusion_lat": 0.0}, {"is_disabled": 0, "rental_uris": {"android": "https://dc.lft.to/lastmile_qr_scan", "ios": "https://dc.lft.to/lastmile_qr_scan"}, "is_reserved": 0, "name": "d619d0908b38dc3254de5a022b224e6d", "lon": -77.00587516666667, "type": "electric_scooter", "bike_id": "d619d0908b38dc3254de5a022b224e6d", "fusion_lon": 0.0, "lat": 38.9056315, "fusion_lat": 0.0}, {"is_disabled": 0, "rental_uris": {"android": "https://dc.lft.to/lastmile_qr_scan", "ios": "https://dc.lft.to/lastmile_qr_scan"}, "is_reserved": 0, "name": "b7bf12f5a929e6254113a590e123843e", "lon": -76.8890655, "type": "electric_bike", "bike_id": "b7bf12f5a929e6254113a590e123843e", "fusion_lon": 0.0, "lat": 38.925915, "fusion_lat": 0.0}, {"is_disabled": 0, "rental_uris": {"android": "https://dc.lft.to/lastmile_qr_scan", "ios": "https://dc.lft.to/lastmile_qr_scan"}, "is_reserved": 0, "name": "1481c80e7641c9d748e9bb73da807517", "lon": -76.95221333333333, "type": "electric_bike", "bike_id": "1481c80e7641c9d748e9bb73da807517", "fusion_lon": 0.0, "lat": 38.8923705, "fusion_lat": 0.0}, {"is_disabled": 0, "rental_uris": {"android": "https://dc.lft.to/lastmile_qr_scan", "ios": "https://dc.lft.to/lastmile_qr_scan"}, "is_reserved": 0, "name": "e3a645a6c36a83a916d3fde6698225d7", "lon": -77.054258, "type": "electric_scooter", "bike_id": "e3a645a6c36a83a916d3fde6698225d7", "fusion_lon": 0.0, "lat": 38.899128833333336, "fusion_lat": 0.0}, {"is_disabled": 0, "rental_uris": {"android": "https://dc.lft.to/lastmile_qr_scan", "ios": "https://dc.lft.to/lastmile_qr_scan"}, "is_reserved": 0, "name": "bdd03f0d428d8616c9492e8eee1899f7", "lon": -77.020884, "type": "electric_scooter", "bike_id": "bdd03f0d428d8616c9492e8eee1899f7", "fusion_lon": 0.0, "lat": 38.930066, "fusion_lat": 0.0}, {"is_disabled": 0, "rental_uris": {"android": "https://dc.lft.to/lastmile_qr_scan", "ios": "https://dc.lft.to/lastmile_qr_scan"}, "is_reserved": 0, "name": "ff9017e51a96daad42d9e52a2d3239fc", "lon": -77.03260383333334, "type": "electric_scooter", "bike_id": "ff9017e51a96daad42d9e52a2d3239fc", "fusion_lon": 0.0, "lat": 38.93697983333333, "fusion_lat": 0.0}, {"is_disabled": 0, "rental_uris": {"android": "https://dc.lft.to/lastmile_qr_scan", "ios": "https://dc.lft.to/lastmile_qr_scan"}, "is_reserved": 0, "name": "dc7bb50198fe90dddef0b3c0bc7beb73", "lon": -77.009246, "type": "electric_scooter", "bike_id": "dc7bb50198fe90dddef0b3c0bc7beb73", "fusion_lon": 0.0, "lat": 38.89607383333333, "fusion_lat": 0.0}, {"is_disabled": 0, "rental_uris": {"android": "https://dc.lft.to/lastmile_qr_scan", "ios": "https://dc.lft.to/lastmile_qr_scan"}, "is_reserved": 0, "name": "433c7ea38c341a7eb1d1c690f4e45143", "lon": -77.05161566666666, "type": "electric_scooter", "bike_id": "433c7ea38c341a7eb1d1c690f4e45143", "fusion_lon": 0.0, "lat": 38.90588966666667, "fusion_lat": 0.0}, {"is_disabled": 0, "rental_uris": {"android": "https://dc.lft.to/lastmile_qr_scan", "ios": "https://dc.lft.to/lastmile_qr_scan"}, "is_reserved": 0, "name": "2ed2c8566a9c1996273b83185a063fea", "lon": -77.00828216666666, "type": "electric_scooter", "bike_id": "2ed2c8566a9c1996273b83185a063fea", "fusion_lon": 0.0, "lat": 38.91259983333333, "fusion_lat": 0.0}, {"is_disabled": 0, "rental_uris": {"android": "https://dc.lft.to/lastmile_qr_scan", "ios": "https://dc.lft.to/lastmile_qr_scan"}, "is_reserved": 0, "name": "38dc7aa97609201ddef1c7c55e302cdd", "lon": -77.01412583333334, "type": "electric_scooter", "bike_id": "38dc7aa97609201ddef1c7c55e302cdd", "fusion_lon": 0.0, "lat": 38.9283045, "fusion_lat": 0.0}, {"is_disabled": 0, "rental_uris": {"android": "https://dc.lft.to/lastmile_qr_scan", "ios": "https://dc.lft.to/lastmile_qr_scan"}, "is_reserved": 0, "name": "2da6300dc10bb2a66e7698e23571dfeb", "lon": -77.00333416666666, "type": "electric_scooter", "bike_id": "2da6300dc10bb2a66e7698e23571dfeb", "fusion_lon": 0.0, "lat": 38.893600166666666, "fusion_lat": 0.0}, {"is_disabled": 0, "rental_uris": {"android": "https://dc.lft.to/lastmile_qr_scan", "ios": "https://dc.lft.to/lastmile_qr_scan"}, "is_reserved": 0, "name": "4b4cf1ba9e33ed9087d9f946f01bdd91", "lon": -76.99519266666667, "type": "electric_scooter", "bike_id": "4b4cf1ba9e33ed9087d9f946f01bdd91", "fusion_lon": 0.0, "lat": 38.894847166666665, "fusion_lat": 0.0}, {"is_disabled": 0, "rental_uris": {"android": "https://dc.lft.to/lastmile_qr_scan", "ios": "https://dc.lft.to/lastmile_qr_scan"}, "is_reserved": 0, "name": "1134f27d26348976b18265dcf72dbfb2", "lon": -77.03855383333334, "type": "electric_scooter", "bike_id": "1134f27d26348976b18265dcf72dbfb2", "fusion_lon": 0.0, "lat": 38.91841066666667, "fusion_lat": 0.0}, {"is_disabled": 0, "rental_uris": {"android": "https://dc.lft.to/lastmile_qr_scan", "ios": "https://dc.lft.to/lastmile_qr_scan"}, "is_reserved": 0, "name": "96ae3a3fc04fb2212ecea32ab0163ad6", "lon": -77.05211683333333, "type": "electric_scooter", "bike_id": "96ae3a3fc04fb2212ecea32ab0163ad6", "fusion_lon": 0.0, "lat": 38.92438816666667, "fusion_lat": 0.0}, {"is_disabled": 0, "rental_uris": {"android": "https://dc.lft.to/lastmile_qr_scan", "ios": "https://dc.lft.to/lastmile_qr_scan"}, "is_reserved": 0, "name": "124665a9867e8dffdc54747d64f2206e", "lon": -77.00042816666667, "type": "electric_scooter", "bike_id": "124665a9867e8dffdc54747d64f2206e", "fusion_lon": 0.0, "lat": 38.919041, "fusion_lat": 0.0}, {"is_disabled": 0, "rental_uris": {"android": "https://dc.lft.to/lastmile_qr_scan", "ios": "https://dc.lft.to/lastmile_qr_scan"}, "is_reserved": 0, "name": "94d8eace36ecc45183d1e13b572db7a0", "lon": -77.03219683333333, "type": "electric_scooter", "bike_id": "94d8eace36ecc45183d1e13b572db7a0", "fusion_lon": 0.0, "lat": 38.916421666666665, "fusion_lat": 0.0}, {"is_disabled": 0, "rental_uris": {"android": "https://dc.lft.to/lastmile_qr_scan", "ios": "https://dc.lft.to/lastmile_qr_scan"}, "is_reserved": 0, "name": "9485d0cb9d52828af3f42da21e3fab88", "lon": -77.05056266666666, "type": "electric_scooter", "bike_id": "9485d0cb9d52828af3f42da21e3fab88", "fusion_lon": 0.0, "lat": 38.91639416666666, "fusion_lat": 0.0}, {"is_disabled": 0, "rental_uris": {"android": "https://dc.lft.to/lastmile_qr_scan", "ios": "https://dc.lft.to/lastmile_qr_scan"}, "is_reserved": 0, "name": "bde3b222288e44c23f099238776bb277", "lon": -77.04602933333334, "type": "electric_scooter", "bike_id": "bde3b222288e44c23f099238776bb277", "fusion_lon": 0.0, "lat": 38.90260883333333, "fusion_lat": 0.0}, {"is_disabled": 0, "rental_uris": {"android": "https://dc.lft.to/lastmile_qr_scan", "ios": "https://dc.lft.to/lastmile_qr_scan"}, "is_reserved": 0, "name": "d9ff338fec2cc84f1c4daa1692789856", "lon": -76.9780435, "type": "electric_scooter", "bike_id": "d9ff338fec2cc84f1c4daa1692789856", "fusion_lon": 0.0, "lat": 38.92065183333333, "fusion_lat": 0.0}, {"is_disabled": 0, "rental_uris": {"android": "https://dc.lft.to/lastmile_qr_scan", "ios": "https://dc.lft.to/lastmile_qr_scan"}, "is_reserved": 0, "name": "4f0e77e6d8ee270f0c3c41b41502f7fb", "lon": -77.03193616666667, "type": "electric_scooter", "bike_id": "4f0e77e6d8ee270f0c3c41b41502f7fb", "fusion_lon": 0.0, "lat": 38.908347666666664, "fusion_lat": 0.0}, {"is_disabled": 0, "rental_uris": {"android": "https://dc.lft.to/lastmile_qr_scan", "ios": "https://dc.lft.to/lastmile_qr_scan"}, "is_reserved": 0, "name": "6bb30af43a3dfd693bb23891e0eb8794", "lon": -77.03443383333334, "type": "electric_scooter", "bike_id": "6bb30af43a3dfd693bb23891e0eb8794", "fusion_lon": 0.0, "lat": 38.90427716666667, "fusion_lat": 0.0}, {"is_disabled": 0, "rental_uris": {"android": "https://dc.lft.to/lastmile_qr_scan", "ios": "https://dc.lft.to/lastmile_qr_scan"}, "is_reserved": 0, "name": "954c93d187025622056b6dc0e69cc1b7", "lon": -77.03498683333333, "type": "electric_scooter", "bike_id": "954c93d187025622056b6dc0e69cc1b7", "fusion_lon": 0.0, "lat": 38.9234015, "fusion_lat": 0.0}, {"is_disabled": 0, "rental_uris": {"android": "https://dc.lft.to/lastmile_qr_scan", "ios": "https://dc.lft.to/lastmile_qr_scan"}, "is_reserved": 0, "name": "9624a21436d85467101d0279de856d0b", "lon": -77.03346383333333, "type": "electric_scooter", "bike_id": "9624a21436d85467101d0279de856d0b", "fusion_lon": 0.0, "lat": 38.89230883333333, "fusion_lat": 0.0}, {"is_disabled": 0, "rental_uris": {"android": "https://dc.lft.to/lastmile_qr_scan", "ios": "https://dc.lft.to/lastmile_qr_scan"}, "is_reserved": 0, "name": "a3d2fecdb6841ab5c27ee30264585b86", "lon": -76.94881983333333, "type": "electric_scooter", "bike_id": "a3d2fecdb6841ab5c27ee30264585b86", "fusion_lon": 0.0, "lat": 38.895791333333335, "fusion_lat": 0.0}, {"is_disabled": 0, "rental_uris": {"android": "https://dc.lft.to/lastmile_qr_scan", "ios": "https://dc.lft.to/lastmile_qr_scan"}, "is_reserved": 0, "name": "774da75147c1ff9401e63485bf3120dd", "lon": -77.0433485, "type": "electric_scooter", "bike_id": "774da75147c1ff9401e63485bf3120dd", "fusion_lon": 0.0, "lat": 38.916953166666666, "fusion_lat": 0.0}, {"is_disabled": 0, "rental_uris": {"android": "https://dc.lft.to/lastmile_qr_scan", "ios": "https://dc.lft.to/lastmile_qr_scan"}, "is_reserved": 0, "name": "347b8d319eea7aa8bc6c22c207f2bd34", "lon": -77.04895333333333, "type": "electric_scooter", "bike_id": "347b8d319eea7aa8bc6c22c207f2bd34", "fusion_lon": 0.0, "lat": 38.892517166666664, "fusion_lat": 0.0}, {"is_disabled": 0, "rental_uris": {"android": "https://dc.lft.to/lastmile_qr_scan", "ios": "https://dc.lft.to/lastmile_qr_scan"}, "is_reserved": 0, "name": "1919eff28201a6f1a002847e591f3a08", "lon": -76.98418833333334, "type": "electric_bike", "bike_id": "1919eff28201a6f1a002847e591f3a08", "fusion_lon": 0.0, "lat": 38.855136333333334, "fusion_lat": 0.0}, {"is_disabled": 0, "rental_uris": {"android": "https://dc.lft.to/lastmile_qr_scan", "ios": "https://dc.lft.to/lastmile_qr_scan"}, "is_reserved": 0, "name": "7fd9d85097db4d12e3ba19fe607fc7a0", "lon": -77.06181283333333, "type": "electric_scooter", "bike_id": "7fd9d85097db4d12e3ba19fe607fc7a0", "fusion_lon": 0.0, "lat": 38.90685333333333, "fusion_lat": 0.0}, {"is_disabled": 0, "rental_uris": {"android": "https://dc.lft.to/lastmile_qr_scan", "ios": "https://dc.lft.to/lastmile_qr_scan"}, "is_reserved": 0, "name": "3fc00212a203f87b0e02bac8a37187e3", "lon": -76.987124, "type": "electric_scooter", "bike_id": "3fc00212a203f87b0e02bac8a37187e3", "fusion_lon": 0.0, "lat": 38.8669965, "fusion_lat": 0.0}, {"is_disabled": 0, "rental_uris": {"android": "https://dc.lft.to/lastmile_qr_scan", "ios": "https://dc.lft.to/lastmile_qr_scan"}, "is_reserved": 0, "name": "681fc0899b85c99da6a376248a3082f3", "lon": -77.0033425, "type": "electric_scooter", "bike_id": "681fc0899b85c99da6a376248a3082f3", "fusion_lon": 0.0, "lat": 38.89366416666667, "fusion_lat": 0.0}, {"is_disabled": 0, "rental_uris": {"android": "https://dc.lft.to/lastmile_qr_scan", "ios": "https://dc.lft.to/lastmile_qr_scan"}, "is_reserved": 0, "name": "3807954e5ff57d733aaa096872e81350", "lon": -77.043926, "type": "electric_scooter", "bike_id": "3807954e5ff57d733aaa096872e81350", "fusion_lon": 0.0, "lat": 38.922825, "fusion_lat": 0.0}, {"is_disabled": 0, "rental_uris": {"android": "https://dc.lft.to/lastmile_qr_scan", "ios": "https://dc.lft.to/lastmile_qr_scan"}, "is_reserved": 0, "name": "d5fb71fa3a8c87983f18214fc41706f1", "lon": -77.02265266666667, "type": "electric_scooter", "bike_id": "d5fb71fa3a8c87983f18214fc41706f1", "fusion_lon": 0.0, "lat": 38.92739816666667, "fusion_lat": 0.0}, {"is_disabled": 0, "rental_uris": {"android": "https://dc.lft.to/lastmile_qr_scan", "ios": "https://dc.lft.to/lastmile_qr_scan"}, "is_reserved": 0, "name": "888b1398002700931eefbbabe5c63385", "lon": -77.0022345, "type": "electric_bike", "bike_id": "888b1398002700931eefbbabe5c63385", "fusion_lon": 0.0, "lat": 38.957476666666665, "fusion_lat": 0.0}, {"is_disabled": 0, "rental_uris": {"android": "https://dc.lft.to/lastmile_qr_scan", "ios": "https://dc.lft.to/lastmile_qr_scan"}, "is_reserved": 0, "name": "41da920f8b2d81b5201107c34e862653", "lon": -77.041591, "type": "electric_scooter", "bike_id": "41da920f8b2d81b5201107c34e862653", "fusion_lon": 0.0, "lat": 38.910309833333336, "fusion_lat": 0.0}, {"is_disabled": 0, "rental_uris": {"android": "https://dc.lft.to/lastmile_qr_scan", "ios": "https://dc.lft.to/lastmile_qr_scan"}, "is_reserved": 0, "name": "21d0e981406455f8bdcab9c9c3029f85", "lon": -77.00349683333333, "type": "electric_scooter", "bike_id": "21d0e981406455f8bdcab9c9c3029f85", "fusion_lon": 0.0, "lat": 38.89909733333333, "fusion_lat": 0.0}, {"is_disabled": 0, "rental_uris": {"android": "https://dc.lft.to/lastmile_qr_scan", "ios": "https://dc.lft.to/lastmile_qr_scan"}, "is_reserved": 0, "name": "1b160962545c0cdbafe9f15569718c58", "lon": -77.03038016666666, "type": "electric_bike", "bike_id": "1b160962545c0cdbafe9f15569718c58", "fusion_lon": 0.0, "lat": 38.884131333333336, "fusion_lat": 0.0}, {"is_disabled": 0, "rental_uris": {"android": "https://dc.lft.to/lastmile_qr_scan", "ios": "https://dc.lft.to/lastmile_qr_scan"}, "is_reserved": 0, "name": "52dfa84fceb7892ad35b99e0b825bcaf", "lon": -76.9780465, "type": "electric_scooter", "bike_id": "52dfa84fceb7892ad35b99e0b825bcaf", "fusion_lon": 0.0, "lat": 38.92058566666667, "fusion_lat": 0.0}, {"is_disabled": 0, "rental_uris": {"android": "https://dc.lft.to/lastmile_qr_scan", "ios": "https://dc.lft.to/lastmile_qr_scan"}, "is_reserved": 0, "name": "720993c6710c60fbbe8a6dc2eed0661d", "lon": -77.04426883333333, "type": "electric_scooter", "bike_id": "720993c6710c60fbbe8a6dc2eed0661d", "fusion_lon": 0.0, "lat": 38.90569966666666, "fusion_lat": 0.0}, {"is_disabled": 0, "rental_uris": {"android": "https://dc.lft.to/lastmile_qr_scan", "ios": "https://dc.lft.to/lastmile_qr_scan"}, "is_reserved": 0, "name": "a4c285ca6ae911bb391d38b5cdcd115e", "lon": -77.020192, "type": "electric_scooter", "bike_id": "a4c285ca6ae911bb391d38b5cdcd115e", "fusion_lon": 0.0, "lat": 38.883215666666665, "fusion_lat": 0.0}, {"is_disabled": 0, "rental_uris": {"android": "https://dc.lft.to/lastmile_qr_scan", "ios": "https://dc.lft.to/lastmile_qr_scan"}, "is_reserved": 0, "name": "38fd7d2cb869c7b615f569277c893f29", "lon": -76.96711916666666, "type": "electric_scooter", "bike_id": "38fd7d2cb869c7b615f569277c893f29", "fusion_lon": 0.0, "lat": 38.847989, "fusion_lat": 0.0}, {"is_disabled": 0, "rental_uris": {"android": "https://dc.lft.to/lastmile_qr_scan", "ios": "https://dc.lft.to/lastmile_qr_scan"}, "is_reserved": 0, "name": "593d2626e2703e61f390dbc813e1ed8e", "lon": -77.03492466666667, "type": "electric_scooter", "bike_id": "593d2626e2703e61f390dbc813e1ed8e", "fusion_lon": 0.0, "lat": 38.921521, "fusion_lat": 0.0}, {"is_disabled": 0, "rental_uris": {"android": "https://dc.lft.to/lastmile_qr_scan", "ios": "https://dc.lft.to/lastmile_qr_scan"}, "is_reserved": 0, "name": "edcdb0d59c0fe756e005afa9f62b7174", "lon": -76.98010033333334, "type": "electric_scooter", "bike_id": "edcdb0d59c0fe756e005afa9f62b7174", "fusion_lon": 0.0, "lat": 38.90683416666667, "fusion_lat": 0.0}, {"is_disabled": 0, "rental_uris": {"android": "https://dc.lft.to/lastmile_qr_scan", "ios": "https://dc.lft.to/lastmile_qr_scan"}, "is_reserved": 0, "name": "9440131ce3e4b5399e2b2c50e99e6402", "lon": -77.04269116666667, "type": "electric_scooter", "bike_id": "9440131ce3e4b5399e2b2c50e99e6402", "fusion_lon": 0.0, "lat": 38.910529, "fusion_lat": 0.0}, {"is_disabled": 0, "rental_uris": {"android": "https://dc.lft.to/lastmile_qr_scan", "ios": "https://dc.lft.to/lastmile_qr_scan"}, "is_reserved": 0, "name": "577da8d08bfc9ec7190e47dadb1f77b6", "lon": -76.99898916666666, "type": "electric_scooter", "bike_id": "577da8d08bfc9ec7190e47dadb1f77b6", "fusion_lon": 0.0, "lat": 38.89207533333333, "fusion_lat": 0.0}, {"is_disabled": 0, "rental_uris": {"android": "https://dc.lft.to/lastmile_qr_scan", "ios": "https://dc.lft.to/lastmile_qr_scan"}, "is_reserved": 0, "name": "2cdcd45f306a8f45ff844e176ab3a233", "lon": -77.04155383333334, "type": "electric_scooter", "bike_id": "2cdcd45f306a8f45ff844e176ab3a233", "fusion_lon": 0.0, "lat": 38.905392166666665, "fusion_lat": 0.0}, {"is_disabled": 0, "rental_uris": {"android": "https://dc.lft.to/lastmile_qr_scan", "ios": "https://dc.lft.to/lastmile_qr_scan"}, "is_reserved": 0, "name": "d0ce146ccf921a7ea634cadbb9ee73e5", "lon": -77.02320216666666, "type": "electric_scooter", "bike_id": "d0ce146ccf921a7ea634cadbb9ee73e5", "fusion_lon": 0.0, "lat": 38.87884433333333, "fusion_lat": 0.0}, {"is_disabled": 0, "rental_uris": {"android": "https://dc.lft.to/lastmile_qr_scan", "ios": "https://dc.lft.to/lastmile_qr_scan"}, "is_reserved": 0, "name": "ba03017972a51ef5d81a95847fd1f0b6", "lon": -77.0338105, "type": "electric_scooter", "bike_id": "ba03017972a51ef5d81a95847fd1f0b6", "fusion_lon": 0.0, "lat": 38.902688833333336, "fusion_lat": 0.0}, {"is_disabled": 0, "rental_uris": {"android": "https://dc.lft.to/lastmile_qr_scan", "ios": "https://dc.lft.to/lastmile_qr_scan"}, "is_reserved": 0, "name": "8d54b7941aa64d68e8aaa361116d2799", "lon": -76.998623, "type": "electric_scooter", "bike_id": "8d54b7941aa64d68e8aaa361116d2799", "fusion_lon": 0.0, "lat": 38.900316, "fusion_lat": 0.0}, {"is_disabled": 0, "rental_uris": {"android": "https://dc.lft.to/lastmile_qr_scan", "ios": "https://dc.lft.to/lastmile_qr_scan"}, "is_reserved": 0, "name": "881c18f334f0d4c7f3781d334c1cd846", "lon": -77.03497466666667, "type": "electric_scooter", "bike_id": "881c18f334f0d4c7f3781d334c1cd846", "fusion_lon": 0.0, "lat": 38.923378166666666, "fusion_lat": 0.0}, {"is_disabled": 0, "rental_uris": {"android": "https://dc.lft.to/lastmile_qr_scan", "ios": "https://dc.lft.to/lastmile_qr_scan"}, "is_reserved": 0, "name": "8843dda79324fa5c244b01193cf10015", "lon": -77.01599283333333, "type": "electric_scooter", "bike_id": "8843dda79324fa5c244b01193cf10015", "fusion_lon": 0.0, "lat": 38.88495483333333, "fusion_lat": 0.0}, {"is_disabled": 0, "rental_uris": {"android": "https://dc.lft.to/lastmile_qr_scan", "ios": "https://dc.lft.to/lastmile_qr_scan"}, "is_reserved": 0, "name": "1bec70b76491a69f73c249713e2f33de", "lon": -77.01124916666667, "type": "electric_scooter", "bike_id": "1bec70b76491a69f73c249713e2f33de", "fusion_lon": 0.0, "lat": 38.89720033333333, "fusion_lat": 0.0}, {"is_disabled": 0, "rental_uris": {"android": "https://dc.lft.to/lastmile_qr_scan", "ios": "https://dc.lft.to/lastmile_qr_scan"}, "is_reserved": 0, "name": "d65d8a5f6e5c854d4734f5aee0389fae", "lon": -77.01580866666667, "type": "electric_scooter", "bike_id": "d65d8a5f6e5c854d4734f5aee0389fae", "fusion_lon": 0.0, "lat": 38.87655433333333, "fusion_lat": 0.0}, {"is_disabled": 0, "rental_uris": {"android": "https://dc.lft.to/lastmile_qr_scan", "ios": "https://dc.lft.to/lastmile_qr_scan"}, "is_reserved": 0, "name": "57f342c996350cf8c8ad68181ee53a88", "lon": -77.059728, "type": "electric_scooter", "bike_id": "57f342c996350cf8c8ad68181ee53a88", "fusion_lon": 0.0, "lat": 38.905264, "fusion_lat": 0.0}, {"is_disabled": 0, "rental_uris": {"android": "https://dc.lft.to/lastmile_qr_scan", "ios": "https://dc.lft.to/lastmile_qr_scan"}, "is_reserved": 0, "name": "64662e3da1b7b532478f34832b16045e", "lon": -77.02369983333334, "type": "electric_scooter", "bike_id": "64662e3da1b7b532478f34832b16045e", "fusion_lon": 0.0, "lat": 38.8876775, "fusion_lat": 0.0}, {"is_disabled": 0, "rental_uris": {"android": "https://dc.lft.to/lastmile_qr_scan", "ios": "https://dc.lft.to/lastmile_qr_scan"}, "is_reserved": 0, "name": "0e3a0a5f8e119c01d078c698f4d4072c", "lon": -77.03438166666666, "type": "electric_scooter", "bike_id": "0e3a0a5f8e119c01d078c698f4d4072c", "fusion_lon": 0.0, "lat": 38.9073085, "fusion_lat": 0.0}, {"is_disabled": 0, "rental_uris": {"android": "https://dc.lft.to/lastmile_qr_scan", "ios": "https://dc.lft.to/lastmile_qr_scan"}, "is_reserved": 0, "name": "c5adb8dee22bb75bd681c31795cfc1a6", "lon": -77.0284865, "type": "electric_scooter", "bike_id": "c5adb8dee22bb75bd681c31795cfc1a6", "fusion_lon": 0.0, "lat": 38.93422266666666, "fusion_lat": 0.0}, {"is_disabled": 0, "rental_uris": {"android": "https://dc.lft.to/lastmile_qr_scan", "ios": "https://dc.lft.to/lastmile_qr_scan"}, "is_reserved": 0, "name": "0e6e11b1574846f05012c75b1359ae6e", "lon": -77.012607, "type": "electric_scooter", "bike_id": "0e6e11b1574846f05012c75b1359ae6e", "fusion_lon": 0.0, "lat": 38.87631733333333, "fusion_lat": 0.0}, {"is_disabled": 0, "rental_uris": {"android": "https://dc.lft.to/lastmile_qr_scan", "ios": "https://dc.lft.to/lastmile_qr_scan"}, "is_reserved": 0, "name": "c9f8b21798778f8e1edad2d2816ae5c8", "lon": -77.03963666666667, "type": "electric_scooter", "bike_id": "c9f8b21798778f8e1edad2d2816ae5c8", "fusion_lon": 0.0, "lat": 38.93148433333333, "fusion_lat": 0.0}, {"is_disabled": 0, "rental_uris": {"android": "https://dc.lft.to/lastmile_qr_scan", "ios": "https://dc.lft.to/lastmile_qr_scan"}, "is_reserved": 0, "name": "0bbc108a8db39f0810b5b32204114db7", "lon": -77.01754983333333, "type": "electric_scooter", "bike_id": "0bbc108a8db39f0810b5b32204114db7", "fusion_lon": 0.0, "lat": 38.876919666666666, "fusion_lat": 0.0}, {"is_disabled": 0, "rental_uris": {"android": "https://dc.lft.to/lastmile_qr_scan", "ios": "https://dc.lft.to/lastmile_qr_scan"}, "is_reserved": 0, "name": "0193c9b092028c0019f5772efdaecdc0", "lon": -76.9341205, "type": "electric_bike", "bike_id": "0193c9b092028c0019f5772efdaecdc0", "fusion_lon": 0.0, "lat": 38.946241666666666, "fusion_lat": 0.0}, {"is_disabled": 0, "rental_uris": {"android": "https://dc.lft.to/lastmile_qr_scan", "ios": "https://dc.lft.to/lastmile_qr_scan"}, "is_reserved": 0, "name": "2600a3974ac6fade11983c7bbcb5a98c", "lon": -77.03521416666666, "type": "electric_scooter", "bike_id": "2600a3974ac6fade11983c7bbcb5a98c", "fusion_lon": 0.0, "lat": 38.93587866666667, "fusion_lat": 0.0}, {"is_disabled": 0, "rental_uris": {"android": "https://dc.lft.to/lastmile_qr_scan", "ios": "https://dc.lft.to/lastmile_qr_scan"}, "is_reserved": 0, "name": "d633d98882c23addfd4d5ba2072fc4ed", "lon": -77.02126233333334, "type": "electric_scooter", "bike_id": "d633d98882c23addfd4d5ba2072fc4ed", "fusion_lon": 0.0, "lat": 38.887411666666665, "fusion_lat": 0.0}, {"is_disabled": 0, "rental_uris": {"android": "https://dc.lft.to/lastmile_qr_scan", "ios": "https://dc.lft.to/lastmile_qr_scan"}, "is_reserved": 0, "name": "1e3fa6078463192076a4171bc379a459", "lon": -77.029206, "type": "electric_scooter", "bike_id": "1e3fa6078463192076a4171bc379a459", "fusion_lon": 0.0, "lat": 38.938766666666666, "fusion_lat": 0.0}, {"is_disabled": 0, "rental_uris": {"android": "https://dc.lft.to/lastmile_qr_scan", "ios": "https://dc.lft.to/lastmile_qr_scan"}, "is_reserved": 0, "name": "e864c37d4d6c70955a155a65b31225d1", "lon": -77.02523683333334, "type": "electric_scooter", "bike_id": "e864c37d4d6c70955a155a65b31225d1", "fusion_lon": 0.0, "lat": 38.90272083333333, "fusion_lat": 0.0}, {"is_disabled": 0, "rental_uris": {"android": "https://dc.lft.to/lastmile_qr_scan", "ios": "https://dc.lft.to/lastmile_qr_scan"}, "is_reserved": 0, "name": "60f334c74e767b100c0c0fca7d4bb8fd", "lon": -76.965367, "type": "electric_scooter", "bike_id": "60f334c74e767b100c0c0fca7d4bb8fd", "fusion_lon": 0.0, "lat": 38.918668333333336, "fusion_lat": 0.0}, {"is_disabled": 0, "rental_uris": {"android": "https://dc.lft.to/lastmile_qr_scan", "ios": "https://dc.lft.to/lastmile_qr_scan"}, "is_reserved": 0, "name": "623815783d00e7f0c6a1a8c5882091f5", "lon": -77.0329785, "type": "electric_scooter", "bike_id": "623815783d00e7f0c6a1a8c5882091f5", "fusion_lon": 0.0, "lat": 38.90983583333333, "fusion_lat": 0.0}, {"is_disabled": 0, "rental_uris": {"android": "https://dc.lft.to/lastmile_qr_scan", "ios": "https://dc.lft.to/lastmile_qr_scan"}, "is_reserved": 0, "name": "0cf7b201eca454fc755d4862c4958b09", "lon": -77.03053616666666, "type": "electric_scooter", "bike_id": "0cf7b201eca454fc755d4862c4958b09", "fusion_lon": 0.0, "lat": 38.89974083333333, "fusion_lat": 0.0}, {"is_disabled": 0, "rental_uris": {"android": "https://dc.lft.to/lastmile_qr_scan", "ios": "https://dc.lft.to/lastmile_qr_scan"}, "is_reserved": 0, "name": "590548809921a6479d807900c6c3265e", "lon": -77.00919166666667, "type": "electric_scooter", "bike_id": "590548809921a6479d807900c6c3265e", "fusion_lon": 0.0, "lat": 38.895596, "fusion_lat": 0.0}, {"is_disabled": 0, "rental_uris": {"android": "https://dc.lft.to/lastmile_qr_scan", "ios": "https://dc.lft.to/lastmile_qr_scan"}, "is_reserved": 0, "name": "46ab3a5539385b3f55ed8b392b03821e", "lon": -77.00583133333333, "type": "electric_scooter", "bike_id": "46ab3a5539385b3f55ed8b392b03821e", "fusion_lon": 0.0, "lat": 38.876482333333335, "fusion_lat": 0.0}, {"is_disabled": 0, "rental_uris": {"android": "https://dc.lft.to/lastmile_qr_scan", "ios": "https://dc.lft.to/lastmile_qr_scan"}, "is_reserved": 0, "name": "c6c182a4a11cd9644c6d6e2c8153363f", "lon": -76.933719, "type": "electric_scooter", "bike_id": "c6c182a4a11cd9644c6d6e2c8153363f", "fusion_lon": 0.0, "lat": 38.899232833333336, "fusion_lat": 0.0}, {"is_disabled": 0, "rental_uris": {"android": "https://dc.lft.to/lastmile_qr_scan", "ios": "https://dc.lft.to/lastmile_qr_scan"}, "is_reserved": 0, "name": "af673aa2fc59b5df32111d195cf61e1f", "lon": -76.98336883333333, "type": "electric_bike", "bike_id": "af673aa2fc59b5df32111d195cf61e1f", "fusion_lon": 0.0, "lat": 38.96602383333333, "fusion_lat": 0.0}, {"is_disabled": 0, "rental_uris": {"android": "https://dc.lft.to/lastmile_qr_scan", "ios": "https://dc.lft.to/lastmile_qr_scan"}, "is_reserved": 0, "name": "c9eca11dcc152e2e4481c8d50876cb63", "lon": -77.04993633333333, "type": "electric_bike", "bike_id": "c9eca11dcc152e2e4481c8d50876cb63", "fusion_lon": 0.0, "lat": 38.901265333333335, "fusion_lat": 0.0}, {"is_disabled": 0, "rental_uris": {"android": "https://dc.lft.to/lastmile_qr_scan", "ios": "https://dc.lft.to/lastmile_qr_scan"}, "is_reserved": 0, "name": "d3916144db7e7f8587a87bfbb3f73374", "lon": -77.00795316666667, "type": "electric_scooter", "bike_id": "d3916144db7e7f8587a87bfbb3f73374", "fusion_lon": 0.0, "lat": 38.89719616666667, "fusion_lat": 0.0}, {"is_disabled": 0, "rental_uris": {"android": "https://dc.lft.to/lastmile_qr_scan", "ios": "https://dc.lft.to/lastmile_qr_scan"}, "is_reserved": 0, "name": "5973aa1b63d56048e42229e1c8a7349e", "lon": -77.02848116666667, "type": "electric_scooter", "bike_id": "5973aa1b63d56048e42229e1c8a7349e", "fusion_lon": 0.0, "lat": 38.92241666666666, "fusion_lat": 0.0}, {"is_disabled": 0, "rental_uris": {"android": "https://dc.lft.to/lastmile_qr_scan", "ios": "https://dc.lft.to/lastmile_qr_scan"}, "is_reserved": 0, "name": "19fc5e92b26784f520ca67d95c8f71c1", "lon": -77.0249645, "type": "electric_scooter", "bike_id": "19fc5e92b26784f520ca67d95c8f71c1", "fusion_lon": 0.0, "lat": 38.9180865, "fusion_lat": 0.0}, {"is_disabled": 0, "rental_uris": {"android": "https://dc.lft.to/lastmile_qr_scan", "ios": "https://dc.lft.to/lastmile_qr_scan"}, "is_reserved": 0, "name": "57c9cfb07291ec8ad2cd28fd8bee7a85", "lon": -76.9900215, "type": "electric_scooter", "bike_id": "57c9cfb07291ec8ad2cd28fd8bee7a85", "fusion_lon": 0.0, "lat": 38.865056833333334, "fusion_lat": 0.0}, {"is_disabled": 0, "rental_uris": {"android": "https://dc.lft.to/lastmile_qr_scan", "ios": "https://dc.lft.to/lastmile_qr_scan"}, "is_reserved": 0, "name": "999144b3ee7910c9e742345fb8ab4083", "lon": -77.025856, "type": "electric_scooter", "bike_id": "999144b3ee7910c9e742345fb8ab4083", "fusion_lon": 0.0, "lat": 38.920351333333336, "fusion_lat": 0.0}, {"is_disabled": 0, "rental_uris": {"android": "https://dc.lft.to/lastmile_qr_scan", "ios": "https://dc.lft.to/lastmile_qr_scan"}, "is_reserved": 0, "name": "c1e40757bb87fc1be020f850fd864583", "lon": -77.02916666666667, "type": "electric_scooter", "bike_id": "c1e40757bb87fc1be020f850fd864583", "fusion_lon": 0.0, "lat": 38.92482916666667, "fusion_lat": 0.0}, {"is_disabled": 0, "rental_uris": {"android": "https://dc.lft.to/lastmile_qr_scan", "ios": "https://dc.lft.to/lastmile_qr_scan"}, "is_reserved": 0, "name": "0e1007132a627fd42ff9aedbcdd2024f", "lon": -76.9519855, "type": "electric_bike", "bike_id": "0e1007132a627fd42ff9aedbcdd2024f", "fusion_lon": 0.0, "lat": 38.90684433333333, "fusion_lat": 0.0}, {"is_disabled": 0, "rental_uris": {"android": "https://dc.lft.to/lastmile_qr_scan", "ios": "https://dc.lft.to/lastmile_qr_scan"}, "is_reserved": 0, "name": "5ffb9b76a4b01d0540df77866fadc451", "lon": -76.987709, "type": "electric_scooter", "bike_id": "5ffb9b76a4b01d0540df77866fadc451", "fusion_lon": 0.0, "lat": 38.844525833333336, "fusion_lat": 0.0}, {"is_disabled": 0, "rental_uris": {"android": "https://dc.lft.to/lastmile_qr_scan", "ios": "https://dc.lft.to/lastmile_qr_scan"}, "is_reserved": 0, "name": "7f1f8ff8886e4ee215739c6a37eae6d6", "lon": -77.03212833333333, "type": "electric_scooter", "bike_id": "7f1f8ff8886e4ee215739c6a37eae6d6", "fusion_lon": 0.0, "lat": 38.925805833333335, "fusion_lat": 0.0}, {"is_disabled": 0, "rental_uris": {"android": "https://dc.lft.to/lastmile_qr_scan", "ios": "https://dc.lft.to/lastmile_qr_scan"}, "is_reserved": 0, "name": "bf5b309393e7f09ac7ac4305618f14f7", "lon": -77.05127383333334, "type": "electric_scooter", "bike_id": "bf5b309393e7f09ac7ac4305618f14f7", "fusion_lon": 0.0, "lat": 38.9066275, "fusion_lat": 0.0}, {"is_disabled": 0, "rental_uris": {"android": "https://dc.lft.to/lastmile_qr_scan", "ios": "https://dc.lft.to/lastmile_qr_scan"}, "is_reserved": 0, "name": "2f1bd791cc628d66228c4d9b2a576ab8", "lon": -77.0337275, "type": "electric_scooter", "bike_id": "2f1bd791cc628d66228c4d9b2a576ab8", "fusion_lon": 0.0, "lat": 38.90264066666667, "fusion_lat": 0.0}, {"is_disabled": 0, "rental_uris": {"android": "https://dc.lft.to/lastmile_qr_scan", "ios": "https://dc.lft.to/lastmile_qr_scan"}, "is_reserved": 0, "name": "f2b8bae0b17c5acfc5b9b5159db1a592", "lon": -77.0420065, "type": "electric_scooter", "bike_id": "f2b8bae0b17c5acfc5b9b5159db1a592", "fusion_lon": 0.0, "lat": 38.916740833333336, "fusion_lat": 0.0}, {"is_disabled": 0, "rental_uris": {"android": "https://dc.lft.to/lastmile_qr_scan", "ios": "https://dc.lft.to/lastmile_qr_scan"}, "is_reserved": 0, "name": "5484aa6191e21962a27eb665bf9d3562", "lon": -76.9846325, "type": "electric_scooter", "bike_id": "5484aa6191e21962a27eb665bf9d3562", "fusion_lon": 0.0, "lat": 38.893652833333334, "fusion_lat": 0.0}, {"is_disabled": 0, "rental_uris": {"android": "https://dc.lft.to/lastmile_qr_scan", "ios": "https://dc.lft.to/lastmile_qr_scan"}, "is_reserved": 0, "name": "b55f77c689000a4634e359beb3c3a1ef", "lon": -77.01202033333334, "type": "electric_scooter", "bike_id": "b55f77c689000a4634e359beb3c3a1ef", "fusion_lon": 0.0, "lat": 38.92742583333333, "fusion_lat": 0.0}, {"is_disabled": 0, "rental_uris": {"android": "https://dc.lft.to/lastmile_qr_scan", "ios": "https://dc.lft.to/lastmile_qr_scan"}, "is_reserved": 0, "name": "99cfdf350cfac18b48048d9a6f4aeb22", "lon": -77.029118, "type": "electric_scooter", "bike_id": "99cfdf350cfac18b48048d9a6f4aeb22", "fusion_lon": 0.0, "lat": 38.939693166666665, "fusion_lat": 0.0}, {"is_disabled": 0, "rental_uris": {"android": "https://dc.lft.to/lastmile_qr_scan", "ios": "https://dc.lft.to/lastmile_qr_scan"}, "is_reserved": 0, "name": "78b02256a527464fbbd04e9d488126d4", "lon": -77.03248716666667, "type": "electric_scooter", "bike_id": "78b02256a527464fbbd04e9d488126d4", "fusion_lon": 0.0, "lat": 38.909752833333336, "fusion_lat": 0.0}, {"is_disabled": 0, "rental_uris": {"android": "https://dc.lft.to/lastmile_qr_scan", "ios": "https://dc.lft.to/lastmile_qr_scan"}, "is_reserved": 0, "name": "e4b2bb400e6d21d642dc4dd7f2011208", "lon": -77.05463733333333, "type": "electric_scooter", "bike_id": "e4b2bb400e6d21d642dc4dd7f2011208", "fusion_lon": 0.0, "lat": 38.929017333333334, "fusion_lat": 0.0}, {"is_disabled": 0, "rental_uris": {"android": "https://dc.lft.to/lastmile_qr_scan", "ios": "https://dc.lft.to/lastmile_qr_scan"}, "is_reserved": 0, "name": "c2bc7ab7e0e828df9aeb87cf17e50b3a", "lon": -77.02318733333334, "type": "electric_scooter", "bike_id": "c2bc7ab7e0e828df9aeb87cf17e50b3a", "fusion_lon": 0.0, "lat": 38.917683333333336, "fusion_lat": 0.0}, {"is_disabled": 0, "rental_uris": {"android": "https://dc.lft.to/lastmile_qr_scan", "ios": "https://dc.lft.to/lastmile_qr_scan"}, "is_reserved": 0, "name": "16abacda895bdf5c43ce0d6901e93507", "lon": -76.93554933333333, "type": "electric_scooter", "bike_id": "16abacda895bdf5c43ce0d6901e93507", "fusion_lon": 0.0, "lat": 38.90156183333333, "fusion_lat": 0.0}, {"is_disabled": 0, "rental_uris": {"android": "https://dc.lft.to/lastmile_qr_scan", "ios": "https://dc.lft.to/lastmile_qr_scan"}, "is_reserved": 0, "name": "bea949af58758f0e4e283e99ee060582", "lon": -77.04344216666667, "type": "electric_scooter", "bike_id": "bea949af58758f0e4e283e99ee060582", "fusion_lon": 0.0, "lat": 38.910630833333336, "fusion_lat": 0.0}, {"is_disabled": 0, "rental_uris": {"android": "https://dc.lft.to/lastmile_qr_scan", "ios": "https://dc.lft.to/lastmile_qr_scan"}, "is_reserved": 0, "name": "9d4d4d35c38b36d01d42fff57d8c4de7", "lon": -77.0578075, "type": "electric_scooter", "bike_id": "9d4d4d35c38b36d01d42fff57d8c4de7", "fusion_lon": 0.0, "lat": 38.905111, "fusion_lat": 0.0}, {"is_disabled": 0, "rental_uris": {"android": "https://dc.lft.to/lastmile_qr_scan", "ios": "https://dc.lft.to/lastmile_qr_scan"}, "is_reserved": 0, "name": "51899662aac375676de71cc0bbde34a2", "lon": -77.03786933333333, "type": "electric_scooter", "bike_id": "51899662aac375676de71cc0bbde34a2", "fusion_lon": 0.0, "lat": 38.9302245, "fusion_lat": 0.0}, {"is_disabled": 0, "rental_uris": {"android": "https://dc.lft.to/lastmile_qr_scan", "ios": "https://dc.lft.to/lastmile_qr_scan"}, "is_reserved": 0, "name": "7e10e1cfb1a4a31722b9d23b6099573b", "lon": -77.03213816666667, "type": "electric_scooter", "bike_id": "7e10e1cfb1a4a31722b9d23b6099573b", "fusion_lon": 0.0, "lat": 38.93619666666667, "fusion_lat": 0.0}, {"is_disabled": 0, "rental_uris": {"android": "https://dc.lft.to/lastmile_qr_scan", "ios": "https://dc.lft.to/lastmile_qr_scan"}, "is_reserved": 0, "name": "91075c1ab004cd8fd5f7acd699446443", "lon": -77.03854116666666, "type": "electric_scooter", "bike_id": "91075c1ab004cd8fd5f7acd699446443", "fusion_lon": 0.0, "lat": 38.906607, "fusion_lat": 0.0}, {"is_disabled": 0, "rental_uris": {"android": "https://dc.lft.to/lastmile_qr_scan", "ios": "https://dc.lft.to/lastmile_qr_scan"}, "is_reserved": 0, "name": "b384834d9544ab3e81a814da472138d5", "lon": -76.9945335, "type": "electric_scooter", "bike_id": "b384834d9544ab3e81a814da472138d5", "fusion_lon": 0.0, "lat": 38.9229125, "fusion_lat": 0.0}, {"is_disabled": 0, "rental_uris": {"android": "https://dc.lft.to/lastmile_qr_scan", "ios": "https://dc.lft.to/lastmile_qr_scan"}, "is_reserved": 0, "name": "7673042ed082140e86da0a36596a432a", "lon": -77.0410985, "type": "electric_scooter", "bike_id": "7673042ed082140e86da0a36596a432a", "fusion_lon": 0.0, "lat": 38.924448166666664, "fusion_lat": 0.0}, {"is_disabled": 0, "rental_uris": {"android": "https://dc.lft.to/lastmile_qr_scan", "ios": "https://dc.lft.to/lastmile_qr_scan"}, "is_reserved": 0, "name": "ca9c9f7fb5af802e03409ea4c2bee6a5", "lon": -77.047898, "type": "electric_scooter", "bike_id": "ca9c9f7fb5af802e03409ea4c2bee6a5", "fusion_lon": 0.0, "lat": 38.89373783333333, "fusion_lat": 0.0}, {"is_disabled": 0, "rental_uris": {"android": "https://dc.lft.to/lastmile_qr_scan", "ios": "https://dc.lft.to/lastmile_qr_scan"}, "is_reserved": 0, "name": "149d072efc95bdd9fe77328f7a3aeb38", "lon": -77.04170633333334, "type": "electric_scooter", "bike_id": "149d072efc95bdd9fe77328f7a3aeb38", "fusion_lon": 0.0, "lat": 38.90850433333333, "fusion_lat": 0.0}, {"is_disabled": 0, "rental_uris": {"android": "https://dc.lft.to/lastmile_qr_scan", "ios": "https://dc.lft.to/lastmile_qr_scan"}, "is_reserved": 0, "name": "23ed2adc041fb8929ad0b37ebe75140b", "lon": -77.04476966666667, "type": "electric_scooter", "bike_id": "23ed2adc041fb8929ad0b37ebe75140b", "fusion_lon": 0.0, "lat": 38.924274, "fusion_lat": 0.0}, {"is_disabled": 0, "rental_uris": {"android": "https://dc.lft.to/lastmile_qr_scan", "ios": "https://dc.lft.to/lastmile_qr_scan"}, "is_reserved": 0, "name": "f29fa7df7d71be6d37eaf35e9e2ec8ef", "lon": -77.0727475, "type": "electric_scooter", "bike_id": "f29fa7df7d71be6d37eaf35e9e2ec8ef", "fusion_lon": 0.0, "lat": 38.93471133333333, "fusion_lat": 0.0}, {"is_disabled": 0, "rental_uris": {"android": "https://dc.lft.to/lastmile_qr_scan", "ios": "https://dc.lft.to/lastmile_qr_scan"}, "is_reserved": 0, "name": "9fab31e995e0b93b43bb8f4d1ab37b48", "lon": -77.0293635, "type": "electric_scooter", "bike_id": "9fab31e995e0b93b43bb8f4d1ab37b48", "fusion_lon": 0.0, "lat": 38.89545866666667, "fusion_lat": 0.0}, {"is_disabled": 0, "rental_uris": {"android": "https://dc.lft.to/lastmile_qr_scan", "ios": "https://dc.lft.to/lastmile_qr_scan"}, "is_reserved": 0, "name": "99e1bca7c49ec4479f3a177f1b5602d5", "lon": -76.9916105, "type": "electric_scooter", "bike_id": "99e1bca7c49ec4479f3a177f1b5602d5", "fusion_lon": 0.0, "lat": 38.8976845, "fusion_lat": 0.0}, {"is_disabled": 0, "rental_uris": {"android": "https://dc.lft.to/lastmile_qr_scan", "ios": "https://dc.lft.to/lastmile_qr_scan"}, "is_reserved": 0, "name": "2965fad122dcbeac1e462a6834a9de28", "lon": -76.93753866666667, "type": "electric_scooter", "bike_id": "2965fad122dcbeac1e462a6834a9de28", "fusion_lon": 0.0, "lat": 38.89035033333333, "fusion_lat": 0.0}, {"is_disabled": 0, "rental_uris": {"android": "https://dc.lft.to/lastmile_qr_scan", "ios": "https://dc.lft.to/lastmile_qr_scan"}, "is_reserved": 0, "name": "cb03465028e07a46b2ef3d113361f5b6", "lon": -77.03810366666667, "type": "electric_scooter", "bike_id": "cb03465028e07a46b2ef3d113361f5b6", "fusion_lon": 0.0, "lat": 38.909724, "fusion_lat": 0.0}, {"is_disabled": 0, "rental_uris": {"android": "https://dc.lft.to/lastmile_qr_scan", "ios": "https://dc.lft.to/lastmile_qr_scan"}, "is_reserved": 0, "name": "c976b1a15477b466f688f0ff82703768", "lon": -77.01756033333334, "type": "electric_scooter", "bike_id": "c976b1a15477b466f688f0ff82703768", "fusion_lon": 0.0, "lat": 38.9210875, "fusion_lat": 0.0}, {"is_disabled": 0, "rental_uris": {"android": "https://dc.lft.to/lastmile_qr_scan", "ios": "https://dc.lft.to/lastmile_qr_scan"}, "is_reserved": 0, "name": "a6346f2375c5f29f795793f9e180860f", "lon": -77.0398035, "type": "electric_scooter", "bike_id": "a6346f2375c5f29f795793f9e180860f", "fusion_lon": 0.0, "lat": 38.902626, "fusion_lat": 0.0}, {"is_disabled": 0, "rental_uris": {"android": "https://dc.lft.to/lastmile_qr_scan", "ios": "https://dc.lft.to/lastmile_qr_scan"}, "is_reserved": 0, "name": "d75f0858b435d79dbd5c43705cf3e20a", "lon": -77.02947083333333, "type": "electric_scooter", "bike_id": "d75f0858b435d79dbd5c43705cf3e20a", "fusion_lon": 0.0, "lat": 38.90496666666667, "fusion_lat": 0.0}, {"is_disabled": 0, "rental_uris": {"android": "https://dc.lft.to/lastmile_qr_scan", "ios": "https://dc.lft.to/lastmile_qr_scan"}, "is_reserved": 0, "name": "e91de4ee47e6921f6337feeafee8523b", "lon": -77.02812166666666, "type": "electric_scooter", "bike_id": "e91de4ee47e6921f6337feeafee8523b", "fusion_lon": 0.0, "lat": 38.897327833333335, "fusion_lat": 0.0}, {"is_disabled": 0, "rental_uris": {"android": "https://dc.lft.to/lastmile_qr_scan", "ios": "https://dc.lft.to/lastmile_qr_scan"}, "is_reserved": 0, "name": "d83cf40d1664030a7b047f9c9486c8ee", "lon": -77.042083, "type": "electric_scooter", "bike_id": "d83cf40d1664030a7b047f9c9486c8ee", "fusion_lon": 0.0, "lat": 38.90909966666667, "fusion_lat": 0.0}, {"is_disabled": 0, "rental_uris": {"android": "https://dc.lft.to/lastmile_qr_scan", "ios": "https://dc.lft.to/lastmile_qr_scan"}, "is_reserved": 0, "name": "3189b15062715b1b560ede1f41d737b8", "lon": -77.07316266666666, "type": "electric_scooter", "bike_id": "3189b15062715b1b560ede1f41d737b8", "fusion_lon": 0.0, "lat": 38.9227175, "fusion_lat": 0.0}, {"is_disabled": 0, "rental_uris": {"android": "https://dc.lft.to/lastmile_qr_scan", "ios": "https://dc.lft.to/lastmile_qr_scan"}, "is_reserved": 0, "name": "6d6f2407955479d475e0626a4512a861", "lon": -77.0434575, "type": "electric_scooter", "bike_id": "6d6f2407955479d475e0626a4512a861", "fusion_lon": 0.0, "lat": 38.9034635, "fusion_lat": 0.0}, {"is_disabled": 0, "rental_uris": {"android": "https://dc.lft.to/lastmile_qr_scan", "ios": "https://dc.lft.to/lastmile_qr_scan"}, "is_reserved": 0, "name": "8e6c357a06e4818e2d0407f058ec6ac9", "lon": -77.0201125, "type": "electric_scooter", "bike_id": "8e6c357a06e4818e2d0407f058ec6ac9", "fusion_lon": 0.0, "lat": 38.8956485, "fusion_lat": 0.0}, {"is_disabled": 0, "rental_uris": {"android": "https://dc.lft.to/lastmile_qr_scan", "ios": "https://dc.lft.to/lastmile_qr_scan"}, "is_reserved": 0, "name": "b10cae22abea5d6d8e40596cc518bb76", "lon": -76.87497183333333, "type": "electric_bike", "bike_id": "b10cae22abea5d6d8e40596cc518bb76", "fusion_lon": 0.0, "lat": 38.99090066666667, "fusion_lat": 0.0}, {"is_disabled": 0, "rental_uris": {"android": "https://dc.lft.to/lastmile_qr_scan", "ios": "https://dc.lft.to/lastmile_qr_scan"}, "is_reserved": 0, "name": "1aeed1675d39ed55121a055c72eee71e", "lon": -77.11218316666667, "type": "electric_bike", "bike_id": "1aeed1675d39ed55121a055c72eee71e", "fusion_lon": 0.0, "lat": 38.828768333333336, "fusion_lat": 0.0}, {"is_disabled": 0, "rental_uris": {"android": "https://dc.lft.to/lastmile_qr_scan", "ios": "https://dc.lft.to/lastmile_qr_scan"}, "is_reserved": 0, "name": "b3e0cb1972fa287f50fa91b148e35cb6", "lon": -77.02845983333333, "type": "electric_scooter", "bike_id": "b3e0cb1972fa287f50fa91b148e35cb6", "fusion_lon": 0.0, "lat": 38.90151866666667, "fusion_lat": 0.0}, {"is_disabled": 0, "rental_uris": {"android": "https://dc.lft.to/lastmile_qr_scan", "ios": "https://dc.lft.to/lastmile_qr_scan"}, "is_reserved": 0, "name": "6ad42896790ba6fad34a7265437cdbf8", "lon": -77.03184933333333, "type": "electric_scooter", "bike_id": "6ad42896790ba6fad34a7265437cdbf8", "fusion_lon": 0.0, "lat": 38.89225316666667, "fusion_lat": 0.0}, {"is_disabled": 0, "rental_uris": {"android": "https://dc.lft.to/lastmile_qr_scan", "ios": "https://dc.lft.to/lastmile_qr_scan"}, "is_reserved": 0, "name": "116d94c6a9365d17b0d03565c02e7350", "lon": -77.02227133333334, "type": "electric_scooter", "bike_id": "116d94c6a9365d17b0d03565c02e7350", "fusion_lon": 0.0, "lat": 38.89222266666667, "fusion_lat": 0.0}, {"is_disabled": 0, "rental_uris": {"android": "https://dc.lft.to/lastmile_qr_scan", "ios": "https://dc.lft.to/lastmile_qr_scan"}, "is_reserved": 0, "name": "fcc001299558810f40754637587afede", "lon": -77.039503, "type": "electric_scooter", "bike_id": "fcc001299558810f40754637587afede", "fusion_lon": 0.0, "lat": 38.91407916666667, "fusion_lat": 0.0}, {"is_disabled": 0, "rental_uris": {"android": "https://dc.lft.to/lastmile_qr_scan", "ios": "https://dc.lft.to/lastmile_qr_scan"}, "is_reserved": 0, "name": "93e469f1a9fff53b600b007c8fbcc283", "lon": -77.023609, "type": "electric_scooter", "bike_id": "93e469f1a9fff53b600b007c8fbcc283", "fusion_lon": 0.0, "lat": 38.925178, "fusion_lat": 0.0}, {"is_disabled": 0, "rental_uris": {"android": "https://dc.lft.to/lastmile_qr_scan", "ios": "https://dc.lft.to/lastmile_qr_scan"}, "is_reserved": 0, "name": "13afe706eb99ebd3bc081420a327810a", "lon": -77.00656933333333, "type": "electric_scooter", "bike_id": "13afe706eb99ebd3bc081420a327810a", "fusion_lon": 0.0, "lat": 38.94465833333334, "fusion_lat": 0.0}, {"is_disabled": 0, "rental_uris": {"android": "https://dc.lft.to/lastmile_qr_scan", "ios": "https://dc.lft.to/lastmile_qr_scan"}, "is_reserved": 0, "name": "e2c8cdc80b6e0cd55dea5301f287b467", "lon": -77.03666033333333, "type": "electric_scooter", "bike_id": "e2c8cdc80b6e0cd55dea5301f287b467", "fusion_lon": 0.0, "lat": 38.923324, "fusion_lat": 0.0}, {"is_disabled": 0, "rental_uris": {"android": "https://dc.lft.to/lastmile_qr_scan", "ios": "https://dc.lft.to/lastmile_qr_scan"}, "is_reserved": 0, "name": "1ccb3d9d42f8c0107d1f81f8e452c5b8", "lon": -77.02904266666667, "type": "electric_bike", "bike_id": "1ccb3d9d42f8c0107d1f81f8e452c5b8", "fusion_lon": 0.0, "lat": 38.998373, "fusion_lat": 0.0}, {"is_disabled": 0, "rental_uris": {"android": "https://dc.lft.to/lastmile_qr_scan", "ios": "https://dc.lft.to/lastmile_qr_scan"}, "is_reserved": 0, "name": "1e808fb695f97bf2605939de844fc476", "lon": -77.00565383333333, "type": "electric_scooter", "bike_id": "1e808fb695f97bf2605939de844fc476", "fusion_lon": 0.0, "lat": 38.8850215, "fusion_lat": 0.0}, {"is_disabled": 0, "rental_uris": {"android": "https://dc.lft.to/lastmile_qr_scan", "ios": "https://dc.lft.to/lastmile_qr_scan"}, "is_reserved": 0, "name": "9f1555934f9f79f5979d7e5654da034e", "lon": -77.22937566666667, "type": "electric_bike", "bike_id": "9f1555934f9f79f5979d7e5654da034e", "fusion_lon": 0.0, "lat": 38.93190933333333, "fusion_lat": 0.0}, {"is_disabled": 0, "rental_uris": {"android": "https://dc.lft.to/lastmile_qr_scan", "ios": "https://dc.lft.to/lastmile_qr_scan"}, "is_reserved": 0, "name": "e112cea6b7dd6a8d5edb2c8cad216bc1", "lon": -76.93182883333333, "type": "electric_scooter", "bike_id": "e112cea6b7dd6a8d5edb2c8cad216bc1", "fusion_lon": 0.0, "lat": 38.89876566666667, "fusion_lat": 0.0}, {"is_disabled": 0, "rental_uris": {"android": "https://dc.lft.to/lastmile_qr_scan", "ios": "https://dc.lft.to/lastmile_qr_scan"}, "is_reserved": 0, "name": "b819e12576dc6ac9cd4038589c6763a6", "lon": -77.03605866666666, "type": "electric_scooter", "bike_id": "b819e12576dc6ac9cd4038589c6763a6", "fusion_lon": 0.0, "lat": 38.934939166666666, "fusion_lat": 0.0}, {"is_disabled": 0, "rental_uris": {"android": "https://dc.lft.to/lastmile_qr_scan", "ios": "https://dc.lft.to/lastmile_qr_scan"}, "is_reserved": 0, "name": "56d2fd029a99617fc42b3323bf0369d4", "lon": -77.04338233333333, "type": "electric_scooter", "bike_id": "56d2fd029a99617fc42b3323bf0369d4", "fusion_lon": 0.0, "lat": 38.906163666666664, "fusion_lat": 0.0}, {"is_disabled": 0, "rental_uris": {"android": "https://dc.lft.to/lastmile_qr_scan", "ios": "https://dc.lft.to/lastmile_qr_scan"}, "is_reserved": 0, "name": "95f7d7de150d469d26b646e5e2433bc1", "lon": -77.02573833333334, "type": "electric_scooter", "bike_id": "95f7d7de150d469d26b646e5e2433bc1", "fusion_lon": 0.0, "lat": 38.89506766666667, "fusion_lat": 0.0}, {"is_disabled": 0, "rental_uris": {"android": "https://dc.lft.to/lastmile_qr_scan", "ios": "https://dc.lft.to/lastmile_qr_scan"}, "is_reserved": 0, "name": "e4afb0e913b726f05522f0c07443f935", "lon": -76.91658516666666, "type": "electric_bike", "bike_id": "e4afb0e913b726f05522f0c07443f935", "fusion_lon": 0.0, "lat": 38.8686025, "fusion_lat": 0.0}, {"is_disabled": 0, "rental_uris": {"android": "https://dc.lft.to/lastmile_qr_scan", "ios": "https://dc.lft.to/lastmile_qr_scan"}, "is_reserved": 0, "name": "43fb778b284231de89e10f822772b807", "lon": -77.122681, "type": "electric_bike", "bike_id": "43fb778b284231de89e10f822772b807", "fusion_lon": 0.0, "lat": 38.897344833333335, "fusion_lat": 0.0}, {"is_disabled": 0, "rental_uris": {"android": "https://dc.lft.to/lastmile_qr_scan", "ios": "https://dc.lft.to/lastmile_qr_scan"}, "is_reserved": 0, "name": "88959b5209095b9a6580500444f4bc83", "lon": -77.04161383333333, "type": "electric_scooter", "bike_id": "88959b5209095b9a6580500444f4bc83", "fusion_lon": 0.0, "lat": 38.917932, "fusion_lat": 0.0}, {"is_disabled": 0, "rental_uris": {"android": "https://dc.lft.to/lastmile_qr_scan", "ios": "https://dc.lft.to/lastmile_qr_scan"}, "is_reserved": 0, "name": "939825d97f9f4add4d6c8e138b59ff04", "lon": -77.02402116666667, "type": "electric_scooter", "bike_id": "939825d97f9f4add4d6c8e138b59ff04", "fusion_lon": 0.0, "lat": 38.907076833333335, "fusion_lat": 0.0}, {"is_disabled": 0, "rental_uris": {"android": "https://dc.lft.to/lastmile_qr_scan", "ios": "https://dc.lft.to/lastmile_qr_scan"}, "is_reserved": 0, "name": "2565f9bb61d6c0a1ccd40af2663362a5", "lon": -77.050954, "type": "electric_scooter", "bike_id": "2565f9bb61d6c0a1ccd40af2663362a5", "fusion_lon": 0.0, "lat": 38.923429, "fusion_lat": 0.0}, {"is_disabled": 0, "rental_uris": {"android": "https://dc.lft.to/lastmile_qr_scan", "ios": "https://dc.lft.to/lastmile_qr_scan"}, "is_reserved": 0, "name": "415ae5838f3f37eb50b96c79f85cfca8", "lon": -77.03856516666667, "type": "electric_scooter", "bike_id": "415ae5838f3f37eb50b96c79f85cfca8", "fusion_lon": 0.0, "lat": 38.909294333333335, "fusion_lat": 0.0}, {"is_disabled": 0, "rental_uris": {"android": "https://dc.lft.to/lastmile_qr_scan", "ios": "https://dc.lft.to/lastmile_qr_scan"}, "is_reserved": 0, "name": "52c2fcd7eaadff6d8fff2dc383519b85", "lon": -77.0392665, "type": "electric_scooter", "bike_id": "52c2fcd7eaadff6d8fff2dc383519b85", "fusion_lon": 0.0, "lat": 38.8996255, "fusion_lat": 0.0}, {"is_disabled": 0, "rental_uris": {"android": "https://dc.lft.to/lastmile_qr_scan", "ios": "https://dc.lft.to/lastmile_qr_scan"}, "is_reserved": 0, "name": "c06ac4fd7bc24c2db7131a04884919fd", "lon": -77.02289266666666, "type": "electric_scooter", "bike_id": "c06ac4fd7bc24c2db7131a04884919fd", "fusion_lon": 0.0, "lat": 38.926941, "fusion_lat": 0.0}, {"is_disabled": 0, "rental_uris": {"android": "https://dc.lft.to/lastmile_qr_scan", "ios": "https://dc.lft.to/lastmile_qr_scan"}, "is_reserved": 0, "name": "fdaa03e46612314870d40a71f30d2c48", "lon": -77.03613783333333, "type": "electric_scooter", "bike_id": "fdaa03e46612314870d40a71f30d2c48", "fusion_lon": 0.0, "lat": 38.93151566666667, "fusion_lat": 0.0}, {"is_disabled": 0, "rental_uris": {"android": "https://dc.lft.to/lastmile_qr_scan", "ios": "https://dc.lft.to/lastmile_qr_scan"}, "is_reserved": 0, "name": "80d503e811db723a460d939b8543d60b", "lon": -77.02483416666666, "type": "electric_scooter", "bike_id": "80d503e811db723a460d939b8543d60b", "fusion_lon": 0.0, "lat": 38.91618033333334, "fusion_lat": 0.0}, {"is_disabled": 0, "rental_uris": {"android": "https://dc.lft.to/lastmile_qr_scan", "ios": "https://dc.lft.to/lastmile_qr_scan"}, "is_reserved": 0, "name": "6aea3a001d77763b09c45de04d30d8f4", "lon": -77.03253566666666, "type": "electric_scooter", "bike_id": "6aea3a001d77763b09c45de04d30d8f4", "fusion_lon": 0.0, "lat": 38.902574333333334, "fusion_lat": 0.0}, {"is_disabled": 0, "rental_uris": {"android": "https://dc.lft.to/lastmile_qr_scan", "ios": "https://dc.lft.to/lastmile_qr_scan"}, "is_reserved": 0, "name": "99a33fb75a6c445c1fa4cc7ba896b498", "lon": -76.97330683333334, "type": "electric_bike", "bike_id": "99a33fb75a6c445c1fa4cc7ba896b498", "fusion_lon": 0.0, "lat": 38.85066416666667, "fusion_lat": 0.0}, {"is_disabled": 0, "rental_uris": {"android": "https://dc.lft.to/lastmile_qr_scan", "ios": "https://dc.lft.to/lastmile_qr_scan"}, "is_reserved": 0, "name": "6750c92db827320f2e251f5ed22155b3", "lon": -77.04492016666667, "type": "electric_scooter", "bike_id": "6750c92db827320f2e251f5ed22155b3", "fusion_lon": 0.0, "lat": 38.913670833333335, "fusion_lat": 0.0}, {"is_disabled": 0, "rental_uris": {"android": "https://dc.lft.to/lastmile_qr_scan", "ios": "https://dc.lft.to/lastmile_qr_scan"}, "is_reserved": 0, "name": "7b109f40ca709343bd3eaa638b41c2b4", "lon": -77.04025, "type": "electric_scooter", "bike_id": "7b109f40ca709343bd3eaa638b41c2b4", "fusion_lon": 0.0, "lat": 38.921953333333335, "fusion_lat": 0.0}, {"is_disabled": 0, "rental_uris": {"android": "https://dc.lft.to/lastmile_qr_scan", "ios": "https://dc.lft.to/lastmile_qr_scan"}, "is_reserved": 0, "name": "3b11859efba8031916f4a588363be2a6", "lon": -77.0137615, "type": "electric_scooter", "bike_id": "3b11859efba8031916f4a588363be2a6", "fusion_lon": 0.0, "lat": 38.928628333333336, "fusion_lat": 0.0}, {"is_disabled": 0, "rental_uris": {"android": "https://dc.lft.to/lastmile_qr_scan", "ios": "https://dc.lft.to/lastmile_qr_scan"}, "is_reserved": 0, "name": "734276466a0b0305bc61f4f35a3ea660", "lon": -77.0008685, "type": "electric_scooter", "bike_id": "734276466a0b0305bc61f4f35a3ea660", "fusion_lon": 0.0, "lat": 38.925522, "fusion_lat": 0.0}, {"is_disabled": 0, "rental_uris": {"android": "https://dc.lft.to/lastmile_qr_scan", "ios": "https://dc.lft.to/lastmile_qr_scan"}, "is_reserved": 0, "name": "880f34d1e26c08cb63fad78b836fb3e6", "lon": -77.03380483333333, "type": "electric_scooter", "bike_id": "880f34d1e26c08cb63fad78b836fb3e6", "fusion_lon": 0.0, "lat": 38.9215835, "fusion_lat": 0.0}, {"is_disabled": 0, "rental_uris": {"android": "https://dc.lft.to/lastmile_qr_scan", "ios": "https://dc.lft.to/lastmile_qr_scan"}, "is_reserved": 0, "name": "e6826f597d825b683c9d373d16d7b60c", "lon": -77.04561633333333, "type": "electric_scooter", "bike_id": "e6826f597d825b683c9d373d16d7b60c", "fusion_lon": 0.0, "lat": 38.907251333333335, "fusion_lat": 0.0}, {"is_disabled": 0, "rental_uris": {"android": "https://dc.lft.to/lastmile_qr_scan", "ios": "https://dc.lft.to/lastmile_qr_scan"}, "is_reserved": 0, "name": "3eaf1968fcbc0d155e7fdaf4123a5e47", "lon": -76.965271, "type": "electric_scooter", "bike_id": "3eaf1968fcbc0d155e7fdaf4123a5e47", "fusion_lon": 0.0, "lat": 38.87632416666667, "fusion_lat": 0.0}, {"is_disabled": 0, "rental_uris": {"android": "https://dc.lft.to/lastmile_qr_scan", "ios": "https://dc.lft.to/lastmile_qr_scan"}, "is_reserved": 0, "name": "be895e600ec0dac0a4d75cb054754032", "lon": -77.03049116666666, "type": "electric_scooter", "bike_id": "be895e600ec0dac0a4d75cb054754032", "fusion_lon": 0.0, "lat": 38.96422316666666, "fusion_lat": 0.0}, {"is_disabled": 0, "rental_uris": {"android": "https://dc.lft.to/lastmile_qr_scan", "ios": "https://dc.lft.to/lastmile_qr_scan"}, "is_reserved": 0, "name": "0db3e2d549c089768575b2d799f00152", "lon": -77.0677135, "type": "electric_scooter", "bike_id": "0db3e2d549c089768575b2d799f00152", "fusion_lon": 0.0, "lat": 38.90499666666667, "fusion_lat": 0.0}, {"is_disabled": 0, "rental_uris": {"android": "https://dc.lft.to/lastmile_qr_scan", "ios": "https://dc.lft.to/lastmile_qr_scan"}, "is_reserved": 0, "name": "f9398675a2adf97a957101695f914e74", "lon": -77.02375666666667, "type": "electric_scooter", "bike_id": "f9398675a2adf97a957101695f914e74", "fusion_lon": 0.0, "lat": 38.9020105, "fusion_lat": 0.0}, {"is_disabled": 0, "rental_uris": {"android": "https://dc.lft.to/lastmile_qr_scan", "ios": "https://dc.lft.to/lastmile_qr_scan"}, "is_reserved": 0, "name": "9c4bfaf56109b29e2584907135c9b2dc", "lon": -77.031448, "type": "electric_scooter", "bike_id": "9c4bfaf56109b29e2584907135c9b2dc", "fusion_lon": 0.0, "lat": 38.901195, "fusion_lat": 0.0}, {"is_disabled": 0, "rental_uris": {"android": "https://dc.lft.to/lastmile_qr_scan", "ios": "https://dc.lft.to/lastmile_qr_scan"}, "is_reserved": 0, "name": "ca95b70187ecadd2f4c245de699e8b6a", "lon": -77.02608166666667, "type": "electric_scooter", "bike_id": "ca95b70187ecadd2f4c245de699e8b6a", "fusion_lon": 0.0, "lat": 38.92440116666667, "fusion_lat": 0.0}, {"is_disabled": 0, "rental_uris": {"android": "https://dc.lft.to/lastmile_qr_scan", "ios": "https://dc.lft.to/lastmile_qr_scan"}, "is_reserved": 0, "name": "81a421f9c0bbf9c15ab4aba4e6b7ce3c", "lon": -77.04269533333333, "type": "electric_scooter", "bike_id": "81a421f9c0bbf9c15ab4aba4e6b7ce3c", "fusion_lon": 0.0, "lat": 38.92240533333333, "fusion_lat": 0.0}, {"is_disabled": 0, "rental_uris": {"android": "https://dc.lft.to/lastmile_qr_scan", "ios": "https://dc.lft.to/lastmile_qr_scan"}, "is_reserved": 0, "name": "1cc9d11fa91496f66c59c5f5ec5ef010", "lon": -77.00779633333333, "type": "electric_scooter", "bike_id": "1cc9d11fa91496f66c59c5f5ec5ef010", "fusion_lon": 0.0, "lat": 38.90708766666667, "fusion_lat": 0.0}, {"is_disabled": 0, "rental_uris": {"android": "https://dc.lft.to/lastmile_qr_scan", "ios": "https://dc.lft.to/lastmile_qr_scan"}, "is_reserved": 0, "name": "6d71acd9a87f533c6ab51e2f7fe721be", "lon": -77.01759916666667, "type": "electric_scooter", "bike_id": "6d71acd9a87f533c6ab51e2f7fe721be", "fusion_lon": 0.0, "lat": 38.87717133333334, "fusion_lat": 0.0}, {"is_disabled": 0, "rental_uris": {"android": "https://dc.lft.to/lastmile_qr_scan", "ios": "https://dc.lft.to/lastmile_qr_scan"}, "is_reserved": 0, "name": "49717098c1cec20a5e0886ed93aa3b02", "lon": -77.008132, "type": "electric_scooter", "bike_id": "49717098c1cec20a5e0886ed93aa3b02", "fusion_lon": 0.0, "lat": 38.883306166666664, "fusion_lat": 0.0}, {"is_disabled": 0, "rental_uris": {"android": "https://dc.lft.to/lastmile_qr_scan", "ios": "https://dc.lft.to/lastmile_qr_scan"}, "is_reserved": 0, "name": "1f94884c5de4d5a6013bbc9cc1a941fa", "lon": -77.03609816666666, "type": "electric_scooter", "bike_id": "1f94884c5de4d5a6013bbc9cc1a941fa", "fusion_lon": 0.0, "lat": 38.91103866666667, "fusion_lat": 0.0}, {"is_disabled": 0, "rental_uris": {"android": "https://dc.lft.to/lastmile_qr_scan", "ios": "https://dc.lft.to/lastmile_qr_scan"}, "is_reserved": 0, "name": "593509c61e5b1dab28cf27d8162fb3d3", "lon": -77.02161933333333, "type": "electric_scooter", "bike_id": "593509c61e5b1dab28cf27d8162fb3d3", "fusion_lon": 0.0, "lat": 38.9261485, "fusion_lat": 0.0}, {"is_disabled": 0, "rental_uris": {"android": "https://dc.lft.to/lastmile_qr_scan", "ios": "https://dc.lft.to/lastmile_qr_scan"}, "is_reserved": 0, "name": "6bb1d8f67e986981fdd72cc81b1242c7", "lon": -76.99701066666667, "type": "electric_scooter", "bike_id": "6bb1d8f67e986981fdd72cc81b1242c7", "fusion_lon": 0.0, "lat": 38.838621333333336, "fusion_lat": 0.0}, {"is_disabled": 0, "rental_uris": {"android": "https://dc.lft.to/lastmile_qr_scan", "ios": "https://dc.lft.to/lastmile_qr_scan"}, "is_reserved": 0, "name": "a3269afca2a4ce0f576a8c15592b1ea7", "lon": -77.00592233333333, "type": "electric_scooter", "bike_id": "a3269afca2a4ce0f576a8c15592b1ea7", "fusion_lon": 0.0, "lat": 38.9275985, "fusion_lat": 0.0}, {"is_disabled": 0, "rental_uris": {"android": "https://dc.lft.to/lastmile_qr_scan", "ios": "https://dc.lft.to/lastmile_qr_scan"}, "is_reserved": 0, "name": "adfaa127b749125fc152e2fadf748582", "lon": -76.98071333333333, "type": "electric_scooter", "bike_id": "adfaa127b749125fc152e2fadf748582", "fusion_lon": 0.0, "lat": 38.91935983333333, "fusion_lat": 0.0}, {"is_disabled": 0, "rental_uris": {"android": "https://dc.lft.to/lastmile_qr_scan", "ios": "https://dc.lft.to/lastmile_qr_scan"}, "is_reserved": 0, "name": "16671694c429391304bacdaf6d2a34ed", "lon": -77.02538666666666, "type": "electric_scooter", "bike_id": "16671694c429391304bacdaf6d2a34ed", "fusion_lon": 0.0, "lat": 38.90730683333334, "fusion_lat": 0.0}, {"is_disabled": 0, "rental_uris": {"android": "https://dc.lft.to/lastmile_qr_scan", "ios": "https://dc.lft.to/lastmile_qr_scan"}, "is_reserved": 0, "name": "f2ad94ec38359fb5a0a511042e96fe00", "lon": -77.00222916666667, "type": "electric_scooter", "bike_id": "f2ad94ec38359fb5a0a511042e96fe00", "fusion_lon": 0.0, "lat": 38.900312, "fusion_lat": 0.0}, {"is_disabled": 0, "rental_uris": {"android": "https://dc.lft.to/lastmile_qr_scan", "ios": "https://dc.lft.to/lastmile_qr_scan"}, "is_reserved": 0, "name": "58fd8adbeadfd9e271cd86b9b8171db4", "lon": -77.04124283333333, "type": "electric_scooter", "bike_id": "58fd8adbeadfd9e271cd86b9b8171db4", "fusion_lon": 0.0, "lat": 38.90590566666667, "fusion_lat": 0.0}, {"is_disabled": 0, "rental_uris": {"android": "https://dc.lft.to/lastmile_qr_scan", "ios": "https://dc.lft.to/lastmile_qr_scan"}, "is_reserved": 0, "name": "f81672175fd998eef7bb4d0f10d19197", "lon": -77.04151116666667, "type": "electric_scooter", "bike_id": "f81672175fd998eef7bb4d0f10d19197", "fusion_lon": 0.0, "lat": 38.92349883333333, "fusion_lat": 0.0}, {"is_disabled": 0, "rental_uris": {"android": "https://dc.lft.to/lastmile_qr_scan", "ios": "https://dc.lft.to/lastmile_qr_scan"}, "is_reserved": 0, "name": "710e91d7507a79b8a5a89f11be3e8705", "lon": -77.01378516666666, "type": "electric_scooter", "bike_id": "710e91d7507a79b8a5a89f11be3e8705", "fusion_lon": 0.0, "lat": 38.8708665, "fusion_lat": 0.0}, {"is_disabled": 0, "rental_uris": {"android": "https://dc.lft.to/lastmile_qr_scan", "ios": "https://dc.lft.to/lastmile_qr_scan"}, "is_reserved": 0, "name": "982a1990a72c1f7ae922c49367fde125", "lon": -76.932012, "type": "electric_bike", "bike_id": "982a1990a72c1f7ae922c49367fde125", "fusion_lon": 0.0, "lat": 38.872349166666666, "fusion_lat": 0.0}, {"is_disabled": 0, "rental_uris": {"android": "https://dc.lft.to/lastmile_qr_scan", "ios": "https://dc.lft.to/lastmile_qr_scan"}, "is_reserved": 0, "name": "fe480fbebb5d34e7f6ac73c6c0868b85", "lon": -77.008749, "type": "electric_scooter", "bike_id": "fe480fbebb5d34e7f6ac73c6c0868b85", "fusion_lon": 0.0, "lat": 38.9057755, "fusion_lat": 0.0}, {"is_disabled": 0, "rental_uris": {"android": "https://dc.lft.to/lastmile_qr_scan", "ios": "https://dc.lft.to/lastmile_qr_scan"}, "is_reserved": 0, "name": "9dd2117d514acc0d8fc06760cb58632c", "lon": -76.97215883333334, "type": "electric_scooter", "bike_id": "9dd2117d514acc0d8fc06760cb58632c", "fusion_lon": 0.0, "lat": 38.897969833333335, "fusion_lat": 0.0}, {"is_disabled": 0, "rental_uris": {"android": "https://dc.lft.to/lastmile_qr_scan", "ios": "https://dc.lft.to/lastmile_qr_scan"}, "is_reserved": 0, "name": "edd6675cd2f34763bf79e803c3e46d33", "lon": -77.0008255, "type": "electric_bike", "bike_id": "edd6675cd2f34763bf79e803c3e46d33", "fusion_lon": 0.0, "lat": 38.88602216666666, "fusion_lat": 0.0}, {"is_disabled": 0, "rental_uris": {"android": "https://dc.lft.to/lastmile_qr_scan", "ios": "https://dc.lft.to/lastmile_qr_scan"}, "is_reserved": 0, "name": "75fe7f3f11aedd64f818662b63acf091", "lon": -77.0325715, "type": "electric_scooter", "bike_id": "75fe7f3f11aedd64f818662b63acf091", "fusion_lon": 0.0, "lat": 38.92122, "fusion_lat": 0.0}, {"is_disabled": 0, "rental_uris": {"android": "https://dc.lft.to/lastmile_qr_scan", "ios": "https://dc.lft.to/lastmile_qr_scan"}, "is_reserved": 0, "name": "0690de22c964d35919b7cb3891e9476b", "lon": -77.01852466666666, "type": "electric_scooter", "bike_id": "0690de22c964d35919b7cb3891e9476b", "fusion_lon": 0.0, "lat": 38.95429333333333, "fusion_lat": 0.0}, {"is_disabled": 0, "rental_uris": {"android": "https://dc.lft.to/lastmile_qr_scan", "ios": "https://dc.lft.to/lastmile_qr_scan"}, "is_reserved": 0, "name": "76f7e999a6f03c72b32434d62cb65b2f", "lon": -77.01108683333334, "type": "electric_scooter", "bike_id": "76f7e999a6f03c72b32434d62cb65b2f", "fusion_lon": 0.0, "lat": 38.90361866666667, "fusion_lat": 0.0}, {"is_disabled": 0, "rental_uris": {"android": "https://dc.lft.to/lastmile_qr_scan", "ios": "https://dc.lft.to/lastmile_qr_scan"}, "is_reserved": 0, "name": "4bf80e4955238aed2ceacd3b528c913c", "lon": -77.03858166666667, "type": "electric_scooter", "bike_id": "4bf80e4955238aed2ceacd3b528c913c", "fusion_lon": 0.0, "lat": 38.91188233333333, "fusion_lat": 0.0}, {"is_disabled": 0, "rental_uris": {"android": "https://dc.lft.to/lastmile_qr_scan", "ios": "https://dc.lft.to/lastmile_qr_scan"}, "is_reserved": 0, "name": "d2cd33527a5983143e716b5c453f3125", "lon": -77.0242725, "type": "electric_scooter", "bike_id": "d2cd33527a5983143e716b5c453f3125", "fusion_lon": 0.0, "lat": 38.912546, "fusion_lat": 0.0}, {"is_disabled": 0, "rental_uris": {"android": "https://dc.lft.to/lastmile_qr_scan", "ios": "https://dc.lft.to/lastmile_qr_scan"}, "is_reserved": 0, "name": "e372738881a6dd6a5cc470e24712bc1e", "lon": -77.03157533333334, "type": "electric_scooter", "bike_id": "e372738881a6dd6a5cc470e24712bc1e", "fusion_lon": 0.0, "lat": 38.8875485, "fusion_lat": 0.0}, {"is_disabled": 0, "rental_uris": {"android": "https://dc.lft.to/lastmile_qr_scan", "ios": "https://dc.lft.to/lastmile_qr_scan"}, "is_reserved": 0, "name": "ac23d48df34a54f9349337215d56e6df", "lon": -76.96527683333333, "type": "electric_scooter", "bike_id": "ac23d48df34a54f9349337215d56e6df", "fusion_lon": 0.0, "lat": 38.876315166666664, "fusion_lat": 0.0}, {"is_disabled": 0, "rental_uris": {"android": "https://dc.lft.to/lastmile_qr_scan", "ios": "https://dc.lft.to/lastmile_qr_scan"}, "is_reserved": 0, "name": "7ab6a7522fa2517e65456b708b0c7e8d", "lon": -76.99411416666666, "type": "electric_scooter", "bike_id": "7ab6a7522fa2517e65456b708b0c7e8d", "fusion_lon": 0.0, "lat": 38.87784216666667, "fusion_lat": 0.0}, {"is_disabled": 0, "rental_uris": {"android": "https://dc.lft.to/lastmile_qr_scan", "ios": "https://dc.lft.to/lastmile_qr_scan"}, "is_reserved": 0, "name": "c8d385a893f2141b16d1b805e8bea681", "lon": -77.02722383333334, "type": "electric_scooter", "bike_id": "c8d385a893f2141b16d1b805e8bea681", "fusion_lon": 0.0, "lat": 38.9085755, "fusion_lat": 0.0}, {"is_disabled": 0, "rental_uris": {"android": "https://dc.lft.to/lastmile_qr_scan", "ios": "https://dc.lft.to/lastmile_qr_scan"}, "is_reserved": 0, "name": "007051cf585aac9dc07d1cd23448340d", "lon": -77.08527983333333, "type": "electric_bike", "bike_id": "007051cf585aac9dc07d1cd23448340d", "fusion_lon": 0.0, "lat": 38.85648166666667, "fusion_lat": 0.0}, {"is_disabled": 0, "rental_uris": {"android": "https://dc.lft.to/lastmile_qr_scan", "ios": "https://dc.lft.to/lastmile_qr_scan"}, "is_reserved": 0, "name": "6bb62439849911fceaf4522ad876cff8", "lon": -77.00985566666667, "type": "electric_scooter", "bike_id": "6bb62439849911fceaf4522ad876cff8", "fusion_lon": 0.0, "lat": 38.897293, "fusion_lat": 0.0}, {"is_disabled": 0, "rental_uris": {"android": "https://dc.lft.to/lastmile_qr_scan", "ios": "https://dc.lft.to/lastmile_qr_scan"}, "is_reserved": 0, "name": "93dc462fa60a860f05f942547e056474", "lon": -76.93354533333333, "type": "electric_scooter", "bike_id": "93dc462fa60a860f05f942547e056474", "fusion_lon": 0.0, "lat": 38.8990905, "fusion_lat": 0.0}, {"is_disabled": 0, "rental_uris": {"android": "https://dc.lft.to/lastmile_qr_scan", "ios": "https://dc.lft.to/lastmile_qr_scan"}, "is_reserved": 0, "name": "539e54f1d936d3bf4eb72f1f62c9f313", "lon": -77.03805866666667, "type": "electric_scooter", "bike_id": "539e54f1d936d3bf4eb72f1f62c9f313", "fusion_lon": 0.0, "lat": 38.932201, "fusion_lat": 0.0}, {"is_disabled": 0, "rental_uris": {"android": "https://dc.lft.to/lastmile_qr_scan", "ios": "https://dc.lft.to/lastmile_qr_scan"}, "is_reserved": 0, "name": "7c2d6f53b4b9d3918aba3b4e0ae5b8ab", "lon": -77.038587, "type": "electric_scooter", "bike_id": "7c2d6f53b4b9d3918aba3b4e0ae5b8ab", "fusion_lon": 0.0, "lat": 38.90386866666667, "fusion_lat": 0.0}, {"is_disabled": 0, "rental_uris": {"android": "https://dc.lft.to/lastmile_qr_scan", "ios": "https://dc.lft.to/lastmile_qr_scan"}, "is_reserved": 0, "name": "41711bcdd3ea817a7d57e81fffd37347", "lon": -77.02347366666666, "type": "electric_scooter", "bike_id": "41711bcdd3ea817a7d57e81fffd37347", "fusion_lon": 0.0, "lat": 38.9019825, "fusion_lat": 0.0}, {"is_disabled": 0, "rental_uris": {"android": "https://dc.lft.to/lastmile_qr_scan", "ios": "https://dc.lft.to/lastmile_qr_scan"}, "is_reserved": 0, "name": "12c10dc1d2485c49cbd0374fab34efe7", "lon": -76.98590416666667, "type": "electric_scooter", "bike_id": "12c10dc1d2485c49cbd0374fab34efe7", "fusion_lon": 0.0, "lat": 38.86058083333333, "fusion_lat": 0.0}, {"is_disabled": 0, "rental_uris": {"android": "https://dc.lft.to/lastmile_qr_scan", "ios": "https://dc.lft.to/lastmile_qr_scan"}, "is_reserved": 0, "name": "6b32b1178869e4508e9ad7accd925af5", "lon": -77.04207366666667, "type": "electric_scooter", "bike_id": "6b32b1178869e4508e9ad7accd925af5", "fusion_lon": 0.0, "lat": 38.9170465, "fusion_lat": 0.0}, {"is_disabled": 0, "rental_uris": {"android": "https://dc.lft.to/lastmile_qr_scan", "ios": "https://dc.lft.to/lastmile_qr_scan"}, "is_reserved": 0, "name": "cab10b94a0274a104ad791ee30355424", "lon": -77.03205133333333, "type": "electric_scooter", "bike_id": "cab10b94a0274a104ad791ee30355424", "fusion_lon": 0.0, "lat": 38.92286816666667, "fusion_lat": 0.0}, {"is_disabled": 0, "rental_uris": {"android": "https://dc.lft.to/lastmile_qr_scan", "ios": "https://dc.lft.to/lastmile_qr_scan"}, "is_reserved": 0, "name": "43dfad81aa69e23dbdb037147ea52215", "lon": -77.04622833333333, "type": "electric_scooter", "bike_id": "43dfad81aa69e23dbdb037147ea52215", "fusion_lon": 0.0, "lat": 38.92317516666667, "fusion_lat": 0.0}, {"is_disabled": 0, "rental_uris": {"android": "https://dc.lft.to/lastmile_qr_scan", "ios": "https://dc.lft.to/lastmile_qr_scan"}, "is_reserved": 0, "name": "ff505f2748e3b633ebc0aae7d7f34afa", "lon": -77.02654966666667, "type": "electric_scooter", "bike_id": "ff505f2748e3b633ebc0aae7d7f34afa", "fusion_lon": 0.0, "lat": 38.92181516666667, "fusion_lat": 0.0}, {"is_disabled": 0, "rental_uris": {"android": "https://dc.lft.to/lastmile_qr_scan", "ios": "https://dc.lft.to/lastmile_qr_scan"}, "is_reserved": 0, "name": "1a340c717931b9f8ae1dd0d3a3ccc587", "lon": -77.02964333333334, "type": "electric_scooter", "bike_id": "1a340c717931b9f8ae1dd0d3a3ccc587", "fusion_lon": 0.0, "lat": 38.921463, "fusion_lat": 0.0}, {"is_disabled": 0, "rental_uris": {"android": "https://dc.lft.to/lastmile_qr_scan", "ios": "https://dc.lft.to/lastmile_qr_scan"}, "is_reserved": 0, "name": "9ab13ee37c3cf4f5d61b78fa081f4d65", "lon": -77.043476, "type": "electric_scooter", "bike_id": "9ab13ee37c3cf4f5d61b78fa081f4d65", "fusion_lon": 0.0, "lat": 38.90106433333333, "fusion_lat": 0.0}, {"is_disabled": 0, "rental_uris": {"android": "https://dc.lft.to/lastmile_qr_scan", "ios": "https://dc.lft.to/lastmile_qr_scan"}, "is_reserved": 0, "name": "e821190b9d4f842c21851d281985f783", "lon": -77.0249645, "type": "electric_scooter", "bike_id": "e821190b9d4f842c21851d281985f783", "fusion_lon": 0.0, "lat": 38.91808283333334, "fusion_lat": 0.0}, {"is_disabled": 0, "rental_uris": {"android": "https://dc.lft.to/lastmile_qr_scan", "ios": "https://dc.lft.to/lastmile_qr_scan"}, "is_reserved": 0, "name": "19ebd86f695af64ca8cc9eb523f4f498", "lon": -76.96530683333333, "type": "electric_bike", "bike_id": "19ebd86f695af64ca8cc9eb523f4f498", "fusion_lon": 0.0, "lat": 38.918728, "fusion_lat": 0.0}, {"is_disabled": 0, "rental_uris": {"android": "https://dc.lft.to/lastmile_qr_scan", "ios": "https://dc.lft.to/lastmile_qr_scan"}, "is_reserved": 0, "name": "c3d9bc1f63ae96c337078e8b1dc8ba5c", "lon": -77.00342916666666, "type": "electric_scooter", "bike_id": "c3d9bc1f63ae96c337078e8b1dc8ba5c", "fusion_lon": 0.0, "lat": 38.90454533333333, "fusion_lat": 0.0}, {"is_disabled": 0, "rental_uris": {"android": "https://dc.lft.to/lastmile_qr_scan", "ios": "https://dc.lft.to/lastmile_qr_scan"}, "is_reserved": 0, "name": "38ff59e1635be1c5e605e620e8904778", "lon": -77.04335566666667, "type": "electric_scooter", "bike_id": "38ff59e1635be1c5e605e620e8904778", "fusion_lon": 0.0, "lat": 38.9062185, "fusion_lat": 0.0}, {"is_disabled": 0, "rental_uris": {"android": "https://dc.lft.to/lastmile_qr_scan", "ios": "https://dc.lft.to/lastmile_qr_scan"}, "is_reserved": 0, "name": "1d7ce3a7d264eb500e2f11e6bb8a2ab6", "lon": -77.034726, "type": "electric_scooter", "bike_id": "1d7ce3a7d264eb500e2f11e6bb8a2ab6", "fusion_lon": 0.0, "lat": 38.921550833333335, "fusion_lat": 0.0}, {"is_disabled": 0, "rental_uris": {"android": "https://dc.lft.to/lastmile_qr_scan", "ios": "https://dc.lft.to/lastmile_qr_scan"}, "is_reserved": 0, "name": "7dd7d18ef6f73c3eb0d050028b9a16ff", "lon": -77.05113016666667, "type": "electric_scooter", "bike_id": "7dd7d18ef6f73c3eb0d050028b9a16ff", "fusion_lon": 0.0, "lat": 38.92368333333334, "fusion_lat": 0.0}, {"is_disabled": 0, "rental_uris": {"android": "https://dc.lft.to/lastmile_qr_scan", "ios": "https://dc.lft.to/lastmile_qr_scan"}, "is_reserved": 0, "name": "6f4f0d4428d84c32bba87fa1420798dd", "lon": -77.05132733333333, "type": "electric_scooter", "bike_id": "6f4f0d4428d84c32bba87fa1420798dd", "fusion_lon": 0.0, "lat": 38.905928833333334, "fusion_lat": 0.0}, {"is_disabled": 0, "rental_uris": {"android": "https://dc.lft.to/lastmile_qr_scan", "ios": "https://dc.lft.to/lastmile_qr_scan"}, "is_reserved": 0, "name": "f7fdd0499bd1bb106363fc26ccaaace0", "lon": -76.9521005, "type": "electric_scooter", "bike_id": "f7fdd0499bd1bb106363fc26ccaaace0", "fusion_lon": 0.0, "lat": 38.892504333333335, "fusion_lat": 0.0}, {"is_disabled": 0, "rental_uris": {"android": "https://dc.lft.to/lastmile_qr_scan", "ios": "https://dc.lft.to/lastmile_qr_scan"}, "is_reserved": 0, "name": "2805c51b4edb516d261ad336d9d3b3cc", "lon": -77.04348416666667, "type": "electric_scooter", "bike_id": "2805c51b4edb516d261ad336d9d3b3cc", "fusion_lon": 0.0, "lat": 38.8982205, "fusion_lat": 0.0}, {"is_disabled": 0, "rental_uris": {"android": "https://dc.lft.to/lastmile_qr_scan", "ios": "https://dc.lft.to/lastmile_qr_scan"}, "is_reserved": 0, "name": "e3ae81638054c516b0367da5baf2825d", "lon": -77.00334683333334, "type": "electric_scooter", "bike_id": "e3ae81638054c516b0367da5baf2825d", "fusion_lon": 0.0, "lat": 38.8935295, "fusion_lat": 0.0}, {"is_disabled": 0, "rental_uris": {"android": "https://dc.lft.to/lastmile_qr_scan", "ios": "https://dc.lft.to/lastmile_qr_scan"}, "is_reserved": 0, "name": "0e44bdfcc0e04a36c066921833e092a3", "lon": -77.03659533333334, "type": "electric_scooter", "bike_id": "0e44bdfcc0e04a36c066921833e092a3", "fusion_lon": 0.0, "lat": 38.922599, "fusion_lat": 0.0},