{"data": {"bikes": [{"fusion_lat": 0.0, "name": "ab2440b346e6a3bdfe5b262bce2ed9e3", "is_disabled": 0, "rental_uris": {"android": "https://dc.lft.to/lastmile_qr_scan", "ios": "https://dc.lft.to/lastmile_qr_scan"}, "fusion_lon": 0.0, "lat": 38.923347666666665, "bike_id": "ab2440b346e6a3bdfe5b262bce2ed9e3", "type": "electric_scooter", "is_reserved": 0, "lon": -77.03648266666667}, {"fusion_lat": 0.0, "name": "e9da49f50e47dbfd244c96d6ed7475bf", "is_disabled": 0, "rental_uris": {"android": "https://dc.lft.to/lastmile_qr_scan", "ios": "https://dc.lft.to/lastmile_qr_scan"}, "fusion_lon": 0.0, "lat": 38.931007666666666, "bike_id": "e9da49f50e47dbfd244c96d6ed7475bf", "type": "electric_bike", "is_reserved": 0, "lon": -77.024497}, {"fusion_lat": 0.0, "name": "98e063518652d8fd041f7ba7dc3eaa72", "is_disabled": 0, "rental_uris": {"android": "https://dc.lft.to/lastmile_qr_scan", "ios": "https://dc.lft.to/lastmile_qr_scan"}, "fusion_lon": 0.0, "lat": 38.9003725, "bike_id": "98e063518652d8fd041f7ba7dc3eaa72", "type": "electric_scooter", "is_reserved": 0, "lon": -77.01168}, {"fusion_lat": 0.0, "name": "c9c1ed7b0e1502b40720341357e7e817", "is_disabled": 0, "rental_uris": {"android": "https://dc.lft.to/lastmile_qr_scan", "ios": "https://dc.lft.to/lastmile_qr_scan"}, "fusion_lon": 0.0, "lat": 38.91689383333333, "bike_id": "c9c1ed7b0e1502b40720341357e7e817", "type": "electric_scooter", "is_reserved": 0, "lon": -77.03866183333334}, {"fusion_lat": 0.0, "name": "f22711ce865d410971c2ea40984bdc0b", "is_disabled": 0, "rental_uris": {"android": "https://dc.lft.to/lastmile_qr_scan", "ios": "https://dc.lft.to/lastmile_qr_scan"}, "fusion_lon": 0.0, "lat": 38.8358505, "bike_id": "f22711ce865d410971c2ea40984bdc0b", "type": "electric_bike", "is_reserved": 0, "lon": -76.99009716666667}, {"fusion_lat": 0.0, "name": "fe01cdd73605769ba6fc98a4ade603ab", "is_disabled": 0, "rental_uris": {"android": "https://dc.lft.to/lastmile_qr_scan", "ios": "https://dc.lft.to/lastmile_qr_scan"}, "fusion_lon": 0.0, "lat": 38.9126955, "bike_id": "fe01cdd73605769ba6fc98a4ade603ab", "type": "electric_scooter", "is_reserved": 0, "lon": -77.02235983333334}, {"fusion_lat": 0.0, "name": "287908200cb707542ab52285b67ef6ce", "is_disabled": 0, "rental_uris": {"android": "https://dc.lft.to/lastmile_qr_scan", "ios": "https://dc.lft.to/lastmile_qr_scan"}, "fusion_lon": 0.0, "lat": 38.907952333333334, "bike_id": "287908200cb707542ab52285b67ef6ce", "type": "electric_scooter", "is_reserved": 0, "lon": -77.03440933333333}, {"fusion_lat": 0.0, "name": "d0ded8c4824015e24a321eb61499a39a", "is_disabled": 0, "rental_uris": {"android": "https://dc.lft.to/lastmile_qr_scan", "ios": "https://dc.lft.to/lastmile_qr_scan"}, "fusion_lon": 0.0, "lat": 38.87679466666667, "bike_id": "d0ded8c4824015e24a321eb61499a39a", "type": "electric_scooter", "is_reserved": 0, "lon": -77.00302583333334}, {"fusion_lat": 0.0, "name": "fbf6f5dd882f4a18ce0fd4f6be590b98", "is_disabled": 0, "rental_uris": {"android": "https://dc.lft.to/lastmile_qr_scan", "ios": "https://dc.lft.to/lastmile_qr_scan"}, "fusion_lon": 0.0, "lat": 38.892274666666665, "bike_id": "fbf6f5dd882f4a18ce0fd4f6be590b98", "type": "electric_scooter", "is_reserved": 0, "lon": -77.04469183333333}, {"fusion_lat": 0.0, "name": "f417bcf912caede05ecbd79782f4cdbc", "is_disabled": 0, "rental_uris": {"android": "https://dc.lft.to/lastmile_qr_scan", "ios": "https://dc.lft.to/lastmile_qr_scan"}, "fusion_lon": 0.0, "lat": 38.939855, "bike_id": "f417bcf912caede05ecbd79782f4cdbc", "type": "electric_scooter", "is_reserved": 0, "lon": -77.01918866666666}, {"fusion_lat": 0.0, "name": "44e94731c1a1a1b15877bc37b3e21e9d", "is_disabled": 0, "rental_uris": {"android": "https://dc.lft.to/lastmile_qr_scan", "ios": "https://dc.lft.to/lastmile_qr_scan"}, "fusion_lon": 0.0, "lat": 39.00484, "bike_id": "44e94731c1a1a1b15877bc37b3e21e9d", "type": "electric_bike", "is_reserved": 0, "lon": -77.02186333333333}, {"fusion_lat": 0.0, "name": "080cc8d9871f4750c00f89f6e2319bc0", "is_disabled": 0, "rental_uris": {"android": "https://dc.lft.to/lastmile_qr_scan", "ios": "https://dc.lft.to/lastmile_qr_scan"}, "fusion_lon": 0.0, "lat": 38.91552933333333, "bike_id": "080cc8d9871f4750c00f89f6e2319bc0", "type": "electric_scooter", "is_reserved": 0, "lon": -77.02210016666666}, {"fusion_lat": 0.0, "name": "433aa048701540453efb477fc88dd5cd", "is_disabled": 0, "rental_uris": {"android": "https://dc.lft.to/lastmile_qr_scan", "ios": "https://dc.lft.to/lastmile_qr_scan"}, "fusion_lon": 0.0, "lat": 38.8989835, "bike_id": "433aa048701540453efb477fc88dd5cd", "type": "electric_scooter", "is_reserved": 0, "lon": -76.984997}, {"fusion_lat": 0.0, "name": "751531f5b2ed6c230b293711b112d52f", "is_disabled": 0, "rental_uris": {"android": "https://dc.lft.to/lastmile_qr_scan", "ios": "https://dc.lft.to/lastmile_qr_scan"}, "fusion_lon": 0.0, "lat": 38.900080833333334, "bike_id": "751531f5b2ed6c230b293711b112d52f", "type": "electric_scooter", "is_reserved": 0, "lon": -77.023966}, {"fusion_lat": 0.0, "name": "74bfcbd3df2cffe3844276d5f127fbbd", "is_disabled": 0, "rental_uris": {"android": "https://dc.lft.to/lastmile_qr_scan", "ios": "https://dc.lft.to/lastmile_qr_scan"}, "fusion_lon": 0.0, "lat": 38.90713483333333, "bike_id": "74bfcbd3df2cffe3844276d5f127fbbd", "type": "electric_scooter", "is_reserved": 0, "lon": -77.04809016666667}, {"fusion_lat": 0.0, "name": "bea1430a6099ac8a094ca73fc287fd14", "is_disabled": 0, "rental_uris": {"android": "https://dc.lft.to/lastmile_qr_scan", "ios": "https://dc.lft.to/lastmile_qr_scan"}, "fusion_lon": 0.0, "lat": 38.88543716666667, "bike_id": "bea1430a6099ac8a094ca73fc287fd14", "type": "electric_scooter", "is_reserved": 0, "lon": -77.02001983333334}, {"fusion_lat": 0.0, "name": "6ba74c1c1c7f5137f8ba0a7172d71dd7", "is_disabled": 0, "rental_uris": {"android": "https://dc.lft.to/lastmile_qr_scan", "ios": "https://dc.lft.to/lastmile_qr_scan"}, "fusion_lon": 0.0, "lat": 38.935659333333334, "bike_id": "6ba74c1c1c7f5137f8ba0a7172d71dd7", "type": "electric_scooter", "is_reserved": 0, "lon": -77.0377505}, {"fusion_lat": 0.0, "name": "a6382076befde2cff7af4a6138a930a5", "is_disabled": 0, "rental_uris": {"android": "https://dc.lft.to/lastmile_qr_scan", "ios": "https://dc.lft.to/lastmile_qr_scan"}, "fusion_lon": 0.0, "lat": 38.905520333333335, "bike_id": "a6382076befde2cff7af4a6138a930a5", "type": "electric_scooter", "is_reserved": 0, "lon": -77.0629495}, {"fusion_lat": 0.0, "name": "4f913a7eed356e85c2a1d1e5e2799772", "is_disabled": 0, "rental_uris": {"android": "https://dc.lft.to/lastmile_qr_scan", "ios": "https://dc.lft.to/lastmile_qr_scan"}, "fusion_lon": 0.0, "lat": 38.88736933333333, "bike_id": "4f913a7eed356e85c2a1d1e5e2799772", "type": "electric_scooter", "is_reserved": 0, "lon": -77.00345183333333}, {"fusion_lat": 0.0, "name": "650d65708159b4b89d646f2675c0247b", "is_disabled": 0, "rental_uris": {"android": "https://dc.lft.to/lastmile_qr_scan", "ios": "https://dc.lft.to/lastmile_qr_scan"}, "fusion_lon": 0.0, "lat": 38.900239166666665, "bike_id": "650d65708159b4b89d646f2675c0247b", "type": "electric_scooter", "is_reserved": 0, "lon": -77.012177}, {"fusion_lat": 0.0, "name": "6d338bb03c0bebce9e4e9bbf01d2d185", "is_disabled": 0, "rental_uris": {"android": "https://dc.lft.to/lastmile_qr_scan", "ios": "https://dc.lft.to/lastmile_qr_scan"}, "fusion_lon": 0.0, "lat": 38.887299, "bike_id": "6d338bb03c0bebce9e4e9bbf01d2d185", "type": "electric_scooter", "is_reserved": 0, "lon": -76.9835905}, {"fusion_lat": 0.0, "name": "1ca69407588e92f53002e623e6f3badf", "is_disabled": 0, "rental_uris": {"android": "https://dc.lft.to/lastmile_qr_scan", "ios": "https://dc.lft.to/lastmile_qr_scan"}, "fusion_lon": 0.0, "lat": 38.903088, "bike_id": "1ca69407588e92f53002e623e6f3badf", "type": "electric_scooter", "is_reserved": 0, "lon": -77.01180833333333}, {"fusion_lat": 0.0, "name": "394bb7dc5602e7cef8f295f37005bbfb", "is_disabled": 0, "rental_uris": {"android": "https://dc.lft.to/lastmile_qr_scan", "ios": "https://dc.lft.to/lastmile_qr_scan"}, "fusion_lon": 0.0, "lat": 38.93775, "bike_id": "394bb7dc5602e7cef8f295f37005bbfb", "type": "electric_bike", "is_reserved": 0, "lon": -77.01874}, {"fusion_lat": 0.0, "name": "0798af74d79128afe34fcf5bd2cd1850", "is_disabled": 0, "rental_uris": {"android": "https://dc.lft.to/lastmile_qr_scan", "ios": "https://dc.lft.to/lastmile_qr_scan"}, "fusion_lon": 0.0, "lat": 38.91561566666667, "bike_id": "0798af74d79128afe34fcf5bd2cd1850", "type": "electric_scooter", "is_reserved": 0, "lon": -77.03167816666667}, {"fusion_lat": 0.0, "name": "d4751ca6e312548160b42e04a330a02d", "is_disabled": 0, "rental_uris": {"android": "https://dc.lft.to/lastmile_qr_scan", "ios": "https://dc.lft.to/lastmile_qr_scan"}, "fusion_lon": 0.0, "lat": 38.922922666666665, "bike_id": "d4751ca6e312548160b42e04a330a02d", "type": "electric_scooter", "is_reserved": 0, "lon": -77.04208616666666}, {"fusion_lat": 0.0, "name": "b72d6018e3ee52bb1d7d728a7646f805", "is_disabled": 0, "rental_uris": {"android": "https://dc.lft.to/lastmile_qr_scan", "ios": "https://dc.lft.to/lastmile_qr_scan"}, "fusion_lon": 0.0, "lat": 38.872132, "bike_id": "b72d6018e3ee52bb1d7d728a7646f805", "type": "electric_scooter", "is_reserved": 0, "lon": -77.00578816666666}, {"fusion_lat": 0.0, "name": "c6bdd83a9e408e00c684db96ba132521", "is_disabled": 0, "rental_uris": {"android": "https://dc.lft.to/lastmile_qr_scan", "ios": "https://dc.lft.to/lastmile_qr_scan"}, "fusion_lon": 0.0, "lat": 38.900582166666666, "bike_id": "c6bdd83a9e408e00c684db96ba132521", "type": "electric_scooter", "is_reserved": 0, "lon": -77.01622483333334}, {"fusion_lat": 0.0, "name": "c6092c94c73e34c99dc03ffeb9884ea7", "is_disabled": 0, "rental_uris": {"android": "https://dc.lft.to/lastmile_qr_scan", "ios": "https://dc.lft.to/lastmile_qr_scan"}, "fusion_lon": 0.0, "lat": 38.9177595, "bike_id": "c6092c94c73e34c99dc03ffeb9884ea7", "type": "electric_scooter", "is_reserved": 0, "lon": -77.024146}, {"fusion_lat": 0.0, "name": "211d5ffe3e688442bbf0e686e86c12d0", "is_disabled": 0, "rental_uris": {"android": "https://dc.lft.to/lastmile_qr_scan", "ios": "https://dc.lft.to/lastmile_qr_scan"}, "fusion_lon": 0.0, "lat": 38.910212666666666, "bike_id": "211d5ffe3e688442bbf0e686e86c12d0", "type": "electric_scooter", "is_reserved": 0, "lon": -77.05294283333333}, {"fusion_lat": 0.0, "name": "c3d11fbe218e58fb6fb6b83c8cc899ea", "is_disabled": 0, "rental_uris": {"android": "https://dc.lft.to/lastmile_qr_scan", "ios": "https://dc.lft.to/lastmile_qr_scan"}, "fusion_lon": 0.0, "lat": 38.91923533333333, "bike_id": "c3d11fbe218e58fb6fb6b83c8cc899ea", "type": "electric_scooter", "is_reserved": 0, "lon": -77.02664}, {"fusion_lat": 0.0, "name": "a97439c6a8ec9db1d73d16082ca3ef41", "is_disabled": 0, "rental_uris": {"android": "https://dc.lft.to/lastmile_qr_scan", "ios": "https://dc.lft.to/lastmile_qr_scan"}, "fusion_lon": 0.0, "lat": 38.90725466666667, "bike_id": "a97439c6a8ec9db1d73d16082ca3ef41", "type": "electric_scooter", "is_reserved": 0, "lon": -77.04345833333333}, {"fusion_lat": 0.0, "name": "5648c1d02e698f0559cb043608e86bbb", "is_disabled": 0, "rental_uris": {"android": "https://dc.lft.to/lastmile_qr_scan", "ios": "https://dc.lft.to/lastmile_qr_scan"}, "fusion_lon": 0.0, "lat": 38.88393583333333, "bike_id": "5648c1d02e698f0559cb043608e86bbb", "type": "electric_scooter", "is_reserved": 0, "lon": -76.93052216666666}, {"fusion_lat": 0.0, "name": "e7d911c460fef2f73eb58a4c0263e15c", "is_disabled": 0, "rental_uris": {"android": "https://dc.lft.to/lastmile_qr_scan", "ios": "https://dc.lft.to/lastmile_qr_scan"}, "fusion_lon": 0.0, "lat": 38.883521333333334, "bike_id": "e7d911c460fef2f73eb58a4c0263e15c", "type": "electric_scooter", "is_reserved": 0, "lon": -77.01360033333333}, {"fusion_lat": 0.0, "name": "d127bed2772a690d3eae03effe398fe9", "is_disabled": 0, "rental_uris": {"android": "https://dc.lft.to/lastmile_qr_scan", "ios": "https://dc.lft.to/lastmile_qr_scan"}, "fusion_lon": 0.0, "lat": 38.89761083333333, "bike_id": "d127bed2772a690d3eae03effe398fe9", "type": "electric_scooter", "is_reserved": 0, "lon": -77.00196516666666}, {"fusion_lat": 0.0, "name": "cbae7097a7b1e8f718bd5c992f4d18cb", "is_disabled": 0, "rental_uris": {"android": "https://dc.lft.to/lastmile_qr_scan", "ios": "https://dc.lft.to/lastmile_qr_scan"}, "fusion_lon": 0.0, "lat": 38.91717633333333, "bike_id": "cbae7097a7b1e8f718bd5c992f4d18cb", "type": "electric_scooter", "is_reserved": 0, "lon": -77.02410666666667}, {"fusion_lat": 0.0, "name": "000a2345d8d3be02ec97afe1324fe348", "is_disabled": 0, "rental_uris": {"android": "https://dc.lft.to/lastmile_qr_scan", "ios": "https://dc.lft.to/lastmile_qr_scan"}, "fusion_lon": 0.0, "lat": 38.87395316666667, "bike_id": "000a2345d8d3be02ec97afe1324fe348", "type": "electric_scooter", "is_reserved": 0, "lon": -77.00061983333333}, {"fusion_lat": 0.0, "name": "f628a1c426f58af447cb8a505a418216", "is_disabled": 0, "rental_uris": {"android": "https://dc.lft.to/lastmile_qr_scan", "ios": "https://dc.lft.to/lastmile_qr_scan"}, "fusion_lon": 0.0, "lat": 38.918479833333336, "bike_id": "f628a1c426f58af447cb8a505a418216", "type": "electric_scooter", "is_reserved": 0, "lon": -77.0244955}, {"fusion_lat": 0.0, "name": "397ea05f2875815a9fffee00a0cae9ca", "is_disabled": 0, "rental_uris": {"android": "https://dc.lft.to/lastmile_qr_scan", "ios": "https://dc.lft.to/lastmile_qr_scan"}, "fusion_lon": 0.0, "lat": 38.909464, "bike_id": "397ea05f2875815a9fffee00a0cae9ca", "type": "electric_scooter", "is_reserved": 0, "lon": -77.032025}, {"fusion_lat": 0.0, "name": "89fe7b5845ed19fbe7c0c10d8e71fd3f", "is_disabled": 0, "rental_uris": {"android": "https://dc.lft.to/lastmile_qr_scan", "ios": "https://dc.lft.to/lastmile_qr_scan"}, "fusion_lon": 0.0, "lat": 38.90139683333334, "bike_id": "89fe7b5845ed19fbe7c0c10d8e71fd3f", "type": "electric_scooter", "is_reserved": 0, "lon": -76.99121383333333}, {"fusion_lat": 0.0, "name": "648c84e893394ce45dbe7ebdd669b55a", "is_disabled": 0, "rental_uris": {"android": "https://dc.lft.to/lastmile_qr_scan", "ios": "https://dc.lft.to/lastmile_qr_scan"}, "fusion_lon": 0.0, "lat": 38.92033033333333, "bike_id": "648c84e893394ce45dbe7ebdd669b55a", "type": "electric_scooter", "is_reserved": 0, "lon": -77.07143433333333}, {"fusion_lat": 0.0, "name": "63d1fe652dd32fc328f0a86c622cfae4", "is_disabled": 0, "rental_uris": {"android": "https://dc.lft.to/lastmile_qr_scan", "ios": "https://dc.lft.to/lastmile_qr_scan"}, "fusion_lon": 0.0, "lat": 38.8876945, "bike_id": "63d1fe652dd32fc328f0a86c622cfae4", "type": "electric_scooter", "is_reserved": 0, "lon": -77.02947316666666}, {"fusion_lat": 0.0, "name": "3beda420fcdab3bce2d63dce72e05428", "is_disabled": 0, "rental_uris": {"android": "https://dc.lft.to/lastmile_qr_scan", "ios": "https://dc.lft.to/lastmile_qr_scan"}, "fusion_lon": 0.0, "lat": 38.86665033333333, "bike_id": "3beda420fcdab3bce2d63dce72e05428", "type": "electric_scooter", "is_reserved": 0, "lon": -76.98907616666666}, {"fusion_lat": 0.0, "name": "ce9efe5b65882bd6c965f975777baf5f", "is_disabled": 0, "rental_uris": {"android": "https://dc.lft.to/lastmile_qr_scan", "ios": "https://dc.lft.to/lastmile_qr_scan"}, "fusion_lon": 0.0, "lat": 38.904016, "bike_id": "ce9efe5b65882bd6c965f975777baf5f", "type": "electric_scooter", "is_reserved": 0, "lon": -77.04890966666666}, {"fusion_lat": 0.0, "name": "586d19a834531364f5a73523b2e95d41", "is_disabled": 0, "rental_uris": {"android": "https://dc.lft.to/lastmile_qr_scan", "ios": "https://dc.lft.to/lastmile_qr_scan"}, "fusion_lon": 0.0, "lat": 38.886531166666664, "bike_id": "586d19a834531364f5a73523b2e95d41", "type": "electric_scooter", "is_reserved": 0, "lon": -77.001997}, {"fusion_lat": 0.0, "name": "00f95bb3a4e2cebedb708b002f313147", "is_disabled": 0, "rental_uris": {"android": "https://dc.lft.to/lastmile_qr_scan", "ios": "https://dc.lft.to/lastmile_qr_scan"}, "fusion_lon": 0.0, "lat": 38.913489166666665, "bike_id": "00f95bb3a4e2cebedb708b002f313147", "type": "electric_bike", "is_reserved": 0, "lon": -76.98902583333333}, {"fusion_lat": 0.0, "name": "657f3bd663f7fc8a1f322e7cfc1df10d", "is_disabled": 0, "rental_uris": {"android": "https://dc.lft.to/lastmile_qr_scan", "ios": "https://dc.lft.to/lastmile_qr_scan"}, "fusion_lon": 0.0, "lat": 38.900879333333336, "bike_id": "657f3bd663f7fc8a1f322e7cfc1df10d", "type": "electric_scooter", "is_reserved": 0, "lon": -77.0492225}, {"fusion_lat": 0.0, "name": "cae0dfe1885140030d74770592ed7ba1", "is_disabled": 0, "rental_uris": {"android": "https://dc.lft.to/lastmile_qr_scan", "ios": "https://dc.lft.to/lastmile_qr_scan"}, "fusion_lon": 0.0, "lat": 38.926370666666664, "bike_id": "cae0dfe1885140030d74770592ed7ba1", "type": "electric_scooter", "is_reserved": 0, "lon": -77.03397183333334}, {"fusion_lat": 0.0, "name": "766174265d6735f09057c424070d841b", "is_disabled": 0, "rental_uris": {"android": "https://dc.lft.to/lastmile_qr_scan", "ios": "https://dc.lft.to/lastmile_qr_scan"}, "fusion_lon": 0.0, "lat": 38.948239, "bike_id": "766174265d6735f09057c424070d841b", "type": "electric_scooter", "is_reserved": 0, "lon": -77.024881}, {"fusion_lat": 0.0, "name": "024977b013d7f756ef8c73ff204adc1f", "is_disabled": 0, "rental_uris": {"android": "https://dc.lft.to/lastmile_qr_scan", "ios": "https://dc.lft.to/lastmile_qr_scan"}, "fusion_lon": 0.0, "lat": 38.920797, "bike_id": "024977b013d7f756ef8c73ff204adc1f", "type": "electric_scooter", "is_reserved": 0, "lon": -77.02315}, {"fusion_lat": 0.0, "name": "e8646f61b126fc75c0c41875002b0274", "is_disabled": 0, "rental_uris": {"android": "https://dc.lft.to/lastmile_qr_scan", "ios": "https://dc.lft.to/lastmile_qr_scan"}, "fusion_lon": 0.0, "lat": 38.942533833333336, "bike_id": "e8646f61b126fc75c0c41875002b0274", "type": "electric_scooter", "is_reserved": 0, "lon": -77.03628416666666}, {"fusion_lat": 0.0, "name": "e018b93681b37e8e45770c1056583e9d", "is_disabled": 0, "rental_uris": {"android": "https://dc.lft.to/lastmile_qr_scan", "ios": "https://dc.lft.to/lastmile_qr_scan"}, "fusion_lon": 0.0, "lat": 38.898421166666665, "bike_id": "e018b93681b37e8e45770c1056583e9d", "type": "electric_scooter", "is_reserved": 0, "lon": -77.02187766666667}, {"fusion_lat": 0.0, "name": "b0d61a13d15d76285bd1ca0dd8694972", "is_disabled": 0, "rental_uris": {"android": "https://dc.lft.to/lastmile_qr_scan", "ios": "https://dc.lft.to/lastmile_qr_scan"}, "fusion_lon": 0.0, "lat": 38.89224983333333, "bike_id": "b0d61a13d15d76285bd1ca0dd8694972", "type": "electric_scooter", "is_reserved": 0, "lon": -77.04504733333333}, {"fusion_lat": 0.0, "name": "488ab6dec3a7d84445235484291eaeae", "is_disabled": 0, "rental_uris": {"android": "https://dc.lft.to/lastmile_qr_scan", "ios": "https://dc.lft.to/lastmile_qr_scan"}, "fusion_lon": 0.0, "lat": 38.93090933333333, "bike_id": "488ab6dec3a7d84445235484291eaeae", "type": "electric_scooter", "is_reserved": 0, "lon": -77.03438416666667}, {"fusion_lat": 0.0, "name": "3f40430503f8914ad0c3d9ebec4b939b", "is_disabled": 0, "rental_uris": {"android": "https://dc.lft.to/lastmile_qr_scan", "ios": "https://dc.lft.to/lastmile_qr_scan"}, "fusion_lon": 0.0, "lat": 38.896188333333335, "bike_id": "3f40430503f8914ad0c3d9ebec4b939b", "type": "electric_scooter", "is_reserved": 0, "lon": -76.94770883333334}, {"fusion_lat": 0.0, "name": "e4dec811d5ee3fbb1cfffc24a2d59fc1", "is_disabled": 0, "rental_uris": {"android": "https://dc.lft.to/lastmile_qr_scan", "ios": "https://dc.lft.to/lastmile_qr_scan"}, "fusion_lon": 0.0, "lat": 38.8756, "bike_id": "e4dec811d5ee3fbb1cfffc24a2d59fc1", "type": "electric_scooter", "is_reserved": 0, "lon": -77.0060995}, {"fusion_lat": 0.0, "name": "507e639dd371c3ddf2dd562bf056b38c", "is_disabled": 0, "rental_uris": {"android": "https://dc.lft.to/lastmile_qr_scan", "ios": "https://dc.lft.to/lastmile_qr_scan"}, "fusion_lon": 0.0, "lat": 38.92537516666667, "bike_id": "507e639dd371c3ddf2dd562bf056b38c", "type": "electric_bike", "is_reserved": 0, "lon": -77.0509585}, {"fusion_lat": 0.0, "name": "f1e7dc8788056a3c3f8f9788bbd92164", "is_disabled": 0, "rental_uris": {"android": "https://dc.lft.to/lastmile_qr_scan", "ios": "https://dc.lft.to/lastmile_qr_scan"}, "fusion_lon": 0.0, "lat": 38.932441, "bike_id": "f1e7dc8788056a3c3f8f9788bbd92164", "type": "electric_scooter", "is_reserved": 0, "lon": -77.03410666666667}, {"fusion_lat": 0.0, "name": "7c174331e83fa2b78d3bf9e85ed541ab", "is_disabled": 0, "rental_uris": {"android": "https://dc.lft.to/lastmile_qr_scan", "ios": "https://dc.lft.to/lastmile_qr_scan"}, "fusion_lon": 0.0, "lat": 38.905118333333334, "bike_id": "7c174331e83fa2b78d3bf9e85ed541ab", "type": "electric_scooter", "is_reserved": 0, "lon": -77.06379666666666}, {"fusion_lat": 0.0, "name": "05b9ca91b876b24d9ca14f79022e588e", "is_disabled": 0, "rental_uris": {"android": "https://dc.lft.to/lastmile_qr_scan", "ios": "https://dc.lft.to/lastmile_qr_scan"}, "fusion_lon": 0.0, "lat": 38.89888933333334, "bike_id": "05b9ca91b876b24d9ca14f79022e588e", "type": "electric_scooter", "is_reserved": 0, "lon": -77.00920283333333}, {"fusion_lat": 0.0, "name": "565a2b2db7e5ef7aa65b58a00be5e929", "is_disabled": 0, "rental_uris": {"android": "https://dc.lft.to/lastmile_qr_scan", "ios": "https://dc.lft.to/lastmile_qr_scan"}, "fusion_lon": 0.0, "lat": 38.87155966666667, "bike_id": "565a2b2db7e5ef7aa65b58a00be5e929", "type": "electric_bike", "is_reserved": 0, "lon": -77.13145783333333}, {"fusion_lat": 0.0, "name": "db450292e43daeea550ef64d0a181158", "is_disabled": 0, "rental_uris": {"android": "https://dc.lft.to/lastmile_qr_scan", "ios": "https://dc.lft.to/lastmile_qr_scan"}, "fusion_lon": 0.0, "lat": 38.892348166666665, "bike_id": "db450292e43daeea550ef64d0a181158", "type": "electric_scooter", "is_reserved": 0, "lon": -77.04876116666667}, {"fusion_lat": 0.0, "name": "b36729e086a6a3dc95f9eb2bd4f3804a", "is_disabled": 0, "rental_uris": {"android": "https://dc.lft.to/lastmile_qr_scan", "ios": "https://dc.lft.to/lastmile_qr_scan"}, "fusion_lon": 0.0, "lat": 38.9922905, "bike_id": "b36729e086a6a3dc95f9eb2bd4f3804a", "type": "electric_bike", "is_reserved": 0, "lon": -76.94424633333334}, {"fusion_lat": 0.0, "name": "635b63d98c6e4d10748ec3416cd88cbe", "is_disabled": 0, "rental_uris": {"android": "https://dc.lft.to/lastmile_qr_scan", "ios": "https://dc.lft.to/lastmile_qr_scan"}, "fusion_lon": 0.0, "lat": 38.9298485, "bike_id": "635b63d98c6e4d10748ec3416cd88cbe", "type": "electric_scooter", "is_reserved": 0, "lon": -77.036581}, {"fusion_lat": 0.0, "name": "fbdffed5a97790ddc0ca92aecee90198", "is_disabled": 0, "rental_uris": {"android": "https://dc.lft.to/lastmile_qr_scan", "ios": "https://dc.lft.to/lastmile_qr_scan"}, "fusion_lon": 0.0, "lat": 38.9243915, "bike_id": "fbdffed5a97790ddc0ca92aecee90198", "type": "electric_scooter", "is_reserved": 0, "lon": -77.02018416666667}, {"fusion_lat": 0.0, "name": "01e63b9f632bbb2495bf6137ebee4956", "is_disabled": 0, "rental_uris": {"android": "https://dc.lft.to/lastmile_qr_scan", "ios": "https://dc.lft.to/lastmile_qr_scan"}, "fusion_lon": 0.0, "lat": 38.91943283333333, "bike_id": "01e63b9f632bbb2495bf6137ebee4956", "type": "electric_scooter", "is_reserved": 0, "lon": -77.04176883333334}, {"fusion_lat": 0.0, "name": "c6d76ef3da4381408821ab1c0eed0d5d", "is_disabled": 0, "rental_uris": {"android": "https://dc.lft.to/lastmile_qr_scan", "ios": "https://dc.lft.to/lastmile_qr_scan"}, "fusion_lon": 0.0, "lat": 38.914051, "bike_id": "c6d76ef3da4381408821ab1c0eed0d5d", "type": "electric_scooter", "is_reserved": 0, "lon": -77.02207916666667}, {"fusion_lat": 0.0, "name": "20e8e18df6997fb3abc99d353f005eda", "is_disabled": 0, "rental_uris": {"android": "https://dc.lft.to/lastmile_qr_scan", "ios": "https://dc.lft.to/lastmile_qr_scan"}, "fusion_lon": 0.0, "lat": 38.921348333333334, "bike_id": "20e8e18df6997fb3abc99d353f005eda", "type": "electric_scooter", "is_reserved": 0, "lon": -77.0040515}, {"fusion_lat": 0.0, "name": "205c86463ae0cb868eabf1012091e441", "is_disabled": 0, "rental_uris": {"android": "https://dc.lft.to/lastmile_qr_scan", "ios": "https://dc.lft.to/lastmile_qr_scan"}, "fusion_lon": 0.0, "lat": 38.916488333333334, "bike_id": "205c86463ae0cb868eabf1012091e441", "type": "electric_scooter", "is_reserved": 0, "lon": -77.021814}, {"fusion_lat": 0.0, "name": "b6959479ab26de1460d4d73d1e8c2743", "is_disabled": 0, "rental_uris": {"android": "https://dc.lft.to/lastmile_qr_scan", "ios": "https://dc.lft.to/lastmile_qr_scan"}, "fusion_lon": 0.0, "lat": 38.92604583333333, "bike_id": "b6959479ab26de1460d4d73d1e8c2743", "type": "electric_bike", "is_reserved": 0, "lon": -77.0642025}, {"fusion_lat": 0.0, "name": "2699c21a76786b78395a5e9c6d016ec8", "is_disabled": 0, "rental_uris": {"android": "https://dc.lft.to/lastmile_qr_scan", "ios": "https://dc.lft.to/lastmile_qr_scan"}, "fusion_lon": 0.0, "lat": 38.90802016666667, "bike_id": "2699c21a76786b78395a5e9c6d016ec8", "type": "electric_scooter", "is_reserved": 0, "lon": -77.02952883333333}, {"fusion_lat": 0.0, "name": "c0ec22617ded8a1e9d0b3fe7cb1b988e", "is_disabled": 0, "rental_uris": {"android": "https://dc.lft.to/lastmile_qr_scan", "ios": "https://dc.lft.to/lastmile_qr_scan"}, "fusion_lon": 0.0, "lat": 38.9036885, "bike_id": "c0ec22617ded8a1e9d0b3fe7cb1b988e", "type": "electric_scooter", "is_reserved": 0, "lon": -77.03643366666667}, {"fusion_lat": 0.0, "name": "dd58b7ebe16718b585fb6d65ff5f42b0", "is_disabled": 0, "rental_uris": {"android": "https://dc.lft.to/lastmile_qr_scan", "ios": "https://dc.lft.to/lastmile_qr_scan"}, "fusion_lon": 0.0, "lat": 38.987888, "bike_id": "dd58b7ebe16718b585fb6d65ff5f42b0", "type": "electric_scooter", "is_reserved": 0, "lon": -77.02416033333333}, {"fusion_lat": 0.0, "name": "dbbcc5b857a9e16faf6b7dc50ccdabc3", "is_disabled": 0, "rental_uris": {"android": "https://dc.lft.to/lastmile_qr_scan", "ios": "https://dc.lft.to/lastmile_qr_scan"}, "fusion_lon": 0.0, "lat": 38.926529333333335, "bike_id": "dbbcc5b857a9e16faf6b7dc50ccdabc3", "type": "electric_scooter", "is_reserved": 0, "lon": -77.02601316666667}, {"fusion_lat": 0.0, "name": "010f290e8a46fad5f2c7699fa1bb5c10", "is_disabled": 0, "rental_uris": {"android": "https://dc.lft.to/lastmile_qr_scan", "ios": "https://dc.lft.to/lastmile_qr_scan"}, "fusion_lon": 0.0, "lat": 38.87743316666667, "bike_id": "010f290e8a46fad5f2c7699fa1bb5c10", "type": "electric_scooter", "is_reserved": 0, "lon": -76.970302}, {"fusion_lat": 0.0, "name": "9426eac1396257272c2ca1f17204da23", "is_disabled": 0, "rental_uris": {"android": "https://dc.lft.to/lastmile_qr_scan", "ios": "https://dc.lft.to/lastmile_qr_scan"}, "fusion_lon": 0.0, "lat": 38.903967, "bike_id": "9426eac1396257272c2ca1f17204da23", "type": "electric_scooter", "is_reserved": 0, "lon": -77.0488665}, {"fusion_lat": 0.0, "name": "0daae3efc5b1bae1ca9ec7f01b124722", "is_disabled": 0, "rental_uris": {"android": "https://dc.lft.to/lastmile_qr_scan", "ios": "https://dc.lft.to/lastmile_qr_scan"}, "fusion_lon": 0.0, "lat": 38.89827, "bike_id": "0daae3efc5b1bae1ca9ec7f01b124722", "type": "electric_scooter", "is_reserved": 0, "lon": -76.987778}, {"fusion_lat": 0.0, "name": "2408bdbcdddc86e5c150d758978d0860", "is_disabled": 0, "rental_uris": {"android": "https://dc.lft.to/lastmile_qr_scan", "ios": "https://dc.lft.to/lastmile_qr_scan"}, "fusion_lon": 0.0, "lat": 38.926813, "bike_id": "2408bdbcdddc86e5c150d758978d0860", "type": "electric_scooter", "is_reserved": 0, "lon": -77.02991066666667}, {"fusion_lat": 0.0, "name": "eb634eb1aa15493c5b62c1a0de8ffe77", "is_disabled": 0, "rental_uris": {"android": "https://dc.lft.to/lastmile_qr_scan", "ios": "https://dc.lft.to/lastmile_qr_scan"}, "fusion_lon": 0.0, "lat": 38.919957, "bike_id": "eb634eb1aa15493c5b62c1a0de8ffe77", "type": "electric_scooter", "is_reserved": 0, "lon": -77.03280916666667}, {"fusion_lat": 0.0, "name": "49b33fb78d40e179b3c5e900972d0104", "is_disabled": 0, "rental_uris": {"android": "https://dc.lft.to/lastmile_qr_scan", "ios": "https://dc.lft.to/lastmile_qr_scan"}, "fusion_lon": 0.0, "lat": 38.900092666666666, "bike_id": "49b33fb78d40e179b3c5e900972d0104", "type": "electric_scooter", "is_reserved": 0, "lon": -77.01198283333333}, {"fusion_lat": 0.0, "name": "7d2ac451abcdb66f5d9712db9496074b", "is_disabled": 0, "rental_uris": {"android": "https://dc.lft.to/lastmile_qr_scan", "ios": "https://dc.lft.to/lastmile_qr_scan"}, "fusion_lon": 0.0, "lat": 38.933983833333336, "bike_id": "7d2ac451abcdb66f5d9712db9496074b", "type": "electric_bike", "is_reserved": 0, "lon": -77.03540383333333}, {"fusion_lat": 0.0, "name": "d1aaa52986b4d780e9067674d1b7362b", "is_disabled": 0, "rental_uris": {"android": "https://dc.lft.to/lastmile_qr_scan", "ios": "https://dc.lft.to/lastmile_qr_scan"}, "fusion_lon": 0.0, "lat": 38.88539633333333, "bike_id": "d1aaa52986b4d780e9067674d1b7362b", "type": "electric_scooter", "is_reserved": 0, "lon": -76.9789005}, {"fusion_lat": 0.0, "name": "2d3c01e91d3667701067238d6bde243c", "is_disabled": 0, "rental_uris": {"android": "https://dc.lft.to/lastmile_qr_scan", "ios": "https://dc.lft.to/lastmile_qr_scan"}, "fusion_lon": 0.0, "lat": 38.915680333333334, "bike_id": "2d3c01e91d3667701067238d6bde243c", "type": "electric_scooter", "is_reserved": 0, "lon": -77.01053766666666}, {"fusion_lat": 0.0, "name": "6dba92efffed87e09a737589f346ef81", "is_disabled": 0, "rental_uris": {"android": "https://dc.lft.to/lastmile_qr_scan", "ios": "https://dc.lft.to/lastmile_qr_scan"}, "fusion_lon": 0.0, "lat": 38.909729666666664, "bike_id": "6dba92efffed87e09a737589f346ef81", "type": "electric_scooter", "is_reserved": 0, "lon": -77.02688883333333}, {"fusion_lat": 0.0, "name": "4f3cba94e44a4ca24ec215e01dfdeae1", "is_disabled": 0, "rental_uris": {"android": "https://dc.lft.to/lastmile_qr_scan", "ios": "https://dc.lft.to/lastmile_qr_scan"}, "fusion_lon": 0.0, "lat": 38.88738033333333, "bike_id": "4f3cba94e44a4ca24ec215e01dfdeae1", "type": "electric_scooter", "is_reserved": 0, "lon": -77.00327}, {"fusion_lat": 0.0, "name": "9f0536e29cd61db0b1b3cff2767886c6", "is_disabled": 0, "rental_uris": {"android": "https://dc.lft.to/lastmile_qr_scan", "ios": "https://dc.lft.to/lastmile_qr_scan"}, "fusion_lon": 0.0, "lat": 38.870894166666666, "bike_id": "9f0536e29cd61db0b1b3cff2767886c6", "type": "electric_scooter", "is_reserved": 0, "lon": -77.01377433333333}, {"fusion_lat": 0.0, "name": "6c0fb70110ad80a60c46b119f1b6c561", "is_disabled": 0, "rental_uris": {"android": "https://dc.lft.to/lastmile_qr_scan", "ios": "https://dc.lft.to/lastmile_qr_scan"}, "fusion_lon": 0.0, "lat": 38.91547966666667, "bike_id": "6c0fb70110ad80a60c46b119f1b6c561", "type": "electric_scooter", "is_reserved": 0, "lon": -77.03855166666666}, {"fusion_lat": 0.0, "name": "f3006d2acf7ddf02ec1a268929ff244b", "is_disabled": 0, "rental_uris": {"android": "https://dc.lft.to/lastmile_qr_scan", "ios": "https://dc.lft.to/lastmile_qr_scan"}, "fusion_lon": 0.0, "lat": 38.903822, "bike_id": "f3006d2acf7ddf02ec1a268929ff244b", "type": "electric_scooter", "is_reserved": 0, "lon": -77.01642}, {"fusion_lat": 0.0, "name": "ea2ca459cb66763d2f2274070b52b0c5", "is_disabled": 0, "rental_uris": {"android": "https://dc.lft.to/lastmile_qr_scan", "ios": "https://dc.lft.to/lastmile_qr_scan"}, "fusion_lon": 0.0, "lat": 38.937690333333336, "bike_id": "ea2ca459cb66763d2f2274070b52b0c5", "type": "electric_scooter", "is_reserved": 0, "lon": -77.02382016666667}, {"fusion_lat": 0.0, "name": "a1825a2d79b753bbf611a0847692bcc3", "is_disabled": 0, "rental_uris": {"android": "https://dc.lft.to/lastmile_qr_scan", "ios": "https://dc.lft.to/lastmile_qr_scan"}, "fusion_lon": 0.0, "lat": 38.920767166666664, "bike_id": "a1825a2d79b753bbf611a0847692bcc3", "type": "electric_bike", "is_reserved": 0, "lon": -76.98948016666667}, {"fusion_lat": 0.0, "name": "04e0f647f230fd6cc4381de17733b682", "is_disabled": 0, "rental_uris": {"android": "https://dc.lft.to/lastmile_qr_scan", "ios": "https://dc.lft.to/lastmile_qr_scan"}, "fusion_lon": 0.0, "lat": 38.90306066666667, "bike_id": "04e0f647f230fd6cc4381de17733b682", "type": "electric_scooter", "is_reserved": 0, "lon": -77.005841}, {"fusion_lat": 0.0, "name": "cb53eb8ef9bf04c3a3b18b5aa61b024b", "is_disabled": 0, "rental_uris": {"android": "https://dc.lft.to/lastmile_qr_scan", "ios": "https://dc.lft.to/lastmile_qr_scan"}, "fusion_lon": 0.0, "lat": 38.92087883333333, "bike_id": "cb53eb8ef9bf04c3a3b18b5aa61b024b", "type": "electric_scooter", "is_reserved": 0, "lon": -77.02533216666667}, {"fusion_lat": 0.0, "name": "774a1346f37c12fe7ae6051790313d5e", "is_disabled": 0, "rental_uris": {"android": "https://dc.lft.to/lastmile_qr_scan", "ios": "https://dc.lft.to/lastmile_qr_scan"}, "fusion_lon": 0.0, "lat": 38.90248783333333, "bike_id": "774a1346f37c12fe7ae6051790313d5e", "type": "electric_scooter", "is_reserved": 0, "lon": -77.04160483333334}, {"fusion_lat": 0.0, "name": "4f32619f3e0a6dc51d3a08c181caad3a", "is_disabled": 0, "rental_uris": {"android": "https://dc.lft.to/lastmile_qr_scan", "ios": "https://dc.lft.to/lastmile_qr_scan"}, "fusion_lon": 0.0, "lat": 38.90770933333334, "bike_id": "4f32619f3e0a6dc51d3a08c181caad3a", "type": "electric_scooter", "is_reserved": 0, "lon": -77.03204516666666}, {"fusion_lat": 0.0, "name": "fa62ffc0cc941278132a50053b748dcb", "is_disabled": 0, "rental_uris": {"android": "https://dc.lft.to/lastmile_qr_scan", "ios": "https://dc.lft.to/lastmile_qr_scan"}, "fusion_lon": 0.0, "lat": 38.892963, "bike_id": "fa62ffc0cc941278132a50053b748dcb", "type": "electric_scooter", "is_reserved": 0, "lon": -77.01233866666666}, {"fusion_lat": 0.0, "name": "e24f4804558f7ed03a9b849724563f98", "is_disabled": 0, "rental_uris": {"android": "https://dc.lft.to/lastmile_qr_scan", "ios": "https://dc.lft.to/lastmile_qr_scan"}, "fusion_lon": 0.0, "lat": 38.902310166666666, "bike_id": "e24f4804558f7ed03a9b849724563f98", "type": "electric_scooter", "is_reserved": 0, "lon": -77.0534115}, {"fusion_lat": 0.0, "name": "6b25915e1dcb7997fbb4c30a299898d4", "is_disabled": 0, "rental_uris": {"android": "https://dc.lft.to/lastmile_qr_scan", "ios": "https://dc.lft.to/lastmile_qr_scan"}, "fusion_lon": 0.0, "lat": 38.9169, "bike_id": "6b25915e1dcb7997fbb4c30a299898d4", "type": "electric_scooter", "is_reserved": 0, "lon": -77.03381816666666}, {"fusion_lat": 0.0, "name": "9df81f4b353b7969dc09c0575d8e9033", "is_disabled": 0, "rental_uris": {"android": "https://dc.lft.to/lastmile_qr_scan", "ios": "https://dc.lft.to/lastmile_qr_scan"}, "fusion_lon": 0.0, "lat": 38.901255166666665, "bike_id": "9df81f4b353b7969dc09c0575d8e9033", "type": "electric_scooter", "is_reserved": 0, "lon": -77.0021305}, {"fusion_lat": 0.0, "name": "9a966ad80d2e7ab1f6c011e05f8cf86e", "is_disabled": 0, "rental_uris": {"android": "https://dc.lft.to/lastmile_qr_scan", "ios": "https://dc.lft.to/lastmile_qr_scan"}, "fusion_lon": 0.0, "lat": 38.9353835, "bike_id": "9a966ad80d2e7ab1f6c011e05f8cf86e", "type": "electric_scooter", "is_reserved": 0, "lon": -77.0574355}, {"fusion_lat": 0.0, "name": "94d1e062c9e889d95ac4e85e57fde9ee", "is_disabled": 0, "rental_uris": {"android": "https://dc.lft.to/lastmile_qr_scan", "ios": "https://dc.lft.to/lastmile_qr_scan"}, "fusion_lon": 0.0, "lat": 38.887824, "bike_id": "94d1e062c9e889d95ac4e85e57fde9ee", "type": "electric_scooter", "is_reserved": 0, "lon": -76.95533216666666}, {"fusion_lat": 0.0, "name": "081fcf6545c9d8fb113eaa820f3f6eac", "is_disabled": 0, "rental_uris": {"android": "https://dc.lft.to/lastmile_qr_scan", "ios": "https://dc.lft.to/lastmile_qr_scan"}, "fusion_lon": 0.0, "lat": 38.905544166666665, "bike_id": "081fcf6545c9d8fb113eaa820f3f6eac", "type": "electric_scooter", "is_reserved": 0, "lon": -77.04655083333333}, {"fusion_lat": 0.0, "name": "a69e986a42803b80ef07bce288186d3e", "is_disabled": 0, "rental_uris": {"android": "https://dc.lft.to/lastmile_qr_scan", "ios": "https://dc.lft.to/lastmile_qr_scan"}, "fusion_lon": 0.0, "lat": 38.933987, "bike_id": "a69e986a42803b80ef07bce288186d3e", "type": "electric_scooter", "is_reserved": 0, "lon": -77.05742883333333}, {"fusion_lat": 0.0, "name": "feaa383d88d17944b4543245e2c572ce", "is_disabled": 0, "rental_uris": {"android": "https://dc.lft.to/lastmile_qr_scan", "ios": "https://dc.lft.to/lastmile_qr_scan"}, "fusion_lon": 0.0, "lat": 38.93860733333333, "bike_id": "feaa383d88d17944b4543245e2c572ce", "type": "electric_scooter", "is_reserved": 0, "lon": -77.03440583333334}, {"fusion_lat": 0.0, "name": "2b6bf4ca34b914e757cec5e7a26eedbe", "is_disabled": 0, "rental_uris": {"android": "https://dc.lft.to/lastmile_qr_scan", "ios": "https://dc.lft.to/lastmile_qr_scan"}, "fusion_lon": 0.0, "lat": 38.909858166666666, "bike_id": "2b6bf4ca34b914e757cec5e7a26eedbe", "type": "electric_scooter", "is_reserved": 0, "lon": -77.04667266666667}, {"fusion_lat": 0.0, "name": "ec2ae952ceaead7e98733b99764000e2", "is_disabled": 0, "rental_uris": {"android": "https://dc.lft.to/lastmile_qr_scan", "ios": "https://dc.lft.to/lastmile_qr_scan"}, "fusion_lon": 0.0, "lat": 38.95882533333333, "bike_id": "ec2ae952ceaead7e98733b99764000e2", "type": "electric_bike", "is_reserved": 0, "lon": -77.010317}, {"fusion_lat": 0.0, "name": "d9b5d7e73f7de1a4de0a92e3feaecada", "is_disabled": 0, "rental_uris": {"android": "https://dc.lft.to/lastmile_qr_scan", "ios": "https://dc.lft.to/lastmile_qr_scan"}, "fusion_lon": 0.0, "lat": 38.919581666666666, "bike_id": "d9b5d7e73f7de1a4de0a92e3feaecada", "type": "electric_scooter", "is_reserved": 0, "lon": -77.03185766666667}, {"fusion_lat": 0.0, "name": "0b552cdb471c6f8951ef47b64731ac3e", "is_disabled": 0, "rental_uris": {"android": "https://dc.lft.to/lastmile_qr_scan", "ios": "https://dc.lft.to/lastmile_qr_scan"}, "fusion_lon": 0.0, "lat": 38.921708, "bike_id": "0b552cdb471c6f8951ef47b64731ac3e", "type": "electric_scooter", "is_reserved": 0, "lon": -77.0424395}, {"fusion_lat": 0.0, "name": "a8795623437d41e12674eef55ce431be", "is_disabled": 0, "rental_uris": {"android": "https://dc.lft.to/lastmile_qr_scan", "ios": "https://dc.lft.to/lastmile_qr_scan"}, "fusion_lon": 0.0, "lat": 38.919632166666666, "bike_id": "a8795623437d41e12674eef55ce431be", "type": "electric_scooter", "is_reserved": 0, "lon": -77.01773833333333}, {"fusion_lat": 0.0, "name": "1ef7700095cafecd12b84c8e469b5e9c", "is_disabled": 0, "rental_uris": {"android": "https://dc.lft.to/lastmile_qr_scan", "ios": "https://dc.lft.to/lastmile_qr_scan"}, "fusion_lon": 0.0, "lat": 38.921216, "bike_id": "1ef7700095cafecd12b84c8e469b5e9c", "type": "electric_scooter", "is_reserved": 0, "lon": -77.04380933333333}, {"fusion_lat": 0.0, "name": "d4cbbebc321c6d3b067b4ee447f5e7fd", "is_disabled": 0, "rental_uris": {"android": "https://dc.lft.to/lastmile_qr_scan", "ios": "https://dc.lft.to/lastmile_qr_scan"}, "fusion_lon": 0.0, "lat": 38.92055283333333, "bike_id": "d4cbbebc321c6d3b067b4ee447f5e7fd", "type": "electric_scooter", "is_reserved": 0, "lon": -77.023997}, {"fusion_lat": 0.0, "name": "225ff04701696b40c59ce301819ad98e", "is_disabled": 0, "rental_uris": {"android": "https://dc.lft.to/lastmile_qr_scan", "ios": "https://dc.lft.to/lastmile_qr_scan"}, "fusion_lon": 0.0, "lat": 38.924327, "bike_id": "225ff04701696b40c59ce301819ad98e", "type": "electric_scooter", "is_reserved": 0, "lon": -77.02021966666666}, {"fusion_lat": 0.0, "name": "8bc5efea079aa633e24087ede793b85a", "is_disabled": 0, "rental_uris": {"android": "https://dc.lft.to/lastmile_qr_scan", "ios": "https://dc.lft.to/lastmile_qr_scan"}, "fusion_lon": 0.0, "lat": 38.93177283333333, "bike_id": "8bc5efea079aa633e24087ede793b85a", "type": "electric_scooter", "is_reserved": 0, "lon": -77.019604}, {"fusion_lat": 0.0, "name": "d2282c4e516d49010990971fea754235", "is_disabled": 0, "rental_uris": {"android": "https://dc.lft.to/lastmile_qr_scan", "ios": "https://dc.lft.to/lastmile_qr_scan"}, "fusion_lon": 0.0, "lat": 38.88753783333333, "bike_id": "d2282c4e516d49010990971fea754235", "type": "electric_scooter", "is_reserved": 0, "lon": -76.993629}, {"fusion_lat": 0.0, "name": "4544d024bae26f90ce0576351abdbc7b", "is_disabled": 0, "rental_uris": {"android": "https://dc.lft.to/lastmile_qr_scan", "ios": "https://dc.lft.to/lastmile_qr_scan"}, "fusion_lon": 0.0, "lat": 38.892435166666665, "bike_id": "4544d024bae26f90ce0576351abdbc7b", "type": "electric_scooter", "is_reserved": 0, "lon": -77.0282695}, {"fusion_lat": 0.0, "name": "f250cb4c85930d31898d0424c67687ee", "is_disabled": 0, "rental_uris": {"android": "https://dc.lft.to/lastmile_qr_scan", "ios": "https://dc.lft.to/lastmile_qr_scan"}, "fusion_lon": 0.0, "lat": 38.9056865, "bike_id": "f250cb4c85930d31898d0424c67687ee", "type": "electric_scooter", "is_reserved": 0, "lon": -77.03435483333334}, {"fusion_lat": 0.0, "name": "3213a170fa6b75ed812c8017142e5512", "is_disabled": 0, "rental_uris": {"android": "https://dc.lft.to/lastmile_qr_scan", "ios": "https://dc.lft.to/lastmile_qr_scan"}, "fusion_lon": 0.0, "lat": 38.9267855, "bike_id": "3213a170fa6b75ed812c8017142e5512", "type": "electric_scooter", "is_reserved": 0, "lon": -77.030956}, {"fusion_lat": 0.0, "name": "b12d3ae8c3411ce3cc0a1be0a03826f8", "is_disabled": 0, "rental_uris": {"android": "https://dc.lft.to/lastmile_qr_scan", "ios": "https://dc.lft.to/lastmile_qr_scan"}, "fusion_lon": 0.0, "lat": 38.914921166666666, "bike_id": "b12d3ae8c3411ce3cc0a1be0a03826f8", "type": "electric_scooter", "is_reserved": 0, "lon": -77.0383475}, {"fusion_lat": 0.0, "name": "97c540c2085a0e68312427dfacaecfe9", "is_disabled": 0, "rental_uris": {"android": "https://dc.lft.to/lastmile_qr_scan", "ios": "https://dc.lft.to/lastmile_qr_scan"}, "fusion_lon": 0.0, "lat": 38.897471833333334, "bike_id": "97c540c2085a0e68312427dfacaecfe9", "type": "electric_scooter", "is_reserved": 0, "lon": -76.94187166666667}, {"fusion_lat": 0.0, "name": "60b52959904ed0d244e89263f5ffdb0b", "is_disabled": 0, "rental_uris": {"android": "https://dc.lft.to/lastmile_qr_scan", "ios": "https://dc.lft.to/lastmile_qr_scan"}, "fusion_lon": 0.0, "lat": 38.9245265, "bike_id": "60b52959904ed0d244e89263f5ffdb0b", "type": "electric_scooter", "is_reserved": 0, "lon": -77.040236}, {"fusion_lat": 0.0, "name": "2ef9416b05bb6c2ebfb3de2175d3f118", "is_disabled": 0, "rental_uris": {"android": "https://dc.lft.to/lastmile_qr_scan", "ios": "https://dc.lft.to/lastmile_qr_scan"}, "fusion_lon": 0.0, "lat": 38.90674466666667, "bike_id": "2ef9416b05bb6c2ebfb3de2175d3f118", "type": "electric_scooter", "is_reserved": 0, "lon": -77.027154}, {"fusion_lat": 0.0, "name": "5a6024142b0a03c68738833c38d96f2c", "is_disabled": 0, "rental_uris": {"android": "https://dc.lft.to/lastmile_qr_scan", "ios": "https://dc.lft.to/lastmile_qr_scan"}, "fusion_lon": 0.0, "lat": 38.9001655, "bike_id": "5a6024142b0a03c68738833c38d96f2c", "type": "electric_scooter", "is_reserved": 0, "lon": -77.00675933333333}, {"fusion_lat": 0.0, "name": "6db5767378922c8c67971c97c8577c9f", "is_disabled": 0, "rental_uris": {"android": "https://dc.lft.to/lastmile_qr_scan", "ios": "https://dc.lft.to/lastmile_qr_scan"}, "fusion_lon": 0.0, "lat": 38.916389, "bike_id": "6db5767378922c8c67971c97c8577c9f", "type": "electric_scooter", "is_reserved": 0, "lon": -77.032011}, {"fusion_lat": 0.0, "name": "5afba66f65a5768ef32a9934e1ce6fc6", "is_disabled": 0, "rental_uris": {"android": "https://dc.lft.to/lastmile_qr_scan", "ios": "https://dc.lft.to/lastmile_qr_scan"}, "fusion_lon": 0.0, "lat": 38.931157, "bike_id": "5afba66f65a5768ef32a9934e1ce6fc6", "type": "electric_scooter", "is_reserved": 0, "lon": -77.03032483333334}, {"fusion_lat": 0.0, "name": "26cbfa44ed9ef257ce0dc049db70d30d", "is_disabled": 0, "rental_uris": {"android": "https://dc.lft.to/lastmile_qr_scan", "ios": "https://dc.lft.to/lastmile_qr_scan"}, "fusion_lon": 0.0, "lat": 38.91840166666667, "bike_id": "26cbfa44ed9ef257ce0dc049db70d30d", "type": "electric_scooter", "is_reserved": 0, "lon": -77.0240435}, {"fusion_lat": 0.0, "name": "7891bf192de71096383d101c5f62c36d", "is_disabled": 0, "rental_uris": {"android": "https://dc.lft.to/lastmile_qr_scan", "ios": "https://dc.lft.to/lastmile_qr_scan"}, "fusion_lon": 0.0, "lat": 38.93448133333333, "bike_id": "7891bf192de71096383d101c5f62c36d", "type": "electric_scooter", "is_reserved": 0, "lon": -77.02985483333333}, {"fusion_lat": 0.0, "name": "bce7f67a661dcb928b864623094e63d1", "is_disabled": 0, "rental_uris": {"android": "https://dc.lft.to/lastmile_qr_scan", "ios": "https://dc.lft.to/lastmile_qr_scan"}, "fusion_lon": 0.0, "lat": 38.83225233333334, "bike_id": "bce7f67a661dcb928b864623094e63d1", "type": "electric_bike", "is_reserved": 0, "lon": -76.9461055}, {"fusion_lat": 0.0, "name": "a53827fc5fd0073de110f24296b072c0", "is_disabled": 0, "rental_uris": {"android": "https://dc.lft.to/lastmile_qr_scan", "ios": "https://dc.lft.to/lastmile_qr_scan"}, "fusion_lon": 0.0, "lat": 38.92631633333333, "bike_id": "a53827fc5fd0073de110f24296b072c0", "type": "electric_scooter", "is_reserved": 0, "lon": -77.04202383333333}, {"fusion_lat": 0.0, "name": "0ec481b1bf2f78efb12322b7d08dd38f", "is_disabled": 0, "rental_uris": {"android": "https://dc.lft.to/lastmile_qr_scan", "ios": "https://dc.lft.to/lastmile_qr_scan"}, "fusion_lon": 0.0, "lat": 38.93657433333333, "bike_id": "0ec481b1bf2f78efb12322b7d08dd38f", "type": "electric_scooter", "is_reserved": 0, "lon": -77.03657683333333}, {"fusion_lat": 0.0, "name": "badb76f06df1abfa90c15982f84bba52", "is_disabled": 0, "rental_uris": {"android": "https://dc.lft.to/lastmile_qr_scan", "ios": "https://dc.lft.to/lastmile_qr_scan"}, "fusion_lon": 0.0, "lat": 38.87822533333333, "bike_id": "badb76f06df1abfa90c15982f84bba52", "type": "electric_scooter", "is_reserved": 0, "lon": -77.00127}, {"fusion_lat": 0.0, "name": "5eaca826d760d0e66fc8509ca559a545", "is_disabled": 0, "rental_uris": {"android": "https://dc.lft.to/lastmile_qr_scan", "ios": "https://dc.lft.to/lastmile_qr_scan"}, "fusion_lon": 0.0, "lat": 38.898998166666665, "bike_id": "5eaca826d760d0e66fc8509ca559a545", "type": "electric_scooter", "is_reserved": 0, "lon": -76.9995785}, {"fusion_lat": 0.0, "name": "2239f285f62efbfc636a6667ac890ba4", "is_disabled": 0, "rental_uris": {"android": "https://dc.lft.to/lastmile_qr_scan", "ios": "https://dc.lft.to/lastmile_qr_scan"}, "fusion_lon": 0.0, "lat": 38.915878166666666, "bike_id": "2239f285f62efbfc636a6667ac890ba4", "type": "electric_scooter", "is_reserved": 0, "lon": -77.0447815}, {"fusion_lat": 0.0, "name": "5e2d3d74d6b6cee838c2804be6956c3f", "is_disabled": 0, "rental_uris": {"android": "https://dc.lft.to/lastmile_qr_scan", "ios": "https://dc.lft.to/lastmile_qr_scan"}, "fusion_lon": 0.0, "lat": 38.84904183333333, "bike_id": "5e2d3d74d6b6cee838c2804be6956c3f", "type": "electric_bike", "is_reserved": 0, "lon": -77.099718}, {"fusion_lat": 0.0, "name": "747cb8ceacd61ca4bd7edfca54ab0bb6", "is_disabled": 0, "rental_uris": {"android": "https://dc.lft.to/lastmile_qr_scan", "ios": "https://dc.lft.to/lastmile_qr_scan"}, "fusion_lon": 0.0, "lat": 38.92403816666667, "bike_id": "747cb8ceacd61ca4bd7edfca54ab0bb6", "type": "electric_bike", "is_reserved": 0, "lon": -77.05037566666667}, {"fusion_lat": 0.0, "name": "fa9243a956926e48c40f3d822b1365ed", "is_disabled": 0, "rental_uris": {"android": "https://dc.lft.to/lastmile_qr_scan", "ios": "https://dc.lft.to/lastmile_qr_scan"}, "fusion_lon": 0.0, "lat": 38.92408916666667, "bike_id": "fa9243a956926e48c40f3d822b1365ed", "type": "electric_scooter", "is_reserved": 0, "lon": -77.04074116666666}, {"fusion_lat": 0.0, "name": "96c187bb846d2e47631442f2603e275c", "is_disabled": 0, "rental_uris": {"android": "https://dc.lft.to/lastmile_qr_scan", "ios": "https://dc.lft.to/lastmile_qr_scan"}, "fusion_lon": 0.0, "lat": 38.905883833333334, "bike_id": "96c187bb846d2e47631442f2603e275c", "type": "electric_scooter", "is_reserved": 0, "lon": -77.041755}, {"fusion_lat": 0.0, "name": "3527342b83c306555a3bb5a3afa1e60a", "is_disabled": 0, "rental_uris": {"android": "https://dc.lft.to/lastmile_qr_scan", "ios": "https://dc.lft.to/lastmile_qr_scan"}, "fusion_lon": 0.0, "lat": 38.89224333333333, "bike_id": "3527342b83c306555a3bb5a3afa1e60a", "type": "electric_scooter", "is_reserved": 0, "lon": -77.046387}, {"fusion_lat": 0.0, "name": "b58f4f2359e2bdf3b5a5d92e5351da29", "is_disabled": 0, "rental_uris": {"android": "https://dc.lft.to/lastmile_qr_scan", "ios": "https://dc.lft.to/lastmile_qr_scan"}, "fusion_lon": 0.0, "lat": 38.930733833333335, "bike_id": "b58f4f2359e2bdf3b5a5d92e5351da29", "type": "electric_scooter", "is_reserved": 0, "lon": -77.02157433333333}, {"fusion_lat": 0.0, "name": "bc01382833e60b315ddfc5d4f66cabb3", "is_disabled": 0, "rental_uris": {"android": "https://dc.lft.to/lastmile_qr_scan", "ios": "https://dc.lft.to/lastmile_qr_scan"}, "fusion_lon": 0.0, "lat": 38.917767833333336, "bike_id": "bc01382833e60b315ddfc5d4f66cabb3", "type": "electric_scooter", "is_reserved": 0, "lon": -77.03595533333333}, {"fusion_lat": 0.0, "name": "643a26afbf1ac87118624a890e659fdb", "is_disabled": 0, "rental_uris": {"android": "https://dc.lft.to/lastmile_qr_scan", "ios": "https://dc.lft.to/lastmile_qr_scan"}, "fusion_lon": 0.0, "lat": 38.89956033333333, "bike_id": "643a26afbf1ac87118624a890e659fdb", "type": "electric_scooter", "is_reserved": 0, "lon": -77.0570085}, {"fusion_lat": 0.0, "name": "82efdd5802d99ac9e1119a20c7c080f8", "is_disabled": 0, "rental_uris": {"android": "https://dc.lft.to/lastmile_qr_scan", "ios": "https://dc.lft.to/lastmile_qr_scan"}, "fusion_lon": 0.0, "lat": 38.915412833333335, "bike_id": "82efdd5802d99ac9e1119a20c7c080f8", "type": "electric_scooter", "is_reserved": 0, "lon": -77.0320765}, {"fusion_lat": 0.0, "name": "ff20a091a22e14508ad187735600a7c3", "is_disabled": 0, "rental_uris": {"android": "https://dc.lft.to/lastmile_qr_scan", "ios": "https://dc.lft.to/lastmile_qr_scan"}, "fusion_lon": 0.0, "lat": 38.922862333333335, "bike_id": "ff20a091a22e14508ad187735600a7c3", "type": "electric_scooter", "is_reserved": 0, "lon": -77.03663683333333}, {"fusion_lat": 0.0, "name": "1272e1cdac8c8530fb74ca7388052664", "is_disabled": 0, "rental_uris": {"android": "https://dc.lft.to/lastmile_qr_scan", "ios": "https://dc.lft.to/lastmile_qr_scan"}, "fusion_lon": 0.0, "lat": 38.8874435, "bike_id": "1272e1cdac8c8530fb74ca7388052664", "type": "electric_scooter", "is_reserved": 0, "lon": -77.02137166666667}, {"fusion_lat": 0.0, "name": "9063b7e315d5cab392523f5baca9735b", "is_disabled": 0, "rental_uris": {"android": "https://dc.lft.to/lastmile_qr_scan", "ios": "https://dc.lft.to/lastmile_qr_scan"}, "fusion_lon": 0.0, "lat": 38.9029005, "bike_id": "9063b7e315d5cab392523f5baca9735b", "type": "electric_scooter", "is_reserved": 0, "lon": -77.03644216666666}, {"fusion_lat": 0.0, "name": "52eee8e1994e188310fe1c20a84d77e1", "is_disabled": 0, "rental_uris": {"android": "https://dc.lft.to/lastmile_qr_scan", "ios": "https://dc.lft.to/lastmile_qr_scan"}, "fusion_lon": 0.0, "lat": 38.90031283333333, "bike_id": "52eee8e1994e188310fe1c20a84d77e1", "type": "electric_scooter", "is_reserved": 0, "lon": -76.99878883333334}, {"fusion_lat": 0.0, "name": "d39079996e3cf0ea3473ba70cd762049", "is_disabled": 0, "rental_uris": {"android": "https://dc.lft.to/lastmile_qr_scan", "ios": "https://dc.lft.to/lastmile_qr_scan"}, "fusion_lon": 0.0, "lat": 38.907286, "bike_id": "d39079996e3cf0ea3473ba70cd762049", "type": "electric_scooter", "is_reserved": 0, "lon": -77.04565866666667}, {"fusion_lat": 0.0, "name": "134c8a2bd7e58e7301c9d78378f67c1c", "is_disabled": 0, "rental_uris": {"android": "https://dc.lft.to/lastmile_qr_scan", "ios": "https://dc.lft.to/lastmile_qr_scan"}, "fusion_lon": 0.0, "lat": 38.9307695, "bike_id": "134c8a2bd7e58e7301c9d78378f67c1c", "type": "electric_scooter", "is_reserved": 0, "lon": -77.07765366666666}, {"fusion_lat": 0.0, "name": "92b2ed75613f40bb69e37990059e33be", "is_disabled": 0, "rental_uris": {"android": "https://dc.lft.to/lastmile_qr_scan", "ios": "https://dc.lft.to/lastmile_qr_scan"}, "fusion_lon": 0.0, "lat": 38.954131, "bike_id": "92b2ed75613f40bb69e37990059e33be", "type": "electric_scooter", "is_reserved": 0, "lon": -77.02795466666667}, {"fusion_lat": 0.0, "name": "29faf1bf70da2a88f57f9be8ec34f53b", "is_disabled": 0, "rental_uris": {"android": "https://dc.lft.to/lastmile_qr_scan", "ios": "https://dc.lft.to/lastmile_qr_scan"}, "fusion_lon": 0.0, "lat": 38.860173333333336, "bike_id": "29faf1bf70da2a88f57f9be8ec34f53b", "type": "electric_bike", "is_reserved": 0, "lon": -77.1280715}, {"fusion_lat": 0.0, "name": "48b23f466beee75e6e68857fe256ef09", "is_disabled": 0, "rental_uris": {"android": "https://dc.lft.to/lastmile_qr_scan", "ios": "https://dc.lft.to/lastmile_qr_scan"}, "fusion_lon": 0.0, "lat": 38.88728716666667, "bike_id": "48b23f466beee75e6e68857fe256ef09", "type": "electric_scooter", "is_reserved": 0, "lon": -77.031826}, {"fusion_lat": 0.0, "name": "04a448e31691eab4df69aeca854dbeeb", "is_disabled": 0, "rental_uris": {"android": "https://dc.lft.to/lastmile_qr_scan", "ios": "https://dc.lft.to/lastmile_qr_scan"}, "fusion_lon": 0.0, "lat": 38.93183766666667, "bike_id": "04a448e31691eab4df69aeca854dbeeb", "type": "electric_scooter", "is_reserved": 0, "lon": -77.03157133333333}, {"fusion_lat": 0.0, "name": "56affdbe4f3cd46f12e8e6a651532e3a", "is_disabled": 0, "rental_uris": {"android": "https://dc.lft.to/lastmile_qr_scan", "ios": "https://dc.lft.to/lastmile_qr_scan"}, "fusion_lon": 0.0, "lat": 38.86668866666667, "bike_id": "56affdbe4f3cd46f12e8e6a651532e3a", "type": "electric_scooter", "is_reserved": 0, "lon": -76.989019}, {"fusion_lat": 0.0, "name": "17d14470630990b8c64a2d40ec985e66", "is_disabled": 0, "rental_uris": {"android": "https://dc.lft.to/lastmile_qr_scan", "ios": "https://dc.lft.to/lastmile_qr_scan"}, "fusion_lon": 0.0, "lat": 38.876607166666666, "bike_id": "17d14470630990b8c64a2d40ec985e66", "type": "electric_scooter", "is_reserved": 0, "lon": -77.0008195}, {"fusion_lat": 0.0, "name": "f5bb3ffca8564b9ed8be361115abe2ac", "is_disabled": 0, "rental_uris": {"android": "https://dc.lft.to/lastmile_qr_scan", "ios": "https://dc.lft.to/lastmile_qr_scan"}, "fusion_lon": 0.0, "lat": 38.920669833333335, "bike_id": "f5bb3ffca8564b9ed8be361115abe2ac", "type": "electric_scooter", "is_reserved": 0, "lon": -77.03810833333333}, {"fusion_lat": 0.0, "name": "e5b83f8d65ddc94922acb9d276ccb2d7", "is_disabled": 0, "rental_uris": {"android": "https://dc.lft.to/lastmile_qr_scan", "ios": "https://dc.lft.to/lastmile_qr_scan"}, "fusion_lon": 0.0, "lat": 38.87455533333333, "bike_id": "e5b83f8d65ddc94922acb9d276ccb2d7", "type": "electric_scooter", "is_reserved": 0, "lon": -77.00288416666666}, {"fusion_lat": 0.0, "name": "6a46e2e89216f288d655fff727316533", "is_disabled": 0, "rental_uris": {"android": "https://dc.lft.to/lastmile_qr_scan", "ios": "https://dc.lft.to/lastmile_qr_scan"}, "fusion_lon": 0.0, "lat": 38.917311, "bike_id": "6a46e2e89216f288d655fff727316533", "type": "electric_scooter", "is_reserved": 0, "lon": -77.01917683333333}, {"fusion_lat": 0.0, "name": "60ef1a820a859c4be4da7e5c85228a80", "is_disabled": 0, "rental_uris": {"android": "https://dc.lft.to/lastmile_qr_scan", "ios": "https://dc.lft.to/lastmile_qr_scan"}, "fusion_lon": 0.0, "lat": 38.928140166666665, "bike_id": "60ef1a820a859c4be4da7e5c85228a80", "type": "electric_scooter", "is_reserved": 0, "lon": -77.01413066666667}, {"fusion_lat": 0.0, "name": "2f7637913efa3bfcdc9156d23ffb75ae", "is_disabled": 0, "rental_uris": {"android": "https://dc.lft.to/lastmile_qr_scan", "ios": "https://dc.lft.to/lastmile_qr_scan"}, "fusion_lon": 0.0, "lat": 38.914802, "bike_id": "2f7637913efa3bfcdc9156d23ffb75ae", "type": "electric_scooter", "is_reserved": 0, "lon": -77.04612933333334}, {"fusion_lat": 0.0, "name": "6626527c44642cc32e18000cc72520a4", "is_disabled": 0, "rental_uris": {"android": "https://dc.lft.to/lastmile_qr_scan", "ios": "https://dc.lft.to/lastmile_qr_scan"}, "fusion_lon": 0.0, "lat": 38.92903316666667, "bike_id": "6626527c44642cc32e18000cc72520a4", "type": "electric_scooter", "is_reserved": 0, "lon": -77.021668}, {"fusion_lat": 0.0, "name": "98a56a7ede439f11c66aaed3f53bfa24", "is_disabled": 0, "rental_uris": {"android": "https://dc.lft.to/lastmile_qr_scan", "ios": "https://dc.lft.to/lastmile_qr_scan"}, "fusion_lon": 0.0, "lat": 38.906307166666664, "bike_id": "98a56a7ede439f11c66aaed3f53bfa24", "type": "electric_scooter", "is_reserved": 0, "lon": -77.0260505}, {"fusion_lat": 0.0, "name": "15780d115754b5e5ff01ad40932d6afb", "is_disabled": 0, "rental_uris": {"android": "https://dc.lft.to/lastmile_qr_scan", "ios": "https://dc.lft.to/lastmile_qr_scan"}, "fusion_lon": 0.0, "lat": 38.91187033333333, "bike_id": "15780d115754b5e5ff01ad40932d6afb", "type": "electric_scooter", "is_reserved": 0, "lon": -77.04176416666667}, {"fusion_lat": 0.0, "name": "0de7479fce2d9b9ca272d02aeb093cc9", "is_disabled": 0, "rental_uris": {"android": "https://dc.lft.to/lastmile_qr_scan", "ios": "https://dc.lft.to/lastmile_qr_scan"}, "fusion_lon": 0.0, "lat": 38.91750366666667, "bike_id": "0de7479fce2d9b9ca272d02aeb093cc9", "type": "electric_scooter", "is_reserved": 0, "lon": -77.06936983333334}, {"fusion_lat": 0.0, "name": "4c6d1955727e5cf079dd61cef5c91392", "is_disabled": 0, "rental_uris": {"android": "https://dc.lft.to/lastmile_qr_scan", "ios": "https://dc.lft.to/lastmile_qr_scan"}, "fusion_lon": 0.0, "lat": 38.91261516666667, "bike_id": "4c6d1955727e5cf079dd61cef5c91392", "type": "electric_scooter", "is_reserved": 0, "lon": -77.03167433333333}, {"fusion_lat": 0.0, "name": "a57e8bee84d224442bb47eb49c6d6426", "is_disabled": 0, "rental_uris": {"android": "https://dc.lft.to/lastmile_qr_scan", "ios": "https://dc.lft.to/lastmile_qr_scan"}, "fusion_lon": 0.0, "lat": 38.880180333333335, "bike_id": "a57e8bee84d224442bb47eb49c6d6426", "type": "electric_scooter", "is_reserved": 0, "lon": -76.98074433333333}, {"fusion_lat": 0.0, "name": "272d5eb98b3a162edd361a7b38e72549", "is_disabled": 0, "rental_uris": {"android": "https://dc.lft.to/lastmile_qr_scan", "ios": "https://dc.lft.to/lastmile_qr_scan"}, "fusion_lon": 0.0, "lat": 38.91120033333333, "bike_id": "272d5eb98b3a162edd361a7b38e72549", "type": "electric_scooter", "is_reserved": 0, "lon": -77.04372866666667}, {"fusion_lat": 0.0, "name": "d60aed558b45c021257f844df881908f", "is_disabled": 0, "rental_uris": {"android": "https://dc.lft.to/lastmile_qr_scan", "ios": "https://dc.lft.to/lastmile_qr_scan"}, "fusion_lon": 0.0, "lat": 38.962339, "bike_id": "d60aed558b45c021257f844df881908f", "type": "electric_bike", "is_reserved": 0, "lon": -77.026344}, {"fusion_lat": 0.0, "name": "9aa505bbb23c19a7c3636435e3817367", "is_disabled": 0, "rental_uris": {"android": "https://dc.lft.to/lastmile_qr_scan", "ios": "https://dc.lft.to/lastmile_qr_scan"}, "fusion_lon": 0.0, "lat": 38.89240233333334, "bike_id": "9aa505bbb23c19a7c3636435e3817367", "type": "electric_scooter", "is_reserved": 0, "lon": -77.0238275}, {"fusion_lat": 0.0, "name": "6e15af2e57ec3a07c30296f7f55ba03e", "is_disabled": 0, "rental_uris": {"android": "https://dc.lft.to/lastmile_qr_scan", "ios": "https://dc.lft.to/lastmile_qr_scan"}, "fusion_lon": 0.0, "lat": 38.916375333333335, "bike_id": "6e15af2e57ec3a07c30296f7f55ba03e", "type": "electric_scooter", "is_reserved": 0, "lon": -77.02976733333334}, {"fusion_lat": 0.0, "name": "7ad4a1b33649dee3375dfc0c36f411bc", "is_disabled": 0, "rental_uris": {"android": "https://dc.lft.to/lastmile_qr_scan", "ios": "https://dc.lft.to/lastmile_qr_scan"}, "fusion_lon": 0.0, "lat": 38.9050605, "bike_id": "7ad4a1b33649dee3375dfc0c36f411bc", "type": "electric_scooter", "is_reserved": 0, "lon": -77.03012133333333}, {"fusion_lat": 0.0, "name": "3860d646826199d8b988ab638ec9bf98", "is_disabled": 0, "rental_uris": {"android": "https://dc.lft.to/lastmile_qr_scan", "ios": "https://dc.lft.to/lastmile_qr_scan"}, "fusion_lon": 0.0, "lat": 38.89618816666667, "bike_id": "3860d646826199d8b988ab638ec9bf98", "type": "electric_scooter", "is_reserved": 0, "lon": -76.9856815}, {"fusion_lat": 0.0, "name": "867be77fa1c8bf2924da8e57993e0328", "is_disabled": 0, "rental_uris": {"android": "https://dc.lft.to/lastmile_qr_scan", "ios": "https://dc.lft.to/lastmile_qr_scan"}, "fusion_lon": 0.0, "lat": 38.90883616666667, "bike_id": "867be77fa1c8bf2924da8e57993e0328", "type": "electric_scooter", "is_reserved": 0, "lon": -76.99811633333333}, {"fusion_lat": 0.0, "name": "aa6f789bf5232032214fa3fd94a0ebf0", "is_disabled": 0, "rental_uris": {"android": "https://dc.lft.to/lastmile_qr_scan", "ios": "https://dc.lft.to/lastmile_qr_scan"}, "fusion_lon": 0.0, "lat": 38.92602483333334, "bike_id": "aa6f789bf5232032214fa3fd94a0ebf0", "type": "electric_scooter", "is_reserved": 0, "lon": -77.02388283333333}, {"fusion_lat": 0.0, "name": "c660de0d8cb50ef686f2cd0541d8e808", "is_disabled": 0, "rental_uris": {"android": "https://dc.lft.to/lastmile_qr_scan", "ios": "https://dc.lft.to/lastmile_qr_scan"}, "fusion_lon": 0.0, "lat": 38.878335666666665, "bike_id": "c660de0d8cb50ef686f2cd0541d8e808", "type": "electric_scooter", "is_reserved": 0, "lon": -77.00623266666666}, {"fusion_lat": 0.0, "name": "b0ef05afb5ec017c2182e53bc65a4934", "is_disabled": 0, "rental_uris": {"android": "https://dc.lft.to/lastmile_qr_scan", "ios": "https://dc.lft.to/lastmile_qr_scan"}, "fusion_lon": 0.0, "lat": 38.907502666666666, "bike_id": "b0ef05afb5ec017c2182e53bc65a4934", "type": "electric_scooter", "is_reserved": 0, "lon": -77.00757633333333}, {"fusion_lat": 0.0, "name": "36e05f57d86ef4f8a2d3c65f77aad7e8", "is_disabled": 0, "rental_uris": {"android": "https://dc.lft.to/lastmile_qr_scan", "ios": "https://dc.lft.to/lastmile_qr_scan"}, "fusion_lon": 0.0, "lat": 38.93364866666667, "bike_id": "36e05f57d86ef4f8a2d3c65f77aad7e8", "type": "electric_scooter", "is_reserved": 0, "lon": -77.03884316666667}, {"fusion_lat": 0.0, "name": "dcf1f3f42184e11b5e6c6146ea8c1814", "is_disabled": 0, "rental_uris": {"android": "https://dc.lft.to/lastmile_qr_scan", "ios": "https://dc.lft.to/lastmile_qr_scan"}, "fusion_lon": 0.0, "lat": 38.839373, "bike_id": "dcf1f3f42184e11b5e6c6146ea8c1814", "type": "electric_bike", "is_reserved": 0, "lon": -77.07898866666666}, {"fusion_lat": 0.0, "name": "77603286b9c1f4a555342d07bcd2918d", "is_disabled": 0, "rental_uris": {"android": "https://dc.lft.to/lastmile_qr_scan", "ios": "https://dc.lft.to/lastmile_qr_scan"}, "fusion_lon": 0.0, "lat": 38.93642366666667, "bike_id": "77603286b9c1f4a555342d07bcd2918d", "type": "electric_scooter", "is_reserved": 0, "lon": -77.03639933333334}, {"fusion_lat": 0.0, "name": "a77989b3ca6d6fa63f8851472e4007df", "is_disabled": 0, "rental_uris": {"android": "https://dc.lft.to/lastmile_qr_scan", "ios": "https://dc.lft.to/lastmile_qr_scan"}, "fusion_lon": 0.0, "lat": 38.92633933333333, "bike_id": "a77989b3ca6d6fa63f8851472e4007df", "type": "electric_scooter", "is_reserved": 0, "lon": -77.04195033333333}, {"fusion_lat": 0.0, "name": "9dc14806ab395cf2c51bda1a71621e9d", "is_disabled": 0, "rental_uris": {"android": "https://dc.lft.to/lastmile_qr_scan", "ios": "https://dc.lft.to/lastmile_qr_scan"}, "fusion_lon": 0.0, "lat": 38.930437, "bike_id": "9dc14806ab395cf2c51bda1a71621e9d", "type": "electric_scooter", "is_reserved": 0, "lon": -77.03218916666667}, {"fusion_lat": 0.0, "name": "57b46bb8a393251dc8dcb2da62107f88", "is_disabled": 0, "rental_uris": {"android": "https://dc.lft.to/lastmile_qr_scan", "ios": "https://dc.lft.to/lastmile_qr_scan"}, "fusion_lon": 0.0, "lat": 38.9119395, "bike_id": "57b46bb8a393251dc8dcb2da62107f88", "type": "electric_scooter", "is_reserved": 0, "lon": -77.03761583333333}, {"fusion_lat": 0.0, "name": "eca957246a77dce2fd2e95dfb2cb96eb", "is_disabled": 0, "rental_uris": {"android": "https://dc.lft.to/lastmile_qr_scan", "ios": "https://dc.lft.to/lastmile_qr_scan"}, "fusion_lon": 0.0, "lat": 38.919089, "bike_id": "eca957246a77dce2fd2e95dfb2cb96eb", "type": "electric_scooter", "is_reserved": 0, "lon": -77.024111}, {"fusion_lat": 0.0, "name": "2c563e4c13dccc7f4bb45bfce9f1318b", "is_disabled": 0, "rental_uris": {"android": "https://dc.lft.to/lastmile_qr_scan", "ios": "https://dc.lft.to/lastmile_qr_scan"}, "fusion_lon": 0.0, "lat": 38.89214783333333, "bike_id": "2c563e4c13dccc7f4bb45bfce9f1318b", "type": "electric_scooter", "is_reserved": 0, "lon": -76.99571733333333}, {"fusion_lat": 0.0, "name": "150d70d6140aae71b696b2d20772ad8d", "is_disabled": 0, "rental_uris": {"android": "https://dc.lft.to/lastmile_qr_scan", "ios": "https://dc.lft.to/lastmile_qr_scan"}, "fusion_lon": 0.0, "lat": 38.93106483333333, "bike_id": "150d70d6140aae71b696b2d20772ad8d", "type": "electric_scooter", "is_reserved": 0, "lon": -77.0237}, {"fusion_lat": 0.0, "name": "5744360043b157e6aeb5e6507283a599", "is_disabled": 0, "rental_uris": {"android": "https://dc.lft.to/lastmile_qr_scan", "ios": "https://dc.lft.to/lastmile_qr_scan"}, "fusion_lon": 0.0, "lat": 38.918208, "bike_id": "5744360043b157e6aeb5e6507283a599", "type": "electric_scooter", "is_reserved": 0, "lon": -77.04004366666666}, {"fusion_lat": 0.0, "name": "d1512c05156332794507edaa39152e9f", "is_disabled": 0, "rental_uris": {"android": "https://dc.lft.to/lastmile_qr_scan", "ios": "https://dc.lft.to/lastmile_qr_scan"}, "fusion_lon": 0.0, "lat": 38.9055735, "bike_id": "d1512c05156332794507edaa39152e9f", "type": "electric_scooter", "is_reserved": 0, "lon": -77.044529}, {"fusion_lat": 0.0, "name": "31dc77f92c010e21b5fce7c63f8b015c", "is_disabled": 0, "rental_uris": {"android": "https://dc.lft.to/lastmile_qr_scan", "ios": "https://dc.lft.to/lastmile_qr_scan"}, "fusion_lon": 0.0, "lat": 38.911154, "bike_id": "31dc77f92c010e21b5fce7c63f8b015c", "type": "electric_scooter", "is_reserved": 0, "lon": -77.0115415}, {"fusion_lat": 0.0, "name": "5d23172ef2dadd9e0317e63609392ae7", "is_disabled": 0, "rental_uris": {"android": "https://dc.lft.to/lastmile_qr_scan", "ios": "https://dc.lft.to/lastmile_qr_scan"}, "fusion_lon": 0.0, "lat": 38.91267366666667, "bike_id": "5d23172ef2dadd9e0317e63609392ae7", "type": "electric_scooter", "is_reserved": 0, "lon": -77.02824616666666}, {"fusion_lat": 0.0, "name": "fd34af6be4fa4fa7c8519078e1b53e9d", "is_disabled": 0, "rental_uris": {"android": "https://dc.lft.to/lastmile_qr_scan", "ios": "https://dc.lft.to/lastmile_qr_scan"}, "fusion_lon": 0.0, "lat": 38.956061, "bike_id": "fd34af6be4fa4fa7c8519078e1b53e9d", "type": "electric_scooter", "is_reserved": 0, "lon": -77.03354916666666}, {"fusion_lat": 0.0, "name": "940aaf22572d310767013041ab69a4d2", "is_disabled": 0, "rental_uris": {"android": "https://dc.lft.to/lastmile_qr_scan", "ios": "https://dc.lft.to/lastmile_qr_scan"}, "fusion_lon": 0.0, "lat": 38.938261, "bike_id": "940aaf22572d310767013041ab69a4d2", "type": "electric_scooter", "is_reserved": 0, "lon": -77.0328415}, {"fusion_lat": 0.0, "name": "183cda14093c959c3853cc4d67b1b863", "is_disabled": 0, "rental_uris": {"android": "https://dc.lft.to/lastmile_qr_scan", "ios": "https://dc.lft.to/lastmile_qr_scan"}, "fusion_lon": 0.0, "lat": 38.937784666666666, "bike_id": "183cda14093c959c3853cc4d67b1b863", "type": "electric_scooter", "is_reserved": 0, "lon": -77.032675}, {"fusion_lat": 0.0, "name": "c81c514f2fc7c94d401cf2a4aea4335b", "is_disabled": 0, "rental_uris": {"android": "https://dc.lft.to/lastmile_qr_scan", "ios": "https://dc.lft.to/lastmile_qr_scan"}, "fusion_lon": 0.0, "lat": 38.898427, "bike_id": "c81c514f2fc7c94d401cf2a4aea4335b", "type": "electric_scooter", "is_reserved": 0, "lon": -77.02978816666666}, {"fusion_lat": 0.0, "name": "53fe3c225ac9df99955c6261e3363a33", "is_disabled": 0, "rental_uris": {"android": "https://dc.lft.to/lastmile_qr_scan", "ios": "https://dc.lft.to/lastmile_qr_scan"}, "fusion_lon": 0.0, "lat": 38.917347166666666, "bike_id": "53fe3c225ac9df99955c6261e3363a33", "type": "electric_bike", "is_reserved": 0, "lon": -76.97907983333333}, {"fusion_lat": 0.0, "name": "becf17566cbb4edc56ca5fbc4391d088", "is_disabled": 0, "rental_uris": {"android": "https://dc.lft.to/lastmile_qr_scan", "ios": "https://dc.lft.to/lastmile_qr_scan"}, "fusion_lon": 0.0, "lat": 38.844262, "bike_id": "becf17566cbb4edc56ca5fbc4391d088", "type": "electric_scooter", "is_reserved": 0, "lon": -76.99779783333334}, {"fusion_lat": 0.0, "name": "e9c3f048db795a3122746d0c4bbfaf39", "is_disabled": 0, "rental_uris": {"android": "https://dc.lft.to/lastmile_qr_scan", "ios": "https://dc.lft.to/lastmile_qr_scan"}, "fusion_lon": 0.0, "lat": 38.90456616666667, "bike_id": "e9c3f048db795a3122746d0c4bbfaf39", "type": "electric_scooter", "is_reserved": 0, "lon": -77.0533185}, {"fusion_lat": 0.0, "name": "d10ec247e54a1f8dd6e44ebd258b08f1", "is_disabled": 0, "rental_uris": {"android": "https://dc.lft.to/lastmile_qr_scan", "ios": "https://dc.lft.to/lastmile_qr_scan"}, "fusion_lon": 0.0, "lat": 38.87710166666667, "bike_id": "d10ec247e54a1f8dd6e44ebd258b08f1", "type": "electric_scooter", "is_reserved": 0, "lon": -77.00704466666667}, {"fusion_lat": 0.0, "name": "8815a312fc360bac7b46cb3732ccff8b", "is_disabled": 0, "rental_uris": {"android": "https://dc.lft.to/lastmile_qr_scan", "ios": "https://dc.lft.to/lastmile_qr_scan"}, "fusion_lon": 0.0, "lat": 38.91136133333333, "bike_id": "8815a312fc360bac7b46cb3732ccff8b", "type": "electric_scooter", "is_reserved": 0, "lon": -77.065345}, {"fusion_lat": 0.0, "name": "55967e1216e58b6f7454d47e82f19a82", "is_disabled": 0, "rental_uris": {"android": "https://dc.lft.to/lastmile_qr_scan", "ios": "https://dc.lft.to/lastmile_qr_scan"}, "fusion_lon": 0.0, "lat": 38.911578666666664, "bike_id": "55967e1216e58b6f7454d47e82f19a82", "type": "electric_scooter", "is_reserved": 0, "lon": -77.03207366666666}, {"fusion_lat": 0.0, "name": "2c6b8ffe8e2312de424f24c8d7f0efdb", "is_disabled": 0, "rental_uris": {"android": "https://dc.lft.to/lastmile_qr_scan", "ios": "https://dc.lft.to/lastmile_qr_scan"}, "fusion_lon": 0.0, "lat": 38.90570983333333, "bike_id": "2c6b8ffe8e2312de424f24c8d7f0efdb", "type": "electric_scooter", "is_reserved": 0, "lon": -77.0057845}, {"fusion_lat": 0.0, "name": "ce1a04f4f646be76966bcdbfe219d28f", "is_disabled": 0, "rental_uris": {"android": "https://dc.lft.to/lastmile_qr_scan", "ios": "https://dc.lft.to/lastmile_qr_scan"}, "fusion_lon": 0.0, "lat": 38.93097083333333, "bike_id": "ce1a04f4f646be76966bcdbfe219d28f", "type": "electric_scooter", "is_reserved": 0, "lon": -77.02477916666666}, {"fusion_lat": 0.0, "name": "bfb605bcb799ae672761700759cbf873", "is_disabled": 0, "rental_uris": {"android": "https://dc.lft.to/lastmile_qr_scan", "ios": "https://dc.lft.to/lastmile_qr_scan"}, "fusion_lon": 0.0, "lat": 38.934825833333335, "bike_id": "bfb605bcb799ae672761700759cbf873", "type": "electric_scooter", "is_reserved": 0, "lon": -77.07268966666666}, {"fusion_lat": 0.0, "name": "84d6ab658b06efac079e175fa293ed2c", "is_disabled": 0, "rental_uris": {"android": "https://dc.lft.to/lastmile_qr_scan", "ios": "https://dc.lft.to/lastmile_qr_scan"}, "fusion_lon": 0.0, "lat": 38.939943166666666, "bike_id": "84d6ab658b06efac079e175fa293ed2c", "type": "electric_scooter", "is_reserved": 0, "lon": -77.0165555}, {"fusion_lat": 0.0, "name": "f788c3a922efcc8b4e2d7e81ff53dbe6", "is_disabled": 0, "rental_uris": {"android": "https://dc.lft.to/lastmile_qr_scan", "ios": "https://dc.lft.to/lastmile_qr_scan"}, "fusion_lon": 0.0, "lat": 38.9248375, "bike_id": "f788c3a922efcc8b4e2d7e81ff53dbe6", "type": "electric_scooter", "is_reserved": 0, "lon": -77.0259545}, {"fusion_lat": 0.0, "name": "5bc14a9bb913134c1d86a0d838446b5c", "is_disabled": 0, "rental_uris": {"android": "https://dc.lft.to/lastmile_qr_scan", "ios": "https://dc.lft.to/lastmile_qr_scan"}, "fusion_lon": 0.0, "lat": 38.912562333333334, "bike_id": "5bc14a9bb913134c1d86a0d838446b5c", "type": "electric_scooter", "is_reserved": 0, "lon": -77.03158233333333}, {"fusion_lat": 0.0, "name": "4250c76d1fc8df3c0caee1611dfe1275", "is_disabled": 0, "rental_uris": {"android": "https://dc.lft.to/lastmile_qr_scan", "ios": "https://dc.lft.to/lastmile_qr_scan"}, "fusion_lon": 0.0, "lat": 38.9028965, "bike_id": "4250c76d1fc8df3c0caee1611dfe1275", "type": "electric_scooter", "is_reserved": 0, "lon": -77.03648766666667}, {"fusion_lat": 0.0, "name": "d047ad6ce1ca9bf22a1c197963c01990", "is_disabled": 0, "rental_uris": {"android": "https://dc.lft.to/lastmile_qr_scan", "ios": "https://dc.lft.to/lastmile_qr_scan"}, "fusion_lon": 0.0, "lat": 38.87664083333333, "bike_id": "d047ad6ce1ca9bf22a1c197963c01990", "type": "electric_scooter", "is_reserved": 0, "lon": -77.00437766666667}, {"fusion_lat": 0.0, "name": "a8034344fd126f869a8ffa3f1e40a570", "is_disabled": 0, "rental_uris": {"android": "https://dc.lft.to/lastmile_qr_scan", "ios": "https://dc.lft.to/lastmile_qr_scan"}, "fusion_lon": 0.0, "lat": 38.91136183333333, "bike_id": "a8034344fd126f869a8ffa3f1e40a570", "type": "electric_scooter", "is_reserved": 0, "lon": -77.03838583333334}, {"fusion_lat": 0.0, "name": "413a65eca5ee65886e8aed94df73e1ed", "is_disabled": 0, "rental_uris": {"android": "https://dc.lft.to/lastmile_qr_scan", "ios": "https://dc.lft.to/lastmile_qr_scan"}, "fusion_lon": 0.0, "lat": 38.9236405, "bike_id": "413a65eca5ee65886e8aed94df73e1ed", "type": "electric_scooter", "is_reserved": 0, "lon": -77.02961666666667}, {"fusion_lat": 0.0, "name": "45d4bf27fd074f6d026dd9e60a486a55", "is_disabled": 0, "rental_uris": {"android": "https://dc.lft.to/lastmile_qr_scan", "ios": "https://dc.lft.to/lastmile_qr_scan"}, "fusion_lon": 0.0, "lat": 38.92329083333333, "bike_id": "45d4bf27fd074f6d026dd9e60a486a55", "type": "electric_scooter", "is_reserved": 0, "lon": -77.03584433333333}, {"fusion_lat": 0.0, "name": "45e9c43c15e54e2d15ac39528527ef7e", "is_disabled": 0, "rental_uris": {"android": "https://dc.lft.to/lastmile_qr_scan", "ios": "https://dc.lft.to/lastmile_qr_scan"}, "fusion_lon": 0.0, "lat": 38.90973566666667, "bike_id": "45e9c43c15e54e2d15ac39528527ef7e", "type": "electric_scooter", "is_reserved": 0, "lon": -77.0321005}, {"fusion_lat": 0.0, "name": "a44fc352b7c06c8b56b706c6ca928b2c", "is_disabled": 0, "rental_uris": {"android": "https://dc.lft.to/lastmile_qr_scan", "ios": "https://dc.lft.to/lastmile_qr_scan"}, "fusion_lon": 0.0, "lat": 38.90939383333333, "bike_id": "a44fc352b7c06c8b56b706c6ca928b2c", "type": "electric_scooter", "is_reserved": 0, "lon": -77.02810333333333}, {"fusion_lat": 0.0, "name": "7a207f1ad91c871208f911b56943fc61", "is_disabled": 0, "rental_uris": {"android": "https://dc.lft.to/lastmile_qr_scan", "ios": "https://dc.lft.to/lastmile_qr_scan"}, "fusion_lon": 0.0, "lat": 38.903398333333335, "bike_id": "7a207f1ad91c871208f911b56943fc61", "type": "electric_scooter", "is_reserved": 0, "lon": -77.0449015}, {"fusion_lat": 0.0, "name": "08093034a2a2a398f838f360d923f3db", "is_disabled": 0, "rental_uris": {"android": "https://dc.lft.to/lastmile_qr_scan", "ios": "https://dc.lft.to/lastmile_qr_scan"}, "fusion_lon": 0.0, "lat": 38.90802866666667, "bike_id": "08093034a2a2a398f838f360d923f3db", "type": "electric_scooter", "is_reserved": 0, "lon": -77.02968433333334}, {"fusion_lat": 0.0, "name": "8060059b72e14deb9a8a500bf4dbf213", "is_disabled": 0, "rental_uris": {"android": "https://dc.lft.to/lastmile_qr_scan", "ios": "https://dc.lft.to/lastmile_qr_scan"}, "fusion_lon": 0.0, "lat": 38.912600833333336, "bike_id": "8060059b72e14deb9a8a500bf4dbf213", "type": "electric_scooter", "is_reserved": 0, "lon": -77.02818666666667}, {"fusion_lat": 0.0, "name": "23f464b3b4f2f53e37a13c2eb97cacc6", "is_disabled": 0, "rental_uris": {"android": "https://dc.lft.to/lastmile_qr_scan", "ios": "https://dc.lft.to/lastmile_qr_scan"}, "fusion_lon": 0.0, "lat": 38.89556116666667, "bike_id": "23f464b3b4f2f53e37a13c2eb97cacc6", "type": "electric_scooter", "is_reserved": 0, "lon": -76.94874766666666}, {"fusion_lat": 0.0, "name": "8d5f5d8ae2fda6153d778ba0025c54e4", "is_disabled": 0, "rental_uris": {"android": "https://dc.lft.to/lastmile_qr_scan", "ios": "https://dc.lft.to/lastmile_qr_scan"}, "fusion_lon": 0.0, "lat": 38.92321533333333, "bike_id": "8d5f5d8ae2fda6153d778ba0025c54e4", "type": "electric_scooter", "is_reserved": 0, "lon": -77.04022483333334}, {"fusion_lat": 0.0, "name": "da0f01bb6940b85e9906b003c2516435", "is_disabled": 0, "rental_uris": {"android": "https://dc.lft.to/lastmile_qr_scan", "ios": "https://dc.lft.to/lastmile_qr_scan"}, "fusion_lon": 0.0, "lat": 38.899038166666664, "bike_id": "da0f01bb6940b85e9906b003c2516435", "type": "electric_scooter", "is_reserved": 0, "lon": -77.0393945}, {"fusion_lat": 0.0, "name": "deb48003e86cfda82ae0daf7bd8a13df", "is_disabled": 0, "rental_uris": {"android": "https://dc.lft.to/lastmile_qr_scan", "ios": "https://dc.lft.to/lastmile_qr_scan"}, "fusion_lon": 0.0, "lat": 38.9172705, "bike_id": "deb48003e86cfda82ae0daf7bd8a13df", "type": "electric_scooter", "is_reserved": 0, "lon": -77.02295883333333}, {"fusion_lat": 0.0, "name": "725546c3b7b7a680afd833d74b5b49e1", "is_disabled": 0, "rental_uris": {"android": "https://dc.lft.to/lastmile_qr_scan", "ios": "https://dc.lft.to/lastmile_qr_scan"}, "fusion_lon": 0.0, "lat": 38.90529433333333, "bike_id": "725546c3b7b7a680afd833d74b5b49e1", "type": "electric_bike", "is_reserved": 0, "lon": -76.99806533333333}, {"fusion_lat": 0.0, "name": "4949dafd283eda90617bc22fd060b69a", "is_disabled": 0, "rental_uris": {"android": "https://dc.lft.to/lastmile_qr_scan", "ios": "https://dc.lft.to/lastmile_qr_scan"}, "fusion_lon": 0.0, "lat": 38.9002995, "bike_id": "4949dafd283eda90617bc22fd060b69a", "type": "electric_scooter", "is_reserved": 0, "lon": -76.99627916666667}, {"fusion_lat": 0.0, "name": "b8ce18f526348cc141d84a13fe86a32d", "is_disabled": 0, "rental_uris": {"android": "https://dc.lft.to/lastmile_qr_scan", "ios": "https://dc.lft.to/lastmile_qr_scan"}, "fusion_lon": 0.0, "lat": 38.8775165, "bike_id": "b8ce18f526348cc141d84a13fe86a32d", "type": "electric_scooter", "is_reserved": 0, "lon": -77.003415}, {"fusion_lat": 0.0, "name": "025910314e6db6b41a9e3d276fc29917", "is_disabled": 0, "rental_uris": {"android": "https://dc.lft.to/lastmile_qr_scan", "ios": "https://dc.lft.to/lastmile_qr_scan"}, "fusion_lon": 0.0, "lat": 38.8973175, "bike_id": "025910314e6db6b41a9e3d276fc29917", "type": "electric_scooter", "is_reserved": 0, "lon": -77.01919116666667}, {"fusion_lat": 0.0, "name": "eb3b0c3fb4b2c91ba42253e3c213fcfa", "is_disabled": 0, "rental_uris": {"android": "https://dc.lft.to/lastmile_qr_scan", "ios": "https://dc.lft.to/lastmile_qr_scan"}, "fusion_lon": 0.0, "lat": 38.915318666666664, "bike_id": "eb3b0c3fb4b2c91ba42253e3c213fcfa", "type": "electric_scooter", "is_reserved": 0, "lon": -77.0318555}, {"fusion_lat": 0.0, "name": "3f7d7ae471dbbf6433d573adbf4e698c", "is_disabled": 0, "rental_uris": {"android": "https://dc.lft.to/lastmile_qr_scan", "ios": "https://dc.lft.to/lastmile_qr_scan"}, "fusion_lon": 0.0, "lat": 38.906513, "bike_id": "3f7d7ae471dbbf6433d573adbf4e698c", "type": "electric_scooter", "is_reserved": 0, "lon": -77.041401}, {"fusion_lat": 0.0, "name": "e91af5a99fcc919b08f117bc70340baf", "is_disabled": 0, "rental_uris": {"android": "https://dc.lft.to/lastmile_qr_scan", "ios": "https://dc.lft.to/lastmile_qr_scan"}, "fusion_lon": 0.0, "lat": 38.887466833333335, "bike_id": "e91af5a99fcc919b08f117bc70340baf", "type": "electric_scooter", "is_reserved": 0, "lon": -77.02135883333334}, {"fusion_lat": 0.0, "name": "36077c23ee1a5aea9b4e7743918f724a", "is_disabled": 0, "rental_uris": {"android": "https://dc.lft.to/lastmile_qr_scan", "ios": "https://dc.lft.to/lastmile_qr_scan"}, "fusion_lon": 0.0, "lat": 38.902913833333336, "bike_id": "36077c23ee1a5aea9b4e7743918f724a", "type": "electric_scooter", "is_reserved": 0, "lon": -77.01617816666666}, {"fusion_lat": 0.0, "name": "572ce3e94d33dba3256d938d1101f142", "is_disabled": 0, "rental_uris": {"android": "https://dc.lft.to/lastmile_qr_scan", "ios": "https://dc.lft.to/lastmile_qr_scan"}, "fusion_lon": 0.0, "lat": 38.924496833333336, "bike_id": "572ce3e94d33dba3256d938d1101f142", "type": "electric_scooter", "is_reserved": 0, "lon": -77.03969083333334}, {"fusion_lat": 0.0, "name": "61eeb37101227dea77a6481167c3a288", "is_disabled": 0, "rental_uris": {"android": "https://dc.lft.to/lastmile_qr_scan", "ios": "https://dc.lft.to/lastmile_qr_scan"}, "fusion_lon": 0.0, "lat": 38.92582866666667, "bike_id": "61eeb37101227dea77a6481167c3a288", "type": "electric_scooter", "is_reserved": 0, "lon": -77.02978266666666}, {"fusion_lat": 0.0, "name": "e2c4bb5b2ab1386301fbfed52f4667ab", "is_disabled": 0, "rental_uris": {"android": "https://dc.lft.to/lastmile_qr_scan", "ios": "https://dc.lft.to/lastmile_qr_scan"}, "fusion_lon": 0.0, "lat": 38.91565383333333, "bike_id": "e2c4bb5b2ab1386301fbfed52f4667ab", "type": "electric_bike", "is_reserved": 0, "lon": -77.00586033333333}, {"fusion_lat": 0.0, "name": "c481a18ca8f8b8ee18623f57443c7c62", "is_disabled": 0, "rental_uris": {"android": "https://dc.lft.to/lastmile_qr_scan", "ios": "https://dc.lft.to/lastmile_qr_scan"}, "fusion_lon": 0.0, "lat": 38.92139366666667, "bike_id": "c481a18ca8f8b8ee18623f57443c7c62", "type": "electric_scooter", "is_reserved": 0, "lon": -77.044224}, {"fusion_lat": 0.0, "name": "2bd31e388d716856d3679684ea2f6456", "is_disabled": 0, "rental_uris": {"android": "https://dc.lft.to/lastmile_qr_scan", "ios": "https://dc.lft.to/lastmile_qr_scan"}, "fusion_lon": 0.0, "lat": 38.90721683333334, "bike_id": "2bd31e388d716856d3679684ea2f6456", "type": "electric_scooter", "is_reserved": 0, "lon": -77.0455695}, {"fusion_lat": 0.0, "name": "6b8ae4bb79839fee838602e16927aa56", "is_disabled": 0, "rental_uris": {"android": "https://dc.lft.to/lastmile_qr_scan", "ios": "https://dc.lft.to/lastmile_qr_scan"}, "fusion_lon": 0.0, "lat": 38.92154433333333, "bike_id": "6b8ae4bb79839fee838602e16927aa56", "type": "electric_scooter", "is_reserved": 0, "lon": -77.03264033333333}, {"fusion_lat": 0.0, "name": "64fee1bef642239848da9f1475d9e979", "is_disabled": 0, "rental_uris": {"android": "https://dc.lft.to/lastmile_qr_scan", "ios": "https://dc.lft.to/lastmile_qr_scan"}, "fusion_lon": 0.0, "lat": 38.8922395, "bike_id": "64fee1bef642239848da9f1475d9e979", "type": "electric_scooter", "is_reserved": 0, "lon": -77.03222516666666}, {"fusion_lat": 0.0, "name": "36865f716de467d27a00a56ffebbd7b8", "is_disabled": 0, "rental_uris": {"android": "https://dc.lft.to/lastmile_qr_scan", "ios": "https://dc.lft.to/lastmile_qr_scan"}, "fusion_lon": 0.0, "lat": 38.917187, "bike_id": "36865f716de467d27a00a56ffebbd7b8", "type": "electric_scooter", "is_reserved": 0, "lon": -77.02404933333334}, {"fusion_lat": 0.0, "name": "42841039333f97212d8ae283591b510e", "is_disabled": 0, "rental_uris": {"android": "https://dc.lft.to/lastmile_qr_scan", "ios": "https://dc.lft.to/lastmile_qr_scan"}, "fusion_lon": 0.0, "lat": 38.915438333333334, "bike_id": "42841039333f97212d8ae283591b510e", "type": "electric_scooter", "is_reserved": 0, "lon": -77.03201766666666}, {"fusion_lat": 0.0, "name": "a36975a491315f90e433e3451389437f", "is_disabled": 0, "rental_uris": {"android": "https://dc.lft.to/lastmile_qr_scan", "ios": "https://dc.lft.to/lastmile_qr_scan"}, "fusion_lon": 0.0, "lat": 38.91554566666667, "bike_id": "a36975a491315f90e433e3451389437f", "type": "electric_scooter", "is_reserved": 0, "lon": -77.03844016666666}, {"fusion_lat": 0.0, "name": "b0e8aea42b493cd851be646c415c0e49", "is_disabled": 0, "rental_uris": {"android": "https://dc.lft.to/lastmile_qr_scan", "ios": "https://dc.lft.to/lastmile_qr_scan"}, "fusion_lon": 0.0, "lat": 38.910417833333334, "bike_id": "b0e8aea42b493cd851be646c415c0e49", "type": "electric_scooter", "is_reserved": 0, "lon": -77.04290766666666}, {"fusion_lat": 0.0, "name": "9e6ea7891bd970f3349887adbe76ded0", "is_disabled": 0, "rental_uris": {"android": "https://dc.lft.to/lastmile_qr_scan", "ios": "https://dc.lft.to/lastmile_qr_scan"}, "fusion_lon": 0.0, "lat": 38.8947175, "bike_id": "9e6ea7891bd970f3349887adbe76ded0", "type": "electric_scooter", "is_reserved": 0, "lon": -77.01764383333334}, {"fusion_lat": 0.0, "name": "30bb048a62ddc26dd09c50c4b4f9cb00", "is_disabled": 0, "rental_uris": {"android": "https://dc.lft.to/lastmile_qr_scan", "ios": "https://dc.lft.to/lastmile_qr_scan"}, "fusion_lon": 0.0, "lat": 38.907876333333334, "bike_id": "30bb048a62ddc26dd09c50c4b4f9cb00", "type": "electric_scooter", "is_reserved": 0, "lon": -76.99400416666667}, {"fusion_lat": 0.0, "name": "e69e9bba0a5e10fa4a8acccbcb52b023", "is_disabled": 0, "rental_uris": {"android": "https://dc.lft.to/lastmile_qr_scan", "ios": "https://dc.lft.to/lastmile_qr_scan"}, "fusion_lon": 0.0, "lat": 38.9023985, "bike_id": "e69e9bba0a5e10fa4a8acccbcb52b023", "type": "electric_scooter", "is_reserved": 0, "lon": -77.00201866666667}, {"fusion_lat": 0.0, "name": "360319f80da33e940c413b37d15c3085", "is_disabled": 0, "rental_uris": {"android": "https://dc.lft.to/lastmile_qr_scan", "ios": "https://dc.lft.to/lastmile_qr_scan"}, "fusion_lon": 0.0, "lat": 38.92758533333333, "bike_id": "360319f80da33e940c413b37d15c3085", "type": "electric_scooter", "is_reserved": 0, "lon": -77.02960566666667}, {"fusion_lat": 0.0, "name": "e718a7c7c103ff596ec0bd75e0a1f214", "is_disabled": 0, "rental_uris": {"android": "https://dc.lft.to/lastmile_qr_scan", "ios": "https://dc.lft.to/lastmile_qr_scan"}, "fusion_lon": 0.0, "lat": 38.91255016666667, "bike_id": "e718a7c7c103ff596ec0bd75e0a1f214", "type": "electric_scooter", "is_reserved": 0, "lon": -77.038743}, {"fusion_lat": 0.0, "name": "6fb3f97182ff9362c92e5c29cf308bda", "is_disabled": 0, "rental_uris": {"android": "https://dc.lft.to/lastmile_qr_scan", "ios": "https://dc.lft.to/lastmile_qr_scan"}, "fusion_lon": 0.0, "lat": 38.8928915, "bike_id": "6fb3f97182ff9362c92e5c29cf308bda", "type": "electric_scooter", "is_reserved": 0, "lon": -77.031837}, {"fusion_lat": 0.0, "name": "1686a1b93f127f140d5f8a20edfa5d00", "is_disabled": 0, "rental_uris": {"android": "https://dc.lft.to/lastmile_qr_scan", "ios": "https://dc.lft.to/lastmile_qr_scan"}, "fusion_lon": 0.0, "lat": 38.915053666666665, "bike_id": "1686a1b93f127f140d5f8a20edfa5d00", "type": "electric_scooter", "is_reserved": 0, "lon": -77.0122085}, {"fusion_lat": 0.0, "name": "945e13c66613208e65e73afdf0fab262", "is_disabled": 0, "rental_uris": {"android": "https://dc.lft.to/lastmile_qr_scan", "ios": "https://dc.lft.to/lastmile_qr_scan"}, "fusion_lon": 0.0, "lat": 38.917661, "bike_id": "945e13c66613208e65e73afdf0fab262", "type": "electric_scooter", "is_reserved": 0, "lon": -77.06952116666666}, {"fusion_lat": 0.0, "name": "bbcd223eee18e6f25b4f6846a9b9e526", "is_disabled": 0, "rental_uris": {"android": "https://dc.lft.to/lastmile_qr_scan", "ios": "https://dc.lft.to/lastmile_qr_scan"}, "fusion_lon": 0.0, "lat": 38.926425, "bike_id": "bbcd223eee18e6f25b4f6846a9b9e526", "type": "electric_scooter", "is_reserved": 0, "lon": -77.04141433333334}, {"fusion_lat": 0.0, "name": "ac99cff5e4ff1abd12ea302bf4b8dd38", "is_disabled": 0, "rental_uris": {"android": "https://dc.lft.to/lastmile_qr_scan", "ios": "https://dc.lft.to/lastmile_qr_scan"}, "fusion_lon": 0.0, "lat": 38.874683833333336, "bike_id": "ac99cff5e4ff1abd12ea302bf4b8dd38", "type": "electric_scooter", "is_reserved": 0, "lon": -77.00480533333334}, {"fusion_lat": 0.0, "name": "912e8ffef3629d80f4b7d5f6bccc543b", "is_disabled": 0, "rental_uris": {"android": "https://dc.lft.to/lastmile_qr_scan", "ios": "https://dc.lft.to/lastmile_qr_scan"}, "fusion_lon": 0.0, "lat": 38.87375316666667, "bike_id": "912e8ffef3629d80f4b7d5f6bccc543b", "type": "electric_scooter", "is_reserved": 0, "lon": -77.000632}, {"fusion_lat": 0.0, "name": "a0de87a53f984a9b502b6bfd44c80dbf", "is_disabled": 0, "rental_uris": {"android": "https://dc.lft.to/lastmile_qr_scan", "ios": "https://dc.lft.to/lastmile_qr_scan"}, "fusion_lon": 0.0, "lat": 38.931156, "bike_id": "a0de87a53f984a9b502b6bfd44c80dbf", "type": "electric_scooter", "is_reserved": 0, "lon": -77.02099116666666}, {"fusion_lat": 0.0, "name": "e69c00e0fc6f4fd628843d2f61443e64", "is_disabled": 0, "rental_uris": {"android": "https://dc.lft.to/lastmile_qr_scan", "ios": "https://dc.lft.to/lastmile_qr_scan"}, "fusion_lon": 0.0, "lat": 38.92353383333333, "bike_id": "e69c00e0fc6f4fd628843d2f61443e64", "type": "electric_scooter", "is_reserved": 0, "lon": -77.03312466666667}, {"fusion_lat": 0.0, "name": "b6607430ae22a9d1a4a08d74e9e31234", "is_disabled": 0, "rental_uris": {"android": "https://dc.lft.to/lastmile_qr_scan", "ios": "https://dc.lft.to/lastmile_qr_scan"}, "fusion_lon": 0.0, "lat": 38.9878585, "bike_id": "b6607430ae22a9d1a4a08d74e9e31234", "type": "electric_bike", "is_reserved": 0, "lon": -77.141054}, {"fusion_lat": 0.0, "name": "77b16c1c7dd8389efc20c7f5a2bacd7c", "is_disabled": 0, "rental_uris": {"android": "https://dc.lft.to/lastmile_qr_scan", "ios": "https://dc.lft.to/lastmile_qr_scan"}, "fusion_lon": 0.0, "lat": 38.940783833333334, "bike_id": "77b16c1c7dd8389efc20c7f5a2bacd7c", "type": "electric_bike", "is_reserved": 0, "lon": -77.00023616666667}, {"fusion_lat": 0.0, "name": "2bf608d5904e474aa084eb9b5787825e", "is_disabled": 0, "rental_uris": {"android": "https://dc.lft.to/lastmile_qr_scan", "ios": "https://dc.lft.to/lastmile_qr_scan"}, "fusion_lon": 0.0, "lat": 38.895652, "bike_id": "2bf608d5904e474aa084eb9b5787825e", "type": "electric_scooter", "is_reserved": 0, "lon": -77.02393783333333}, {"fusion_lat": 0.0, "name": "bb6a290db301875fc6102eca19a07c35", "is_disabled": 0, "rental_uris": {"android": "https://dc.lft.to/lastmile_qr_scan", "ios": "https://dc.lft.to/lastmile_qr_scan"}, "fusion_lon": 0.0, "lat": 38.887459666666665, "bike_id": "bb6a290db301875fc6102eca19a07c35", "type": "electric_scooter", "is_reserved": 0, "lon": -77.027774}, {"fusion_lat": 0.0, "name": "7d0e80b54a775a2bde9d8aeafc539a93", "is_disabled": 0, "rental_uris": {"android": "https://dc.lft.to/lastmile_qr_scan", "ios": "https://dc.lft.to/lastmile_qr_scan"}, "fusion_lon": 0.0, "lat": 38.9416685, "bike_id": "7d0e80b54a775a2bde9d8aeafc539a93", "type": "electric_bike", "is_reserved": 0, "lon": -76.9664635}, {"fusion_lat": 0.0, "name": "9ee323eab7f8c6195aa0612a8678feaa", "is_disabled": 0, "rental_uris": {"android": "https://dc.lft.to/lastmile_qr_scan", "ios": "https://dc.lft.to/lastmile_qr_scan"}, "fusion_lon": 0.0, "lat": 38.9160405, "bike_id": "9ee323eab7f8c6195aa0612a8678feaa", "type": "electric_scooter", "is_reserved": 0, "lon": -77.02294516666667}, {"fusion_lat": 0.0, "name": "94b99be58c829a7cc19891eba5d49e0e", "is_disabled": 0, "rental_uris": {"android": "https://dc.lft.to/lastmile_qr_scan", "ios": "https://dc.lft.to/lastmile_qr_scan"}, "fusion_lon": 0.0, "lat": 38.895452166666665, "bike_id": "94b99be58c829a7cc19891eba5d49e0e", "type": "electric_scooter", "is_reserved": 0, "lon": -76.9834135}, {"fusion_lat": 0.0, "name": "5183e33655fb324087a1cf98c014377e", "is_disabled": 0, "rental_uris": {"android": "https://dc.lft.to/lastmile_qr_scan", "ios": "https://dc.lft.to/lastmile_qr_scan"}, "fusion_lon": 0.0, "lat": 38.908677, "bike_id": "5183e33655fb324087a1cf98c014377e", "type": "electric_scooter", "is_reserved": 0, "lon": -77.02407366666667}, {"fusion_lat": 0.0, "name": "ad4e8fe175a4cdc861dd8635add0d0e8", "is_disabled": 0, "rental_uris": {"android": "https://dc.lft.to/lastmile_qr_scan", "ios": "https://dc.lft.to/lastmile_qr_scan"}, "fusion_lon": 0.0, "lat": 38.914694833333336, "bike_id": "ad4e8fe175a4cdc861dd8635add0d0e8", "type": "electric_scooter", "is_reserved": 0, "lon": -77.04563683333333}, {"fusion_lat": 0.0, "name": "02e6f31bd8f147c7abac907ac3c56719", "is_disabled": 0, "rental_uris": {"android": "https://dc.lft.to/lastmile_qr_scan", "ios": "https://dc.lft.to/lastmile_qr_scan"}, "fusion_lon": 0.0, "lat": 38.873725666666665, "bike_id": "02e6f31bd8f147c7abac907ac3c56719", "type": "electric_scooter", "is_reserved": 0, "lon": -77.0012905}, {"fusion_lat": 0.0, "name": "d98aadc50221755f896f525bba3089bc", "is_disabled": 0, "rental_uris": {"android": "https://dc.lft.to/lastmile_qr_scan", "ios": "https://dc.lft.to/lastmile_qr_scan"}, "fusion_lon": 0.0, "lat": 38.900319333333336, "bike_id": "d98aadc50221755f896f525bba3089bc", "type": "electric_scooter", "is_reserved": 0, "lon": -76.99638983333334}, {"fusion_lat": 0.0, "name": "48b74fc72c4a2f328d6f99ba1130adfb", "is_disabled": 0, "rental_uris": {"android": "https://dc.lft.to/lastmile_qr_scan", "ios": "https://dc.lft.to/lastmile_qr_scan"}, "fusion_lon": 0.0, "lat": 38.95200066666666, "bike_id": "48b74fc72c4a2f328d6f99ba1130adfb", "type": "electric_scooter", "is_reserved": 0, "lon": -77.01249983333334}, {"fusion_lat": 0.0, "name": "988a1eb320e9460772cdc8ae4b778aab", "is_disabled": 0, "rental_uris": {"android": "https://dc.lft.to/lastmile_qr_scan", "ios": "https://dc.lft.to/lastmile_qr_scan"}, "fusion_lon": 0.0, "lat": 38.938305, "bike_id": "988a1eb320e9460772cdc8ae4b778aab", "type": "electric_scooter", "is_reserved": 0, "lon": -77.0305205}, {"fusion_lat": 0.0, "name": "277f79b3a8abdb66c1c772b487256ee3", "is_disabled": 0, "rental_uris": {"android": "https://dc.lft.to/lastmile_qr_scan", "ios": "https://dc.lft.to/lastmile_qr_scan"}, "fusion_lon": 0.0, "lat": 38.90151766666666, "bike_id": "277f79b3a8abdb66c1c772b487256ee3", "type": "electric_scooter", "is_reserved": 0, "lon": -76.930711}, {"fusion_lat": 0.0, "name": "ec5e74b4e4c22a4854e3a10dfbce55a0", "is_disabled": 0, "rental_uris": {"android": "https://dc.lft.to/lastmile_qr_scan", "ios": "https://dc.lft.to/lastmile_qr_scan"}, "fusion_lon": 0.0, "lat": 38.928730333333334, "bike_id": "ec5e74b4e4c22a4854e3a10dfbce55a0", "type": "electric_scooter", "is_reserved": 0, "lon": -77.03442283333334}, {"fusion_lat": 0.0, "name": "3b4e923f96bf2984a24e0d140029bf1d", "is_disabled": 0, "rental_uris": {"android": "https://dc.lft.to/lastmile_qr_scan", "ios": "https://dc.lft.to/lastmile_qr_scan"}, "fusion_lon": 0.0, "lat": 38.906830166666666, "bike_id": "3b4e923f96bf2984a24e0d140029bf1d", "type": "electric_bike", "is_reserved": 0, "lon": -76.944948}, {"fusion_lat": 0.0, "name": "7984abead4fb336113fafa2be5d280d4", "is_disabled": 0, "rental_uris": {"android": "https://dc.lft.to/lastmile_qr_scan", "ios": "https://dc.lft.to/lastmile_qr_scan"}, "fusion_lon": 0.0, "lat": 38.90845316666667, "bike_id": "7984abead4fb336113fafa2be5d280d4", "type": "electric_scooter", "is_reserved": 0, "lon": -76.99756966666666}, {"fusion_lat": 0.0, "name": "735649fd0078e6b5fd8c4c6230e80522", "is_disabled": 0, "rental_uris": {"android": "https://dc.lft.to/lastmile_qr_scan", "ios": "https://dc.lft.to/lastmile_qr_scan"}, "fusion_lon": 0.0, "lat": 38.92231066666667, "bike_id": "735649fd0078e6b5fd8c4c6230e80522", "type": "electric_scooter", "is_reserved": 0, "lon": -77.04253733333333}, {"fusion_lat": 0.0, "name": "5861dc9e360b9aee31c1ef632fbde3dd", "is_disabled": 0, "rental_uris": {"android": "https://dc.lft.to/lastmile_qr_scan", "ios": "https://dc.lft.to/lastmile_qr_scan"}, "fusion_lon": 0.0, "lat": 38.875577166666666, "bike_id": "5861dc9e360b9aee31c1ef632fbde3dd", "type": "electric_scooter", "is_reserved": 0, "lon": -77.006036}, {"fusion_lat": 0.0, "name": "ed744289f99707bf7b4a42a31efb7b64", "is_disabled": 0, "rental_uris": {"android": "https://dc.lft.to/lastmile_qr_scan", "ios": "https://dc.lft.to/lastmile_qr_scan"}, "fusion_lon": 0.0, "lat": 38.92316733333333, "bike_id": "ed744289f99707bf7b4a42a31efb7b64", "type": "electric_scooter", "is_reserved": 0, "lon": -77.0412705}, {"fusion_lat": 0.0, "name": "4ee65a79fd8495bb15f0f742ca562cc6", "is_disabled": 0, "rental_uris": {"android": "https://dc.lft.to/lastmile_qr_scan", "ios": "https://dc.lft.to/lastmile_qr_scan"}, "fusion_lon": 0.0, "lat": 38.92067183333333, "bike_id": "4ee65a79fd8495bb15f0f742ca562cc6", "type": "electric_scooter", "is_reserved": 0, "lon": -77.0424355}, {"fusion_lat": 0.0, "name": "98d201ad6fd260162fa0b91c1693da88", "is_disabled": 0, "rental_uris": {"android": "https://dc.lft.to/lastmile_qr_scan", "ios": "https://dc.lft.to/lastmile_qr_scan"}, "fusion_lon": 0.0, "lat": 38.871525166666665, "bike_id": "98d201ad6fd260162fa0b91c1693da88", "type": "electric_bike", "is_reserved": 0, "lon": -77.01191833333333}, {"fusion_lat": 0.0, "name": "69b2507b1486c579d8af0832f7f27bbe", "is_disabled": 0, "rental_uris": {"android": "https://dc.lft.to/lastmile_qr_scan", "ios": "https://dc.lft.to/lastmile_qr_scan"}, "fusion_lon": 0.0, "lat": 38.9169975, "bike_id": "69b2507b1486c579d8af0832f7f27bbe", "type": "electric_scooter", "is_reserved": 0, "lon": -77.02431266666666}, {"fusion_lat": 0.0, "name": "181fbe8b11d9579fdbb6cb1652e74a92", "is_disabled": 0, "rental_uris": {"android": "https://dc.lft.to/lastmile_qr_scan", "ios": "https://dc.lft.to/lastmile_qr_scan"}, "fusion_lon": 0.0, "lat": 38.916859, "bike_id": "181fbe8b11d9579fdbb6cb1652e74a92", "type": "electric_scooter", "is_reserved": 0, "lon": -77.0367195}, {"fusion_lat": 0.0, "name": "09e0d0618b918128ff8db9b25f4064ea", "is_disabled": 0, "rental_uris": {"android": "https://dc.lft.to/lastmile_qr_scan", "ios": "https://dc.lft.to/lastmile_qr_scan"}, "fusion_lon": 0.0, "lat": 38.9177195, "bike_id": "09e0d0618b918128ff8db9b25f4064ea", "type": "electric_scooter", "is_reserved": 0, "lon": -77.04557483333333}, {"fusion_lat": 0.0, "name": "2842b22bac7915d2a9a09570ef761f8b", "is_disabled": 0, "rental_uris": {"android": "https://dc.lft.to/lastmile_qr_scan", "ios": "https://dc.lft.to/lastmile_qr_scan"}, "fusion_lon": 0.0, "lat": 38.950596166666664, "bike_id": "2842b22bac7915d2a9a09570ef761f8b", "type": "electric_scooter", "is_reserved": 0, "lon": -77.08027683333333}, {"fusion_lat": 0.0, "name": "1f3e99297516bff79b56bdb89840653d", "is_disabled": 0, "rental_uris": {"android": "https://dc.lft.to/lastmile_qr_scan", "ios": "https://dc.lft.to/lastmile_qr_scan"}, "fusion_lon": 0.0, "lat": 38.8755675, "bike_id": "1f3e99297516bff79b56bdb89840653d", "type": "electric_scooter", "is_reserved": 0, "lon": -77.0061245}, {"fusion_lat": 0.0, "name": "7d0ddd991156c3f252701b625c8d025a", "is_disabled": 0, "rental_uris": {"android": "https://dc.lft.to/lastmile_qr_scan", "ios": "https://dc.lft.to/lastmile_qr_scan"}, "fusion_lon": 0.0, "lat": 38.90198483333333, "bike_id": "7d0ddd991156c3f252701b625c8d025a", "type": "electric_scooter", "is_reserved": 0, "lon": -77.02373633333333}, {"fusion_lat": 0.0, "name": "08a9b5546728c5264449d22e93181b71", "is_disabled": 0, "rental_uris": {"android": "https://dc.lft.to/lastmile_qr_scan", "ios": "https://dc.lft.to/lastmile_qr_scan"}, "fusion_lon": 0.0, "lat": 38.9002245, "bike_id": "08a9b5546728c5264449d22e93181b71", "type": "electric_scooter", "is_reserved": 0, "lon": -77.0121805}, {"fusion_lat": 0.0, "name": "2fa4348dcc8ce53798aa3bb610ae28c6", "is_disabled": 0, "rental_uris": {"android": "https://dc.lft.to/lastmile_qr_scan", "ios": "https://dc.lft.to/lastmile_qr_scan"}, "fusion_lon": 0.0, "lat": 38.8975105, "bike_id": "2fa4348dcc8ce53798aa3bb610ae28c6", "type": "electric_scooter", "is_reserved": 0, "lon": -77.03311783333334}, {"fusion_lat": 0.0, "name": "72e021e2fdb89bb7bdccf88dc2f875cd", "is_disabled": 0, "rental_uris": {"android": "https://dc.lft.to/lastmile_qr_scan", "ios": "https://dc.lft.to/lastmile_qr_scan"}, "fusion_lon": 0.0, "lat": 38.9045695, "bike_id": "72e021e2fdb89bb7bdccf88dc2f875cd", "type": "electric_scooter", "is_reserved": 0, "lon": -77.0532045}, {"fusion_lat": 0.0, "name": "aef6f646d6824dc5df76a49056b0aa4a", "is_disabled": 0, "rental_uris": {"android": "https://dc.lft.to/lastmile_qr_scan", "ios": "https://dc.lft.to/lastmile_qr_scan"}, "fusion_lon": 0.0, "lat": 38.91314416666667, "bike_id": "aef6f646d6824dc5df76a49056b0aa4a", "type": "electric_scooter", "is_reserved": 0, "lon": -77.03207933333333}, {"fusion_lat": 0.0, "name": "2d0f65dae259f7d649f3af2fb75bfed5", "is_disabled": 0, "rental_uris": {"android": "https://dc.lft.to/lastmile_qr_scan", "ios": "https://dc.lft.to/lastmile_qr_scan"}, "fusion_lon": 0.0, "lat": 38.908552, "bike_id": "2d0f65dae259f7d649f3af2fb75bfed5", "type": "electric_scooter", "is_reserved": 0, "lon": -77.02720766666667}, {"fusion_lat": 0.0, "name": "ee1e25f21f8972bd911cc7798066e4ba", "is_disabled": 0, "rental_uris": {"android": "https://dc.lft.to/lastmile_qr_scan", "ios": "https://dc.lft.to/lastmile_qr_scan"}, "fusion_lon": 0.0, "lat": 38.892372333333334, "bike_id": "ee1e25f21f8972bd911cc7798066e4ba", "type": "electric_scooter", "is_reserved": 0, "lon": -77.02383533333334}, {"fusion_lat": 0.0, "name": "62414651f5388e1a26c3d53fd49d4127", "is_disabled": 0, "rental_uris": {"android": "https://dc.lft.to/lastmile_qr_scan", "ios": "https://dc.lft.to/lastmile_qr_scan"}, "fusion_lon": 0.0, "lat": 38.9207085, "bike_id": "62414651f5388e1a26c3d53fd49d4127", "type": "electric_scooter", "is_reserved": 0, "lon": -77.02218466666666}, {"fusion_lat": 0.0, "name": "ba605f973ea464c985798d764a9e56ba", "is_disabled": 0, "rental_uris": {"android": "https://dc.lft.to/lastmile_qr_scan", "ios": "https://dc.lft.to/lastmile_qr_scan"},