{"data": {"bikes": [{"bike_id": "f3c60e4dac2e6fe921baf36fdd653208", "is_reserved": 0, "fusion_lon": 0.0, "lat": 38.9204665, "is_disabled": 0, "name": "f3c60e4dac2e6fe921baf36fdd653208", "fusion_lat": 0.0, "rental_uris": {"ios": "https://dc.lft.to/lastmile_qr_scan", "android": "https://dc.lft.to/lastmile_qr_scan"}, "lon": -76.998203, "type": "electric_scooter"}, {"bike_id": "99471a86bd832afe8aebfc5a2c807bdf", "is_reserved": 0, "fusion_lon": 0.0, "lat": 38.93402183333333, "is_disabled": 0, "name": "99471a86bd832afe8aebfc5a2c807bdf", "fusion_lat": 0.0, "rental_uris": {"ios": "https://dc.lft.to/lastmile_qr_scan", "android": "https://dc.lft.to/lastmile_qr_scan"}, "lon": -77.02068966666667, "type": "electric_scooter"}, {"bike_id": "3c4e6705fc97480abc66fcdd21ce94b6", "is_reserved": 0, "fusion_lon": 0.0, "lat": 38.9080855, "is_disabled": 0, "name": "3c4e6705fc97480abc66fcdd21ce94b6", "fusion_lat": 0.0, "rental_uris": {"ios": "https://dc.lft.to/lastmile_qr_scan", "android": "https://dc.lft.to/lastmile_qr_scan"}, "lon": -77.03464783333334, "type": "electric_scooter"}, {"bike_id": "e6b25258c8c249e853fc9564746bae88", "is_reserved": 0, "fusion_lon": 0.0, "lat": 38.911067333333335, "is_disabled": 0, "name": "e6b25258c8c249e853fc9564746bae88", "fusion_lat": 0.0, "rental_uris": {"ios": "https://dc.lft.to/lastmile_qr_scan", "android": "https://dc.lft.to/lastmile_qr_scan"}, "lon": -77.036242, "type": "electric_scooter"}, {"bike_id": "1e722c3d419093542ffd40e0a6dc3ee0", "is_reserved": 0, "fusion_lon": 0.0, "lat": 38.91808616666667, "is_disabled": 0, "name": "1e722c3d419093542ffd40e0a6dc3ee0", "fusion_lat": 0.0, "rental_uris": {"ios": "https://dc.lft.to/lastmile_qr_scan", "android": "https://dc.lft.to/lastmile_qr_scan"}, "lon": -77.03436816666667, "type": "electric_scooter"}, {"bike_id": "3234f436f86ff0dcc3fefeb97843b16a", "is_reserved": 0, "fusion_lon": 0.0, "lat": 38.94050333333333, "is_disabled": 0, "name": "3234f436f86ff0dcc3fefeb97843b16a", "fusion_lat": 0.0, "rental_uris": {"ios": "https://dc.lft.to/lastmile_qr_scan", "android": "https://dc.lft.to/lastmile_qr_scan"}, "lon": -77.029799, "type": "electric_scooter"}, {"bike_id": "f8c90d6c0017068f69407fd4147b4e36", "is_reserved": 0, "fusion_lon": 0.0, "lat": 38.892305, "is_disabled": 0, "name": "f8c90d6c0017068f69407fd4147b4e36", "fusion_lat": 0.0, "rental_uris": {"ios": "https://dc.lft.to/lastmile_qr_scan", "android": "https://dc.lft.to/lastmile_qr_scan"}, "lon": -77.02176383333334, "type": "electric_scooter"}, {"bike_id": "80cef30a05cbaf9a041a959506018bb5", "is_reserved": 0, "fusion_lon": 0.0, "lat": 38.923896, "is_disabled": 0, "name": "80cef30a05cbaf9a041a959506018bb5", "fusion_lat": 0.0, "rental_uris": {"ios": "https://dc.lft.to/lastmile_qr_scan", "android": "https://dc.lft.to/lastmile_qr_scan"}, "lon": -77.04088766666666, "type": "electric_scooter"}, {"bike_id": "c0c70894fd3ebf07ae62aec05ee072e4", "is_reserved": 0, "fusion_lon": 0.0, "lat": 38.93951283333333, "is_disabled": 0, "name": "c0c70894fd3ebf07ae62aec05ee072e4", "fusion_lat": 0.0, "rental_uris": {"ios": "https://dc.lft.to/lastmile_qr_scan", "android": "https://dc.lft.to/lastmile_qr_scan"}, "lon": -77.03259616666666, "type": "electric_scooter"}, {"bike_id": "ea862544404dc5d19a0805ed3a73918e", "is_reserved": 0, "fusion_lon": 0.0, "lat": 38.9528295, "is_disabled": 0, "name": "ea862544404dc5d19a0805ed3a73918e", "fusion_lat": 0.0, "rental_uris": {"ios": "https://dc.lft.to/lastmile_qr_scan", "android": "https://dc.lft.to/lastmile_qr_scan"}, "lon": -77.00790966666666, "type": "electric_scooter"}, {"bike_id": "bee595bb48e006d49579aeac3f422965", "is_reserved": 0, "fusion_lon": 0.0, "lat": 38.8995475, "is_disabled": 0, "name": "bee595bb48e006d49579aeac3f422965", "fusion_lat": 0.0, "rental_uris": {"ios": "https://dc.lft.to/lastmile_qr_scan", "android": "https://dc.lft.to/lastmile_qr_scan"}, "lon": -77.01621616666667, "type": "electric_scooter"}, {"bike_id": "7fcc5812b442225ad7844c482673960e", "is_reserved": 0, "fusion_lon": 0.0, "lat": 38.90357633333333, "is_disabled": 0, "name": "7fcc5812b442225ad7844c482673960e", "fusion_lat": 0.0, "rental_uris": {"ios": "https://dc.lft.to/lastmile_qr_scan", "android": "https://dc.lft.to/lastmile_qr_scan"}, "lon": -77.0259015, "type": "electric_scooter"}, {"bike_id": "11e5e81e6fe4e15d52101ecd8eb3345e", "is_reserved": 0, "fusion_lon": 0.0, "lat": 38.90026133333333, "is_disabled": 0, "name": "11e5e81e6fe4e15d52101ecd8eb3345e", "fusion_lat": 0.0, "rental_uris": {"ios": "https://dc.lft.to/lastmile_qr_scan", "android": "https://dc.lft.to/lastmile_qr_scan"}, "lon": -76.99786133333333, "type": "electric_scooter"}, {"bike_id": "544a6dfce15927e8b250fa1533aeb840", "is_reserved": 0, "fusion_lon": 0.0, "lat": 38.85325366666667, "is_disabled": 0, "name": "544a6dfce15927e8b250fa1533aeb840", "fusion_lat": 0.0, "rental_uris": {"ios": "https://dc.lft.to/lastmile_qr_scan", "android": "https://dc.lft.to/lastmile_qr_scan"}, "lon": -76.98004733333333, "type": "electric_scooter"}, {"bike_id": "5aa58ea121dce08a5f807a09abf243aa", "is_reserved": 0, "fusion_lon": 0.0, "lat": 38.99067816666667, "is_disabled": 0, "name": "5aa58ea121dce08a5f807a09abf243aa", "fusion_lat": 0.0, "rental_uris": {"ios": "https://dc.lft.to/lastmile_qr_scan", "android": "https://dc.lft.to/lastmile_qr_scan"}, "lon": -77.10028766666667, "type": "electric_bike"}, {"bike_id": "0871adb4a75cfbbc0cad5882a703aa02", "is_reserved": 0, "fusion_lon": 0.0, "lat": 38.92256166666667, "is_disabled": 0, "name": "0871adb4a75cfbbc0cad5882a703aa02", "fusion_lat": 0.0, "rental_uris": {"ios": "https://dc.lft.to/lastmile_qr_scan", "android": "https://dc.lft.to/lastmile_qr_scan"}, "lon": -77.0413965, "type": "electric_scooter"}, {"bike_id": "bd68fc6d9acd3228909bfbb1e5834f0a", "is_reserved": 0, "fusion_lon": 0.0, "lat": 38.898967166666665, "is_disabled": 0, "name": "bd68fc6d9acd3228909bfbb1e5834f0a", "fusion_lat": 0.0, "rental_uris": {"ios": "https://dc.lft.to/lastmile_qr_scan", "android": "https://dc.lft.to/lastmile_qr_scan"}, "lon": -77.03969133333334, "type": "electric_scooter"}, {"bike_id": "aec1464f5f91cc7da6191f4e6fb2c8f8", "is_reserved": 0, "fusion_lon": 0.0, "lat": 38.923724666666665, "is_disabled": 0, "name": "aec1464f5f91cc7da6191f4e6fb2c8f8", "fusion_lat": 0.0, "rental_uris": {"ios": "https://dc.lft.to/lastmile_qr_scan", "android": "https://dc.lft.to/lastmile_qr_scan"}, "lon": -77.03094133333333, "type": "electric_scooter"}, {"bike_id": "4f83e26efd00fc75427f02841b452128", "is_reserved": 0, "fusion_lon": 0.0, "lat": 38.9016085, "is_disabled": 0, "name": "4f83e26efd00fc75427f02841b452128", "fusion_lat": 0.0, "rental_uris": {"ios": "https://dc.lft.to/lastmile_qr_scan", "android": "https://dc.lft.to/lastmile_qr_scan"}, "lon": -76.98077083333334, "type": "electric_scooter"}, {"bike_id": "23f7dfe5f60056288e095e9ce088fb92", "is_reserved": 0, "fusion_lon": 0.0, "lat": 38.9216645, "is_disabled": 0, "name": "23f7dfe5f60056288e095e9ce088fb92", "fusion_lat": 0.0, "rental_uris": {"ios": "https://dc.lft.to/lastmile_qr_scan", "android": "https://dc.lft.to/lastmile_qr_scan"}, "lon": -77.04234166666667, "type": "electric_scooter"}, {"bike_id": "a74ee74f8ddfc2387cc04650fc90ef5f", "is_reserved": 0, "fusion_lon": 0.0, "lat": 38.92329933333333, "is_disabled": 0, "name": "a74ee74f8ddfc2387cc04650fc90ef5f", "fusion_lat": 0.0, "rental_uris": {"ios": "https://dc.lft.to/lastmile_qr_scan", "android": "https://dc.lft.to/lastmile_qr_scan"}, "lon": -77.0378005, "type": "electric_scooter"}, {"bike_id": "106894888d1d7cfa858cdb2fe974f435", "is_reserved": 0, "fusion_lon": 0.0, "lat": 38.903981, "is_disabled": 0, "name": "106894888d1d7cfa858cdb2fe974f435", "fusion_lat": 0.0, "rental_uris": {"ios": "https://dc.lft.to/lastmile_qr_scan", "android": "https://dc.lft.to/lastmile_qr_scan"}, "lon": -77.06295383333334, "type": "electric_scooter"}, {"bike_id": "e06e95a9981d6729a4d1356f8d798086", "is_reserved": 0, "fusion_lon": 0.0, "lat": 38.916819333333336, "is_disabled": 0, "name": "e06e95a9981d6729a4d1356f8d798086", "fusion_lat": 0.0, "rental_uris": {"ios": "https://dc.lft.to/lastmile_qr_scan", "android": "https://dc.lft.to/lastmile_qr_scan"}, "lon": -77.02949, "type": "electric_scooter"}, {"bike_id": "202c4ae0c2ef0da3a76952bd8d0c13e4", "is_reserved": 0, "fusion_lon": 0.0, "lat": 38.91891583333334, "is_disabled": 0, "name": "202c4ae0c2ef0da3a76952bd8d0c13e4", "fusion_lat": 0.0, "rental_uris": {"ios": "https://dc.lft.to/lastmile_qr_scan", "android": "https://dc.lft.to/lastmile_qr_scan"}, "lon": -77.03904066666666, "type": "electric_scooter"}, {"bike_id": "bd501b7dec910c88e159d190ecf001f6", "is_reserved": 0, "fusion_lon": 0.0, "lat": 38.9038975, "is_disabled": 0, "name": "bd501b7dec910c88e159d190ecf001f6", "fusion_lat": 0.0, "rental_uris": {"ios": "https://dc.lft.to/lastmile_qr_scan", "android": "https://dc.lft.to/lastmile_qr_scan"}, "lon": -77.04462116666667, "type": "electric_scooter"}, {"bike_id": "2be066fa5cc0fbacf802ce14ea7f3c52", "is_reserved": 0, "fusion_lon": 0.0, "lat": 38.949781, "is_disabled": 0, "name": "2be066fa5cc0fbacf802ce14ea7f3c52", "fusion_lat": 0.0, "rental_uris": {"ios": "https://dc.lft.to/lastmile_qr_scan", "android": "https://dc.lft.to/lastmile_qr_scan"}, "lon": -77.07895283333333, "type": "electric_scooter"}, {"bike_id": "cb3aca55f3c22c99fc856a0ddc0c79e8", "is_reserved": 0, "fusion_lon": 0.0, "lat": 38.896095333333335, "is_disabled": 0, "name": "cb3aca55f3c22c99fc856a0ddc0c79e8", "fusion_lat": 0.0, "rental_uris": {"ios": "https://dc.lft.to/lastmile_qr_scan", "android": "https://dc.lft.to/lastmile_qr_scan"}, "lon": -76.9557845, "type": "electric_scooter"}, {"bike_id": "403ce07c502ae992d5a12312b4eb72d5", "is_reserved": 0, "fusion_lon": 0.0, "lat": 38.91118683333333, "is_disabled": 0, "name": "403ce07c502ae992d5a12312b4eb72d5", "fusion_lat": 0.0, "rental_uris": {"ios": "https://dc.lft.to/lastmile_qr_scan", "android": "https://dc.lft.to/lastmile_qr_scan"}, "lon": -77.00358433333334, "type": "electric_scooter"}, {"bike_id": "fc8c9e1c585b0241306360fd3d19a041", "is_reserved": 0, "fusion_lon": 0.0, "lat": 38.958835, "is_disabled": 0, "name": "fc8c9e1c585b0241306360fd3d19a041", "fusion_lat": 0.0, "rental_uris": {"ios": "https://dc.lft.to/lastmile_qr_scan", "android": "https://dc.lft.to/lastmile_qr_scan"}, "lon": -76.9248505, "type": "electric_bike"}, {"bike_id": "da577080a8bf533e5005f51f6d99e42e", "is_reserved": 0, "fusion_lon": 0.0, "lat": 38.900289, "is_disabled": 0, "name": "da577080a8bf533e5005f51f6d99e42e", "fusion_lat": 0.0, "rental_uris": {"ios": "https://dc.lft.to/lastmile_qr_scan", "android": "https://dc.lft.to/lastmile_qr_scan"}, "lon": -76.99789516666667, "type": "electric_scooter"}, {"bike_id": "492087251ec426518c49423d97e9f94d", "is_reserved": 0, "fusion_lon": 0.0, "lat": 38.90473566666667, "is_disabled": 0, "name": "492087251ec426518c49423d97e9f94d", "fusion_lat": 0.0, "rental_uris": {"ios": "https://dc.lft.to/lastmile_qr_scan", "android": "https://dc.lft.to/lastmile_qr_scan"}, "lon": -77.00731966666666, "type": "electric_scooter"}, {"bike_id": "6783bb4308c771998a52e955349bc2b8", "is_reserved": 0, "fusion_lon": 0.0, "lat": 38.9038565, "is_disabled": 0, "name": "6783bb4308c771998a52e955349bc2b8", "fusion_lat": 0.0, "rental_uris": {"ios": "https://dc.lft.to/lastmile_qr_scan", "android": "https://dc.lft.to/lastmile_qr_scan"}, "lon": -77.043719, "type": "electric_scooter"}, {"bike_id": "81d6c87b39d2258f9c2c05adc73dee99", "is_reserved": 0, "fusion_lon": 0.0, "lat": 38.973273166666665, "is_disabled": 0, "name": "81d6c87b39d2258f9c2c05adc73dee99", "fusion_lat": 0.0, "rental_uris": {"ios": "https://dc.lft.to/lastmile_qr_scan", "android": "https://dc.lft.to/lastmile_qr_scan"}, "lon": -77.02151866666667, "type": "electric_bike"}, {"bike_id": "3a743a2394a75f86ddc4fbf6b7578f0a", "is_reserved": 0, "fusion_lon": 0.0, "lat": 38.928729833333335, "is_disabled": 0, "name": "3a743a2394a75f86ddc4fbf6b7578f0a", "fusion_lat": 0.0, "rental_uris": {"ios": "https://dc.lft.to/lastmile_qr_scan", "android": "https://dc.lft.to/lastmile_qr_scan"}, "lon": -77.02731683333333, "type": "electric_scooter"}, {"bike_id": "9fad0c40e732e678c389296e42addc6c", "is_reserved": 0, "fusion_lon": 0.0, "lat": 38.9266885, "is_disabled": 0, "name": "9fad0c40e732e678c389296e42addc6c", "fusion_lat": 0.0, "rental_uris": {"ios": "https://dc.lft.to/lastmile_qr_scan", "android": "https://dc.lft.to/lastmile_qr_scan"}, "lon": -77.03121433333334, "type": "electric_scooter"}, {"bike_id": "b33e94e9378715efc32d197e6c488e5b", "is_reserved": 0, "fusion_lon": 0.0, "lat": 38.91707783333333, "is_disabled": 0, "name": "b33e94e9378715efc32d197e6c488e5b", "fusion_lat": 0.0, "rental_uris": {"ios": "https://dc.lft.to/lastmile_qr_scan", "android": "https://dc.lft.to/lastmile_qr_scan"}, "lon": -77.03004583333333, "type": "electric_scooter"}, {"bike_id": "53e0f72fa1849059464bb1a71c675391", "is_reserved": 0, "fusion_lon": 0.0, "lat": 38.89686666666667, "is_disabled": 0, "name": "53e0f72fa1849059464bb1a71c675391", "fusion_lat": 0.0, "rental_uris": {"ios": "https://dc.lft.to/lastmile_qr_scan", "android": "https://dc.lft.to/lastmile_qr_scan"}, "lon": -77.01184816666667, "type": "electric_scooter"}, {"bike_id": "1a15fe84b69b6e494ae7a986a32e9fba", "is_reserved": 0, "fusion_lon": 0.0, "lat": 38.90325, "is_disabled": 0, "name": "1a15fe84b69b6e494ae7a986a32e9fba", "fusion_lat": 0.0, "rental_uris": {"ios": "https://dc.lft.to/lastmile_qr_scan", "android": "https://dc.lft.to/lastmile_qr_scan"}, "lon": -77.03846433333334, "type": "electric_scooter"}, {"bike_id": "5843f0695645c1aea8ba10976d82d74c", "is_reserved": 0, "fusion_lon": 0.0, "lat": 38.909364833333335, "is_disabled": 0, "name": "5843f0695645c1aea8ba10976d82d74c", "fusion_lat": 0.0, "rental_uris": {"ios": "https://dc.lft.to/lastmile_qr_scan", "android": "https://dc.lft.to/lastmile_qr_scan"}, "lon": -76.9988545, "type": "electric_scooter"}, {"bike_id": "5b4008a7a6f6fc65fc62d143aaf5d3c6", "is_reserved": 0, "fusion_lon": 0.0, "lat": 38.91036833333333, "is_disabled": 0, "name": "5b4008a7a6f6fc65fc62d143aaf5d3c6", "fusion_lat": 0.0, "rental_uris": {"ios": "https://dc.lft.to/lastmile_qr_scan", "android": "https://dc.lft.to/lastmile_qr_scan"}, "lon": -77.043867, "type": "electric_scooter"}, {"bike_id": "bb9820caba3e4150796bbfef450f6a88", "is_reserved": 0, "fusion_lon": 0.0, "lat": 38.964968666666664, "is_disabled": 0, "name": "bb9820caba3e4150796bbfef450f6a88", "fusion_lat": 0.0, "rental_uris": {"ios": "https://dc.lft.to/lastmile_qr_scan", "android": "https://dc.lft.to/lastmile_qr_scan"}, "lon": -77.0649235, "type": "electric_bike"}, {"bike_id": "9d62a95c69c03b36f79fa4435740f47b", "is_reserved": 0, "fusion_lon": 0.0, "lat": 38.884327, "is_disabled": 0, "name": "9d62a95c69c03b36f79fa4435740f47b", "fusion_lat": 0.0, "rental_uris": {"ios": "https://dc.lft.to/lastmile_qr_scan", "android": "https://dc.lft.to/lastmile_qr_scan"}, "lon": -76.95755616666666, "type": "electric_scooter"}, {"bike_id": "22871f2b92baed17f8656c65be2dfbaf", "is_reserved": 0, "fusion_lon": 0.0, "lat": 38.89017833333333, "is_disabled": 0, "name": "22871f2b92baed17f8656c65be2dfbaf", "fusion_lat": 0.0, "rental_uris": {"ios": "https://dc.lft.to/lastmile_qr_scan", "android": "https://dc.lft.to/lastmile_qr_scan"}, "lon": -76.93736216666667, "type": "electric_scooter"}, {"bike_id": "ea0b6e95178659157547871618fef211", "is_reserved": 0, "fusion_lon": 0.0, "lat": 38.909766166666664, "is_disabled": 0, "name": "ea0b6e95178659157547871618fef211", "fusion_lat": 0.0, "rental_uris": {"ios": "https://dc.lft.to/lastmile_qr_scan", "android": "https://dc.lft.to/lastmile_qr_scan"}, "lon": -77.04873483333333, "type": "electric_scooter"}, {"bike_id": "c535350ef32ebb8725699f9b78c85442", "is_reserved": 0, "fusion_lon": 0.0, "lat": 38.902879166666665, "is_disabled": 0, "name": "c535350ef32ebb8725699f9b78c85442", "fusion_lat": 0.0, "rental_uris": {"ios": "https://dc.lft.to/lastmile_qr_scan", "android": "https://dc.lft.to/lastmile_qr_scan"}, "lon": -77.03446366666667, "type": "electric_scooter"}, {"bike_id": "65415cfbe12771446b9e867d2a93538a", "is_reserved": 0, "fusion_lon": 0.0, "lat": 38.884880833333334, "is_disabled": 0, "name": "65415cfbe12771446b9e867d2a93538a", "fusion_lat": 0.0, "rental_uris": {"ios": "https://dc.lft.to/lastmile_qr_scan", "android": "https://dc.lft.to/lastmile_qr_scan"}, "lon": -77.03471166666667, "type": "electric_scooter"}, {"bike_id": "642933cc15e008dfd8986b547bc7a811", "is_reserved": 0, "fusion_lon": 0.0, "lat": 38.931483, "is_disabled": 0, "name": "642933cc15e008dfd8986b547bc7a811", "fusion_lat": 0.0, "rental_uris": {"ios": "https://dc.lft.to/lastmile_qr_scan", "android": "https://dc.lft.to/lastmile_qr_scan"}, "lon": -77.0570915, "type": "electric_scooter"}, {"bike_id": "94b21f722dffb98a4e688f1a392fe346", "is_reserved": 0, "fusion_lon": 0.0, "lat": 38.912693833333336, "is_disabled": 0, "name": "94b21f722dffb98a4e688f1a392fe346", "fusion_lat": 0.0, "rental_uris": {"ios": "https://dc.lft.to/lastmile_qr_scan", "android": "https://dc.lft.to/lastmile_qr_scan"}, "lon": -77.028814, "type": "electric_scooter"}, {"bike_id": "b10f8232030e165f2508411044653af0", "is_reserved": 0, "fusion_lon": 0.0, "lat": 38.899004166666664, "is_disabled": 0, "name": "b10f8232030e165f2508411044653af0", "fusion_lat": 0.0, "rental_uris": {"ios": "https://dc.lft.to/lastmile_qr_scan", "android": "https://dc.lft.to/lastmile_qr_scan"}, "lon": -77.03937, "type": "electric_scooter"}, {"bike_id": "7c1b93e2f18c04a6c95bd9b174b674ed", "is_reserved": 0, "fusion_lon": 0.0, "lat": 38.86664733333333, "is_disabled": 0, "name": "7c1b93e2f18c04a6c95bd9b174b674ed", "fusion_lat": 0.0, "rental_uris": {"ios": "https://dc.lft.to/lastmile_qr_scan", "android": "https://dc.lft.to/lastmile_qr_scan"}, "lon": -76.9891015, "type": "electric_scooter"}, {"bike_id": "3201818b329b21dfdaadb5c5bc0cae21", "is_reserved": 0, "fusion_lon": 0.0, "lat": 38.936926666666665, "is_disabled": 0, "name": "3201818b329b21dfdaadb5c5bc0cae21", "fusion_lat": 0.0, "rental_uris": {"ios": "https://dc.lft.to/lastmile_qr_scan", "android": "https://dc.lft.to/lastmile_qr_scan"}, "lon": -77.02713, "type": "electric_scooter"}, {"bike_id": "3e2c4621cb89730c53307ea748714c25", "is_reserved": 0, "fusion_lon": 0.0, "lat": 38.918786833333336, "is_disabled": 0, "name": "3e2c4621cb89730c53307ea748714c25", "fusion_lat": 0.0, "rental_uris": {"ios": "https://dc.lft.to/lastmile_qr_scan", "android": "https://dc.lft.to/lastmile_qr_scan"}, "lon": -77.04465, "type": "electric_scooter"}, {"bike_id": "bf81fe3debea01db152c2fe4f4c0c167", "is_reserved": 0, "fusion_lon": 0.0, "lat": 38.931163833333336, "is_disabled": 0, "name": "bf81fe3debea01db152c2fe4f4c0c167", "fusion_lat": 0.0, "rental_uris": {"ios": "https://dc.lft.to/lastmile_qr_scan", "android": "https://dc.lft.to/lastmile_qr_scan"}, "lon": -77.021367, "type": "electric_scooter"}, {"bike_id": "e20411a8c48b07885cb3fa5721fafa9d", "is_reserved": 0, "fusion_lon": 0.0, "lat": 38.904942, "is_disabled": 0, "name": "e20411a8c48b07885cb3fa5721fafa9d", "fusion_lat": 0.0, "rental_uris": {"ios": "https://dc.lft.to/lastmile_qr_scan", "android": "https://dc.lft.to/lastmile_qr_scan"}, "lon": -77.04333016666666, "type": "electric_scooter"}, {"bike_id": "7d8d3058b40dd8abb854ec98d785aa97", "is_reserved": 0, "fusion_lon": 0.0, "lat": 38.890614166666666, "is_disabled": 0, "name": "7d8d3058b40dd8abb854ec98d785aa97", "fusion_lat": 0.0, "rental_uris": {"ios": "https://dc.lft.to/lastmile_qr_scan", "android": "https://dc.lft.to/lastmile_qr_scan"}, "lon": -77.0230125, "type": "electric_scooter"}, {"bike_id": "bc193fad5a3b7003724abb934f21e4f8", "is_reserved": 0, "fusion_lon": 0.0, "lat": 38.898316, "is_disabled": 0, "name": "bc193fad5a3b7003724abb934f21e4f8", "fusion_lat": 0.0, "rental_uris": {"ios": "https://dc.lft.to/lastmile_qr_scan", "android": "https://dc.lft.to/lastmile_qr_scan"}, "lon": -76.946284, "type": "electric_scooter"}, {"bike_id": "e820d605adf9944bc918ff8855a443d4", "is_reserved": 0, "fusion_lon": 0.0, "lat": 38.89616766666666, "is_disabled": 0, "name": "e820d605adf9944bc918ff8855a443d4", "fusion_lat": 0.0, "rental_uris": {"ios": "https://dc.lft.to/lastmile_qr_scan", "android": "https://dc.lft.to/lastmile_qr_scan"}, "lon": -77.04464383333334, "type": "electric_scooter"}, {"bike_id": "d8f6123d8156218a03bc7abf44991710", "is_reserved": 0, "fusion_lon": 0.0, "lat": 38.93455933333333, "is_disabled": 0, "name": "d8f6123d8156218a03bc7abf44991710", "fusion_lat": 0.0, "rental_uris": {"ios": "https://dc.lft.to/lastmile_qr_scan", "android": "https://dc.lft.to/lastmile_qr_scan"}, "lon": -77.0723545, "type": "electric_scooter"}, {"bike_id": "49474beea814932cc4d751d1dc00fe9a", "is_reserved": 0, "fusion_lon": 0.0, "lat": 38.9386545, "is_disabled": 0, "name": "49474beea814932cc4d751d1dc00fe9a", "fusion_lat": 0.0, "rental_uris": {"ios": "https://dc.lft.to/lastmile_qr_scan", "android": "https://dc.lft.to/lastmile_qr_scan"}, "lon": -77.02647983333334, "type": "electric_scooter"}, {"bike_id": "bc0efc92934005932e22952f3e0a7c1d", "is_reserved": 0, "fusion_lon": 0.0, "lat": 38.891994833333335, "is_disabled": 0, "name": "bc0efc92934005932e22952f3e0a7c1d", "fusion_lat": 0.0, "rental_uris": {"ios": "https://dc.lft.to/lastmile_qr_scan", "android": "https://dc.lft.to/lastmile_qr_scan"}, "lon": -77.0283475, "type": "electric_scooter"}, {"bike_id": "cb996bf7a35e86d0a5711c6607ff9adb", "is_reserved": 0, "fusion_lon": 0.0, "lat": 38.9057345, "is_disabled": 0, "name": "cb996bf7a35e86d0a5711c6607ff9adb", "fusion_lat": 0.0, "rental_uris": {"ios": "https://dc.lft.to/lastmile_qr_scan", "android": "https://dc.lft.to/lastmile_qr_scan"}, "lon": -77.03828133333333, "type": "electric_scooter"}, {"bike_id": "63da3f990023378317626403386fa584", "is_reserved": 0, "fusion_lon": 0.0, "lat": 38.966216833333334, "is_disabled": 0, "name": "63da3f990023378317626403386fa584", "fusion_lat": 0.0, "rental_uris": {"ios": "https://dc.lft.to/lastmile_qr_scan", "android": "https://dc.lft.to/lastmile_qr_scan"}, "lon": -76.94425516666666, "type": "electric_bike"}, {"bike_id": "ffd9599b20ad08cdbad36765e59ece8e", "is_reserved": 0, "fusion_lon": 0.0, "lat": 38.89899583333333, "is_disabled": 0, "name": "ffd9599b20ad08cdbad36765e59ece8e", "fusion_lat": 0.0, "rental_uris": {"ios": "https://dc.lft.to/lastmile_qr_scan", "android": "https://dc.lft.to/lastmile_qr_scan"}, "lon": -77.0327855, "type": "electric_scooter"}, {"bike_id": "2fd99bc9870fd2e73dbebf3b00f44787", "is_reserved": 0, "fusion_lon": 0.0, "lat": 38.90288483333333, "is_disabled": 0, "name": "2fd99bc9870fd2e73dbebf3b00f44787", "fusion_lat": 0.0, "rental_uris": {"ios": "https://dc.lft.to/lastmile_qr_scan", "android": "https://dc.lft.to/lastmile_qr_scan"}, "lon": -77.03440383333333, "type": "electric_scooter"}, {"bike_id": "04ec984ab4dec160de24b1e5d69f6faa", "is_reserved": 0, "fusion_lon": 0.0, "lat": 38.883213833333336, "is_disabled": 0, "name": "04ec984ab4dec160de24b1e5d69f6faa", "fusion_lat": 0.0, "rental_uris": {"ios": "https://dc.lft.to/lastmile_qr_scan", "android": "https://dc.lft.to/lastmile_qr_scan"}, "lon": -77.00937716666667, "type": "electric_scooter"}, {"bike_id": "fa3c3a3618b0b5e6fcd51b9493772693", "is_reserved": 0, "fusion_lon": 0.0, "lat": 38.905313166666666, "is_disabled": 0, "name": "fa3c3a3618b0b5e6fcd51b9493772693", "fusion_lat": 0.0, "rental_uris": {"ios": "https://dc.lft.to/lastmile_qr_scan", "android": "https://dc.lft.to/lastmile_qr_scan"}, "lon": -77.05970533333333, "type": "electric_scooter"}, {"bike_id": "9a085962a7595a0f542c91d78a70b78d", "is_reserved": 0, "fusion_lon": 0.0, "lat": 38.89220733333333, "is_disabled": 0, "name": "9a085962a7595a0f542c91d78a70b78d", "fusion_lat": 0.0, "rental_uris": {"ios": "https://dc.lft.to/lastmile_qr_scan", "android": "https://dc.lft.to/lastmile_qr_scan"}, "lon": -77.02622866666667, "type": "electric_scooter"}, {"bike_id": "d6aae974b33d78cb7c8473baa00f5fdc", "is_reserved": 0, "fusion_lon": 0.0, "lat": 38.892546833333334, "is_disabled": 0, "name": "d6aae974b33d78cb7c8473baa00f5fdc", "fusion_lat": 0.0, "rental_uris": {"ios": "https://dc.lft.to/lastmile_qr_scan", "android": "https://dc.lft.to/lastmile_qr_scan"}, "lon": -76.94327833333334, "type": "electric_scooter"}, {"bike_id": "8bb0b87bbaf6c50ec95512574cfe5ec3", "is_reserved": 0, "fusion_lon": 0.0, "lat": 38.953573166666665, "is_disabled": 0, "name": "8bb0b87bbaf6c50ec95512574cfe5ec3", "fusion_lat": 0.0, "rental_uris": {"ios": "https://dc.lft.to/lastmile_qr_scan", "android": "https://dc.lft.to/lastmile_qr_scan"}, "lon": -76.980947, "type": "electric_bike"}, {"bike_id": "52447da452d99a28e3fb5f23ebb32496", "is_reserved": 0, "fusion_lon": 0.0, "lat": 38.9102745, "is_disabled": 0, "name": "52447da452d99a28e3fb5f23ebb32496", "fusion_lat": 0.0, "rental_uris": {"ios": "https://dc.lft.to/lastmile_qr_scan", "android": "https://dc.lft.to/lastmile_qr_scan"}, "lon": -77.0430425, "type": "electric_scooter"}, {"bike_id": "27ee2147dda8fc33e013a3b2009b8d29", "is_reserved": 0, "fusion_lon": 0.0, "lat": 38.90385966666667, "is_disabled": 0, "name": "27ee2147dda8fc33e013a3b2009b8d29", "fusion_lat": 0.0, "rental_uris": {"ios": "https://dc.lft.to/lastmile_qr_scan", "android": "https://dc.lft.to/lastmile_qr_scan"}, "lon": -77.03861433333333, "type": "electric_scooter"}, {"bike_id": "b2ac87b1d5c60f238a86916abf294705", "is_reserved": 0, "fusion_lon": 0.0, "lat": 38.87149816666667, "is_disabled": 0, "name": "b2ac87b1d5c60f238a86916abf294705", "fusion_lat": 0.0, "rental_uris": {"ios": "https://dc.lft.to/lastmile_qr_scan", "android": "https://dc.lft.to/lastmile_qr_scan"}, "lon": -76.93668333333333, "type": "electric_bike"}, {"bike_id": "4fb77052547a920c81040b27dbe20364", "is_reserved": 0, "fusion_lon": 0.0, "lat": 38.893533, "is_disabled": 0, "name": "4fb77052547a920c81040b27dbe20364", "fusion_lat": 0.0, "rental_uris": {"ios": "https://dc.lft.to/lastmile_qr_scan", "android": "https://dc.lft.to/lastmile_qr_scan"}, "lon": -77.00334933333333, "type": "electric_scooter"}, {"bike_id": "d3ed076c06e20203723acb7de8dc3b24", "is_reserved": 0, "fusion_lon": 0.0, "lat": 38.89398883333333, "is_disabled": 0, "name": "d3ed076c06e20203723acb7de8dc3b24", "fusion_lat": 0.0, "rental_uris": {"ios": "https://dc.lft.to/lastmile_qr_scan", "android": "https://dc.lft.to/lastmile_qr_scan"}, "lon": -76.9936665, "type": "electric_scooter"}, {"bike_id": "501d78b7c8aaeb4d4e6eb8b79a231c7a", "is_reserved": 0, "fusion_lon": 0.0, "lat": 38.884581833333336, "is_disabled": 0, "name": "501d78b7c8aaeb4d4e6eb8b79a231c7a", "fusion_lat": 0.0, "rental_uris": {"ios": "https://dc.lft.to/lastmile_qr_scan", "android": "https://dc.lft.to/lastmile_qr_scan"}, "lon": -77.00572816666667, "type": "electric_scooter"}, {"bike_id": "b66180e56fd85395f20a683de67a2b33", "is_reserved": 0, "fusion_lon": 0.0, "lat": 38.94273716666667, "is_disabled": 0, "name": "b66180e56fd85395f20a683de67a2b33", "fusion_lat": 0.0, "rental_uris": {"ios": "https://dc.lft.to/lastmile_qr_scan", "android": "https://dc.lft.to/lastmile_qr_scan"}, "lon": -76.9807295, "type": "electric_bike"}, {"bike_id": "ad5f656ceb7af23965deeb4ae57c1484", "is_reserved": 0, "fusion_lon": 0.0, "lat": 38.927555, "is_disabled": 0, "name": "ad5f656ceb7af23965deeb4ae57c1484", "fusion_lat": 0.0, "rental_uris": {"ios": "https://dc.lft.to/lastmile_qr_scan", "android": "https://dc.lft.to/lastmile_qr_scan"}, "lon": -77.024188, "type": "electric_scooter"}, {"bike_id": "fb4283fecdf76236f61a43213711315a", "is_reserved": 0, "fusion_lon": 0.0, "lat": 38.90644566666667, "is_disabled": 0, "name": "fb4283fecdf76236f61a43213711315a", "fusion_lat": 0.0, "rental_uris": {"ios": "https://dc.lft.to/lastmile_qr_scan", "android": "https://dc.lft.to/lastmile_qr_scan"}, "lon": -77.006018, "type": "electric_scooter"}, {"bike_id": "f955f79b1a23ee3953248ef0cc3b01fc", "is_reserved": 0, "fusion_lon": 0.0, "lat": 38.87658416666667, "is_disabled": 0, "name": "f955f79b1a23ee3953248ef0cc3b01fc", "fusion_lat": 0.0, "rental_uris": {"ios": "https://dc.lft.to/lastmile_qr_scan", "android": "https://dc.lft.to/lastmile_qr_scan"}, "lon": -77.000704, "type": "electric_scooter"}, {"bike_id": "08c5acf81f772a6cce08299e3fa58c92", "is_reserved": 0, "fusion_lon": 0.0, "lat": 38.901360333333336, "is_disabled": 0, "name": "08c5acf81f772a6cce08299e3fa58c92", "fusion_lat": 0.0, "rental_uris": {"ios": "https://dc.lft.to/lastmile_qr_scan", "android": "https://dc.lft.to/lastmile_qr_scan"}, "lon": -77.04163483333333, "type": "electric_bike"}, {"bike_id": "6f60b5005be05d7dc6b3e7eab41adeac", "is_reserved": 0, "fusion_lon": 0.0, "lat": 38.904036833333336, "is_disabled": 0, "name": "6f60b5005be05d7dc6b3e7eab41adeac", "fusion_lat": 0.0, "rental_uris": {"ios": "https://dc.lft.to/lastmile_qr_scan", "android": "https://dc.lft.to/lastmile_qr_scan"}, "lon": -77.03863383333334, "type": "electric_scooter"}, {"bike_id": "eab5a0b6b169ad00677830207f90ba32", "is_reserved": 0, "fusion_lon": 0.0, "lat": 38.917240666666665, "is_disabled": 0, "name": "eab5a0b6b169ad00677830207f90ba32", "fusion_lat": 0.0, "rental_uris": {"ios": "https://dc.lft.to/lastmile_qr_scan", "android": "https://dc.lft.to/lastmile_qr_scan"}, "lon": -77.0297555, "type": "electric_scooter"}, {"bike_id": "26581e05587fdc56f02cbda9b668fe26", "is_reserved": 0, "fusion_lon": 0.0, "lat": 38.913533666666666, "is_disabled": 0, "name": "26581e05587fdc56f02cbda9b668fe26", "fusion_lat": 0.0, "rental_uris": {"ios": "https://dc.lft.to/lastmile_qr_scan", "android": "https://dc.lft.to/lastmile_qr_scan"}, "lon": -77.0175405, "type": "electric_scooter"}, {"bike_id": "998e05360f413df730b85ac157254bd4", "is_reserved": 0, "fusion_lon": 0.0, "lat": 38.92245316666666, "is_disabled": 0, "name": "998e05360f413df730b85ac157254bd4", "fusion_lat": 0.0, "rental_uris": {"ios": "https://dc.lft.to/lastmile_qr_scan", "android": "https://dc.lft.to/lastmile_qr_scan"}, "lon": -77.01826866666667, "type": "electric_scooter"}, {"bike_id": "9fba2227be1178797b86eb3deaf2f446", "is_reserved": 0, "fusion_lon": 0.0, "lat": 38.921038, "is_disabled": 0, "name": "9fba2227be1178797b86eb3deaf2f446", "fusion_lat": 0.0, "rental_uris": {"ios": "https://dc.lft.to/lastmile_qr_scan", "android": "https://dc.lft.to/lastmile_qr_scan"}, "lon": -77.03175783333333, "type": "electric_scooter"}, {"bike_id": "5763613786e205a1665775006a6280d8", "is_reserved": 0, "fusion_lon": 0.0, "lat": 38.930975333333336, "is_disabled": 0, "name": "5763613786e205a1665775006a6280d8", "fusion_lat": 0.0, "rental_uris": {"ios": "https://dc.lft.to/lastmile_qr_scan", "android": "https://dc.lft.to/lastmile_qr_scan"}, "lon": -77.025083, "type": "electric_scooter"}, {"bike_id": "1f63f3fc7ed285b4ff2dcde2e2c88bcf", "is_reserved": 0, "fusion_lon": 0.0, "lat": 38.8901205, "is_disabled": 0, "name": "1f63f3fc7ed285b4ff2dcde2e2c88bcf", "fusion_lat": 0.0, "rental_uris": {"ios": "https://dc.lft.to/lastmile_qr_scan", "android": "https://dc.lft.to/lastmile_qr_scan"}, "lon": -76.93745966666667, "type": "electric_scooter"}, {"bike_id": "883f4a154c1134b3cd6d4076b7e3f88a", "is_reserved": 0, "fusion_lon": 0.0, "lat": 38.896443833333336, "is_disabled": 0, "name": "883f4a154c1134b3cd6d4076b7e3f88a", "fusion_lat": 0.0, "rental_uris": {"ios": "https://dc.lft.to/lastmile_qr_scan", "android": "https://dc.lft.to/lastmile_qr_scan"}, "lon": -77.03229283333333, "type": "electric_scooter"}, {"bike_id": "a59aee62a5f733b5ef46ce7184a46413", "is_reserved": 0, "fusion_lon": 0.0, "lat": 38.90029116666667, "is_disabled": 0, "name": "a59aee62a5f733b5ef46ce7184a46413", "fusion_lat": 0.0, "rental_uris": {"ios": "https://dc.lft.to/lastmile_qr_scan", "android": "https://dc.lft.to/lastmile_qr_scan"}, "lon": -77.04682916666667, "type": "electric_scooter"}, {"bike_id": "e692c7f3dee3d72bb40ba3a4043fde12", "is_reserved": 0, "fusion_lon": 0.0, "lat": 38.90400483333333, "is_disabled": 0, "name": "e692c7f3dee3d72bb40ba3a4043fde12", "fusion_lat": 0.0, "rental_uris": {"ios": "https://dc.lft.to/lastmile_qr_scan", "android": "https://dc.lft.to/lastmile_qr_scan"}, "lon": -77.0434255, "type": "electric_scooter"}, {"bike_id": "8fe929f340aafe49edcefb0f4ab353bb", "is_reserved": 0, "fusion_lon": 0.0, "lat": 38.923644333333336, "is_disabled": 0, "name": "8fe929f340aafe49edcefb0f4ab353bb", "fusion_lat": 0.0, "rental_uris": {"ios": "https://dc.lft.to/lastmile_qr_scan", "android": "https://dc.lft.to/lastmile_qr_scan"}, "lon": -77.050312, "type": "electric_scooter"}, {"bike_id": "20674b4838ce03a2fd8617ba83d0009d", "is_reserved": 0, "fusion_lon": 0.0, "lat": 38.90568366666667, "is_disabled": 0, "name": "20674b4838ce03a2fd8617ba83d0009d", "fusion_lat": 0.0, "rental_uris": {"ios": "https://dc.lft.to/lastmile_qr_scan", "android": "https://dc.lft.to/lastmile_qr_scan"}, "lon": -77.00282516666667, "type": "electric_scooter"}, {"bike_id": "55030db9cd83932ae919e6e3f6f228cd", "is_reserved": 0, "fusion_lon": 0.0, "lat": 38.894796666666664, "is_disabled": 0, "name": "55030db9cd83932ae919e6e3f6f228cd", "fusion_lat": 0.0, "rental_uris": {"ios": "https://dc.lft.to/lastmile_qr_scan", "android": "https://dc.lft.to/lastmile_qr_scan"}, "lon": -77.02177433333334, "type": "electric_scooter"}, {"bike_id": "7f27e33e651b93ab2b9c5810e76af236", "is_reserved": 0, "fusion_lon": 0.0, "lat": 38.866563666666664, "is_disabled": 0, "name": "7f27e33e651b93ab2b9c5810e76af236", "fusion_lat": 0.0, "rental_uris": {"ios": "https://dc.lft.to/lastmile_qr_scan", "android": "https://dc.lft.to/lastmile_qr_scan"}, "lon": -76.9888065, "type": "electric_scooter"}, {"bike_id": "e9a55f315625be70e0465dc14440445c", "is_reserved": 0, "fusion_lon": 0.0, "lat": 38.865342, "is_disabled": 0, "name": "e9a55f315625be70e0465dc14440445c", "fusion_lat": 0.0, "rental_uris": {"ios": "https://dc.lft.to/lastmile_qr_scan", "android": "https://dc.lft.to/lastmile_qr_scan"}, "lon": -76.987069, "type": "electric_scooter"}, {"bike_id": "4fc0a98bdf5db5ee36eb2be7f0418420", "is_reserved": 0, "fusion_lon": 0.0, "lat": 38.907301333333336, "is_disabled": 0, "name": "4fc0a98bdf5db5ee36eb2be7f0418420", "fusion_lat": 0.0, "rental_uris": {"ios": "https://dc.lft.to/lastmile_qr_scan", "android": "https://dc.lft.to/lastmile_qr_scan"}, "lon": -77.042393, "type": "electric_scooter"}, {"bike_id": "dc68c3ad5dc523a80942a77eebcb3347", "is_reserved": 0, "fusion_lon": 0.0, "lat": 38.892205833333335, "is_disabled": 0, "name": "dc68c3ad5dc523a80942a77eebcb3347", "fusion_lat": 0.0, "rental_uris": {"ios": "https://dc.lft.to/lastmile_qr_scan", "android": "https://dc.lft.to/lastmile_qr_scan"}, "lon": -77.03162316666666, "type": "electric_scooter"}, {"bike_id": "86787b770c2a20edeff81e2e6b9db665", "is_reserved": 0, "fusion_lon": 0.0, "lat": 38.887067333333334, "is_disabled": 0, "name": "86787b770c2a20edeff81e2e6b9db665", "fusion_lat": 0.0, "rental_uris": {"ios": "https://dc.lft.to/lastmile_qr_scan", "android": "https://dc.lft.to/lastmile_qr_scan"}, "lon": -77.0137045, "type": "electric_scooter"}, {"bike_id": "fac92d45cc5ad78f29640529875baa54", "is_reserved": 0, "fusion_lon": 0.0, "lat": 38.901543333333336, "is_disabled": 0, "name": "fac92d45cc5ad78f29640529875baa54", "fusion_lat": 0.0, "rental_uris": {"ios": "https://dc.lft.to/lastmile_qr_scan", "android": "https://dc.lft.to/lastmile_qr_scan"}, "lon": -77.04231533333333, "type": "electric_scooter"}, {"bike_id": "d387859f460521d0257d66f573b8726f", "is_reserved": 0, "fusion_lon": 0.0, "lat": 38.89830533333333, "is_disabled": 0, "name": "d387859f460521d0257d66f573b8726f", "fusion_lat": 0.0, "rental_uris": {"ios": "https://dc.lft.to/lastmile_qr_scan", "android": "https://dc.lft.to/lastmile_qr_scan"}, "lon": -76.9462965, "type": "electric_scooter"}, {"bike_id": "171e61bced871e1cfb2c606afb66a7f8", "is_reserved": 0, "fusion_lon": 0.0, "lat": 38.906836, "is_disabled": 0, "name": "171e61bced871e1cfb2c606afb66a7f8", "fusion_lat": 0.0, "rental_uris": {"ios": "https://dc.lft.to/lastmile_qr_scan", "android": "https://dc.lft.to/lastmile_qr_scan"}, "lon": -77.07564383333333, "type": "electric_scooter"}, {"bike_id": "3bdb2eecc5a819954fda5f24b5afa11f", "is_reserved": 0, "fusion_lon": 0.0, "lat": 38.9221375, "is_disabled": 0, "name": "3bdb2eecc5a819954fda5f24b5afa11f", "fusion_lat": 0.0, "rental_uris": {"ios": "https://dc.lft.to/lastmile_qr_scan", "android": "https://dc.lft.to/lastmile_qr_scan"}, "lon": -77.0366205, "type": "electric_scooter"}, {"bike_id": "923d42a6d2082ed2640519c03db5a003", "is_reserved": 0, "fusion_lon": 0.0, "lat": 38.91685433333333, "is_disabled": 0, "name": "923d42a6d2082ed2640519c03db5a003", "fusion_lat": 0.0, "rental_uris": {"ios": "https://dc.lft.to/lastmile_qr_scan", "android": "https://dc.lft.to/lastmile_qr_scan"}, "lon": -77.02956966666666, "type": "electric_scooter"}, {"bike_id": "3f2947a8b4796e02f45ef02d20f9a021", "is_reserved": 0, "fusion_lon": 0.0, "lat": 38.934289166666666, "is_disabled": 0, "name": "3f2947a8b4796e02f45ef02d20f9a021", "fusion_lat": 0.0, "rental_uris": {"ios": "https://dc.lft.to/lastmile_qr_scan", "android": "https://dc.lft.to/lastmile_qr_scan"}, "lon": -77.04320616666666, "type": "electric_scooter"}, {"bike_id": "5a380e745f238ed84bb85146c5f42cb4", "is_reserved": 0, "fusion_lon": 0.0, "lat": 38.908559833333335, "is_disabled": 0, "name": "5a380e745f238ed84bb85146c5f42cb4", "fusion_lat": 0.0, "rental_uris": {"ios": "https://dc.lft.to/lastmile_qr_scan", "android": "https://dc.lft.to/lastmile_qr_scan"}, "lon": -77.011844, "type": "electric_scooter"}, {"bike_id": "bdf781a4f311c07c0f4326c790446071", "is_reserved": 0, "fusion_lon": 0.0, "lat": 38.91559266666667, "is_disabled": 0, "name": "bdf781a4f311c07c0f4326c790446071", "fusion_lat": 0.0, "rental_uris": {"ios": "https://dc.lft.to/lastmile_qr_scan", "android": "https://dc.lft.to/lastmile_qr_scan"}, "lon": -77.03931466666667, "type": "electric_scooter"}, {"bike_id": "9f575488ec795b2d494bb7e6e3781457", "is_reserved": 0, "fusion_lon": 0.0, "lat": 38.89610733333333, "is_disabled": 0, "name": "9f575488ec795b2d494bb7e6e3781457", "fusion_lat": 0.0, "rental_uris": {"ios": "https://dc.lft.to/lastmile_qr_scan", "android": "https://dc.lft.to/lastmile_qr_scan"}, "lon": -77.009287, "type": "electric_scooter"}, {"bike_id": "e2539ac5f72e3003a686a3e2a16717cd", "is_reserved": 0, "fusion_lon": 0.0, "lat": 38.882059166666664, "is_disabled": 0, "name": "e2539ac5f72e3003a686a3e2a16717cd", "fusion_lat": 0.0, "rental_uris": {"ios": "https://dc.lft.to/lastmile_qr_scan", "android": "https://dc.lft.to/lastmile_qr_scan"}, "lon": -76.9270255, "type": "electric_scooter"}, {"bike_id": "83a76d447547bcc84fd9e8066b385e34", "is_reserved": 0, "fusion_lon": 0.0, "lat": 38.933334, "is_disabled": 0, "name": "83a76d447547bcc84fd9e8066b385e34", "fusion_lat": 0.0, "rental_uris": {"ios": "https://dc.lft.to/lastmile_qr_scan", "android": "https://dc.lft.to/lastmile_qr_scan"}, "lon": -77.0326885, "type": "electric_scooter"}, {"bike_id": "2da90d2db3053f1261fdacd151d8a0bc", "is_reserved": 0, "fusion_lon": 0.0, "lat": 39.05200966666666, "is_disabled": 0, "name": "2da90d2db3053f1261fdacd151d8a0bc", "fusion_lat": 0.0, "rental_uris": {"ios": "https://dc.lft.to/lastmile_qr_scan", "android": "https://dc.lft.to/lastmile_qr_scan"}, "lon": -77.10918416666667, "type": "electric_bike"}, {"bike_id": "24739ba9e7904e9d563e248f6a1930ce", "is_reserved": 0, "fusion_lon": 0.0, "lat": 38.94089983333333, "is_disabled": 0, "name": "24739ba9e7904e9d563e248f6a1930ce", "fusion_lat": 0.0, "rental_uris": {"ios": "https://dc.lft.to/lastmile_qr_scan", "android": "https://dc.lft.to/lastmile_qr_scan"}, "lon": -77.0271785, "type": "electric_scooter"}, {"bike_id": "c374263193248f8822a3c8cb97d08562", "is_reserved": 0, "fusion_lon": 0.0, "lat": 38.9218455, "is_disabled": 0, "name": "c374263193248f8822a3c8cb97d08562", "fusion_lat": 0.0, "rental_uris": {"ios": "https://dc.lft.to/lastmile_qr_scan", "android": "https://dc.lft.to/lastmile_qr_scan"}, "lon": -77.04281366666666, "type": "electric_scooter"}, {"bike_id": "6a5768f390aa2bf562b95d10a3ccd230", "is_reserved": 0, "fusion_lon": 0.0, "lat": 38.897194666666664, "is_disabled": 0, "name": "6a5768f390aa2bf562b95d10a3ccd230", "fusion_lat": 0.0, "rental_uris": {"ios": "https://dc.lft.to/lastmile_qr_scan", "android": "https://dc.lft.to/lastmile_qr_scan"}, "lon": -77.0079485, "type": "electric_scooter"}, {"bike_id": "c9a687ac10fc9cf9d5178bee5dc003f5", "is_reserved": 0, "fusion_lon": 0.0, "lat": 38.9306545, "is_disabled": 0, "name": "c9a687ac10fc9cf9d5178bee5dc003f5", "fusion_lat": 0.0, "rental_uris": {"ios": "https://dc.lft.to/lastmile_qr_scan", "android": "https://dc.lft.to/lastmile_qr_scan"}, "lon": -77.0297565, "type": "electric_scooter"}, {"bike_id": "96d4acf8f08355a6ba9a6da3a34e29ef", "is_reserved": 0, "fusion_lon": 0.0, "lat": 38.924178833333336, "is_disabled": 0, "name": "96d4acf8f08355a6ba9a6da3a34e29ef", "fusion_lat": 0.0, "rental_uris": {"ios": "https://dc.lft.to/lastmile_qr_scan", "android": "https://dc.lft.to/lastmile_qr_scan"}, "lon": -77.01947016666666, "type": "electric_scooter"}, {"bike_id": "34dc2c9f53332c21440ed1c6f7befea5", "is_reserved": 0, "fusion_lon": 0.0, "lat": 38.91282916666667, "is_disabled": 0, "name": "34dc2c9f53332c21440ed1c6f7befea5", "fusion_lat": 0.0, "rental_uris": {"ios": "https://dc.lft.to/lastmile_qr_scan", "android": "https://dc.lft.to/lastmile_qr_scan"}, "lon": -77.07826783333333, "type": "electric_bike"}, {"bike_id": "637ebcc73ba8c34c2b6a21a792503a4a", "is_reserved": 0, "fusion_lon": 0.0, "lat": 38.950876666666666, "is_disabled": 0, "name": "637ebcc73ba8c34c2b6a21a792503a4a", "fusion_lat": 0.0, "rental_uris": {"ios": "https://dc.lft.to/lastmile_qr_scan", "android": "https://dc.lft.to/lastmile_qr_scan"}, "lon": -77.02830266666666, "type": "electric_scooter"}, {"bike_id": "03c7990ef1c775ee8cd485b35cf8e920", "is_reserved": 0, "fusion_lon": 0.0, "lat": 38.8964935, "is_disabled": 0, "name": "03c7990ef1c775ee8cd485b35cf8e920", "fusion_lat": 0.0, "rental_uris": {"ios": "https://dc.lft.to/lastmile_qr_scan", "android": "https://dc.lft.to/lastmile_qr_scan"}, "lon": -77.0433805, "type": "electric_scooter"}, {"bike_id": "3d4b8c640251e152138f775e8679926f", "is_reserved": 0, "fusion_lon": 0.0, "lat": 38.915686, "is_disabled": 0, "name": "3d4b8c640251e152138f775e8679926f", "fusion_lat": 0.0, "rental_uris": {"ios": "https://dc.lft.to/lastmile_qr_scan", "android": "https://dc.lft.to/lastmile_qr_scan"}, "lon": -77.039073, "type": "electric_scooter"}, {"bike_id": "bc5144743f350d695123f368b2633d37", "is_reserved": 0, "fusion_lon": 0.0, "lat": 38.90096966666667, "is_disabled": 0, "name": "bc5144743f350d695123f368b2633d37", "fusion_lat": 0.0, "rental_uris": {"ios": "https://dc.lft.to/lastmile_qr_scan", "android": "https://dc.lft.to/lastmile_qr_scan"}, "lon": -77.02084466666666, "type": "electric_scooter"}, {"bike_id": "15037c85d80418742f3d3584002b1451", "is_reserved": 0, "fusion_lon": 0.0, "lat": 38.921927833333335, "is_disabled": 0, "name": "15037c85d80418742f3d3584002b1451", "fusion_lat": 0.0, "rental_uris": {"ios": "https://dc.lft.to/lastmile_qr_scan", "android": "https://dc.lft.to/lastmile_qr_scan"}, "lon": -77.04251483333333, "type": "electric_scooter"}, {"bike_id": "7f702726b2c1db2cc1677b664c7a86c4", "is_reserved": 0, "fusion_lon": 0.0, "lat": 38.892306, "is_disabled": 0, "name": "7f702726b2c1db2cc1677b664c7a86c4", "fusion_lat": 0.0, "rental_uris": {"ios": "https://dc.lft.to/lastmile_qr_scan", "android": "https://dc.lft.to/lastmile_qr_scan"}, "lon": -77.02173983333333, "type": "electric_scooter"}, {"bike_id": "03201c1d3bb419fbf762bbe9de76df37", "is_reserved": 0, "fusion_lon": 0.0, "lat": 38.909121999999996, "is_disabled": 0, "name": "03201c1d3bb419fbf762bbe9de76df37", "fusion_lat": 0.0, "rental_uris": {"ios": "https://dc.lft.to/lastmile_qr_scan", "android": "https://dc.lft.to/lastmile_qr_scan"}, "lon": -77.03135283333333, "type": "electric_scooter"}, {"bike_id": "d5ebb3598612f73478983430d92f0728", "is_reserved": 0, "fusion_lon": 0.0, "lat": 38.898426666666666, "is_disabled": 0, "name": "d5ebb3598612f73478983430d92f0728", "fusion_lat": 0.0, "rental_uris": {"ios": "https://dc.lft.to/lastmile_qr_scan", "android": "https://dc.lft.to/lastmile_qr_scan"}, "lon": -77.03328583333334, "type": "electric_scooter"}, {"bike_id": "10b0088dc88f0e07e27d3405f983df1a", "is_reserved": 0, "fusion_lon": 0.0, "lat": 38.9268455, "is_disabled": 0, "name": "10b0088dc88f0e07e27d3405f983df1a", "fusion_lat": 0.0, "rental_uris": {"ios": "https://dc.lft.to/lastmile_qr_scan", "android": "https://dc.lft.to/lastmile_qr_scan"}, "lon": -77.01574216666667, "type": "electric_scooter"}, {"bike_id": "de6b916d179c2c53b5d747aa3edfea16", "is_reserved": 0, "fusion_lon": 0.0, "lat": 38.906633, "is_disabled": 0, "name": "de6b916d179c2c53b5d747aa3edfea16", "fusion_lat": 0.0, "rental_uris": {"ios": "https://dc.lft.to/lastmile_qr_scan", "android": "https://dc.lft.to/lastmile_qr_scan"}, "lon": -77.03854783333334, "type": "electric_scooter"}, {"bike_id": "bf96a2646da6b0f54fa3c35de775933a", "is_reserved": 0, "fusion_lon": 0.0, "lat": 38.9296315, "is_disabled": 0, "name": "bf96a2646da6b0f54fa3c35de775933a", "fusion_lat": 0.0, "rental_uris": {"ios": "https://dc.lft.to/lastmile_qr_scan", "android": "https://dc.lft.to/lastmile_qr_scan"}, "lon": -77.01147733333333, "type": "electric_scooter"}, {"bike_id": "96103e005d984f059699f9d9d703f52e", "is_reserved": 0, "fusion_lon": 0.0, "lat": 38.90526416666667, "is_disabled": 0, "name": "96103e005d984f059699f9d9d703f52e", "fusion_lat": 0.0, "rental_uris": {"ios": "https://dc.lft.to/lastmile_qr_scan", "android": "https://dc.lft.to/lastmile_qr_scan"}, "lon": -77.065298, "type": "electric_scooter"}, {"bike_id": "948c4a4c61ef26b64fcda17988384c87", "is_reserved": 0, "fusion_lon": 0.0, "lat": 38.92253616666667, "is_disabled": 0, "name": "948c4a4c61ef26b64fcda17988384c87", "fusion_lat": 0.0, "rental_uris": {"ios": "https://dc.lft.to/lastmile_qr_scan", "android": "https://dc.lft.to/lastmile_qr_scan"}, "lon": -77.04146616666667, "type": "electric_scooter"}, {"bike_id": "718499f7faf592d24ba9b2209d45631f", "is_reserved": 0, "fusion_lon": 0.0, "lat": 38.892262, "is_disabled": 0, "name": "718499f7faf592d24ba9b2209d45631f", "fusion_lat": 0.0, "rental_uris": {"ios": "https://dc.lft.to/lastmile_qr_scan", "android": "https://dc.lft.to/lastmile_qr_scan"}, "lon": -77.03338266666667, "type": "electric_scooter"}, {"bike_id": "f9d9636ece73208983f42010e63d9f36", "is_reserved": 0, "fusion_lon": 0.0, "lat": 38.92166516666666, "is_disabled": 0, "name": "f9d9636ece73208983f42010e63d9f36", "fusion_lat": 0.0, "rental_uris": {"ios": "https://dc.lft.to/lastmile_qr_scan", "android": "https://dc.lft.to/lastmile_qr_scan"}, "lon": -77.04689016666667, "type": "electric_scooter"}, {"bike_id": "273205334d751659d1bcd811afcde634", "is_reserved": 0, "fusion_lon": 0.0, "lat": 38.929375666666665, "is_disabled": 0, "name": "273205334d751659d1bcd811afcde634", "fusion_lat": 0.0, "rental_uris": {"ios": "https://dc.lft.to/lastmile_qr_scan", "android": "https://dc.lft.to/lastmile_qr_scan"}, "lon": -77.032719, "type": "electric_scooter"}, {"bike_id": "4ef96af621c1ec6daffe2a16a5d5b25a", "is_reserved": 0, "fusion_lon": 0.0, "lat": 38.90535633333333, "is_disabled": 0, "name": "4ef96af621c1ec6daffe2a16a5d5b25a", "fusion_lat": 0.0, "rental_uris": {"ios": "https://dc.lft.to/lastmile_qr_scan", "android": "https://dc.lft.to/lastmile_qr_scan"}, "lon": -77.05766133333333, "type": "electric_scooter"}, {"bike_id": "468ad324eeffc6e054c19184249f53c7", "is_reserved": 0, "fusion_lon": 0.0, "lat": 38.84576233333333, "is_disabled": 0, "name": "468ad324eeffc6e054c19184249f53c7", "fusion_lat": 0.0, "rental_uris": {"ios": "https://dc.lft.to/lastmile_qr_scan", "android": "https://dc.lft.to/lastmile_qr_scan"}, "lon": -77.09620116666666, "type": "electric_bike"}, {"bike_id": "8cf102928b5a867bea43a0f274126bbe", "is_reserved": 0, "fusion_lon": 0.0, "lat": 38.90872616666667, "is_disabled": 0, "name": "8cf102928b5a867bea43a0f274126bbe", "fusion_lat": 0.0, "rental_uris": {"ios": "https://dc.lft.to/lastmile_qr_scan", "android": "https://dc.lft.to/lastmile_qr_scan"}, "lon": -77.032908, "type": "electric_scooter"}, {"bike_id": "c4226f4f24319cffca2b906bc8ff4819", "is_reserved": 0, "fusion_lon": 0.0, "lat": 38.8637205, "is_disabled": 0, "name": "c4226f4f24319cffca2b906bc8ff4819", "fusion_lat": 0.0, "rental_uris": {"ios": "https://dc.lft.to/lastmile_qr_scan", "android": "https://dc.lft.to/lastmile_qr_scan"}, "lon": -77.013636, "type": "electric_scooter"}, {"bike_id": "476ac614f9860ed531d363dbef8c227e", "is_reserved": 0, "fusion_lon": 0.0, "lat": 38.9002715, "is_disabled": 0, "name": "476ac614f9860ed531d363dbef8c227e", "fusion_lat": 0.0, "rental_uris": {"ios": "https://dc.lft.to/lastmile_qr_scan", "android": "https://dc.lft.to/lastmile_qr_scan"}, "lon": -77.01151433333334, "type": "electric_scooter"}, {"bike_id": "b41b03d4bdc81cad62814fbcfc3145b3", "is_reserved": 0, "fusion_lon": 0.0, "lat": 38.89482483333333, "is_disabled": 0, "name": "b41b03d4bdc81cad62814fbcfc3145b3", "fusion_lat": 0.0, "rental_uris": {"ios": "https://dc.lft.to/lastmile_qr_scan", "android": "https://dc.lft.to/lastmile_qr_scan"}, "lon": -77.05012316666667, "type": "electric_scooter"}, {"bike_id": "d3d24120059ee48bfcf219eb093de6a1", "is_reserved": 0, "fusion_lon": 0.0, "lat": 38.8922225, "is_disabled": 0, "name": "d3d24120059ee48bfcf219eb093de6a1", "fusion_lat": 0.0, "rental_uris": {"ios": "https://dc.lft.to/lastmile_qr_scan", "android": "https://dc.lft.to/lastmile_qr_scan"}, "lon": -77.04360316666667, "type": "electric_scooter"}, {"bike_id": "2ee57fb25685986b7490658692ef5a99", "is_reserved": 0, "fusion_lon": 0.0, "lat": 38.90531633333333, "is_disabled": 0, "name": "2ee57fb25685986b7490658692ef5a99", "fusion_lat": 0.0, "rental_uris": {"ios": "https://dc.lft.to/lastmile_qr_scan", "android": "https://dc.lft.to/lastmile_qr_scan"}, "lon": -77.05000533333333, "type": "electric_scooter"}, {"bike_id": "7e3b225ef6a10863926ebf0353cb2d8e", "is_reserved": 0, "fusion_lon": 0.0, "lat": 38.91560616666666, "is_disabled": 0, "name": "7e3b225ef6a10863926ebf0353cb2d8e", "fusion_lat": 0.0, "rental_uris": {"ios": "https://dc.lft.to/lastmile_qr_scan", "android": "https://dc.lft.to/lastmile_qr_scan"}, "lon": -77.0386325, "type": "electric_scooter"}, {"bike_id": "4237db82fe9fa5a3ce8e903a4550b183", "is_reserved": 0, "fusion_lon": 0.0, "lat": 38.89621666666667, "is_disabled": 0, "name": "4237db82fe9fa5a3ce8e903a4550b183", "fusion_lat": 0.0, "rental_uris": {"ios": "https://dc.lft.to/lastmile_qr_scan", "android": "https://dc.lft.to/lastmile_qr_scan"}, "lon": -77.0005075, "type": "electric_bike"}, {"bike_id": "1a935dc59ac89653351ad72dcd03935b", "is_reserved": 0, "fusion_lon": 0.0, "lat": 38.9237605, "is_disabled": 0, "name": "1a935dc59ac89653351ad72dcd03935b", "fusion_lat": 0.0, "rental_uris": {"ios": "https://dc.lft.to/lastmile_qr_scan", "android": "https://dc.lft.to/lastmile_qr_scan"}, "lon": -77.02064216666666, "type": "electric_scooter"}, {"bike_id": "041f1caa92ced3c2e27b39043a9b4a19", "is_reserved": 0, "fusion_lon": 0.0, "lat": 38.89731833333333, "is_disabled": 0, "name": "041f1caa92ced3c2e27b39043a9b4a19", "fusion_lat": 0.0, "rental_uris": {"ios": "https://dc.lft.to/lastmile_qr_scan", "android": "https://dc.lft.to/lastmile_qr_scan"}, "lon": -77.04640616666667, "type": "electric_scooter"}, {"bike_id": "1eb73b807045a88f9c0de1cbd5c1bba5", "is_reserved": 0, "fusion_lon": 0.0, "lat": 38.895602333333336, "is_disabled": 0, "name": "1eb73b807045a88f9c0de1cbd5c1bba5", "fusion_lat": 0.0, "rental_uris": {"ios": "https://dc.lft.to/lastmile_qr_scan", "android": "https://dc.lft.to/lastmile_qr_scan"}, "lon": -77.046735, "type": "electric_scooter"}, {"bike_id": "7f3ab19c73934964d0d59b9c84a1b1a9", "is_reserved": 0, "fusion_lon": 0.0, "lat": 38.905099, "is_disabled": 0, "name": "7f3ab19c73934964d0d59b9c84a1b1a9", "fusion_lat": 0.0, "rental_uris": {"ios": "https://dc.lft.to/lastmile_qr_scan", "android": "https://dc.lft.to/lastmile_qr_scan"}, "lon": -77.05692366666666, "type": "electric_bike"}, {"bike_id": "0e4ec6f8d85cb85db4a4e027cd44ebe9", "is_reserved": 0, "fusion_lon": 0.0, "lat": 38.934978666666666, "is_disabled": 0, "name": "0e4ec6f8d85cb85db4a4e027cd44ebe9", "fusion_lat": 0.0, "rental_uris": {"ios": "https://dc.lft.to/lastmile_qr_scan", "android": "https://dc.lft.to/lastmile_qr_scan"}, "lon": -77.027252, "type": "electric_scooter"}, {"bike_id": "897b896be6a8ed85c463bf77e5df3698", "is_reserved": 0, "fusion_lon": 0.0, "lat": 38.9397765, "is_disabled": 0, "name": "897b896be6a8ed85c463bf77e5df3698", "fusion_lat": 0.0, "rental_uris": {"ios": "https://dc.lft.to/lastmile_qr_scan", "android": "https://dc.lft.to/lastmile_qr_scan"}, "lon": -77.0359035, "type": "electric_scooter"}, {"bike_id": "390690ac9a8235f02c68ce1e3182e4a2", "is_reserved": 0, "fusion_lon": 0.0, "lat": 38.86201416666667, "is_disabled": 0, "name": "390690ac9a8235f02c68ce1e3182e4a2", "fusion_lat": 0.0, "rental_uris": {"ios": "https://dc.lft.to/lastmile_qr_scan", "android": "https://dc.lft.to/lastmile_qr_scan"}, "lon": -76.99468666666667, "type": "electric_scooter"}, {"bike_id": "1c9db53d4bbb91d661b843585d53d3fc", "is_reserved": 0, "fusion_lon": 0.0, "lat": 38.877364666666665, "is_disabled": 0, "name": "1c9db53d4bbb91d661b843585d53d3fc", "fusion_lat": 0.0, "rental_uris": {"ios": "https://dc.lft.to/lastmile_qr_scan", "android": "https://dc.lft.to/lastmile_qr_scan"}, "lon": -76.97283333333333, "type": "electric_scooter"}, {"bike_id": "5178d25466fd8231280e8d6b494bf3ec", "is_reserved": 0, "fusion_lon": 0.0, "lat": 38.909287, "is_disabled": 0, "name": "5178d25466fd8231280e8d6b494bf3ec", "fusion_lat": 0.0, "rental_uris": {"ios": "https://dc.lft.to/lastmile_qr_scan", "android": "https://dc.lft.to/lastmile_qr_scan"}, "lon": -76.999642, "type": "electric_scooter"}, {"bike_id": "924211fd86525959061b410d026d3acd", "is_reserved": 0, "fusion_lon": 0.0, "lat": 38.8982885, "is_disabled": 0, "name": "924211fd86525959061b410d026d3acd", "fusion_lat": 0.0, "rental_uris": {"ios": "https://dc.lft.to/lastmile_qr_scan", "android": "https://dc.lft.to/lastmile_qr_scan"}, "lon": -77.02876466666666, "type": "electric_scooter"}, {"bike_id": "b3081be9884a0b1276bdba1907648435", "is_reserved": 0, "fusion_lon": 0.0, "lat": 38.89616483333333, "is_disabled": 0, "name": "b3081be9884a0b1276bdba1907648435", "fusion_lat": 0.0, "rental_uris": {"ios": "https://dc.lft.to/lastmile_qr_scan", "android": "https://dc.lft.to/lastmile_qr_scan"}, "lon": -77.01135, "type": "electric_scooter"}, {"bike_id": "f52f727105cd004b40b2cfd968e3808d", "is_reserved": 0, "fusion_lon": 0.0, "lat": 38.84614083333334, "is_disabled": 0, "name": "f52f727105cd004b40b2cfd968e3808d", "fusion_lat": 0.0, "rental_uris": {"ios": "https://dc.lft.to/lastmile_qr_scan", "android": "https://dc.lft.to/lastmile_qr_scan"}, "lon": -76.97819816666667, "type": "electric_bike"}, {"bike_id": "d2f50673cd59e2247cc53164b7623b73", "is_reserved": 0, "fusion_lon": 0.0, "lat": 38.91049, "is_disabled": 0, "name": "d2f50673cd59e2247cc53164b7623b73", "fusion_lat": 0.0, "rental_uris": {"ios": "https://dc.lft.to/lastmile_qr_scan", "android": "https://dc.lft.to/lastmile_qr_scan"}, "lon": -77.01511283333333, "type": "electric_scooter"}, {"bike_id": "5722202c4f633cb4bccfabd520e0657a", "is_reserved": 0, "fusion_lon": 0.0, "lat": 38.8955785, "is_disabled": 0, "name": "5722202c4f633cb4bccfabd520e0657a", "fusion_lat": 0.0, "rental_uris": {"ios": "https://dc.lft.to/lastmile_qr_scan", "android": "https://dc.lft.to/lastmile_qr_scan"}, "lon": -76.93042683333333, "type": "electric_scooter"}, {"bike_id": "073816ac5394858e619ce09ad68580ea", "is_reserved": 0, "fusion_lon": 0.0, "lat": 39.058111, "is_disabled": 0, "name": "073816ac5394858e619ce09ad68580ea", "fusion_lat": 0.0, "rental_uris": {"ios": "https://dc.lft.to/lastmile_qr_scan", "android": "https://dc.lft.to/lastmile_qr_scan"}, "lon": -77.12626216666666, "type": "electric_bike"}, {"bike_id": "aa6f9024a33332f68f702d33be3c12e8", "is_reserved": 0, "fusion_lon": 0.0, "lat": 38.915992, "is_disabled": 0, "name": "aa6f9024a33332f68f702d33be3c12e8", "fusion_lat": 0.0, "rental_uris": {"ios": "https://dc.lft.to/lastmile_qr_scan", "android": "https://dc.lft.to/lastmile_qr_scan"}, "lon": -76.98381333333333, "type": "electric_scooter"}, {"bike_id": "75bbc32e45d78830e3744f5a6440ae3e", "is_reserved": 0, "fusion_lon": 0.0, "lat": 38.925054333333335, "is_disabled": 0, "name": "75bbc32e45d78830e3744f5a6440ae3e", "fusion_lat": 0.0, "rental_uris": {"ios": "https://dc.lft.to/lastmile_qr_scan", "android": "https://dc.lft.to/lastmile_qr_scan"}, "lon": -77.0216895, "type": "electric_scooter"}, {"bike_id": "edf5b3c0e7db29513f5b83f9e9360477", "is_reserved": 0, "fusion_lon": 0.0, "lat": 38.95357216666667, "is_disabled": 0, "name": "edf5b3c0e7db29513f5b83f9e9360477", "fusion_lat": 0.0, "rental_uris": {"ios": "https://dc.lft.to/lastmile_qr_scan", "android": "https://dc.lft.to/lastmile_qr_scan"}, "lon": -76.98092433333333, "type": "electric_bike"}, {"bike_id": "c639274d149c5354947138277b5c33c9", "is_reserved": 0, "fusion_lon": 0.0, "lat": 38.907117, "is_disabled": 0, "name": "c639274d149c5354947138277b5c33c9", "fusion_lat": 0.0, "rental_uris": {"ios": "https://dc.lft.to/lastmile_qr_scan", "android": "https://dc.lft.to/lastmile_qr_scan"}, "lon": -77.00318316666667, "type": "electric_scooter"}, {"bike_id": "37c5a486cf3e43a5f7e1038ebe4ff37f", "is_reserved": 0, "fusion_lon": 0.0, "lat": 38.859660166666664, "is_disabled": 0, "name": "37c5a486cf3e43a5f7e1038ebe4ff37f", "fusion_lat": 0.0, "rental_uris": {"ios": "https://dc.lft.to/lastmile_qr_scan", "android": "https://dc.lft.to/lastmile_qr_scan"}, "lon": -76.9910815, "type": "electric_scooter"}, {"bike_id": "b188ded133caa7afdc0827d86c5f8bdf", "is_reserved": 0, "fusion_lon": 0.0, "lat": 38.903709666666664, "is_disabled": 0, "name": "b188ded133caa7afdc0827d86c5f8bdf", "fusion_lat": 0.0, "rental_uris": {"ios": "https://dc.lft.to/lastmile_qr_scan", "android": "https://dc.lft.to/lastmile_qr_scan"}, "lon": -77.045215, "type": "electric_scooter"}, {"bike_id": "8050207541423d80b459508bc0811aff", "is_reserved": 0, "fusion_lon": 0.0, "lat": 38.813115833333335, "is_disabled": 0, "name": "8050207541423d80b459508bc0811aff", "fusion_lat": 0.0, "rental_uris": {"ios": "https://dc.lft.to/lastmile_qr_scan", "android": "https://dc.lft.to/lastmile_qr_scan"}, "lon": -77.05096483333334, "type": "electric_bike"}, {"bike_id": "aff4192a358138f41fb7694a0f548e81", "is_reserved": 0, "fusion_lon": 0.0, "lat": 38.92861583333333, "is_disabled": 0, "name": "aff4192a358138f41fb7694a0f548e81", "fusion_lat": 0.0, "rental_uris": {"ios": "https://dc.lft.to/lastmile_qr_scan", "android": "https://dc.lft.to/lastmile_qr_scan"}, "lon": -76.98936416666666, "type": "electric_bike"}, {"bike_id": "90a6fc19d33233c79bf5084b648dc9c3", "is_reserved": 0, "fusion_lon": 0.0, "lat": 38.939822166666666, "is_disabled": 0, "name": "90a6fc19d33233c79bf5084b648dc9c3", "fusion_lat": 0.0, "rental_uris": {"ios": "https://dc.lft.to/lastmile_qr_scan", "android": "https://dc.lft.to/lastmile_qr_scan"}, "lon": -77.02891766666667, "type": "electric_scooter"}, {"bike_id": "66697ece43021d7fb12541392185c3d6", "is_reserved": 0, "fusion_lon": 0.0, "lat": 38.90811983333333, "is_disabled": 0, "name": "66697ece43021d7fb12541392185c3d6", "fusion_lat": 0.0, "rental_uris": {"ios": "https://dc.lft.to/lastmile_qr_scan", "android": "https://dc.lft.to/lastmile_qr_scan"}, "lon": -77.03420266666667, "type": "electric_scooter"}, {"bike_id": "e7315ea51d3c14327bf84c8fb481d096", "is_reserved": 0, "fusion_lon": 0.0, "lat": 38.921774666666664, "is_disabled": 0, "name": "e7315ea51d3c14327bf84c8fb481d096", "fusion_lat": 0.0, "rental_uris": {"ios": "https://dc.lft.to/lastmile_qr_scan", "android": "https://dc.lft.to/lastmile_qr_scan"}, "lon": -77.02534866666667, "type": "electric_scooter"}, {"bike_id": "54a0df910bb04740ff3212a51f382b55", "is_reserved": 0, "fusion_lon": 0.0, "lat": 38.904247833333336, "is_disabled": 0, "name": "54a0df910bb04740ff3212a51f382b55", "fusion_lat": 0.0, "rental_uris": {"ios": "https://dc.lft.to/lastmile_qr_scan", "android": "https://dc.lft.to/lastmile_qr_scan"}, "lon": -77.04656916666667, "type": "electric_scooter"}, {"bike_id": "8c4f4a3b63cc01a7dff1f60fd90f0e65", "is_reserved": 0, "fusion_lon": 0.0, "lat": 38.921082, "is_disabled": 0, "name": "8c4f4a3b63cc01a7dff1f60fd90f0e65", "fusion_lat": 0.0, "rental_uris": {"ios": "https://dc.lft.to/lastmile_qr_scan", "android": "https://dc.lft.to/lastmile_qr_scan"}, "lon": -77.01769066666667, "type": "electric_scooter"}, {"bike_id": "b40e3842e7fab88c498168656cf8dac9", "is_reserved": 0, "fusion_lon": 0.0, "lat": 38.892294166666666, "is_disabled": 0, "name": "b40e3842e7fab88c498168656cf8dac9", "fusion_lat": 0.0, "rental_uris": {"ios": "https://dc.lft.to/lastmile_qr_scan", "android": "https://dc.lft.to/lastmile_qr_scan"}, "lon": -77.02576616666667, "type": "electric_scooter"}, {"bike_id": "7801ac6791c238e0282fb8beb41702e8", "is_reserved": 0, "fusion_lon": 0.0, "lat": 38.90803983333333, "is_disabled": 0, "name": "7801ac6791c238e0282fb8beb41702e8", "fusion_lat": 0.0, "rental_uris": {"ios": "https://dc.lft.to/lastmile_qr_scan", "android": "https://dc.lft.to/lastmile_qr_scan"}, "lon": -77.04252933333333, "type": "electric_scooter"}, {"bike_id": "4d823a7ef989d41e7d216eae1f11299b", "is_reserved": 0, "fusion_lon": 0.0, "lat": 38.913265, "is_disabled": 0, "name": "4d823a7ef989d41e7d216eae1f11299b", "fusion_lat": 0.0, "rental_uris": {"ios": "https://dc.lft.to/lastmile_qr_scan", "android": "https://dc.lft.to/lastmile_qr_scan"}, "lon": -77.03265816666666, "type": "electric_scooter"}, {"bike_id": "0ff13681221204a1776915ea9d6ff50b", "is_reserved": 0, "fusion_lon": 0.0, "lat": 38.91811233333333, "is_disabled": 0, "name": "0ff13681221204a1776915ea9d6ff50b", "fusion_lat": 0.0, "rental_uris": {"ios": "https://dc.lft.to/lastmile_qr_scan", "android": "https://dc.lft.to/lastmile_qr_scan"}, "lon": -77.03302083333334, "type": "electric_scooter"}, {"bike_id": "e647695533e119b715a3da364bdbfa67", "is_reserved": 0, "fusion_lon": 0.0, "lat": 38.93667883333333, "is_disabled": 0, "name": "e647695533e119b715a3da364bdbfa67", "fusion_lat": 0.0, "rental_uris": {"ios": "https://dc.lft.to/lastmile_qr_scan", "android": "https://dc.lft.to/lastmile_qr_scan"}, "lon": -77.05930916666667, "type": "electric_scooter"}, {"bike_id": "bc84a233e5c65fc9354387cc16e17e93", "is_reserved": 0, "fusion_lon": 0.0, "lat": 38.903631, "is_disabled": 0, "name": "bc84a233e5c65fc9354387cc16e17e93", "fusion_lat": 0.0, "rental_uris": {"ios": "https://dc.lft.to/lastmile_qr_scan", "android": "https://dc.lft.to/lastmile_qr_scan"}, "lon": -77.04506816666667, "type": "electric_scooter"}, {"bike_id": "da09384cccd6d4fea1ca2dee724db445", "is_reserved": 0, "fusion_lon": 0.0, "lat": 38.8662235, "is_disabled": 0, "name": "da09384cccd6d4fea1ca2dee724db445", "fusion_lat": 0.0, "rental_uris": {"ios": "https://dc.lft.to/lastmile_qr_scan", "android": "https://dc.lft.to/lastmile_qr_scan"}, "lon": -76.9457045, "type": "electric_bike"}, {"bike_id": "849e704f06dfb5c53b0a3c71d7c72beb", "is_reserved": 0, "fusion_lon": 0.0, "lat": 38.860126666666666, "is_disabled": 0, "name": "849e704f06dfb5c53b0a3c71d7c72beb", "fusion_lat": 0.0, "rental_uris": {"ios": "https://dc.lft.to/lastmile_qr_scan", "android": "https://dc.lft.to/lastmile_qr_scan"}, "lon": -77.05772133333333, "type": "electric_bike"}, {"bike_id": "89043ee41afcfa4ce3824ff83382c07c", "is_reserved": 0, "fusion_lon": 0.0, "lat": 38.90076283333333, "is_disabled": 0, "name": "89043ee41afcfa4ce3824ff83382c07c", "fusion_lat": 0.0, "rental_uris": {"ios": "https://dc.lft.to/lastmile_qr_scan", "android": "https://dc.lft.to/lastmile_qr_scan"}, "lon": -76.9386405, "type": "electric_scooter"}, {"bike_id": "5ef5ad53cf3b600fa42fc93fa37b958d", "is_reserved": 0, "fusion_lon": 0.0, "lat": 38.903716, "is_disabled": 0, "name": "5ef5ad53cf3b600fa42fc93fa37b958d", "fusion_lat": 0.0, "rental_uris": {"ios": "https://dc.lft.to/lastmile_qr_scan", "android": "https://dc.lft.to/lastmile_qr_scan"}, "lon": -77.0447875, "type": "electric_scooter"}, {"bike_id": "1154eb22b1a19250c176eb329e55fcc7", "is_reserved": 0, "fusion_lon": 0.0, "lat": 38.8973255, "is_disabled": 0, "name": "1154eb22b1a19250c176eb329e55fcc7", "fusion_lat": 0.0, "rental_uris": {"ios": "https://dc.lft.to/lastmile_qr_scan", "android": "https://dc.lft.to/lastmile_qr_scan"}, "lon": -77.055676, "type": "electric_scooter"}, {"bike_id": "a69cf51470f1033338d5c30523872d90", "is_reserved": 0, "fusion_lon": 0.0, "lat": 38.9112015, "is_disabled": 0, "name": "a69cf51470f1033338d5c30523872d90", "fusion_lat": 0.0, "rental_uris": {"ios": "https://dc.lft.to/lastmile_qr_scan", "android": "https://dc.lft.to/lastmile_qr_scan"}, "lon": -77.00600933333334, "type": "electric_scooter"}, {"bike_id": "3cf21c28837d7f818dcacfbaaa8d6cab", "is_reserved": 0, "fusion_lon": 0.0, "lat": 38.88848433333333, "is_disabled": 0, "name": "3cf21c28837d7f818dcacfbaaa8d6cab", "fusion_lat": 0.0, "rental_uris": {"ios": "https://dc.lft.to/lastmile_qr_scan", "android": "https://dc.lft.to/lastmile_qr_scan"}, "lon": -76.926787, "type": "electric_scooter"}, {"bike_id": "2ae978c35859eb2d2bc882c5bab93924", "is_reserved": 0, "fusion_lon": 0.0, "lat": 38.948063, "is_disabled": 0, "name": "2ae978c35859eb2d2bc882c5bab93924", "fusion_lat": 0.0, "rental_uris": {"ios": "https://dc.lft.to/lastmile_qr_scan", "android": "https://dc.lft.to/lastmile_qr_scan"}, "lon": -77.07908933333333, "type": "electric_scooter"}, {"bike_id": "2fa5bffa8fbf5c5ba76f524c647682d2", "is_reserved": 0, "fusion_lon": 0.0, "lat": 38.93087366666666, "is_disabled": 0, "name": "2fa5bffa8fbf5c5ba76f524c647682d2", "fusion_lat": 0.0, "rental_uris": {"ios": "https://dc.lft.to/lastmile_qr_scan", "android": "https://dc.lft.to/lastmile_qr_scan"}, "lon": -77.03139883333333, "type": "electric_scooter"}, {"bike_id": "5fff5fb21c77e2c7deb49a947f49b540", "is_reserved": 0, "fusion_lon": 0.0, "lat": 38.8875035, "is_disabled": 0, "name": "5fff5fb21c77e2c7deb49a947f49b540", "fusion_lat": 0.0, "rental_uris": {"ios": "https://dc.lft.to/lastmile_qr_scan", "android": "https://dc.lft.to/lastmile_qr_scan"}, "lon": -77.03150183333334, "type": "electric_scooter"}, {"bike_id": "16bc8a540b8b93fbc934d42cd6e87148", "is_reserved": 0, "fusion_lon": 0.0, "lat": 38.949762666666665, "is_disabled": 0, "name": "16bc8a540b8b93fbc934d42cd6e87148", "fusion_lat": 0.0, "rental_uris": {"ios": "https://dc.lft.to/lastmile_qr_scan", "android": "https://dc.lft.to/lastmile_qr_scan"}, "lon": -76.97283533333334, "type": "electric_bike"}, {"bike_id": "8916f29af0a553543908545423fe01da", "is_reserved": 0, "fusion_lon": 0.0, "lat": 38.9001685, "is_disabled": 0, "name": "8916f29af0a553543908545423fe01da", "fusion_lat": 0.0, "rental_uris": {"ios": "https://dc.lft.to/lastmile_qr_scan", "android": "https://dc.lft.to/lastmile_qr_scan"}, "lon": -77.03177733333334, "type": "electric_scooter"}, {"bike_id": "e1b9b7ee4ce3780b799b81c2e80532b3", "is_reserved": 0, "fusion_lon": 0.0, "lat": 38.8922495, "is_disabled": 0, "name": "e1b9b7ee4ce3780b799b81c2e80532b3", "fusion_lat": 0.0, "rental_uris": {"ios": "https://dc.lft.to/lastmile_qr_scan", "android": "https://dc.lft.to/lastmile_qr_scan"}, "lon": -77.02446583333334, "type": "electric_scooter"}, {"bike_id": "8f7d83481782f72eb8e21a7e7c983fb9", "is_reserved": 0, "fusion_lon": 0.0, "lat": 38.90616283333333, "is_disabled": 0, "name": "8f7d83481782f72eb8e21a7e7c983fb9", "fusion_lat": 0.0, "rental_uris": {"ios": "https://dc.lft.to/lastmile_qr_scan", "android": "https://dc.lft.to/lastmile_qr_scan"}, "lon": -77.07488033333334, "type": "electric_scooter"}, {"bike_id": "29f5748f411f8f97a583a5d3e6110662", "is_reserved": 0, "fusion_lon": 0.0, "lat": 38.90489683333333, "is_disabled": 0, "name": "29f5748f411f8f97a583a5d3e6110662", "fusion_lat": 0.0, "rental_uris": {"ios": "https://dc.lft.to/lastmile_qr_scan", "android": "https://dc.lft.to/lastmile_qr_scan"}, "lon": -77.02959966666667, "type": "electric_scooter"}, {"bike_id": "e0e78cec8134dee9b8dc71641f061273", "is_reserved": 0, "fusion_lon": 0.0, "lat": 38.88833, "is_disabled": 0, "name": "e0e78cec8134dee9b8dc71641f061273", "fusion_lat": 0.0, "rental_uris": {"ios": "https://dc.lft.to/lastmile_qr_scan", "android": "https://dc.lft.to/lastmile_qr_scan"}, "lon": -76.97733916666667, "type": "electric_scooter"}, {"bike_id": "54691c84d8c4640a8df1e2b7144138b9", "is_reserved": 0, "fusion_lon": 0.0, "lat": 39.0388505, "is_disabled": 0, "name": "54691c84d8c4640a8df1e2b7144138b9", "fusion_lat": 0.0, "rental_uris": {"ios": "https://dc.lft.to/lastmile_qr_scan", "android": "https://dc.lft.to/lastmile_qr_scan"}, "lon": -76.990415, "type": "electric_bike"}, {"bike_id": "f313327fda5b815cab435f961f9a78d3", "is_reserved": 0, "fusion_lon": 0.0, "lat": 38.90111983333333, "is_disabled": 0, "name": "f313327fda5b815cab435f961f9a78d3", "fusion_lat": 0.0, "rental_uris": {"ios": "https://dc.lft.to/lastmile_qr_scan", "android": "https://dc.lft.to/lastmile_qr_scan"}, "lon": -77.0432935, "type": "electric_scooter"}, {"bike_id": "5d0a55139e4620287fd4d700b43d833f", "is_reserved": 0, "fusion_lon": 0.0, "lat": 38.909578, "is_disabled": 0, "name": "5d0a55139e4620287fd4d700b43d833f", "fusion_lat": 0.0, "rental_uris": {"ios": "https://dc.lft.to/lastmile_qr_scan", "android": "https://dc.lft.to/lastmile_qr_scan"}, "lon": -77.0486125, "type": "electric_scooter"}, {"bike_id": "7406982b82df9e6ec54db5db0bb96ec9", "is_reserved": 0, "fusion_lon": 0.0, "lat": 38.858078, "is_disabled": 0, "name": "7406982b82df9e6ec54db5db0bb96ec9", "fusion_lat": 0.0, "rental_uris": {"ios": "https://dc.lft.to/lastmile_qr_scan", "android": "https://dc.lft.to/lastmile_qr_scan"}, "lon": -76.98656183333334, "type": "electric_scooter"}, {"bike_id": "45f6d7857a2493849d6a7f65832f26b1", "is_reserved": 0, "fusion_lon": 0.0, "lat": 38.883281833333335, "is_disabled": 0, "name": "45f6d7857a2493849d6a7f65832f26b1", "fusion_lat": 0.0, "rental_uris": {"ios": "https://dc.lft.to/lastmile_qr_scan", "android": "https://dc.lft.to/lastmile_qr_scan"}, "lon": -77.01745283333334, "type": "electric_scooter"}, {"bike_id": "dfeeed31843495c4112869e326fbe9b5", "is_reserved": 0, "fusion_lon": 0.0, "lat": 38.925645833333334, "is_disabled": 0, "name": "dfeeed31843495c4112869e326fbe9b5", "fusion_lat": 0.0, "rental_uris": {"ios": "https://dc.lft.to/lastmile_qr_scan", "android": "https://dc.lft.to/lastmile_qr_scan"}, "lon": -77.03905866666666, "type": "electric_scooter"}, {"bike_id": "7a37a7b8a9ddc1d3f027ce577eb938ad", "is_reserved": 0, "fusion_lon": 0.0, "lat": 38.897568, "is_disabled": 0, "name": "7a37a7b8a9ddc1d3f027ce577eb938ad", "fusion_lat": 0.0, "rental_uris": {"ios": "https://dc.lft.to/lastmile_qr_scan", "android": "https://dc.lft.to/lastmile_qr_scan"}, "lon": -77.03018333333333, "type": "electric_scooter"}, {"bike_id": "df0b1ddf99f0500d76588063f2685c78", "is_reserved": 0, "fusion_lon": 0.0, "lat": 38.90255583333333, "is_disabled": 0, "name": "df0b1ddf99f0500d76588063f2685c78", "fusion_lat": 0.0, "rental_uris": {"ios": "https://dc.lft.to/lastmile_qr_scan", "android": "https://dc.lft.to/lastmile_qr_scan"}, "lon": -77.039326, "type": "electric_scooter"}, {"bike_id": "e1ec02cdd045406c47b333846b7a380c", "is_reserved": 0, "fusion_lon": 0.0, "lat": 38.91710483333333, "is_disabled": 0, "name": "e1ec02cdd045406c47b333846b7a380c", "fusion_lat": 0.0, "rental_uris": {"ios": "https://dc.lft.to/lastmile_qr_scan", "android": "https://dc.lft.to/lastmile_qr_scan"}, "lon": -77.0310235, "type": "electric_scooter"}, {"bike_id": "db346aca24b4049cc1956b29bcb18c54", "is_reserved": 0, "fusion_lon": 0.0, "lat": 38.92009216666667, "is_disabled": 0, "name": "db346aca24b4049cc1956b29bcb18c54", "fusion_lat": 0.0, "rental_uris": {"ios": "https://dc.lft.to/lastmile_qr_scan", "android": "https://dc.lft.to/lastmile_qr_scan"}, "lon": -77.03780866666666, "type": "electric_scooter"}, {"bike_id": "39f3d373d93c680b7ae7ced9df06f412", "is_reserved": 0, "fusion_lon": 0.0, "lat": 38.9044055, "is_disabled": 0, "name": "39f3d373d93c680b7ae7ced9df06f412", "fusion_lat": 0.0, "rental_uris": {"ios": "https://dc.lft.to/lastmile_qr_scan", "android": "https://dc.lft.to/lastmile_qr_scan"}, "lon": -77.02892166666666, "type": "electric_scooter"}, {"bike_id": "6799cc5f38c5b1867f2c775277afa4bc", "is_reserved": 0, "fusion_lon": 0.0, "lat": 38.925798666666665, "is_disabled": 0, "name": "6799cc5f38c5b1867f2c775277afa4bc", "fusion_lat": 0.0, "rental_uris": {"ios": "https://dc.lft.to/lastmile_qr_scan", "android": "https://dc.lft.to/lastmile_qr_scan"}, "lon": -77.03915266666667, "type": "electric_scooter"}, {"bike_id": "b81ffa8494ea50ed8f29498fe6699529", "is_reserved": 0, "fusion_lon": 0.0, "lat": 38.934536333333334, "is_disabled": 0, "name": "b81ffa8494ea50ed8f29498fe6699529", "fusion_lat": 0.0, "rental_uris": {"ios": "https://dc.lft.to/lastmile_qr_scan", "android": "https://dc.lft.to/lastmile_qr_scan"}, "lon": -77.07234666666666, "type": "electric_scooter"}, {"bike_id": "38f8874546e418b7221c6ffd092e0dcc", "is_reserved": 0, "fusion_lon": 0.0, "lat": 38.885729, "is_disabled": 0, "name": "38f8874546e418b7221c6ffd092e0dcc", "fusion_lat": 0.0, "rental_uris": {"ios": "https://dc.lft.to/lastmile_qr_scan", "android": "https://dc.lft.to/lastmile_qr_scan"}, "lon": -77.0154485, "type": "electric_scooter"}, {"bike_id": "e7febeaedf2bc11fffff342f7d35e8b5", "is_reserved": 0, "fusion_lon": 0.0, "lat": 38.89821633333333, "is_disabled": 0, "name": "e7febeaedf2bc11fffff342f7d35e8b5", "fusion_lat": 0.0, "rental_uris": {"ios": "https://dc.lft.to/lastmile_qr_scan", "android": "https://dc.lft.to/lastmile_qr_scan"}, "lon": -77.02951666666667, "type": "electric_scooter"}, {"bike_id": "19b005cb761cfcb3d17aad7833da8223", "is_reserved": 0, "fusion_lon": 0.0, "lat": 38.91597633333333, "is_disabled": 0, "name": "19b005cb761cfcb3d17aad7833da8223", "fusion_lat": 0.0, "rental_uris": {"ios": "https://dc.lft.to/lastmile_qr_scan", "android": "https://dc.lft.to/lastmile_qr_scan"}, "lon": -76.98377883333333, "type": "electric_scooter"}, {"bike_id": "87a12079726330e7af009eb0824215df", "is_reserved": 0, "fusion_lon": 0.0, "lat": 38.87916766666667, "is_disabled": 0, "name": "87a12079726330e7af009eb0824215df", "fusion_lat": 0.0, "rental_uris": {"ios": "https://dc.lft.to/lastmile_qr_scan", "android": "https://dc.lft.to/lastmile_qr_scan"}, "lon": -76.99508233333333, "type": "electric_scooter"}, {"bike_id": "0ea6cd75c5016ea05a1221e2f334f9a6", "is_reserved": 0, "fusion_lon": 0.0, "lat": 38.891058, "is_disabled": 0, "name": "0ea6cd75c5016ea05a1221e2f334f9a6", "fusion_lat": 0.0, "rental_uris": {"ios": "https://dc.lft.to/lastmile_qr_scan", "android": "https://dc.lft.to/lastmile_qr_scan"}, "lon": -76.98701416666667, "type": "electric_scooter"}, {"bike_id": "643c7bbdae1424485c18bb0815ebb4cb", "is_reserved": 0, "fusion_lon": 0.0, "lat": 38.902630333333335, "is_disabled": 0, "name": "643c7bbdae1424485c18bb0815ebb4cb", "fusion_lat": 0.0, "rental_uris": {"ios": "https://dc.lft.to/lastmile_qr_scan", "android": "https://dc.lft.to/lastmile_qr_scan"}, "lon": -77.043541, "type": "electric_scooter"}, {"bike_id": "1b559bafdb9d03dfd08635a8284b3726", "is_reserved": 0, "fusion_lon": 0.0, "lat": 38.9084145, "is_disabled": 0, "name": "1b559bafdb9d03dfd08635a8284b3726", "fusion_lat": 0.0, "rental_uris": {"ios": "https://dc.lft.to/lastmile_qr_scan", "android": "https://dc.lft.to/lastmile_qr_scan"}, "lon": -77.039452, "type": "electric_scooter"}, {"bike_id": "221083c6344cc358f7abd2e95a2d46cf", "is_reserved": 0, "fusion_lon": 0.0, "lat": 38.92861383333333, "is_disabled": 0, "name": "221083c6344cc358f7abd2e95a2d46cf", "fusion_lat": 0.0, "rental_uris": {"ios": "https://dc.lft.to/lastmile_qr_scan", "android": "https://dc.lft.to/lastmile_qr_scan"}, "lon": -77.01377816666667, "type": "electric_scooter"}, {"bike_id": "04d08aa4848e723f6fc9b17e1922b7b9", "is_reserved": 0, "fusion_lon": 0.0, "lat": 38.916670833333335, "is_disabled": 0, "name": "04d08aa4848e723f6fc9b17e1922b7b9", "fusion_lat": 0.0, "rental_uris": {"ios": "https://dc.lft.to/lastmile_qr_scan", "android": "https://dc.lft.to/lastmile_qr_scan"}, "lon": -77.0296715, "type": "electric_scooter"}, {"bike_id": "1c782ed6cd5c772fcd0129578279c6d2", "is_reserved": 0, "fusion_lon": 0.0, "lat": 38.87082433333333, "is_disabled": 0, "name": "1c782ed6cd5c772fcd0129578279c6d2", "fusion_lat": 0.0, "rental_uris": {"ios": "https://dc.lft.to/lastmile_qr_scan", "android": "https://dc.lft.to/lastmile_qr_scan"}, "lon": -77.01205383333334, "type": "electric_bike"}, {"bike_id": "6586f5f684c2104d8eb67a0b823fcf16", "is_reserved": 0, "fusion_lon": 0.0, "lat": 38.896859166666665, "is_disabled": 0, "name": "6586f5f684c2104d8eb67a0b823fcf16", "fusion_lat": 0.0, "rental_uris": {"ios": "https://dc.lft.to/lastmile_qr_scan", "android": "https://dc.lft.to/lastmile_qr_scan"}, "lon": -76.99627133333334, "type": "electric_scooter"}, {"bike_id": "21a730cba767784f42f0612699c5111b", "is_reserved": 0, "fusion_lon": 0.0, "lat": 38.879114333333334, "is_disabled": 0, "name": "21a730cba767784f42f0612699c5111b", "fusion_lat": 0.0, "rental_uris": {"ios": "https://dc.lft.to/lastmile_qr_scan", "android": "https://dc.lft.to/lastmile_qr_scan"}, "lon": -77.02204366666666, "type": "electric_scooter"}, {"bike_id": "556be470a5606866250ab610aae9ffca", "is_reserved": 0, "fusion_lon": 0.0, "lat": 38.905462, "is_disabled": 0, "name": "556be470a5606866250ab610aae9ffca", "fusion_lat": 0.0, "rental_uris": {"ios": "https://dc.lft.to/lastmile_qr_scan", "android": "https://dc.lft.to/lastmile_qr_scan"}, "lon": -77.04346066666666, "type": "electric_scooter"}, {"bike_id": "09a654a27905c33e4012477e9560bbaf", "is_reserved": 0, "fusion_lon": 0.0, "lat": 38.9250815, "is_disabled": 0, "name": "09a654a27905c33e4012477e9560bbaf", "fusion_lat": 0.0, "rental_uris": {"ios": "https://dc.lft.to/lastmile_qr_scan", "android": "https://dc.lft.to/lastmile_qr_scan"}, "lon": -77.02163833333333, "type": "electric_scooter"}, {"bike_id": "13d48e9e6b1650689e51eacd4bdbd69a", "is_reserved": 0, "fusion_lon": 0.0, "lat": 38.892205, "is_disabled": 0, "name": "13d48e9e6b1650689e51eacd4bdbd69a", "fusion_lat": 0.0, "rental_uris": {"ios": "https://dc.lft.to/lastmile_qr_scan", "android": "https://dc.lft.to/lastmile_qr_scan"}, "lon": -77.041948, "type": "electric_scooter"}, {"bike_id": "37278a0ba142e71a8a99754b85b93c9a", "is_reserved": 0, "fusion_lon": 0.0, "lat": 38.89567683333333, "is_disabled": 0, "name": "37278a0ba142e71a8a99754b85b93c9a", "fusion_lat": 0.0, "rental_uris": {"ios": "https://dc.lft.to/lastmile_qr_scan", "android": "https://dc.lft.to/lastmile_qr_scan"}, "lon": -77.01906916666667, "type": "electric_scooter"}, {"bike_id": "1bfe691d30b7c90b944559805aa497af", "is_reserved": 0, "fusion_lon": 0.0, "lat": 38.891913, "is_disabled": 0, "name": "1bfe691d30b7c90b944559805aa497af", "fusion_lat": 0.0, "rental_uris": {"ios": "https://dc.lft.to/lastmile_qr_scan", "android": "https://dc.lft.to/lastmile_qr_scan"}, "lon": -77.122627, "type": "electric_bike"}, {"bike_id": "927052a513f6cea9222275b71210fcf0", "is_reserved": 0, "fusion_lon": 0.0, "lat": 38.909635, "is_disabled": 0, "name": "927052a513f6cea9222275b71210fcf0", "fusion_lat": 0.0, "rental_uris": {"ios": "https://dc.lft.to/lastmile_qr_scan", "android": "https://dc.lft.to/lastmile_qr_scan"}, "lon": -77.04825, "type": "electric_scooter"}, {"bike_id": "1496bb5136156aeb423d74303f6ea8a0", "is_reserved": 0, "fusion_lon": 0.0, "lat": 38.89227966666667, "is_disabled": 0, "name": "1496bb5136156aeb423d74303f6ea8a0", "fusion_lat": 0.0, "rental_uris": {"ios": "https://dc.lft.to/lastmile_qr_scan", "android": "https://dc.lft.to/lastmile_qr_scan"}, "lon": -77.03222216666667, "type": "electric_scooter"}, {"bike_id": "25d6b990ddb712e42ac90b8ca66917cf", "is_reserved": 0, "fusion_lon": 0.0, "lat": 38.935955, "is_disabled": 0, "name": "25d6b990ddb712e42ac90b8ca66917cf", "fusion_lat": 0.0, "rental_uris": {"ios": "https://dc.lft.to/lastmile_qr_scan", "android": "https://dc.lft.to/lastmile_qr_scan"}, "lon": -77.02328183333333, "type": "electric_scooter"}, {"bike_id": "043d85c462e20fc454ce56ece2180499", "is_reserved": 0, "fusion_lon": 0.0, "lat": 38.9247215, "is_disabled": 0, "name": "043d85c462e20fc454ce56ece2180499", "fusion_lat": 0.0, "rental_uris": {"ios": "https://dc.lft.to/lastmile_qr_scan", "android": "https://dc.lft.to/lastmile_qr_scan"}, "lon": -77.208379, "type": "electric_bike"}, {"bike_id": "f54b3aaf4e0c868af98065d5682451d4", "is_reserved": 0, "fusion_lon": 0.0, "lat": 38.90577666666667, "is_disabled": 0, "name": "f54b3aaf4e0c868af98065d5682451d4", "fusion_lat": 0.0, "rental_uris": {"ios": "https://dc.lft.to/lastmile_qr_scan", "android": "https://dc.lft.to/lastmile_qr_scan"}, "lon": -77.00433433333333, "type": "electric_scooter"}, {"bike_id": "c85d9fe72c21f65ad0fb8d21a8e573dd", "is_reserved": 0, "fusion_lon": 0.0, "lat": 38.880433333333336, "is_disabled": 0, "name": "c85d9fe72c21f65ad0fb8d21a8e573dd", "fusion_lat": 0.0, "rental_uris": {"ios": "https://dc.lft.to/lastmile_qr_scan", "android": "https://dc.lft.to/lastmile_qr_scan"}, "lon": -76.92721783333333, "type": "electric_scooter"}, {"bike_id": "d41e51393c122ac346640619c39752a2", "is_reserved": 0, "fusion_lon": 0.0, "lat": 38.934237, "is_disabled": 0, "name": "d41e51393c122ac346640619c39752a2", "fusion_lat": 0.0, "rental_uris": {"ios": "https://dc.lft.to/lastmile_qr_scan", "android": "https://dc.lft.to/lastmile_qr_scan"}, "lon": -77.03406116666666, "type": "electric_scooter"}, {"bike_id": "dd6e20b643d84be05b25263d4c5b1d23", "is_reserved": 0, "fusion_lon": 0.0, "lat": 38.903643333333335, "is_disabled": 0, "name": "dd6e20b643d84be05b25263d4c5b1d23", "fusion_lat": 0.0, "rental_uris": {"ios": "https://dc.lft.to/lastmile_qr_scan", "android": "https://dc.lft.to/lastmile_qr_scan"}, "lon": -77.03195866666667, "type": "electric_scooter"}, {"bike_id": "714499217bd4f3b169b12d60f834cc86", "is_reserved": 0, "fusion_lon": 0.0, "lat": 38.902764, "is_disabled": 0, "name": "714499217bd4f3b169b12d60f834cc86", "fusion_lat": 0.0, "rental_uris": {"ios": "https://dc.lft.to/lastmile_qr_scan", "android": "https://dc.lft.to/lastmile_qr_scan"}, "lon": -77.03473566666666, "type": "electric_scooter"}, {"bike_id": "379161063c0166813610d5218c241507", "is_reserved": 0, "fusion_lon": 0.0, "lat": 38.924370333333336, "is_disabled": 0, "name": "379161063c0166813610d5218c241507", "fusion_lat": 0.0, "rental_uris": {"ios": "https://dc.lft.to/lastmile_qr_scan", "android": "https://dc.lft.to/lastmile_qr_scan"}, "lon": -77.03403883333333, "type": "electric_scooter"}, {"bike_id": "e2e8d34e170dfbf1c69e7678fdb639a1", "is_reserved": 0, "fusion_lon": 0.0, "lat": 38.858129166666664, "is_disabled": 0, "name": "e2e8d34e170dfbf1c69e7678fdb639a1", "fusion_lat": 0.0, "rental_uris": {"ios": "https://dc.lft.to/lastmile_qr_scan", "android": "https://dc.lft.to/lastmile_qr_scan"}, "lon": -76.98655766666667, "type": "electric_scooter"}, {"bike_id": "249798910ef355536cc4307723c50a3f", "is_reserved": 0, "fusion_lon": 0.0, "lat": 38.90720683333333, "is_disabled": 0, "name": "249798910ef355536cc4307723c50a3f", "fusion_lat": 0.0, "rental_uris": {"ios": "https://dc.lft.to/lastmile_qr_scan", "android": "https://dc.lft.to/lastmile_qr_scan"}, "lon": -76.99796433333333, "type": "electric_scooter"}, {"bike_id": "464a14c611918fc9f27b23de85d2e21e", "is_reserved": 0, "fusion_lon": 0.0, "lat": 38.924765, "is_disabled": 0, "name": "464a14c611918fc9f27b23de85d2e21e", "fusion_lat": 0.0, "rental_uris": {"ios": "https://dc.lft.to/lastmile_qr_scan", "android": "https://dc.lft.to/lastmile_qr_scan"}, "lon": -77.05216383333334, "type": "electric_scooter"}, {"bike_id": "63ca3eb1e96a969b5962bbaffd9b0635", "is_reserved": 0, "fusion_lon": 0.0, "lat": 38.89789866666667, "is_disabled": 0, "name": "63ca3eb1e96a969b5962bbaffd9b0635", "fusion_lat": 0.0, "rental_uris": {"ios": "https://dc.lft.to/lastmile_qr_scan", "android": "https://dc.lft.to/lastmile_qr_scan"}, "lon": -76.999616, "type": "electric_bike"}, {"bike_id": "cd0e18fb9b9b738d356043fd2ceec9b8", "is_reserved": 0, "fusion_lon": 0.0, "lat": 38.911496666666665, "is_disabled": 0, "name": "cd0e18fb9b9b738d356043fd2ceec9b8", "fusion_lat": 0.0, "rental_uris": {"ios": "https://dc.lft.to/lastmile_qr_scan", "android": "https://dc.lft.to/lastmile_qr_scan"}, "lon": -77.04176733333334, "type": "electric_scooter"}, {"bike_id": "77e89e749d59c0c847f72d34ea48a275", "is_reserved": 0, "fusion_lon": 0.0, "lat": 38.95564133333333, "is_disabled": 0, "name": "77e89e749d59c0c847f72d34ea48a275", "fusion_lat": 0.0, "rental_uris": {"ios": "https://dc.lft.to/lastmile_qr_scan", "android": "https://dc.lft.to/lastmile_qr_scan"}, "lon": -76.93550816666666, "type": "electric_bike"}, {"bike_id": "e1883cf34bc6cb1c277a61082025af74", "is_reserved": 0, "fusion_lon": 0.0, "lat": 38.897864, "is_disabled": 0, "name": "e1883cf34bc6cb1c277a61082025af74", "fusion_lat": 0.0, "rental_uris": {"ios": "https://dc.lft.to/lastmile_qr_scan", "android": "https://dc.lft.to/lastmile_qr_scan"}, "lon": -77.02815983333333, "type": "electric_scooter"}, {"bike_id": "f2e62de0efb05bfebbae83e33f68e1c6", "is_reserved": 0, "fusion_lon": 0.0, "lat": 38.920160833333334, "is_disabled": 0, "name": "f2e62de0efb05bfebbae83e33f68e1c6", "fusion_lat": 0.0, "rental_uris": {"ios": "https://dc.lft.to/lastmile_qr_scan", "android": "https://dc.lft.to/lastmile_qr_scan"}, "lon": -77.04175333333333, "type": "electric_scooter"}, {"bike_id": "7025dc55210bf32354960df2979a6bb2", "is_reserved": 0, "fusion_lon": 0.0, "lat": 38.90351316666667, "is_disabled": 0, "name": "7025dc55210bf32354960df2979a6bb2", "fusion_lat": 0.0, "rental_uris": {"ios": "https://dc.lft.to/lastmile_qr_scan", "android": "https://dc.lft.to/lastmile_qr_scan"}, "lon": -77.03988316666667, "type": "electric_scooter"}, {"bike_id": "ca20a241d1b7eb22c48832f392981f5c", "is_reserved": 0, "fusion_lon": 0.0, "lat": 38.904507833333334, "is_disabled": 0, "name": "ca20a241d1b7eb22c48832f392981f5c", "fusion_lat": 0.0, "rental_uris": {"ios": "https://dc.lft.to/lastmile_qr_scan", "android": "https://dc.lft.to/lastmile_qr_scan"}, "lon": -77.04897833333334, "type": "electric_scooter"}, {"bike_id": "93549aef5952ac404bfad6b9846464d8", "is_reserved": 0, "fusion_lon": 0.0, "lat": 38.926108166666666, "is_disabled": 0, "name": "93549aef5952ac404bfad6b9846464d8", "fusion_lat": 0.0, "rental_uris": {"ios": "https://dc.lft.to/lastmile_qr_scan", "android": "https://dc.lft.to/lastmile_qr_scan"}, "lon": -77.00540283333333, "type": "electric_scooter"}, {"bike_id": "5095c00be0813008a903331ed5a5bf5e", "is_reserved": 0, "fusion_lon": 0.0, "lat": 38.8975865, "is_disabled": 0, "name": "5095c00be0813008a903331ed5a5bf5e", "fusion_lat": 0.0, "rental_uris": {"ios": "https://dc.lft.to/lastmile_qr_scan", "android": "https://dc.lft.to/lastmile_qr_scan"}, "lon": -76.941858, "type": "electric_scooter"}, {"bike_id": "2c2d4f2cedbff79549a196c81564a4d4", "is_reserved": 0, "fusion_lon": 0.0, "lat": 38.92098333333333, "is_disabled": 0, "name": "2c2d4f2cedbff79549a196c81564a4d4", "fusion_lat": 0.0, "rental_uris": {"ios": "https://dc.lft.to/lastmile_qr_scan", "android": "https://dc.lft.to/lastmile_qr_scan"}, "lon": -77.02591916666667, "type": "electric_scooter"}, {"bike_id": "1150701a1e5a2ea5fc31c9b07e5e9b2c", "is_reserved": 0, "fusion_lon": 0.0, "lat": 38.954812, "is_disabled": 0, "name": "1150701a1e5a2ea5fc31c9b07e5e9b2c", "fusion_lat": 0.0, "rental_uris": {"ios": "https://dc.lft.to/lastmile_qr_scan", "android": "https://dc.lft.to/lastmile_qr_scan"}, "lon": -77.08241183333334, "type": "electric_bike"}, {"bike_id": "9be6b887a2801d52ee87f8b24244f924", "is_reserved": 0, "fusion_lon": 0.0, "lat": 38.9314855, "is_disabled": 0, "name": "9be6b887a2801d52ee87f8b24244f924", "fusion_lat": 0.0, "rental_uris": {"ios": "https://dc.lft.to/lastmile_qr_scan", "android": "https://dc.lft.to/lastmile_qr_scan"}, "lon": -77.03833816666666, "type": "electric_scooter"}, {"bike_id": "0b1615ab7cc7fbad4e450b14b81140a1", "is_reserved": 0, "fusion_lon": 0.0, "lat": 38.895271666666666, "is_disabled": 0, "name": "0b1615ab7cc7fbad4e450b14b81140a1", "fusion_lat": 0.0, "rental_uris": {"ios": "https://dc.lft.to/lastmile_qr_scan", "android": "https://dc.lft.to/lastmile_qr_scan"}, "lon": -77.04183733333333, "type": "electric_scooter"}, {"bike_id": "5258d86667e0d5da1825f17948b8c440", "is_reserved": 0, "fusion_lon": 0.0, "lat": 38.88437483333333, "is_disabled": 0, "name": "5258d86667e0d5da1825f17948b8c440", "fusion_lat": 0.0, "rental_uris": {"ios": "https://dc.lft.to/lastmile_qr_scan", "android": "https://dc.lft.to/lastmile_qr_scan"}, "lon": -76.95754016666666, "type": "electric_scooter"}, {"bike_id": "f9b686fcf5d8b4b339628bcaec0575a2", "is_reserved": 0, "fusion_lon": 0.0, "lat": 38.9002265, "is_disabled": 0, "name": "f9b686fcf5d8b4b339628bcaec0575a2", "fusion_lat": 0.0, "rental_uris": {"ios": "https://dc.lft.to/lastmile_qr_scan", "android": "https://dc.lft.to/lastmile_qr_scan"}, "lon": -77.04034483333334, "type": "electric_scooter"}, {"bike_id": "e068385ba8a94c8d21d3c89f5d5da33c", "is_reserved": 0, "fusion_lon": 0.0, "lat": 38.89906166666667, "is_disabled": 0, "name": "e068385ba8a94c8d21d3c89f5d5da33c", "fusion_lat": 0.0, "rental_uris": {"ios": "https://dc.lft.to/lastmile_qr_scan", "android": "https://dc.lft.to/lastmile_qr_scan"}, "lon": -76.93352233333333, "type": "electric_scooter"}, {"bike_id": "5e82dfe10f0b90feb19edac0a753673c", "is_reserved": 0, "fusion_lon": 0.0, "lat": 38.89221933333334, "is_disabled": 0, "name": "5e82dfe10f0b90feb19edac0a753673c", "fusion_lat": 0.0, "rental_uris": {"ios": "https://dc.lft.to/lastmile_qr_scan", "android": "https://dc.lft.to/lastmile_qr_scan"}, "lon": -77.10781633333333, "type": "electric_bike"}, {"bike_id": "cc00d0fa18202ee68e2b7c1bad9a2acc", "is_reserved": 0, "fusion_lon": 0.0, "lat": 38.90366016666667, "is_disabled": 0, "name": "cc00d0fa18202ee68e2b7c1bad9a2acc", "fusion_lat": 0.0, "rental_uris": {"ios": "https://dc.lft.to/lastmile_qr_scan", "android": "https://dc.lft.to/lastmile_qr_scan"}, "lon": -77.03768083333334, "type": "electric_scooter"}, {"bike_id": "e5fe5d3c99e5e58ef5c0392ee4ed746c", "is_reserved": 0, "fusion_lon": 0.0, "lat": 38.896321666666665, "is_disabled": 0, "name": "e5fe5d3c99e5e58ef5c0392ee4ed746c", "fusion_lat": 0.0, "rental_uris": {"ios": "https://dc.lft.to/lastmile_qr_scan", "android": "https://dc.lft.to/lastmile_qr_scan"}, "lon": -77.04801466666666, "type": "electric_scooter"}, {"bike_id": "24ac6de33ec29500a14d05376ef156f9", "is_reserved": 0, "fusion_lon": 0.0, "lat": 38.909961833333334, "is_disabled": 0, "name": "24ac6de33ec29500a14d05376ef156f9", "fusion_lat": 0.0, "rental_uris": {"ios": "https://dc.lft.to/lastmile_qr_scan", "android": "https://dc.lft.to/lastmile_qr_scan"}, "lon": -77.02182216666667, "type": "electric_scooter"}, {"bike_id": "4873c96e9dc980f02bdbb28262a8ba34", "is_reserved": 0, "fusion_lon": 0.0, "lat": 38.90386066666667, "is_disabled": 0, "name": "4873c96e9dc980f02bdbb28262a8ba34", "fusion_lat": 0.0, "rental_uris": {"ios": "https://dc.lft.to/lastmile_qr_scan", "android": "https://dc.lft.to/lastmile_qr_scan"}, "lon": -77.0420075, "type": "electric_scooter"}, {"bike_id": "6d6c9e674449a137592d8f41463113f3", "is_reserved": 0, "fusion_lon": 0.0, "lat": 38.932427, "is_disabled": 0, "name": "6d6c9e674449a137592d8f41463113f3", "fusion_lat": 0.0, "rental_uris": {"ios": "https://dc.lft.to/lastmile_qr_scan", "android": "https://dc.lft.to/lastmile_qr_scan"}, "lon": -77.03891083333333, "type": "electric_scooter"}, {"bike_id": "c7e8469aaed98adfa49915276620570c", "is_reserved": 0, "fusion_lon": 0.0, "lat": 38.908560333333334, "is_disabled": 0, "name": "c7e8469aaed98adfa49915276620570c", "fusion_lat": 0.0, "rental_uris": {"ios": "https://dc.lft.to/lastmile_qr_scan", "android": "https://dc.lft.to/lastmile_qr_scan"}, "lon": -77.02727416666667, "type": "electric_scooter"}, {"bike_id": "f7fdfee052f944152d9e19e2997944a3", "is_reserved": 0, "fusion_lon": 0.0, "lat": 38.909168, "is_disabled": 0, "name": "f7fdfee052f944152d9e19e2997944a3", "fusion_lat": 0.0, "rental_uris": {"ios": "https://dc.lft.to/lastmile_qr_scan", "android": "https://dc.lft.to/lastmile_qr_scan"}, "lon": -77.009207, "type": "electric_scooter"}, {"bike_id": "6dc1daebc8253d3bbcd8c83ba6030705", "is_reserved": 0, "fusion_lon": 0.0, "lat": 38.9339345, "is_disabled": 0, "name": "6dc1daebc8253d3bbcd8c83ba6030705", "fusion_lat": 0.0, "rental_uris": {"ios": "https://dc.lft.to/lastmile_qr_scan", "android": "https://dc.lft.to/lastmile_qr_scan"}, "lon": -77.03581316666667, "type": "electric_scooter"}, {"bike_id": "e4a3268b19faf3118dfe6590259ccf56", "is_reserved": 0, "fusion_lon": 0.0, "lat": 38.905042333333334, "is_disabled": 0, "name": "e4a3268b19faf3118dfe6590259ccf56", "fusion_lat": 0.0, "rental_uris": {"ios": "https://dc.lft.to/lastmile_qr_scan", "android": "https://dc.lft.to/lastmile_qr_scan"}, "lon": -77.0675305, "type": "electric_scooter"}, {"bike_id": "1a70e37c4da0f60373ee9ff01a27460d", "is_reserved": 0, "fusion_lon": 0.0, "lat": 38.912642166666664, "is_disabled": 0, "name": "1a70e37c4da0f60373ee9ff01a27460d", "fusion_lat": 0.0, "rental_uris": {"ios": "https://dc.lft.to/lastmile_qr_scan", "android": "https://dc.lft.to/lastmile_qr_scan"}, "lon": -77.02562816666666, "type": "electric_scooter"}, {"bike_id": "ad3b045616b000a69a9e239bb3f57b98", "is_reserved": 0, "fusion_lon": 0.0, "lat": 38.892304833333334, "is_disabled": 0, "name": "ad3b045616b000a69a9e239bb3f57b98", "fusion_lat": 0.0, "rental_uris": {"ios": "https://dc.lft.to/lastmile_qr_scan", "android": "https://dc.lft.to/lastmile_qr_scan"}, "lon": -77.02205516666666, "type": "electric_scooter"}, {"bike_id": "4b7b0ef781d8b5bc6a8a43f09ed9ad44", "is_reserved": 0, "fusion_lon": 0.0, "lat": 38.892200333333335, "is_disabled": 0, "name": "4b7b0ef781d8b5bc6a8a43f09ed9ad44", "fusion_lat": 0.0, "rental_uris": {"ios": "https://dc.lft.to/lastmile_qr_scan", "android": "https://dc.lft.to/lastmile_qr_scan"}, "lon": -77.03213433333333, "type": "electric_scooter"}, {"bike_id": "737c6584d8136b43ab045975ec3318b7", "is_reserved": 0, "fusion_lon": 0.0, "lat": 38.907120666666664, "is_disabled": 0, "name": "737c6584d8136b43ab045975ec3318b7", "fusion_lat": 0.0, "rental_uris": {"ios": "https://dc.lft.to/lastmile_qr_scan", "android": "https://dc.lft.to/lastmile_qr_scan"}, "lon": -77.0319065, "type": "electric_scooter"}, {"bike_id": "2f766e422e546e8e5dffedd73f5679d7", "is_reserved": 0, "fusion_lon": 0.0, "lat": 38.89997833333334, "is_disabled": 0, "name": "2f766e422e546e8e5dffedd73f5679d7", "fusion_lat": 0.0, "rental_uris": {"ios": "https://dc.lft.to/lastmile_qr_scan", "android": "https://dc.lft.to/lastmile_qr_scan"}, "lon": -77.0337895, "type": "electric_scooter"}, {"bike_id": "d66388213f07ef36757d719ae349b8c3", "is_reserved": 0, "fusion_lon": 0.0, "lat": 38.9202405, "is_disabled": 0, "name": "d66388213f07ef36757d719ae349b8c3", "fusion_lat": 0.0, "rental_uris": {"ios": "https://dc.lft.to/lastmile_qr_scan", "android": "https://dc.lft.to/lastmile_qr_scan"}, "lon": -77.02796783333334, "type": "electric_scooter"}, {"bike_id": "41ca5b41f31c95056d9061246c3a04fb", "is_reserved": 0, "fusion_lon": 0.0, "lat": 38.892199166666664, "is_disabled": 0, "name": "41ca5b41f31c95056d9061246c3a04fb", "fusion_lat": 0.0, "rental_uris": {"ios": "https://dc.lft.to/lastmile_qr_scan", "android": "https://dc.lft.to/lastmile_qr_scan"}, "lon": -77.03215283333333, "type": "electric_scooter"}, {"bike_id": "decadb9606b8414d81aaa3f38a9a9302", "is_reserved": 0, "fusion_lon": 0.0, "lat": 38.88405216666666, "is_disabled": 0, "name": "decadb9606b8414d81aaa3f38a9a9302", "fusion_lat": 0.0, "rental_uris": {"ios": "https://dc.lft.to/lastmile_qr_scan", "android": "https://dc.lft.to/lastmile_qr_scan"}, "lon": -76.96058233333333, "type": "electric_bike"}, {"bike_id": "c92f1c3b17e4f82d262c23d0a24676c1", "is_reserved": 0, "fusion_lon": 0.0, "lat": 38.8719225, "is_disabled": 0, "name": "c92f1c3b17e4f82d262c23d0a24676c1", "fusion_lat": 0.0, "rental_uris": {"ios": "https://dc.lft.to/lastmile_qr_scan", "android": "https://dc.lft.to/lastmile_qr_scan"}, "lon": -77.01375433333334, "type": "electric_scooter"}, {"bike_id": "c5143cdbff634c9fb52d659097ce355e", "is_reserved": 0, "fusion_lon": 0.0, "lat": 38.90457883333333, "is_disabled": 0, "name": "c5143cdbff634c9fb52d659097ce355e", "fusion_lat": 0.0, "rental_uris": {"ios": "https://dc.lft.to/lastmile_qr_scan", "android": "https://dc.lft.to/lastmile_qr_scan"}, "lon": -77.0533765, "type": "electric_scooter"}, {"bike_id": "70292ebf7a6c926eb9de8cb111220bfd", "is_reserved": 0, "fusion_lon": 0.0, "lat": 38.91956416666667, "is_disabled": 0, "name": "70292ebf7a6c926eb9de8cb111220bfd", "fusion_lat": 0.0, "rental_uris": {"ios": "https://dc.lft.to/lastmile_qr_scan", "android": "https://dc.lft.to/lastmile_qr_scan"}, "lon": -76.97907183333334, "type": "electric_bike"}, {"bike_id": "20dca905f4d69c44229c39300f7456c1", "is_reserved": 0, "fusion_lon": 0.0, "lat": 38.9001815, "is_disabled": 0, "name": "20dca905f4d69c44229c39300f7456c1", "fusion_lat": 0.0, "rental_uris": {"ios": "https://dc.lft.to/lastmile_qr_scan", "android": "https://dc.lft.to/lastmile_qr_scan"}, "lon": -76.99761766666667, "type": "electric_scooter"}, {"bike_id": "60004f9e0884c06b1ecac4f9982317b9", "is_reserved": 0, "fusion_lon": 0.0, "lat": 38.9169185, "is_disabled": 0, "name": "60004f9e0884c06b1ecac4f9982317b9", "fusion_lat": 0.0, "rental_uris": {"ios": "https://dc.lft.to/lastmile_qr_scan", "android": "https://dc.lft.to/lastmile_qr_scan"}, "lon": -77.02957816666667, "type": "electric_scooter"}, {"bike_id": "b07b30784bec73519200020c6e2da730", "is_reserved": 0, "fusion_lon": 0.0, "lat": 38.865077, "is_disabled": 0, "name": "b07b30784bec73519200020c6e2da730", "fusion_lat": 0.0, "rental_uris": {"ios": "https://dc.lft.to/lastmile_qr_scan", "android": "https://dc.lft.to/lastmile_qr_scan"}, "lon": -76.98977016666667, "type": "electric_scooter"}, {"bike_id": "64540fdb05b3c559642014be867c05f4", "is_reserved": 0, "fusion_lon": 0.0, "lat": 38.9367285, "is_disabled": 0, "name": "64540fdb05b3c559642014be867c05f4", "fusion_lat": 0.0, "rental_uris": {"ios": "https://dc.lft.to/lastmile_qr_scan", "android": "https://dc.lft.to/lastmile_qr_scan"}, "lon": -76.95226216666667, "type": "electric_bike"}, {"bike_id": "12f7d626ec6ee4e3fb396addd6fda301", "is_reserved": 0, "fusion_lon": 0.0, "lat": 38.928797333333335, "is_disabled": 0, "name": "12f7d626ec6ee4e3fb396addd6fda301", "fusion_lat": 0.0, "rental_uris": {"ios": "https://dc.lft.to/lastmile_qr_scan", "android": "https://dc.lft.to/lastmile_qr_scan"}, "lon": -77.04049783333333, "type": "electric_scooter"}, {"bike_id": "26dabd6a97a3d66b5f2570a32fef4522", "is_reserved": 0, "fusion_lon": 0.0, "lat": 38.9066105, "is_disabled": 0, "name": "26dabd6a97a3d66b5f2570a32fef4522", "fusion_lat": 0.0, "rental_uris": {"ios": "https://dc.lft.to/lastmile_qr_scan", "android": "https://dc.lft.to/lastmile_qr_scan"}, "lon": -77.0381245, "type": "electric_scooter"}, {"bike_id": "71a0bc679a57a977fcc29803d615fb59", "is_reserved": 0, "fusion_lon": 0.0, "lat": 38.902419333333334, "is_disabled": 0, "name": "71a0bc679a57a977fcc29803d615fb59", "fusion_lat": 0.0, "rental_uris": {"ios": "https://dc.lft.to/lastmile_qr_scan", "android": "https://dc.lft.to/lastmile_qr_scan"}, "lon": -77.04520533333333, "type": "electric_scooter"}, {"bike_id": "591beaf13d81cbee01469edcbc99e924", "is_reserved": 0, "fusion_lon": 0.0, "lat": 38.89990316666667, "is_disabled": 0, "name": "591beaf13d81cbee01469edcbc99e924", "fusion_lat": 0.0, "rental_uris": {"ios": "https://dc.lft.to/lastmile_qr_scan", "android": "https://dc.lft.to/lastmile_qr_scan"}, "lon": -77.02697633333334, "type": "electric_scooter"}, {"bike_id": "eb9ea86b765df87eba96f7b5fa42da36", "is_reserved": 0, "fusion_lon": 0.0, "lat": 38.9019295, "is_disabled": 0, "name": "eb9ea86b765df87eba96f7b5fa42da36", "fusion_lat": 0.0, "rental_uris": {"ios": "https://dc.lft.to/lastmile_qr_scan", "android": "https://dc.lft.to/lastmile_qr_scan"}, "lon": -76.941951, "type": "electric_scooter"}, {"bike_id": "9a9b721c1ee1f9386dace258ca23e419", "is_reserved": 0, "fusion_lon": 0.0, "lat": 38.871888166666665, "is_disabled": 0, "name": "9a9b721c1ee1f9386dace258ca23e419", "fusion_lat": 0.0, "rental_uris": {"ios": "https://dc.lft.to/lastmile_qr_scan", "android": "https://dc.lft.to/lastmile_qr_scan"}, "lon": -77.01226316666667, "type": "electric_scooter"},