{"data": {"bikes": [{"rental_uris": {"ios": "https://dc.lft.to/lastmile_qr_scan", "android": "https://dc.lft.to/lastmile_qr_scan"}, "type": "electric_scooter", "name": "9f4e069f1dc78901dec327bb99fd00b3", "is_reserved": 0, "lon": -77.03880583333333, "is_disabled": 0, "fusion_lat": 0.0, "lat": 38.9339815, "bike_id": "9f4e069f1dc78901dec327bb99fd00b3", "fusion_lon": 0.0}, {"rental_uris": {"ios": "https://dc.lft.to/lastmile_qr_scan", "android": "https://dc.lft.to/lastmile_qr_scan"}, "type": "electric_scooter", "name": "af48b19f79f46f981601cd9c2898afd8", "is_reserved": 0, "lon": -77.028165, "is_disabled": 0, "fusion_lat": 0.0, "lat": 38.9125845, "bike_id": "af48b19f79f46f981601cd9c2898afd8", "fusion_lon": 0.0}, {"rental_uris": {"ios": "https://dc.lft.to/lastmile_qr_scan", "android": "https://dc.lft.to/lastmile_qr_scan"}, "type": "electric_scooter", "name": "34de0fae9b803f73643229173a5a3dfa", "is_reserved": 0, "lon": -77.03322166666666, "is_disabled": 0, "fusion_lat": 0.0, "lat": 38.918084666666665, "bike_id": "34de0fae9b803f73643229173a5a3dfa", "fusion_lon": 0.0}, {"rental_uris": {"ios": "https://dc.lft.to/lastmile_qr_scan", "android": "https://dc.lft.to/lastmile_qr_scan"}, "type": "electric_scooter", "name": "a25cba95e679daaadbc4f4cc2796e22d", "is_reserved": 0, "lon": -77.0461395, "is_disabled": 0, "fusion_lat": 0.0, "lat": 38.906651833333335, "bike_id": "a25cba95e679daaadbc4f4cc2796e22d", "fusion_lon": 0.0}, {"rental_uris": {"ios": "https://dc.lft.to/lastmile_qr_scan", "android": "https://dc.lft.to/lastmile_qr_scan"}, "type": "electric_scooter", "name": "d240fd936d11f3f969fb5f6ad3911ed9", "is_reserved": 0, "lon": -77.0488905, "is_disabled": 0, "fusion_lat": 0.0, "lat": 38.90123066666666, "bike_id": "d240fd936d11f3f969fb5f6ad3911ed9", "fusion_lon": 0.0}, {"rental_uris": {"ios": "https://dc.lft.to/lastmile_qr_scan", "android": "https://dc.lft.to/lastmile_qr_scan"}, "type": "electric_scooter", "name": "26f17bc8bbf7d2c9b47f6cfe199d655a", "is_reserved": 0, "lon": -77.05258916666666, "is_disabled": 0, "fusion_lat": 0.0, "lat": 38.925635166666666, "bike_id": "26f17bc8bbf7d2c9b47f6cfe199d655a", "fusion_lon": 0.0}, {"rental_uris": {"ios": "https://dc.lft.to/lastmile_qr_scan", "android": "https://dc.lft.to/lastmile_qr_scan"}, "type": "electric_scooter", "name": "bb20bbe0e7fcce8a0fc18c8c49b00e8c", "is_reserved": 0, "lon": -77.0413745, "is_disabled": 0, "fusion_lat": 0.0, "lat": 38.923383666666666, "bike_id": "bb20bbe0e7fcce8a0fc18c8c49b00e8c", "fusion_lon": 0.0}, {"rental_uris": {"ios": "https://dc.lft.to/lastmile_qr_scan", "android": "https://dc.lft.to/lastmile_qr_scan"}, "type": "electric_scooter", "name": "01495e78c0451e85c3b5c88219d30c84", "is_reserved": 0, "lon": -77.02126566666666, "is_disabled": 0, "fusion_lat": 0.0, "lat": 38.92416983333333, "bike_id": "01495e78c0451e85c3b5c88219d30c84", "fusion_lon": 0.0}, {"rental_uris": {"ios": "https://dc.lft.to/lastmile_qr_scan", "android": "https://dc.lft.to/lastmile_qr_scan"}, "type": "electric_scooter", "name": "c940bcae6293522dfbfa59cb936c2305", "is_reserved": 0, "lon": -77.0217555, "is_disabled": 0, "fusion_lat": 0.0, "lat": 38.894740166666665, "bike_id": "c940bcae6293522dfbfa59cb936c2305", "fusion_lon": 0.0}, {"rental_uris": {"ios": "https://dc.lft.to/lastmile_qr_scan", "android": "https://dc.lft.to/lastmile_qr_scan"}, "type": "electric_scooter", "name": "b9175ec7a737cd1d54d78958d0b0561c", "is_reserved": 0, "lon": -77.0387245, "is_disabled": 0, "fusion_lat": 0.0, "lat": 38.918827, "bike_id": "b9175ec7a737cd1d54d78958d0b0561c", "fusion_lon": 0.0}, {"rental_uris": {"ios": "https://dc.lft.to/lastmile_qr_scan", "android": "https://dc.lft.to/lastmile_qr_scan"}, "type": "electric_scooter", "name": "297dae09bef29d0b965fdbac9ee185ef", "is_reserved": 0, "lon": -77.02089533333333, "is_disabled": 0, "fusion_lat": 0.0, "lat": 38.923927166666665, "bike_id": "297dae09bef29d0b965fdbac9ee185ef", "fusion_lon": 0.0}, {"rental_uris": {"ios": "https://dc.lft.to/lastmile_qr_scan", "android": "https://dc.lft.to/lastmile_qr_scan"}, "type": "electric_scooter", "name": "9d92eb1576c1d78f6e37fdd3a0262526", "is_reserved": 0, "lon": -76.948536, "is_disabled": 0, "fusion_lat": 0.0, "lat": 38.883008333333336, "bike_id": "9d92eb1576c1d78f6e37fdd3a0262526", "fusion_lon": 0.0}, {"rental_uris": {"ios": "https://dc.lft.to/lastmile_qr_scan", "android": "https://dc.lft.to/lastmile_qr_scan"}, "type": "electric_scooter", "name": "def784fd06d8890d7661b54b63034b99", "is_reserved": 0, "lon": -76.98097516666667, "is_disabled": 0, "fusion_lat": 0.0, "lat": 38.903984666666666, "bike_id": "def784fd06d8890d7661b54b63034b99", "fusion_lon": 0.0}, {"rental_uris": {"ios": "https://dc.lft.to/lastmile_qr_scan", "android": "https://dc.lft.to/lastmile_qr_scan"}, "type": "electric_scooter", "name": "d595f5f2a7bf7b1da757ba910b67fb09", "is_reserved": 0, "lon": -77.00358216666666, "is_disabled": 0, "fusion_lat": 0.0, "lat": 38.892722666666664, "bike_id": "d595f5f2a7bf7b1da757ba910b67fb09", "fusion_lon": 0.0}, {"rental_uris": {"ios": "https://dc.lft.to/lastmile_qr_scan", "android": "https://dc.lft.to/lastmile_qr_scan"}, "type": "electric_scooter", "name": "dc009cc27240c55c2e03df4cb63c6518", "is_reserved": 0, "lon": -77.01902683333333, "is_disabled": 0, "fusion_lat": 0.0, "lat": 38.894871, "bike_id": "dc009cc27240c55c2e03df4cb63c6518", "fusion_lon": 0.0}, {"rental_uris": {"ios": "https://dc.lft.to/lastmile_qr_scan", "android": "https://dc.lft.to/lastmile_qr_scan"}, "type": "electric_scooter", "name": "3efad522d12cdcf359d27d6dd91b4cda", "is_reserved": 0, "lon": -77.02126916666667, "is_disabled": 0, "fusion_lat": 0.0, "lat": 38.923835833333335, "bike_id": "3efad522d12cdcf359d27d6dd91b4cda", "fusion_lon": 0.0}, {"rental_uris": {"ios": "https://dc.lft.to/lastmile_qr_scan", "android": "https://dc.lft.to/lastmile_qr_scan"}, "type": "electric_scooter", "name": "0b4ae3e2707d279cb90d09476e3cfd27", "is_reserved": 0, "lon": -77.03848266666667, "is_disabled": 0, "fusion_lat": 0.0, "lat": 38.915521, "bike_id": "0b4ae3e2707d279cb90d09476e3cfd27", "fusion_lon": 0.0}, {"rental_uris": {"ios": "https://dc.lft.to/lastmile_qr_scan", "android": "https://dc.lft.to/lastmile_qr_scan"}, "type": "electric_bike", "name": "29e9bb0c205fdebf193253d36ec96d28", "is_reserved": 0, "lon": -76.95819166666666, "is_disabled": 0, "fusion_lat": 0.0, "lat": 38.9199135, "bike_id": "29e9bb0c205fdebf193253d36ec96d28", "fusion_lon": 0.0}, {"rental_uris": {"ios": "https://dc.lft.to/lastmile_qr_scan", "android": "https://dc.lft.to/lastmile_qr_scan"}, "type": "electric_scooter", "name": "c4349bb3a3ec826612687c3618b90c36", "is_reserved": 0, "lon": -77.04062033333334, "is_disabled": 0, "fusion_lat": 0.0, "lat": 38.91755033333333, "bike_id": "c4349bb3a3ec826612687c3618b90c36", "fusion_lon": 0.0}, {"rental_uris": {"ios": "https://dc.lft.to/lastmile_qr_scan", "android": "https://dc.lft.to/lastmile_qr_scan"}, "type": "electric_scooter", "name": "91a4c047e7ef798eb3439df4901ce5ff", "is_reserved": 0, "lon": -77.03338766666667, "is_disabled": 0, "fusion_lat": 0.0, "lat": 38.887718166666666, "bike_id": "91a4c047e7ef798eb3439df4901ce5ff", "fusion_lon": 0.0}, {"rental_uris": {"ios": "https://dc.lft.to/lastmile_qr_scan", "android": "https://dc.lft.to/lastmile_qr_scan"}, "type": "electric_scooter", "name": "1b1c2cfeaddcf8eb4f1492b16e37c6e4", "is_reserved": 0, "lon": -77.03236, "is_disabled": 0, "fusion_lat": 0.0, "lat": 38.91561566666667, "bike_id": "1b1c2cfeaddcf8eb4f1492b16e37c6e4", "fusion_lon": 0.0}, {"rental_uris": {"ios": "https://dc.lft.to/lastmile_qr_scan", "android": "https://dc.lft.to/lastmile_qr_scan"}, "type": "electric_scooter", "name": "24b55e2ca55470c27d10718ea386f387", "is_reserved": 0, "lon": -77.031732, "is_disabled": 0, "fusion_lat": 0.0, "lat": 38.901186833333334, "bike_id": "24b55e2ca55470c27d10718ea386f387", "fusion_lon": 0.0}, {"rental_uris": {"ios": "https://dc.lft.to/lastmile_qr_scan", "android": "https://dc.lft.to/lastmile_qr_scan"}, "type": "electric_bike", "name": "8b5417b6fdceb426b60ab30d991d42fe", "is_reserved": 0, "lon": -76.9073785, "is_disabled": 0, "fusion_lat": 0.0, "lat": 38.896203166666666, "bike_id": "8b5417b6fdceb426b60ab30d991d42fe", "fusion_lon": 0.0}, {"rental_uris": {"ios": "https://dc.lft.to/lastmile_qr_scan", "android": "https://dc.lft.to/lastmile_qr_scan"}, "type": "electric_scooter", "name": "c08a630e432d00a2daa95e7a9b140160", "is_reserved": 0, "lon": -77.04572466666667, "is_disabled": 0, "fusion_lat": 0.0, "lat": 38.9141285, "bike_id": "c08a630e432d00a2daa95e7a9b140160", "fusion_lon": 0.0}, {"rental_uris": {"ios": "https://dc.lft.to/lastmile_qr_scan", "android": "https://dc.lft.to/lastmile_qr_scan"}, "type": "electric_scooter", "name": "a4e8148b0f6b588ce60af13275a50275", "is_reserved": 0, "lon": -77.01172516666666, "is_disabled": 0, "fusion_lat": 0.0, "lat": 38.90722916666667, "bike_id": "a4e8148b0f6b588ce60af13275a50275", "fusion_lon": 0.0}, {"rental_uris": {"ios": "https://dc.lft.to/lastmile_qr_scan", "android": "https://dc.lft.to/lastmile_qr_scan"}, "type": "electric_bike", "name": "4f234e9523403a3b3ef89772caff4118", "is_reserved": 0, "lon": -76.994951, "is_disabled": 0, "fusion_lat": 0.0, "lat": 38.8621955, "bike_id": "4f234e9523403a3b3ef89772caff4118", "fusion_lon": 0.0}, {"rental_uris": {"ios": "https://dc.lft.to/lastmile_qr_scan", "android": "https://dc.lft.to/lastmile_qr_scan"}, "type": "electric_scooter", "name": "a2b163fa5c8200118392b121776b1231", "is_reserved": 0, "lon": -77.00738766666667, "is_disabled": 0, "fusion_lat": 0.0, "lat": 38.89876866666667, "bike_id": "a2b163fa5c8200118392b121776b1231", "fusion_lon": 0.0}, {"rental_uris": {"ios": "https://dc.lft.to/lastmile_qr_scan", "android": "https://dc.lft.to/lastmile_qr_scan"}, "type": "electric_scooter", "name": "61a0c04c316bf9eab98d80966bdc5964", "is_reserved": 0, "lon": -77.0579505, "is_disabled": 0, "fusion_lat": 0.0, "lat": 38.934748666666664, "bike_id": "61a0c04c316bf9eab98d80966bdc5964", "fusion_lon": 0.0}, {"rental_uris": {"ios": "https://dc.lft.to/lastmile_qr_scan", "android": "https://dc.lft.to/lastmile_qr_scan"}, "type": "electric_scooter", "name": "624476646439e1c91f261a747be0a036", "is_reserved": 0, "lon": -77.02583583333333, "is_disabled": 0, "fusion_lat": 0.0, "lat": 38.8870805, "bike_id": "624476646439e1c91f261a747be0a036", "fusion_lon": 0.0}, {"rental_uris": {"ios": "https://dc.lft.to/lastmile_qr_scan", "android": "https://dc.lft.to/lastmile_qr_scan"}, "type": "electric_scooter", "name": "3a190f489206aaac23551c23ce05d51e", "is_reserved": 0, "lon": -77.04256516666666, "is_disabled": 0, "fusion_lat": 0.0, "lat": 38.922368, "bike_id": "3a190f489206aaac23551c23ce05d51e", "fusion_lon": 0.0}, {"rental_uris": {"ios": "https://dc.lft.to/lastmile_qr_scan", "android": "https://dc.lft.to/lastmile_qr_scan"}, "type": "electric_scooter", "name": "0579220970a037a6c11b03148f62e3c0", "is_reserved": 0, "lon": -77.03218216666667, "is_disabled": 0, "fusion_lat": 0.0, "lat": 38.916137166666665, "bike_id": "0579220970a037a6c11b03148f62e3c0", "fusion_lon": 0.0}, {"rental_uris": {"ios": "https://dc.lft.to/lastmile_qr_scan", "android": "https://dc.lft.to/lastmile_qr_scan"}, "type": "electric_scooter", "name": "087924e3a81e0674f02e63c56478ad2c", "is_reserved": 0, "lon": -77.0289895, "is_disabled": 0, "fusion_lat": 0.0, "lat": 38.91714266666666, "bike_id": "087924e3a81e0674f02e63c56478ad2c", "fusion_lon": 0.0}, {"rental_uris": {"ios": "https://dc.lft.to/lastmile_qr_scan", "android": "https://dc.lft.to/lastmile_qr_scan"}, "type": "electric_scooter", "name": "775ee587b678a74be16bbdadee3fb937", "is_reserved": 0, "lon": -77.0459455, "is_disabled": 0, "fusion_lat": 0.0, "lat": 38.91625616666666, "bike_id": "775ee587b678a74be16bbdadee3fb937", "fusion_lon": 0.0}, {"rental_uris": {"ios": "https://dc.lft.to/lastmile_qr_scan", "android": "https://dc.lft.to/lastmile_qr_scan"}, "type": "electric_scooter", "name": "04ef092d13fa881d07afce7fdcb95797", "is_reserved": 0, "lon": -76.92659966666666, "is_disabled": 0, "fusion_lat": 0.0, "lat": 38.882357666666664, "bike_id": "04ef092d13fa881d07afce7fdcb95797", "fusion_lon": 0.0}, {"rental_uris": {"ios": "https://dc.lft.to/lastmile_qr_scan", "android": "https://dc.lft.to/lastmile_qr_scan"}, "type": "electric_scooter", "name": "646277617690b0d78515abd0b5459c0d", "is_reserved": 0, "lon": -76.99493333333334, "is_disabled": 0, "fusion_lat": 0.0, "lat": 38.86218783333333, "bike_id": "646277617690b0d78515abd0b5459c0d", "fusion_lon": 0.0}, {"rental_uris": {"ios": "https://dc.lft.to/lastmile_qr_scan", "android": "https://dc.lft.to/lastmile_qr_scan"}, "type": "electric_scooter", "name": "c4c563d154c9ccd4a11c090ec2d5f7a1", "is_reserved": 0, "lon": -77.01044733333333, "is_disabled": 0, "fusion_lat": 0.0, "lat": 38.91111866666667, "bike_id": "c4c563d154c9ccd4a11c090ec2d5f7a1", "fusion_lon": 0.0}, {"rental_uris": {"ios": "https://dc.lft.to/lastmile_qr_scan", "android": "https://dc.lft.to/lastmile_qr_scan"}, "type": "electric_scooter", "name": "ecd74a049b93e8ba03672de1b7f0f81c", "is_reserved": 0, "lon": -77.0312, "is_disabled": 0, "fusion_lat": 0.0, "lat": 38.917005333333336, "bike_id": "ecd74a049b93e8ba03672de1b7f0f81c", "fusion_lon": 0.0}, {"rental_uris": {"ios": "https://dc.lft.to/lastmile_qr_scan", "android": "https://dc.lft.to/lastmile_qr_scan"}, "type": "electric_scooter", "name": "7f2981240fd50ccda7575c859680295f", "is_reserved": 0, "lon": -77.03469233333334, "is_disabled": 0, "fusion_lat": 0.0, "lat": 38.905732666666665, "bike_id": "7f2981240fd50ccda7575c859680295f", "fusion_lon": 0.0}, {"rental_uris": {"ios": "https://dc.lft.to/lastmile_qr_scan", "android": "https://dc.lft.to/lastmile_qr_scan"}, "type": "electric_scooter", "name": "d53d8ec38c3f74373f347243845d1515", "is_reserved": 0, "lon": -77.03340233333333, "is_disabled": 0, "fusion_lat": 0.0, "lat": 38.88778416666667, "bike_id": "d53d8ec38c3f74373f347243845d1515", "fusion_lon": 0.0}, {"rental_uris": {"ios": "https://dc.lft.to/lastmile_qr_scan", "android": "https://dc.lft.to/lastmile_qr_scan"}, "type": "electric_scooter", "name": "28570ae74d0090fd347424aa5aff5e89", "is_reserved": 0, "lon": -77.01849416666667, "is_disabled": 0, "fusion_lat": 0.0, "lat": 38.954296166666666, "bike_id": "28570ae74d0090fd347424aa5aff5e89", "fusion_lon": 0.0}, {"rental_uris": {"ios": "https://dc.lft.to/lastmile_qr_scan", "android": "https://dc.lft.to/lastmile_qr_scan"}, "type": "electric_scooter", "name": "267594e9da8ed663af319d80bcf67009", "is_reserved": 0, "lon": -77.01861466666666, "is_disabled": 0, "fusion_lat": 0.0, "lat": 38.8947015, "bike_id": "267594e9da8ed663af319d80bcf67009", "fusion_lon": 0.0}, {"rental_uris": {"ios": "https://dc.lft.to/lastmile_qr_scan", "android": "https://dc.lft.to/lastmile_qr_scan"}, "type": "electric_scooter", "name": "39063c68f521e92dc51255dcb94a56b0", "is_reserved": 0, "lon": -76.98989133333333, "is_disabled": 0, "fusion_lat": 0.0, "lat": 38.917593, "bike_id": "39063c68f521e92dc51255dcb94a56b0", "fusion_lon": 0.0}, {"rental_uris": {"ios": "https://dc.lft.to/lastmile_qr_scan", "android": "https://dc.lft.to/lastmile_qr_scan"}, "type": "electric_scooter", "name": "c84af2ff93ec7493c75ca607453541a4", "is_reserved": 0, "lon": -76.999105, "is_disabled": 0, "fusion_lat": 0.0, "lat": 38.92458166666667, "bike_id": "c84af2ff93ec7493c75ca607453541a4", "fusion_lon": 0.0}, {"rental_uris": {"ios": "https://dc.lft.to/lastmile_qr_scan", "android": "https://dc.lft.to/lastmile_qr_scan"}, "type": "electric_scooter", "name": "2ab7101eca0a2ef42108ea6676d9eb1c", "is_reserved": 0, "lon": -77.05120783333334, "is_disabled": 0, "fusion_lat": 0.0, "lat": 38.90370883333333, "bike_id": "2ab7101eca0a2ef42108ea6676d9eb1c", "fusion_lon": 0.0}, {"rental_uris": {"ios": "https://dc.lft.to/lastmile_qr_scan", "android": "https://dc.lft.to/lastmile_qr_scan"}, "type": "electric_scooter", "name": "5ada7acb711f33484ebd8c50084ad8e9", "is_reserved": 0, "lon": -76.92893283333333, "is_disabled": 0, "fusion_lat": 0.0, "lat": 38.879423, "bike_id": "5ada7acb711f33484ebd8c50084ad8e9", "fusion_lon": 0.0}, {"rental_uris": {"ios": "https://dc.lft.to/lastmile_qr_scan", "android": "https://dc.lft.to/lastmile_qr_scan"}, "type": "electric_scooter", "name": "ec1212a7816098cbce6c75e3b1dce352", "is_reserved": 0, "lon": -77.00988766666667, "is_disabled": 0, "fusion_lat": 0.0, "lat": 38.905618, "bike_id": "ec1212a7816098cbce6c75e3b1dce352", "fusion_lon": 0.0}, {"rental_uris": {"ios": "https://dc.lft.to/lastmile_qr_scan", "android": "https://dc.lft.to/lastmile_qr_scan"}, "type": "electric_scooter", "name": "7e566a8b2d27b2e4c4cc094addc0f034", "is_reserved": 0, "lon": -77.04493066666667, "is_disabled": 0, "fusion_lat": 0.0, "lat": 38.9002315, "bike_id": "7e566a8b2d27b2e4c4cc094addc0f034", "fusion_lon": 0.0}, {"rental_uris": {"ios": "https://dc.lft.to/lastmile_qr_scan", "android": "https://dc.lft.to/lastmile_qr_scan"}, "type": "electric_scooter", "name": "6fe90773a111be0f4281dbb9ce1d0a4f", "is_reserved": 0, "lon": -77.05195783333333, "is_disabled": 0, "fusion_lat": 0.0, "lat": 38.924323, "bike_id": "6fe90773a111be0f4281dbb9ce1d0a4f", "fusion_lon": 0.0}, {"rental_uris": {"ios": "https://dc.lft.to/lastmile_qr_scan", "android": "https://dc.lft.to/lastmile_qr_scan"}, "type": "electric_scooter", "name": "5488c2ca1e985b3e0b97c8fa0365d630", "is_reserved": 0, "lon": -77.030687, "is_disabled": 0, "fusion_lat": 0.0, "lat": 38.93459633333333, "bike_id": "5488c2ca1e985b3e0b97c8fa0365d630", "fusion_lon": 0.0}, {"rental_uris": {"ios": "https://dc.lft.to/lastmile_qr_scan", "android": "https://dc.lft.to/lastmile_qr_scan"}, "type": "electric_scooter", "name": "e09fdb871005d4bfbd5f9c7aee5ef05f", "is_reserved": 0, "lon": -77.07329383333334, "is_disabled": 0, "fusion_lat": 0.0, "lat": 38.91358266666667, "bike_id": "e09fdb871005d4bfbd5f9c7aee5ef05f", "fusion_lon": 0.0}, {"rental_uris": {"ios": "https://dc.lft.to/lastmile_qr_scan", "android": "https://dc.lft.to/lastmile_qr_scan"}, "type": "electric_scooter", "name": "74cc01a3fa34bbfc13f419a1a02c50bf", "is_reserved": 0, "lon": -76.984243, "is_disabled": 0, "fusion_lat": 0.0, "lat": 38.91480033333333, "bike_id": "74cc01a3fa34bbfc13f419a1a02c50bf", "fusion_lon": 0.0}, {"rental_uris": {"ios": "https://dc.lft.to/lastmile_qr_scan", "android": "https://dc.lft.to/lastmile_qr_scan"}, "type": "electric_scooter", "name": "7c886099155c636e183d1f86bfbfb929", "is_reserved": 0, "lon": -77.0318765, "is_disabled": 0, "fusion_lat": 0.0, "lat": 38.901195666666666, "bike_id": "7c886099155c636e183d1f86bfbfb929", "fusion_lon": 0.0}, {"rental_uris": {"ios": "https://dc.lft.to/lastmile_qr_scan", "android": "https://dc.lft.to/lastmile_qr_scan"}, "type": "electric_scooter", "name": "4871b655d8ba92a733136644ec50b444", "is_reserved": 0, "lon": -77.00553666666667, "is_disabled": 0, "fusion_lat": 0.0, "lat": 38.8747075, "bike_id": "4871b655d8ba92a733136644ec50b444", "fusion_lon": 0.0}, {"rental_uris": {"ios": "https://dc.lft.to/lastmile_qr_scan", "android": "https://dc.lft.to/lastmile_qr_scan"}, "type": "electric_scooter", "name": "44257e0f29d352ec2b0a7f14f8588e3e", "is_reserved": 0, "lon": -77.02221516666667, "is_disabled": 0, "fusion_lat": 0.0, "lat": 38.88725383333333, "bike_id": "44257e0f29d352ec2b0a7f14f8588e3e", "fusion_lon": 0.0}, {"rental_uris": {"ios": "https://dc.lft.to/lastmile_qr_scan", "android": "https://dc.lft.to/lastmile_qr_scan"}, "type": "electric_scooter", "name": "3b20b7ef3e57332c5b851a5bc87a277a", "is_reserved": 0, "lon": -76.99609466666666, "is_disabled": 0, "fusion_lat": 0.0, "lat": 38.9091365, "bike_id": "3b20b7ef3e57332c5b851a5bc87a277a", "fusion_lon": 0.0}, {"rental_uris": {"ios": "https://dc.lft.to/lastmile_qr_scan", "android": "https://dc.lft.to/lastmile_qr_scan"}, "type": "electric_scooter", "name": "988826b0b92ceaf2655e59fcf10568e8", "is_reserved": 0, "lon": -77.02752266666667, "is_disabled": 0, "fusion_lat": 0.0, "lat": 38.92407733333334, "bike_id": "988826b0b92ceaf2655e59fcf10568e8", "fusion_lon": 0.0}, {"rental_uris": {"ios": "https://dc.lft.to/lastmile_qr_scan", "android": "https://dc.lft.to/lastmile_qr_scan"}, "type": "electric_scooter", "name": "a85f0faf04686c6c6f7bc33aa9b5ed5d", "is_reserved": 0, "lon": -77.05502783333333, "is_disabled": 0, "fusion_lat": 0.0, "lat": 38.92986233333333, "bike_id": "a85f0faf04686c6c6f7bc33aa9b5ed5d", "fusion_lon": 0.0}, {"rental_uris": {"ios": "https://dc.lft.to/lastmile_qr_scan", "android": "https://dc.lft.to/lastmile_qr_scan"}, "type": "electric_scooter", "name": "1023741a9965911fea4edbef94837470", "is_reserved": 0, "lon": -76.9715, "is_disabled": 0, "fusion_lat": 0.0, "lat": 38.91623, "bike_id": "1023741a9965911fea4edbef94837470", "fusion_lon": 0.0}, {"rental_uris": {"ios": "https://dc.lft.to/lastmile_qr_scan", "android": "https://dc.lft.to/lastmile_qr_scan"}, "type": "electric_scooter", "name": "594bc8abfb3907e97bb255be6d34c3e2", "is_reserved": 0, "lon": -77.04224533333333, "is_disabled": 0, "fusion_lat": 0.0, "lat": 38.9074275, "bike_id": "594bc8abfb3907e97bb255be6d34c3e2", "fusion_lon": 0.0}, {"rental_uris": {"ios": "https://dc.lft.to/lastmile_qr_scan", "android": "https://dc.lft.to/lastmile_qr_scan"}, "type": "electric_scooter", "name": "1731907f4261fe81eb7b24b0f24cb3ab", "is_reserved": 0, "lon": -77.01260683333334, "is_disabled": 0, "fusion_lat": 0.0, "lat": 38.897188166666666, "bike_id": "1731907f4261fe81eb7b24b0f24cb3ab", "fusion_lon": 0.0}, {"rental_uris": {"ios": "https://dc.lft.to/lastmile_qr_scan", "android": "https://dc.lft.to/lastmile_qr_scan"}, "type": "electric_scooter", "name": "861cb8549179920bb8d9fb0b18d701b9", "is_reserved": 0, "lon": -77.02981816666667, "is_disabled": 0, "fusion_lat": 0.0, "lat": 38.91558783333333, "bike_id": "861cb8549179920bb8d9fb0b18d701b9", "fusion_lon": 0.0}, {"rental_uris": {"ios": "https://dc.lft.to/lastmile_qr_scan", "android": "https://dc.lft.to/lastmile_qr_scan"}, "type": "electric_scooter", "name": "cfa97a3e2c8b1f40c083dbded86e9f10", "is_reserved": 0, "lon": -77.04995916666667, "is_disabled": 0, "fusion_lat": 0.0, "lat": 38.90789066666667, "bike_id": "cfa97a3e2c8b1f40c083dbded86e9f10", "fusion_lon": 0.0}, {"rental_uris": {"ios": "https://dc.lft.to/lastmile_qr_scan", "android": "https://dc.lft.to/lastmile_qr_scan"}, "type": "electric_scooter", "name": "0900c0747dbf65b6a30cb42ebcafbc8e", "is_reserved": 0, "lon": -77.02513683333333, "is_disabled": 0, "fusion_lat": 0.0, "lat": 38.91966383333333, "bike_id": "0900c0747dbf65b6a30cb42ebcafbc8e", "fusion_lon": 0.0}, {"rental_uris": {"ios": "https://dc.lft.to/lastmile_qr_scan", "android": "https://dc.lft.to/lastmile_qr_scan"}, "type": "electric_scooter", "name": "5ae50f98ab262d7fc81e8ee8ccc515b4", "is_reserved": 0, "lon": -77.0395935, "is_disabled": 0, "fusion_lat": 0.0, "lat": 38.89239766666667, "bike_id": "5ae50f98ab262d7fc81e8ee8ccc515b4", "fusion_lon": 0.0}, {"rental_uris": {"ios": "https://dc.lft.to/lastmile_qr_scan", "android": "https://dc.lft.to/lastmile_qr_scan"}, "type": "electric_bike", "name": "1718c83ef80915bc10f910da740c4aa6", "is_reserved": 0, "lon": -76.96266416666667, "is_disabled": 0, "fusion_lat": 0.0, "lat": 38.96782533333333, "bike_id": "1718c83ef80915bc10f910da740c4aa6", "fusion_lon": 0.0}, {"rental_uris": {"ios": "https://dc.lft.to/lastmile_qr_scan", "android": "https://dc.lft.to/lastmile_qr_scan"}, "type": "electric_scooter", "name": "d48c7c0426314e99ec04c63561c646c3", "is_reserved": 0, "lon": -77.03207916666666, "is_disabled": 0, "fusion_lat": 0.0, "lat": 38.91432433333333, "bike_id": "d48c7c0426314e99ec04c63561c646c3", "fusion_lon": 0.0}, {"rental_uris": {"ios": "https://dc.lft.to/lastmile_qr_scan", "android": "https://dc.lft.to/lastmile_qr_scan"}, "type": "electric_scooter", "name": "0c1a4ffacb2d70c0425d02d411a5f2e6", "is_reserved": 0, "lon": -77.04495816666666, "is_disabled": 0, "fusion_lat": 0.0, "lat": 38.91935933333333, "bike_id": "0c1a4ffacb2d70c0425d02d411a5f2e6", "fusion_lon": 0.0}, {"rental_uris": {"ios": "https://dc.lft.to/lastmile_qr_scan", "android": "https://dc.lft.to/lastmile_qr_scan"}, "type": "electric_bike", "name": "3fa19501b3c943729bf1dbd261e38769", "is_reserved": 0, "lon": -76.936682, "is_disabled": 0, "fusion_lat": 0.0, "lat": 38.89456966666667, "bike_id": "3fa19501b3c943729bf1dbd261e38769", "fusion_lon": 0.0}, {"rental_uris": {"ios": "https://dc.lft.to/lastmile_qr_scan", "android": "https://dc.lft.to/lastmile_qr_scan"}, "type": "electric_bike", "name": "5890ae31bc424030047b64d6bf576311", "is_reserved": 0, "lon": -76.98683616666666, "is_disabled": 0, "fusion_lat": 0.0, "lat": 38.944776833333336, "bike_id": "5890ae31bc424030047b64d6bf576311", "fusion_lon": 0.0}, {"rental_uris": {"ios": "https://dc.lft.to/lastmile_qr_scan", "android": "https://dc.lft.to/lastmile_qr_scan"}, "type": "electric_scooter", "name": "8f8d25e2d630481fdb7839b77d833737", "is_reserved": 0, "lon": -76.99627566666666, "is_disabled": 0, "fusion_lat": 0.0, "lat": 38.88969083333333, "bike_id": "8f8d25e2d630481fdb7839b77d833737", "fusion_lon": 0.0}, {"rental_uris": {"ios": "https://dc.lft.to/lastmile_qr_scan", "android": "https://dc.lft.to/lastmile_qr_scan"}, "type": "electric_scooter", "name": "aaed54ab23475d5e7d345849601d6692", "is_reserved": 0, "lon": -76.98507333333333, "is_disabled": 0, "fusion_lat": 0.0, "lat": 38.87994833333333, "bike_id": "aaed54ab23475d5e7d345849601d6692", "fusion_lon": 0.0}, {"rental_uris": {"ios": "https://dc.lft.to/lastmile_qr_scan", "android": "https://dc.lft.to/lastmile_qr_scan"}, "type": "electric_scooter", "name": "65ff8567cbf339cb2bac16b4e9b32969", "is_reserved": 0, "lon": -77.0257555, "is_disabled": 0, "fusion_lat": 0.0, "lat": 38.95821216666667, "bike_id": "65ff8567cbf339cb2bac16b4e9b32969", "fusion_lon": 0.0}, {"rental_uris": {"ios": "https://dc.lft.to/lastmile_qr_scan", "android": "https://dc.lft.to/lastmile_qr_scan"}, "type": "electric_scooter", "name": "35ea742a16e1b2c74c5a65276c51f93f", "is_reserved": 0, "lon": -77.0121155, "is_disabled": 0, "fusion_lat": 0.0, "lat": 38.92121616666667, "bike_id": "35ea742a16e1b2c74c5a65276c51f93f", "fusion_lon": 0.0}, {"rental_uris": {"ios": "https://dc.lft.to/lastmile_qr_scan", "android": "https://dc.lft.to/lastmile_qr_scan"}, "type": "electric_scooter", "name": "47c028327da31d9252455f3b82b4b831", "is_reserved": 0, "lon": -77.04676316666666, "is_disabled": 0, "fusion_lat": 0.0, "lat": 38.892299, "bike_id": "47c028327da31d9252455f3b82b4b831", "fusion_lon": 0.0}, {"rental_uris": {"ios": "https://dc.lft.to/lastmile_qr_scan", "android": "https://dc.lft.to/lastmile_qr_scan"}, "type": "electric_scooter", "name": "961476027ae8be21d7c9de668d15aea3", "is_reserved": 0, "lon": -77.0120895, "is_disabled": 0, "fusion_lat": 0.0, "lat": 38.91196633333333, "bike_id": "961476027ae8be21d7c9de668d15aea3", "fusion_lon": 0.0}, {"rental_uris": {"ios": "https://dc.lft.to/lastmile_qr_scan", "android": "https://dc.lft.to/lastmile_qr_scan"}, "type": "electric_scooter", "name": "8a75ebd02dd71cf9acb5fc7b6577ba33", "is_reserved": 0, "lon": -77.02453883333334, "is_disabled": 0, "fusion_lat": 0.0, "lat": 38.937681833333336, "bike_id": "8a75ebd02dd71cf9acb5fc7b6577ba33", "fusion_lon": 0.0}, {"rental_uris": {"ios": "https://dc.lft.to/lastmile_qr_scan", "android": "https://dc.lft.to/lastmile_qr_scan"}, "type": "electric_scooter", "name": "b1fbe071e3b160ac5eccae9fa84014bc", "is_reserved": 0, "lon": -76.9855755, "is_disabled": 0, "fusion_lat": 0.0, "lat": 38.8899945, "bike_id": "b1fbe071e3b160ac5eccae9fa84014bc", "fusion_lon": 0.0}, {"rental_uris": {"ios": "https://dc.lft.to/lastmile_qr_scan", "android": "https://dc.lft.to/lastmile_qr_scan"}, "type": "electric_scooter", "name": "da5d4f86a144bf543d734c8b9f5836f2", "is_reserved": 0, "lon": -77.03299866666667, "is_disabled": 0, "fusion_lat": 0.0, "lat": 38.90384566666667, "bike_id": "da5d4f86a144bf543d734c8b9f5836f2", "fusion_lon": 0.0}, {"rental_uris": {"ios": "https://dc.lft.to/lastmile_qr_scan", "android": "https://dc.lft.to/lastmile_qr_scan"}, "type": "electric_scooter", "name": "e6f4b2c051e02b3c13b3ced5e88aa45e", "is_reserved": 0, "lon": -76.97665833333333, "is_disabled": 0, "fusion_lat": 0.0, "lat": 38.92635283333333, "bike_id": "e6f4b2c051e02b3c13b3ced5e88aa45e", "fusion_lon": 0.0}, {"rental_uris": {"ios": "https://dc.lft.to/lastmile_qr_scan", "android": "https://dc.lft.to/lastmile_qr_scan"}, "type": "electric_scooter", "name": "fcc71801ef984bc543dcf29b783b138d", "is_reserved": 0, "lon": -77.03225533333334, "is_disabled": 0, "fusion_lat": 0.0, "lat": 38.89627333333333, "bike_id": "fcc71801ef984bc543dcf29b783b138d", "fusion_lon": 0.0}, {"rental_uris": {"ios": "https://dc.lft.to/lastmile_qr_scan", "android": "https://dc.lft.to/lastmile_qr_scan"}, "type": "electric_scooter", "name": "a4e38176eaa2159465ed07e7953c75b6", "is_reserved": 0, "lon": -77.0374955, "is_disabled": 0, "fusion_lat": 0.0, "lat": 38.92917216666667, "bike_id": "a4e38176eaa2159465ed07e7953c75b6", "fusion_lon": 0.0}, {"rental_uris": {"ios": "https://dc.lft.to/lastmile_qr_scan", "android": "https://dc.lft.to/lastmile_qr_scan"}, "type": "electric_scooter", "name": "93b7ff4c4c2accfb9dea6d5fc8141049", "is_reserved": 0, "lon": -77.04489816666667, "is_disabled": 0, "fusion_lat": 0.0, "lat": 38.910879333333334, "bike_id": "93b7ff4c4c2accfb9dea6d5fc8141049", "fusion_lon": 0.0}, {"rental_uris": {"ios": "https://dc.lft.to/lastmile_qr_scan", "android": "https://dc.lft.to/lastmile_qr_scan"}, "type": "electric_scooter", "name": "b7534e3f483667109644b440804e6d6f", "is_reserved": 0, "lon": -77.033858, "is_disabled": 0, "fusion_lat": 0.0, "lat": 38.886583333333334, "bike_id": "b7534e3f483667109644b440804e6d6f", "fusion_lon": 0.0}, {"rental_uris": {"ios": "https://dc.lft.to/lastmile_qr_scan", "android": "https://dc.lft.to/lastmile_qr_scan"}, "type": "electric_scooter", "name": "17a0c2f5a74424be784185efe4c54321", "is_reserved": 0, "lon": -77.0197825, "is_disabled": 0, "fusion_lat": 0.0, "lat": 38.89246466666667, "bike_id": "17a0c2f5a74424be784185efe4c54321", "fusion_lon": 0.0}, {"rental_uris": {"ios": "https://dc.lft.to/lastmile_qr_scan", "android": "https://dc.lft.to/lastmile_qr_scan"}, "type": "electric_scooter", "name": "17dc90e8af2e33e3436fd47904d9f878", "is_reserved": 0, "lon": -77.0633195, "is_disabled": 0, "fusion_lat": 0.0, "lat": 38.906931166666666, "bike_id": "17dc90e8af2e33e3436fd47904d9f878", "fusion_lon": 0.0}, {"rental_uris": {"ios": "https://dc.lft.to/lastmile_qr_scan", "android": "https://dc.lft.to/lastmile_qr_scan"}, "type": "electric_scooter", "name": "2866f55b9dd7ce7c64b09471119c3e80", "is_reserved": 0, "lon": -77.03827016666666, "is_disabled": 0, "fusion_lat": 0.0, "lat": 38.903849, "bike_id": "2866f55b9dd7ce7c64b09471119c3e80", "fusion_lon": 0.0}, {"rental_uris": {"ios": "https://dc.lft.to/lastmile_qr_scan", "android": "https://dc.lft.to/lastmile_qr_scan"}, "type": "electric_bike", "name": "5988836920008e29c37f491af91f49bd", "is_reserved": 0, "lon": -77.11412183333333, "is_disabled": 0, "fusion_lat": 0.0, "lat": 38.873269666666666, "bike_id": "5988836920008e29c37f491af91f49bd", "fusion_lon": 0.0}, {"rental_uris": {"ios": "https://dc.lft.to/lastmile_qr_scan", "android": "https://dc.lft.to/lastmile_qr_scan"}, "type": "electric_scooter", "name": "e18e091ac2e2876771c2afe52416fffe", "is_reserved": 0, "lon": -76.98448316666666, "is_disabled": 0, "fusion_lat": 0.0, "lat": 38.914688, "bike_id": "e18e091ac2e2876771c2afe52416fffe", "fusion_lon": 0.0}, {"rental_uris": {"ios": "https://dc.lft.to/lastmile_qr_scan", "android": "https://dc.lft.to/lastmile_qr_scan"}, "type": "electric_scooter", "name": "e991b543b96fdae9cb4c97fb49db5136", "is_reserved": 0, "lon": -77.06247333333333, "is_disabled": 0, "fusion_lat": 0.0, "lat": 38.9052335, "bike_id": "e991b543b96fdae9cb4c97fb49db5136", "fusion_lon": 0.0}, {"rental_uris": {"ios": "https://dc.lft.to/lastmile_qr_scan", "android": "https://dc.lft.to/lastmile_qr_scan"}, "type": "electric_scooter", "name": "053fdd52025372bb6c861d644580518a", "is_reserved": 0, "lon": -77.04407266666666, "is_disabled": 0, "fusion_lat": 0.0, "lat": 38.91968633333333, "bike_id": "053fdd52025372bb6c861d644580518a", "fusion_lon": 0.0}, {"rental_uris": {"ios": "https://dc.lft.to/lastmile_qr_scan", "android": "https://dc.lft.to/lastmile_qr_scan"}, "type": "electric_scooter", "name": "bc26fc3b4442306d53a9b80ff4eb448e", "is_reserved": 0, "lon": -77.03497883333333, "is_disabled": 0, "fusion_lat": 0.0, "lat": 38.92878616666667, "bike_id": "bc26fc3b4442306d53a9b80ff4eb448e", "fusion_lon": 0.0}, {"rental_uris": {"ios": "https://dc.lft.to/lastmile_qr_scan", "android": "https://dc.lft.to/lastmile_qr_scan"}, "type": "electric_scooter", "name": "a75381232979daf79a0cb2ce27cbacee", "is_reserved": 0, "lon": -76.99558016666667, "is_disabled": 0, "fusion_lat": 0.0, "lat": 38.92675366666667, "bike_id": "a75381232979daf79a0cb2ce27cbacee", "fusion_lon": 0.0}, {"rental_uris": {"ios": "https://dc.lft.to/lastmile_qr_scan", "android": "https://dc.lft.to/lastmile_qr_scan"}, "type": "electric_scooter", "name": "fc37cdd78b0a0c108d215d69f14b7a1e", "is_reserved": 0, "lon": -77.03152383333334, "is_disabled": 0, "fusion_lat": 0.0, "lat": 38.91696833333334, "bike_id": "fc37cdd78b0a0c108d215d69f14b7a1e", "fusion_lon": 0.0}, {"rental_uris": {"ios": "https://dc.lft.to/lastmile_qr_scan", "android": "https://dc.lft.to/lastmile_qr_scan"}, "type": "electric_scooter", "name": "d5eb393874617f811d7fc54a06d980a9", "is_reserved": 0, "lon": -77.03210366666667, "is_disabled": 0, "fusion_lat": 0.0, "lat": 38.8923715, "bike_id": "d5eb393874617f811d7fc54a06d980a9", "fusion_lon": 0.0}, {"rental_uris": {"ios": "https://dc.lft.to/lastmile_qr_scan", "android": "https://dc.lft.to/lastmile_qr_scan"}, "type": "electric_scooter", "name": "db67941fce45fafcc4eb61ff84ba8c05", "is_reserved": 0, "lon": -77.05610883333334, "is_disabled": 0, "fusion_lat": 0.0, "lat": 38.92425816666667, "bike_id": "db67941fce45fafcc4eb61ff84ba8c05", "fusion_lon": 0.0}, {"rental_uris": {"ios": "https://dc.lft.to/lastmile_qr_scan", "android": "https://dc.lft.to/lastmile_qr_scan"}, "type": "electric_scooter", "name": "1d2f6879b86481d770d8a52b63975e40", "is_reserved": 0, "lon": -77.05197616666666, "is_disabled": 0, "fusion_lat": 0.0, "lat": 38.902588333333334, "bike_id": "1d2f6879b86481d770d8a52b63975e40", "fusion_lon": 0.0}, {"rental_uris": {"ios": "https://dc.lft.to/lastmile_qr_scan", "android": "https://dc.lft.to/lastmile_qr_scan"}, "type": "electric_scooter", "name": "b84be64ef0fd4d55d02f24b26ae6af2a", "is_reserved": 0, "lon": -76.99484483333333, "is_disabled": 0, "fusion_lat": 0.0, "lat": 38.862205333333335, "bike_id": "b84be64ef0fd4d55d02f24b26ae6af2a", "fusion_lon": 0.0}, {"rental_uris": {"ios": "https://dc.lft.to/lastmile_qr_scan", "android": "https://dc.lft.to/lastmile_qr_scan"}, "type": "electric_scooter", "name": "fbdc1b6267e4abaeb3765e5022ec3118", "is_reserved": 0, "lon": -77.04191766666666, "is_disabled": 0, "fusion_lat": 0.0, "lat": 38.9221305, "bike_id": "fbdc1b6267e4abaeb3765e5022ec3118", "fusion_lon": 0.0}, {"rental_uris": {"ios": "https://dc.lft.to/lastmile_qr_scan", "android": "https://dc.lft.to/lastmile_qr_scan"}, "type": "electric_scooter", "name": "af9491c7ed5f4408dd2d2156bc7f3731", "is_reserved": 0, "lon": -77.04045566666667, "is_disabled": 0, "fusion_lat": 0.0, "lat": 38.918701666666664, "bike_id": "af9491c7ed5f4408dd2d2156bc7f3731", "fusion_lon": 0.0}, {"rental_uris": {"ios": "https://dc.lft.to/lastmile_qr_scan", "android": "https://dc.lft.to/lastmile_qr_scan"}, "type": "electric_scooter", "name": "99cfc1c2dcd3fa4813bb93f4a866a5f7", "is_reserved": 0, "lon": -77.05870933333334, "is_disabled": 0, "fusion_lat": 0.0, "lat": 38.9423895, "bike_id": "99cfc1c2dcd3fa4813bb93f4a866a5f7", "fusion_lon": 0.0}, {"rental_uris": {"ios": "https://dc.lft.to/lastmile_qr_scan", "android": "https://dc.lft.to/lastmile_qr_scan"}, "type": "electric_scooter", "name": "654143f9586b5b2a48031b0050356d21", "is_reserved": 0, "lon": -77.05124966666666, "is_disabled": 0, "fusion_lat": 0.0, "lat": 38.92346833333333, "bike_id": "654143f9586b5b2a48031b0050356d21", "fusion_lon": 0.0}, {"rental_uris": {"ios": "https://dc.lft.to/lastmile_qr_scan", "android": "https://dc.lft.to/lastmile_qr_scan"}, "type": "electric_scooter", "name": "b6bb2c70755c1b5f1a9e49fa10e9cd10", "is_reserved": 0, "lon": -76.92923266666666, "is_disabled": 0, "fusion_lat": 0.0, "lat": 38.88662083333333, "bike_id": "b6bb2c70755c1b5f1a9e49fa10e9cd10", "fusion_lon": 0.0}, {"rental_uris": {"ios": "https://dc.lft.to/lastmile_qr_scan", "android": "https://dc.lft.to/lastmile_qr_scan"}, "type": "electric_scooter", "name": "a84fd7a7d1eefe7e5c476bd6254ca63c", "is_reserved": 0, "lon": -76.98732833333334, "is_disabled": 0, "fusion_lat": 0.0, "lat": 38.842250166666666, "bike_id": "a84fd7a7d1eefe7e5c476bd6254ca63c", "fusion_lon": 0.0}, {"rental_uris": {"ios": "https://dc.lft.to/lastmile_qr_scan", "android": "https://dc.lft.to/lastmile_qr_scan"}, "type": "electric_scooter", "name": "ec7278a90d4f4c497b671940f933f9f5", "is_reserved": 0, "lon": -77.036541, "is_disabled": 0, "fusion_lat": 0.0, "lat": 38.95599766666667, "bike_id": "ec7278a90d4f4c497b671940f933f9f5", "fusion_lon": 0.0}, {"rental_uris": {"ios": "https://dc.lft.to/lastmile_qr_scan", "android": "https://dc.lft.to/lastmile_qr_scan"}, "type": "electric_scooter", "name": "414a2cac800f0ed13d30309ce1e27993", "is_reserved": 0, "lon": -77.02217316666666, "is_disabled": 0, "fusion_lat": 0.0, "lat": 38.924702833333335, "bike_id": "414a2cac800f0ed13d30309ce1e27993", "fusion_lon": 0.0}, {"rental_uris": {"ios": "https://dc.lft.to/lastmile_qr_scan", "android": "https://dc.lft.to/lastmile_qr_scan"}, "type": "electric_scooter", "name": "033277d895d3c1413cf533f5161e2032", "is_reserved": 0, "lon": -77.02578216666667, "is_disabled": 0, "fusion_lat": 0.0, "lat": 38.88706533333333, "bike_id": "033277d895d3c1413cf533f5161e2032", "fusion_lon": 0.0}, {"rental_uris": {"ios": "https://dc.lft.to/lastmile_qr_scan", "android": "https://dc.lft.to/lastmile_qr_scan"}, "type": "electric_scooter", "name": "a36be315986285c0de5e57154c480e7d", "is_reserved": 0, "lon": -77.02121266666667, "is_disabled": 0, "fusion_lat": 0.0, "lat": 38.9247405, "bike_id": "a36be315986285c0de5e57154c480e7d", "fusion_lon": 0.0}, {"rental_uris": {"ios": "https://dc.lft.to/lastmile_qr_scan", "android": "https://dc.lft.to/lastmile_qr_scan"}, "type": "electric_scooter", "name": "16febe55a4be79a9ffcb6c2b223dd2b3", "is_reserved": 0, "lon": -77.03264316666667, "is_disabled": 0, "fusion_lat": 0.0, "lat": 38.919838666666664, "bike_id": "16febe55a4be79a9ffcb6c2b223dd2b3", "fusion_lon": 0.0}, {"rental_uris": {"ios": "https://dc.lft.to/lastmile_qr_scan", "android": "https://dc.lft.to/lastmile_qr_scan"}, "type": "electric_scooter", "name": "292dc5eb970d5dd49e6475e2e515c8c5", "is_reserved": 0, "lon": -77.01948266666666, "is_disabled": 0, "fusion_lat": 0.0, "lat": 38.924247666666666, "bike_id": "292dc5eb970d5dd49e6475e2e515c8c5", "fusion_lon": 0.0}, {"rental_uris": {"ios": "https://dc.lft.to/lastmile_qr_scan", "android": "https://dc.lft.to/lastmile_qr_scan"}, "type": "electric_scooter", "name": "7f8e28f8d3c141932a6d459d251484b1", "is_reserved": 0, "lon": -77.0463655, "is_disabled": 0, "fusion_lat": 0.0, "lat": 38.919766333333335, "bike_id": "7f8e28f8d3c141932a6d459d251484b1", "fusion_lon": 0.0}, {"rental_uris": {"ios": "https://dc.lft.to/lastmile_qr_scan", "android": "https://dc.lft.to/lastmile_qr_scan"}, "type": "electric_scooter", "name": "520bc9843586af62764c9c59fec47ca1", "is_reserved": 0, "lon": -77.01933033333333, "is_disabled": 0, "fusion_lat": 0.0, "lat": 38.928789333333334, "bike_id": "520bc9843586af62764c9c59fec47ca1", "fusion_lon": 0.0}, {"rental_uris": {"ios": "https://dc.lft.to/lastmile_qr_scan", "android": "https://dc.lft.to/lastmile_qr_scan"}, "type": "electric_scooter", "name": "73f3d4a2c7bea466a0065fc335d02a03", "is_reserved": 0, "lon": -77.04048816666666, "is_disabled": 0, "fusion_lat": 0.0, "lat": 38.9041015, "bike_id": "73f3d4a2c7bea466a0065fc335d02a03", "fusion_lon": 0.0}, {"rental_uris": {"ios": "https://dc.lft.to/lastmile_qr_scan", "android": "https://dc.lft.to/lastmile_qr_scan"}, "type": "electric_scooter", "name": "22d6ff9928770a360c8764288b09b8e0", "is_reserved": 0, "lon": -77.00928566666667, "is_disabled": 0, "fusion_lat": 0.0, "lat": 38.881893166666664, "bike_id": "22d6ff9928770a360c8764288b09b8e0", "fusion_lon": 0.0}, {"rental_uris": {"ios": "https://dc.lft.to/lastmile_qr_scan", "android": "https://dc.lft.to/lastmile_qr_scan"}, "type": "electric_scooter", "name": "db058ff7e11fec1a2c3492da5ab55138", "is_reserved": 0, "lon": -77.02101033333334, "is_disabled": 0, "fusion_lat": 0.0, "lat": 38.88183633333333, "bike_id": "db058ff7e11fec1a2c3492da5ab55138", "fusion_lon": 0.0}, {"rental_uris": {"ios": "https://dc.lft.to/lastmile_qr_scan", "android": "https://dc.lft.to/lastmile_qr_scan"}, "type": "electric_scooter", "name": "dc9f2097b0debf8cb889ab924081a8d4", "is_reserved": 0, "lon": -77.012199, "is_disabled": 0, "fusion_lat": 0.0, "lat": 38.920378666666664, "bike_id": "dc9f2097b0debf8cb889ab924081a8d4", "fusion_lon": 0.0}, {"rental_uris": {"ios": "https://dc.lft.to/lastmile_qr_scan", "android": "https://dc.lft.to/lastmile_qr_scan"}, "type": "electric_scooter", "name": "00921f577c777dee18ace1d48a4737c8", "is_reserved": 0, "lon": -77.07454216666666, "is_disabled": 0, "fusion_lat": 0.0, "lat": 38.93781833333333, "bike_id": "00921f577c777dee18ace1d48a4737c8", "fusion_lon": 0.0}, {"rental_uris": {"ios": "https://dc.lft.to/lastmile_qr_scan", "android": "https://dc.lft.to/lastmile_qr_scan"}, "type": "electric_scooter", "name": "5669bd61200a80fbb0810ac73d3a7abb", "is_reserved": 0, "lon": -77.0217905, "is_disabled": 0, "fusion_lat": 0.0, "lat": 38.89477733333333, "bike_id": "5669bd61200a80fbb0810ac73d3a7abb", "fusion_lon": 0.0}, {"rental_uris": {"ios": "https://dc.lft.to/lastmile_qr_scan", "android": "https://dc.lft.to/lastmile_qr_scan"}, "type": "electric_scooter", "name": "2c9768cf7910bcc27993a13166ff9e1f", "is_reserved": 0, "lon": -77.04483383333333, "is_disabled": 0, "fusion_lat": 0.0, "lat": 38.9107675, "bike_id": "2c9768cf7910bcc27993a13166ff9e1f", "fusion_lon": 0.0}, {"rental_uris": {"ios": "https://dc.lft.to/lastmile_qr_scan", "android": "https://dc.lft.to/lastmile_qr_scan"}, "type": "electric_scooter", "name": "25f77ddac073ecda1649a4971aacfdbb", "is_reserved": 0, "lon": -76.94907416666666, "is_disabled": 0, "fusion_lat": 0.0, "lat": 38.89538016666667, "bike_id": "25f77ddac073ecda1649a4971aacfdbb", "fusion_lon": 0.0}, {"rental_uris": {"ios": "https://dc.lft.to/lastmile_qr_scan", "android": "https://dc.lft.to/lastmile_qr_scan"}, "type": "electric_scooter", "name": "b2a78b06be5d18c62d0b5a8f68b26507", "is_reserved": 0, "lon": -77.04815966666666, "is_disabled": 0, "fusion_lat": 0.0, "lat": 38.8972085, "bike_id": "b2a78b06be5d18c62d0b5a8f68b26507", "fusion_lon": 0.0}, {"rental_uris": {"ios": "https://dc.lft.to/lastmile_qr_scan", "android": "https://dc.lft.to/lastmile_qr_scan"}, "type": "electric_scooter", "name": "e58fe0913c6594dfd02f2131fb944447", "is_reserved": 0, "lon": -76.996168, "is_disabled": 0, "fusion_lat": 0.0, "lat": 38.88756083333333, "bike_id": "e58fe0913c6594dfd02f2131fb944447", "fusion_lon": 0.0}, {"rental_uris": {"ios": "https://dc.lft.to/lastmile_qr_scan", "android": "https://dc.lft.to/lastmile_qr_scan"}, "type": "electric_scooter", "name": "082f9a6ae46cce3f702b6fd90a1fc9d2", "is_reserved": 0, "lon": -77.0334595, "is_disabled": 0, "fusion_lat": 0.0, "lat": 38.91401, "bike_id": "082f9a6ae46cce3f702b6fd90a1fc9d2", "fusion_lon": 0.0}, {"rental_uris": {"ios": "https://dc.lft.to/lastmile_qr_scan", "android": "https://dc.lft.to/lastmile_qr_scan"}, "type": "electric_scooter", "name": "af9237c99a63e6d31f8e3cd2dbd8fa11", "is_reserved": 0, "lon": -77.0122285, "is_disabled": 0, "fusion_lat": 0.0, "lat": 38.916914, "bike_id": "af9237c99a63e6d31f8e3cd2dbd8fa11", "fusion_lon": 0.0}, {"rental_uris": {"ios": "https://dc.lft.to/lastmile_qr_scan", "android": "https://dc.lft.to/lastmile_qr_scan"}, "type": "electric_scooter", "name": "545d4cfc253ba62849cd617d9352d609", "is_reserved": 0, "lon": -77.0441375, "is_disabled": 0, "fusion_lat": 0.0, "lat": 38.90107, "bike_id": "545d4cfc253ba62849cd617d9352d609", "fusion_lon": 0.0}, {"rental_uris": {"ios": "https://dc.lft.to/lastmile_qr_scan", "android": "https://dc.lft.to/lastmile_qr_scan"}, "type": "electric_scooter", "name": "1035d965239d90a0224cc37169ab133e", "is_reserved": 0, "lon": -77.03349, "is_disabled": 0, "fusion_lat": 0.0, "lat": 38.954784, "bike_id": "1035d965239d90a0224cc37169ab133e", "fusion_lon": 0.0}, {"rental_uris": {"ios": "https://dc.lft.to/lastmile_qr_scan", "android": "https://dc.lft.to/lastmile_qr_scan"}, "type": "electric_bike", "name": "0716996a23cb83e126448f13f73716dd", "is_reserved": 0, "lon": -77.0108645, "is_disabled": 0, "fusion_lat": 0.0, "lat": 38.871559500000004, "bike_id": "0716996a23cb83e126448f13f73716dd", "fusion_lon": 0.0}, {"rental_uris": {"ios": "https://dc.lft.to/lastmile_qr_scan", "android": "https://dc.lft.to/lastmile_qr_scan"}, "type": "electric_scooter", "name": "14d78f89c79aba980436465dbbd57147", "is_reserved": 0, "lon": -77.03102933333334, "is_disabled": 0, "fusion_lat": 0.0, "lat": 38.9248215, "bike_id": "14d78f89c79aba980436465dbbd57147", "fusion_lon": 0.0}, {"rental_uris": {"ios": "https://dc.lft.to/lastmile_qr_scan", "android": "https://dc.lft.to/lastmile_qr_scan"}, "type": "electric_scooter", "name": "4b5d51f720d4da5f8754e2ed38be3a30", "is_reserved": 0, "lon": -77.0447185, "is_disabled": 0, "fusion_lat": 0.0, "lat": 38.9127035, "bike_id": "4b5d51f720d4da5f8754e2ed38be3a30", "fusion_lon": 0.0}, {"rental_uris": {"ios": "https://dc.lft.to/lastmile_qr_scan", "android": "https://dc.lft.to/lastmile_qr_scan"}, "type": "electric_scooter", "name": "5fa33877c6bb2aeb9e3e6fe23c03a499", "is_reserved": 0, "lon": -76.98539316666667, "is_disabled": 0, "fusion_lat": 0.0, "lat": 38.909611166666664, "bike_id": "5fa33877c6bb2aeb9e3e6fe23c03a499", "fusion_lon": 0.0}, {"rental_uris": {"ios": "https://dc.lft.to/lastmile_qr_scan", "android": "https://dc.lft.to/lastmile_qr_scan"}, "type": "electric_scooter", "name": "c9bac1fe8e18eba5491379562d860495", "is_reserved": 0, "lon": -77.065489, "is_disabled": 0, "fusion_lat": 0.0, "lat": 38.90513166666667, "bike_id": "c9bac1fe8e18eba5491379562d860495", "fusion_lon": 0.0}, {"rental_uris": {"ios": "https://dc.lft.to/lastmile_qr_scan", "android": "https://dc.lft.to/lastmile_qr_scan"}, "type": "electric_scooter", "name": "c5d46e29c056d91508ad07826f937344", "is_reserved": 0, "lon": -77.02752266666667, "is_disabled": 0, "fusion_lat": 0.0, "lat": 38.95778816666667, "bike_id": "c5d46e29c056d91508ad07826f937344", "fusion_lon": 0.0}, {"rental_uris": {"ios": "https://dc.lft.to/lastmile_qr_scan", "android": "https://dc.lft.to/lastmile_qr_scan"}, "type": "electric_scooter", "name": "27cb509708d6864977a152640db8668c", "is_reserved": 0, "lon": -77.050207, "is_disabled": 0, "fusion_lat": 0.0, "lat": 38.91054366666667, "bike_id": "27cb509708d6864977a152640db8668c", "fusion_lon": 0.0}, {"rental_uris": {"ios": "https://dc.lft.to/lastmile_qr_scan", "android": "https://dc.lft.to/lastmile_qr_scan"}, "type": "electric_scooter", "name": "b1b6e7429a88f1e9b725af57be5e4df1", "is_reserved": 0, "lon": -77.00610083333333, "is_disabled": 0, "fusion_lat": 0.0, "lat": 38.875628666666664, "bike_id": "b1b6e7429a88f1e9b725af57be5e4df1", "fusion_lon": 0.0}, {"rental_uris": {"ios": "https://dc.lft.to/lastmile_qr_scan", "android": "https://dc.lft.to/lastmile_qr_scan"}, "type": "electric_scooter", "name": "41592a86067faa04222e77fcb13e34fd", "is_reserved": 0, "lon": -76.9264815, "is_disabled": 0, "fusion_lat": 0.0, "lat": 38.88377883333333, "bike_id": "41592a86067faa04222e77fcb13e34fd", "fusion_lon": 0.0}, {"rental_uris": {"ios": "https://dc.lft.to/lastmile_qr_scan", "android": "https://dc.lft.to/lastmile_qr_scan"}, "type": "electric_scooter", "name": "aadb7f0543131d8d4c70524ed6b05e7f", "is_reserved": 0, "lon": -77.0467585, "is_disabled": 0, "fusion_lat": 0.0, "lat": 38.892367, "bike_id": "aadb7f0543131d8d4c70524ed6b05e7f", "fusion_lon": 0.0}, {"rental_uris": {"ios": "https://dc.lft.to/lastmile_qr_scan", "android": "https://dc.lft.to/lastmile_qr_scan"}, "type": "electric_scooter", "name": "382e4dace895f3e8dbd45ca273fb578a", "is_reserved": 0, "lon": -77.025882, "is_disabled": 0, "fusion_lat": 0.0, "lat": 38.880833333333335, "bike_id": "382e4dace895f3e8dbd45ca273fb578a", "fusion_lon": 0.0}, {"rental_uris": {"ios": "https://dc.lft.to/lastmile_qr_scan", "android": "https://dc.lft.to/lastmile_qr_scan"}, "type": "electric_scooter", "name": "020c01e00e590f90b302ebb3e0ac3380", "is_reserved": 0, "lon": -77.050224, "is_disabled": 0, "fusion_lat": 0.0, "lat": 38.90057733333333, "bike_id": "020c01e00e590f90b302ebb3e0ac3380", "fusion_lon": 0.0}, {"rental_uris": {"ios": "https://dc.lft.to/lastmile_qr_scan", "android": "https://dc.lft.to/lastmile_qr_scan"}, "type": "electric_scooter", "name": "42c4331d9e6bff16fcf25cbe3095688e", "is_reserved": 0, "lon": -77.0486925, "is_disabled": 0, "fusion_lat": 0.0, "lat": 38.89223166666667, "bike_id": "42c4331d9e6bff16fcf25cbe3095688e", "fusion_lon": 0.0}, {"rental_uris": {"ios": "https://dc.lft.to/lastmile_qr_scan", "android": "https://dc.lft.to/lastmile_qr_scan"}, "type": "electric_scooter", "name": "96041399bb23f8287f02edb1ff720799", "is_reserved": 0, "lon": -77.005273, "is_disabled": 0, "fusion_lat": 0.0, "lat": 38.8849735, "bike_id": "96041399bb23f8287f02edb1ff720799", "fusion_lon": 0.0}, {"rental_uris": {"ios": "https://dc.lft.to/lastmile_qr_scan", "android": "https://dc.lft.to/lastmile_qr_scan"}, "type": "electric_scooter", "name": "db88830e106fee5b0c71e53e1fa7cc54", "is_reserved": 0, "lon": -77.01219716666667, "is_disabled": 0, "fusion_lat": 0.0, "lat": 38.92035966666667, "bike_id": "db88830e106fee5b0c71e53e1fa7cc54", "fusion_lon": 0.0}, {"rental_uris": {"ios": "https://dc.lft.to/lastmile_qr_scan", "android": "https://dc.lft.to/lastmile_qr_scan"}, "type": "electric_bike", "name": "8a0661bfcffb79e0420aac5639ca4053", "is_reserved": 0, "lon": -76.96095866666667, "is_disabled": 0, "fusion_lat": 0.0, "lat": 38.94967333333334, "bike_id": "8a0661bfcffb79e0420aac5639ca4053", "fusion_lon": 0.0}, {"rental_uris": {"ios": "https://dc.lft.to/lastmile_qr_scan", "android": "https://dc.lft.to/lastmile_qr_scan"}, "type": "electric_scooter", "name": "d021ea0e4f6858a642c304fec1971ccc", "is_reserved": 0, "lon": -77.052214, "is_disabled": 0, "fusion_lat": 0.0, "lat": 38.9249405, "bike_id": "d021ea0e4f6858a642c304fec1971ccc", "fusion_lon": 0.0}, {"rental_uris": {"ios": "https://dc.lft.to/lastmile_qr_scan", "android": "https://dc.lft.to/lastmile_qr_scan"}, "type": "electric_scooter", "name": "ebfb43bf599c75b10ebae17c4d4395f6", "is_reserved": 0, "lon": -77.0110295, "is_disabled": 0, "fusion_lat": 0.0, "lat": 38.88537633333333, "bike_id": "ebfb43bf599c75b10ebae17c4d4395f6", "fusion_lon": 0.0}, {"rental_uris": {"ios": "https://dc.lft.to/lastmile_qr_scan", "android": "https://dc.lft.to/lastmile_qr_scan"}, "type": "electric_scooter", "name": "d27f8be3530f7b7d5327c2941204cc12", "is_reserved": 0, "lon": -77.02707283333334, "is_disabled": 0, "fusion_lat": 0.0, "lat": 38.900018833333334, "bike_id": "d27f8be3530f7b7d5327c2941204cc12", "fusion_lon": 0.0}, {"rental_uris": {"ios": "https://dc.lft.to/lastmile_qr_scan", "android": "https://dc.lft.to/lastmile_qr_scan"}, "type": "electric_scooter", "name": "1176922a1b70b7c5fc1631f50ad60fdf", "is_reserved": 0, "lon": -77.05907133333334, "is_disabled": 0, "fusion_lat": 0.0, "lat": 38.902202833333334, "bike_id": "1176922a1b70b7c5fc1631f50ad60fdf", "fusion_lon": 0.0}, {"rental_uris": {"ios": "https://dc.lft.to/lastmile_qr_scan", "android": "https://dc.lft.to/lastmile_qr_scan"}, "type": "electric_scooter", "name": "b4a9c7e1458974362269561dd3c1212b", "is_reserved": 0, "lon": -77.04623566666666, "is_disabled": 0, "fusion_lat": 0.0, "lat": 38.901120666666664, "bike_id": "b4a9c7e1458974362269561dd3c1212b", "fusion_lon": 0.0}, {"rental_uris": {"ios": "https://dc.lft.to/lastmile_qr_scan", "android": "https://dc.lft.to/lastmile_qr_scan"}, "type": "electric_scooter", "name": "ce989ae384f1381125d227c3fa52c534", "is_reserved": 0, "lon": -77.03570633333334, "is_disabled": 0, "fusion_lat": 0.0, "lat": 38.90638766666667, "bike_id": "ce989ae384f1381125d227c3fa52c534", "fusion_lon": 0.0}, {"rental_uris": {"ios": "https://dc.lft.to/lastmile_qr_scan", "android": "https://dc.lft.to/lastmile_qr_scan"}, "type": "electric_scooter", "name": "9a2ecd908eec2d0c33e7d157d0e8b4cb", "is_reserved": 0, "lon": -77.031442, "is_disabled": 0, "fusion_lat": 0.0, "lat": 38.9201925, "bike_id": "9a2ecd908eec2d0c33e7d157d0e8b4cb", "fusion_lon": 0.0}, {"rental_uris": {"ios": "https://dc.lft.to/lastmile_qr_scan", "android": "https://dc.lft.to/lastmile_qr_scan"}, "type": "electric_scooter", "name": "1ce4493d1e95e1a7ef24ce685185da01", "is_reserved": 0, "lon": -76.98617316666666, "is_disabled": 0, "fusion_lat": 0.0, "lat": 38.903469, "bike_id": "1ce4493d1e95e1a7ef24ce685185da01", "fusion_lon": 0.0}, {"rental_uris": {"ios": "https://dc.lft.to/lastmile_qr_scan", "android": "https://dc.lft.to/lastmile_qr_scan"}, "type": "electric_scooter", "name": "91635be16fee8c446815f6a104f9ac9e", "is_reserved": 0, "lon": -77.00757933333334, "is_disabled": 0, "fusion_lat": 0.0, "lat": 38.925303, "bike_id": "91635be16fee8c446815f6a104f9ac9e", "fusion_lon": 0.0}, {"rental_uris": {"ios": "https://dc.lft.to/lastmile_qr_scan", "android": "https://dc.lft.to/lastmile_qr_scan"}, "type": "electric_scooter", "name": "d14b1a141d12d896070d757c11881a77", "is_reserved": 0, "lon": -76.95883683333334, "is_disabled": 0, "fusion_lat": 0.0, "lat": 38.858403, "bike_id": "d14b1a141d12d896070d757c11881a77", "fusion_lon": 0.0}, {"rental_uris": {"ios": "https://dc.lft.to/lastmile_qr_scan", "android": "https://dc.lft.to/lastmile_qr_scan"}, "type": "electric_bike", "name": "c1d25d2944752611aebba8964e685fe7", "is_reserved": 0, "lon": -77.1270275, "is_disabled": 0, "fusion_lat": 0.0, "lat": 38.89565733333333, "bike_id": "c1d25d2944752611aebba8964e685fe7", "fusion_lon": 0.0}, {"rental_uris": {"ios": "https://dc.lft.to/lastmile_qr_scan", "android": "https://dc.lft.to/lastmile_qr_scan"}, "type": "electric_bike", "name": "7c34d68aebd77416609311110cffc5e1", "is_reserved": 0, "lon": -77.09017116666666, "is_disabled": 0, "fusion_lat": 0.0, "lat": 38.9265005, "bike_id": "7c34d68aebd77416609311110cffc5e1", "fusion_lon": 0.0}, {"rental_uris": {"ios": "https://dc.lft.to/lastmile_qr_scan", "android": "https://dc.lft.to/lastmile_qr_scan"}, "type": "electric_scooter", "name": "732cfd571f9761434f3f7db5f70f9e8e", "is_reserved": 0, "lon": -77.0250295, "is_disabled": 0, "fusion_lat": 0.0, "lat": 38.898371833333336, "bike_id": "732cfd571f9761434f3f7db5f70f9e8e", "fusion_lon": 0.0}, {"rental_uris": {"ios": "https://dc.lft.to/lastmile_qr_scan", "android": "https://dc.lft.to/lastmile_qr_scan"}, "type": "electric_scooter", "name": "0376e0df1ced1e09f662a63e939ba223", "is_reserved": 0, "lon": -77.02019183333333, "is_disabled": 0, "fusion_lat": 0.0, "lat": 38.899523333333335, "bike_id": "0376e0df1ced1e09f662a63e939ba223", "fusion_lon": 0.0}, {"rental_uris": {"ios": "https://dc.lft.to/lastmile_qr_scan", "android": "https://dc.lft.to/lastmile_qr_scan"}, "type": "electric_scooter", "name": "023c4acd0fafc89606fbfc26c5aa3f62", "is_reserved": 0, "lon": -77.02349233333334, "is_disabled": 0, "fusion_lat": 0.0, "lat": 38.931797333333336, "bike_id": "023c4acd0fafc89606fbfc26c5aa3f62", "fusion_lon": 0.0}, {"rental_uris": {"ios": "https://dc.lft.to/lastmile_qr_scan", "android": "https://dc.lft.to/lastmile_qr_scan"}, "type": "electric_scooter", "name": "b67a5ecd557b315a17835bcf1d165f81", "is_reserved": 0, "lon": -77.041842, "is_disabled": 0, "fusion_lat": 0.0, "lat": 38.918449, "bike_id": "b67a5ecd557b315a17835bcf1d165f81", "fusion_lon": 0.0}, {"rental_uris": {"ios": "https://dc.lft.to/lastmile_qr_scan", "android": "https://dc.lft.to/lastmile_qr_scan"}, "type": "electric_scooter", "name": "ae0ec1ba233390e205054750147a572c", "is_reserved": 0, "lon": -77.0279875, "is_disabled": 0, "fusion_lat": 0.0, "lat": 38.90746866666667, "bike_id": "ae0ec1ba233390e205054750147a572c", "fusion_lon": 0.0}, {"rental_uris": {"ios": "https://dc.lft.to/lastmile_qr_scan", "android": "https://dc.lft.to/lastmile_qr_scan"}, "type": "electric_bike", "name": "2ac11ee5c883629600dca2e2267ea179", "is_reserved": 0, "lon": -76.95688483333333, "is_disabled": 0, "fusion_lat": 0.0, "lat": 38.8509705, "bike_id": "2ac11ee5c883629600dca2e2267ea179", "fusion_lon": 0.0}, {"rental_uris": {"ios": "https://dc.lft.to/lastmile_qr_scan", "android": "https://dc.lft.to/lastmile_qr_scan"}, "type": "electric_scooter", "name": "0b1f1c74a375817dd0854bf5120ba4b2", "is_reserved": 0, "lon": -76.9858325, "is_disabled": 0, "fusion_lat": 0.0, "lat": 38.86188116666667, "bike_id": "0b1f1c74a375817dd0854bf5120ba4b2", "fusion_lon": 0.0}, {"rental_uris": {"ios": "https://dc.lft.to/lastmile_qr_scan", "android": "https://dc.lft.to/lastmile_qr_scan"}, "type": "electric_scooter", "name": "c6453492a83b53aecd6769d03f11d08e", "is_reserved": 0, "lon": -77.022138, "is_disabled": 0, "fusion_lat": 0.0, "lat": 38.8873475, "bike_id": "c6453492a83b53aecd6769d03f11d08e", "fusion_lon": 0.0}, {"rental_uris": {"ios": "https://dc.lft.to/lastmile_qr_scan", "android": "https://dc.lft.to/lastmile_qr_scan"}, "type": "electric_scooter", "name": "7ed538300f879a16234dd9cf9570fc60", "is_reserved": 0, "lon": -76.98359283333333, "is_disabled": 0, "fusion_lat": 0.0, "lat": 38.8874715, "bike_id": "7ed538300f879a16234dd9cf9570fc60", "fusion_lon": 0.0}, {"rental_uris": {"ios": "https://dc.lft.to/lastmile_qr_scan", "android": "https://dc.lft.to/lastmile_qr_scan"}, "type": "electric_scooter", "name": "7bf37858a5911ee4a3a6b4d64c27d825", "is_reserved": 0, "lon": -77.02666066666667, "is_disabled": 0, "fusion_lat": 0.0, "lat": 38.884912666666665, "bike_id": "7bf37858a5911ee4a3a6b4d64c27d825", "fusion_lon": 0.0}, {"rental_uris": {"ios": "https://dc.lft.to/lastmile_qr_scan", "android": "https://dc.lft.to/lastmile_qr_scan"}, "type": "electric_scooter", "name": "b3c15bd8401178d98e70fcf71da86ef6", "is_reserved": 0, "lon": -77.03312166666667, "is_disabled": 0, "fusion_lat": 0.0, "lat": 38.90399983333333, "bike_id": "b3c15bd8401178d98e70fcf71da86ef6", "fusion_lon": 0.0}, {"rental_uris": {"ios": "https://dc.lft.to/lastmile_qr_scan", "android": "https://dc.lft.to/lastmile_qr_scan"}, "type": "electric_scooter", "name": "bc805294c2479f16d7b498966b455d83", "is_reserved": 0, "lon": -77.0020585, "is_disabled": 0, "fusion_lat": 0.0, "lat": 38.893277833333336, "bike_id": "bc805294c2479f16d7b498966b455d83", "fusion_lon": 0.0}, {"rental_uris": {"ios": "https://dc.lft.to/lastmile_qr_scan", "android": "https://dc.lft.to/lastmile_qr_scan"}, "type": "electric_bike", "name": "4bfd925cedf82375990882b3585e132e", "is_reserved": 0, "lon": -76.96914133333334, "is_disabled": 0, "fusion_lat": 0.0, "lat": 38.846121, "bike_id": "4bfd925cedf82375990882b3585e132e", "fusion_lon": 0.0}, {"rental_uris": {"ios": "https://dc.lft.to/lastmile_qr_scan", "android": "https://dc.lft.to/lastmile_qr_scan"}, "type": "electric_bike", "name": "593257bac3ffac7b21b2794f6964408b", "is_reserved": 0, "lon": -77.001376, "is_disabled": 0, "fusion_lat": 0.0, "lat": 38.995045166666664, "bike_id": "593257bac3ffac7b21b2794f6964408b", "fusion_lon": 0.0}, {"rental_uris": {"ios": "https://dc.lft.to/lastmile_qr_scan", "android": "https://dc.lft.to/lastmile_qr_scan"}, "type": "electric_scooter", "name": "e9e69c7213c24689a99a89cfa27917d4", "is_reserved": 0, "lon": -76.97940033333333, "is_disabled": 0, "fusion_lat": 0.0, "lat": 38.90661766666667, "bike_id": "e9e69c7213c24689a99a89cfa27917d4", "fusion_lon": 0.0}, {"rental_uris": {"ios": "https://dc.lft.to/lastmile_qr_scan", "android": "https://dc.lft.to/lastmile_qr_scan"}, "type": "electric_scooter", "name": "4c533a33004453266cd28c11e8f8042c", "is_reserved": 0, "lon": -77.05071183333334, "is_disabled": 0, "fusion_lat": 0.0, "lat": 38.900947, "bike_id": "4c533a33004453266cd28c11e8f8042c", "fusion_lon": 0.0}, {"rental_uris": {"ios": "https://dc.lft.to/lastmile_qr_scan", "android": "https://dc.lft.to/lastmile_qr_scan"}, "type": "electric_scooter", "name": "4e3d2f855c6902ec218084c569d8e88e", "is_reserved": 0, "lon": -77.03018866666666, "is_disabled": 0, "fusion_lat": 0.0, "lat": 38.887422666666666, "bike_id": "4e3d2f855c6902ec218084c569d8e88e", "fusion_lon": 0.0}, {"rental_uris": {"ios": "https://dc.lft.to/lastmile_qr_scan", "android": "https://dc.lft.to/lastmile_qr_scan"}, "type": "electric_scooter", "name": "24211aaa7a9b042e3b32ad8ea6ea3a5d", "is_reserved": 0, "lon": -77.07272033333334, "is_disabled": 0, "fusion_lat": 0.0, "lat": 38.9221485, "bike_id": "24211aaa7a9b042e3b32ad8ea6ea3a5d", "fusion_lon": 0.0}, {"rental_uris": {"ios": "https://dc.lft.to/lastmile_qr_scan", "android": "https://dc.lft.to/lastmile_qr_scan"}, "type": "electric_scooter", "name": "c3e628c47c13d072ac2efdc8662786f8", "is_reserved": 0, "lon": -77.05151666666667, "is_disabled": 0, "fusion_lat": 0.0, "lat": 38.90474283333333, "bike_id": "c3e628c47c13d072ac2efdc8662786f8", "fusion_lon": 0.0}, {"rental_uris": {"ios": "https://dc.lft.to/lastmile_qr_scan", "android": "https://dc.lft.to/lastmile_qr_scan"}, "type": "electric_scooter", "name": "31749660adbc085aa993098b0f01ba53", "is_reserved": 0, "lon": -77.035087, "is_disabled": 0, "fusion_lat": 0.0, "lat": 38.90965883333333, "bike_id": "31749660adbc085aa993098b0f01ba53", "fusion_lon": 0.0}, {"rental_uris": {"ios": "https://dc.lft.to/lastmile_qr_scan", "android": "https://dc.lft.to/lastmile_qr_scan"}, "type": "electric_scooter", "name": "02d8ddd125386498ff3b4756db659dfc", "is_reserved": 0, "lon": -77.0091925, "is_disabled": 0, "fusion_lat": 0.0, "lat": 38.898817666666666, "bike_id": "02d8ddd125386498ff3b4756db659dfc", "fusion_lon": 0.0}, {"rental_uris": {"ios": "https://dc.lft.to/lastmile_qr_scan", "android": "https://dc.lft.to/lastmile_qr_scan"}, "type": "electric_scooter", "name": "4685c4d92dc6c0de14f5a130ecf63de3", "is_reserved": 0, "lon": -77.05218666666667, "is_disabled": 0, "fusion_lat": 0.0, "lat": 38.90021, "bike_id": "4685c4d92dc6c0de14f5a130ecf63de3", "fusion_lon": 0.0}, {"rental_uris": {"ios": "https://dc.lft.to/lastmile_qr_scan", "android": "https://dc.lft.to/lastmile_qr_scan"}, "type": "electric_scooter", "name": "eb591f3c2800297d09438b42c4b5bee9", "is_reserved": 0, "lon": -77.02834083333333, "is_disabled": 0, "fusion_lat": 0.0, "lat": 38.924832, "bike_id": "eb591f3c2800297d09438b42c4b5bee9", "fusion_lon": 0.0}, {"rental_uris": {"ios": "https://dc.lft.to/lastmile_qr_scan", "android": "https://dc.lft.to/lastmile_qr_scan"}, "type": "electric_scooter", "name": "6e0251a7c3de9ee9ce3e349a35593eea", "is_reserved": 0, "lon": -77.03046633333334, "is_disabled": 0, "fusion_lat": 0.0, "lat": 38.88435, "bike_id": "6e0251a7c3de9ee9ce3e349a35593eea", "fusion_lon": 0.0}, {"rental_uris": {"ios": "https://dc.lft.to/lastmile_qr_scan", "android": "https://dc.lft.to/lastmile_qr_scan"}, "type": "electric_scooter", "name": "8d59e867a07b676335e86cd6f06336e4", "is_reserved": 0, "lon": -77.04340183333333, "is_disabled": 0, "fusion_lat": 0.0, "lat": 38.9215065, "bike_id": "8d59e867a07b676335e86cd6f06336e4", "fusion_lon": 0.0}, {"rental_uris": {"ios": "https://dc.lft.to/lastmile_qr_scan", "android": "https://dc.lft.to/lastmile_qr_scan"}, "type": "electric_scooter", "name": "1d869552080a42c6fdcf91fa05067735", "is_reserved": 0, "lon": -77.020511, "is_disabled": 0, "fusion_lat": 0.0, "lat": 38.92397966666667, "bike_id": "1d869552080a42c6fdcf91fa05067735", "fusion_lon": 0.0}, {"rental_uris": {"ios": "https://dc.lft.to/lastmile_qr_scan", "android": "https://dc.lft.to/lastmile_qr_scan"}, "type": "electric_scooter", "name": "e9d6362d1fa07c19a37ae83389ac9a31", "is_reserved": 0, "lon": -77.07596066666666, "is_disabled": 0, "fusion_lat": 0.0, "lat": 38.93758283333333, "bike_id": "e9d6362d1fa07c19a37ae83389ac9a31", "fusion_lon": 0.0}, {"rental_uris": {"ios": "https://dc.lft.to/lastmile_qr_scan", "android": "https://dc.lft.to/lastmile_qr_scan"}, "type": "electric_scooter", "name": "100abe3c3c052ad20bba5d147e1cdc06", "is_reserved": 0, "lon": -77.04021616666667, "is_disabled": 0, "fusion_lat": 0.0, "lat": 38.922544, "bike_id": "100abe3c3c052ad20bba5d147e1cdc06", "fusion_lon": 0.0}, {"rental_uris": {"ios": "https://dc.lft.to/lastmile_qr_scan", "android": "https://dc.lft.to/lastmile_qr_scan"}, "type": "electric_scooter", "name": "5b8b6414d08e7f6e37f7cdbd2ca5ccac", "is_reserved": 0, "lon": -77.0158585, "is_disabled": 0, "fusion_lat": 0.0, "lat": 38.872248166666665, "bike_id": "5b8b6414d08e7f6e37f7cdbd2ca5ccac", "fusion_lon": 0.0}, {"rental_uris": {"ios": "https://dc.lft.to/lastmile_qr_scan", "android": "https://dc.lft.to/lastmile_qr_scan"}, "type": "electric_scooter", "name": "1d63929983cc16bd54911b6ab3a01ddb", "is_reserved": 0, "lon": -76.92953916666667, "is_disabled": 0, "fusion_lat": 0.0, "lat": 38.90337516666666, "bike_id": "1d63929983cc16bd54911b6ab3a01ddb", "fusion_lon": 0.0}, {"rental_uris": {"ios": "https://dc.lft.to/lastmile_qr_scan", "android": "https://dc.lft.to/lastmile_qr_scan"}, "type": "electric_scooter", "name": "7a5c247c637dbe1c6dac8d3e734bb47f", "is_reserved": 0, "lon": -76.98498366666666, "is_disabled": 0, "fusion_lat": 0.0, "lat": 38.92006533333333, "bike_id": "7a5c247c637dbe1c6dac8d3e734bb47f", "fusion_lon": 0.0}, {"rental_uris": {"ios": "https://dc.lft.to/lastmile_qr_scan", "android": "https://dc.lft.to/lastmile_qr_scan"}, "type": "electric_scooter", "name": "6f8deac5a5ead903757b1f8cdd34a3f8", "is_reserved": 0, "lon": -77.04174016666667, "is_disabled": 0, "fusion_lat": 0.0, "lat": 38.91657216666667, "bike_id": "6f8deac5a5ead903757b1f8cdd34a3f8", "fusion_lon": 0.0}, {"rental_uris": {"ios": "https://dc.lft.to/lastmile_qr_scan", "android": "https://dc.lft.to/lastmile_qr_scan"}, "type": "electric_scooter", "name": "8f0746a72900694ae4ac5fa1014d36f1", "is_reserved": 0, "lon": -77.069245, "is_disabled": 0, "fusion_lat": 0.0, "lat": 38.91383966666667, "bike_id": "8f0746a72900694ae4ac5fa1014d36f1", "fusion_lon": 0.0}, {"rental_uris": {"ios": "https://dc.lft.to/lastmile_qr_scan", "android": "https://dc.lft.to/lastmile_qr_scan"}, "type": "electric_scooter", "name": "65333d7557dc9cce1b5e28daf433f281", "is_reserved": 0, "lon": -77.03527066666666, "is_disabled": 0, "fusion_lat": 0.0, "lat": 38.922841166666664, "bike_id": "65333d7557dc9cce1b5e28daf433f281", "fusion_lon": 0.0}, {"rental_uris": {"ios": "https://dc.lft.to/lastmile_qr_scan", "android": "https://dc.lft.to/lastmile_qr_scan"}, "type": "electric_scooter", "name": "b8f97eaa291039c2c0fecbbf78a59282", "is_reserved": 0, "lon": -77.03961066666666, "is_disabled": 0, "fusion_lat": 0.0, "lat": 38.901125666666665, "bike_id": "b8f97eaa291039c2c0fecbbf78a59282", "fusion_lon": 0.0}, {"rental_uris": {"ios": "https://dc.lft.to/lastmile_qr_scan", "android": "https://dc.lft.to/lastmile_qr_scan"}, "type": "electric_scooter", "name": "ebb2b00d562cc51a3a0cc9c0afc014fd", "is_reserved": 0, "lon": -77.04880833333333, "is_disabled": 0, "fusion_lat": 0.0, "lat": 38.91832133333333, "bike_id": "ebb2b00d562cc51a3a0cc9c0afc014fd", "fusion_lon": 0.0}, {"rental_uris": {"ios": "https://dc.lft.to/lastmile_qr_scan", "android": "https://dc.lft.to/lastmile_qr_scan"}, "type": "electric_scooter", "name": "aecca1dcca657c19793c01a59d737f46", "is_reserved": 0, "lon": -77.036003, "is_disabled": 0, "fusion_lat": 0.0, "lat": 38.91698183333333, "bike_id": "aecca1dcca657c19793c01a59d737f46", "fusion_lon": 0.0}, {"rental_uris": {"ios": "https://dc.lft.to/lastmile_qr_scan", "android": "https://dc.lft.to/lastmile_qr_scan"}, "type": "electric_scooter", "name": "92c19e793b0f071c8fad3baff7b4a52d", "is_reserved": 0, "lon": -77.042604, "is_disabled": 0, "fusion_lat": 0.0, "lat": 38.90661383333333, "bike_id": "92c19e793b0f071c8fad3baff7b4a52d", "fusion_lon": 0.0}, {"rental_uris": {"ios": "https://dc.lft.to/lastmile_qr_scan", "android": "https://dc.lft.to/lastmile_qr_scan"}, "type": "electric_scooter", "name": "5ea142cd7d82a37ea212f81feb8561c2", "is_reserved": 0, "lon": -77.0611195, "is_disabled": 0, "fusion_lat": 0.0, "lat": 38.90539416666667, "bike_id": "5ea142cd7d82a37ea212f81feb8561c2", "fusion_lon": 0.0}, {"rental_uris": {"ios": "https://dc.lft.to/lastmile_qr_scan", "android": "https://dc.lft.to/lastmile_qr_scan"}, "type": "electric_scooter", "name": "85f87b0501dac713c07726b20732c1d4", "is_reserved": 0, "lon": -77.02308766666667, "is_disabled": 0, "fusion_lat": 0.0, "lat": 38.91624933333333, "bike_id": "85f87b0501dac713c07726b20732c1d4", "fusion_lon": 0.0}, {"rental_uris": {"ios": "https://dc.lft.to/lastmile_qr_scan", "android": "https://dc.lft.to/lastmile_qr_scan"}, "type": "electric_scooter", "name": "c837f048f460326376743d12124f50c7", "is_reserved": 0, "lon": -77.02711766666667, "is_disabled": 0, "fusion_lat": 0.0, "lat": 38.91541383333333, "bike_id": "c837f048f460326376743d12124f50c7", "fusion_lon": 0.0}, {"rental_uris": {"ios": "https://dc.lft.to/lastmile_qr_scan", "android": "https://dc.lft.to/lastmile_qr_scan"}, "type": "electric_bike", "name": "40a483103e957a500f355d6f41fc7211", "is_reserved": 0, "lon": -76.96156883333333, "is_disabled": 0, "fusion_lat": 0.0, "lat": 38.856220666666665, "bike_id": "40a483103e957a500f355d6f41fc7211", "fusion_lon": 0.0}, {"rental_uris": {"ios": "https://dc.lft.to/lastmile_qr_scan", "android": "https://dc.lft.to/lastmile_qr_scan"}, "type": "electric_scooter", "name": "6456674a8c3624d3c064bbcf04981f27", "is_reserved": 0, "lon": -77.01095233333334, "is_disabled": 0, "fusion_lat": 0.0, "lat": 38.89486316666667, "bike_id": "6456674a8c3624d3c064bbcf04981f27", "fusion_lon": 0.0}, {"rental_uris": {"ios": "https://dc.lft.to/lastmile_qr_scan", "android": "https://dc.lft.to/lastmile_qr_scan"}, "type": "electric_scooter", "name": "33d5d95ce9134d69abcebfed16fa52b9", "is_reserved": 0, "lon": -77.04580916666667, "is_disabled": 0, "fusion_lat": 0.0, "lat": 38.9135815, "bike_id": "33d5d95ce9134d69abcebfed16fa52b9", "fusion_lon": 0.0}, {"rental_uris": {"ios": "https://dc.lft.to/lastmile_qr_scan", "android": "https://dc.lft.to/lastmile_qr_scan"}, "type": "electric_scooter", "name": "64d68c5cce60126a7e0353266925acfd", "is_reserved": 0, "lon": -77.01817516666667, "is_disabled": 0, "fusion_lat": 0.0, "lat": 38.91992316666666, "bike_id": "64d68c5cce60126a7e0353266925acfd", "fusion_lon": 0.0}, {"rental_uris": {"ios": "https://dc.lft.to/lastmile_qr_scan", "android": "https://dc.lft.to/lastmile_qr_scan"}, "type": "electric_scooter", "name": "a4fa4c523ecaacd63c104f9723e489f5", "is_reserved": 0, "lon": -77.01877866666666, "is_disabled": 0, "fusion_lat": 0.0, "lat": 38.90322966666667, "bike_id": "a4fa4c523ecaacd63c104f9723e489f5", "fusion_lon": 0.0}, {"rental_uris": {"ios": "https://dc.lft.to/lastmile_qr_scan", "android": "https://dc.lft.to/lastmile_qr_scan"}, "type": "electric_scooter", "name": "46d63838192487d22d119f2fbb154d12", "is_reserved": 0, "lon": -77.04911833333334, "is_disabled": 0, "fusion_lat": 0.0, "lat": 38.910409, "bike_id": "46d63838192487d22d119f2fbb154d12", "fusion_lon": 0.0}, {"rental_uris": {"ios": "https://dc.lft.to/lastmile_qr_scan", "android": "https://dc.lft.to/lastmile_qr_scan"}, "type": "electric_scooter", "name": "65dc33f00d49ca5fcf36f152fd1b0c0f", "is_reserved": 0, "lon": -77.0238715, "is_disabled": 0, "fusion_lat": 0.0, "lat": 38.892361, "bike_id": "65dc33f00d49ca5fcf36f152fd1b0c0f", "fusion_lon": 0.0}, {"rental_uris": {"ios": "https://dc.lft.to/lastmile_qr_scan", "android": "https://dc.lft.to/lastmile_qr_scan"}, "type": "electric_scooter", "name": "968cacd2b119864623f01916a7c0d651", "is_reserved": 0, "lon": -76.94331033333333, "is_disabled": 0, "fusion_lat": 0.0, "lat": 38.879200166666664, "bike_id": "968cacd2b119864623f01916a7c0d651", "fusion_lon": 0.0}, {"rental_uris": {"ios": "https://dc.lft.to/lastmile_qr_scan", "android": "https://dc.lft.to/lastmile_qr_scan"}, "type": "electric_scooter", "name": "0e503e5e5a3b2befd890baed7391ce77", "is_reserved": 0, "lon": -76.98571, "is_disabled": 0, "fusion_lat": 0.0, "lat": 38.89616083333333, "bike_id": "0e503e5e5a3b2befd890baed7391ce77", "fusion_lon": 0.0}, {"rental_uris": {"ios": "https://dc.lft.to/lastmile_qr_scan", "android": "https://dc.lft.to/lastmile_qr_scan"}, "type": "electric_scooter", "name": "a475afe009e46f92efeb4a0d84384db0", "is_reserved": 0, "lon": -77.05003633333334, "is_disabled": 0, "fusion_lat": 0.0, "lat": 38.89226766666667, "bike_id": "a475afe009e46f92efeb4a0d84384db0", "fusion_lon": 0.0}, {"rental_uris": {"ios": "https://dc.lft.to/lastmile_qr_scan", "android": "https://dc.lft.to/lastmile_qr_scan"}, "type": "electric_scooter", "name": "d09b62d4bc6c6e378723d83997a8fa61", "is_reserved": 0, "lon": -77.0343335, "is_disabled": 0, "fusion_lat": 0.0, "lat": 38.91806283333333, "bike_id": "d09b62d4bc6c6e378723d83997a8fa61", "fusion_lon": 0.0}, {"rental_uris": {"ios": "https://dc.lft.to/lastmile_qr_scan", "android": "https://dc.lft.to/lastmile_qr_scan"}, "type": "electric_scooter", "name": "ed1c370b9fd2dbf1e13408fe6568310c", "is_reserved": 0, "lon": -77.0276165, "is_disabled": 0, "fusion_lat": 0.0, "lat": 38.9134305, "bike_id": "ed1c370b9fd2dbf1e13408fe6568310c", "fusion_lon": 0.0}, {"rental_uris": {"ios": "https://dc.lft.to/lastmile_qr_scan", "android": "https://dc.lft.to/lastmile_qr_scan"}, "type": "electric_scooter", "name": "802fa8cab74441ae5ecfe99ccf59975b", "is_reserved": 0, "lon": -77.0150695, "is_disabled": 0, "fusion_lat": 0.0, "lat": 38.901453, "bike_id": "802fa8cab74441ae5ecfe99ccf59975b", "fusion_lon": 0.0}, {"rental_uris": {"ios": "https://dc.lft.to/lastmile_qr_scan", "android": "https://dc.lft.to/lastmile_qr_scan"}, "type": "electric_scooter", "name": "f8d9a7c02a959e2b8f7ff45d478c120e", "is_reserved": 0, "lon": -77.040251, "is_disabled": 0, "fusion_lat": 0.0, "lat": 38.924616666666665, "bike_id": "f8d9a7c02a959e2b8f7ff45d478c120e", "fusion_lon": 0.0}, {"rental_uris": {"ios": "https://dc.lft.to/lastmile_qr_scan", "android": "https://dc.lft.to/lastmile_qr_scan"}, "type": "electric_scooter", "name": "2a91b13c9dfefd06f0cdc6d992b37275", "is_reserved": 0, "lon": -77.04811733333334, "is_disabled": 0, "fusion_lat": 0.0, "lat": 38.909796666666665, "bike_id": "2a91b13c9dfefd06f0cdc6d992b37275", "fusion_lon": 0.0}, {"rental_uris": {"ios": "https://dc.lft.to/lastmile_qr_scan", "android": "https://dc.lft.to/lastmile_qr_scan"}, "type": "electric_bike", "name": "83840ce56a76327028399979864d7d0e", "is_reserved": 0, "lon": -77.07248233333334, "is_disabled": 0, "fusion_lat": 0.0, "lat": 38.81366716666667, "bike_id": "83840ce56a76327028399979864d7d0e", "fusion_lon": 0.0}, {"rental_uris": {"ios": "https://dc.lft.to/lastmile_qr_scan", "android": "https://dc.lft.to/lastmile_qr_scan"}, "type": "electric_scooter", "name": "f94e053e187974ee599b6ae7449ceb1a", "is_reserved": 0, "lon": -77.04402483333334, "is_disabled": 0, "fusion_lat": 0.0, "lat": 38.925896333333334, "bike_id": "f94e053e187974ee599b6ae7449ceb1a", "fusion_lon": 0.0}, {"rental_uris": {"ios": "https://dc.lft.to/lastmile_qr_scan", "android": "https://dc.lft.to/lastmile_qr_scan"}, "type": "electric_scooter", "name": "2aa4b68f8d1226ff67fc680a0664a38b", "is_reserved": 0, "lon": -77.04746933333334, "is_disabled": 0, "fusion_lat": 0.0, "lat": 38.901444166666664, "bike_id": "2aa4b68f8d1226ff67fc680a0664a38b", "fusion_lon": 0.0}, {"rental_uris": {"ios": "https://dc.lft.to/lastmile_qr_scan", "android": "https://dc.lft.to/lastmile_qr_scan"}, "type": "electric_scooter", "name": "5ed6b148a5b9e74b5f76da21e59484f4", "is_reserved": 0, "lon": -77.06773233333334, "is_disabled": 0, "fusion_lat": 0.0, "lat": 38.90395216666667, "bike_id": "5ed6b148a5b9e74b5f76da21e59484f4", "fusion_lon": 0.0}, {"rental_uris": {"ios": "https://dc.lft.to/lastmile_qr_scan", "android": "https://dc.lft.to/lastmile_qr_scan"}, "type": "electric_scooter", "name": "c8e7628c1626f4353c486e47f45944c7", "is_reserved": 0, "lon": -77.03368, "is_disabled": 0, "fusion_lat": 0.0, "lat": 38.902567, "bike_id": "c8e7628c1626f4353c486e47f45944c7", "fusion_lon": 0.0}, {"rental_uris": {"ios": "https://dc.lft.to/lastmile_qr_scan", "android": "https://dc.lft.to/lastmile_qr_scan"}, "type": "electric_scooter", "name": "b2ebb1e595df76e5cc124ba707a7ab00", "is_reserved": 0, "lon": -77.04488983333333, "is_disabled": 0, "fusion_lat": 0.0, "lat": 38.9144405, "bike_id": "b2ebb1e595df76e5cc124ba707a7ab00", "fusion_lon": 0.0}, {"rental_uris": {"ios": "https://dc.lft.to/lastmile_qr_scan", "android": "https://dc.lft.to/lastmile_qr_scan"}, "type": "electric_scooter", "name": "91eb1f31056fc5a12dbdbd5a1aa0b79b", "is_reserved": 0, "lon": -77.03837666666666, "is_disabled": 0, "fusion_lat": 0.0, "lat": 38.91098366666667, "bike_id": "91eb1f31056fc5a12dbdbd5a1aa0b79b", "fusion_lon": 0.0}, {"rental_uris": {"ios": "https://dc.lft.to/lastmile_qr_scan", "android": "https://dc.lft.to/lastmile_qr_scan"}, "type": "electric_scooter", "name": "da967b7d480a48f8a76d0d262f70af67", "is_reserved": 0, "lon": -77.02417416666667, "is_disabled": 0, "fusion_lat": 0.0, "lat": 38.89744833333334, "bike_id": "da967b7d480a48f8a76d0d262f70af67", "fusion_lon": 0.0}, {"rental_uris": {"ios": "https://dc.lft.to/lastmile_qr_scan", "android": "https://dc.lft.to/lastmile_qr_scan"}, "type": "electric_scooter", "name": "17153ecf495d08d490105d5063983869", "is_reserved": 0, "lon": -77.034773, "is_disabled": 0, "fusion_lat": 0.0, "lat": 38.9083545, "bike_id": "17153ecf495d08d490105d5063983869", "fusion_lon": 0.0}, {"rental_uris": {"ios": "https://dc.lft.to/lastmile_qr_scan", "android": "https://dc.lft.to/lastmile_qr_scan"}, "type": "electric_scooter", "name": "16eb0896ad310d6799d644025ff61bd4", "is_reserved": 0, "lon": -77.01768233333334, "is_disabled": 0, "fusion_lat": 0.0, "lat": 38.88726533333333, "bike_id": "16eb0896ad310d6799d644025ff61bd4", "fusion_lon": 0.0}, {"rental_uris": {"ios": "https://dc.lft.to/lastmile_qr_scan", "android": "https://dc.lft.to/lastmile_qr_scan"}, "type": "electric_scooter", "name": "70af122c3f7942560457ef36bec936dd", "is_reserved": 0, "lon": -77.04460183333333, "is_disabled": 0, "fusion_lat": 0.0, "lat": 38.900732166666664, "bike_id": "70af122c3f7942560457ef36bec936dd", "fusion_lon": 0.0}, {"rental_uris": {"ios": "https://dc.lft.to/lastmile_qr_scan", "android": "https://dc.lft.to/lastmile_qr_scan"}, "type": "electric_scooter", "name": "52e5ebde07bd4f56ec9d4f860854fe2e", "is_reserved": 0, "lon": -77.00047216666667, "is_disabled": 0, "fusion_lat": 0.0, "lat": 38.873883166666666, "bike_id": "52e5ebde07bd4f56ec9d4f860854fe2e", "fusion_lon": 0.0}, {"rental_uris": {"ios": "https://dc.lft.to/lastmile_qr_scan", "android": "https://dc.lft.to/lastmile_qr_scan"}, "type": "electric_scooter", "name": "13a8f2474e0047dd354cfc3be2616cfb", "is_reserved": 0, "lon": -77.02824233333334, "is_disabled": 0, "fusion_lat": 0.0, "lat": 38.886240666666666, "bike_id": "13a8f2474e0047dd354cfc3be2616cfb", "fusion_lon": 0.0}, {"rental_uris": {"ios": "https://dc.lft.to/lastmile_qr_scan", "android": "https://dc.lft.to/lastmile_qr_scan"}, "type": "electric_scooter", "name": "0d817d8c8dbe31f96ccfa190d9417251", "is_reserved": 0, "lon": -77.04103666666667, "is_disabled": 0, "fusion_lat": 0.0, "lat": 38.920692, "bike_id": "0d817d8c8dbe31f96ccfa190d9417251", "fusion_lon": 0.0}, {"rental_uris": {"ios": "https://dc.lft.to/lastmile_qr_scan", "android": "https://dc.lft.to/lastmile_qr_scan"}, "type": "electric_scooter", "name": "60e4a4f61286efda4474313f93c6d6e9", "is_reserved": 0, "lon": -76.97654216666666, "is_disabled": 0, "fusion_lat": 0.0, "lat": 38.90364983333333, "bike_id": "60e4a4f61286efda4474313f93c6d6e9", "fusion_lon": 0.0}, {"rental_uris": {"ios": "https://dc.lft.to/lastmile_qr_scan", "android": "https://dc.lft.to/lastmile_qr_scan"}, "type": "electric_scooter", "name": "435f7629cbfb2a8bdfc66d0111a4f1ac", "is_reserved": 0, "lon": -77.061216, "is_disabled": 0, "fusion_lat": 0.0, "lat": 38.905034, "bike_id": "435f7629cbfb2a8bdfc66d0111a4f1ac", "fusion_lon": 0.0}, {"rental_uris": {"ios": "https://dc.lft.to/lastmile_qr_scan", "android": "https://dc.lft.to/lastmile_qr_scan"}, "type": "electric_scooter", "name": "85cc80d978e5a215dd69547d1d264d36", "is_reserved": 0, "lon": -77.02548566666667, "is_disabled": 0, "fusion_lat": 0.0, "lat": 38.91712116666667, "bike_id": "85cc80d978e5a215dd69547d1d264d36", "fusion_lon": 0.0}, {"rental_uris": {"ios": "https://dc.lft.to/lastmile_qr_scan", "android": "https://dc.lft.to/lastmile_qr_scan"}, "type": "electric_scooter", "name": "434322050e1eeae27633415625d07cd3", "is_reserved": 0, "lon": -77.0467605, "is_disabled": 0, "fusion_lat": 0.0, "lat": 38.89231433333333, "bike_id": "434322050e1eeae27633415625d07cd3", "fusion_lon": 0.0}, {"rental_uris": {"ios": "https://dc.lft.to/lastmile_qr_scan", "android": "https://dc.lft.to/lastmile_qr_scan"}, "type": "electric_scooter", "name": "f8477cbce63fa88a20da947d13431a9d", "is_reserved": 0, "lon": -77.03475816666666, "is_disabled": 0, "fusion_lat": 0.0, "lat": 38.91711, "bike_id": "f8477cbce63fa88a20da947d13431a9d", "fusion_lon": 0.0}, {"rental_uris": {"ios": "https://dc.lft.to/lastmile_qr_scan", "android": "https://dc.lft.to/lastmile_qr_scan"}, "type": "electric_scooter", "name": "37998a4867cc40c9ca18961c73c723a0", "is_reserved": 0, "lon": -76.9698125, "is_disabled": 0, "fusion_lat": 0.0, "lat": 38.8740225, "bike_id": "37998a4867cc40c9ca18961c73c723a0", "fusion_lon": 0.0}, {"rental_uris": {"ios": "https://dc.lft.to/lastmile_qr_scan", "android": "https://dc.lft.to/lastmile_qr_scan"}, "type": "electric_scooter", "name": "6e51eb337a989d272a762093cc05fc54", "is_reserved": 0, "lon": -77.038654, "is_disabled": 0, "fusion_lat": 0.0, "lat": 38.91257916666667, "bike_id": "6e51eb337a989d272a762093cc05fc54", "fusion_lon": 0.0}, {"rental_uris": {"ios": "https://dc.lft.to/lastmile_qr_scan", "android": "https://dc.lft.to/lastmile_qr_scan"}, "type": "electric_scooter", "name": "22bd1d48f32be8ed260f843bfcadec13", "is_reserved": 0, "lon": -77.03811933333333, "is_disabled": 0, "fusion_lat": 0.0, "lat": 38.90680533333333, "bike_id": "22bd1d48f32be8ed260f843bfcadec13", "fusion_lon": 0.0}, {"rental_uris": {"ios": "https://dc.lft.to/lastmile_qr_scan", "android": "https://dc.lft.to/lastmile_qr_scan"}, "type": "electric_scooter", "name": "2e6675241383bd993e4944ad6c5edd3f", "is_reserved": 0, "lon": -76.98210033333334, "is_disabled": 0, "fusion_lat": 0.0, "lat": 38.886453333333336, "bike_id": "2e6675241383bd993e4944ad6c5edd3f", "fusion_lon": 0.0}, {"rental_uris": {"ios": "https://dc.lft.to/lastmile_qr_scan", "android": "https://dc.lft.to/lastmile_qr_scan"}, "type": "electric_scooter", "name": "fc70cf86fced982f5d73cbf8506e118b", "is_reserved": 0, "lon": -77.0652695, "is_disabled": 0, "fusion_lat": 0.0, "lat": 38.949819833333336, "bike_id": "fc70cf86fced982f5d73cbf8506e118b", "fusion_lon": 0.0}, {"rental_uris": {"ios": "https://dc.lft.to/lastmile_qr_scan", "android": "https://dc.lft.to/lastmile_qr_scan"}, "type": "electric_scooter", "name": "dddc43f266dbc95a5e47a8eb45edebfe", "is_reserved": 0, "lon": -77.00790283333333, "is_disabled": 0, "fusion_lat": 0.0, "lat": 38.9126875, "bike_id": "dddc43f266dbc95a5e47a8eb45edebfe", "fusion_lon": 0.0}, {"rental_uris": {"ios": "https://dc.lft.to/lastmile_qr_scan", "android": "https://dc.lft.to/lastmile_qr_scan"}, "type": "electric_scooter", "name": "dd5e07aa1d26616798f7910045d1e562", "is_reserved": 0, "lon": -77.02741333333333, "is_disabled": 0, "fusion_lat": 0.0, "lat": 38.92391333333333, "bike_id": "dd5e07aa1d26616798f7910045d1e562", "fusion_lon": 0.0}, {"rental_uris": {"ios": "https://dc.lft.to/lastmile_qr_scan", "android": "https://dc.lft.to/lastmile_qr_scan"}, "type": "electric_scooter", "name": "57ea284cea2c23c556ac7f90d9cddfca", "is_reserved": 0, "lon": -77.07677233333334, "is_disabled": 0, "fusion_lat": 0.0, "lat": 38.89296083333333, "bike_id": "57ea284cea2c23c556ac7f90d9cddfca", "fusion_lon": 0.0}, {"rental_uris": {"ios": "https://dc.lft.to/lastmile_qr_scan", "android": "https://dc.lft.to/lastmile_qr_scan"}, "type": "electric_scooter", "name": "1afdfb668f8fb98891d42c6bc881b027", "is_reserved": 0, "lon": -76.99476283333334, "is_disabled": 0, "fusion_lat": 0.0, "lat": 38.862097166666665, "bike_id": "1afdfb668f8fb98891d42c6bc881b027", "fusion_lon": 0.0}, {"rental_uris": {"ios": "https://dc.lft.to/lastmile_qr_scan", "android": "https://dc.lft.to/lastmile_qr_scan"}, "type": "electric_scooter", "name": "288f2e5d58123179e88f8c70f45fa80f", "is_reserved": 0, "lon": -77.07242516666666, "is_disabled": 0, "fusion_lat": 0.0, "lat": 38.93432116666666, "bike_id": "288f2e5d58123179e88f8c70f45fa80f", "fusion_lon": 0.0}, {"rental_uris": {"ios": "https://dc.lft.to/lastmile_qr_scan", "android": "https://dc.lft.to/lastmile_qr_scan"}, "type": "electric_scooter", "name": "b27b5b059b2a4bb192ed6b4af0534802", "is_reserved": 0, "lon": -77.00347033333334, "is_disabled": 0, "fusion_lat": 0.0, "lat": 38.877305666666665, "bike_id": "b27b5b059b2a4bb192ed6b4af0534802", "fusion_lon": 0.0}, {"rental_uris": {"ios": "https://dc.lft.to/lastmile_qr_scan", "android": "https://dc.lft.to/lastmile_qr_scan"}, "type": "electric_scooter", "name": "41df1cfdf3dc8f4bf9301fc8e9279458", "is_reserved": 0, "lon": -77.01898583333333, "is_disabled": 0, "fusion_lat": 0.0, "lat": 38.90960583333333, "bike_id": "41df1cfdf3dc8f4bf9301fc8e9279458", "fusion_lon": 0.0}, {"rental_uris": {"ios": "https://dc.lft.to/lastmile_qr_scan", "android": "https://dc.lft.to/lastmile_qr_scan"}, "type": "electric_scooter", "name": "8a860e2870afe00367fa25b56dbcc859", "is_reserved": 0, "lon": -77.04663183333334, "is_disabled": 0, "fusion_lat": 0.0, "lat": 38.917926, "bike_id": "8a860e2870afe00367fa25b56dbcc859", "fusion_lon": 0.0}, {"rental_uris": {"ios": "https://dc.lft.to/lastmile_qr_scan", "android": "https://dc.lft.to/lastmile_qr_scan"}, "type": "electric_scooter", "name": "19af46e0cefd038679ad96925c429dc5", "is_reserved": 0, "lon": -77.02150583333334, "is_disabled": 0, "fusion_lat": 0.0, "lat": 38.902987, "bike_id": "19af46e0cefd038679ad96925c429dc5", "fusion_lon": 0.0}, {"rental_uris": {"ios": "https://dc.lft.to/lastmile_qr_scan", "android": "https://dc.lft.to/lastmile_qr_scan"}, "type": "electric_scooter", "name": "5b9917978e7f8766ddbabf53dd467f89", "is_reserved": 0, "lon": -77.01962266666666, "is_disabled": 0, "fusion_lat": 0.0, "lat": 38.933857, "bike_id": "5b9917978e7f8766ddbabf53dd467f89", "fusion_lon": 0.0}, {"rental_uris": {"ios": "https://dc.lft.to/lastmile_qr_scan", "android": "https://dc.lft.to/lastmile_qr_scan"}, "type": "electric_scooter", "name": "6c2939dd72e0eef7c4cba0511b785b46", "is_reserved": 0, "lon": -77.04533466666666, "is_disabled": 0, "fusion_lat": 0.0, "lat": 38.89721466666667, "bike_id": "6c2939dd72e0eef7c4cba0511b785b46", "fusion_lon": 0.0}, {"rental_uris": {"ios": "https://dc.lft.to/lastmile_qr_scan", "android": "https://dc.lft.to/lastmile_qr_scan"}, "type": "electric_scooter", "name": "5ca13d1eb745f555b4c02cc2f6c8eecf", "is_reserved": 0, "lon": -77.02196233333333, "is_disabled": 0, "fusion_lat": 0.0, "lat": 38.896193333333336, "bike_id": "5ca13d1eb745f555b4c02cc2f6c8eecf", "fusion_lon": 0.0}, {"rental_uris": {"ios": "https://dc.lft.to/lastmile_qr_scan", "android": "https://dc.lft.to/lastmile_qr_scan"}, "type": "electric_scooter", "name": "5f04b0c325def89edb3671d4f6250403", "is_reserved": 0, "lon": -76.99100483333334, "is_disabled": 0, "fusion_lat": 0.0, "lat": 38.8573145, "bike_id": "5f04b0c325def89edb3671d4f6250403", "fusion_lon": 0.0}, {"rental_uris": {"ios": "https://dc.lft.to/lastmile_qr_scan", "android": "https://dc.lft.to/lastmile_qr_scan"}, "type": "electric_scooter", "name": "600acfd695296d99d50f5b5892e1b7d9", "is_reserved": 0, "lon": -77.05323, "is_disabled": 0, "fusion_lat": 0.0, "lat": 38.902633333333334, "bike_id": "600acfd695296d99d50f5b5892e1b7d9", "fusion_lon": 0.0}, {"rental_uris": {"ios": "https://dc.lft.to/lastmile_qr_scan", "android": "https://dc.lft.to/lastmile_qr_scan"}, "type": "electric_scooter", "name": "5c54aa3368a707401d704e394a0f1ee0", "is_reserved": 0, "lon": -77.03130983333334, "is_disabled": 0, "fusion_lat": 0.0, "lat": 38.9186435, "bike_id": "5c54aa3368a707401d704e394a0f1ee0", "fusion_lon": 0.0}, {"rental_uris": {"ios": "https://dc.lft.to/lastmile_qr_scan", "android": "https://dc.lft.to/lastmile_qr_scan"}, "type": "electric_scooter", "name": "1bac7151efadab5b6fbf93f51308e5e8", "is_reserved": 0, "lon": -77.04184616666667, "is_disabled": 0, "fusion_lat": 0.0, "lat": 38.911249833333336, "bike_id": "1bac7151efadab5b6fbf93f51308e5e8", "fusion_lon": 0.0}, {"rental_uris": {"ios": "https://dc.lft.to/lastmile_qr_scan", "android": "https://dc.lft.to/lastmile_qr_scan"}, "type": "electric_scooter", "name": "a008dbcff368ef755c9bcb7c59ee70d4", "is_reserved": 0, "lon": -76.98887666666667, "is_disabled": 0, "fusion_lat": 0.0, "lat": 38.899552666666665, "bike_id": "a008dbcff368ef755c9bcb7c59ee70d4", "fusion_lon": 0.0}, {"rental_uris": {"ios": "https://dc.lft.to/lastmile_qr_scan", "android": "https://dc.lft.to/lastmile_qr_scan"}, "type": "electric_scooter", "name": "d8a241a4a487f1f2e0cf7ed206795e5d", "is_reserved": 0, "lon": -77.03205833333334, "is_disabled": 0, "fusion_lat": 0.0, "lat": 38.892318833333334, "bike_id": "d8a241a4a487f1f2e0cf7ed206795e5d", "fusion_lon": 0.0}, {"rental_uris": {"ios": "https://dc.lft.to/lastmile_qr_scan", "android": "https://dc.lft.to/lastmile_qr_scan"}, "type": "electric_scooter", "name": "a1bc9dc60383fcbd410cccde3f1a6519", "is_reserved": 0, "lon": -77.03185016666667, "is_disabled": 0, "fusion_lat": 0.0, "lat": 38.924895, "bike_id": "a1bc9dc60383fcbd410cccde3f1a6519", "fusion_lon": 0.0}, {"rental_uris": {"ios": "https://dc.lft.to/lastmile_qr_scan", "android": "https://dc.lft.to/lastmile_qr_scan"}, "type": "electric_scooter", "name": "3b0a3387dbbb081c26319d9498878c67", "is_reserved": 0, "lon": -77.041706, "is_disabled": 0, "fusion_lat": 0.0, "lat": 38.9016425, "bike_id": "3b0a3387dbbb081c26319d9498878c67", "fusion_lon": 0.0}, {"rental_uris": {"ios": "https://dc.lft.to/lastmile_qr_scan", "android": "https://dc.lft.to/lastmile_qr_scan"}, "type": "electric_scooter", "name": "32507633e4a7c6b113c23e8f663438c7", "is_reserved": 0, "lon": -77.02572616666667, "is_disabled": 0, "fusion_lat": 0.0, "lat": 38.89041233333333, "bike_id": "32507633e4a7c6b113c23e8f663438c7", "fusion_lon": 0.0}, {"rental_uris": {"ios": "https://dc.lft.to/lastmile_qr_scan", "android": "https://dc.lft.to/lastmile_qr_scan"}, "type": "electric_scooter", "name": "c8433a87a29ca8ffd6b27c8318a3da49", "is_reserved": 0, "lon": -77.00738133333333, "is_disabled": 0, "fusion_lat": 0.0, "lat": 38.89843283333333, "bike_id": "c8433a87a29ca8ffd6b27c8318a3da49", "fusion_lon": 0.0}, {"rental_uris": {"ios": "https://dc.lft.to/lastmile_qr_scan", "android": "https://dc.lft.to/lastmile_qr_scan"}, "type": "electric_scooter", "name": "efed32e0bcab53082af1e1938f786b09", "is_reserved": 0, "lon": -77.03225566666667, "is_disabled": 0, "fusion_lat": 0.0, "lat": 38.90710983333334, "bike_id": "efed32e0bcab53082af1e1938f786b09", "fusion_lon": 0.0}, {"rental_uris": {"ios": "https://dc.lft.to/lastmile_qr_scan", "android": "https://dc.lft.to/lastmile_qr_scan"}, "type": "electric_scooter", "name": "391a72103a2e297f9b4bd5ac8d3e5d74", "is_reserved": 0, "lon": -77.02806866666667, "is_disabled": 0, "fusion_lat": 0.0, "lat": 38.909424666666666, "bike_id": "391a72103a2e297f9b4bd5ac8d3e5d74", "fusion_lon": 0.0}, {"rental_uris": {"ios": "https://dc.lft.to/lastmile_qr_scan", "android": "https://dc.lft.to/lastmile_qr_scan"}, "type": "electric_scooter", "name": "429ea8bf26ba6b0ccef68215b7de377d", "is_reserved": 0, "lon": -77.04486216666666, "is_disabled": 0, "fusion_lat": 0.0, "lat": 38.9060345, "bike_id": "429ea8bf26ba6b0ccef68215b7de377d", "fusion_lon": 0.0}, {"rental_uris": {"ios": "https://dc.lft.to/lastmile_qr_scan", "android": "https://dc.lft.to/lastmile_qr_scan"}, "type": "electric_scooter", "name": "24e60b4ca1d0763361f300d79462f7b3", "is_reserved": 0, "lon": -77.01996466666667, "is_disabled": 0, "fusion_lat": 0.0, "lat": 38.915252833333334, "bike_id": "24e60b4ca1d0763361f300d79462f7b3", "fusion_lon": 0.0}, {"rental_uris": {"ios": "https://dc.lft.to/lastmile_qr_scan", "android": "https://dc.lft.to/lastmile_qr_scan"}, "type": "electric_scooter", "name": "fd51e6ded13aa7d3a2cc14775f6770aa", "is_reserved": 0, "lon": -77.02591466666667, "is_disabled": 0, "fusion_lat": 0.0, "lat": 38.963975, "bike_id": "fd51e6ded13aa7d3a2cc14775f6770aa", "fusion_lon": 0.0}, {"rental_uris": {"ios": "https://dc.lft.to/lastmile_qr_scan", "android": "https://dc.lft.to/lastmile_qr_scan"}, "type": "electric_bike", "name": "6c0398fb648e56c09cc206d3487cb220", "is_reserved": 0, "lon": -76.91805366666667, "is_disabled": 0, "fusion_lat": 0.0, "lat": 39.00004416666667, "bike_id": "6c0398fb648e56c09cc206d3487cb220", "fusion_lon": 0.0}, {"rental_uris": {"ios": "https://dc.lft.to/lastmile_qr_scan", "android": "https://dc.lft.to/lastmile_qr_scan"}, "type": "electric_scooter", "name": "5d85602d3a2fdcb65bdd8606c6621621", "is_reserved": 0, "lon": -77.0055465, "is_disabled": 0, "fusion_lat": 0.0, "lat": 38.875359333333336, "bike_id": "5d85602d3a2fdcb65bdd8606c6621621", "fusion_lon": 0.0}, {"rental_uris": {"ios": "https://dc.lft.to/lastmile_qr_scan", "android": "https://dc.lft.to/lastmile_qr_scan"}, "type": "electric_bike", "name": "056b035a8b5fa21b1339a679c591a64d", "is_reserved": 0, "lon": -77.02698516666666, "is_disabled": 0, "fusion_lat": 0.0, "lat": 38.90677433333333, "bike_id": "056b035a8b5fa21b1339a679c591a64d", "fusion_lon": 0.0}, {"rental_uris": {"ios": "https://dc.lft.to/lastmile_qr_scan", "android": "https://dc.lft.to/lastmile_qr_scan"}, "type": "electric_scooter", "name": "16a82dd5a3d5a1aec711ece88609115a", "is_reserved": 0, "lon": -77.03466033333333, "is_disabled": 0, "fusion_lat": 0.0, "lat": 38.929584166666665, "bike_id": "16a82dd5a3d5a1aec711ece88609115a", "fusion_lon": 0.0}, {"rental_uris": {"ios": "https://dc.lft.to/lastmile_qr_scan", "android": "https://dc.lft.to/lastmile_qr_scan"}, "type": "electric_scooter", "name": "601974268f315a6cfab5980e22335373", "is_reserved": 0, "lon": -77.03761466666667, "is_disabled": 0, "fusion_lat": 0.0, "lat": 38.901297666666665, "bike_id": "601974268f315a6cfab5980e22335373", "fusion_lon": 0.0}, {"rental_uris": {"ios": "https://dc.lft.to/lastmile_qr_scan", "android": "https://dc.lft.to/lastmile_qr_scan"}, "type": "electric_scooter", "name": "e0f36185150f26dab37dc3d8a0908623", "is_reserved": 0, "lon": -76.93815183333334, "is_disabled": 0, "fusion_lat": 0.0, "lat": 38.89842633333333, "bike_id": "e0f36185150f26dab37dc3d8a0908623", "fusion_lon": 0.0}, {"rental_uris": {"ios": "https://dc.lft.to/lastmile_qr_scan", "android": "https://dc.lft.to/lastmile_qr_scan"}, "type": "electric_scooter", "name": "b6e278c9da40c905aa45d6af2c312a85", "is_reserved": 0, "lon": -77.04196433333334, "is_disabled": 0, "fusion_lat": 0.0, "lat": 38.91669733333333, "bike_id": "b6e278c9da40c905aa45d6af2c312a85", "fusion_lon": 0.0}, {"rental_uris": {"ios": "https://dc.lft.to/lastmile_qr_scan", "android": "https://dc.lft.to/lastmile_qr_scan"}, "type": "electric_scooter", "name": "3a386d7aad89fc614ac39d8ac29e8a75", "is_reserved": 0, "lon": -77.0179775, "is_disabled": 0, "fusion_lat": 0.0, "lat": 38.88592833333333, "bike_id": "3a386d7aad89fc614ac39d8ac29e8a75", "fusion_lon": 0.0}, {"rental_uris": {"ios": "https://dc.lft.to/lastmile_qr_scan", "android": "https://dc.lft.to/lastmile_qr_scan"}, "type": "electric_bike", "name": "6b24efa4036d08ab4c6957d6695341c7", "is_reserved": 0, "lon": -77.12981416666666, "is_disabled": 0, "fusion_lat": 0.0, "lat": 38.799835, "bike_id": "6b24efa4036d08ab4c6957d6695341c7", "fusion_lon": 0.0}, {"rental_uris": {"ios": "https://dc.lft.to/lastmile_qr_scan", "android": "https://dc.lft.to/lastmile_qr_scan"}, "type": "electric_scooter", "name": "8b275ae815c1456bbbe55b26595fde5e", "is_reserved": 0, "lon": -77.04181216666667, "is_disabled": 0, "fusion_lat": 0.0, "lat": 38.9140575, "bike_id": "8b275ae815c1456bbbe55b26595fde5e", "fusion_lon": 0.0}, {"rental_uris": {"ios": "https://dc.lft.to/lastmile_qr_scan", "android": "https://dc.lft.to/lastmile_qr_scan"}, "type": "electric_scooter", "name": "32dc4218c47d3ceb74d20b357069458b", "is_reserved": 0, "lon": -77.048657, "is_disabled": 0, "fusion_lat": 0.0, "lat": 38.89220533333334, "bike_id": "32dc4218c47d3ceb74d20b357069458b", "fusion_lon": 0.0}, {"rental_uris": {"ios": "https://dc.lft.to/lastmile_qr_scan", "android": "https://dc.lft.to/lastmile_qr_scan"}, "type": "electric_bike", "name": "53991b9c9b0ed5d98d1590a88116bbe0", "is_reserved": 0, "lon": -76.98347566666666, "is_disabled": 0, "fusion_lat": 0.0, "lat": 38.862629166666665, "bike_id": "53991b9c9b0ed5d98d1590a88116bbe0", "fusion_lon": 0.0}, {"rental_uris": {"ios": "https://dc.lft.to/lastmile_qr_scan", "android": "https://dc.lft.to/lastmile_qr_scan"}, "type": "electric_scooter", "name": "f3841be8ccfae4930dda83bc67488dd4", "is_reserved": 0, "lon": -77.01449783333334, "is_disabled": 0, "fusion_lat": 0.0, "lat": 38.8994165, "bike_id": "f3841be8ccfae4930dda83bc67488dd4", "fusion_lon": 0.0}, {"rental_uris": {"ios": "https://dc.lft.to/lastmile_qr_scan", "android": "https://dc.lft.to/lastmile_qr_scan"}, "type": "electric_scooter", "name": "30991294fb614b5c342e2436322daa51", "is_reserved": 0, "lon": -77.0278765, "is_disabled": 0, "fusion_lat": 0.0, "lat": 38.892191833333335, "bike_id": "30991294fb614b5c342e2436322daa51", "fusion_lon": 0.0}, {"rental_uris": {"ios": "https://dc.lft.to/lastmile_qr_scan", "android": "https://dc.lft.to/lastmile_qr_scan"}, "type": "electric_bike", "name": "a0142177ee7c9f0b2112b027d8b3bdb8", "is_reserved": 0, "lon": -77.020266, "is_disabled": 0, "fusion_lat": 0.0, "lat": 38.9655855, "bike_id": "a0142177ee7c9f0b2112b027d8b3bdb8", "fusion_lon": 0.0}, {"rental_uris": {"ios": "https://dc.lft.to/lastmile_qr_scan", "android": "https://dc.lft.to/lastmile_qr_scan"}, "type": "electric_scooter", "name": "11ff50c088b1a16971193896918e21c4", "is_reserved": 0, "lon": -77.0490175, "is_disabled": 0, "fusion_lat": 0.0, "lat": 38.90296633333333, "bike_id": "11ff50c088b1a16971193896918e21c4", "fusion_lon": 0.0}, {"rental_uris": {"ios": "https://dc.lft.to/lastmile_qr_scan", "android": "https://dc.lft.to/lastmile_qr_scan"}, "type": "electric_scooter", "name": "334829dc9adb23761d28df1d7adb519a", "is_reserved": 0, "lon": -77.02324833333333, "is_disabled": 0, "fusion_lat": 0.0, "lat": 38.909632, "bike_id": "334829dc9adb23761d28df1d7adb519a", "fusion_lon": 0.0}, {"rental_uris": {"ios": "https://dc.lft.to/lastmile_qr_scan", "android": "https://dc.lft.to/lastmile_qr_scan"}, "type": "electric_scooter", "name": "ffc5d75a2cd3263ab2f9b405e9edfc52", "is_reserved": 0, "lon": -77.06336016666667, "is_disabled": 0, "fusion_lat": 0.0, "lat": 38.908435833333336, "bike_id": "ffc5d75a2cd3263ab2f9b405e9edfc52", "fusion_lon": 0.0}, {"rental_uris": {"ios": "https://dc.lft.to/lastmile_qr_scan", "android": "https://dc.lft.to/lastmile_qr_scan"}, "type": "electric_scooter", "name": "6be2425957261034b7dc9448b81a7f21", "is_reserved": 0, "lon": -77.01374483333333, "is_disabled": 0, "fusion_lat": 0.0, "lat": 38.86961683333333, "bike_id": "6be2425957261034b7dc9448b81a7f21", "fusion_lon": 0.0}, {"rental_uris": {"ios": "https://dc.lft.to/lastmile_qr_scan", "android": "https://dc.lft.to/lastmile_qr_scan"}, "type": "electric_bike", "name": "cdb75e5150e7d61d0ffdc4256848167d", "is_reserved": 0, "lon": -76.98277816666666, "is_disabled": 0, "fusion_lat": 0.0, "lat": 38.84679716666667, "bike_id": "cdb75e5150e7d61d0ffdc4256848167d", "fusion_lon": 0.0}, {"rental_uris": {"ios": "https://dc.lft.to/lastmile_qr_scan", "android": "https://dc.lft.to/lastmile_qr_scan"}, "type": "electric_scooter", "name": "46a233c4d39e26bd37fd27d3911b59f2", "is_reserved": 0, "lon": -77.04530683333333, "is_disabled": 0, "fusion_lat": 0.0, "lat": 38.932732, "bike_id": "46a233c4d39e26bd37fd27d3911b59f2", "fusion_lon": 0.0}, {"rental_uris": {"ios": "https://dc.lft.to/lastmile_qr_scan", "android": "https://dc.lft.to/lastmile_qr_scan"}, "type": "electric_bike", "name": "06d1c5dc1a0fce58bc84ed1a62c0463d", "is_reserved": 0, "lon": -76.97572516666666, "is_disabled": 0, "fusion_lat": 0.0, "lat": 38.89947083333333, "bike_id": "06d1c5dc1a0fce58bc84ed1a62c0463d", "fusion_lon": 0.0},