{"data": {"bikes": [{"rental_uris": {"ios": "https://dc.lft.to/lastmile_qr_scan", "android": "https://dc.lft.to/lastmile_qr_scan"}, "lat": 38.8768705, "lon": -77.0175585, "fusion_lat": 0.0, "name": "731e04d1b564383fe80883f0598b095f", "is_disabled": 0, "is_reserved": 0, "bike_id": "731e04d1b564383fe80883f0598b095f", "fusion_lon": 0.0, "type": "electric_scooter"}, {"rental_uris": {"ios": "https://dc.lft.to/lastmile_qr_scan", "android": "https://dc.lft.to/lastmile_qr_scan"}, "lat": 38.89357783333333, "lon": -76.94933383333333, "fusion_lat": 0.0, "name": "e7cc3ae246acb7d97c23195ff734a299", "is_disabled": 0, "is_reserved": 0, "bike_id": "e7cc3ae246acb7d97c23195ff734a299", "fusion_lon": 0.0, "type": "electric_scooter"}, {"rental_uris": {"ios": "https://dc.lft.to/lastmile_qr_scan", "android": "https://dc.lft.to/lastmile_qr_scan"}, "lat": 38.919554, "lon": -77.0178415, "fusion_lat": 0.0, "name": "ab1a9d626cb33677bfa3d5748c241ffc", "is_disabled": 0, "is_reserved": 0, "bike_id": "ab1a9d626cb33677bfa3d5748c241ffc", "fusion_lon": 0.0, "type": "electric_scooter"}, {"rental_uris": {"ios": "https://dc.lft.to/lastmile_qr_scan", "android": "https://dc.lft.to/lastmile_qr_scan"}, "lat": 38.821713, "lon": -76.99508033333333, "fusion_lat": 0.0, "name": "c6399c9c91cd80f4a8664f278ce727cd", "is_disabled": 0, "is_reserved": 0, "bike_id": "c6399c9c91cd80f4a8664f278ce727cd", "fusion_lon": 0.0, "type": "electric_bike"}, {"rental_uris": {"ios": "https://dc.lft.to/lastmile_qr_scan", "android": "https://dc.lft.to/lastmile_qr_scan"}, "lat": 38.846442333333336, "lon": -76.99129383333333, "fusion_lat": 0.0, "name": "991ea0891350b6e5190895315cabe1e4", "is_disabled": 0, "is_reserved": 0, "bike_id": "991ea0891350b6e5190895315cabe1e4", "fusion_lon": 0.0, "type": "electric_scooter"}, {"rental_uris": {"ios": "https://dc.lft.to/lastmile_qr_scan", "android": "https://dc.lft.to/lastmile_qr_scan"}, "lat": 38.902669833333334, "lon": -77.021708, "fusion_lat": 0.0, "name": "b697748747713d37bb67b85ea768a9c0", "is_disabled": 0, "is_reserved": 0, "bike_id": "b697748747713d37bb67b85ea768a9c0", "fusion_lon": 0.0, "type": "electric_scooter"}, {"rental_uris": {"ios": "https://dc.lft.to/lastmile_qr_scan", "android": "https://dc.lft.to/lastmile_qr_scan"}, "lat": 38.91702566666667, "lon": -77.03473283333334, "fusion_lat": 0.0, "name": "1aec26b5db8995870d1534d91014a2ce", "is_disabled": 0, "is_reserved": 0, "bike_id": "1aec26b5db8995870d1534d91014a2ce", "fusion_lon": 0.0, "type": "electric_scooter"}, {"rental_uris": {"ios": "https://dc.lft.to/lastmile_qr_scan", "android": "https://dc.lft.to/lastmile_qr_scan"}, "lat": 38.906299, "lon": -77.02188266666667, "fusion_lat": 0.0, "name": "6d82d5ab685bc9c42e72d40c86dbbab6", "is_disabled": 0, "is_reserved": 0, "bike_id": "6d82d5ab685bc9c42e72d40c86dbbab6", "fusion_lon": 0.0, "type": "electric_scooter"}, {"rental_uris": {"ios": "https://dc.lft.to/lastmile_qr_scan", "android": "https://dc.lft.to/lastmile_qr_scan"}, "lat": 38.845969333333336, "lon": -77.108635, "fusion_lat": 0.0, "name": "502a963073d6ec04beafe51eb3a4ec63", "is_disabled": 0, "is_reserved": 0, "bike_id": "502a963073d6ec04beafe51eb3a4ec63", "fusion_lon": 0.0, "type": "electric_bike"}, {"rental_uris": {"ios": "https://dc.lft.to/lastmile_qr_scan", "android": "https://dc.lft.to/lastmile_qr_scan"}, "lat": 38.90154833333333, "lon": -77.029468, "fusion_lat": 0.0, "name": "a3447e0381cd6c0829fc65908f9a13cd", "is_disabled": 0, "is_reserved": 0, "bike_id": "a3447e0381cd6c0829fc65908f9a13cd", "fusion_lon": 0.0, "type": "electric_scooter"}, {"rental_uris": {"ios": "https://dc.lft.to/lastmile_qr_scan", "android": "https://dc.lft.to/lastmile_qr_scan"}, "lat": 38.91413516666667, "lon": -77.021232, "fusion_lat": 0.0, "name": "2ec46a583614ad73fc6780dd2dc4ea99", "is_disabled": 0, "is_reserved": 0, "bike_id": "2ec46a583614ad73fc6780dd2dc4ea99", "fusion_lon": 0.0, "type": "electric_scooter"}, {"rental_uris": {"ios": "https://dc.lft.to/lastmile_qr_scan", "android": "https://dc.lft.to/lastmile_qr_scan"}, "lat": 38.905591333333334, "lon": -77.0652375, "fusion_lat": 0.0, "name": "bd74491b539831e1bd2e2c8b07c7d4e6", "is_disabled": 0, "is_reserved": 0, "bike_id": "bd74491b539831e1bd2e2c8b07c7d4e6", "fusion_lon": 0.0, "type": "electric_scooter"}, {"rental_uris": {"ios": "https://dc.lft.to/lastmile_qr_scan", "android": "https://dc.lft.to/lastmile_qr_scan"}, "lat": 38.9192565, "lon": -77.01956433333334, "fusion_lat": 0.0, "name": "4a605717e3e5d20c2c8d275be9f53e5b", "is_disabled": 0, "is_reserved": 0, "bike_id": "4a605717e3e5d20c2c8d275be9f53e5b", "fusion_lon": 0.0, "type": "electric_scooter"}, {"rental_uris": {"ios": "https://dc.lft.to/lastmile_qr_scan", "android": "https://dc.lft.to/lastmile_qr_scan"}, "lat": 38.91466533333333, "lon": -76.98112733333333, "fusion_lat": 0.0, "name": "432991e1d7cdc55dcfbf034a445d802e", "is_disabled": 0, "is_reserved": 0, "bike_id": "432991e1d7cdc55dcfbf034a445d802e", "fusion_lon": 0.0, "type": "electric_scooter"}, {"rental_uris": {"ios": "https://dc.lft.to/lastmile_qr_scan", "android": "https://dc.lft.to/lastmile_qr_scan"}, "lat": 38.912715, "lon": -77.02213016666667, "fusion_lat": 0.0, "name": "cec46bafd3ed404bf5b20b229706fc87", "is_disabled": 0, "is_reserved": 0, "bike_id": "cec46bafd3ed404bf5b20b229706fc87", "fusion_lon": 0.0, "type": "electric_scooter"}, {"rental_uris": {"ios": "https://dc.lft.to/lastmile_qr_scan", "android": "https://dc.lft.to/lastmile_qr_scan"}, "lat": 38.9353745, "lon": -77.0235115, "fusion_lat": 0.0, "name": "508b515b425738bd8669b4b3fb1a25d5", "is_disabled": 0, "is_reserved": 0, "bike_id": "508b515b425738bd8669b4b3fb1a25d5", "fusion_lon": 0.0, "type": "electric_scooter"}, {"rental_uris": {"ios": "https://dc.lft.to/lastmile_qr_scan", "android": "https://dc.lft.to/lastmile_qr_scan"}, "lat": 38.92042466666667, "lon": -77.016856, "fusion_lat": 0.0, "name": "f2afa84527759094470c0d5f66e8cbe5", "is_disabled": 0, "is_reserved": 0, "bike_id": "f2afa84527759094470c0d5f66e8cbe5", "fusion_lon": 0.0, "type": "electric_scooter"}, {"rental_uris": {"ios": "https://dc.lft.to/lastmile_qr_scan", "android": "https://dc.lft.to/lastmile_qr_scan"}, "lat": 38.901100666666665, "lon": -77.05132516666667, "fusion_lat": 0.0, "name": "53c053ce3c6fa5563a653b3fef82d5dd", "is_disabled": 0, "is_reserved": 0, "bike_id": "53c053ce3c6fa5563a653b3fef82d5dd", "fusion_lon": 0.0, "type": "electric_scooter"}, {"rental_uris": {"ios": "https://dc.lft.to/lastmile_qr_scan", "android": "https://dc.lft.to/lastmile_qr_scan"}, "lat": 38.9001665, "lon": -76.98699733333333, "fusion_lat": 0.0, "name": "7d7f7a40aa5ba59e1fd84f9084b06ea8", "is_disabled": 0, "is_reserved": 0, "bike_id": "7d7f7a40aa5ba59e1fd84f9084b06ea8", "fusion_lon": 0.0, "type": "electric_scooter"}, {"rental_uris": {"ios": "https://dc.lft.to/lastmile_qr_scan", "android": "https://dc.lft.to/lastmile_qr_scan"}, "lat": 38.918296833333336, "lon": -77.039436, "fusion_lat": 0.0, "name": "8811546aef642d16e016e6256355f286", "is_disabled": 0, "is_reserved": 0, "bike_id": "8811546aef642d16e016e6256355f286", "fusion_lon": 0.0, "type": "electric_scooter"}, {"rental_uris": {"ios": "https://dc.lft.to/lastmile_qr_scan", "android": "https://dc.lft.to/lastmile_qr_scan"}, "lat": 38.873808, "lon": -77.04337366666667, "fusion_lat": 0.0, "name": "c47d452e7f06b31bd9835fe57acdb885", "is_disabled": 0, "is_reserved": 0, "bike_id": "c47d452e7f06b31bd9835fe57acdb885", "fusion_lon": 0.0, "type": "electric_scooter"}, {"rental_uris": {"ios": "https://dc.lft.to/lastmile_qr_scan", "android": "https://dc.lft.to/lastmile_qr_scan"}, "lat": 38.87720616666667, "lon": -77.00322383333334, "fusion_lat": 0.0, "name": "0d235d7a441439ca518f6b80f3ec47b7", "is_disabled": 0, "is_reserved": 0, "bike_id": "0d235d7a441439ca518f6b80f3ec47b7", "fusion_lon": 0.0, "type": "electric_scooter"}, {"rental_uris": {"ios": "https://dc.lft.to/lastmile_qr_scan", "android": "https://dc.lft.to/lastmile_qr_scan"}, "lat": 38.9147445, "lon": -77.04349533333334, "fusion_lat": 0.0, "name": "e167e7128692628abf5f41f7c7aac603", "is_disabled": 0, "is_reserved": 0, "bike_id": "e167e7128692628abf5f41f7c7aac603", "fusion_lon": 0.0, "type": "electric_scooter"}, {"rental_uris": {"ios": "https://dc.lft.to/lastmile_qr_scan", "android": "https://dc.lft.to/lastmile_qr_scan"}, "lat": 38.914532666666666, "lon": -77.02165966666666, "fusion_lat": 0.0, "name": "a90c067da67740c682576f655c858531", "is_disabled": 0, "is_reserved": 0, "bike_id": "a90c067da67740c682576f655c858531", "fusion_lon": 0.0, "type": "electric_scooter"}, {"rental_uris": {"ios": "https://dc.lft.to/lastmile_qr_scan", "android": "https://dc.lft.to/lastmile_qr_scan"}, "lat": 38.916172333333336, "lon": -77.0317225, "fusion_lat": 0.0, "name": "d5fc819aeaa7863f70e5fe42cfaae575", "is_disabled": 0, "is_reserved": 0, "bike_id": "d5fc819aeaa7863f70e5fe42cfaae575", "fusion_lon": 0.0, "type": "electric_scooter"}, {"rental_uris": {"ios": "https://dc.lft.to/lastmile_qr_scan", "android": "https://dc.lft.to/lastmile_qr_scan"}, "lat": 38.905909333333334, "lon": -77.02584016666667, "fusion_lat": 0.0, "name": "8d4fc8cda12ec95446ee341819147f4c", "is_disabled": 0, "is_reserved": 0, "bike_id": "8d4fc8cda12ec95446ee341819147f4c", "fusion_lon": 0.0, "type": "electric_scooter"}, {"rental_uris": {"ios": "https://dc.lft.to/lastmile_qr_scan", "android": "https://dc.lft.to/lastmile_qr_scan"}, "lat": 38.923306333333336, "lon": -77.02429583333333, "fusion_lat": 0.0, "name": "54fb047bb8d95f24373dd5900a988978", "is_disabled": 0, "is_reserved": 0, "bike_id": "54fb047bb8d95f24373dd5900a988978", "fusion_lon": 0.0, "type": "electric_scooter"}, {"rental_uris": {"ios": "https://dc.lft.to/lastmile_qr_scan", "android": "https://dc.lft.to/lastmile_qr_scan"}, "lat": 38.893336833333336, "lon": -76.950604, "fusion_lat": 0.0, "name": "86db8f3cb64ea3845e1fd0b347c81a16", "is_disabled": 0, "is_reserved": 0, "bike_id": "86db8f3cb64ea3845e1fd0b347c81a16", "fusion_lon": 0.0, "type": "electric_scooter"}, {"rental_uris": {"ios": "https://dc.lft.to/lastmile_qr_scan", "android": "https://dc.lft.to/lastmile_qr_scan"}, "lat": 38.8874325, "lon": -77.028445, "fusion_lat": 0.0, "name": "17694d543f74c71e3a06e7f87936801b", "is_disabled": 0, "is_reserved": 0, "bike_id": "17694d543f74c71e3a06e7f87936801b", "fusion_lon": 0.0, "type": "electric_scooter"}, {"rental_uris": {"ios": "https://dc.lft.to/lastmile_qr_scan", "android": "https://dc.lft.to/lastmile_qr_scan"}, "lat": 38.92661, "lon": -77.0232865, "fusion_lat": 0.0, "name": "63f12fde0592c85ec263fb847b8485d5", "is_disabled": 0, "is_reserved": 0, "bike_id": "63f12fde0592c85ec263fb847b8485d5", "fusion_lon": 0.0, "type": "electric_scooter"}, {"rental_uris": {"ios": "https://dc.lft.to/lastmile_qr_scan", "android": "https://dc.lft.to/lastmile_qr_scan"}, "lat": 38.9564875, "lon": -77.01004316666666, "fusion_lat": 0.0, "name": "609488614b788da1cf8e246e826cba9c", "is_disabled": 0, "is_reserved": 0, "bike_id": "609488614b788da1cf8e246e826cba9c", "fusion_lon": 0.0, "type": "electric_scooter"}, {"rental_uris": {"ios": "https://dc.lft.to/lastmile_qr_scan", "android": "https://dc.lft.to/lastmile_qr_scan"}, "lat": 38.901687833333334, "lon": -76.93022233333333, "fusion_lat": 0.0, "name": "77922eb6a60da2734d3fe2898d676e4e", "is_disabled": 0, "is_reserved": 0, "bike_id": "77922eb6a60da2734d3fe2898d676e4e", "fusion_lon": 0.0, "type": "electric_scooter"}, {"rental_uris": {"ios": "https://dc.lft.to/lastmile_qr_scan", "android": "https://dc.lft.to/lastmile_qr_scan"}, "lat": 38.927048, "lon": -77.02092916666666, "fusion_lat": 0.0, "name": "e915afc40df247b3d1cb38370095da9d", "is_disabled": 0, "is_reserved": 0, "bike_id": "e915afc40df247b3d1cb38370095da9d", "fusion_lon": 0.0, "type": "electric_scooter"}, {"rental_uris": {"ios": "https://dc.lft.to/lastmile_qr_scan", "android": "https://dc.lft.to/lastmile_qr_scan"}, "lat": 38.920492833333334, "lon": -77.017671, "fusion_lat": 0.0, "name": "b20167a7b6d1a7b7a96c3bd723fd88df", "is_disabled": 0, "is_reserved": 0, "bike_id": "b20167a7b6d1a7b7a96c3bd723fd88df", "fusion_lon": 0.0, "type": "electric_scooter"}, {"rental_uris": {"ios": "https://dc.lft.to/lastmile_qr_scan", "android": "https://dc.lft.to/lastmile_qr_scan"}, "lat": 38.91563166666667, "lon": -77.02003016666667, "fusion_lat": 0.0, "name": "dc2936915bb8ae8276c7823328a78161", "is_disabled": 0, "is_reserved": 0, "bike_id": "dc2936915bb8ae8276c7823328a78161", "fusion_lon": 0.0, "type": "electric_scooter"}, {"rental_uris": {"ios": "https://dc.lft.to/lastmile_qr_scan", "android": "https://dc.lft.to/lastmile_qr_scan"}, "lat": 38.906348, "lon": -77.025924, "fusion_lat": 0.0, "name": "454763e722529fe63ad8a557cb37ffa5", "is_disabled": 0, "is_reserved": 0, "bike_id": "454763e722529fe63ad8a557cb37ffa5", "fusion_lon": 0.0, "type": "electric_scooter"}, {"rental_uris": {"ios": "https://dc.lft.to/lastmile_qr_scan", "android": "https://dc.lft.to/lastmile_qr_scan"}, "lat": 38.89504566666667, "lon": -77.0228205, "fusion_lat": 0.0, "name": "762a620738df5f76a2bf07efa846b156", "is_disabled": 0, "is_reserved": 0, "bike_id": "762a620738df5f76a2bf07efa846b156", "fusion_lon": 0.0, "type": "electric_scooter"}, {"rental_uris": {"ios": "https://dc.lft.to/lastmile_qr_scan", "android": "https://dc.lft.to/lastmile_qr_scan"}, "lat": 38.915010333333335, "lon": -77.0177555, "fusion_lat": 0.0, "name": "5fe552925bfc6139a341c2979ca0b998", "is_disabled": 0, "is_reserved": 0, "bike_id": "5fe552925bfc6139a341c2979ca0b998", "fusion_lon": 0.0, "type": "electric_scooter"}, {"rental_uris": {"ios": "https://dc.lft.to/lastmile_qr_scan", "android": "https://dc.lft.to/lastmile_qr_scan"}, "lat": 38.956407166666665, "lon": -77.011518, "fusion_lat": 0.0, "name": "1acf01c7c00eed25982ff0cc413e93b1", "is_disabled": 0, "is_reserved": 0, "bike_id": "1acf01c7c00eed25982ff0cc413e93b1", "fusion_lon": 0.0, "type": "electric_scooter"}, {"rental_uris": {"ios": "https://dc.lft.to/lastmile_qr_scan", "android": "https://dc.lft.to/lastmile_qr_scan"}, "lat": 38.87668216666667, "lon": -77.00430066666667, "fusion_lat": 0.0, "name": "781cd1b2f95d5f972861fb8d20f3a86b", "is_disabled": 0, "is_reserved": 0, "bike_id": "781cd1b2f95d5f972861fb8d20f3a86b", "fusion_lon": 0.0, "type": "electric_scooter"}, {"rental_uris": {"ios": "https://dc.lft.to/lastmile_qr_scan", "android": "https://dc.lft.to/lastmile_qr_scan"}, "lat": 38.88647816666667, "lon": -77.00117766666666, "fusion_lat": 0.0, "name": "906f4bcabc353a5362c31ee31d644efd", "is_disabled": 0, "is_reserved": 0, "bike_id": "906f4bcabc353a5362c31ee31d644efd", "fusion_lon": 0.0, "type": "electric_scooter"}, {"rental_uris": {"ios": "https://dc.lft.to/lastmile_qr_scan", "android": "https://dc.lft.to/lastmile_qr_scan"}, "lat": 38.89911433333333, "lon": -77.01382483333333, "fusion_lat": 0.0, "name": "59e370b598ff73df26c8cbc4811a5aba", "is_disabled": 0, "is_reserved": 0, "bike_id": "59e370b598ff73df26c8cbc4811a5aba", "fusion_lon": 0.0, "type": "electric_scooter"}, {"rental_uris": {"ios": "https://dc.lft.to/lastmile_qr_scan", "android": "https://dc.lft.to/lastmile_qr_scan"}, "lat": 38.7985755, "lon": -77.06305833333333, "fusion_lat": 0.0, "name": "f2fa05967c2e7922f24f61275dbdf465", "is_disabled": 0, "is_reserved": 0, "bike_id": "f2fa05967c2e7922f24f61275dbdf465", "fusion_lon": 0.0, "type": "electric_bike"}, {"rental_uris": {"ios": "https://dc.lft.to/lastmile_qr_scan", "android": "https://dc.lft.to/lastmile_qr_scan"}, "lat": 38.87475083333333, "lon": -76.96525566666666, "fusion_lat": 0.0, "name": "0bba03a42bad9bbf2e08f9c938593689", "is_disabled": 0, "is_reserved": 0, "bike_id": "0bba03a42bad9bbf2e08f9c938593689", "fusion_lon": 0.0, "type": "electric_bike"}, {"rental_uris": {"ios": "https://dc.lft.to/lastmile_qr_scan", "android": "https://dc.lft.to/lastmile_qr_scan"}, "lat": 38.9177035, "lon": -77.01130016666667, "fusion_lat": 0.0, "name": "3f6c02adb4efa89154ffdb38eebd8ffe", "is_disabled": 0, "is_reserved": 0, "bike_id": "3f6c02adb4efa89154ffdb38eebd8ffe", "fusion_lon": 0.0, "type": "electric_scooter"}, {"rental_uris": {"ios": "https://dc.lft.to/lastmile_qr_scan", "android": "https://dc.lft.to/lastmile_qr_scan"}, "lat": 38.92349566666667, "lon": -77.0350705, "fusion_lat": 0.0, "name": "8357a0e33ff6e628cb5586c3e88d99e5", "is_disabled": 0, "is_reserved": 0, "bike_id": "8357a0e33ff6e628cb5586c3e88d99e5", "fusion_lon": 0.0, "type": "electric_scooter"}, {"rental_uris": {"ios": "https://dc.lft.to/lastmile_qr_scan", "android": "https://dc.lft.to/lastmile_qr_scan"}, "lat": 38.89616016666667, "lon": -77.01205616666667, "fusion_lat": 0.0, "name": "1a8cc73560d3eba2c04a88ad4f34525e", "is_disabled": 0, "is_reserved": 0, "bike_id": "1a8cc73560d3eba2c04a88ad4f34525e", "fusion_lon": 0.0, "type": "electric_scooter"}, {"rental_uris": {"ios": "https://dc.lft.to/lastmile_qr_scan", "android": "https://dc.lft.to/lastmile_qr_scan"}, "lat": 38.907738333333334, "lon": -77.03765933333334, "fusion_lat": 0.0, "name": "06bb171cf3e0eeaff966a150011f5353", "is_disabled": 0, "is_reserved": 0, "bike_id": "06bb171cf3e0eeaff966a150011f5353", "fusion_lon": 0.0, "type": "electric_scooter"}, {"rental_uris": {"ios": "https://dc.lft.to/lastmile_qr_scan", "android": "https://dc.lft.to/lastmile_qr_scan"}, "lat": 38.884873, "lon": -77.03473016666666, "fusion_lat": 0.0, "name": "1c784098f2fa7ea2e97fc8df7592bad5", "is_disabled": 0, "is_reserved": 0, "bike_id": "1c784098f2fa7ea2e97fc8df7592bad5", "fusion_lon": 0.0, "type": "electric_scooter"}, {"rental_uris": {"ios": "https://dc.lft.to/lastmile_qr_scan", "android": "https://dc.lft.to/lastmile_qr_scan"}, "lat": 38.844710166666665, "lon": -76.978544, "fusion_lat": 0.0, "name": "41799e0ad261b3988a58f159c5150eed", "is_disabled": 0, "is_reserved": 0, "bike_id": "41799e0ad261b3988a58f159c5150eed", "fusion_lon": 0.0, "type": "electric_bike"}, {"rental_uris": {"ios": "https://dc.lft.to/lastmile_qr_scan", "android": "https://dc.lft.to/lastmile_qr_scan"}, "lat": 38.966790333333336, "lon": -77.02250533333333, "fusion_lat": 0.0, "name": "c89a0f2b33ccac19d3c06ffbc20c29b1", "is_disabled": 0, "is_reserved": 0, "bike_id": "c89a0f2b33ccac19d3c06ffbc20c29b1", "fusion_lon": 0.0, "type": "electric_bike"}, {"rental_uris": {"ios": "https://dc.lft.to/lastmile_qr_scan", "android": "https://dc.lft.to/lastmile_qr_scan"}, "lat": 38.9004765, "lon": -76.982889, "fusion_lat": 0.0, "name": "3389e40eb48b7bf2d3d19c8219298b3d", "is_disabled": 0, "is_reserved": 0, "bike_id": "3389e40eb48b7bf2d3d19c8219298b3d", "fusion_lon": 0.0, "type": "electric_scooter"}, {"rental_uris": {"ios": "https://dc.lft.to/lastmile_qr_scan", "android": "https://dc.lft.to/lastmile_qr_scan"}, "lat": 38.905771333333334, "lon": -77.03425816666666, "fusion_lat": 0.0, "name": "14a7b574bfdd6cb1b37e3252f1d96181", "is_disabled": 0, "is_reserved": 0, "bike_id": "14a7b574bfdd6cb1b37e3252f1d96181", "fusion_lon": 0.0, "type": "electric_scooter"}, {"rental_uris": {"ios": "https://dc.lft.to/lastmile_qr_scan", "android": "https://dc.lft.to/lastmile_qr_scan"}, "lat": 38.9019125, "lon": -76.97880616666667, "fusion_lat": 0.0, "name": "c7fc70e3cc10e55bd2bc274a9151bcbe", "is_disabled": 0, "is_reserved": 0, "bike_id": "c7fc70e3cc10e55bd2bc274a9151bcbe", "fusion_lon": 0.0, "type": "electric_scooter"}, {"rental_uris": {"ios": "https://dc.lft.to/lastmile_qr_scan", "android": "https://dc.lft.to/lastmile_qr_scan"}, "lat": 38.92234283333333, "lon": -77.00845983333333, "fusion_lat": 0.0, "name": "7f2ae95b955f8d81de14254d69e5275b", "is_disabled": 0, "is_reserved": 0, "bike_id": "7f2ae95b955f8d81de14254d69e5275b", "fusion_lon": 0.0, "type": "electric_scooter"}, {"rental_uris": {"ios": "https://dc.lft.to/lastmile_qr_scan", "android": "https://dc.lft.to/lastmile_qr_scan"}, "lat": 38.93231316666667, "lon": -76.99511383333333, "fusion_lat": 0.0, "name": "52b32d06973fd84a81ea48f6a3b8ac58", "is_disabled": 0, "is_reserved": 0, "bike_id": "52b32d06973fd84a81ea48f6a3b8ac58", "fusion_lon": 0.0, "type": "electric_scooter"}, {"rental_uris": {"ios": "https://dc.lft.to/lastmile_qr_scan", "android": "https://dc.lft.to/lastmile_qr_scan"}, "lat": 38.91751883333333, "lon": -77.027099, "fusion_lat": 0.0, "name": "aae05c29020e8dedd523070a138f7de7", "is_disabled": 0, "is_reserved": 0, "bike_id": "aae05c29020e8dedd523070a138f7de7", "fusion_lon": 0.0, "type": "electric_scooter"}, {"rental_uris": {"ios": "https://dc.lft.to/lastmile_qr_scan", "android": "https://dc.lft.to/lastmile_qr_scan"}, "lat": 38.88381283333333, "lon": -76.99545333333333, "fusion_lat": 0.0, "name": "76afcdd6e62e819dac63a80e55822684", "is_disabled": 0, "is_reserved": 0, "bike_id": "76afcdd6e62e819dac63a80e55822684", "fusion_lon": 0.0, "type": "electric_scooter"}, {"rental_uris": {"ios": "https://dc.lft.to/lastmile_qr_scan", "android": "https://dc.lft.to/lastmile_qr_scan"}, "lat": 38.84277266666667, "lon": -76.98839366666667, "fusion_lat": 0.0, "name": "62bce7f0b1244a3db277cc4c065fc596", "is_disabled": 0, "is_reserved": 0, "bike_id": "62bce7f0b1244a3db277cc4c065fc596", "fusion_lon": 0.0, "type": "electric_bike"}, {"rental_uris": {"ios": "https://dc.lft.to/lastmile_qr_scan", "android": "https://dc.lft.to/lastmile_qr_scan"}, "lat": 38.8984085, "lon": -77.03116916666667, "fusion_lat": 0.0, "name": "4ebe90d31e9646d546874b5ce2f9aed9", "is_disabled": 0, "is_reserved": 0, "bike_id": "4ebe90d31e9646d546874b5ce2f9aed9", "fusion_lon": 0.0, "type": "electric_scooter"}, {"rental_uris": {"ios": "https://dc.lft.to/lastmile_qr_scan", "android": "https://dc.lft.to/lastmile_qr_scan"}, "lat": 38.91562533333333, "lon": -77.02292983333334, "fusion_lat": 0.0, "name": "a9a52df1f5c89d46de350e6720ecdb8c", "is_disabled": 0, "is_reserved": 0, "bike_id": "a9a52df1f5c89d46de350e6720ecdb8c", "fusion_lon": 0.0, "type": "electric_scooter"}, {"rental_uris": {"ios": "https://dc.lft.to/lastmile_qr_scan", "android": "https://dc.lft.to/lastmile_qr_scan"}, "lat": 38.89912433333333, "lon": -76.93369516666667, "fusion_lat": 0.0, "name": "7d7aac0a25b9f469665b70f1429adbc5", "is_disabled": 0, "is_reserved": 0, "bike_id": "7d7aac0a25b9f469665b70f1429adbc5", "fusion_lon": 0.0, "type": "electric_scooter"}, {"rental_uris": {"ios": "https://dc.lft.to/lastmile_qr_scan", "android": "https://dc.lft.to/lastmile_qr_scan"}, "lat": 38.894910333333335, "lon": -77.02189216666666, "fusion_lat": 0.0, "name": "ea7351dfb01899629b59d0c88324eb7c", "is_disabled": 0, "is_reserved": 0, "bike_id": "ea7351dfb01899629b59d0c88324eb7c", "fusion_lon": 0.0, "type": "electric_scooter"}, {"rental_uris": {"ios": "https://dc.lft.to/lastmile_qr_scan", "android": "https://dc.lft.to/lastmile_qr_scan"}, "lat": 38.905885, "lon": -77.02188866666667, "fusion_lat": 0.0, "name": "4c35c1e926ae929b81fb7a6adb0faba2", "is_disabled": 0, "is_reserved": 0, "bike_id": "4c35c1e926ae929b81fb7a6adb0faba2", "fusion_lon": 0.0, "type": "electric_scooter"}, {"rental_uris": {"ios": "https://dc.lft.to/lastmile_qr_scan", "android": "https://dc.lft.to/lastmile_qr_scan"}, "lat": 38.92315333333333, "lon": -77.0410665, "fusion_lat": 0.0, "name": "582fb90c6497a8ab12a7967dbf14f128", "is_disabled": 0, "is_reserved": 0, "bike_id": "582fb90c6497a8ab12a7967dbf14f128", "fusion_lon": 0.0, "type": "electric_scooter"}, {"rental_uris": {"ios": "https://dc.lft.to/lastmile_qr_scan", "android": "https://dc.lft.to/lastmile_qr_scan"}, "lat": 38.87294216666667, "lon": -77.13934166666667, "fusion_lat": 0.0, "name": "b5bc3f4f7bf2b57e10f8129ef039e687", "is_disabled": 0, "is_reserved": 0, "bike_id": "b5bc3f4f7bf2b57e10f8129ef039e687", "fusion_lon": 0.0, "type": "electric_bike"}, {"rental_uris": {"ios": "https://dc.lft.to/lastmile_qr_scan", "android": "https://dc.lft.to/lastmile_qr_scan"}, "lat": 38.89378716666667, "lon": -77.022769, "fusion_lat": 0.0, "name": "efa2ef6f6303403127ead8d0d1bcd671", "is_disabled": 0, "is_reserved": 0, "bike_id": "efa2ef6f6303403127ead8d0d1bcd671", "fusion_lon": 0.0, "type": "electric_scooter"}, {"rental_uris": {"ios": "https://dc.lft.to/lastmile_qr_scan", "android": "https://dc.lft.to/lastmile_qr_scan"}, "lat": 38.91834033333333, "lon": -77.024535, "fusion_lat": 0.0, "name": "16974db4e0acb9e6f352305ffed91307", "is_disabled": 0, "is_reserved": 0, "bike_id": "16974db4e0acb9e6f352305ffed91307", "fusion_lon": 0.0, "type": "electric_scooter"}, {"rental_uris": {"ios": "https://dc.lft.to/lastmile_qr_scan", "android": "https://dc.lft.to/lastmile_qr_scan"}, "lat": 38.90520883333333, "lon": -77.04157983333333, "fusion_lat": 0.0, "name": "052e0b9cdf57c12d19fca992677e503f", "is_disabled": 0, "is_reserved": 0, "bike_id": "052e0b9cdf57c12d19fca992677e503f", "fusion_lon": 0.0, "type": "electric_scooter"}, {"rental_uris": {"ios": "https://dc.lft.to/lastmile_qr_scan", "android": "https://dc.lft.to/lastmile_qr_scan"}, "lat": 38.878807, "lon": -77.02224533333333, "fusion_lat": 0.0, "name": "11db9da5937c1c70eea0bea57d3b82cd", "is_disabled": 0, "is_reserved": 0, "bike_id": "11db9da5937c1c70eea0bea57d3b82cd", "fusion_lon": 0.0, "type": "electric_scooter"}, {"rental_uris": {"ios": "https://dc.lft.to/lastmile_qr_scan", "android": "https://dc.lft.to/lastmile_qr_scan"}, "lat": 38.9214805, "lon": -77.0351705, "fusion_lat": 0.0, "name": "bf62c1b526e9f08b64b142aa115c2031", "is_disabled": 0, "is_reserved": 0, "bike_id": "bf62c1b526e9f08b64b142aa115c2031", "fusion_lon": 0.0, "type": "electric_scooter"}, {"rental_uris": {"ios": "https://dc.lft.to/lastmile_qr_scan", "android": "https://dc.lft.to/lastmile_qr_scan"}, "lat": 38.87360833333334, "lon": -76.970297, "fusion_lat": 0.0, "name": "f0ee43726c07c7e4b05ebc41c6f17050", "is_disabled": 0, "is_reserved": 0, "bike_id": "f0ee43726c07c7e4b05ebc41c6f17050", "fusion_lon": 0.0, "type": "electric_scooter"}, {"rental_uris": {"ios": "https://dc.lft.to/lastmile_qr_scan", "android": "https://dc.lft.to/lastmile_qr_scan"}, "lat": 38.91716133333333, "lon": -77.02844033333334, "fusion_lat": 0.0, "name": "5f6f3a1e31e8e7081cfe8d6228d2103d", "is_disabled": 0, "is_reserved": 0, "bike_id": "5f6f3a1e31e8e7081cfe8d6228d2103d", "fusion_lon": 0.0, "type": "electric_scooter"}, {"rental_uris": {"ios": "https://dc.lft.to/lastmile_qr_scan", "android": "https://dc.lft.to/lastmile_qr_scan"}, "lat": 38.939175166666665, "lon": -77.0605065, "fusion_lat": 0.0, "name": "aefad0040f340df1fd094eb9e573b01e", "is_disabled": 0, "is_reserved": 0, "bike_id": "aefad0040f340df1fd094eb9e573b01e", "fusion_lon": 0.0, "type": "electric_scooter"}, {"rental_uris": {"ios": "https://dc.lft.to/lastmile_qr_scan", "android": "https://dc.lft.to/lastmile_qr_scan"}, "lat": 38.906432, "lon": -77.0487385, "fusion_lat": 0.0, "name": "f7322d66a41d9289007ad69bccbc3b1e", "is_disabled": 0, "is_reserved": 0, "bike_id": "f7322d66a41d9289007ad69bccbc3b1e", "fusion_lon": 0.0, "type": "electric_scooter"}, {"rental_uris": {"ios": "https://dc.lft.to/lastmile_qr_scan", "android": "https://dc.lft.to/lastmile_qr_scan"}, "lat": 38.90282883333333, "lon": -77.03941166666667, "fusion_lat": 0.0, "name": "74ba095f0d2b3e93c46b04edb84f1596", "is_disabled": 0, "is_reserved": 0, "bike_id": "74ba095f0d2b3e93c46b04edb84f1596", "fusion_lon": 0.0, "type": "electric_scooter"}, {"rental_uris": {"ios": "https://dc.lft.to/lastmile_qr_scan", "android": "https://dc.lft.to/lastmile_qr_scan"}, "lat": 38.923519666666664, "lon": -77.05119266666667, "fusion_lat": 0.0, "name": "207d71bf27300b5c10d06a154abb2c9e", "is_disabled": 0, "is_reserved": 0, "bike_id": "207d71bf27300b5c10d06a154abb2c9e", "fusion_lon": 0.0, "type": "electric_scooter"}, {"rental_uris": {"ios": "https://dc.lft.to/lastmile_qr_scan", "android": "https://dc.lft.to/lastmile_qr_scan"}, "lat": 38.92740833333333, "lon": -77.032726, "fusion_lat": 0.0, "name": "338ceed58a5bd89814fe4ea6a9324351", "is_disabled": 0, "is_reserved": 0, "bike_id": "338ceed58a5bd89814fe4ea6a9324351", "fusion_lon": 0.0, "type": "electric_scooter"}, {"rental_uris": {"ios": "https://dc.lft.to/lastmile_qr_scan", "android": "https://dc.lft.to/lastmile_qr_scan"}, "lat": 38.932232166666665, "lon": -77.03868166666666, "fusion_lat": 0.0, "name": "ba7a43136d68c343a15709735ada2b7a", "is_disabled": 0, "is_reserved": 0, "bike_id": "ba7a43136d68c343a15709735ada2b7a", "fusion_lon": 0.0, "type": "electric_scooter"}, {"rental_uris": {"ios": "https://dc.lft.to/lastmile_qr_scan", "android": "https://dc.lft.to/lastmile_qr_scan"}, "lat": 38.86686, "lon": -76.98570066666667, "fusion_lat": 0.0, "name": "130fd3fc3a5f9d8aef1b9b00c3cf7253", "is_disabled": 0, "is_reserved": 0, "bike_id": "130fd3fc3a5f9d8aef1b9b00c3cf7253", "fusion_lon": 0.0, "type": "electric_scooter"}, {"rental_uris": {"ios": "https://dc.lft.to/lastmile_qr_scan", "android": "https://dc.lft.to/lastmile_qr_scan"}, "lat": 38.9227695, "lon": -77.0368395, "fusion_lat": 0.0, "name": "093f1e9dde992614d09e0bbd7424d870", "is_disabled": 0, "is_reserved": 0, "bike_id": "093f1e9dde992614d09e0bbd7424d870", "fusion_lon": 0.0, "type": "electric_scooter"}, {"rental_uris": {"ios": "https://dc.lft.to/lastmile_qr_scan", "android": "https://dc.lft.to/lastmile_qr_scan"}, "lat": 38.900314333333334, "lon": -77.02709016666667, "fusion_lat": 0.0, "name": "46960193a8617b5ecadb4af2e2b027f1", "is_disabled": 0, "is_reserved": 0, "bike_id": "46960193a8617b5ecadb4af2e2b027f1", "fusion_lon": 0.0, "type": "electric_scooter"}, {"rental_uris": {"ios": "https://dc.lft.to/lastmile_qr_scan", "android": "https://dc.lft.to/lastmile_qr_scan"}, "lat": 38.86686616666667, "lon": -76.98578516666667, "fusion_lat": 0.0, "name": "9106cbbf16bacdeec25c049867108704", "is_disabled": 0, "is_reserved": 0, "bike_id": "9106cbbf16bacdeec25c049867108704", "fusion_lon": 0.0, "type": "electric_scooter"}, {"rental_uris": {"ios": "https://dc.lft.to/lastmile_qr_scan", "android": "https://dc.lft.to/lastmile_qr_scan"}, "lat": 38.93348, "lon": -77.062063, "fusion_lat": 0.0, "name": "5d62e14a313689384f283adda7dbe898", "is_disabled": 0, "is_reserved": 0, "bike_id": "5d62e14a313689384f283adda7dbe898", "fusion_lon": 0.0, "type": "electric_scooter"}, {"rental_uris": {"ios": "https://dc.lft.to/lastmile_qr_scan", "android": "https://dc.lft.to/lastmile_qr_scan"}, "lat": 38.9169655, "lon": -77.04086966666667, "fusion_lat": 0.0, "name": "d8c03b5ed4c027db4211232ed24888e6", "is_disabled": 0, "is_reserved": 0, "bike_id": "d8c03b5ed4c027db4211232ed24888e6", "fusion_lon": 0.0, "type": "electric_scooter"}, {"rental_uris": {"ios": "https://dc.lft.to/lastmile_qr_scan", "android": "https://dc.lft.to/lastmile_qr_scan"}, "lat": 38.8717475, "lon": -77.006817, "fusion_lat": 0.0, "name": "93249372c157ae7fc38fe7cb197dd913", "is_disabled": 0, "is_reserved": 0, "bike_id": "93249372c157ae7fc38fe7cb197dd913", "fusion_lon": 0.0, "type": "electric_scooter"}, {"rental_uris": {"ios": "https://dc.lft.to/lastmile_qr_scan", "android": "https://dc.lft.to/lastmile_qr_scan"}, "lat": 38.925373666666665, "lon": -77.02142366666666, "fusion_lat": 0.0, "name": "ceaa54a7dad87e3ea4f2345d63f0cc28", "is_disabled": 0, "is_reserved": 0, "bike_id": "ceaa54a7dad87e3ea4f2345d63f0cc28", "fusion_lon": 0.0, "type": "electric_scooter"}, {"rental_uris": {"ios": "https://dc.lft.to/lastmile_qr_scan", "android": "https://dc.lft.to/lastmile_qr_scan"}, "lat": 38.922227166666666, "lon": -77.0388205, "fusion_lat": 0.0, "name": "4d35ae38c9965555a5d39045f86e01d2", "is_disabled": 0, "is_reserved": 0, "bike_id": "4d35ae38c9965555a5d39045f86e01d2", "fusion_lon": 0.0, "type": "electric_scooter"}, {"rental_uris": {"ios": "https://dc.lft.to/lastmile_qr_scan", "android": "https://dc.lft.to/lastmile_qr_scan"}, "lat": 38.906788666666664, "lon": -77.02381116666666, "fusion_lat": 0.0, "name": "db7e953fa87d8b9cfb2d779f31fab123", "is_disabled": 0, "is_reserved": 0, "bike_id": "db7e953fa87d8b9cfb2d779f31fab123", "fusion_lon": 0.0, "type": "electric_scooter"}, {"rental_uris": {"ios": "https://dc.lft.to/lastmile_qr_scan", "android": "https://dc.lft.to/lastmile_qr_scan"}, "lat": 38.900225, "lon": -77.01182016666667, "fusion_lat": 0.0, "name": "5e8ef8ec899841644c55f6e7be1fc753", "is_disabled": 0, "is_reserved": 0, "bike_id": "5e8ef8ec899841644c55f6e7be1fc753", "fusion_lon": 0.0, "type": "electric_scooter"}, {"rental_uris": {"ios": "https://dc.lft.to/lastmile_qr_scan", "android": "https://dc.lft.to/lastmile_qr_scan"}, "lat": 38.898947166666666, "lon": -77.022074, "fusion_lat": 0.0, "name": "9193f5a2e63c9a8257e08f468bc330d1", "is_disabled": 0, "is_reserved": 0, "bike_id": "9193f5a2e63c9a8257e08f468bc330d1", "fusion_lon": 0.0, "type": "electric_scooter"}, {"rental_uris": {"ios": "https://dc.lft.to/lastmile_qr_scan", "android": "https://dc.lft.to/lastmile_qr_scan"}, "lat": 38.9388415, "lon": -77.033905, "fusion_lat": 0.0, "name": "d24c1942b51c2f8387a0c43dce42387c", "is_disabled": 0, "is_reserved": 0, "bike_id": "d24c1942b51c2f8387a0c43dce42387c", "fusion_lon": 0.0, "type": "electric_scooter"}, {"rental_uris": {"ios": "https://dc.lft.to/lastmile_qr_scan", "android": "https://dc.lft.to/lastmile_qr_scan"}, "lat": 38.90854133333333, "lon": -76.99799916666667, "fusion_lat": 0.0, "name": "2f1aa9bce37e3a11e873bbc2243cdc24", "is_disabled": 0, "is_reserved": 0, "bike_id": "2f1aa9bce37e3a11e873bbc2243cdc24", "fusion_lon": 0.0, "type": "electric_scooter"}, {"rental_uris": {"ios": "https://dc.lft.to/lastmile_qr_scan", "android": "https://dc.lft.to/lastmile_qr_scan"}, "lat": 38.877330666666666, "lon": -77.02156066666667, "fusion_lat": 0.0, "name": "7a1e890156642f9e53f6e177ee760b10", "is_disabled": 0, "is_reserved": 0, "bike_id": "7a1e890156642f9e53f6e177ee760b10", "fusion_lon": 0.0, "type": "electric_scooter"}, {"rental_uris": {"ios": "https://dc.lft.to/lastmile_qr_scan", "android": "https://dc.lft.to/lastmile_qr_scan"}, "lat": 38.907727333333334, "lon": -77.03468083333334, "fusion_lat": 0.0, "name": "1d9ecc9628c3917163db6c5ae8e089ad", "is_disabled": 0, "is_reserved": 0, "bike_id": "1d9ecc9628c3917163db6c5ae8e089ad", "fusion_lon": 0.0, "type": "electric_scooter"}, {"rental_uris": {"ios": "https://dc.lft.to/lastmile_qr_scan", "android": "https://dc.lft.to/lastmile_qr_scan"}, "lat": 38.87652833333333, "lon": -76.93138, "fusion_lat": 0.0, "name": "faa7afed036db72b6382315755941b28", "is_disabled": 0, "is_reserved": 0, "bike_id": "faa7afed036db72b6382315755941b28", "fusion_lon": 0.0, "type": "electric_scooter"}, {"rental_uris": {"ios": "https://dc.lft.to/lastmile_qr_scan", "android": "https://dc.lft.to/lastmile_qr_scan"}, "lat": 38.8602565, "lon": -76.996844, "fusion_lat": 0.0, "name": "49fa328f89a20b986d504677a6e75022", "is_disabled": 0, "is_reserved": 0, "bike_id": "49fa328f89a20b986d504677a6e75022", "fusion_lon": 0.0, "type": "electric_scooter"}, {"rental_uris": {"ios": "https://dc.lft.to/lastmile_qr_scan", "android": "https://dc.lft.to/lastmile_qr_scan"}, "lat": 38.90813833333333, "lon": -77.03445633333334, "fusion_lat": 0.0, "name": "851c02823a45cfc7e2f9e3edf8d85e24", "is_disabled": 0, "is_reserved": 0, "bike_id": "851c02823a45cfc7e2f9e3edf8d85e24", "fusion_lon": 0.0, "type": "electric_scooter"}, {"rental_uris": {"ios": "https://dc.lft.to/lastmile_qr_scan", "android": "https://dc.lft.to/lastmile_qr_scan"}, "lat": 38.89240866666667, "lon": -77.03349016666667, "fusion_lat": 0.0, "name": "acb60343db509995f162453db4aa0d2f", "is_disabled": 0, "is_reserved": 0, "bike_id": "acb60343db509995f162453db4aa0d2f", "fusion_lon": 0.0, "type": "electric_scooter"}, {"rental_uris": {"ios": "https://dc.lft.to/lastmile_qr_scan", "android": "https://dc.lft.to/lastmile_qr_scan"}, "lat": 38.87660783333333, "lon": -77.00441383333333, "fusion_lat": 0.0, "name": "009afed8e78101eb4be6cec4f6872934", "is_disabled": 0, "is_reserved": 0, "bike_id": "009afed8e78101eb4be6cec4f6872934", "fusion_lon": 0.0, "type": "electric_scooter"}, {"rental_uris": {"ios": "https://dc.lft.to/lastmile_qr_scan", "android": "https://dc.lft.to/lastmile_qr_scan"}, "lat": 38.910992666666665, "lon": -77.04320766666666, "fusion_lat": 0.0, "name": "d3841f4fcde4081e3c6b5fbedc40c4e9", "is_disabled": 0, "is_reserved": 0, "bike_id": "d3841f4fcde4081e3c6b5fbedc40c4e9", "fusion_lon": 0.0, "type": "electric_scooter"}, {"rental_uris": {"ios": "https://dc.lft.to/lastmile_qr_scan", "android": "https://dc.lft.to/lastmile_qr_scan"}, "lat": 38.9041865, "lon": -77.04347683333333, "fusion_lat": 0.0, "name": "d28c3d51277cc664df59342b42346c9d", "is_disabled": 0, "is_reserved": 0, "bike_id": "d28c3d51277cc664df59342b42346c9d", "fusion_lon": 0.0, "type": "electric_scooter"}, {"rental_uris": {"ios": "https://dc.lft.to/lastmile_qr_scan", "android": "https://dc.lft.to/lastmile_qr_scan"}, "lat": 38.896174, "lon": -77.02258233333333, "fusion_lat": 0.0, "name": "389fc79ab8a58bd03c8750d2dbbd22e0", "is_disabled": 0, "is_reserved": 0, "bike_id": "389fc79ab8a58bd03c8750d2dbbd22e0", "fusion_lon": 0.0, "type": "electric_scooter"}, {"rental_uris": {"ios": "https://dc.lft.to/lastmile_qr_scan", "android": "https://dc.lft.to/lastmile_qr_scan"}, "lat": 38.888554166666665, "lon": -77.00048716666667, "fusion_lat": 0.0, "name": "6ead4612dcd564dc0a3a23c51bd41137", "is_disabled": 0, "is_reserved": 0, "bike_id": "6ead4612dcd564dc0a3a23c51bd41137", "fusion_lon": 0.0, "type": "electric_scooter"}, {"rental_uris": {"ios": "https://dc.lft.to/lastmile_qr_scan", "android": "https://dc.lft.to/lastmile_qr_scan"}, "lat": 38.908596833333334, "lon": -77.05486316666666, "fusion_lat": 0.0, "name": "80b985812ac299759b192dc45098168e", "is_disabled": 0, "is_reserved": 0, "bike_id": "80b985812ac299759b192dc45098168e", "fusion_lon": 0.0, "type": "electric_scooter"}, {"rental_uris": {"ios": "https://dc.lft.to/lastmile_qr_scan", "android": "https://dc.lft.to/lastmile_qr_scan"}, "lat": 38.92511783333333, "lon": -77.02285033333334, "fusion_lat": 0.0, "name": "bf5c101314cb6d4633d5c5afe06571f0", "is_disabled": 0, "is_reserved": 0, "bike_id": "bf5c101314cb6d4633d5c5afe06571f0", "fusion_lon": 0.0, "type": "electric_scooter"}, {"rental_uris": {"ios": "https://dc.lft.to/lastmile_qr_scan", "android": "https://dc.lft.to/lastmile_qr_scan"}, "lat": 38.950743, "lon": -77.029891, "fusion_lat": 0.0, "name": "d855dad251359ecc6c2e7f680388f163", "is_disabled": 0, "is_reserved": 0, "bike_id": "d855dad251359ecc6c2e7f680388f163", "fusion_lon": 0.0, "type": "electric_scooter"}, {"rental_uris": {"ios": "https://dc.lft.to/lastmile_qr_scan", "android": "https://dc.lft.to/lastmile_qr_scan"}, "lat": 38.9166835, "lon": -77.02330516666666, "fusion_lat": 0.0, "name": "1716b11711287faddbe8cad7b8f4eee1", "is_disabled": 0, "is_reserved": 0, "bike_id": "1716b11711287faddbe8cad7b8f4eee1", "fusion_lon": 0.0, "type": "electric_scooter"}, {"rental_uris": {"ios": "https://dc.lft.to/lastmile_qr_scan", "android": "https://dc.lft.to/lastmile_qr_scan"}, "lat": 38.90727716666667, "lon": -77.0237515, "fusion_lat": 0.0, "name": "4ff97f741024e345f351adebaf789fde", "is_disabled": 0, "is_reserved": 0, "bike_id": "4ff97f741024e345f351adebaf789fde", "fusion_lon": 0.0, "type": "electric_scooter"}, {"rental_uris": {"ios": "https://dc.lft.to/lastmile_qr_scan", "android": "https://dc.lft.to/lastmile_qr_scan"}, "lat": 38.936097833333335, "lon": -77.05896483333333, "fusion_lat": 0.0, "name": "fa19ec0bfce2b38728aa8c034de80f44", "is_disabled": 0, "is_reserved": 0, "bike_id": "fa19ec0bfce2b38728aa8c034de80f44", "fusion_lon": 0.0, "type": "electric_scooter"}, {"rental_uris": {"ios": "https://dc.lft.to/lastmile_qr_scan", "android": "https://dc.lft.to/lastmile_qr_scan"}, "lat": 38.9037925, "lon": -77.0366105, "fusion_lat": 0.0, "name": "114ef13dbea4b78c54857de531c376b7", "is_disabled": 0, "is_reserved": 0, "bike_id": "114ef13dbea4b78c54857de531c376b7", "fusion_lon": 0.0, "type": "electric_scooter"}, {"rental_uris": {"ios": "https://dc.lft.to/lastmile_qr_scan", "android": "https://dc.lft.to/lastmile_qr_scan"}, "lat": 38.866705833333334, "lon": -76.98538183333334, "fusion_lat": 0.0, "name": "6c4f4a959ab69b5256c23c8833f789bf", "is_disabled": 0, "is_reserved": 0, "bike_id": "6c4f4a959ab69b5256c23c8833f789bf", "fusion_lon": 0.0, "type": "electric_scooter"}, {"rental_uris": {"ios": "https://dc.lft.to/lastmile_qr_scan", "android": "https://dc.lft.to/lastmile_qr_scan"}, "lat": 38.905241833333335, "lon": -77.04336266666667, "fusion_lat": 0.0, "name": "971f928162e93f7c81b648a6f5e1ed87", "is_disabled": 0, "is_reserved": 0, "bike_id": "971f928162e93f7c81b648a6f5e1ed87", "fusion_lon": 0.0, "type": "electric_scooter"}, {"rental_uris": {"ios": "https://dc.lft.to/lastmile_qr_scan", "android": "https://dc.lft.to/lastmile_qr_scan"}, "lat": 38.90162183333333, "lon": -76.93075783333333, "fusion_lat": 0.0, "name": "5e274d1036970990fcaa331eb785a2f5", "is_disabled": 0, "is_reserved": 0, "bike_id": "5e274d1036970990fcaa331eb785a2f5", "fusion_lon": 0.0, "type": "electric_scooter"}, {"rental_uris": {"ios": "https://dc.lft.to/lastmile_qr_scan", "android": "https://dc.lft.to/lastmile_qr_scan"}, "lat": 38.895069, "lon": -77.00336633333333, "fusion_lat": 0.0, "name": "670d24374ac8149675d213233ed0083c", "is_disabled": 0, "is_reserved": 0, "bike_id": "670d24374ac8149675d213233ed0083c", "fusion_lon": 0.0, "type": "electric_scooter"}, {"rental_uris": {"ios": "https://dc.lft.to/lastmile_qr_scan", "android": "https://dc.lft.to/lastmile_qr_scan"}, "lat": 38.91289066666667, "lon": -77.02167566666667, "fusion_lat": 0.0, "name": "a2f2a22c1d9695117f373c6ddf79a4df", "is_disabled": 0, "is_reserved": 0, "bike_id": "a2f2a22c1d9695117f373c6ddf79a4df", "fusion_lon": 0.0, "type": "electric_scooter"}, {"rental_uris": {"ios": "https://dc.lft.to/lastmile_qr_scan", "android": "https://dc.lft.to/lastmile_qr_scan"}, "lat": 38.928577, "lon": -77.03018866666666, "fusion_lat": 0.0, "name": "057250f876a31bfaab8f2aa8b89af37a", "is_disabled": 0, "is_reserved": 0, "bike_id": "057250f876a31bfaab8f2aa8b89af37a", "fusion_lon": 0.0, "type": "electric_scooter"}, {"rental_uris": {"ios": "https://dc.lft.to/lastmile_qr_scan", "android": "https://dc.lft.to/lastmile_qr_scan"}, "lat": 38.88153533333333, "lon": -77.01668133333334, "fusion_lat": 0.0, "name": "da816e9aeed22143d4dc900c26f68a81", "is_disabled": 0, "is_reserved": 0, "bike_id": "da816e9aeed22143d4dc900c26f68a81", "fusion_lon": 0.0, "type": "electric_bike"}, {"rental_uris": {"ios": "https://dc.lft.to/lastmile_qr_scan", "android": "https://dc.lft.to/lastmile_qr_scan"}, "lat": 38.908425333333334, "lon": -77.0344715, "fusion_lat": 0.0, "name": "97f9b59fa5744c83f689bd0796b66d26", "is_disabled": 0, "is_reserved": 0, "bike_id": "97f9b59fa5744c83f689bd0796b66d26", "fusion_lon": 0.0, "type": "electric_scooter"}, {"rental_uris": {"ios": "https://dc.lft.to/lastmile_qr_scan", "android": "https://dc.lft.to/lastmile_qr_scan"}, "lat": 38.9200315, "lon": -77.02172183333333, "fusion_lat": 0.0, "name": "b75556c39b9a2342574a5135faabf329", "is_disabled": 0, "is_reserved": 0, "bike_id": "b75556c39b9a2342574a5135faabf329", "fusion_lon": 0.0, "type": "electric_scooter"}, {"rental_uris": {"ios": "https://dc.lft.to/lastmile_qr_scan", "android": "https://dc.lft.to/lastmile_qr_scan"}, "lat": 38.89983133333333, "lon": -76.99604566666666, "fusion_lat": 0.0, "name": "3b820c8d9e781ccabfff8d61a2d630e5", "is_disabled": 0, "is_reserved": 0, "bike_id": "3b820c8d9e781ccabfff8d61a2d630e5", "fusion_lon": 0.0, "type": "electric_scooter"}, {"rental_uris": {"ios": "https://dc.lft.to/lastmile_qr_scan", "android": "https://dc.lft.to/lastmile_qr_scan"}, "lat": 38.908995833333336, "lon": -77.0457, "fusion_lat": 0.0, "name": "5d896408242862f9cb0dca178986d124", "is_disabled": 0, "is_reserved": 0, "bike_id": "5d896408242862f9cb0dca178986d124", "fusion_lon": 0.0, "type": "electric_scooter"}, {"rental_uris": {"ios": "https://dc.lft.to/lastmile_qr_scan", "android": "https://dc.lft.to/lastmile_qr_scan"}, "lat": 38.9087175, "lon": -76.9979425, "fusion_lat": 0.0, "name": "279dd2813d71ac6b165c83872e5243b5", "is_disabled": 0, "is_reserved": 0, "bike_id": "279dd2813d71ac6b165c83872e5243b5", "fusion_lon": 0.0, "type": "electric_scooter"}, {"rental_uris": {"ios": "https://dc.lft.to/lastmile_qr_scan", "android": "https://dc.lft.to/lastmile_qr_scan"}, "lat": 38.838095833333334, "lon": -77.09523716666666, "fusion_lat": 0.0, "name": "e19e447a0f6aeb31320c51e15537dd6b", "is_disabled": 0, "is_reserved": 0, "bike_id": "e19e447a0f6aeb31320c51e15537dd6b", "fusion_lon": 0.0, "type": "electric_bike"}, {"rental_uris": {"ios": "https://dc.lft.to/lastmile_qr_scan", "android": "https://dc.lft.to/lastmile_qr_scan"}, "lat": 38.96551633333333, "lon": -77.03625333333333, "fusion_lat": 0.0, "name": "a13b4de45d397110ee8f12a20a7e681b", "is_disabled": 0, "is_reserved": 0, "bike_id": "a13b4de45d397110ee8f12a20a7e681b", "fusion_lon": 0.0, "type": "electric_scooter"}, {"rental_uris": {"ios": "https://dc.lft.to/lastmile_qr_scan", "android": "https://dc.lft.to/lastmile_qr_scan"}, "lat": 38.89949983333333, "lon": -77.045273, "fusion_lat": 0.0, "name": "c503c4dbe7aba9aa37cfb4a48ace5705", "is_disabled": 0, "is_reserved": 0, "bike_id": "c503c4dbe7aba9aa37cfb4a48ace5705", "fusion_lon": 0.0, "type": "electric_scooter"}, {"rental_uris": {"ios": "https://dc.lft.to/lastmile_qr_scan", "android": "https://dc.lft.to/lastmile_qr_scan"}, "lat": 38.89878516666667, "lon": -77.0327115, "fusion_lat": 0.0, "name": "158bb0671f5f42c8c41e260e0ad280b1", "is_disabled": 0, "is_reserved": 0, "bike_id": "158bb0671f5f42c8c41e260e0ad280b1", "fusion_lon": 0.0, "type": "electric_scooter"}, {"rental_uris": {"ios": "https://dc.lft.to/lastmile_qr_scan", "android": "https://dc.lft.to/lastmile_qr_scan"}, "lat": 38.88517866666667, "lon": -76.99086483333333, "fusion_lat": 0.0, "name": "807a6871a7dccec7b78af44394b7b6af", "is_disabled": 0, "is_reserved": 0, "bike_id": "807a6871a7dccec7b78af44394b7b6af", "fusion_lon": 0.0, "type": "electric_scooter"}, {"rental_uris": {"ios": "https://dc.lft.to/lastmile_qr_scan", "android": "https://dc.lft.to/lastmile_qr_scan"}, "lat": 38.90261, "lon": -77.03973933333333, "fusion_lat": 0.0, "name": "2c902e141352b2461b4151d505c51445", "is_disabled": 0, "is_reserved": 0, "bike_id": "2c902e141352b2461b4151d505c51445", "fusion_lon": 0.0, "type": "electric_scooter"}, {"rental_uris": {"ios": "https://dc.lft.to/lastmile_qr_scan", "android": "https://dc.lft.to/lastmile_qr_scan"}, "lat": 38.91426283333333, "lon": -77.03181933333333, "fusion_lat": 0.0, "name": "6613f0315cf4829a56c16585f1720dec", "is_disabled": 0, "is_reserved": 0, "bike_id": "6613f0315cf4829a56c16585f1720dec", "fusion_lon": 0.0, "type": "electric_scooter"}, {"rental_uris": {"ios": "https://dc.lft.to/lastmile_qr_scan", "android": "https://dc.lft.to/lastmile_qr_scan"}, "lat": 38.923356, "lon": -77.0461115, "fusion_lat": 0.0, "name": "02f0383e1d32374a73d8b42be86e4094", "is_disabled": 0, "is_reserved": 0, "bike_id": "02f0383e1d32374a73d8b42be86e4094", "fusion_lon": 0.0, "type": "electric_scooter"}, {"rental_uris": {"ios": "https://dc.lft.to/lastmile_qr_scan", "android": "https://dc.lft.to/lastmile_qr_scan"}, "lat": 38.912582, "lon": -77.03826916666667, "fusion_lat": 0.0, "name": "a21478f34af4c663aec406777339dd48", "is_disabled": 0, "is_reserved": 0, "bike_id": "a21478f34af4c663aec406777339dd48", "fusion_lon": 0.0, "type": "electric_scooter"}, {"rental_uris": {"ios": "https://dc.lft.to/lastmile_qr_scan", "android": "https://dc.lft.to/lastmile_qr_scan"}, "lat": 38.9114255, "lon": -77.0239065, "fusion_lat": 0.0, "name": "978ce08d373c075d4d16303d2751fdc2", "is_disabled": 0, "is_reserved": 0, "bike_id": "978ce08d373c075d4d16303d2751fdc2", "fusion_lon": 0.0, "type": "electric_scooter"}, {"rental_uris": {"ios": "https://dc.lft.to/lastmile_qr_scan", "android": "https://dc.lft.to/lastmile_qr_scan"}, "lat": 38.908905833333336, "lon": -76.98238333333333, "fusion_lat": 0.0, "name": "6b3ba1ea393a355b0f35e16101b6ae45", "is_disabled": 0, "is_reserved": 0, "bike_id": "6b3ba1ea393a355b0f35e16101b6ae45", "fusion_lon": 0.0, "type": "electric_scooter"}, {"rental_uris": {"ios": "https://dc.lft.to/lastmile_qr_scan", "android": "https://dc.lft.to/lastmile_qr_scan"}, "lat": 38.91811533333333, "lon": -77.04000583333334, "fusion_lat": 0.0, "name": "65d9ef88ee1605b98ec13dc2df0f9356", "is_disabled": 0, "is_reserved": 0, "bike_id": "65d9ef88ee1605b98ec13dc2df0f9356", "fusion_lon": 0.0, "type": "electric_scooter"}, {"rental_uris": {"ios": "https://dc.lft.to/lastmile_qr_scan", "android": "https://dc.lft.to/lastmile_qr_scan"}, "lat": 38.912293, "lon": -77.0123925, "fusion_lat": 0.0, "name": "354aadfb5574340981023c5f0efa4050", "is_disabled": 0, "is_reserved": 0, "bike_id": "354aadfb5574340981023c5f0efa4050", "fusion_lon": 0.0, "type": "electric_scooter"}, {"rental_uris": {"ios": "https://dc.lft.to/lastmile_qr_scan", "android": "https://dc.lft.to/lastmile_qr_scan"}, "lat": 38.9056085, "lon": -77.02214983333333, "fusion_lat": 0.0, "name": "fa7ab47238c686cdcff8abbcbc3f4720", "is_disabled": 0, "is_reserved": 0, "bike_id": "fa7ab47238c686cdcff8abbcbc3f4720", "fusion_lon": 0.0, "type": "electric_scooter"}, {"rental_uris": {"ios": "https://dc.lft.to/lastmile_qr_scan", "android": "https://dc.lft.to/lastmile_qr_scan"}, "lat": 38.891333333333336, "lon": -76.951884, "fusion_lat": 0.0, "name": "09c81348cbb193c184839c752d2e2316", "is_disabled": 0, "is_reserved": 0, "bike_id": "09c81348cbb193c184839c752d2e2316", "fusion_lon": 0.0, "type": "electric_scooter"}, {"rental_uris": {"ios": "https://dc.lft.to/lastmile_qr_scan", "android": "https://dc.lft.to/lastmile_qr_scan"}, "lat": 38.9139665, "lon": -77.024065, "fusion_lat": 0.0, "name": "0b7fcb1222d92a05cb91605821456e50", "is_disabled": 0, "is_reserved": 0, "bike_id": "0b7fcb1222d92a05cb91605821456e50", "fusion_lon": 0.0, "type": "electric_scooter"}, {"rental_uris": {"ios": "https://dc.lft.to/lastmile_qr_scan", "android": "https://dc.lft.to/lastmile_qr_scan"}, "lat": 38.927627, "lon": -77.05638633333334, "fusion_lat": 0.0, "name": "2eca868dfeb27b647f7adc4b2828ed5a", "is_disabled": 0, "is_reserved": 0, "bike_id": "2eca868dfeb27b647f7adc4b2828ed5a", "fusion_lon": 0.0, "type": "electric_scooter"}, {"rental_uris": {"ios": "https://dc.lft.to/lastmile_qr_scan", "android": "https://dc.lft.to/lastmile_qr_scan"}, "lat": 38.917689, "lon": -77.02313283333334, "fusion_lat": 0.0, "name": "46419d94dbcfc035a20e7870049aca34", "is_disabled": 0, "is_reserved": 0, "bike_id": "46419d94dbcfc035a20e7870049aca34", "fusion_lon": 0.0, "type": "electric_scooter"}, {"rental_uris": {"ios": "https://dc.lft.to/lastmile_qr_scan", "android": "https://dc.lft.to/lastmile_qr_scan"}, "lat": 38.871705, "lon": -77.0062975, "fusion_lat": 0.0, "name": "c6e6b4aca343cc5a08ca677fd83c1dab", "is_disabled": 0, "is_reserved": 0, "bike_id": "c6e6b4aca343cc5a08ca677fd83c1dab", "fusion_lon": 0.0, "type": "electric_scooter"}, {"rental_uris": {"ios": "https://dc.lft.to/lastmile_qr_scan", "android": "https://dc.lft.to/lastmile_qr_scan"}, "lat": 38.900310166666664, "lon": -76.99840183333333, "fusion_lat": 0.0, "name": "85f2c3cee09c852c09d48fd43d4c9890", "is_disabled": 0, "is_reserved": 0, "bike_id": "85f2c3cee09c852c09d48fd43d4c9890", "fusion_lon": 0.0, "type": "electric_scooter"}, {"rental_uris": {"ios": "https://dc.lft.to/lastmile_qr_scan", "android": "https://dc.lft.to/lastmile_qr_scan"}, "lat": 38.89738233333333, "lon": -77.044575, "fusion_lat": 0.0, "name": "1506b1a49fc0aac0a0e4efb28a4e288b", "is_disabled": 0, "is_reserved": 0, "bike_id": "1506b1a49fc0aac0a0e4efb28a4e288b", "fusion_lon": 0.0, "type": "electric_scooter"}, {"rental_uris": {"ios": "https://dc.lft.to/lastmile_qr_scan", "android": "https://dc.lft.to/lastmile_qr_scan"}, "lat": 38.9225205, "lon": -77.04016216666666, "fusion_lat": 0.0, "name": "94addec47a3fa0ab4d1a911d27de41f1", "is_disabled": 0, "is_reserved": 0, "bike_id": "94addec47a3fa0ab4d1a911d27de41f1", "fusion_lon": 0.0, "type": "electric_scooter"}, {"rental_uris": {"ios": "https://dc.lft.to/lastmile_qr_scan", "android": "https://dc.lft.to/lastmile_qr_scan"}, "lat": 38.921565333333334, "lon": -77.03383783333334, "fusion_lat": 0.0, "name": "356f81592b285c6a70580959c1585dd7", "is_disabled": 0, "is_reserved": 0, "bike_id": "356f81592b285c6a70580959c1585dd7", "fusion_lon": 0.0, "type": "electric_scooter"}, {"rental_uris": {"ios": "https://dc.lft.to/lastmile_qr_scan", "android": "https://dc.lft.to/lastmile_qr_scan"}, "lat": 38.936207, "lon": -76.97972833333333, "fusion_lat": 0.0, "name": "5d3b42c33fceec7a449bb37f3cff4e19", "is_disabled": 0, "is_reserved": 0, "bike_id": "5d3b42c33fceec7a449bb37f3cff4e19", "fusion_lon": 0.0, "type": "electric_scooter"}, {"rental_uris": {"ios": "https://dc.lft.to/lastmile_qr_scan", "android": "https://dc.lft.to/lastmile_qr_scan"}, "lat": 38.90383633333333, "lon": -77.045775, "fusion_lat": 0.0, "name": "75c7b71f0fc8086b863df47263f08865", "is_disabled": 0, "is_reserved": 0, "bike_id": "75c7b71f0fc8086b863df47263f08865", "fusion_lon": 0.0, "type": "electric_scooter"}, {"rental_uris": {"ios": "https://dc.lft.to/lastmile_qr_scan", "android": "https://dc.lft.to/lastmile_qr_scan"}, "lat": 38.90654583333333, "lon": -77.0429815, "fusion_lat": 0.0, "name": "53131a514360ed608201c7e184e300f9", "is_disabled": 0, "is_reserved": 0, "bike_id": "53131a514360ed608201c7e184e300f9", "fusion_lon": 0.0, "type": "electric_scooter"}, {"rental_uris": {"ios": "https://dc.lft.to/lastmile_qr_scan", "android": "https://dc.lft.to/lastmile_qr_scan"}, "lat": 38.91718616666667, "lon": -77.02843683333333, "fusion_lat": 0.0, "name": "5f68fbcd49b743621ac5163742c4a9e7", "is_disabled": 0, "is_reserved": 0, "bike_id": "5f68fbcd49b743621ac5163742c4a9e7", "fusion_lon": 0.0, "type": "electric_scooter"}, {"rental_uris": {"ios": "https://dc.lft.to/lastmile_qr_scan", "android": "https://dc.lft.to/lastmile_qr_scan"}, "lat": 38.920894833333335, "lon": -77.02342033333333, "fusion_lat": 0.0, "name": "7b9f980f14d359a79775ce413bd6ea11", "is_disabled": 0, "is_reserved": 0, "bike_id": "7b9f980f14d359a79775ce413bd6ea11", "fusion_lon": 0.0, "type": "electric_scooter"}, {"rental_uris": {"ios": "https://dc.lft.to/lastmile_qr_scan", "android": "https://dc.lft.to/lastmile_qr_scan"}, "lat": 38.897467666666664, "lon": -77.0300095, "fusion_lat": 0.0, "name": "3438791b268db86ea9c2f4833f42012f", "is_disabled": 0, "is_reserved": 0, "bike_id": "3438791b268db86ea9c2f4833f42012f", "fusion_lon": 0.0, "type": "electric_scooter"}, {"rental_uris": {"ios": "https://dc.lft.to/lastmile_qr_scan", "android": "https://dc.lft.to/lastmile_qr_scan"}, "lat": 38.830954, "lon": -77.042927, "fusion_lat": 0.0, "name": "750bc2ff76174b132d5f037b31d1c2a8", "is_disabled": 0, "is_reserved": 0, "bike_id": "750bc2ff76174b132d5f037b31d1c2a8", "fusion_lon": 0.0, "type": "electric_bike"}, {"rental_uris": {"ios": "https://dc.lft.to/lastmile_qr_scan", "android": "https://dc.lft.to/lastmile_qr_scan"}, "lat": 38.923117, "lon": -77.0194305, "fusion_lat": 0.0, "name": "03c352cdf78153c7c683c7ba80a112b4", "is_disabled": 0, "is_reserved": 0, "bike_id": "03c352cdf78153c7c683c7ba80a112b4", "fusion_lon": 0.0, "type": "electric_scooter"}, {"rental_uris": {"ios": "https://dc.lft.to/lastmile_qr_scan", "android": "https://dc.lft.to/lastmile_qr_scan"}, "lat": 38.9204835, "lon": -77.02425216666667, "fusion_lat": 0.0, "name": "16d22933da92d805248d7a0411431904", "is_disabled": 0, "is_reserved": 0, "bike_id": "16d22933da92d805248d7a0411431904", "fusion_lon": 0.0, "type": "electric_scooter"}, {"rental_uris": {"ios": "https://dc.lft.to/lastmile_qr_scan", "android": "https://dc.lft.to/lastmile_qr_scan"}, "lat": 38.8840945, "lon": -76.94828716666666, "fusion_lat": 0.0, "name": "7995c9756ba6852339bd75fd054ef639", "is_disabled": 0, "is_reserved": 0, "bike_id": "7995c9756ba6852339bd75fd054ef639", "fusion_lon": 0.0, "type": "electric_scooter"}, {"rental_uris": {"ios": "https://dc.lft.to/lastmile_qr_scan", "android": "https://dc.lft.to/lastmile_qr_scan"}, "lat": 38.933985, "lon": -77.05741416666666, "fusion_lat": 0.0, "name": "07aeb89d1cb9a36794f53d7bc3619542", "is_disabled": 0, "is_reserved": 0, "bike_id": "07aeb89d1cb9a36794f53d7bc3619542", "fusion_lon": 0.0, "type": "electric_scooter"}, {"rental_uris": {"ios": "https://dc.lft.to/lastmile_qr_scan", "android": "https://dc.lft.to/lastmile_qr_scan"}, "lat": 38.905661, "lon": -77.041779, "fusion_lat": 0.0, "name": "e46681079dd2965033e055309810fde4", "is_disabled": 0, "is_reserved": 0, "bike_id": "e46681079dd2965033e055309810fde4", "fusion_lon": 0.0, "type": "electric_scooter"}, {"rental_uris": {"ios": "https://dc.lft.to/lastmile_qr_scan", "android": "https://dc.lft.to/lastmile_qr_scan"}, "lat": 38.91669066666667, "lon": -77.02324666666667, "fusion_lat": 0.0, "name": "9a8b9cf663141ea234ae7c4054dc6207", "is_disabled": 0, "is_reserved": 0, "bike_id": "9a8b9cf663141ea234ae7c4054dc6207", "fusion_lon": 0.0, "type": "electric_scooter"}, {"rental_uris": {"ios": "https://dc.lft.to/lastmile_qr_scan", "android": "https://dc.lft.to/lastmile_qr_scan"}, "lat": 38.89616, "lon": -77.02618983333333, "fusion_lat": 0.0, "name": "fe62e87a35884cddacae6030dad0dd1f", "is_disabled": 0, "is_reserved": 0, "bike_id": "fe62e87a35884cddacae6030dad0dd1f", "fusion_lon": 0.0, "type": "electric_scooter"}, {"rental_uris": {"ios": "https://dc.lft.to/lastmile_qr_scan", "android": "https://dc.lft.to/lastmile_qr_scan"}, "lat": 38.8991705, "lon": -77.014933, "fusion_lat": 0.0, "name": "18a2d109134e9a00c877d243d3595066", "is_disabled": 0, "is_reserved": 0, "bike_id": "18a2d109134e9a00c877d243d3595066", "fusion_lon": 0.0, "type": "electric_scooter"}, {"rental_uris": {"ios": "https://dc.lft.to/lastmile_qr_scan", "android": "https://dc.lft.to/lastmile_qr_scan"}, "lat": 38.91759316666667, "lon": -77.04767216666667, "fusion_lat": 0.0, "name": "f1e45ef04ff05925382dc68416519cf9", "is_disabled": 0, "is_reserved": 0, "bike_id": "f1e45ef04ff05925382dc68416519cf9", "fusion_lon": 0.0, "type": "electric_scooter"}, {"rental_uris": {"ios": "https://dc.lft.to/lastmile_qr_scan", "android": "https://dc.lft.to/lastmile_qr_scan"}, "lat": 38.80970383333333, "lon": -77.0862835, "fusion_lat": 0.0, "name": "8192b1440ed845961470b01c09418090", "is_disabled": 0, "is_reserved": 0, "bike_id": "8192b1440ed845961470b01c09418090", "fusion_lon": 0.0, "type": "electric_bike"}, {"rental_uris": {"ios": "https://dc.lft.to/lastmile_qr_scan", "android": "https://dc.lft.to/lastmile_qr_scan"}, "lat": 38.935260166666666, "lon": -76.96442766666667, "fusion_lat": 0.0, "name": "87c2df9ce9b65ff5945576ef9b539172", "is_disabled": 0, "is_reserved": 0, "bike_id": "87c2df9ce9b65ff5945576ef9b539172", "fusion_lon": 0.0, "type": "electric_bike"}, {"rental_uris": {"ios": "https://dc.lft.to/lastmile_qr_scan", "android": "https://dc.lft.to/lastmile_qr_scan"}, "lat": 38.921646333333335, "lon": -77.03229033333334, "fusion_lat": 0.0, "name": "4f884ad64496dc11e253bee3a4c67a34", "is_disabled": 0, "is_reserved": 0, "bike_id": "4f884ad64496dc11e253bee3a4c67a34", "fusion_lon": 0.0, "type": "electric_scooter"}, {"rental_uris": {"ios": "https://dc.lft.to/lastmile_qr_scan", "android": "https://dc.lft.to/lastmile_qr_scan"}, "lat": 38.922732333333336, "lon": -77.03659883333333, "fusion_lat": 0.0, "name": "2251f865153dc45169436731b119f689", "is_disabled": 0, "is_reserved": 0, "bike_id": "2251f865153dc45169436731b119f689", "fusion_lon": 0.0, "type": "electric_scooter"}, {"rental_uris": {"ios": "https://dc.lft.to/lastmile_qr_scan", "android": "https://dc.lft.to/lastmile_qr_scan"}, "lat": 38.911143333333335, "lon": -77.03152933333334, "fusion_lat": 0.0, "name": "ef926d1e9c82f60c4ea60ff0956972c2", "is_disabled": 0, "is_reserved": 0, "bike_id": "ef926d1e9c82f60c4ea60ff0956972c2", "fusion_lon": 0.0, "type": "electric_scooter"}, {"rental_uris": {"ios": "https://dc.lft.to/lastmile_qr_scan", "android": "https://dc.lft.to/lastmile_qr_scan"}, "lat": 38.9095105, "lon": -77.03179233333333, "fusion_lat": 0.0, "name": "70d3e017b50ace6ec4ddf023fccbe729", "is_disabled": 0, "is_reserved": 0, "bike_id": "70d3e017b50ace6ec4ddf023fccbe729", "fusion_lon": 0.0, "type": "electric_scooter"}, {"rental_uris": {"ios": "https://dc.lft.to/lastmile_qr_scan", "android": "https://dc.lft.to/lastmile_qr_scan"}, "lat": 38.893983, "lon": -77.01085533333334, "fusion_lat": 0.0, "name": "82eb7370c5c6ed587af551858b9d022f", "is_disabled": 0, "is_reserved": 0, "bike_id": "82eb7370c5c6ed587af551858b9d022f", "fusion_lon": 0.0, "type": "electric_scooter"}, {"rental_uris": {"ios": "https://dc.lft.to/lastmile_qr_scan", "android": "https://dc.lft.to/lastmile_qr_scan"}, "lat": 38.9046125, "lon": -77.0447325, "fusion_lat": 0.0, "name": "15dbcece368ac0d51efd18ba31995db6", "is_disabled": 0, "is_reserved": 0, "bike_id": "15dbcece368ac0d51efd18ba31995db6", "fusion_lon": 0.0, "type": "electric_scooter"}, {"rental_uris": {"ios": "https://dc.lft.to/lastmile_qr_scan", "android": "https://dc.lft.to/lastmile_qr_scan"}, "lat": 38.916918, "lon": -77.037751, "fusion_lat": 0.0, "name": "60473d107da9f995fcebb05c5a3f6a3e", "is_disabled": 0, "is_reserved": 0, "bike_id": "60473d107da9f995fcebb05c5a3f6a3e", "fusion_lon": 0.0, "type": "electric_scooter"}, {"rental_uris": {"ios": "https://dc.lft.to/lastmile_qr_scan", "android": "https://dc.lft.to/lastmile_qr_scan"}, "lat": 38.916945166666665, "lon": -77.02373333333334, "fusion_lat": 0.0, "name": "bbc8ce3e0d6affed0b69b9f750d200de", "is_disabled": 0, "is_reserved": 0, "bike_id": "bbc8ce3e0d6affed0b69b9f750d200de", "fusion_lon": 0.0, "type": "electric_scooter"}, {"rental_uris": {"ios": "https://dc.lft.to/lastmile_qr_scan", "android": "https://dc.lft.to/lastmile_qr_scan"}, "lat": 38.921202666666666, "lon": -77.041624, "fusion_lat": 0.0, "name": "17566dcea52042e1729d005426c0d826", "is_disabled": 0, "is_reserved": 0, "bike_id": "17566dcea52042e1729d005426c0d826", "fusion_lon": 0.0, "type": "electric_scooter"}, {"rental_uris": {"ios": "https://dc.lft.to/lastmile_qr_scan", "android": "https://dc.lft.to/lastmile_qr_scan"}, "lat": 38.903339, "lon": -76.99124933333333, "fusion_lat": 0.0, "name": "e7888040d8a6f06cfbd0f07c570a66b1", "is_disabled": 0, "is_reserved": 0, "bike_id": "e7888040d8a6f06cfbd0f07c570a66b1", "fusion_lon": 0.0, "type": "electric_scooter"}, {"rental_uris": {"ios": "https://dc.lft.to/lastmile_qr_scan", "android": "https://dc.lft.to/lastmile_qr_scan"}, "lat": 38.86057066666667, "lon": -76.98513666666666, "fusion_lat": 0.0, "name": "67f1477c6849840c63ae7f0701fb8c76", "is_disabled": 0, "is_reserved": 0, "bike_id": "67f1477c6849840c63ae7f0701fb8c76", "fusion_lon": 0.0, "type": "electric_scooter"}, {"rental_uris": {"ios": "https://dc.lft.to/lastmile_qr_scan", "android": "https://dc.lft.to/lastmile_qr_scan"}, "lat": 38.886579166666664, "lon": -77.0283795, "fusion_lat": 0.0, "name": "9e437bffb116df402d7519fcf2747190", "is_disabled": 0, "is_reserved": 0, "bike_id": "9e437bffb116df402d7519fcf2747190", "fusion_lon": 0.0, "type": "electric_scooter"}, {"rental_uris": {"ios": "https://dc.lft.to/lastmile_qr_scan", "android": "https://dc.lft.to/lastmile_qr_scan"}, "lat": 38.91802466666667, "lon": -77.00931383333334, "fusion_lat": 0.0, "name": "3d9186b736295d9cecf3f33737b193ea", "is_disabled": 0, "is_reserved": 0, "bike_id": "3d9186b736295d9cecf3f33737b193ea", "fusion_lon": 0.0, "type": "electric_scooter"}, {"rental_uris": {"ios": "https://dc.lft.to/lastmile_qr_scan", "android": "https://dc.lft.to/lastmile_qr_scan"}, "lat": 38.91699083333334, "lon": -77.02307983333333, "fusion_lat": 0.0, "name": "c9404756db29087f97688bb482dc30aa", "is_disabled": 0, "is_reserved": 0, "bike_id": "c9404756db29087f97688bb482dc30aa", "fusion_lon": 0.0, "type": "electric_scooter"}, {"rental_uris": {"ios": "https://dc.lft.to/lastmile_qr_scan", "android": "https://dc.lft.to/lastmile_qr_scan"}, "lat": 38.907326166666664, "lon": -77.0454155, "fusion_lat": 0.0, "name": "b502ec920eee086ffc170d4a8cfda3bc", "is_disabled": 0, "is_reserved": 0, "bike_id": "b502ec920eee086ffc170d4a8cfda3bc", "fusion_lon": 0.0, "type": "electric_scooter"}, {"rental_uris": {"ios": "https://dc.lft.to/lastmile_qr_scan", "android": "https://dc.lft.to/lastmile_qr_scan"}, "lat": 38.89732883333333, "lon": -77.02157716666666, "fusion_lat": 0.0, "name": "6515f11ac9bd4a85a774552089f87f8f", "is_disabled": 0, "is_reserved": 0, "bike_id": "6515f11ac9bd4a85a774552089f87f8f", "fusion_lon": 0.0, "type": "electric_scooter"}, {"rental_uris": {"ios": "https://dc.lft.to/lastmile_qr_scan", "android": "https://dc.lft.to/lastmile_qr_scan"}, "lat": 38.896254666666664, "lon": -77.02221066666667, "fusion_lat": 0.0, "name": "7cf8f43d06e506633f38c2b699682cf2", "is_disabled": 0, "is_reserved": 0, "bike_id": "7cf8f43d06e506633f38c2b699682cf2", "fusion_lon": 0.0, "type": "electric_scooter"}, {"rental_uris": {"ios": "https://dc.lft.to/lastmile_qr_scan", "android": "https://dc.lft.to/lastmile_qr_scan"}, "lat": 38.928942166666666, "lon": -77.01627183333333, "fusion_lat": 0.0, "name": "93f807e41097da2717e6fa3e6d669189", "is_disabled": 0, "is_reserved": 0, "bike_id": "93f807e41097da2717e6fa3e6d669189", "fusion_lon": 0.0, "type": "electric_scooter"}, {"rental_uris": {"ios": "https://dc.lft.to/lastmile_qr_scan", "android": "https://dc.lft.to/lastmile_qr_scan"}, "lat": 38.91115533333333, "lon": -77.044628, "fusion_lat": 0.0, "name": "50c0fd45b8b64206d79f23a61ab3c331", "is_disabled": 0, "is_reserved": 0, "bike_id": "50c0fd45b8b64206d79f23a61ab3c331", "fusion_lon": 0.0, "type": "electric_scooter"}, {"rental_uris": {"ios": "https://dc.lft.to/lastmile_qr_scan", "android": "https://dc.lft.to/lastmile_qr_scan"}, "lat": 38.90270533333333, "lon": -77.01778783333333, "fusion_lat": 0.0, "name": "9d708cd11375d8a4ca8befff9958c29a", "is_disabled": 0, "is_reserved": 0, "bike_id": "9d708cd11375d8a4ca8befff9958c29a", "fusion_lon": 0.0, "type": "electric_scooter"}, {"rental_uris": {"ios": "https://dc.lft.to/lastmile_qr_scan", "android": "https://dc.lft.to/lastmile_qr_scan"}, "lat": 39.014814333333334, "lon": -77.05493566666667, "fusion_lat": 0.0, "name": "5f49baf2a41ca13d6e4755a64f799738", "is_disabled": 0, "is_reserved": 0, "bike_id": "5f49baf2a41ca13d6e4755a64f799738", "fusion_lon": 0.0, "type": "electric_bike"}, {"rental_uris": {"ios": "https://dc.lft.to/lastmile_qr_scan", "android": "https://dc.lft.to/lastmile_qr_scan"}, "lat": 38.9147345, "lon": -77.04550183333333, "fusion_lat": 0.0, "name": "71aca50499dfbb2330e657404eaf0ee2", "is_disabled": 0, "is_reserved": 0, "bike_id": "71aca50499dfbb2330e657404eaf0ee2", "fusion_lon": 0.0, "type": "electric_scooter"}, {"rental_uris": {"ios": "https://dc.lft.to/lastmile_qr_scan", "android": "https://dc.lft.to/lastmile_qr_scan"}, "lat": 38.8625705, "lon": -76.98354083333334, "fusion_lat": 0.0, "name": "08d7fa9bc031b001f83d8ee4674098e8", "is_disabled": 0, "is_reserved": 0, "bike_id": "08d7fa9bc031b001f83d8ee4674098e8", "fusion_lon": 0.0, "type": "electric_bike"}, {"rental_uris": {"ios": "https://dc.lft.to/lastmile_qr_scan", "android": "https://dc.lft.to/lastmile_qr_scan"}, "lat": 38.916835166666665, "lon": -77.0231715, "fusion_lat": 0.0, "name": "23836ed2f053aee7c0aac4c639bd707c", "is_disabled": 0, "is_reserved": 0, "bike_id": "23836ed2f053aee7c0aac4c639bd707c", "fusion_lon": 0.0, "type": "electric_scooter"}, {"rental_uris": {"ios": "https://dc.lft.to/lastmile_qr_scan", "android": "https://dc.lft.to/lastmile_qr_scan"}, "lat": 38.89543483333333, "lon": -77.00384266666667, "fusion_lat": 0.0, "name": "bedc7f00653b6a5a1194468694ef3ff8", "is_disabled": 0, "is_reserved": 0, "bike_id": "bedc7f00653b6a5a1194468694ef3ff8", "fusion_lon": 0.0, "type": "electric_scooter"}, {"rental_uris": {"ios": "https://dc.lft.to/lastmile_qr_scan", "android": "https://dc.lft.to/lastmile_qr_scan"}, "lat": 38.8874685, "lon": -77.0257185, "fusion_lat": 0.0, "name": "2a1dc4baa3234fbe940f05244af8a113", "is_disabled": 0, "is_reserved": 0, "bike_id": "2a1dc4baa3234fbe940f05244af8a113", "fusion_lon": 0.0, "type": "electric_scooter"}, {"rental_uris": {"ios": "https://dc.lft.to/lastmile_qr_scan", "android": "https://dc.lft.to/lastmile_qr_scan"}, "lat": 38.89869083333333, "lon": -76.94636983333334, "fusion_lat": 0.0, "name": "32c659e6db115bc86c075f8a168160bd", "is_disabled": 0, "is_reserved": 0, "bike_id": "32c659e6db115bc86c075f8a168160bd", "fusion_lon": 0.0, "type": "electric_scooter"}, {"rental_uris": {"ios": "https://dc.lft.to/lastmile_qr_scan", "android": "https://dc.lft.to/lastmile_qr_scan"}, "lat": 38.900944833333334, "lon": -77.048659, "fusion_lat": 0.0, "name": "5a0996e19b294c072389610320fc2263", "is_disabled": 0, "is_reserved": 0, "bike_id": "5a0996e19b294c072389610320fc2263", "fusion_lon": 0.0, "type": "electric_bike"}, {"rental_uris": {"ios": "https://dc.lft.to/lastmile_qr_scan", "android": "https://dc.lft.to/lastmile_qr_scan"}, "lat": 38.93465366666667, "lon": -77.04538266666667, "fusion_lat": 0.0, "name": "3a4c3c640086d7366dfd7b57129e1514", "is_disabled": 0, "is_reserved": 0, "bike_id": "3a4c3c640086d7366dfd7b57129e1514", "fusion_lon": 0.0, "type": "electric_scooter"}, {"rental_uris": {"ios": "https://dc.lft.to/lastmile_qr_scan", "android": "https://dc.lft.to/lastmile_qr_scan"}, "lat": 38.899215833333336, "lon": -76.93364783333334, "fusion_lat": 0.0, "name": "1ee84175960b4cc38970ef5d6481ec51", "is_disabled": 0, "is_reserved": 0, "bike_id": "1ee84175960b4cc38970ef5d6481ec51", "fusion_lon": 0.0, "type": "electric_scooter"}, {"rental_uris": {"ios": "https://dc.lft.to/lastmile_qr_scan", "android": "https://dc.lft.to/lastmile_qr_scan"}, "lat": 38.928756666666665, "lon": -77.03747566666667, "fusion_lat": 0.0, "name": "fc84eef952055405426d23ee8744bcbc", "is_disabled": 0, "is_reserved": 0, "bike_id": "fc84eef952055405426d23ee8744bcbc", "fusion_lon": 0.0, "type": "electric_bike"}, {"rental_uris": {"ios": "https://dc.lft.to/lastmile_qr_scan", "android": "https://dc.lft.to/lastmile_qr_scan"}, "lat": 38.89842016666667, "lon": -77.0419695, "fusion_lat": 0.0, "name": "81e64ed1ad036e6f98db60938801703c", "is_disabled": 0, "is_reserved": 0, "bike_id": "81e64ed1ad036e6f98db60938801703c", "fusion_lon": 0.0, "type": "electric_scooter"}, {"rental_uris": {"ios": "https://dc.lft.to/lastmile_qr_scan", "android": "https://dc.lft.to/lastmile_qr_scan"}, "lat": 38.915622166666665, "lon": -77.02592916666667, "fusion_lat": 0.0, "name": "24b5740233906b9753f24684f9ff5b55", "is_disabled": 0, "is_reserved": 0, "bike_id": "24b5740233906b9753f24684f9ff5b55", "fusion_lon": 0.0, "type": "electric_scooter"}, {"rental_uris": {"ios": "https://dc.lft.to/lastmile_qr_scan", "android": "https://dc.lft.to/lastmile_qr_scan"}, "lat": 38.89870066666667, "lon": -77.03962866666667, "fusion_lat": 0.0, "name": "af93f3bcc596700706bdb86c7717f5bd", "is_disabled": 0, "is_reserved": 0, "bike_id": "af93f3bcc596700706bdb86c7717f5bd", "fusion_lon": 0.0, "type": "electric_scooter"}, {"rental_uris": {"ios": "https://dc.lft.to/lastmile_qr_scan", "android": "https://dc.lft.to/lastmile_qr_scan"}, "lat": 38.911105, "lon": -77.03555233333333, "fusion_lat": 0.0, "name": "e2c285a3ac50dc4c88e51c63c9388f13", "is_disabled": 0, "is_reserved": 0, "bike_id": "e2c285a3ac50dc4c88e51c63c9388f13", "fusion_lon": 0.0, "type": "electric_scooter"}, {"rental_uris": {"ios": "https://dc.lft.to/lastmile_qr_scan", "android": "https://dc.lft.to/lastmile_qr_scan"}, "lat": 38.8935535, "lon": -77.00338783333333, "fusion_lat": 0.0, "name": "54ef376cb5d33c5d3048d58908fb393e", "is_disabled": 0, "is_reserved": 0, "bike_id": "54ef376cb5d33c5d3048d58908fb393e", "fusion_lon": 0.0, "type": "electric_scooter"}, {"rental_uris": {"ios": "https://dc.lft.to/lastmile_qr_scan", "android": "https://dc.lft.to/lastmile_qr_scan"}, "lat": 38.905814666666664, "lon": -77.00619733333333, "fusion_lat": 0.0, "name": "a5975a700303d9ae5d48ca62a300c377", "is_disabled": 0, "is_reserved": 0, "bike_id": "a5975a700303d9ae5d48ca62a300c377", "fusion_lon": 0.0, "type": "electric_scooter"}, {"rental_uris": {"ios": "https://dc.lft.to/lastmile_qr_scan", "android": "https://dc.lft.to/lastmile_qr_scan"}, "lat": 38.87878933333333, "lon": -77.01748283333333, "fusion_lat": 0.0, "name": "2f99405c2050b110963b19d03131e924", "is_disabled": 0, "is_reserved": 0, "bike_id": "2f99405c2050b110963b19d03131e924", "fusion_lon": 0.0, "type": "electric_scooter"}, {"rental_uris": {"ios": "https://dc.lft.to/lastmile_qr_scan", "android": "https://dc.lft.to/lastmile_qr_scan"}, "lat": 38.921375, "lon": -77.043637, "fusion_lat": 0.0, "name": "729616a69de3e5fe3179a47bd01718ca", "is_disabled": 0, "is_reserved": 0, "bike_id": "729616a69de3e5fe3179a47bd01718ca", "fusion_lon": 0.0, "type": "electric_scooter"}, {"rental_uris": {"ios": "https://dc.lft.to/lastmile_qr_scan", "android": "https://dc.lft.to/lastmile_qr_scan"}, "lat": 38.95331066666667, "lon": -76.98245166666666, "fusion_lat": 0.0, "name": "dc7cedc3265195e045b7c41136553832", "is_disabled": 0, "is_reserved": 0, "bike_id": "dc7cedc3265195e045b7c41136553832", "fusion_lon": 0.0, "type": "electric_bike"}, {"rental_uris": {"ios": "https://dc.lft.to/lastmile_qr_scan", "android": "https://dc.lft.to/lastmile_qr_scan"}, "lat": 38.903843, "lon": -77.04217516666667, "fusion_lat": 0.0, "name": "e7691785449048b5841d77c39d2179ae", "is_disabled": 0, "is_reserved": 0, "bike_id": "e7691785449048b5841d77c39d2179ae", "fusion_lon": 0.0, "type": "electric_scooter"}, {"rental_uris": {"ios": "https://dc.lft.to/lastmile_qr_scan", "android": "https://dc.lft.to/lastmile_qr_scan"}, "lat": 38.921553, "lon": -76.9955265, "fusion_lat": 0.0, "name": "f744387600f58d1545bdac0c2320c1da", "is_disabled": 0, "is_reserved": 0, "bike_id": "f744387600f58d1545bdac0c2320c1da", "fusion_lon": 0.0, "type": "electric_scooter"}, {"rental_uris": {"ios": "https://dc.lft.to/lastmile_qr_scan", "android": "https://dc.lft.to/lastmile_qr_scan"}, "lat": 38.93521033333333, "lon": -77.03355233333333, "fusion_lat": 0.0, "name": "d7578b6d206d215a29586ebbd11e66cf", "is_disabled": 0, "is_reserved": 0, "bike_id": "d7578b6d206d215a29586ebbd11e66cf", "fusion_lon": 0.0, "type": "electric_scooter"}, {"rental_uris": {"ios": "https://dc.lft.to/lastmile_qr_scan", "android": "https://dc.lft.to/lastmile_qr_scan"}, "lat": 38.92248933333333, "lon": -77.04214633333333, "fusion_lat": 0.0, "name": "a63f21d893fa14b3ba3e613c1c6f4df1", "is_disabled": 0, "is_reserved": 0, "bike_id": "a63f21d893fa14b3ba3e613c1c6f4df1", "fusion_lon": 0.0, "type": "electric_scooter"}, {"rental_uris": {"ios": "https://dc.lft.to/lastmile_qr_scan", "android": "https://dc.lft.to/lastmile_qr_scan"}, "lat": 38.89759633333333, "lon": -76.9470765, "fusion_lat": 0.0, "name": "b481b969b0d43e4212365d2ac0bbc5a4", "is_disabled": 0, "is_reserved": 0, "bike_id": "b481b969b0d43e4212365d2ac0bbc5a4", "fusion_lon": 0.0, "type": "electric_scooter"}, {"rental_uris": {"ios": "https://dc.lft.to/lastmile_qr_scan", "android": "https://dc.lft.to/lastmile_qr_scan"}, "lat": 38.903766166666664, "lon": -77.03980583333333, "fusion_lat": 0.0, "name": "0588d6801fe13b91e9071e49516ede87", "is_disabled": 0, "is_reserved": 0, "bike_id": "0588d6801fe13b91e9071e49516ede87", "fusion_lon": 0.0, "type": "electric_scooter"}, {"rental_uris": {"ios": "https://dc.lft.to/lastmile_qr_scan", "android": "https://dc.lft.to/lastmile_qr_scan"}, "lat": 38.933912166666666, "lon": -77.05744383333334, "fusion_lat": 0.0, "name": "a31d234e984afe866b9ecffe34d63198", "is_disabled": 0, "is_reserved": 0, "bike_id": "a31d234e984afe866b9ecffe34d63198", "fusion_lon": 0.0, "type": "electric_scooter"}, {"rental_uris": {"ios": "https://dc.lft.to/lastmile_qr_scan", "android": "https://dc.lft.to/lastmile_qr_scan"}, "lat": 38.9241435, "lon": -77.03917266666667, "fusion_lat": 0.0, "name": "8ee3b2896ff3a6c18bb2d4d89840bee7", "is_disabled": 0, "is_reserved": 0, "bike_id": "8ee3b2896ff3a6c18bb2d4d89840bee7", "fusion_lon": 0.0, "type": "electric_scooter"}, {"rental_uris": {"ios": "https://dc.lft.to/lastmile_qr_scan", "android": "https://dc.lft.to/lastmile_qr_scan"}, "lat": 38.91627283333333, "lon": -77.02299183333334, "fusion_lat": 0.0, "name": "15734f2a7ca8e9977c1900c59c802a46", "is_disabled": 0, "is_reserved": 0, "bike_id": "15734f2a7ca8e9977c1900c59c802a46", "fusion_lon": 0.0, "type": "electric_scooter"}, {"rental_uris": {"ios": "https://dc.lft.to/lastmile_qr_scan", "android": "https://dc.lft.to/lastmile_qr_scan"}, "lat": 38.897603, "lon": -77.02465133333334, "fusion_lat": 0.0, "name": "6519c52889f796b19af3afe5161c2301", "is_disabled": 0, "is_reserved": 0, "bike_id": "6519c52889f796b19af3afe5161c2301", "fusion_lon": 0.0, "type": "electric_scooter"}, {"rental_uris": {"ios": "https://dc.lft.to/lastmile_qr_scan", "android": "https://dc.lft.to/lastmile_qr_scan"}, "lat": 38.88429933333333, "lon": -76.9575665, "fusion_lat": 0.0, "name": "cf53949d2c980ffe10a3198839d55e02", "is_disabled": 0, "is_reserved": 0, "bike_id": "cf53949d2c980ffe10a3198839d55e02", "fusion_lon": 0.0, "type": "electric_scooter"}, {"rental_uris": {"ios": "https://dc.lft.to/lastmile_qr_scan", "android": "https://dc.lft.to/lastmile_qr_scan"}, "lat": 38.900546, "lon": -77.00069283333333, "fusion_lat": 0.0, "name": "5fc6ae73b663e33c716e4f29beb37eb6", "is_disabled": 0, "is_reserved": 0, "bike_id": "5fc6ae73b663e33c716e4f29beb37eb6", "fusion_lon": 0.0, "type": "electric_scooter"}, {"rental_uris": {"ios": "https://dc.lft.to/lastmile_qr_scan", "android": "https://dc.lft.to/lastmile_qr_scan"}, "lat": 38.942428666666665, "lon": -77.03582666666667, "fusion_lat": 0.0, "name": "77eef13a6b87878a933510887d62010c", "is_disabled": 0, "is_reserved": 0, "bike_id": "77eef13a6b87878a933510887d62010c", "fusion_lon": 0.0, "type": "electric_scooter"}, {"rental_uris": {"ios": "https://dc.lft.to/lastmile_qr_scan", "android": "https://dc.lft.to/lastmile_qr_scan"}, "lat": 38.921549, "lon": -77.03865583333334, "fusion_lat": 0.0, "name": "7bf1cbc200cbe2c8d12ca9ff3825c378", "is_disabled": 0, "is_reserved": 0, "bike_id": "7bf1cbc200cbe2c8d12ca9ff3825c378", "fusion_lon": 0.0, "type": "electric_scooter"}, {"rental_uris": {"ios": "https://dc.lft.to/lastmile_qr_scan", "android": "https://dc.lft.to/lastmile_qr_scan"}, "lat": 38.9037175, "lon": -77.02689, "fusion_lat": 0.0, "name": "977d7dafd7942fea275ce2b6bfe5d0cd", "is_disabled": 0, "is_reserved": 0, "bike_id": "977d7dafd7942fea275ce2b6bfe5d0cd", "fusion_lon": 0.0, "type": "electric_scooter"}, {"rental_uris": {"ios": "https://dc.lft.to/lastmile_qr_scan", "android": "https://dc.lft.to/lastmile_qr_scan"}, "lat": 38.90026683333333, "lon": -77.0283525, "fusion_lat": 0.0, "name": "7eb301cf662f3e60ee69ca48726e8e08", "is_disabled": 0, "is_reserved": 0, "bike_id": "7eb301cf662f3e60ee69ca48726e8e08", "fusion_lon": 0.0, "type": "electric_scooter"}, {"rental_uris": {"ios": "https://dc.lft.to/lastmile_qr_scan", "android": "https://dc.lft.to/lastmile_qr_scan"}, "lat": 38.914434166666666, "lon": -77.02598116666667, "fusion_lat": 0.0, "name": "740b5f9cf645e5447b0bffeb5381df0d", "is_disabled": 0, "is_reserved": 0, "bike_id": "740b5f9cf645e5447b0bffeb5381df0d", "fusion_lon": 0.0, "type": "electric_scooter"}, {"rental_uris": {"ios": "https://dc.lft.to/lastmile_qr_scan", "android": "https://dc.lft.to/lastmile_qr_scan"}, "lat": 38.91558716666667, "lon": -77.03571, "fusion_lat": 0.0, "name": "d33cdb709effbc51b9023e5bc62c21e6", "is_disabled": 0, "is_reserved": 0, "bike_id": "d33cdb709effbc51b9023e5bc62c21e6", "fusion_lon": 0.0, "type": "electric_scooter"}, {"rental_uris": {"ios": "https://dc.lft.to/lastmile_qr_scan", "android": "https://dc.lft.to/lastmile_qr_scan"}, "lat": 38.902657, "lon": -77.03347033333333, "fusion_lat": 0.0, "name": "c3a8013ccebcb7e146a1e8a31d9c59b4", "is_disabled": 0, "is_reserved": 0, "bike_id": "c3a8013ccebcb7e146a1e8a31d9c59b4", "fusion_lon": 0.0, "type": "electric_scooter"}, {"rental_uris": {"ios": "https://dc.lft.to/lastmile_qr_scan", "android": "https://dc.lft.to/lastmile_qr_scan"}, "lat": 38.926152, "lon": -77.04186333333334, "fusion_lat": 0.0, "name": "66b3e99205e9d3c4dab7b862d70d0ed4", "is_disabled": 0, "is_reserved": 0, "bike_id": "66b3e99205e9d3c4dab7b862d70d0ed4", "fusion_lon": 0.0, "type": "electric_scooter"}, {"rental_uris": {"ios": "https://dc.lft.to/lastmile_qr_scan", "android": "https://dc.lft.to/lastmile_qr_scan"}, "lat": 38.93648983333333, "lon": -77.0334565, "fusion_lat": 0.0, "name": "974fcdc29debe8406c9059b7bad82e40", "is_disabled": 0, "is_reserved": 0, "bike_id": "974fcdc29debe8406c9059b7bad82e40", "fusion_lon": 0.0, "type": "electric_scooter"}, {"rental_uris": {"ios": "https://dc.lft.to/lastmile_qr_scan", "android": "https://dc.lft.to/lastmile_qr_scan"}, "lat": 38.89917033333333, "lon": -76.93362283333333, "fusion_lat": 0.0, "name": "652b4d29d0c3d4469c921e71743ca17f", "is_disabled": 0, "is_reserved": 0, "bike_id": "652b4d29d0c3d4469c921e71743ca17f", "fusion_lon": 0.0, "type": "electric_scooter"}, {"rental_uris": {"ios": "https://dc.lft.to/lastmile_qr_scan", "android": "https://dc.lft.to/lastmile_qr_scan"}, "lat": 38.906401, "lon": -77.048563, "fusion_lat": 0.0, "name": "0821b8182d9be8f9f88e324e03b81477", "is_disabled": 0, "is_reserved": 0, "bike_id": "0821b8182d9be8f9f88e324e03b81477", "fusion_lon": 0.0, "type": "electric_scooter"}, {"rental_uris": {"ios": "https://dc.lft.to/lastmile_qr_scan", "android": "https://dc.lft.to/lastmile_qr_scan"}, "lat": 38.892232666666665, "lon": -77.04370766666666, "fusion_lat": 0.0, "name": "c962af71a819880a0d0e9ae2628aaad2", "is_disabled": 0, "is_reserved": 0, "bike_id": "c962af71a819880a0d0e9ae2628aaad2", "fusion_lon": 0.0, "type": "electric_scooter"}, {"rental_uris": {"ios": "https://dc.lft.to/lastmile_qr_scan", "android": "https://dc.lft.to/lastmile_qr_scan"}, "lat": 38.87879733333333, "lon": -77.022258, "fusion_lat": 0.0, "name": "e12ce470bebd330bb39f18207ce4fa48", "is_disabled": 0, "is_reserved": 0, "bike_id": "e12ce470bebd330bb39f18207ce4fa48", "fusion_lon": 0.0, "type": "electric_scooter"}, {"rental_uris": {"ios": "https://dc.lft.to/lastmile_qr_scan", "android": "https://dc.lft.to/lastmile_qr_scan"}, "lat": 38.8974475, "lon": -77.02753533333333, "fusion_lat": 0.0, "name": "ac10e77ca5d70e30c824196cb4f721cd", "is_disabled": 0, "is_reserved": 0, "bike_id": "ac10e77ca5d70e30c824196cb4f721cd", "fusion_lon": 0.0, "type": "electric_scooter"}, {"rental_uris": {"ios": "https://dc.lft.to/lastmile_qr_scan", "android": "https://dc.lft.to/lastmile_qr_scan"}, "lat": 38.90973133333333, "lon": -77.0218785, "fusion_lat": 0.0, "name": "5642c2a36d996fc0191331b2609db6e4", "is_disabled": 0, "is_reserved": 0, "bike_id": "5642c2a36d996fc0191331b2609db6e4", "fusion_lon": 0.0, "type": "electric_scooter"}, {"rental_uris": {"ios": "https://dc.lft.to/lastmile_qr_scan", "android": "https://dc.lft.to/lastmile_qr_scan"}, "lat": 38.90631716666667, "lon": -77.04872983333334, "fusion_lat": 0.0, "name": "4cfa51a0bac9e88ae6c66e75f05b33e5", "is_disabled": 0, "is_reserved": 0, "bike_id": "4cfa51a0bac9e88ae6c66e75f05b33e5", "fusion_lon": 0.0, "type": "electric_scooter"}, {"rental_uris": {"ios": "https://dc.lft.to/lastmile_qr_scan", "android": "https://dc.lft.to/lastmile_qr_scan"}, "lat": 38.91470066666667, "lon": -77.04590583333334, "fusion_lat": 0.0, "name": "55ad1c2c5d6d54124660890533bb5bb8", "is_disabled": 0, "is_reserved": 0, "bike_id": "55ad1c2c5d6d54124660890533bb5bb8", "fusion_lon": 0.0, "type": "electric_scooter"}, {"rental_uris": {"ios": "https://dc.lft.to/lastmile_qr_scan", "android": "https://dc.lft.to/lastmile_qr_scan"}, "lat": 38.905337333333335, "lon": -77.02209783333333, "fusion_lat": 0.0, "name": "c70be79ab368ea096846078714c92123", "is_disabled": 0, "is_reserved": 0, "bike_id": "c70be79ab368ea096846078714c92123", "fusion_lon": 0.0, "type": "electric_scooter"}, {"rental_uris": {"ios": "https://dc.lft.to/lastmile_qr_scan", "android": "https://dc.lft.to/lastmile_qr_scan"}, "lat": 38.89319533333333, "lon": -76.93973133333333, "fusion_lat": 0.0, "name": "5ba33b520a8fd45896db85983d37191a", "is_disabled": 0, "is_reserved": 0, "bike_id": "5ba33b520a8fd45896db85983d37191a", "fusion_lon": 0.0, "type": "electric_scooter"}, {"rental_uris": {"ios": "https://dc.lft.to/lastmile_qr_scan", "android": "https://dc.lft.to/lastmile_qr_scan"}, "lat": 38.91348433333334, "lon": -77.03974633333333, "fusion_lat": 0.0, "name": "c8375c66172d7c1615870eb0c5cd3517", "is_disabled": 0, "is_reserved": 0, "bike_id": "c8375c66172d7c1615870eb0c5cd3517", "fusion_lon": 0.0, "type": "electric_scooter"}, {"rental_uris": {"ios": "https://dc.lft.to/lastmile_qr_scan", "android": "https://dc.lft.to/lastmile_qr_scan"}, "lat": 38.9106, "lon": -77.030947, "fusion_lat": 0.0, "name": "1a760116eb0b6f09a02d77a161b2c4ab", "is_disabled": 0, "is_reserved": 0, "bike_id": "1a760116eb0b6f09a02d77a161b2c4ab", "fusion_lon": 0.0, "type": "electric_scooter"}, {"rental_uris": {"ios": "https://dc.lft.to/lastmile_qr_scan", "android": "https://dc.lft.to/lastmile_qr_scan"}, "lat": 38.95528633333333, "lon": -77.02779733333334, "fusion_lat": 0.0, "name": "d1879a0cb282e5e12d0641bf88a824c1", "is_disabled": 0, "is_reserved": 0, "bike_id": "d1879a0cb282e5e12d0641bf88a824c1", "fusion_lon": 0.0, "type": "electric_scooter"}, {"rental_uris": {"ios": "https://dc.lft.to/lastmile_qr_scan", "android": "https://dc.lft.to/lastmile_qr_scan"}, "lat": 38.906009833333336, "lon": -77.05119, "fusion_lat": 0.0, "name": "4398e3139eadbe1fe543ad398477680f", "is_disabled": 0, "is_reserved": 0, "bike_id": "4398e3139eadbe1fe543ad398477680f", "fusion_lon": 0.0, "type": "electric_scooter"}, {"rental_uris": {"ios": "https://dc.lft.to/lastmile_qr_scan", "android": "https://dc.lft.to/lastmile_qr_scan"}, "lat": 38.942887666666664, "lon": -77.0217095, "fusion_lat": 0.0, "name": "fb80a0d9d0c0aa112ce4b915608dd7f6", "is_disabled": 0, "is_reserved": 0, "bike_id": "fb80a0d9d0c0aa112ce4b915608dd7f6", "fusion_lon": 0.0, "type": "electric_scooter"}, {"rental_uris": {"ios": "https://dc.lft.to/lastmile_qr_scan", "android": "https://dc.lft.to/lastmile_qr_scan"}, "lat": 38.85352533333333, "lon": -77.1347125, "fusion_lat": 0.0, "name": "6047e7251145b5d000c07aa2b3c42055", "is_disabled": 0, "is_reserved": 0, "bike_id": "6047e7251145b5d000c07aa2b3c42055", "fusion_lon": 0.0, "type": "electric_bike"}, {"rental_uris": {"ios": "https://dc.lft.to/lastmile_qr_scan", "android": "https://dc.lft.to/lastmile_qr_scan"}, "lat": 38.90947666666667, "lon": -77.04431616666666, "fusion_lat": 0.0, "name": "901dd09c6e3846d1b32147c59abf5263", "is_disabled": 0, "is_reserved": 0, "bike_id": "901dd09c6e3846d1b32147c59abf5263", "fusion_lon": 0.0, "type": "electric_scooter"}, {"rental_uris": {"ios": "https://dc.lft.to/lastmile_qr_scan", "android": "https://dc.lft.to/lastmile_qr_scan"}, "lat": 38.898887, "lon": -77.02184016666666, "fusion_lat": 0.0, "name": "a1c9b8e47a781271da8db4620eac3acf", "is_disabled": 0, "is_reserved": 0, "bike_id": "a1c9b8e47a781271da8db4620eac3acf", "fusion_lon": 0.0, "type": "electric_scooter"}, {"rental_uris": {"ios": "https://dc.lft.to/lastmile_qr_scan", "android": "https://dc.lft.to/lastmile_qr_scan"}, "lat": 38.901097666666665, "lon": -77.04865616666666, "fusion_lat": 0.0, "name": "83fc658a4a41e2475aebe7e713e7a050", "is_disabled": 0, "is_reserved": 0, "bike_id": "83fc658a4a41e2475aebe7e713e7a050", "fusion_lon": 0.0, "type": "electric_scooter"}, {"rental_uris": {"ios": "https://dc.lft.to/lastmile_qr_scan", "android": "https://dc.lft.to/lastmile_qr_scan"}, "lat": 38.866823833333335, "lon": -76.98572416666667, "fusion_lat": 0.0, "name": "ba90c0426116895c03d04ada87abc1ae", "is_disabled": 0, "is_reserved": 0, "bike_id": "ba90c0426116895c03d04ada87abc1ae", "fusion_lon": 0.0, "type": "electric_scooter"}, {"rental_uris": {"ios": "https://dc.lft.to/lastmile_qr_scan", "android": "https://dc.lft.to/lastmile_qr_scan"}, "lat": 38.925889, "lon": -77.0398855, "fusion_lat": 0.0, "name": "b8601eb1c70a7e664e54c8cf72da517b", "is_disabled": 0, "is_reserved": 0, "bike_id": "b8601eb1c70a7e664e54c8cf72da517b", "fusion_lon": 0.0, "type": "electric_scooter"}, {"rental_uris": {"ios": "https://dc.lft.to/lastmile_qr_scan", "android": "https://dc.lft.to/lastmile_qr_scan"}, "lat": 38.89949716666667, "lon": -77.031802, "fusion_lat": 0.0, "name": "df01d500ea1047393294a7c1522736c7", "is_disabled": 0, "is_reserved": 0, "bike_id": "df01d500ea1047393294a7c1522736c7", "fusion_lon": 0.0, "type": "electric_scooter"}, {"rental_uris": {"ios": "https://dc.lft.to/lastmile_qr_scan", "android": "https://dc.lft.to/lastmile_qr_scan"}, "lat": 38.90371316666667, "lon": -76.985959, "fusion_lat": 0.0, "name": "1dae1e396893b3a7804dbbafa8280815", "is_disabled": 0, "is_reserved": 0, "bike_id": "1dae1e396893b3a7804dbbafa8280815", "fusion_lon": 0.0, "type": "electric_scooter"}, {"rental_uris": {"ios": "https://dc.lft.to/lastmile_qr_scan", "android": "https://dc.lft.to/lastmile_qr_scan"}, "lat": 38.897453166666665, "lon": -76.9797065, "fusion_lat": 0.0, "name": "f9b50d2a31ee7ffad374b6dea4867eec", "is_disabled": 0, "is_reserved": 0, "bike_id": "f9b50d2a31ee7ffad374b6dea4867eec", "fusion_lon": 0.0, "type": "electric_scooter"}, {"rental_uris": {"ios": "https://dc.lft.to/lastmile_qr_scan", "android": "https://dc.lft.to/lastmile_qr_scan"}, "lat": 38.92484483333333, "lon": -77.05117683333333, "fusion_lat": 0.0, "name": "efc09d7116a0dc888fdf033e6102f2eb", "is_disabled": 0, "is_reserved": 0, "bike_id": "efc09d7116a0dc888fdf033e6102f2eb", "fusion_lon": 0.0, "type": "electric_scooter"}, {"rental_uris": {"ios": "https://dc.lft.to/lastmile_qr_scan", "android": "https://dc.lft.to/lastmile_qr_scan"}, "lat": 38.91569616666666, "lon": -77.02136966666667, "fusion_lat": 0.0, "name": "c40ba0540f0926ed93becef0989b9e48", "is_disabled": 0, "is_reserved": 0, "bike_id": "c40ba0540f0926ed93becef0989b9e48", "fusion_lon": 0.0, "type": "electric_scooter"}, {"rental_uris": {"ios": "https://dc.lft.to/lastmile_qr_scan", "android": "https://dc.lft.to/lastmile_qr_scan"}, "lat": 38.93626966666667, "lon": -77.0365535, "fusion_lat": 0.0, "name": "7ef0cf0f23643625f85a59f23b05902c", "is_disabled": 0, "is_reserved": 0, "bike_id": "7ef0cf0f23643625f85a59f23b05902c", "fusion_lon": 0.0, "type": "electric_scooter"}, {"rental_uris": {"ios": "https://dc.lft.to/lastmile_qr_scan", "android": "https://dc.lft.to/lastmile_qr_scan"}, "lat": 38.8934665, "lon": -77.0317195, "fusion_lat": 0.0, "name": "fac4a40102f3effa9f2e019caec117b1", "is_disabled": 0, "is_reserved": 0, "bike_id": "fac4a40102f3effa9f2e019caec117b1", "fusion_lon": 0.0, "type": "electric_scooter"}, {"rental_uris": {"ios": "https://dc.lft.to/lastmile_qr_scan", "android": "https://dc.lft.to/lastmile_qr_scan"}, "lat": 38.900499333333336, "lon": -77.00067616666666, "fusion_lat": 0.0, "name": "0e8eb5e21e72a9b842a370180a746b09", "is_disabled": 0, "is_reserved": 0, "bike_id": "0e8eb5e21e72a9b842a370180a746b09", "fusion_lon": 0.0, "type": "electric_scooter"}, {"rental_uris": {"ios": "https://dc.lft.to/lastmile_qr_scan", "android": "https://dc.lft.to/lastmile_qr_scan"}, "lat": 38.915653666666664, "lon": -77.039344, "fusion_lat": 0.0, "name": "4c4a89b3884b0cb63c1477b33593cc88", "is_disabled": 0, "is_reserved": 0, "bike_id": "4c4a89b3884b0cb63c1477b33593cc88", "fusion_lon": 0.0, "type": "electric_scooter"}, {"rental_uris": {"ios": "https://dc.lft.to/lastmile_qr_scan", "android": "https://dc.lft.to/lastmile_qr_scan"}, "lat": 38.89734416666667, "lon": -76.94733833333333, "fusion_lat": 0.0, "name": "db34ecb042b85cba21918a4d3dc23851", "is_disabled": 0, "is_reserved": 0, "bike_id": "db34ecb042b85cba21918a4d3dc23851", "fusion_lon": 0.0, "type": "electric_scooter"}, {"rental_uris": {"ios": "https://dc.lft.to/lastmile_qr_scan", "android": "https://dc.lft.to/lastmile_qr_scan"}, "lat": 38.923324666666666, "lon": -77.05331916666667, "fusion_lat": 0.0, "name": "b9529728a5ef6986eebd7c1d4eb53a78", "is_disabled": 0, "is_reserved": 0, "bike_id": "b9529728a5ef6986eebd7c1d4eb53a78", "fusion_lon": 0.0, "type": "electric_scooter"}, {"rental_uris": {"ios": "https://dc.lft.to/lastmile_qr_scan", "android": "https://dc.lft.to/lastmile_qr_scan"}, "lat": 38.90568966666667, "lon": -77.02175583333333, "fusion_lat": 0.0, "name": "a6f4a3a9d943903ccd41e90ed32b58e2", "is_disabled": 0, "is_reserved": 0, "bike_id": "a6f4a3a9d943903ccd41e90ed32b58e2", "fusion_lon": 0.0, "type": "electric_scooter"}, {"rental_uris": {"ios": "https://dc.lft.to/lastmile_qr_scan", "android": "https://dc.lft.to/lastmile_qr_scan"}, "lat": 38.929781, "lon": -77.01302066666666, "fusion_lat": 0.0, "name": "b055d7839951532b7b0ec866afd091b7", "is_disabled": 0, "is_reserved": 0, "bike_id": "b055d7839951532b7b0ec866afd091b7", "fusion_lon": 0.0, "type": "electric_scooter"}, {"rental_uris": {"ios": "https://dc.lft.to/lastmile_qr_scan", "android": "https://dc.lft.to/lastmile_qr_scan"}, "lat": 38.875098, "lon": -76.99980016666666, "fusion_lat": 0.0, "name": "d7d35c3ed6217f4e6eb91e45d56d2a14", "is_disabled": 0, "is_reserved": 0, "bike_id": "d7d35c3ed6217f4e6eb91e45d56d2a14", "fusion_lon": 0.0, "type": "electric_scooter"}, {"rental_uris": {"ios": "https://dc.lft.to/lastmile_qr_scan", "android": "https://dc.lft.to/lastmile_qr_scan"}, "lat": 38.900243333333336, "lon": -77.00066583333333, "fusion_lat": 0.0, "name": "3fabf66832df34727c2f474c462e28b6", "is_disabled": 0, "is_reserved": 0, "bike_id": "3fabf66832df34727c2f474c462e28b6", "fusion_lon": 0.0, "type": "electric_scooter"}, {"rental_uris": {"ios": "https://dc.lft.to/lastmile_qr_scan", "android": "https://dc.lft.to/lastmile_qr_scan"}, "lat": 38.82367333333333, "lon": -77.0021725, "fusion_lat": 0.0, "name": "08a2710ffcc682920ccf7e6c719a6f6a", "is_disabled": 0, "is_reserved": 0, "bike_id": "08a2710ffcc682920ccf7e6c719a6f6a", "fusion_lon": 0.0, "type": "electric_bike"}, {"rental_uris": {"ios": "https://dc.lft.to/lastmile_qr_scan", "android": "https://dc.lft.to/lastmile_qr_scan"}, "lat": 38.919239833333336, "lon": -77.0093095, "fusion_lat": 0.0, "name": "ad96f68d91c6c19bc51087bc390185e2", "is_disabled": 0, "is_reserved": 0, "bike_id": "ad96f68d91c6c19bc51087bc390185e2", "fusion_lon": 0.0, "type": "electric_scooter"}, {"rental_uris": {"ios": "https://dc.lft.to/lastmile_qr_scan", "android": "https://dc.lft.to/lastmile_qr_scan"}, "lat": 38.85932833333333, "lon": -77.11830383333333, "fusion_lat": 0.0, "name": "9813108c261d0ca4621c4b1eb7faa168", "is_disabled": 0, "is_reserved": 0, "bike_id": "9813108c261d0ca4621c4b1eb7faa168", "fusion_lon": 0.0, "type": "electric_bike"}, {"rental_uris": {"ios": "https://dc.lft.to/lastmile_qr_scan", "android": "https://dc.lft.to/lastmile_qr_scan"}, "lat": 38.90734033333333, "lon": -77.068983, "fusion_lat": 0.0, "name": "24d031f6d7249af77a654789968d7bd5", "is_disabled": 0, "is_reserved": 0, "bike_id": "24d031f6d7249af77a654789968d7bd5", "fusion_lon": 0.0, "type": "electric_scooter"}, {"rental_uris": {"ios": "https://dc.lft.to/lastmile_qr_scan", "android": "https://dc.lft.to/lastmile_qr_scan"}, "lat": 38.87434983333333, "lon": -77.00053283333334, "fusion_lat": 0.0, "name": "c5affd7e572592699d0157bd967cfa89", "is_disabled": 0, "is_reserved": 0, "bike_id": "c5affd7e572592699d0157bd967cfa89", "fusion_lon": 0.0, "type": "electric_scooter"}, {"rental_uris": {"ios": "https://dc.lft.to/lastmile_qr_scan", "android": "https://dc.lft.to/lastmile_qr_scan"}, "lat": 38.923719166666665, "lon": -77.05174633333333, "fusion_lat": 0.0, "name": "0bb3bb4ccfbe47049af86f1807012d4a", "is_disabled": 0, "is_reserved": 0, "bike_id": "0bb3bb4ccfbe47049af86f1807012d4a", "fusion_lon": 0.0, "type": "electric_scooter"}, {"rental_uris": {"ios": "https://dc.lft.to/lastmile_qr_scan", "android": "https://dc.lft.to/lastmile_qr_scan"}, "lat": 38.902483333333336, "lon": -77.037381, "fusion_lat": 0.0, "name": "5eb3159c28ca55a87207aa610b6ce331", "is_disabled": 0, "is_reserved": 0, "bike_id": "5eb3159c28ca55a87207aa610b6ce331", "fusion_lon": 0.0, "type": "electric_scooter"}, {"rental_uris": {"ios": "https://dc.lft.to/lastmile_qr_scan", "android": "https://dc.lft.to/lastmile_qr_scan"}, "lat": 38.900099166666664, "lon": -77.04475483333333, "fusion_lat": 0.0, "name": "084f38012a338c8f9edc79c0a821f6b5", "is_disabled": 0, "is_reserved": 0, "bike_id": "084f38012a338c8f9edc79c0a821f6b5", "fusion_lon": 0.0, "type": "electric_scooter"}, {"rental_uris": {"ios": "https://dc.lft.to/lastmile_qr_scan", "android": "https://dc.lft.to/lastmile_qr_scan"}, "lat": 38.93321566666667, "lon": -77.02928966666667, "fusion_lat": 0.0, "name": "cab5df189ef5a4d8b128c8104ca18020", "is_disabled": 0, "is_reserved": 0, "bike_id": "cab5df189ef5a4d8b128c8104ca18020", "fusion_lon": 0.0, "type": "electric_scooter"}, {"rental_uris": {"ios": "https://dc.lft.to/lastmile_qr_scan", "android": "https://dc.lft.to/lastmile_qr_scan"}, "lat": 38.903275, "lon": -77.02885233333333, "fusion_lat": 0.0, "name": "5f680818d0154a351c5573eae97d95ea", "is_disabled": 0, "is_reserved": 0, "bike_id": "5f680818d0154a351c5573eae97d95ea", "fusion_lon": 0.0, "type": "electric_scooter"}, {"rental_uris": {"ios": "https://dc.lft.to/lastmile_qr_scan", "android": "https://dc.lft.to/lastmile_qr_scan"}, "lat": 38.902818, "lon": -77.01781866666667, "fusion_lat": 0.0, "name": "2430204becaefd9653448c1fd2604e49", "is_disabled": 0, "is_reserved": 0, "bike_id": "2430204becaefd9653448c1fd2604e49", "fusion_lon": 0.0, "type": "electric_scooter"}, {"rental_uris": {"ios": "https://dc.lft.to/lastmile_qr_scan", "android": "https://dc.lft.to/lastmile_qr_scan"}, "lat": 38.936344166666665, "lon": -77.06869516666667, "fusion_lat": 0.0, "name": "b40930a8be42a1ebc9df7a08009e0457", "is_disabled": 0, "is_reserved": 0, "bike_id": "b40930a8be42a1ebc9df7a08009e0457", "fusion_lon": 0.0, "type": "electric_scooter"}, {"rental_uris": {"ios": "https://dc.lft.to/lastmile_qr_scan", "android": "https://dc.lft.to/lastmile_qr_scan"}, "lat": 38.938758666666665, "lon": -77.0259635, "fusion_lat": 0.0, "name": "14b75a9b80bafc8829db25b7e3b55740", "is_disabled": 0, "is_reserved": 0, "bike_id": "14b75a9b80bafc8829db25b7e3b55740", "fusion_lon": 0.0, "type": "electric_scooter"}, {"rental_uris": {"ios": "https://dc.lft.to/lastmile_qr_scan", "android": "https://dc.lft.to/lastmile_qr_scan"}, "lat": 38.878834, "lon": -77.09612966666667, "fusion_lat": 0.0, "name": "60e6ff3d840c4e88f53673f8879772c4", "is_disabled": 0, "is_reserved": 0, "bike_id": "60e6ff3d840c4e88f53673f8879772c4", "fusion_lon": 0.0, "type": "electric_bike"}, {"rental_uris": {"ios": "https://dc.lft.to/lastmile_qr_scan", "android": "https://dc.lft.to/lastmile_qr_scan"}, "lat": 38.922881333333336, "lon": -77.02244883333333, "fusion_lat": 0.0, "name": "3193fc3f8444f37dc8b698dee91c2b8c", "is_disabled": 0, "is_reserved": 0, "bike_id": "3193fc3f8444f37dc8b698dee91c2b8c", "fusion_lon": 0.0, "type": "electric_bike"}, {"rental_uris": {"ios": "https://dc.lft.to/lastmile_qr_scan", "android": "https://dc.lft.to/lastmile_qr_scan"}, "lat": 38.907549833333334, "lon": -77.03196283333334, "fusion_lat": 0.0, "name": "0d192fed0e8b86475424afe9839b2ef3", "is_disabled": 0, "is_reserved": 0, "bike_id": "0d192fed0e8b86475424afe9839b2ef3", "fusion_lon": 0.0, "type": "electric_scooter"}, {"rental_uris": {"ios": "https://dc.lft.to/lastmile_qr_scan", "android": "https://dc.lft.to/lastmile_qr_scan"}, "lat": 38.92046366666667, "lon": -77.01671116666667, "fusion_lat": 0.0, "name": "e29d28a198f74b0252737acff70375e4", "is_disabled": 0, "is_reserved": 0, "bike_id": "e29d28a198f74b0252737acff70375e4", "fusion_lon": 0.0, "type": "electric_scooter"}, {"rental_uris": {"ios": "https://dc.lft.to/lastmile_qr_scan", "android": "https://dc.lft.to/lastmile_qr_scan"}, "lat": 38.874765, "lon": -77.0107215, "fusion_lat": 0.0, "name": "e432906c1aaeb8a67611a179e30aafac", "is_disabled": 0, "is_reserved": 0, "bike_id": "e432906c1aaeb8a67611a179e30aafac", "fusion_lon": 0.0, "type": "electric_scooter"}, {"rental_uris": {"ios": "https://dc.lft.to/lastmile_qr_scan", "android": "https://dc.lft.to/lastmile_qr_scan"}, "lat": 38.90192483333333, "lon": -76.92890583333333, "fusion_lat": 0.0, "name": "7efecd93fbaae6e0c32e01920851fe0a", "is_disabled": 0, "is_reserved": 0, "bike_id": "7efecd93fbaae6e0c32e01920851fe0a", "fusion_lon": 0.0, "type": "electric_scooter"}, {"rental_uris": {"ios": "https://dc.lft.to/lastmile_qr_scan", "android": "https://dc.lft.to/lastmile_qr_scan"}, "lat": 38.9132365, "lon": -77.03196216666667, "fusion_lat": 0.0, "name": "64256526e655a5c91ebafbff640090b8", "is_disabled": 0, "is_reserved": 0, "bike_id": "64256526e655a5c91ebafbff640090b8", "fusion_lon": 0.0, "type": "electric_scooter"}, {"rental_uris": {"ios": "https://dc.lft.to/lastmile_qr_scan", "android": "https://dc.lft.to/lastmile_qr_scan"}, "lat": 38.908260166666665, "lon": -76.99692416666667, "fusion_lat": 0.0, "name": "7fec6a8acc3022b413aca36f68db9a86", "is_disabled": 0, "is_reserved": 0, "bike_id": "7fec6a8acc3022b413aca36f68db9a86", "fusion_lon": 0.0, "type": "electric_scooter"}, {"rental_uris": {"ios": "https://dc.lft.to/lastmile_qr_scan", "android": "https://dc.lft.to/lastmile_qr_scan"},