{"data": {"bikes": [{"fusion_lat": 0.0, "type": "electric_scooter", "name": "6719b9edeeb07e0f96932c8f604fc425", "fusion_lon": 0.0, "bike_id": "6719b9edeeb07e0f96932c8f604fc425", "is_reserved": 0, "rental_uris": {"android": "https://dc.lft.to/lastmile_qr_scan", "ios": "https://dc.lft.to/lastmile_qr_scan"}, "lat": 38.909371166666666, "is_disabled": 0, "lon": -77.03857516666666}, {"fusion_lat": 0.0, "type": "electric_scooter", "name": "79318123a55d7b95ddb2bff04cff366e", "fusion_lon": 0.0, "bike_id": "79318123a55d7b95ddb2bff04cff366e", "is_reserved": 0, "rental_uris": {"android": "https://dc.lft.to/lastmile_qr_scan", "ios": "https://dc.lft.to/lastmile_qr_scan"}, "lat": 38.909613, "is_disabled": 0, "lon": -77.03214283333334}, {"fusion_lat": 0.0, "type": "electric_scooter", "name": "39bce55b1aac48ff4064c9b322661892", "fusion_lon": 0.0, "bike_id": "39bce55b1aac48ff4064c9b322661892", "is_reserved": 0, "rental_uris": {"android": "https://dc.lft.to/lastmile_qr_scan", "ios": "https://dc.lft.to/lastmile_qr_scan"}, "lat": 38.90155933333333, "is_disabled": 0, "lon": -76.990157}, {"fusion_lat": 0.0, "type": "electric_scooter", "name": "0e83944d11661d9048277a7a5eb5a3d7", "fusion_lon": 0.0, "bike_id": "0e83944d11661d9048277a7a5eb5a3d7", "is_reserved": 0, "rental_uris": {"android": "https://dc.lft.to/lastmile_qr_scan", "ios": "https://dc.lft.to/lastmile_qr_scan"}, "lat": 38.9003295, "is_disabled": 0, "lon": -76.984375}, {"fusion_lat": 0.0, "type": "electric_scooter", "name": "ac43e8f029424d22d1bb02223e7f99a3", "fusion_lon": 0.0, "bike_id": "ac43e8f029424d22d1bb02223e7f99a3", "is_reserved": 0, "rental_uris": {"android": "https://dc.lft.to/lastmile_qr_scan", "ios": "https://dc.lft.to/lastmile_qr_scan"}, "lat": 38.91329966666667, "is_disabled": 0, "lon": -77.01457233333333}, {"fusion_lat": 0.0, "type": "electric_scooter", "name": "7139575f4abf6a648e9785a3eb5e1e69", "fusion_lon": 0.0, "bike_id": "7139575f4abf6a648e9785a3eb5e1e69", "is_reserved": 0, "rental_uris": {"android": "https://dc.lft.to/lastmile_qr_scan", "ios": "https://dc.lft.to/lastmile_qr_scan"}, "lat": 38.9039755, "is_disabled": 0, "lon": -77.06261616666667}, {"fusion_lat": 0.0, "type": "electric_scooter", "name": "671a8ace3f7441c10fa93ed1744e41a2", "fusion_lon": 0.0, "bike_id": "671a8ace3f7441c10fa93ed1744e41a2", "is_reserved": 0, "rental_uris": {"android": "https://dc.lft.to/lastmile_qr_scan", "ios": "https://dc.lft.to/lastmile_qr_scan"}, "lat": 38.91747483333333, "is_disabled": 0, "lon": -77.03182383333333}, {"fusion_lat": 0.0, "type": "electric_scooter", "name": "1db3ed05d9c8acff0dd3b32e73290125", "fusion_lon": 0.0, "bike_id": "1db3ed05d9c8acff0dd3b32e73290125", "is_reserved": 0, "rental_uris": {"android": "https://dc.lft.to/lastmile_qr_scan", "ios": "https://dc.lft.to/lastmile_qr_scan"}, "lat": 38.90978666666667, "is_disabled": 0, "lon": -77.02413683333333}, {"fusion_lat": 0.0, "type": "electric_scooter", "name": "27d441a9246be576288907d6a23c1f06", "fusion_lon": 0.0, "bike_id": "27d441a9246be576288907d6a23c1f06", "is_reserved": 0, "rental_uris": {"android": "https://dc.lft.to/lastmile_qr_scan", "ios": "https://dc.lft.to/lastmile_qr_scan"}, "lat": 38.9025445, "is_disabled": 0, "lon": -77.01932916666667}, {"fusion_lat": 0.0, "type": "electric_scooter", "name": "a8a8f65f01a7a9f8f2e19b92f6217932", "fusion_lon": 0.0, "bike_id": "a8a8f65f01a7a9f8f2e19b92f6217932", "is_reserved": 0, "rental_uris": {"android": "https://dc.lft.to/lastmile_qr_scan", "ios": "https://dc.lft.to/lastmile_qr_scan"}, "lat": 38.90199533333333, "is_disabled": 0, "lon": -76.98054}, {"fusion_lat": 0.0, "type": "electric_scooter", "name": "fcb4d14f0688b748623fab4bdd730196", "fusion_lon": 0.0, "bike_id": "fcb4d14f0688b748623fab4bdd730196", "is_reserved": 0, "rental_uris": {"android": "https://dc.lft.to/lastmile_qr_scan", "ios": "https://dc.lft.to/lastmile_qr_scan"}, "lat": 38.9109555, "is_disabled": 0, "lon": -77.03715716666666}, {"fusion_lat": 0.0, "type": "electric_scooter", "name": "5c28755a64faa61cad35653b5c7f496c", "fusion_lon": 0.0, "bike_id": "5c28755a64faa61cad35653b5c7f496c", "is_reserved": 0, "rental_uris": {"android": "https://dc.lft.to/lastmile_qr_scan", "ios": "https://dc.lft.to/lastmile_qr_scan"}, "lat": 38.88736516666667, "is_disabled": 0, "lon": -77.02582066666666}, {"fusion_lat": 0.0, "type": "electric_bike", "name": "cedf1e7f0c5f40657813f58b04510918", "fusion_lon": 0.0, "bike_id": "cedf1e7f0c5f40657813f58b04510918", "is_reserved": 0, "rental_uris": {"android": "https://dc.lft.to/lastmile_qr_scan", "ios": "https://dc.lft.to/lastmile_qr_scan"}, "lat": 38.967817333333336, "is_disabled": 0, "lon": -77.00044766666667}, {"fusion_lat": 0.0, "type": "electric_scooter", "name": "d5d2702bbbde527894422e75309ebb50", "fusion_lon": 0.0, "bike_id": "d5d2702bbbde527894422e75309ebb50", "is_reserved": 0, "rental_uris": {"android": "https://dc.lft.to/lastmile_qr_scan", "ios": "https://dc.lft.to/lastmile_qr_scan"}, "lat": 38.89237166666667, "is_disabled": 0, "lon": -77.032089}, {"fusion_lat": 0.0, "type": "electric_scooter", "name": "27a0ef504b9c06aa1f14f24291c5b69a", "fusion_lon": 0.0, "bike_id": "27a0ef504b9c06aa1f14f24291c5b69a", "is_reserved": 0, "rental_uris": {"android": "https://dc.lft.to/lastmile_qr_scan", "ios": "https://dc.lft.to/lastmile_qr_scan"}, "lat": 38.892295, "is_disabled": 0, "lon": -77.03182566666666}, {"fusion_lat": 0.0, "type": "electric_scooter", "name": "4c1c23cfe0554b8c9fe867a5285243fc", "fusion_lon": 0.0, "bike_id": "4c1c23cfe0554b8c9fe867a5285243fc", "is_reserved": 0, "rental_uris": {"android": "https://dc.lft.to/lastmile_qr_scan", "ios": "https://dc.lft.to/lastmile_qr_scan"}, "lat": 38.87340966666667, "is_disabled": 0, "lon": -76.99163183333333}, {"fusion_lat": 0.0, "type": "electric_scooter", "name": "c52ab9494d6d5c1eed2f9d872db967b6", "fusion_lon": 0.0, "bike_id": "c52ab9494d6d5c1eed2f9d872db967b6", "is_reserved": 0, "rental_uris": {"android": "https://dc.lft.to/lastmile_qr_scan", "ios": "https://dc.lft.to/lastmile_qr_scan"}, "lat": 38.9540305, "is_disabled": 0, "lon": -77.02785516666667}, {"fusion_lat": 0.0, "type": "electric_scooter", "name": "7a9b03025e9ee35f0d3b61c0040dcfd3", "fusion_lon": 0.0, "bike_id": "7a9b03025e9ee35f0d3b61c0040dcfd3", "is_reserved": 0, "rental_uris": {"android": "https://dc.lft.to/lastmile_qr_scan", "ios": "https://dc.lft.to/lastmile_qr_scan"}, "lat": 38.9309395, "is_disabled": 0, "lon": -77.0253185}, {"fusion_lat": 0.0, "type": "electric_scooter", "name": "d315bc2da0a0d78b6388947799249418", "fusion_lon": 0.0, "bike_id": "d315bc2da0a0d78b6388947799249418", "is_reserved": 0, "rental_uris": {"android": "https://dc.lft.to/lastmile_qr_scan", "ios": "https://dc.lft.to/lastmile_qr_scan"}, "lat": 38.91175616666666, "is_disabled": 0, "lon": -77.00462066666667}, {"fusion_lat": 0.0, "type": "electric_bike", "name": "60f7aa6fc930762fb3e8976edd0a48e3", "fusion_lon": 0.0, "bike_id": "60f7aa6fc930762fb3e8976edd0a48e3", "is_reserved": 0, "rental_uris": {"android": "https://dc.lft.to/lastmile_qr_scan", "ios": "https://dc.lft.to/lastmile_qr_scan"}, "lat": 39.043048166666665, "is_disabled": 0, "lon": -77.05161416666667}, {"fusion_lat": 0.0, "type": "electric_scooter", "name": "02d1ecdf7afa5dffd191cc30788d3e31", "fusion_lon": 0.0, "bike_id": "02d1ecdf7afa5dffd191cc30788d3e31", "is_reserved": 0, "rental_uris": {"android": "https://dc.lft.to/lastmile_qr_scan", "ios": "https://dc.lft.to/lastmile_qr_scan"}, "lat": 38.89197466666667, "is_disabled": 0, "lon": -76.93301616666666}, {"fusion_lat": 0.0, "type": "electric_scooter", "name": "0f2b2cfd722bede1c2496e906bf0ebbd", "fusion_lon": 0.0, "bike_id": "0f2b2cfd722bede1c2496e906bf0ebbd", "is_reserved": 0, "rental_uris": {"android": "https://dc.lft.to/lastmile_qr_scan", "ios": "https://dc.lft.to/lastmile_qr_scan"}, "lat": 38.90049166666667, "is_disabled": 0, "lon": -77.03194033333334}, {"fusion_lat": 0.0, "type": "electric_scooter", "name": "74a1c199ba24479cef94eeeed2a42dad", "fusion_lon": 0.0, "bike_id": "74a1c199ba24479cef94eeeed2a42dad", "is_reserved": 0, "rental_uris": {"android": "https://dc.lft.to/lastmile_qr_scan", "ios": "https://dc.lft.to/lastmile_qr_scan"}, "lat": 38.895121333333336, "is_disabled": 0, "lon": -76.94882616666666}, {"fusion_lat": 0.0, "type": "electric_scooter", "name": "622da97dd31351c21c61e90a54ceb6ac", "fusion_lon": 0.0, "bike_id": "622da97dd31351c21c61e90a54ceb6ac", "is_reserved": 0, "rental_uris": {"android": "https://dc.lft.to/lastmile_qr_scan", "ios": "https://dc.lft.to/lastmile_qr_scan"}, "lat": 38.9265825, "is_disabled": 0, "lon": -77.02427116666667}, {"fusion_lat": 0.0, "type": "electric_scooter", "name": "84577e7650b7361572329a08b757bba9", "fusion_lon": 0.0, "bike_id": "84577e7650b7361572329a08b757bba9", "is_reserved": 0, "rental_uris": {"android": "https://dc.lft.to/lastmile_qr_scan", "ios": "https://dc.lft.to/lastmile_qr_scan"}, "lat": 38.90733083333333, "is_disabled": 0, "lon": -76.98696433333333}, {"fusion_lat": 0.0, "type": "electric_scooter", "name": "83951dd25651c05260401249f2dd2b75", "fusion_lon": 0.0, "bike_id": "83951dd25651c05260401249f2dd2b75", "is_reserved": 0, "rental_uris": {"android": "https://dc.lft.to/lastmile_qr_scan", "ios": "https://dc.lft.to/lastmile_qr_scan"}, "lat": 38.92375116666667, "is_disabled": 0, "lon": -77.0191165}, {"fusion_lat": 0.0, "type": "electric_scooter", "name": "570113836257f9de35a291538a3f74fb", "fusion_lon": 0.0, "bike_id": "570113836257f9de35a291538a3f74fb", "is_reserved": 0, "rental_uris": {"android": "https://dc.lft.to/lastmile_qr_scan", "ios": "https://dc.lft.to/lastmile_qr_scan"}, "lat": 38.892497, "is_disabled": 0, "lon": -77.02206683333333}, {"fusion_lat": 0.0, "type": "electric_scooter", "name": "37fe34a02f05d3f80b7508e86af4a7c5", "fusion_lon": 0.0, "bike_id": "37fe34a02f05d3f80b7508e86af4a7c5", "is_reserved": 0, "rental_uris": {"android": "https://dc.lft.to/lastmile_qr_scan", "ios": "https://dc.lft.to/lastmile_qr_scan"}, "lat": 38.898950166666665, "is_disabled": 0, "lon": -77.039222}, {"fusion_lat": 0.0, "type": "electric_scooter", "name": "dc9a2f5dc12df0c226800e2564a3ef2b", "fusion_lon": 0.0, "bike_id": "dc9a2f5dc12df0c226800e2564a3ef2b", "is_reserved": 0, "rental_uris": {"android": "https://dc.lft.to/lastmile_qr_scan", "ios": "https://dc.lft.to/lastmile_qr_scan"}, "lat": 38.907353666666666, "is_disabled": 0, "lon": -77.02692333333333}, {"fusion_lat": 0.0, "type": "electric_scooter", "name": "fd78d82ac76ae843451408f58ba56cfa", "fusion_lon": 0.0, "bike_id": "fd78d82ac76ae843451408f58ba56cfa", "is_reserved": 0, "rental_uris": {"android": "https://dc.lft.to/lastmile_qr_scan", "ios": "https://dc.lft.to/lastmile_qr_scan"}, "lat": 38.911862166666666, "is_disabled": 0, "lon": -77.03498166666667}, {"fusion_lat": 0.0, "type": "electric_scooter", "name": "956a9705dd9a7caf9e688c830226ddf0", "fusion_lon": 0.0, "bike_id": "956a9705dd9a7caf9e688c830226ddf0", "is_reserved": 0, "rental_uris": {"android": "https://dc.lft.to/lastmile_qr_scan", "ios": "https://dc.lft.to/lastmile_qr_scan"}, "lat": 38.9225385, "is_disabled": 0, "lon": -77.02979033333334}, {"fusion_lat": 0.0, "type": "electric_scooter", "name": "b1e7469effca346dbac9f7097d0dead4", "fusion_lon": 0.0, "bike_id": "b1e7469effca346dbac9f7097d0dead4", "is_reserved": 0, "rental_uris": {"android": "https://dc.lft.to/lastmile_qr_scan", "ios": "https://dc.lft.to/lastmile_qr_scan"}, "lat": 38.897924333333336, "is_disabled": 0, "lon": -77.05013616666666}, {"fusion_lat": 0.0, "type": "electric_scooter", "name": "2e23d34bbee0528dc6b21de2a76cb6bd", "fusion_lon": 0.0, "bike_id": "2e23d34bbee0528dc6b21de2a76cb6bd", "is_reserved": 0, "rental_uris": {"android": "https://dc.lft.to/lastmile_qr_scan", "ios": "https://dc.lft.to/lastmile_qr_scan"}, "lat": 38.89611433333334, "is_disabled": 0, "lon": -76.99971616666667}, {"fusion_lat": 0.0, "type": "electric_scooter", "name": "93e382cac0460d20e7242358a370b152", "fusion_lon": 0.0, "bike_id": "93e382cac0460d20e7242358a370b152", "is_reserved": 0, "rental_uris": {"android": "https://dc.lft.to/lastmile_qr_scan", "ios": "https://dc.lft.to/lastmile_qr_scan"}, "lat": 38.9051205, "is_disabled": 0, "lon": -76.99608583333334}, {"fusion_lat": 0.0, "type": "electric_scooter", "name": "a7d01e49eb6760993e5448fb066747c6", "fusion_lon": 0.0, "bike_id": "a7d01e49eb6760993e5448fb066747c6", "is_reserved": 0, "rental_uris": {"android": "https://dc.lft.to/lastmile_qr_scan", "ios": "https://dc.lft.to/lastmile_qr_scan"}, "lat": 38.920399333333336, "is_disabled": 0, "lon": -77.01222966666667}, {"fusion_lat": 0.0, "type": "electric_bike", "name": "c214e9728432352ac1d748aed8391d0f", "fusion_lon": 0.0, "bike_id": "c214e9728432352ac1d748aed8391d0f", "is_reserved": 0, "rental_uris": {"android": "https://dc.lft.to/lastmile_qr_scan", "ios": "https://dc.lft.to/lastmile_qr_scan"}, "lat": 38.90628366666667, "is_disabled": 0, "lon": -76.98597266666667}, {"fusion_lat": 0.0, "type": "electric_scooter", "name": "765e8aa709694fa921972ede0da88f62", "fusion_lon": 0.0, "bike_id": "765e8aa709694fa921972ede0da88f62", "is_reserved": 0, "rental_uris": {"android": "https://dc.lft.to/lastmile_qr_scan", "ios": "https://dc.lft.to/lastmile_qr_scan"}, "lat": 38.9073015, "is_disabled": 0, "lon": -77.03453083333333}, {"fusion_lat": 0.0, "type": "electric_scooter", "name": "674a8075b3bb3291aef8ce757bf60979", "fusion_lon": 0.0, "bike_id": "674a8075b3bb3291aef8ce757bf60979", "is_reserved": 0, "rental_uris": {"android": "https://dc.lft.to/lastmile_qr_scan", "ios": "https://dc.lft.to/lastmile_qr_scan"}, "lat": 38.9119145, "is_disabled": 0, "lon": -77.03515666666667}, {"fusion_lat": 0.0, "type": "electric_bike", "name": "56ed715893662bbb4b2a6f7b1fc6c95d", "fusion_lon": 0.0, "bike_id": "56ed715893662bbb4b2a6f7b1fc6c95d", "is_reserved": 0, "rental_uris": {"android": "https://dc.lft.to/lastmile_qr_scan", "ios": "https://dc.lft.to/lastmile_qr_scan"}, "lat": 38.8766695, "is_disabled": 0, "lon": -77.01454133333333}, {"fusion_lat": 0.0, "type": "electric_scooter", "name": "6cecfb31bdc24902bd18603fe595a4d2", "fusion_lon": 0.0, "bike_id": "6cecfb31bdc24902bd18603fe595a4d2", "is_reserved": 0, "rental_uris": {"android": "https://dc.lft.to/lastmile_qr_scan", "ios": "https://dc.lft.to/lastmile_qr_scan"}, "lat": 38.91012516666667, "is_disabled": 0, "lon": -77.020899}, {"fusion_lat": 0.0, "type": "electric_scooter", "name": "04c82f3902e6c1b0933e971f692fadd8", "fusion_lon": 0.0, "bike_id": "04c82f3902e6c1b0933e971f692fadd8", "is_reserved": 0, "rental_uris": {"android": "https://dc.lft.to/lastmile_qr_scan", "ios": "https://dc.lft.to/lastmile_qr_scan"}, "lat": 38.8922665, "is_disabled": 0, "lon": -77.04895816666667}, {"fusion_lat": 0.0, "type": "electric_scooter", "name": "792fe7295160c3457971a71cf13b81a6", "fusion_lon": 0.0, "bike_id": "792fe7295160c3457971a71cf13b81a6", "is_reserved": 0, "rental_uris": {"android": "https://dc.lft.to/lastmile_qr_scan", "ios": "https://dc.lft.to/lastmile_qr_scan"}, "lat": 38.866843, "is_disabled": 0, "lon": -76.98596133333334}, {"fusion_lat": 0.0, "type": "electric_scooter", "name": "99b1ec45ad578f4d72bf0be49b919c7a", "fusion_lon": 0.0, "bike_id": "99b1ec45ad578f4d72bf0be49b919c7a", "is_reserved": 0, "rental_uris": {"android": "https://dc.lft.to/lastmile_qr_scan", "ios": "https://dc.lft.to/lastmile_qr_scan"}, "lat": 38.913089166666666, "is_disabled": 0, "lon": -77.03857283333333}, {"fusion_lat": 0.0, "type": "electric_scooter", "name": "3f92de2de08cdd94bb32474b34224891", "fusion_lon": 0.0, "bike_id": "3f92de2de08cdd94bb32474b34224891", "is_reserved": 0, "rental_uris": {"android": "https://dc.lft.to/lastmile_qr_scan", "ios": "https://dc.lft.to/lastmile_qr_scan"}, "lat": 38.908847, "is_disabled": 0, "lon": -76.99855833333334}, {"fusion_lat": 0.0, "type": "electric_scooter", "name": "8428530784a74c6353e63433d5c614b8", "fusion_lon": 0.0, "bike_id": "8428530784a74c6353e63433d5c614b8", "is_reserved": 0, "rental_uris": {"android": "https://dc.lft.to/lastmile_qr_scan", "ios": "https://dc.lft.to/lastmile_qr_scan"}, "lat": 38.849978666666665, "is_disabled": 0, "lon": -76.98344016666667}, {"fusion_lat": 0.0, "type": "electric_scooter", "name": "a7e61d24a2b48f78641681cfddb32ba3", "fusion_lon": 0.0, "bike_id": "a7e61d24a2b48f78641681cfddb32ba3", "is_reserved": 0, "rental_uris": {"android": "https://dc.lft.to/lastmile_qr_scan", "ios": "https://dc.lft.to/lastmile_qr_scan"}, "lat": 38.907805833333335, "is_disabled": 0, "lon": -77.07310816666667}, {"fusion_lat": 0.0, "type": "electric_scooter", "name": "5bae1f88dfee6f8f82d5428f3aa59224", "fusion_lon": 0.0, "bike_id": "5bae1f88dfee6f8f82d5428f3aa59224", "is_reserved": 0, "rental_uris": {"android": "https://dc.lft.to/lastmile_qr_scan", "ios": "https://dc.lft.to/lastmile_qr_scan"}, "lat": 38.90981433333333, "is_disabled": 0, "lon": -77.04698116666667}, {"fusion_lat": 0.0, "type": "electric_scooter", "name": "fa8aa96d205c0eed7db5015a211bb56c", "fusion_lon": 0.0, "bike_id": "fa8aa96d205c0eed7db5015a211bb56c", "is_reserved": 0, "rental_uris": {"android": "https://dc.lft.to/lastmile_qr_scan", "ios": "https://dc.lft.to/lastmile_qr_scan"}, "lat": 38.930948, "is_disabled": 0, "lon": -77.0250145}, {"fusion_lat": 0.0, "type": "electric_scooter", "name": "2bb221de8341a4416dd43d4441671ce3", "fusion_lon": 0.0, "bike_id": "2bb221de8341a4416dd43d4441671ce3", "is_reserved": 0, "rental_uris": {"android": "https://dc.lft.to/lastmile_qr_scan", "ios": "https://dc.lft.to/lastmile_qr_scan"}, "lat": 38.9267745, "is_disabled": 0, "lon": -77.02247466666667}, {"fusion_lat": 0.0, "type": "electric_scooter", "name": "945e2f94b049450114e0d2a15b5e9625", "fusion_lon": 0.0, "bike_id": "945e2f94b049450114e0d2a15b5e9625", "is_reserved": 0, "rental_uris": {"android": "https://dc.lft.to/lastmile_qr_scan", "ios": "https://dc.lft.to/lastmile_qr_scan"}, "lat": 38.901823666666665, "is_disabled": 0, "lon": -76.92864516666667}, {"fusion_lat": 0.0, "type": "electric_scooter", "name": "024eb8a3a4e44d4160d53db8d355cc24", "fusion_lon": 0.0, "bike_id": "024eb8a3a4e44d4160d53db8d355cc24", "is_reserved": 0, "rental_uris": {"android": "https://dc.lft.to/lastmile_qr_scan", "ios": "https://dc.lft.to/lastmile_qr_scan"}, "lat": 38.924925333333334, "is_disabled": 0, "lon": -77.02139266666667}, {"fusion_lat": 0.0, "type": "electric_scooter", "name": "f12baa5cd912f3892500d2e3db3a3b72", "fusion_lon": 0.0, "bike_id": "f12baa5cd912f3892500d2e3db3a3b72", "is_reserved": 0, "rental_uris": {"android": "https://dc.lft.to/lastmile_qr_scan", "ios": "https://dc.lft.to/lastmile_qr_scan"}, "lat": 38.887220666666664, "is_disabled": 0, "lon": -76.98350383333333}, {"fusion_lat": 0.0, "type": "electric_scooter", "name": "9ec8c4d082c1355199ae5ccacb61e271", "fusion_lon": 0.0, "bike_id": "9ec8c4d082c1355199ae5ccacb61e271", "is_reserved": 0, "rental_uris": {"android": "https://dc.lft.to/lastmile_qr_scan", "ios": "https://dc.lft.to/lastmile_qr_scan"}, "lat": 38.897222166666666, "is_disabled": 0, "lon": -77.04302883333334}, {"fusion_lat": 0.0, "type": "electric_scooter", "name": "c13c62eec3e5b71f8e2256edfba26637", "fusion_lon": 0.0, "bike_id": "c13c62eec3e5b71f8e2256edfba26637", "is_reserved": 0, "rental_uris": {"android": "https://dc.lft.to/lastmile_qr_scan", "ios": "https://dc.lft.to/lastmile_qr_scan"}, "lat": 38.919924333333334, "is_disabled": 0, "lon": -77.03202233333333}, {"fusion_lat": 0.0, "type": "electric_scooter", "name": "5aa0152ef3e3ffbcd5f5e37e239aba71", "fusion_lon": 0.0, "bike_id": "5aa0152ef3e3ffbcd5f5e37e239aba71", "is_reserved": 0, "rental_uris": {"android": "https://dc.lft.to/lastmile_qr_scan", "ios": "https://dc.lft.to/lastmile_qr_scan"}, "lat": 38.921533333333336, "is_disabled": 0, "lon": -77.038777}, {"fusion_lat": 0.0, "type": "electric_scooter", "name": "50cbd6135eccf8c08b0908dcaefd6d2f", "fusion_lon": 0.0, "bike_id": "50cbd6135eccf8c08b0908dcaefd6d2f", "is_reserved": 0, "rental_uris": {"android": "https://dc.lft.to/lastmile_qr_scan", "ios": "https://dc.lft.to/lastmile_qr_scan"}, "lat": 38.92911516666667, "is_disabled": 0, "lon": -77.02192716666667}, {"fusion_lat": 0.0, "type": "electric_scooter", "name": "ad70b38f596c5dc12c70ba449df367b2", "fusion_lon": 0.0, "bike_id": "ad70b38f596c5dc12c70ba449df367b2", "is_reserved": 0, "rental_uris": {"android": "https://dc.lft.to/lastmile_qr_scan", "ios": "https://dc.lft.to/lastmile_qr_scan"}, "lat": 38.899162833333335, "is_disabled": 0, "lon": -76.93366933333333}, {"fusion_lat": 0.0, "type": "electric_scooter", "name": "dc1e30875526eea8c0f55116a4d75fde", "fusion_lon": 0.0, "bike_id": "dc1e30875526eea8c0f55116a4d75fde", "is_reserved": 0, "rental_uris": {"android": "https://dc.lft.to/lastmile_qr_scan", "ios": "https://dc.lft.to/lastmile_qr_scan"}, "lat": 38.90029416666667, "is_disabled": 0, "lon": -77.02615083333333}, {"fusion_lat": 0.0, "type": "electric_scooter", "name": "99b9b8079239d7857c7215ec5fb2bde2", "fusion_lon": 0.0, "bike_id": "99b9b8079239d7857c7215ec5fb2bde2", "is_reserved": 0, "rental_uris": {"android": "https://dc.lft.to/lastmile_qr_scan", "ios": "https://dc.lft.to/lastmile_qr_scan"}, "lat": 38.914059, "is_disabled": 0, "lon": -77.02020633333333}, {"fusion_lat": 0.0, "type": "electric_scooter", "name": "70ee98abf4d1077ec45913b5f3cb11e8", "fusion_lon": 0.0, "bike_id": "70ee98abf4d1077ec45913b5f3cb11e8", "is_reserved": 0, "rental_uris": {"android": "https://dc.lft.to/lastmile_qr_scan", "ios": "https://dc.lft.to/lastmile_qr_scan"}, "lat": 38.90264783333333, "is_disabled": 0, "lon": -77.00325333333333}, {"fusion_lat": 0.0, "type": "electric_scooter", "name": "16126327d6f2ede4039bb3dd684bfdf1", "fusion_lon": 0.0, "bike_id": "16126327d6f2ede4039bb3dd684bfdf1", "is_reserved": 0, "rental_uris": {"android": "https://dc.lft.to/lastmile_qr_scan", "ios": "https://dc.lft.to/lastmile_qr_scan"}, "lat": 38.89616066666667, "is_disabled": 0, "lon": -77.04463816666667}, {"fusion_lat": 0.0, "type": "electric_bike", "name": "ec266f492c2469d8e79ec0228c81521e", "fusion_lon": 0.0, "bike_id": "ec266f492c2469d8e79ec0228c81521e", "is_reserved": 0, "rental_uris": {"android": "https://dc.lft.to/lastmile_qr_scan", "ios": "https://dc.lft.to/lastmile_qr_scan"}, "lat": 38.918944333333336, "is_disabled": 0, "lon": -77.07048283333333}, {"fusion_lat": 0.0, "type": "electric_scooter", "name": "e25ca89eb27ebb1738a5039694af0de4", "fusion_lon": 0.0, "bike_id": "e25ca89eb27ebb1738a5039694af0de4", "is_reserved": 0, "rental_uris": {"android": "https://dc.lft.to/lastmile_qr_scan", "ios": "https://dc.lft.to/lastmile_qr_scan"}, "lat": 38.906775833333334, "is_disabled": 0, "lon": -77.07014683333334}, {"fusion_lat": 0.0, "type": "electric_scooter", "name": "522cf2ccf9c75893f9cd2a754e02364d", "fusion_lon": 0.0, "bike_id": "522cf2ccf9c75893f9cd2a754e02364d", "is_reserved": 0, "rental_uris": {"android": "https://dc.lft.to/lastmile_qr_scan", "ios": "https://dc.lft.to/lastmile_qr_scan"}, "lat": 38.92686583333333, "is_disabled": 0, "lon": -77.02207033333333}, {"fusion_lat": 0.0, "type": "electric_scooter", "name": "68f7bd7b9d04e4356bae5e3bd8bcb8f8", "fusion_lon": 0.0, "bike_id": "68f7bd7b9d04e4356bae5e3bd8bcb8f8", "is_reserved": 0, "rental_uris": {"android": "https://dc.lft.to/lastmile_qr_scan", "ios": "https://dc.lft.to/lastmile_qr_scan"}, "lat": 38.89727583333333, "is_disabled": 0, "lon": -77.03076366666667}, {"fusion_lat": 0.0, "type": "electric_scooter", "name": "1a28f97a30832986992d8360c466eda9", "fusion_lon": 0.0, "bike_id": "1a28f97a30832986992d8360c466eda9", "is_reserved": 0, "rental_uris": {"android": "https://dc.lft.to/lastmile_qr_scan", "ios": "https://dc.lft.to/lastmile_qr_scan"}, "lat": 38.878499166666664, "is_disabled": 0, "lon": -76.9313425}, {"fusion_lat": 0.0, "type": "electric_scooter", "name": "8fb5861e3978ad40b5c40614ce9df074", "fusion_lon": 0.0, "bike_id": "8fb5861e3978ad40b5c40614ce9df074", "is_reserved": 0, "rental_uris": {"android": "https://dc.lft.to/lastmile_qr_scan", "ios": "https://dc.lft.to/lastmile_qr_scan"}, "lat": 38.93618333333333, "is_disabled": 0, "lon": -77.08164783333334}, {"fusion_lat": 0.0, "type": "electric_scooter", "name": "9a39d23332fcd34577845ebda87c90ca", "fusion_lon": 0.0, "bike_id": "9a39d23332fcd34577845ebda87c90ca", "is_reserved": 0, "rental_uris": {"android": "https://dc.lft.to/lastmile_qr_scan", "ios": "https://dc.lft.to/lastmile_qr_scan"}, "lat": 38.928119, "is_disabled": 0, "lon": -77.03363416666667}, {"fusion_lat": 0.0, "type": "electric_scooter", "name": "be3b9d2a013a975c7f892c17f6441f9a", "fusion_lon": 0.0, "bike_id": "be3b9d2a013a975c7f892c17f6441f9a", "is_reserved": 0, "rental_uris": {"android": "https://dc.lft.to/lastmile_qr_scan", "ios": "https://dc.lft.to/lastmile_qr_scan"}, "lat": 38.90090266666667, "is_disabled": 0, "lon": -76.93879383333334}, {"fusion_lat": 0.0, "type": "electric_scooter", "name": "bbac5b9b7fe911f5488cf2805ea7f991", "fusion_lon": 0.0, "bike_id": "bbac5b9b7fe911f5488cf2805ea7f991", "is_reserved": 0, "rental_uris": {"android": "https://dc.lft.to/lastmile_qr_scan", "ios": "https://dc.lft.to/lastmile_qr_scan"}, "lat": 38.9182705, "is_disabled": 0, "lon": -77.03375983333333}, {"fusion_lat": 0.0, "type": "electric_bike", "name": "811b4de9ffcfd48f08a1c592c34701fb", "fusion_lon": 0.0, "bike_id": "811b4de9ffcfd48f08a1c592c34701fb", "is_reserved": 0, "rental_uris": {"android": "https://dc.lft.to/lastmile_qr_scan", "ios": "https://dc.lft.to/lastmile_qr_scan"}, "lat": 38.9475745, "is_disabled": 0, "lon": -77.023691}, {"fusion_lat": 0.0, "type": "electric_scooter", "name": "f09c91037020f3cdcaba8b3f9aceef4d", "fusion_lon": 0.0, "bike_id": "f09c91037020f3cdcaba8b3f9aceef4d", "is_reserved": 0, "rental_uris": {"android": "https://dc.lft.to/lastmile_qr_scan", "ios": "https://dc.lft.to/lastmile_qr_scan"}, "lat": 38.91412283333333, "is_disabled": 0, "lon": -77.04550783333333}, {"fusion_lat": 0.0, "type": "electric_scooter", "name": "6c76bd573775cb209827a4adb783c5ec", "fusion_lon": 0.0, "bike_id": "6c76bd573775cb209827a4adb783c5ec", "is_reserved": 0, "rental_uris": {"android": "https://dc.lft.to/lastmile_qr_scan", "ios": "https://dc.lft.to/lastmile_qr_scan"}, "lat": 38.91101033333333, "is_disabled": 0, "lon": -77.04351633333333}, {"fusion_lat": 0.0, "type": "electric_scooter", "name": "138d295049919838a5c38dc04166db77", "fusion_lon": 0.0, "bike_id": "138d295049919838a5c38dc04166db77", "is_reserved": 0, "rental_uris": {"android": "https://dc.lft.to/lastmile_qr_scan", "ios": "https://dc.lft.to/lastmile_qr_scan"}, "lat": 38.921962666666666, "is_disabled": 0, "lon": -76.98872966666667}, {"fusion_lat": 0.0, "type": "electric_scooter", "name": "276c7e56688a6158be8f11e71eee1ea6", "fusion_lon": 0.0, "bike_id": "276c7e56688a6158be8f11e71eee1ea6", "is_reserved": 0, "rental_uris": {"android": "https://dc.lft.to/lastmile_qr_scan", "ios": "https://dc.lft.to/lastmile_qr_scan"}, "lat": 38.914820166666665, "is_disabled": 0, "lon": -77.03841416666667}, {"fusion_lat": 0.0, "type": "electric_scooter", "name": "68c979479d7061bde1c5dedc2261f75e", "fusion_lon": 0.0, "bike_id": "68c979479d7061bde1c5dedc2261f75e", "is_reserved": 0, "rental_uris": {"android": "https://dc.lft.to/lastmile_qr_scan", "ios": "https://dc.lft.to/lastmile_qr_scan"}, "lat": 38.899925333333336, "is_disabled": 0, "lon": -76.993091}, {"fusion_lat": 0.0, "type": "electric_scooter", "name": "e3259a031887aef1a11fc46c1c3dd0ab", "fusion_lon": 0.0, "bike_id": "e3259a031887aef1a11fc46c1c3dd0ab", "is_reserved": 0, "rental_uris": {"android": "https://dc.lft.to/lastmile_qr_scan", "ios": "https://dc.lft.to/lastmile_qr_scan"}, "lat": 38.937075166666666, "is_disabled": 0, "lon": -77.06101833333334}, {"fusion_lat": 0.0, "type": "electric_scooter", "name": "f287c155b50ef7e5ae2da1b66a86bc20", "fusion_lon": 0.0, "bike_id": "f287c155b50ef7e5ae2da1b66a86bc20", "is_reserved": 0, "rental_uris": {"android": "https://dc.lft.to/lastmile_qr_scan", "ios": "https://dc.lft.to/lastmile_qr_scan"}, "lat": 38.897380166666665, "is_disabled": 0, "lon": -77.01313516666667}, {"fusion_lat": 0.0, "type": "electric_scooter", "name": "5ca98bf76c33f4845aa95990b72e5202", "fusion_lon": 0.0, "bike_id": "5ca98bf76c33f4845aa95990b72e5202", "is_reserved": 0, "rental_uris": {"android": "https://dc.lft.to/lastmile_qr_scan", "ios": "https://dc.lft.to/lastmile_qr_scan"}, "lat": 38.8883035, "is_disabled": 0, "lon": -76.99368233333334}, {"fusion_lat": 0.0, "type": "electric_scooter", "name": "904b3380af96c52b48dd4a9ae7929413", "fusion_lon": 0.0, "bike_id": "904b3380af96c52b48dd4a9ae7929413", "is_reserved": 0, "rental_uris": {"android": "https://dc.lft.to/lastmile_qr_scan", "ios": "https://dc.lft.to/lastmile_qr_scan"}, "lat": 38.866898166666665, "is_disabled": 0, "lon": -76.98596166666667}, {"fusion_lat": 0.0, "type": "electric_scooter", "name": "bf45031f5408b13bee290935112ee3e8", "fusion_lon": 0.0, "bike_id": "bf45031f5408b13bee290935112ee3e8", "is_reserved": 0, "rental_uris": {"android": "https://dc.lft.to/lastmile_qr_scan", "ios": "https://dc.lft.to/lastmile_qr_scan"}, "lat": 38.9085185, "is_disabled": 0, "lon": -77.04283166666667}, {"fusion_lat": 0.0, "type": "electric_bike", "name": "63d9829b8d9936a44ff246d915670424", "fusion_lon": 0.0, "bike_id": "63d9829b8d9936a44ff246d915670424", "is_reserved": 0, "rental_uris": {"android": "https://dc.lft.to/lastmile_qr_scan", "ios": "https://dc.lft.to/lastmile_qr_scan"}, "lat": 38.96221966666667, "is_disabled": 0, "lon": -77.02628133333333}, {"fusion_lat": 0.0, "type": "electric_scooter", "name": "7eb8a4a464dc8b17d6b251b8b12b66eb", "fusion_lon": 0.0, "bike_id": "7eb8a4a464dc8b17d6b251b8b12b66eb", "is_reserved": 0, "rental_uris": {"android": "https://dc.lft.to/lastmile_qr_scan", "ios": "https://dc.lft.to/lastmile_qr_scan"}, "lat": 38.92748066666667, "is_disabled": 0, "lon": -77.025365}, {"fusion_lat": 0.0, "type": "electric_scooter", "name": "44ba875fe136a10b0d1ab423a472480a", "fusion_lon": 0.0, "bike_id": "44ba875fe136a10b0d1ab423a472480a", "is_reserved": 0, "rental_uris": {"android": "https://dc.lft.to/lastmile_qr_scan", "ios": "https://dc.lft.to/lastmile_qr_scan"}, "lat": 38.92372833333334, "is_disabled": 0, "lon": -77.02799233333333}, {"fusion_lat": 0.0, "type": "electric_scooter", "name": "29dde45afacc003ba5cc1eaac0a97322", "fusion_lon": 0.0, "bike_id": "29dde45afacc003ba5cc1eaac0a97322", "is_reserved": 0, "rental_uris": {"android": "https://dc.lft.to/lastmile_qr_scan", "ios": "https://dc.lft.to/lastmile_qr_scan"}, "lat": 38.94839433333333, "is_disabled": 0, "lon": -77.02542266666667}, {"fusion_lat": 0.0, "type": "electric_scooter", "name": "0abdc9e8db41f43571b5ddb667c876f3", "fusion_lon": 0.0, "bike_id": "0abdc9e8db41f43571b5ddb667c876f3", "is_reserved": 0, "rental_uris": {"android": "https://dc.lft.to/lastmile_qr_scan", "ios": "https://dc.lft.to/lastmile_qr_scan"}, "lat": 38.927705833333334, "is_disabled": 0, "lon": -77.02302033333333}, {"fusion_lat": 0.0, "type": "electric_scooter", "name": "a798e7c6fcb6b6db236065e2c6009210", "fusion_lon": 0.0, "bike_id": "a798e7c6fcb6b6db236065e2c6009210", "is_reserved": 0, "rental_uris": {"android": "https://dc.lft.to/lastmile_qr_scan", "ios": "https://dc.lft.to/lastmile_qr_scan"}, "lat": 38.927248666666664, "is_disabled": 0, "lon": -77.02096816666666}, {"fusion_lat": 0.0, "type": "electric_scooter", "name": "45b1fe280d837f20bca5ef3dade52789", "fusion_lon": 0.0, "bike_id": "45b1fe280d837f20bca5ef3dade52789", "is_reserved": 0, "rental_uris": {"android": "https://dc.lft.to/lastmile_qr_scan", "ios": "https://dc.lft.to/lastmile_qr_scan"}, "lat": 38.905073, "is_disabled": 0, "lon": -77.02582416666667}, {"fusion_lat": 0.0, "type": "electric_scooter", "name": "440771b2fc9dabfa78e2a93ee1270250", "fusion_lon": 0.0, "bike_id": "440771b2fc9dabfa78e2a93ee1270250", "is_reserved": 0, "rental_uris": {"android": "https://dc.lft.to/lastmile_qr_scan", "ios": "https://dc.lft.to/lastmile_qr_scan"}, "lat": 38.911028333333334, "is_disabled": 0, "lon": -77.04667116666667}, {"fusion_lat": 0.0, "type": "electric_scooter", "name": "5eb53b3e8850d51126fbc27d7cb07ad8", "fusion_lon": 0.0, "bike_id": "5eb53b3e8850d51126fbc27d7cb07ad8", "is_reserved": 0, "rental_uris": {"android": "https://dc.lft.to/lastmile_qr_scan", "ios": "https://dc.lft.to/lastmile_qr_scan"}, "lat": 38.9124855, "is_disabled": 0, "lon": -77.04480066666666}, {"fusion_lat": 0.0, "type": "electric_scooter", "name": "215cdd332d8e88d1481f8ac909181eb8", "fusion_lon": 0.0, "bike_id": "215cdd332d8e88d1481f8ac909181eb8", "is_reserved": 0, "rental_uris": {"android": "https://dc.lft.to/lastmile_qr_scan", "ios": "https://dc.lft.to/lastmile_qr_scan"}, "lat": 38.949625833333336, "is_disabled": 0, "lon": -77.02723666666667}, {"fusion_lat": 0.0, "type": "electric_scooter", "name": "f2f1393729b242a26b3fda2dff44b8f7", "fusion_lon": 0.0, "bike_id": "f2f1393729b242a26b3fda2dff44b8f7", "is_reserved": 0, "rental_uris": {"android": "https://dc.lft.to/lastmile_qr_scan", "ios": "https://dc.lft.to/lastmile_qr_scan"}, "lat": 38.91326016666667, "is_disabled": 0, "lon": -77.01509083333333}, {"fusion_lat": 0.0, "type": "electric_scooter", "name": "0e78874bb1dfc735d3254a3289241990", "fusion_lon": 0.0, "bike_id": "0e78874bb1dfc735d3254a3289241990", "is_reserved": 0, "rental_uris": {"android": "https://dc.lft.to/lastmile_qr_scan", "ios": "https://dc.lft.to/lastmile_qr_scan"}, "lat": 38.9193155, "is_disabled": 0, "lon": -77.0455865}, {"fusion_lat": 0.0, "type": "electric_scooter", "name": "74d02c362df82c074d6dc324b73d326a", "fusion_lon": 0.0, "bike_id": "74d02c362df82c074d6dc324b73d326a", "is_reserved": 0, "rental_uris": {"android": "https://dc.lft.to/lastmile_qr_scan", "ios": "https://dc.lft.to/lastmile_qr_scan"}, "lat": 38.919001333333334, "is_disabled": 0, "lon": -77.0031695}, {"fusion_lat": 0.0, "type": "electric_scooter", "name": "e5727fae2da72425509a5841b89685fa", "fusion_lon": 0.0, "bike_id": "e5727fae2da72425509a5841b89685fa", "is_reserved": 0, "rental_uris": {"android": "https://dc.lft.to/lastmile_qr_scan", "ios": "https://dc.lft.to/lastmile_qr_scan"}, "lat": 38.84429683333333, "is_disabled": 0, "lon": -76.9977945}, {"fusion_lat": 0.0, "type": "electric_scooter", "name": "76939d075b4f51d6a6d120cfc3aade5d", "fusion_lon": 0.0, "bike_id": "76939d075b4f51d6a6d120cfc3aade5d", "is_reserved": 0, "rental_uris": {"android": "https://dc.lft.to/lastmile_qr_scan", "ios": "https://dc.lft.to/lastmile_qr_scan"}, "lat": 38.87982483333333, "is_disabled": 0, "lon": -77.013838}, {"fusion_lat": 0.0, "type": "electric_scooter", "name": "650ab5a7c78c2258db2f5cff4dd1356f", "fusion_lon": 0.0, "bike_id": "650ab5a7c78c2258db2f5cff4dd1356f", "is_reserved": 0, "rental_uris": {"android": "https://dc.lft.to/lastmile_qr_scan", "ios": "https://dc.lft.to/lastmile_qr_scan"}, "lat": 38.8974605, "is_disabled": 0, "lon": -76.94728133333334}, {"fusion_lat": 0.0, "type": "electric_scooter", "name": "c220effe46cfb0b36c723bf8463aca5f", "fusion_lon": 0.0, "bike_id": "c220effe46cfb0b36c723bf8463aca5f", "is_reserved": 0, "rental_uris": {"android": "https://dc.lft.to/lastmile_qr_scan", "ios": "https://dc.lft.to/lastmile_qr_scan"}, "lat": 38.88515666666667, "is_disabled": 0, "lon": -77.01591116666667}, {"fusion_lat": 0.0, "type": "electric_scooter", "name": "b5451909920ecae53fbed41f974704bc", "fusion_lon": 0.0, "bike_id": "b5451909920ecae53fbed41f974704bc", "is_reserved": 0, "rental_uris": {"android": "https://dc.lft.to/lastmile_qr_scan", "ios": "https://dc.lft.to/lastmile_qr_scan"}, "lat": 38.888753333333334, "is_disabled": 0, "lon": -76.99037033333333}, {"fusion_lat": 0.0, "type": "electric_scooter", "name": "f4b362ac63dcbf3ba007833a240c671f", "fusion_lon": 0.0, "bike_id": "f4b362ac63dcbf3ba007833a240c671f", "is_reserved": 0, "rental_uris": {"android": "https://dc.lft.to/lastmile_qr_scan", "ios": "https://dc.lft.to/lastmile_qr_scan"}, "lat": 38.88135783333333, "is_disabled": 0, "lon": -77.026242}, {"fusion_lat": 0.0, "type": "electric_scooter", "name": "e86e2bc05b66c76f1c7dec71b3b139df", "fusion_lon": 0.0, "bike_id": "e86e2bc05b66c76f1c7dec71b3b139df", "is_reserved": 0, "rental_uris": {"android": "https://dc.lft.to/lastmile_qr_scan", "ios": "https://dc.lft.to/lastmile_qr_scan"}, "lat": 38.952092, "is_disabled": 0, "lon": -77.02728966666666}, {"fusion_lat": 0.0, "type": "electric_scooter", "name": "965bd8d704056caabf382152f3895e77", "fusion_lon": 0.0, "bike_id": "965bd8d704056caabf382152f3895e77", "is_reserved": 0, "rental_uris": {"android": "https://dc.lft.to/lastmile_qr_scan", "ios": "https://dc.lft.to/lastmile_qr_scan"}, "lat": 38.9337325, "is_disabled": 0, "lon": -77.057268}, {"fusion_lat": 0.0, "type": "electric_scooter", "name": "02dc1713c8fe5dd2faa8a73948f36edb", "fusion_lon": 0.0, "bike_id": "02dc1713c8fe5dd2faa8a73948f36edb", "is_reserved": 0, "rental_uris": {"android": "https://dc.lft.to/lastmile_qr_scan", "ios": "https://dc.lft.to/lastmile_qr_scan"}, "lat": 38.905744166666665, "is_disabled": 0, "lon": -76.97629916666666}, {"fusion_lat": 0.0, "type": "electric_scooter", "name": "0f55353bd779904e7988a34098c89a7e", "fusion_lon": 0.0, "bike_id": "0f55353bd779904e7988a34098c89a7e", "is_reserved": 0, "rental_uris": {"android": "https://dc.lft.to/lastmile_qr_scan", "ios": "https://dc.lft.to/lastmile_qr_scan"}, "lat": 38.909565, "is_disabled": 0, "lon": -77.02201966666667}, {"fusion_lat": 0.0, "type": "electric_scooter", "name": "6e2562a13b375fe886a08e8032d25511", "fusion_lon": 0.0, "bike_id": "6e2562a13b375fe886a08e8032d25511", "is_reserved": 0, "rental_uris": {"android": "https://dc.lft.to/lastmile_qr_scan", "ios": "https://dc.lft.to/lastmile_qr_scan"}, "lat": 38.886782833333335, "is_disabled": 0, "lon": -76.93602533333333}, {"fusion_lat": 0.0, "type": "electric_scooter", "name": "3353913b54e4d8efa37618e6c6fde61c", "fusion_lon": 0.0, "bike_id": "3353913b54e4d8efa37618e6c6fde61c", "is_reserved": 0, "rental_uris": {"android": "https://dc.lft.to/lastmile_qr_scan", "ios": "https://dc.lft.to/lastmile_qr_scan"}, "lat": 38.92067683333333, "is_disabled": 0, "lon": -77.03457166666666}, {"fusion_lat": 0.0, "type": "electric_scooter", "name": "832489238db6a8749a0c74940fd12e18", "fusion_lon": 0.0, "bike_id": "832489238db6a8749a0c74940fd12e18", "is_reserved": 0, "rental_uris": {"android": "https://dc.lft.to/lastmile_qr_scan", "ios": "https://dc.lft.to/lastmile_qr_scan"}, "lat": 38.9249935, "is_disabled": 0, "lon": -77.02440366666667}, {"fusion_lat": 0.0, "type": "electric_scooter", "name": "a6473eafa302180e1da86d8890df944c", "fusion_lon": 0.0, "bike_id": "a6473eafa302180e1da86d8890df944c", "is_reserved": 0, "rental_uris": {"android": "https://dc.lft.to/lastmile_qr_scan", "ios": "https://dc.lft.to/lastmile_qr_scan"}, "lat": 38.9247355, "is_disabled": 0, "lon": -77.02838533333333}, {"fusion_lat": 0.0, "type": "electric_scooter", "name": "4dde6bf11dc74645ae8873af1a9875a1", "fusion_lon": 0.0, "bike_id": "4dde6bf11dc74645ae8873af1a9875a1", "is_reserved": 0, "rental_uris": {"android": "https://dc.lft.to/lastmile_qr_scan", "ios": "https://dc.lft.to/lastmile_qr_scan"}, "lat": 38.908917333333335, "is_disabled": 0, "lon": -77.00410083333334}, {"fusion_lat": 0.0, "type": "electric_scooter", "name": "155a4b44f49b3a831d31ff5baf12ea51", "fusion_lon": 0.0, "bike_id": "155a4b44f49b3a831d31ff5baf12ea51", "is_reserved": 0, "rental_uris": {"android": "https://dc.lft.to/lastmile_qr_scan", "ios": "https://dc.lft.to/lastmile_qr_scan"}, "lat": 38.915879833333335, "is_disabled": 0, "lon": -77.0448475}, {"fusion_lat": 0.0, "type": "electric_scooter", "name": "017311ca5a221298cec59a1cc3e48a49", "fusion_lon": 0.0, "bike_id": "017311ca5a221298cec59a1cc3e48a49", "is_reserved": 0, "rental_uris": {"android": "https://dc.lft.to/lastmile_qr_scan", "ios": "https://dc.lft.to/lastmile_qr_scan"}, "lat": 38.949515833333336, "is_disabled": 0, "lon": -77.02444766666666}, {"fusion_lat": 0.0, "type": "electric_scooter", "name": "612e29e93e9e6c5806e40b46e1c3802d", "fusion_lon": 0.0, "bike_id": "612e29e93e9e6c5806e40b46e1c3802d", "is_reserved": 0, "rental_uris": {"android": "https://dc.lft.to/lastmile_qr_scan", "ios": "https://dc.lft.to/lastmile_qr_scan"}, "lat": 38.91349433333333, "is_disabled": 0, "lon": -77.03182816666667}, {"fusion_lat": 0.0, "type": "electric_bike", "name": "6ccf4645a50c8083e6b74f4ac5b1a739", "fusion_lon": 0.0, "bike_id": "6ccf4645a50c8083e6b74f4ac5b1a739", "is_reserved": 0, "rental_uris": {"android": "https://dc.lft.to/lastmile_qr_scan", "ios": "https://dc.lft.to/lastmile_qr_scan"}, "lat": 38.92969883333333, "is_disabled": 0, "lon": -77.185632}, {"fusion_lat": 0.0, "type": "electric_bike", "name": "163e7dc57ec9f0c87516f4e7183ded8e", "fusion_lon": 0.0, "bike_id": "163e7dc57ec9f0c87516f4e7183ded8e", "is_reserved": 0, "rental_uris": {"android": "https://dc.lft.to/lastmile_qr_scan", "ios": "https://dc.lft.to/lastmile_qr_scan"}, "lat": 38.954414166666666, "is_disabled": 0, "lon": -76.9891295}, {"fusion_lat": 0.0, "type": "electric_bike", "name": "6cbb06cb8511d6870d9ab3c654032c59", "fusion_lon": 0.0, "bike_id": "6cbb06cb8511d6870d9ab3c654032c59", "is_reserved": 0, "rental_uris": {"android": "https://dc.lft.to/lastmile_qr_scan", "ios": "https://dc.lft.to/lastmile_qr_scan"}, "lat": 38.93168416666666, "is_disabled": 0, "lon": -76.88402}, {"fusion_lat": 0.0, "type": "electric_bike", "name": "f952981834b0abe79d9c9e541218248d", "fusion_lon": 0.0, "bike_id": "f952981834b0abe79d9c9e541218248d", "is_reserved": 0, "rental_uris": {"android": "https://dc.lft.to/lastmile_qr_scan", "ios": "https://dc.lft.to/lastmile_qr_scan"}, "lat": 38.864853833333335, "is_disabled": 0, "lon": -76.97745083333334}, {"fusion_lat": 0.0, "type": "electric_scooter", "name": "ae0102338b5aa1ac4d3dc182cdd3ce84", "fusion_lon": 0.0, "bike_id": "ae0102338b5aa1ac4d3dc182cdd3ce84", "is_reserved": 0, "rental_uris": {"android": "https://dc.lft.to/lastmile_qr_scan", "ios": "https://dc.lft.to/lastmile_qr_scan"}, "lat": 38.902444, "is_disabled": 0, "lon": -77.039617}, {"fusion_lat": 0.0, "type": "electric_bike", "name": "5b85e5d722707aa8f66fcda332102c69", "fusion_lon": 0.0, "bike_id": "5b85e5d722707aa8f66fcda332102c69", "is_reserved": 0, "rental_uris": {"android": "https://dc.lft.to/lastmile_qr_scan", "ios": "https://dc.lft.to/lastmile_qr_scan"}, "lat": 38.95332366666667, "is_disabled": 0, "lon": -76.98241233333333}, {"fusion_lat": 0.0, "type": "electric_scooter", "name": "009df5f08c94762881ead6c7cebe1751", "fusion_lon": 0.0, "bike_id": "009df5f08c94762881ead6c7cebe1751", "is_reserved": 0, "rental_uris": {"android": "https://dc.lft.to/lastmile_qr_scan", "ios": "https://dc.lft.to/lastmile_qr_scan"}, "lat": 38.960306333333335, "is_disabled": 0, "lon": -77.00047266666667}, {"fusion_lat": 0.0, "type": "electric_bike", "name": "3828d63c48430798030cd8ea2e87f263", "fusion_lon": 0.0, "bike_id": "3828d63c48430798030cd8ea2e87f263", "is_reserved": 0, "rental_uris": {"android": "https://dc.lft.to/lastmile_qr_scan", "ios": "https://dc.lft.to/lastmile_qr_scan"}, "lat": 39.0550305, "is_disabled": 0, "lon": -77.04651183333333}, {"fusion_lat": 0.0, "type": "electric_scooter", "name": "0d64a82f493c55a302b1b4625f12c268", "fusion_lon": 0.0, "bike_id": "0d64a82f493c55a302b1b4625f12c268", "is_reserved": 0, "rental_uris": {"android": "https://dc.lft.to/lastmile_qr_scan", "ios": "https://dc.lft.to/lastmile_qr_scan"}, "lat": 38.92424583333333, "is_disabled": 0, "lon": -77.01940483333334}, {"fusion_lat": 0.0, "type": "electric_bike", "name": "e4b1871cce076b3c0b4ea38378209209", "fusion_lon": 0.0, "bike_id": "e4b1871cce076b3c0b4ea38378209209", "is_reserved": 0, "rental_uris": {"android": "https://dc.lft.to/lastmile_qr_scan", "ios": "https://dc.lft.to/lastmile_qr_scan"}, "lat": 39.052789833333335, "is_disabled": 0, "lon": -77.080693}, {"fusion_lat": 0.0, "type": "electric_scooter", "name": "e2f2cfb037fbf5d7cab9e879409acb61", "fusion_lon": 0.0, "bike_id": "e2f2cfb037fbf5d7cab9e879409acb61", "is_reserved": 0, "rental_uris": {"android": "https://dc.lft.to/lastmile_qr_scan", "ios": "https://dc.lft.to/lastmile_qr_scan"}, "lat": 38.870007666666666, "is_disabled": 0, "lon": -76.97585516666666}, {"fusion_lat": 0.0, "type": "electric_bike", "name": "cd757fbb938e794081b801bf1b2716b2", "fusion_lon": 0.0, "bike_id": "cd757fbb938e794081b801bf1b2716b2", "is_reserved": 0, "rental_uris": {"android": "https://dc.lft.to/lastmile_qr_scan", "ios": "https://dc.lft.to/lastmile_qr_scan"}, "lat": 38.961044333333334, "is_disabled": 0, "lon": -76.92813233333334}, {"fusion_lat": 0.0, "type": "electric_scooter", "name": "134f6ea0bb467b388c2ba1ec41e0d03f", "fusion_lon": 0.0, "bike_id": "134f6ea0bb467b388c2ba1ec41e0d03f", "is_reserved": 0, "rental_uris": {"android": "https://dc.lft.to/lastmile_qr_scan", "ios": "https://dc.lft.to/lastmile_qr_scan"}, "lat": 38.90858016666667, "is_disabled": 0, "lon": -77.04561266666667}, {"fusion_lat": 0.0, "type": "electric_scooter", "name": "57decd71fdb6b8503930bb71a27430d1", "fusion_lon": 0.0, "bike_id": "57decd71fdb6b8503930bb71a27430d1", "is_reserved": 0, "rental_uris": {"android": "https://dc.lft.to/lastmile_qr_scan", "ios": "https://dc.lft.to/lastmile_qr_scan"}, "lat": 38.890823166666664, "is_disabled": 0, "lon": -77.04041383333333}, {"fusion_lat": 0.0, "type": "electric_bike", "name": "f9fc3ac7c60ec1d21a193258d58421ee", "fusion_lon": 0.0, "bike_id": "f9fc3ac7c60ec1d21a193258d58421ee", "is_reserved": 0, "rental_uris": {"android": "https://dc.lft.to/lastmile_qr_scan", "ios": "https://dc.lft.to/lastmile_qr_scan"}, "lat": 38.933003666666664, "is_disabled": 0, "lon": -77.0229025}, {"fusion_lat": 0.0, "type": "electric_scooter", "name": "e0e4eddd1969a0a56cdb61973383baf7", "fusion_lon": 0.0, "bike_id": "e0e4eddd1969a0a56cdb61973383baf7", "is_reserved": 0, "rental_uris": {"android": "https://dc.lft.to/lastmile_qr_scan", "ios": "https://dc.lft.to/lastmile_qr_scan"}, "lat": 38.90250983333333, "is_disabled": 0, "lon": -76.995572}, {"fusion_lat": 0.0, "type": "electric_scooter", "name": "931c78dea5bdf35a0202f6cb3acb74d7", "fusion_lon": 0.0, "bike_id": "931c78dea5bdf35a0202f6cb3acb74d7", "is_reserved": 0, "rental_uris": {"android": "https://dc.lft.to/lastmile_qr_scan", "ios": "https://dc.lft.to/lastmile_qr_scan"}, "lat": 38.887310666666664, "is_disabled": 0, "lon": -77.02829366666667}, {"fusion_lat": 0.0, "type": "electric_scooter", "name": "48c6682df55b22285718bc127a707887", "fusion_lon": 0.0, "bike_id": "48c6682df55b22285718bc127a707887", "is_reserved": 0, "rental_uris": {"android": "https://dc.lft.to/lastmile_qr_scan", "ios": "https://dc.lft.to/lastmile_qr_scan"}, "lat": 38.895036, "is_disabled": 0, "lon": -77.003357}, {"fusion_lat": 0.0, "type": "electric_scooter", "name": "1213ddeabacb8367a998a26e5cef78cb", "fusion_lon": 0.0, "bike_id": "1213ddeabacb8367a998a26e5cef78cb", "is_reserved": 0, "rental_uris": {"android": "https://dc.lft.to/lastmile_qr_scan", "ios": "https://dc.lft.to/lastmile_qr_scan"}, "lat": 38.87195633333333, "is_disabled": 0, "lon": -77.01078866666667}, {"fusion_lat": 0.0, "type": "electric_scooter", "name": "11c541b593678882e40e4de15c507129", "fusion_lon": 0.0, "bike_id": "11c541b593678882e40e4de15c507129", "is_reserved": 0, "rental_uris": {"android": "https://dc.lft.to/lastmile_qr_scan", "ios": "https://dc.lft.to/lastmile_qr_scan"}, "lat": 38.91816516666667, "is_disabled": 0, "lon": -77.03727316666667}, {"fusion_lat": 0.0, "type": "electric_scooter", "name": "02a8e72dee1b619e09ee8bddbd77c5a7", "fusion_lon": 0.0, "bike_id": "02a8e72dee1b619e09ee8bddbd77c5a7", "is_reserved": 0, "rental_uris": {"android": "https://dc.lft.to/lastmile_qr_scan", "ios": "https://dc.lft.to/lastmile_qr_scan"}, "lat": 38.93649883333333, "is_disabled": 0, "lon": -77.03693133333333}, {"fusion_lat": 0.0, "type": "electric_scooter", "name": "4682b931dd07a8fd23337cb6403ab618", "fusion_lon": 0.0, "bike_id": "4682b931dd07a8fd23337cb6403ab618", "is_reserved": 0, "rental_uris": {"android": "https://dc.lft.to/lastmile_qr_scan", "ios": "https://dc.lft.to/lastmile_qr_scan"}, "lat": 38.91840783333333, "is_disabled": 0, "lon": -77.0595045}, {"fusion_lat": 0.0, "type": "electric_scooter", "name": "52654934828f2d50f39b4cc2f3638802", "fusion_lon": 0.0, "bike_id": "52654934828f2d50f39b4cc2f3638802", "is_reserved": 0, "rental_uris": {"android": "https://dc.lft.to/lastmile_qr_scan", "ios": "https://dc.lft.to/lastmile_qr_scan"}, "lat": 38.899004833333336, "is_disabled": 0, "lon": -76.9938385}, {"fusion_lat": 0.0, "type": "electric_scooter", "name": "32aa91ca8323a81d0eff3f383bcd34bd", "fusion_lon": 0.0, "bike_id": "32aa91ca8323a81d0eff3f383bcd34bd", "is_reserved": 0, "rental_uris": {"android": "https://dc.lft.to/lastmile_qr_scan", "ios": "https://dc.lft.to/lastmile_qr_scan"}, "lat": 38.9162985, "is_disabled": 0, "lon": -77.04797733333334}, {"fusion_lat": 0.0, "type": "electric_scooter", "name": "8e09cdd345ae89c16a135746dfc5afdb", "fusion_lon": 0.0, "bike_id": "8e09cdd345ae89c16a135746dfc5afdb", "is_reserved": 0, "rental_uris": {"android": "https://dc.lft.to/lastmile_qr_scan", "ios": "https://dc.lft.to/lastmile_qr_scan"}, "lat": 38.892263166666666, "is_disabled": 0, "lon": -77.050007}, {"fusion_lat": 0.0, "type": "electric_scooter", "name": "af53b25c59c2bfce00095e3dafce8a52", "fusion_lon": 0.0, "bike_id": "af53b25c59c2bfce00095e3dafce8a52", "is_reserved": 0, "rental_uris": {"android": "https://dc.lft.to/lastmile_qr_scan", "ios": "https://dc.lft.to/lastmile_qr_scan"}, "lat": 38.911295833333334, "is_disabled": 0, "lon": -77.02198416666667}, {"fusion_lat": 0.0, "type": "electric_scooter", "name": "51803c605617098d15ca7bbc77a8a0b2", "fusion_lon": 0.0, "bike_id": "51803c605617098d15ca7bbc77a8a0b2", "is_reserved": 0, "rental_uris": {"android": "https://dc.lft.to/lastmile_qr_scan", "ios": "https://dc.lft.to/lastmile_qr_scan"}, "lat": 38.952789833333334, "is_disabled": 0, "lon": -77.06862783333334}, {"fusion_lat": 0.0, "type": "electric_scooter", "name": "8cedcc2cab071a8e6419f87c22e55f7a", "fusion_lon": 0.0, "bike_id": "8cedcc2cab071a8e6419f87c22e55f7a", "is_reserved": 0, "rental_uris": {"android": "https://dc.lft.to/lastmile_qr_scan", "ios": "https://dc.lft.to/lastmile_qr_scan"}, "lat": 38.926277666666664, "is_disabled": 0, "lon": -77.04311466666667}, {"fusion_lat": 0.0, "type": "electric_scooter", "name": "6c1a0a79800c0d5ebbddd3299e37d33d", "fusion_lon": 0.0, "bike_id": "6c1a0a79800c0d5ebbddd3299e37d33d", "is_reserved": 0, "rental_uris": {"android": "https://dc.lft.to/lastmile_qr_scan", "ios": "https://dc.lft.to/lastmile_qr_scan"}, "lat": 38.924799666666665, "is_disabled": 0, "lon": -77.02668383333334}, {"fusion_lat": 0.0, "type": "electric_scooter", "name": "51a16929baf695da2f3e70e88c393fc1", "fusion_lon": 0.0, "bike_id": "51a16929baf695da2f3e70e88c393fc1", "is_reserved": 0, "rental_uris": {"android": "https://dc.lft.to/lastmile_qr_scan", "ios": "https://dc.lft.to/lastmile_qr_scan"}, "lat": 38.92458633333333, "is_disabled": 0, "lon": -77.029792}, {"fusion_lat": 0.0, "type": "electric_scooter", "name": "805e0f3d63561510050d67d759ad963b", "fusion_lon": 0.0, "bike_id": "805e0f3d63561510050d67d759ad963b", "is_reserved": 0, "rental_uris": {"android": "https://dc.lft.to/lastmile_qr_scan", "ios": "https://dc.lft.to/lastmile_qr_scan"}, "lat": 38.8963815, "is_disabled": 0, "lon": -77.03202516666667}, {"fusion_lat": 0.0, "type": "electric_scooter", "name": "2186389a769a6cee26bd8ef901c881c8", "fusion_lon": 0.0, "bike_id": "2186389a769a6cee26bd8ef901c881c8", "is_reserved": 0, "rental_uris": {"android": "https://dc.lft.to/lastmile_qr_scan", "ios": "https://dc.lft.to/lastmile_qr_scan"}, "lat": 38.9518745, "is_disabled": 0, "lon": -77.02614666666666}, {"fusion_lat": 0.0, "type": "electric_bike", "name": "5b702fd335f7931acc04e377d37b77bc", "fusion_lon": 0.0, "bike_id": "5b702fd335f7931acc04e377d37b77bc", "is_reserved": 0, "rental_uris": {"android": "https://dc.lft.to/lastmile_qr_scan", "ios": "https://dc.lft.to/lastmile_qr_scan"}, "lat": 38.932323333333336, "is_disabled": 0, "lon": -77.18123016666667}, {"fusion_lat": 0.0, "type": "electric_scooter", "name": "28039715048e515883bceb842d22ea27", "fusion_lon": 0.0, "bike_id": "28039715048e515883bceb842d22ea27", "is_reserved": 0, "rental_uris": {"android": "https://dc.lft.to/lastmile_qr_scan", "ios": "https://dc.lft.to/lastmile_qr_scan"}, "lat": 38.921625666666664, "is_disabled": 0, "lon": -77.0337575}, {"fusion_lat": 0.0, "type": "electric_scooter", "name": "a750c3fd2c57ccf8a7fce7f48eb72ab2", "fusion_lon": 0.0, "bike_id": "a750c3fd2c57ccf8a7fce7f48eb72ab2", "is_reserved": 0, "rental_uris": {"android": "https://dc.lft.to/lastmile_qr_scan", "ios": "https://dc.lft.to/lastmile_qr_scan"}, "lat": 38.91679033333333, "is_disabled": 0, "lon": -77.036918}, {"fusion_lat": 0.0, "type": "electric_scooter", "name": "9ae25b8020771c2dcfd26aa3496ec62f", "fusion_lon": 0.0, "bike_id": "9ae25b8020771c2dcfd26aa3496ec62f", "is_reserved": 0, "rental_uris": {"android": "https://dc.lft.to/lastmile_qr_scan", "ios": "https://dc.lft.to/lastmile_qr_scan"}, "lat": 38.909754666666664, "is_disabled": 0, "lon": -77.03444383333333}, {"fusion_lat": 0.0, "type": "electric_scooter", "name": "cb7a57dcda09283f23c2d33901834da0", "fusion_lon": 0.0, "bike_id": "cb7a57dcda09283f23c2d33901834da0", "is_reserved": 0, "rental_uris": {"android": "https://dc.lft.to/lastmile_qr_scan", "ios": "https://dc.lft.to/lastmile_qr_scan"}, "lat": 38.889149333333336, "is_disabled": 0, "lon": -77.04909766666667}, {"fusion_lat": 0.0, "type": "electric_scooter", "name": "157f47953865451e01c0c3ad0a77b85a", "fusion_lon": 0.0, "bike_id": "157f47953865451e01c0c3ad0a77b85a", "is_reserved": 0, "rental_uris": {"android": "https://dc.lft.to/lastmile_qr_scan", "ios": "https://dc.lft.to/lastmile_qr_scan"}, "lat": 38.903155, "is_disabled": 0, "lon": -77.05049383333333}, {"fusion_lat": 0.0, "type": "electric_bike", "name": "32fca53b195962701cc02a76feb4968e", "fusion_lon": 0.0, "bike_id": "32fca53b195962701cc02a76feb4968e", "is_reserved": 0, "rental_uris": {"android": "https://dc.lft.to/lastmile_qr_scan", "ios": "https://dc.lft.to/lastmile_qr_scan"}, "lat": 38.95330533333333, "is_disabled": 0, "lon": -76.9543725}, {"fusion_lat": 0.0, "type": "electric_scooter", "name": "6d86e7e7dbc9ccf5c3a917d5ad9fbd03", "fusion_lon": 0.0, "bike_id": "6d86e7e7dbc9ccf5c3a917d5ad9fbd03", "is_reserved": 0, "rental_uris": {"android": "https://dc.lft.to/lastmile_qr_scan", "ios": "https://dc.lft.to/lastmile_qr_scan"}, "lat": 38.9138035, "is_disabled": 0, "lon": -77.031364}, {"fusion_lat": 0.0, "type": "electric_scooter", "name": "16af7d61b5cbde0533872cfa0cf06d4b", "fusion_lon": 0.0, "bike_id": "16af7d61b5cbde0533872cfa0cf06d4b", "is_reserved": 0, "rental_uris": {"android": "https://dc.lft.to/lastmile_qr_scan", "ios": "https://dc.lft.to/lastmile_qr_scan"}, "lat": 38.92336816666667, "is_disabled": 0, "lon": -77.03510783333333}, {"fusion_lat": 0.0, "type": "electric_scooter", "name": "a7a653b58d40afa897efefc7b5cf8e37", "fusion_lon": 0.0, "bike_id": "a7a653b58d40afa897efefc7b5cf8e37", "is_reserved": 0, "rental_uris": {"android": "https://dc.lft.to/lastmile_qr_scan", "ios": "https://dc.lft.to/lastmile_qr_scan"}, "lat": 38.8650895, "is_disabled": 0, "lon": -76.99000283333334}, {"fusion_lat": 0.0, "type": "electric_bike", "name": "0ce8c7265b00dd70f4d1c6ef4f390a6f", "fusion_lon": 0.0, "bike_id": "0ce8c7265b00dd70f4d1c6ef4f390a6f", "is_reserved": 0, "rental_uris": {"android": "https://dc.lft.to/lastmile_qr_scan", "ios": "https://dc.lft.to/lastmile_qr_scan"}, "lat": 38.81204916666667, "is_disabled": 0, "lon": -77.10840983333334}, {"fusion_lat": 0.0, "type": "electric_scooter", "name": "1f3e7275f72a04c4de48a2451f68bd3c", "fusion_lon": 0.0, "bike_id": "1f3e7275f72a04c4de48a2451f68bd3c", "is_reserved": 0, "rental_uris": {"android": "https://dc.lft.to/lastmile_qr_scan", "ios": "https://dc.lft.to/lastmile_qr_scan"}, "lat": 38.9037885, "is_disabled": 0, "lon": -77.01759083333333}, {"fusion_lat": 0.0, "type": "electric_scooter", "name": "929c63a2303ab7f04693cc37b464dea1", "fusion_lon": 0.0, "bike_id": "929c63a2303ab7f04693cc37b464dea1", "is_reserved": 0, "rental_uris": {"android": "https://dc.lft.to/lastmile_qr_scan", "ios": "https://dc.lft.to/lastmile_qr_scan"}, "lat": 38.89309683333333, "is_disabled": 0, "lon": -76.92916783333334}, {"fusion_lat": 0.0, "type": "electric_scooter", "name": "3984569e00c052d7ed15478fbd132672", "fusion_lon": 0.0, "bike_id": "3984569e00c052d7ed15478fbd132672", "is_reserved": 0, "rental_uris": {"android": "https://dc.lft.to/lastmile_qr_scan", "ios": "https://dc.lft.to/lastmile_qr_scan"}, "lat": 38.907689833333336, "is_disabled": 0, "lon": -77.00099633333333}, {"fusion_lat": 0.0, "type": "electric_scooter", "name": "895466f18ca5ee3fd611de778291e11f", "fusion_lon": 0.0, "bike_id": "895466f18ca5ee3fd611de778291e11f", "is_reserved": 0, "rental_uris": {"android": "https://dc.lft.to/lastmile_qr_scan", "ios": "https://dc.lft.to/lastmile_qr_scan"}, "lat": 38.926656666666666, "is_disabled": 0, "lon": -77.02289116666667}, {"fusion_lat": 0.0, "type": "electric_scooter", "name": "3d25e0d720946693af96c1ffb43ca6d3", "fusion_lon": 0.0, "bike_id": "3d25e0d720946693af96c1ffb43ca6d3", "is_reserved": 0, "rental_uris": {"android": "https://dc.lft.to/lastmile_qr_scan", "ios": "https://dc.lft.to/lastmile_qr_scan"}, "lat": 38.92744166666667, "is_disabled": 0, "lon": -77.0226535}, {"fusion_lat": 0.0, "type": "electric_scooter", "name": "457e9647e97c3a8b110c910ebc0e7ec3", "fusion_lon": 0.0, "bike_id": "457e9647e97c3a8b110c910ebc0e7ec3", "is_reserved": 0, "rental_uris": {"android": "https://dc.lft.to/lastmile_qr_scan", "ios": "https://dc.lft.to/lastmile_qr_scan"}, "lat": 38.892535333333335, "is_disabled": 0, "lon": -77.039591}, {"fusion_lat": 0.0, "type": "electric_scooter", "name": "aaa4d132c0ad04f6f08cca10a4a2cb23", "fusion_lon": 0.0, "bike_id": "aaa4d132c0ad04f6f08cca10a4a2cb23", "is_reserved": 0, "rental_uris": {"android": "https://dc.lft.to/lastmile_qr_scan", "ios": "https://dc.lft.to/lastmile_qr_scan"}, "lat": 38.89558433333333, "is_disabled": 0, "lon": -77.00923916666666}, {"fusion_lat": 0.0, "type": "electric_scooter", "name": "cfcd60e6f85db4ebd4a16121c965bf2e", "fusion_lon": 0.0, "bike_id": "cfcd60e6f85db4ebd4a16121c965bf2e", "is_reserved": 0, "rental_uris": {"android": "https://dc.lft.to/lastmile_qr_scan", "ios": "https://dc.lft.to/lastmile_qr_scan"}, "lat": 38.89837633333333, "is_disabled": 0, "lon": -77.03310616666667}, {"fusion_lat": 0.0, "type": "electric_scooter", "name": "df696043c7dc834b7af8ba6747a39585", "fusion_lon": 0.0, "bike_id": "df696043c7dc834b7af8ba6747a39585", "is_reserved": 0, "rental_uris": {"android": "https://dc.lft.to/lastmile_qr_scan", "ios": "https://dc.lft.to/lastmile_qr_scan"}, "lat": 38.9332815, "is_disabled": 0, "lon": -77.04398533333334}, {"fusion_lat": 0.0, "type": "electric_scooter", "name": "94f3c49bda237bf1bbb8d8b87b738ed5", "fusion_lon": 0.0, "bike_id": "94f3c49bda237bf1bbb8d8b87b738ed5", "is_reserved": 0, "rental_uris": {"android": "https://dc.lft.to/lastmile_qr_scan", "ios": "https://dc.lft.to/lastmile_qr_scan"}, "lat": 38.91631066666667, "is_disabled": 0, "lon": -77.01077416666666}, {"fusion_lat": 0.0, "type": "electric_scooter", "name": "cfb29abbc83dbb17d3913a10db3515f0", "fusion_lon": 0.0, "bike_id": "cfb29abbc83dbb17d3913a10db3515f0", "is_reserved": 0, "rental_uris": {"android": "https://dc.lft.to/lastmile_qr_scan", "ios": "https://dc.lft.to/lastmile_qr_scan"}, "lat": 38.8771135, "is_disabled": 0, "lon": -76.99382166666666}, {"fusion_lat": 0.0, "type": "electric_scooter", "name": "8e3f5cc2049653b61cdd964d097bcc3a", "fusion_lon": 0.0, "bike_id": "8e3f5cc2049653b61cdd964d097bcc3a", "is_reserved": 0, "rental_uris": {"android": "https://dc.lft.to/lastmile_qr_scan", "ios": "https://dc.lft.to/lastmile_qr_scan"}, "lat": 38.8716135, "is_disabled": 0, "lon": -76.97756533333333}, {"fusion_lat": 0.0, "type": "electric_scooter", "name": "4ef6dc586e49e162e1f7fa0ce85dff5d", "fusion_lon": 0.0, "bike_id": "4ef6dc586e49e162e1f7fa0ce85dff5d", "is_reserved": 0, "rental_uris": {"android": "https://dc.lft.to/lastmile_qr_scan", "ios": "https://dc.lft.to/lastmile_qr_scan"}, "lat": 38.931003833333335, "is_disabled": 0, "lon": -77.0247855}, {"fusion_lat": 0.0, "type": "electric_scooter", "name": "9577054c180af2bcb36f7c970a5f9ccf", "fusion_lon": 0.0, "bike_id": "9577054c180af2bcb36f7c970a5f9ccf", "is_reserved": 0, "rental_uris": {"android": "https://dc.lft.to/lastmile_qr_scan", "ios": "https://dc.lft.to/lastmile_qr_scan"}, "lat": 38.9170945, "is_disabled": 0, "lon": -77.00865583333334}, {"fusion_lat": 0.0, "type": "electric_scooter", "name": "674590d08d08e45d3d38602e8b7c0ef5", "fusion_lon": 0.0, "bike_id": "674590d08d08e45d3d38602e8b7c0ef5", "is_reserved": 0, "rental_uris": {"android": "https://dc.lft.to/lastmile_qr_scan", "ios": "https://dc.lft.to/lastmile_qr_scan"}, "lat": 38.9556315, "is_disabled": 0, "lon": -77.07000516666666}, {"fusion_lat": 0.0, "type": "electric_scooter", "name": "163a6d4b7a2e1fe17d2ad5a34315d359", "fusion_lon": 0.0, "bike_id": "163a6d4b7a2e1fe17d2ad5a34315d359", "is_reserved": 0, "rental_uris": {"android": "https://dc.lft.to/lastmile_qr_scan", "ios": "https://dc.lft.to/lastmile_qr_scan"}, "lat": 38.913942666666664, "is_disabled": 0, "lon": -77.03327066666667}, {"fusion_lat": 0.0, "type": "electric_scooter", "name": "c18c53a0b1a3112999f3c9274b84f0ca", "fusion_lon": 0.0, "bike_id": "c18c53a0b1a3112999f3c9274b84f0ca", "is_reserved": 0, "rental_uris": {"android": "https://dc.lft.to/lastmile_qr_scan", "ios": "https://dc.lft.to/lastmile_qr_scan"}, "lat": 38.95021633333333, "is_disabled": 0, "lon": -77.06740466666666}, {"fusion_lat": 0.0, "type": "electric_scooter", "name": "40ddf06d41106828402d1ae43d81fc67", "fusion_lon": 0.0, "bike_id": "40ddf06d41106828402d1ae43d81fc67", "is_reserved": 0, "rental_uris": {"android": "https://dc.lft.to/lastmile_qr_scan", "ios": "https://dc.lft.to/lastmile_qr_scan"}, "lat": 38.92278316666667, "is_disabled": 0, "lon": -77.03666316666667}, {"fusion_lat": 0.0, "type": "electric_scooter", "name": "06a452ed2f033e2ab282ae5171c5107c", "fusion_lon": 0.0, "bike_id": "06a452ed2f033e2ab282ae5171c5107c", "is_reserved": 0, "rental_uris": {"android": "https://dc.lft.to/lastmile_qr_scan", "ios": "https://dc.lft.to/lastmile_qr_scan"}, "lat": 38.93372166666666, "is_disabled": 0, "lon": -77.05726433333334}, {"fusion_lat": 0.0, "type": "electric_scooter", "name": "6ebe10eba960d68533821af55c7af069", "fusion_lon": 0.0, "bike_id": "6ebe10eba960d68533821af55c7af069", "is_reserved": 0, "rental_uris": {"android": "https://dc.lft.to/lastmile_qr_scan", "ios": "https://dc.lft.to/lastmile_qr_scan"}, "lat": 38.866470666666665, "is_disabled": 0, "lon": -76.98533566666667}, {"fusion_lat": 0.0, "type": "electric_scooter", "name": "25a590c6a3f617167a02579c492c4020", "fusion_lon": 0.0, "bike_id": "25a590c6a3f617167a02579c492c4020", "is_reserved": 0, "rental_uris": {"android": "https://dc.lft.to/lastmile_qr_scan", "ios": "https://dc.lft.to/lastmile_qr_scan"}, "lat": 38.92796966666667, "is_disabled": 0, "lon": -77.02602116666667}, {"fusion_lat": 0.0, "type": "electric_scooter", "name": "604d480b92aba915b7aeb59fb2388071", "fusion_lon": 0.0, "bike_id": "604d480b92aba915b7aeb59fb2388071", "is_reserved": 0, "rental_uris": {"android": "https://dc.lft.to/lastmile_qr_scan", "ios": "https://dc.lft.to/lastmile_qr_scan"}, "lat": 38.911776, "is_disabled": 0, "lon": -77.06092083333333}, {"fusion_lat": 0.0, "type": "electric_scooter", "name": "cd26bf26e310dc7ab7ea38b38819aa26", "fusion_lon": 0.0, "bike_id": "cd26bf26e310dc7ab7ea38b38819aa26", "is_reserved": 0, "rental_uris": {"android": "https://dc.lft.to/lastmile_qr_scan", "ios": "https://dc.lft.to/lastmile_qr_scan"}, "lat": 38.900294, "is_disabled": 0, "lon": -76.98633783333334}, {"fusion_lat": 0.0, "type": "electric_scooter", "name": "984a68550dbd875ed398829009b0525e", "fusion_lon": 0.0, "bike_id": "984a68550dbd875ed398829009b0525e", "is_reserved": 0, "rental_uris": {"android": "https://dc.lft.to/lastmile_qr_scan", "ios": "https://dc.lft.to/lastmile_qr_scan"}, "lat": 38.92039533333333, "is_disabled": 0, "lon": -76.995628}, {"fusion_lat": 0.0, "type": "electric_scooter", "name": "be75ebd0fa3cd4187b94788aa9ecc6dd", "fusion_lon": 0.0, "bike_id": "be75ebd0fa3cd4187b94788aa9ecc6dd", "is_reserved": 0, "rental_uris": {"android": "https://dc.lft.to/lastmile_qr_scan", "ios": "https://dc.lft.to/lastmile_qr_scan"}, "lat": 38.873198333333335, "is_disabled": 0, "lon": -77.0057535}, {"fusion_lat": 0.0, "type": "electric_scooter", "name": "f58c5573ab420239b38c9b7f549d8fb1", "fusion_lon": 0.0, "bike_id": "f58c5573ab420239b38c9b7f549d8fb1", "is_reserved": 0, "rental_uris": {"android": "https://dc.lft.to/lastmile_qr_scan", "ios": "https://dc.lft.to/lastmile_qr_scan"}, "lat": 38.893307166666666, "is_disabled": 0, "lon": -77.0120695}, {"fusion_lat": 0.0, "type": "electric_scooter", "name": "8174362b08f70e37810ea26eb69cafb8", "fusion_lon": 0.0, "bike_id": "8174362b08f70e37810ea26eb69cafb8", "is_reserved": 0, "rental_uris": {"android": "https://dc.lft.to/lastmile_qr_scan", "ios": "https://dc.lft.to/lastmile_qr_scan"}, "lat": 38.888144833333335, "is_disabled": 0, "lon": -76.93342766666666}, {"fusion_lat": 0.0, "type": "electric_scooter", "name": "e5afd741bc4c7b4b21125828ae690dc6", "fusion_lon": 0.0, "bike_id": "e5afd741bc4c7b4b21125828ae690dc6", "is_reserved": 0, "rental_uris": {"android": "https://dc.lft.to/lastmile_qr_scan", "ios": "https://dc.lft.to/lastmile_qr_scan"}, "lat": 38.89241, "is_disabled": 0, "lon": -77.0318155}, {"fusion_lat": 0.0, "type": "electric_scooter", "name": "6c889c711c6be6a57b52c6d1cc362486", "fusion_lon": 0.0, "bike_id": "6c889c711c6be6a57b52c6d1cc362486", "is_reserved": 0, "rental_uris": {"android": "https://dc.lft.to/lastmile_qr_scan", "ios": "https://dc.lft.to/lastmile_qr_scan"}, "lat": 38.897303, "is_disabled": 0, "lon": -77.027188}, {"fusion_lat": 0.0, "type": "electric_scooter", "name": "1b81a8adf96a4c47db1c34032b5796ec", "fusion_lon": 0.0, "bike_id": "1b81a8adf96a4c47db1c34032b5796ec", "is_reserved": 0, "rental_uris": {"android": "https://dc.lft.to/lastmile_qr_scan", "ios": "https://dc.lft.to/lastmile_qr_scan"}, "lat": 38.9155095, "is_disabled": 0, "lon": -77.029841}, {"fusion_lat": 0.0, "type": "electric_scooter", "name": "74be25093e434a710816a940f1a7629b", "fusion_lon": 0.0, "bike_id": "74be25093e434a710816a940f1a7629b", "is_reserved": 0, "rental_uris": {"android": "https://dc.lft.to/lastmile_qr_scan", "ios": "https://dc.lft.to/lastmile_qr_scan"}, "lat": 38.91722016666667, "is_disabled": 0, "lon": -77.02535266666666}, {"fusion_lat": 0.0, "type": "electric_scooter", "name": "7959d6f0c29a43a30af96b3526c1e973", "fusion_lon": 0.0, "bike_id": "7959d6f0c29a43a30af96b3526c1e973", "is_reserved": 0, "rental_uris": {"android": "https://dc.lft.to/lastmile_qr_scan", "ios": "https://dc.lft.to/lastmile_qr_scan"}, "lat": 38.933866333333334, "is_disabled": 0, "lon": -77.023579}, {"fusion_lat": 0.0, "type": "electric_scooter", "name": "74436497fb6b5ae035fb7405d0dced62", "fusion_lon": 0.0, "bike_id": "74436497fb6b5ae035fb7405d0dced62", "is_reserved": 0, "rental_uris": {"android": "https://dc.lft.to/lastmile_qr_scan", "ios": "https://dc.lft.to/lastmile_qr_scan"}, "lat": 38.9097735, "is_disabled": 0, "lon": -77.02413133333333}, {"fusion_lat": 0.0, "type": "electric_scooter", "name": "0cc3f4e1641d75e8e2d27c3e5bea1779", "fusion_lon": 0.0, "bike_id": "0cc3f4e1641d75e8e2d27c3e5bea1779", "is_reserved": 0, "rental_uris": {"android": "https://dc.lft.to/lastmile_qr_scan", "ios": "https://dc.lft.to/lastmile_qr_scan"}, "lat": 38.91270133333333, "is_disabled": 0, "lon": -77.03825533333334}, {"fusion_lat": 0.0, "type": "electric_scooter", "name": "21d3100cbd9abbc8c0647bbbd786ef3f", "fusion_lon": 0.0, "bike_id": "21d3100cbd9abbc8c0647bbbd786ef3f", "is_reserved": 0, "rental_uris": {"android": "https://dc.lft.to/lastmile_qr_scan", "ios": "https://dc.lft.to/lastmile_qr_scan"}, "lat": 38.897157166666666, "is_disabled": 0, "lon": -77.027246}, {"fusion_lat": 0.0, "type": "electric_scooter", "name": "08a68700853ad9ed7c0b0fef5adc32f7", "fusion_lon": 0.0, "bike_id": "08a68700853ad9ed7c0b0fef5adc32f7", "is_reserved": 0, "rental_uris": {"android": "https://dc.lft.to/lastmile_qr_scan", "ios": "https://dc.lft.to/lastmile_qr_scan"}, "lat": 38.906648, "is_disabled": 0, "lon": -77.04864516666666}, {"fusion_lat": 0.0, "type": "electric_scooter", "name": "a6aff23dadb52c15c63b472bffeb0f69", "fusion_lon": 0.0, "bike_id": "a6aff23dadb52c15c63b472bffeb0f69", "is_reserved": 0, "rental_uris": {"android": "https://dc.lft.to/lastmile_qr_scan", "ios": "https://dc.lft.to/lastmile_qr_scan"}, "lat": 38.92172033333333, "is_disabled": 0, "lon": -77.03272733333333}, {"fusion_lat": 0.0, "type": "electric_scooter", "name": "b6f7d966b9f215ded285dae89aa81964", "fusion_lon": 0.0, "bike_id": "b6f7d966b9f215ded285dae89aa81964", "is_reserved": 0, "rental_uris": {"android": "https://dc.lft.to/lastmile_qr_scan", "ios": "https://dc.lft.to/lastmile_qr_scan"}, "lat": 38.911055166666664, "is_disabled": 0, "lon": -77.0021195}, {"fusion_lat": 0.0, "type": "electric_scooter", "name": "e54fc09dc8db6567b96fd1d261d9284e", "fusion_lon": 0.0, "bike_id": "e54fc09dc8db6567b96fd1d261d9284e", "is_reserved": 0, "rental_uris": {"android": "https://dc.lft.to/lastmile_qr_scan", "ios": "https://dc.lft.to/lastmile_qr_scan"}, "lat": 38.911311166666664, "is_disabled": 0, "lon": -77.026853}, {"fusion_lat": 0.0, "type": "electric_scooter", "name": "227b6caa208421e1cf65a6af58843c51", "fusion_lon": 0.0, "bike_id": "227b6caa208421e1cf65a6af58843c51", "is_reserved": 0, "rental_uris": {"android": "https://dc.lft.to/lastmile_qr_scan", "ios": "https://dc.lft.to/lastmile_qr_scan"}, "lat": 38.89017533333333, "is_disabled": 0, "lon": -76.93732683333333}, {"fusion_lat": 0.0, "type": "electric_scooter", "name": "efc11a7afe6dae56f79e17e6b763ce2a", "fusion_lon": 0.0, "bike_id": "efc11a7afe6dae56f79e17e6b763ce2a", "is_reserved": 0, "rental_uris": {"android": "https://dc.lft.to/lastmile_qr_scan", "ios": "https://dc.lft.to/lastmile_qr_scan"}, "lat": 38.93103633333333, "is_disabled": 0, "lon": -77.02651883333333}, {"fusion_lat": 0.0, "type": "electric_scooter", "name": "6e8b77ad8c0f0b3466d32dbcfd6298b5", "fusion_lon": 0.0, "bike_id": "6e8b77ad8c0f0b3466d32dbcfd6298b5", "is_reserved": 0, "rental_uris": {"android": "https://dc.lft.to/lastmile_qr_scan", "ios": "https://dc.lft.to/lastmile_qr_scan"}, "lat": 38.907408333333336, "is_disabled": 0, "lon": -77.03192066666666}, {"fusion_lat": 0.0, "type": "electric_scooter", "name": "356bf45c014b6292a991e423e9ba992b", "fusion_lon": 0.0, "bike_id": "356bf45c014b6292a991e423e9ba992b", "is_reserved": 0, "rental_uris": {"android": "https://dc.lft.to/lastmile_qr_scan", "ios": "https://dc.lft.to/lastmile_qr_scan"}, "lat": 38.86258383333333, "is_disabled": 0, "lon": -76.99608866666667}, {"fusion_lat": 0.0, "type": "electric_scooter", "name": "796781c5451ac1b77d85971dd199bf07", "fusion_lon": 0.0, "bike_id": "796781c5451ac1b77d85971dd199bf07", "is_reserved": 0, "rental_uris": {"android": "https://dc.lft.to/lastmile_qr_scan", "ios": "https://dc.lft.to/lastmile_qr_scan"}, "lat": 38.921445166666665, "is_disabled": 0, "lon": -77.03662333333334}, {"fusion_lat": 0.0, "type": "electric_scooter", "name": "083f772fdce0742ab390028c363d322b", "fusion_lon": 0.0, "bike_id": "083f772fdce0742ab390028c363d322b", "is_reserved": 0, "rental_uris": {"android": "https://dc.lft.to/lastmile_qr_scan", "ios": "https://dc.lft.to/lastmile_qr_scan"}, "lat": 38.892420666666666, "is_disabled": 0, "lon": -77.03209683333333}, {"fusion_lat": 0.0, "type": "electric_scooter", "name": "9fc5afa411181b51ec433f7e0672553a", "fusion_lon": 0.0, "bike_id": "9fc5afa411181b51ec433f7e0672553a", "is_reserved": 0, "rental_uris": {"android": "https://dc.lft.to/lastmile_qr_scan", "ios": "https://dc.lft.to/lastmile_qr_scan"}, "lat": 38.90247983333333, "is_disabled": 0, "lon": -77.0347115}, {"fusion_lat": 0.0, "type": "electric_scooter", "name": "1ea9bd34186c4991b33287263d262142", "fusion_lon": 0.0, "bike_id": "1ea9bd34186c4991b33287263d262142", "is_reserved": 0, "rental_uris": {"android": "https://dc.lft.to/lastmile_qr_scan", "ios": "https://dc.lft.to/lastmile_qr_scan"}, "lat": 38.89736416666667, "is_disabled": 0, "lon": -77.03345633333333}, {"fusion_lat": 0.0, "type": "electric_scooter", "name": "905940d7eababe57f11b874949b69bdd", "fusion_lon": 0.0, "bike_id": "905940d7eababe57f11b874949b69bdd", "is_reserved": 0, "rental_uris": {"android": "https://dc.lft.to/lastmile_qr_scan", "ios": "https://dc.lft.to/lastmile_qr_scan"}, "lat": 38.8921955, "is_disabled": 0, "lon": -77.03218666666666}, {"fusion_lat": 0.0, "type": "electric_scooter", "name": "09ad9bbc83aeaae2af56af240182f286", "fusion_lon": 0.0, "bike_id": "09ad9bbc83aeaae2af56af240182f286", "is_reserved": 0, "rental_uris": {"android": "https://dc.lft.to/lastmile_qr_scan", "ios": "https://dc.lft.to/lastmile_qr_scan"}, "lat": 38.913318833333335, "is_disabled": 0, "lon": -77.04574933333333}, {"fusion_lat": 0.0, "type": "electric_scooter", "name": "51b0664e32e6bc787c8bd467c5ec964d", "fusion_lon": 0.0, "bike_id": "51b0664e32e6bc787c8bd467c5ec964d", "is_reserved": 0, "rental_uris": {"android": "https://dc.lft.to/lastmile_qr_scan", "ios": "https://dc.lft.to/lastmile_qr_scan"}, "lat": 38.91556416666667, "is_disabled": 0, "lon": -77.03198683333333}, {"fusion_lat": 0.0, "type": "electric_scooter", "name": "8d04c27c2008769157270facc7bb2cfe", "fusion_lon": 0.0, "bike_id": "8d04c27c2008769157270facc7bb2cfe", "is_reserved": 0, "rental_uris": {"android": "https://dc.lft.to/lastmile_qr_scan", "ios": "https://dc.lft.to/lastmile_qr_scan"}, "lat": 38.90388633333333, "is_disabled": 0, "lon": -77.044391}, {"fusion_lat": 0.0, "type": "electric_bike", "name": "7c6cd490b09d07801f4e97d5be8f33d7", "fusion_lon": 0.0, "bike_id": "7c6cd490b09d07801f4e97d5be8f33d7", "is_reserved": 0, "rental_uris": {"android": "https://dc.lft.to/lastmile_qr_scan", "ios": "https://dc.lft.to/lastmile_qr_scan"}, "lat": 38.953282, "is_disabled": 0, "lon": -76.95432033333333}, {"fusion_lat": 0.0, "type": "electric_scooter", "name": "a8632e15eeff73945261e80f2864b760", "fusion_lon": 0.0, "bike_id": "a8632e15eeff73945261e80f2864b760", "is_reserved": 0, "rental_uris": {"android": "https://dc.lft.to/lastmile_qr_scan", "ios": "https://dc.lft.to/lastmile_qr_scan"}, "lat": 38.967825500000004, "is_disabled": 0, "lon": -77.01512433333333}, {"fusion_lat": 0.0, "type": "electric_scooter", "name": "ed4ede214baf4425ecf2d6559a9170d5", "fusion_lon": 0.0, "bike_id": "ed4ede214baf4425ecf2d6559a9170d5", "is_reserved": 0, "rental_uris": {"android": "https://dc.lft.to/lastmile_qr_scan", "ios": "https://dc.lft.to/lastmile_qr_scan"}, "lat": 38.907305, "is_disabled": 0, "lon": -77.04752133333334}, {"fusion_lat": 0.0, "type": "electric_scooter", "name": "523dcf961480abe34aabd42aca6c07f0", "fusion_lon": 0.0, "bike_id": "523dcf961480abe34aabd42aca6c07f0", "is_reserved": 0, "rental_uris": {"android": "https://dc.lft.to/lastmile_qr_scan", "ios": "https://dc.lft.to/lastmile_qr_scan"}, "lat": 38.902629833333336, "is_disabled": 0, "lon": -77.00738966666667}, {"fusion_lat": 0.0, "type": "electric_scooter", "name": "3cc0b751f43d4cf51ea7743fdce1209f", "fusion_lon": 0.0, "bike_id": "3cc0b751f43d4cf51ea7743fdce1209f", "is_reserved": 0, "rental_uris": {"android": "https://dc.lft.to/lastmile_qr_scan", "ios": "https://dc.lft.to/lastmile_qr_scan"}, "lat": 38.9118145, "is_disabled": 0, "lon": -77.04165466666667}, {"fusion_lat": 0.0, "type": "electric_scooter", "name": "376994a101a64e9f7f7bb04843f6d1a0", "fusion_lon": 0.0, "bike_id": "376994a101a64e9f7f7bb04843f6d1a0", "is_reserved": 0, "rental_uris": {"android": "https://dc.lft.to/lastmile_qr_scan", "ios": "https://dc.lft.to/lastmile_qr_scan"}, "lat": 38.91908933333333, "is_disabled": 0, "lon": -77.03441916666667}, {"fusion_lat": 0.0, "type": "electric_scooter", "name": "0c497d6822f87b987ee8800e3122e499", "fusion_lon": 0.0, "bike_id": "0c497d6822f87b987ee8800e3122e499", "is_reserved": 0, "rental_uris": {"android": "https://dc.lft.to/lastmile_qr_scan", "ios": "https://dc.lft.to/lastmile_qr_scan"}, "lat": 38.90659733333333, "is_disabled": 0, "lon": -77.01627066666667}, {"fusion_lat": 0.0, "type": "electric_scooter", "name": "0636066ddc89804187ef0a8fbc968cb1", "fusion_lon": 0.0, "bike_id": "0636066ddc89804187ef0a8fbc968cb1", "is_reserved": 0, "rental_uris": {"android": "https://dc.lft.to/lastmile_qr_scan", "ios": "https://dc.lft.to/lastmile_qr_scan"}, "lat": 38.93211983333333, "is_disabled": 0, "lon": -77.02832633333334}, {"fusion_lat": 0.0, "type": "electric_scooter", "name": "c96cb3c02af7849cc59c1003d0cf5a30", "fusion_lon": 0.0, "bike_id": "c96cb3c02af7849cc59c1003d0cf5a30", "is_reserved": 0, "rental_uris": {"android": "https://dc.lft.to/lastmile_qr_scan", "ios": "https://dc.lft.to/lastmile_qr_scan"}, "lat": 38.939849, "is_disabled": 0, "lon": -77.03265333333333}, {"fusion_lat": 0.0, "type": "electric_scooter", "name": "8e868c044728307fb2b430bf7f7dc60d", "fusion_lon": 0.0, "bike_id": "8e868c044728307fb2b430bf7f7dc60d", "is_reserved": 0, "rental_uris": {"android": "https://dc.lft.to/lastmile_qr_scan", "ios": "https://dc.lft.to/lastmile_qr_scan"}, "lat": 38.86708483333334, "is_disabled": 0, "lon": -76.987059}, {"fusion_lat": 0.0, "type": "electric_scooter", "name": "9d1968deda9defbd85b990f875cc52d3", "fusion_lon": 0.0, "bike_id": "9d1968deda9defbd85b990f875cc52d3", "is_reserved": 0, "rental_uris": {"android": "https://dc.lft.to/lastmile_qr_scan", "ios": "https://dc.lft.to/lastmile_qr_scan"}, "lat": 38.9073795, "is_disabled": 0, "lon": -77.032752}, {"fusion_lat": 0.0, "type": "electric_scooter", "name": "f211c2ce10b6c18b0a1ae07a488d07f7", "fusion_lon": 0.0, "bike_id": "f211c2ce10b6c18b0a1ae07a488d07f7", "is_reserved": 0, "rental_uris": {"android": "https://dc.lft.to/lastmile_qr_scan", "ios": "https://dc.lft.to/lastmile_qr_scan"}, "lat": 38.89157266666667, "is_disabled": 0, "lon": -77.00585766666667}, {"fusion_lat": 0.0, "type": "electric_scooter", "name": "fd3021b21739577df8c09103654065cd", "fusion_lon": 0.0, "bike_id": "fd3021b21739577df8c09103654065cd", "is_reserved": 0, "rental_uris": {"android": "https://dc.lft.to/lastmile_qr_scan", "ios": "https://dc.lft.to/lastmile_qr_scan"}, "lat": 38.94421416666667, "is_disabled": 0, "lon": -77.017757}, {"fusion_lat": 0.0, "type": "electric_scooter", "name": "fbd3cd5146ff3bc66cefde10971598ed", "fusion_lon": 0.0, "bike_id": "fbd3cd5146ff3bc66cefde10971598ed", "is_reserved": 0, "rental_uris": {"android": "https://dc.lft.to/lastmile_qr_scan", "ios": "https://dc.lft.to/lastmile_qr_scan"}, "lat": 38.8646915, "is_disabled": 0, "lon": -76.977443}, {"fusion_lat": 0.0, "type": "electric_scooter", "name": "3f61579098b8daf0e708e3fd4dd952c4", "fusion_lon": 0.0, "bike_id": "3f61579098b8daf0e708e3fd4dd952c4", "is_reserved": 0, "rental_uris": {"android": "https://dc.lft.to/lastmile_qr_scan", "ios": "https://dc.lft.to/lastmile_qr_scan"}, "lat": 38.876491, "is_disabled": 0, "lon": -76.96508433333334}, {"fusion_lat": 0.0, "type": "electric_scooter", "name": "5adc2b9dfc109bca055a4f5a365c030e", "fusion_lon": 0.0, "bike_id": "5adc2b9dfc109bca055a4f5a365c030e", "is_reserved": 0, "rental_uris": {"android": "https://dc.lft.to/lastmile_qr_scan", "ios": "https://dc.lft.to/lastmile_qr_scan"}, "lat": 38.92674316666667, "is_disabled": 0, "lon": -77.023039}, {"fusion_lat": 0.0, "type": "electric_scooter", "name": "5e24874fc2e2e55a6eee8f92d44abd5e", "fusion_lon": 0.0, "bike_id": "5e24874fc2e2e55a6eee8f92d44abd5e", "is_reserved": 0, "rental_uris": {"android": "https://dc.lft.to/lastmile_qr_scan", "ios": "https://dc.lft.to/lastmile_qr_scan"}, "lat": 38.9291135, "is_disabled": 0, "lon": -77.037562}, {"fusion_lat": 0.0, "type": "electric_scooter", "name": "ece034156c5321c331d9179c6460c471", "fusion_lon": 0.0, "bike_id": "ece034156c5321c331d9179c6460c471", "is_reserved": 0, "rental_uris": {"android": "https://dc.lft.to/lastmile_qr_scan", "ios": "https://dc.lft.to/lastmile_qr_scan"}, "lat": 38.9240565, "is_disabled": 0, "lon": -77.025381}, {"fusion_lat": 0.0, "type": "electric_bike", "name": "02fd89be4cd05d6aa5ae4bcda79e8175", "fusion_lon": 0.0, "bike_id": "02fd89be4cd05d6aa5ae4bcda79e8175", "is_reserved": 0, "rental_uris": {"android": "https://dc.lft.to/lastmile_qr_scan", "ios": "https://dc.lft.to/lastmile_qr_scan"}, "lat": 38.90314933333333, "is_disabled": 0, "lon": -76.91215816666667}, {"fusion_lat": 0.0, "type": "electric_bike", "name": "ab7fb9e1c118a73aed94be04cd68f4d6", "fusion_lon": 0.0, "bike_id": "ab7fb9e1c118a73aed94be04cd68f4d6", "is_reserved": 0, "rental_uris": {"android": "https://dc.lft.to/lastmile_qr_scan", "ios": "https://dc.lft.to/lastmile_qr_scan"}, "lat": 38.983648333333335, "is_disabled": 0, "lon": -76.97215566666667}, {"fusion_lat": 0.0, "type": "electric_scooter", "name": "198148588a28a51b9afc85de73c188d0", "fusion_lon": 0.0, "bike_id": "198148588a28a51b9afc85de73c188d0", "is_reserved": 0, "rental_uris": {"android": "https://dc.lft.to/lastmile_qr_scan", "ios": "https://dc.lft.to/lastmile_qr_scan"}, "lat": 38.91497966666667, "is_disabled": 0, "lon": -77.00772916666666}, {"fusion_lat": 0.0, "type": "electric_bike", "name": "1c756686ce40d05914e2d7efc84fc050", "fusion_lon": 0.0, "bike_id": "1c756686ce40d05914e2d7efc84fc050", "is_reserved": 0, "rental_uris": {"android": "https://dc.lft.to/lastmile_qr_scan", "ios": "https://dc.lft.to/lastmile_qr_scan"}, "lat": 38.93209266666667, "is_disabled": 0, "lon": -77.01876533333333}, {"fusion_lat": 0.0, "type": "electric_scooter", "name": "569321a7fff7637c736e53e9375f8aee", "fusion_lon": 0.0, "bike_id": "569321a7fff7637c736e53e9375f8aee", "is_reserved": 0, "rental_uris": {"android": "https://dc.lft.to/lastmile_qr_scan", "ios": "https://dc.lft.to/lastmile_qr_scan"}, "lat": 38.95750866666667, "is_disabled": 0, "lon": -77.02064066666667}, {"fusion_lat": 0.0, "type": "electric_bike", "name": "44ec22d607d1dfb138268208708d1735", "fusion_lon": 0.0, "bike_id": "44ec22d607d1dfb138268208708d1735", "is_reserved": 0, "rental_uris": {"android": "https://dc.lft.to/lastmile_qr_scan", "ios": "https://dc.lft.to/lastmile_qr_scan"}, "lat": 38.92338566666667, "is_disabled": 0, "lon": -76.97141516666667}, {"fusion_lat": 0.0, "type": "electric_scooter", "name": "c222ecb985efd204869e45bf69c8759a", "fusion_lon": 0.0, "bike_id": "c222ecb985efd204869e45bf69c8759a", "is_reserved": 0, "rental_uris": {"android": "https://dc.lft.to/lastmile_qr_scan", "ios": "https://dc.lft.to/lastmile_qr_scan"}, "lat": 38.899601833333335, "is_disabled": 0, "lon": -76.975384}, {"fusion_lat": 0.0, "type": "electric_scooter", "name": "a81d0dbb4593d48b6df081279071b164", "fusion_lon": 0.0, "bike_id": "a81d0dbb4593d48b6df081279071b164", "is_reserved": 0, "rental_uris": {"android": "https://dc.lft.to/lastmile_qr_scan", "ios": "https://dc.lft.to/lastmile_qr_scan"}, "lat": 38.87929416666667, "is_disabled": 0, "lon": -77.02136283333333}, {"fusion_lat": 0.0, "type": "electric_scooter", "name": "d93dc06169bc8519319db13eee333766", "fusion_lon": 0.0, "bike_id": "d93dc06169bc8519319db13eee333766", "is_reserved": 0, "rental_uris": {"android": "https://dc.lft.to/lastmile_qr_scan", "ios": "https://dc.lft.to/lastmile_qr_scan"}, "lat": 38.9135015, "is_disabled": 0, "lon": -77.031831}, {"fusion_lat": 0.0, "type": "electric_scooter", "name": "286b935ddf7cf27fccfc50dc3e6ea6cb", "fusion_lon": 0.0, "bike_id": "286b935ddf7cf27fccfc50dc3e6ea6cb", "is_reserved": 0, "rental_uris": {"android": "https://dc.lft.to/lastmile_qr_scan", "ios": "https://dc.lft.to/lastmile_qr_scan"}, "lat": 38.9367235, "is_disabled": 0, "lon": -77.03596}, {"fusion_lat": 0.0, "type": "electric_scooter", "name": "22c072a87f22bf49bca4eb795b446d87", "fusion_lon": 0.0, "bike_id": "22c072a87f22bf49bca4eb795b446d87", "is_reserved": 0, "rental_uris": {"android": "https://dc.lft.to/lastmile_qr_scan", "ios": "https://dc.lft.to/lastmile_qr_scan"}, "lat": 38.901764166666666, "is_disabled": 0, "lon": -76.98082666666667}, {"fusion_lat": 0.0, "type": "electric_scooter", "name": "937ef50980dced191ca75db68cb7649b", "fusion_lon": 0.0, "bike_id": "937ef50980dced191ca75db68cb7649b", "is_reserved": 0, "rental_uris": {"android": "https://dc.lft.to/lastmile_qr_scan", "ios": "https://dc.lft.to/lastmile_qr_scan"}, "lat": 38.910438, "is_disabled": 0, "lon": -77.03497616666667}, {"fusion_lat": 0.0, "type": "electric_bike", "name": "0e1d0635aaa77c0ab4b331cfffc4a0ed", "fusion_lon": 0.0, "bike_id": "0e1d0635aaa77c0ab4b331cfffc4a0ed", "is_reserved": 0, "rental_uris": {"android": "https://dc.lft.to/lastmile_qr_scan", "ios": "https://dc.lft.to/lastmile_qr_scan"}, "lat": 38.951588666666666, "is_disabled": 0, "lon": -77.0128415}, {"fusion_lat": 0.0, "type": "electric_scooter", "name": "b170eda43b6a2513b34dca38203194bc", "fusion_lon": 0.0, "bike_id": "b170eda43b6a2513b34dca38203194bc", "is_reserved": 0, "rental_uris": {"android": "https://dc.lft.to/lastmile_qr_scan", "ios": "https://dc.lft.to/lastmile_qr_scan"}, "lat": 38.89192416666667, "is_disabled": 0, "lon": -76.98859166666666}, {"fusion_lat": 0.0, "type": "electric_scooter", "name": "571e2a06b991e6dd5e9092e77d2dabb0", "fusion_lon": 0.0, "bike_id": "571e2a06b991e6dd5e9092e77d2dabb0", "is_reserved": 0, "rental_uris": {"android": "https://dc.lft.to/lastmile_qr_scan", "ios": "https://dc.lft.to/lastmile_qr_scan"}, "lat": 38.90182166666666, "is_disabled": 0, "lon": -77.0240225}, {"fusion_lat": 0.0, "type": "electric_scooter", "name": "94b5f851dce34922a6178b5570e24a07", "fusion_lon": 0.0, "bike_id": "94b5f851dce34922a6178b5570e24a07", "is_reserved": 0, "rental_uris": {"android": "https://dc.lft.to/lastmile_qr_scan", "ios": "https://dc.lft.to/lastmile_qr_scan"}, "lat": 38.912782, "is_disabled": 0, "lon": -77.047626}, {"fusion_lat": 0.0, "type": "electric_bike", "name": "33b8073948bcbab90df0e5d2c6e38dd5", "fusion_lon": 0.0, "bike_id": "33b8073948bcbab90df0e5d2c6e38dd5", "is_reserved": 0, "rental_uris": {"android": "https://dc.lft.to/lastmile_qr_scan", "ios": "https://dc.lft.to/lastmile_qr_scan"}, "lat": 38.93631833333333, "is_disabled": 0, "lon": -77.03328083333334}, {"fusion_lat": 0.0, "type": "electric_scooter", "name": "e247f53c97d1f03fb678175a78aaaa5d", "fusion_lon": 0.0, "bike_id": "e247f53c97d1f03fb678175a78aaaa5d", "is_reserved": 0, "rental_uris": {"android": "https://dc.lft.to/lastmile_qr_scan", "ios": "https://dc.lft.to/lastmile_qr_scan"}, "lat": 38.91946333333333, "is_disabled": 0, "lon": -77.0019135}, {"fusion_lat": 0.0, "type": "electric_scooter", "name": "4092d08d1d7b00dd34d405f05ce97755", "fusion_lon": 0.0, "bike_id": "4092d08d1d7b00dd34d405f05ce97755", "is_reserved": 0, "rental_uris": {"android": "https://dc.lft.to/lastmile_qr_scan", "ios": "https://dc.lft.to/lastmile_qr_scan"}, "lat": 38.91270883333333, "is_disabled": 0, "lon": -77.04414733333333}, {"fusion_lat": 0.0, "type": "electric_scooter", "name": "32ca15d28bc241cb4b5c9a99ead90c98", "fusion_lon": 0.0, "bike_id": "32ca15d28bc241cb4b5c9a99ead90c98", "is_reserved": 0, "rental_uris": {"android": "https://dc.lft.to/lastmile_qr_scan", "ios": "https://dc.lft.to/lastmile_qr_scan"}, "lat": 38.8991705, "is_disabled": 0, "lon": -76.9336915}, {"fusion_lat": 0.0, "type": "electric_scooter", "name": "95572659a4c69bd77ab5c37d475cd3dc", "fusion_lon": 0.0, "bike_id": "95572659a4c69bd77ab5c37d475cd3dc", "is_reserved": 0, "rental_uris": {"android": "https://dc.lft.to/lastmile_qr_scan", "ios": "https://dc.lft.to/lastmile_qr_scan"}, "lat": 38.91911016666667, "is_disabled": 0, "lon": -77.02412766666667}, {"fusion_lat": 0.0, "type": "electric_scooter", "name": "110c330e8480dc862276b7222c17f1bf", "fusion_lon": 0.0, "bike_id": "110c330e8480dc862276b7222c17f1bf", "is_reserved": 0, "rental_uris": {"android": "https://dc.lft.to/lastmile_qr_scan", "ios": "https://dc.lft.to/lastmile_qr_scan"}, "lat": 38.910627166666664, "is_disabled": 0, "lon": -77.04103666666667}, {"fusion_lat": 0.0, "type": "electric_scooter", "name": "176cc8666bc714703a1a9b847b4e8f68", "fusion_lon": 0.0, "bike_id": "176cc8666bc714703a1a9b847b4e8f68", "is_reserved": 0, "rental_uris": {"android": "https://dc.lft.to/lastmile_qr_scan", "ios": "https://dc.lft.to/lastmile_qr_scan"}, "lat": 38.892245333333335, "is_disabled": 0, "lon": -77.0486595}, {"fusion_lat": 0.0, "type": "electric_scooter", "name": "98042afa4adb5ed16a25ec475a90a542", "fusion_lon": 0.0, "bike_id": "98042afa4adb5ed16a25ec475a90a542", "is_reserved": 0, "rental_uris": {"android": "https://dc.lft.to/lastmile_qr_scan", "ios": "https://dc.lft.to/lastmile_qr_scan"}, "lat": 38.925561, "is_disabled": 0, "lon": -77.02961483333333}, {"fusion_lat": 0.0, "type": "electric_scooter", "name": "5b723d315a7358838a0e86ed9f30f7bf", "fusion_lon": 0.0, "bike_id": "5b723d315a7358838a0e86ed9f30f7bf", "is_reserved": 0, "rental_uris": {"android": "https://dc.lft.to/lastmile_qr_scan", "ios": "https://dc.lft.to/lastmile_qr_scan"}, "lat": 38.914481333333335, "is_disabled": 0, "lon": -77.06712266666666}, {"fusion_lat": 0.0, "type": "electric_scooter", "name": "7b63a8b70b5a75b27cb181baa830c900", "fusion_lon": 0.0, "bike_id": "7b63a8b70b5a75b27cb181baa830c900", "is_reserved": 0, "rental_uris": {"android": "https://dc.lft.to/lastmile_qr_scan", "ios": "https://dc.lft.to/lastmile_qr_scan"}, "lat": 38.921566166666665, "is_disabled": 0, "lon": -77.03380483333333}, {"fusion_lat": 0.0, "type": "electric_bike", "name": "1d52feeefd5d0d37ad88ca09ad7055b4", "fusion_lon": 0.0, "bike_id": "1d52feeefd5d0d37ad88ca09ad7055b4", "is_reserved": 0, "rental_uris": {"android": "https://dc.lft.to/lastmile_qr_scan", "ios": "https://dc.lft.to/lastmile_qr_scan"}, "lat": 39.0579465, "is_disabled": 0, "lon": -77.15017383333333}, {"fusion_lat": 0.0, "type": "electric_scooter", "name": "350dc44bf4b131010629535bedcf2db7", "fusion_lon": 0.0, "bike_id": "350dc44bf4b131010629535bedcf2db7", "is_reserved": 0, "rental_uris": {"android": "https://dc.lft.to/lastmile_qr_scan", "ios": "https://dc.lft.to/lastmile_qr_scan"}, "lat": 38.909563, "is_disabled": 0, "lon": -77.0219975}, {"fusion_lat": 0.0, "type": "electric_scooter", "name": "a1bcce824a1cc5762ba000c7d671aaed", "fusion_lon": 0.0, "bike_id": "a1bcce824a1cc5762ba000c7d671aaed", "is_reserved": 0, "rental_uris": {"android": "https://dc.lft.to/lastmile_qr_scan", "ios": "https://dc.lft.to/lastmile_qr_scan"}, "lat": 38.92454216666667, "is_disabled": 0, "lon": -77.05754483333334}, {"fusion_lat": 0.0, "type": "electric_scooter", "name": "b09260d2d378212d96278721d6863f0c", "fusion_lon": 0.0, "bike_id": "b09260d2d378212d96278721d6863f0c", "is_reserved": 0, "rental_uris": {"android": "https://dc.lft.to/lastmile_qr_scan", "ios": "https://dc.lft.to/lastmile_qr_scan"}, "lat": 38.911151833333335, "is_disabled": 0, "lon": -77.04361066666667}, {"fusion_lat": 0.0, "type": "electric_scooter", "name": "80fe63e2377511dc73b84278b0f9f672", "fusion_lon": 0.0, "bike_id": "80fe63e2377511dc73b84278b0f9f672", "is_reserved": 0, "rental_uris": {"android": "https://dc.lft.to/lastmile_qr_scan", "ios": "https://dc.lft.to/lastmile_qr_scan"}, "lat": 38.902051166666666, "is_disabled": 0, "lon": -76.978561}, {"fusion_lat": 0.0, "type": "electric_bike", "name": "a00326d2ce3c19601af59a179791f5d2", "fusion_lon": 0.0, "bike_id": "a00326d2ce3c19601af59a179791f5d2", "is_reserved": 0, "rental_uris": {"android": "https://dc.lft.to/lastmile_qr_scan", "ios": "https://dc.lft.to/lastmile_qr_scan"}, "lat": 38.829116666666664, "is_disabled": 0, "lon": -76.99777483333334}, {"fusion_lat": 0.0, "type": "electric_scooter", "name": "42c34d2658885bd4c10be0c147cfa7ac", "fusion_lon": 0.0, "bike_id": "42c34d2658885bd4c10be0c147cfa7ac", "is_reserved": 0, "rental_uris": {"android": "https://dc.lft.to/lastmile_qr_scan", "ios": "https://dc.lft.to/lastmile_qr_scan"}, "lat": 38.93421683333333, "is_disabled": 0, "lon": -77.0441245}, {"fusion_lat": 0.0, "type": "electric_scooter", "name": "170d438b8f151e1ee2d1ef1833792443", "fusion_lon": 0.0, "bike_id": "170d438b8f151e1ee2d1ef1833792443", "is_reserved": 0, "rental_uris": {"android": "https://dc.lft.to/lastmile_qr_scan", "ios": "https://dc.lft.to/lastmile_qr_scan"}, "lat": 38.921066, "is_disabled": 0, "lon": -77.0718875}, {"fusion_lat": 0.0, "type": "electric_scooter", "name": "8e815d9b2a2ea688b883340583f69982", "fusion_lon": 0.0, "bike_id": "8e815d9b2a2ea688b883340583f69982", "is_reserved": 0, "rental_uris": {"android": "https://dc.lft.to/lastmile_qr_scan", "ios": "https://dc.lft.to/lastmile_qr_scan"}, "lat": 38.925312, "is_disabled": 0, "lon": -77.05136933333333}, {"fusion_lat": 0.0, "type": "electric_scooter", "name": "a6ab2dbc260459be761e06fc0b779477", "fusion_lon": 0.0, "bike_id": "a6ab2dbc260459be761e06fc0b779477", "is_reserved": 0, "rental_uris": {"android": "https://dc.lft.to/lastmile_qr_scan", "ios": "https://dc.lft.to/lastmile_qr_scan"}, "lat": 38.90639, "is_disabled": 0, "lon": -77.00589216666667}, {"fusion_lat": 0.0, "type": "electric_scooter", "name": "89c092f8fb7bba9505dcbf28f3806ba7", "fusion_lon": 0.0, "bike_id": "89c092f8fb7bba9505dcbf28f3806ba7", "is_reserved": 0, "rental_uris": {"android": "https://dc.lft.to/lastmile_qr_scan", "ios": "https://dc.lft.to/lastmile_qr_scan"}, "lat": 38.89371283333333, "is_disabled": 0, "lon": -76.949977}, {"fusion_lat": 0.0, "type": "electric_scooter", "name": "3bef8a38d02be2babc74f3b0dd8384fa", "fusion_lon": 0.0, "bike_id": "3bef8a38d02be2babc74f3b0dd8384fa", "is_reserved": 0, "rental_uris": {"android": "https://dc.lft.to/lastmile_qr_scan", "ios": "https://dc.lft.to/lastmile_qr_scan"}, "lat": 38.888467, "is_disabled": 0, "lon": -77.049016}, {"fusion_lat": 0.0, "type": "electric_scooter", "name": "f0cce34242aeca5e1d4506397472c8d8", "fusion_lon": 0.0, "bike_id": "f0cce34242aeca5e1d4506397472c8d8", "is_reserved": 0, "rental_uris": {"android": "https://dc.lft.to/lastmile_qr_scan", "ios": "https://dc.lft.to/lastmile_qr_scan"}, "lat": 38.89897466666667, "is_disabled": 0, "lon": -77.039184}, {"fusion_lat": 0.0, "type": "electric_bike", "name": "f3c099d11188baa7f52d3a8ec3647296", "fusion_lon": 0.0, "bike_id": "f3c099d11188baa7f52d3a8ec3647296", "is_reserved": 0, "rental_uris": {"android": "https://dc.lft.to/lastmile_qr_scan", "ios": "https://dc.lft.to/lastmile_qr_scan"}, "lat": 38.867462, "is_disabled": 0, "lon": -77.11710916666667}, {"fusion_lat": 0.0, "type": "electric_scooter", "name": "7ca630425f51ee381db987d4bc8b5d81", "fusion_lon": 0.0, "bike_id": "7ca630425f51ee381db987d4bc8b5d81", "is_reserved": 0, "rental_uris": {"android": "https://dc.lft.to/lastmile_qr_scan", "ios": "https://dc.lft.to/lastmile_qr_scan"}, "lat": 38.91791033333333, "is_disabled": 0, "lon": -77.03214466666667}, {"fusion_lat": 0.0, "type": "electric_scooter", "name": "b753ce93012ddc17686214261fc1396d", "fusion_lon": 0.0, "bike_id": "b753ce93012ddc17686214261fc1396d", "is_reserved": 0, "rental_uris": {"android": "https://dc.lft.to/lastmile_qr_scan", "ios": "https://dc.lft.to/lastmile_qr_scan"}, "lat": 38.91283083333333, "is_disabled": 0, "lon": -77.03857166666667}, {"fusion_lat": 0.0, "type": "electric_scooter", "name": "62806937fb617ef86d4f27808152b1b2", "fusion_lon": 0.0, "bike_id": "62806937fb617ef86d4f27808152b1b2", "is_reserved": 0, "rental_uris": {"android": "https://dc.lft.to/lastmile_qr_scan", "ios": "https://dc.lft.to/lastmile_qr_scan"}, "lat": 38.92742283333333, "is_disabled": 0, "lon": -77.02265716666666}, {"fusion_lat": 0.0, "type": "electric_scooter", "name": "9ae68e480b0023fd77e6fb45378fe749", "fusion_lon": 0.0, "bike_id": "9ae68e480b0023fd77e6fb45378fe749", "is_reserved": 0, "rental_uris": {"android": "https://dc.lft.to/lastmile_qr_scan", "ios": "https://dc.lft.to/lastmile_qr_scan"}, "lat": 38.917161666666665, "is_disabled": 0, "lon": -77.03347066666667}, {"fusion_lat": 0.0, "type": "electric_scooter", "name": "a88f4dc4a5be70c5d0137ec25a6920bd", "fusion_lon": 0.0, "bike_id": "a88f4dc4a5be70c5d0137ec25a6920bd", "is_reserved": 0, "rental_uris": {"android": "https://dc.lft.to/lastmile_qr_scan", "ios": "https://dc.lft.to/lastmile_qr_scan"}, "lat": 38.918099166666664, "is_disabled": 0, "lon": -77.03435966666666}, {"fusion_lat": 0.0, "type": "electric_scooter", "name": "a5055d847fb5ea9a13b7351619858246", "fusion_lon": 0.0, "bike_id": "a5055d847fb5ea9a13b7351619858246", "is_reserved": 0, "rental_uris": {"android": "https://dc.lft.to/lastmile_qr_scan", "ios": "https://dc.lft.to/lastmile_qr_scan"}, "lat": 38.9388285, "is_disabled": 0, "lon": -77.02484066666666}, {"fusion_lat": 0.0, "type": "electric_scooter", "name": "12fcf70bb0eb973409f29223b416baeb", "fusion_lon": 0.0, "bike_id": "12fcf70bb0eb973409f29223b416baeb", "is_reserved": 0, "rental_uris": {"android": "https://dc.lft.to/lastmile_qr_scan", "ios": "https://dc.lft.to/lastmile_qr_scan"}, "lat": 38.92464483333333, "is_disabled": 0, "lon": -77.05757216666667}, {"fusion_lat": 0.0, "type": "electric_scooter", "name": "f739f240bbbe14a638918bfedb19750e", "fusion_lon": 0.0, "bike_id": "f739f240bbbe14a638918bfedb19750e", "is_reserved": 0, "rental_uris": {"android": "https://dc.lft.to/lastmile_qr_scan", "ios": "https://dc.lft.to/lastmile_qr_scan"}, "lat": 38.915881166666665, "is_disabled": 0, "lon": -77.04374}, {"fusion_lat": 0.0, "type": "electric_scooter", "name": "fda026cab6f7510fc6891403b35742f3", "fusion_lon": 0.0, "bike_id": "fda026cab6f7510fc6891403b35742f3", "is_reserved": 0, "rental_uris": {"android": "https://dc.lft.to/lastmile_qr_scan", "ios": "https://dc.lft.to/lastmile_qr_scan"}, "lat": 38.907087, "is_disabled": 0, "lon": -77.04474866666666}, {"fusion_lat": 0.0, "type": "electric_bike", "name": "2f5d54adfba26b944750ccb29978f51a", "fusion_lon": 0.0, "bike_id": "2f5d54adfba26b944750ccb29978f51a", "is_reserved": 0, "rental_uris": {"android": "https://dc.lft.to/lastmile_qr_scan", "ios": "https://dc.lft.to/lastmile_qr_scan"}, "lat": 38.895626166666666, "is_disabled": 0, "lon": -77.12731016666666}, {"fusion_lat": 0.0, "type": "electric_scooter", "name": "335e7888c2c10077fd218086bf33207e", "fusion_lon": 0.0, "bike_id": "335e7888c2c10077fd218086bf33207e", "is_reserved": 0, "rental_uris": {"android": "https://dc.lft.to/lastmile_qr_scan", "ios": "https://dc.lft.to/lastmile_qr_scan"}, "lat": 38.91861683333333, "is_disabled": 0, "lon": -77.04591766666667}, {"fusion_lat": 0.0, "type": "electric_scooter", "name": "c6fc5f19786bf5f71d0c14798c185369", "fusion_lon": 0.0, "bike_id": "c6fc5f19786bf5f71d0c14798c185369", "is_reserved": 0, "rental_uris": {"android": "https://dc.lft.to/lastmile_qr_scan", "ios": "https://dc.lft.to/lastmile_qr_scan"}, "lat": 38.86382283333333, "is_disabled": 0, "lon": -76.990552}, {"fusion_lat": 0.0, "type": "electric_scooter", "name": "a1d8fa5d933565385f7e91aba79e4984", "fusion_lon": 0.0, "bike_id": "a1d8fa5d933565385f7e91aba79e4984", "is_reserved": 0, "rental_uris": {"android": "https://dc.lft.to/lastmile_qr_scan", "ios": "https://dc.lft.to/lastmile_qr_scan"}, "lat": 38.91698016666667, "is_disabled": 0, "lon": -77.0404945}, {"fusion_lat": 0.0, "type": "electric_scooter", "name": "2bc901e032e6f0a210cefe3c8269ceaa", "fusion_lon": 0.0, "bike_id": "2bc901e032e6f0a210cefe3c8269ceaa", "is_reserved": 0, "rental_uris": {"android": "https://dc.lft.to/lastmile_qr_scan", "ios": "https://dc.lft.to/lastmile_qr_scan"}, "lat": 38.915514333333334, "is_disabled": 0, "lon": -77.0385065}, {"fusion_lat": 0.0, "type": "electric_scooter", "name": "5358d4f96b9432e8119b885ec28ef2b2", "fusion_lon": 0.0, "bike_id": "5358d4f96b9432e8119b885ec28ef2b2", "is_reserved": 0, "rental_uris": {"android": "https://dc.lft.to/lastmile_qr_scan", "ios": "https://dc.lft.to/lastmile_qr_scan"}, "lat": 38.89429416666667, "is_disabled": 0, "lon": -76.94880933333333}, {"fusion_lat": 0.0, "type": "electric_scooter", "name": "ef3b1d2f2e530332eacfac972fb9c0f6", "fusion_lon": 0.0, "bike_id": "ef3b1d2f2e530332eacfac972fb9c0f6", "is_reserved": 0, "rental_uris": {"android": "https://dc.lft.to/lastmile_qr_scan", "ios": "https://dc.lft.to/lastmile_qr_scan"}, "lat": 38.920516166666665, "is_disabled": 0, "lon": -77.03661066666666}, {"fusion_lat": 0.0, "type": "electric_scooter", "name": "84234743610c0dcdb2666ef9fd9b0a85", "fusion_lon": 0.0, "bike_id": "84234743610c0dcdb2666ef9fd9b0a85", "is_reserved": 0, "rental_uris": {"android": "https://dc.lft.to/lastmile_qr_scan", "ios": "https://dc.lft.to/lastmile_qr_scan"}, "lat": 38.931671333333334, "is_disabled": 0, "lon": -77.05606216666666}, {"fusion_lat": 0.0, "type": "electric_scooter", "name": "114f465c3988f4bcffbc5fcd91ccf7d9", "fusion_lon": 0.0, "bike_id": "114f465c3988f4bcffbc5fcd91ccf7d9", "is_reserved": 0, "rental_uris": {"android": "https://dc.lft.to/lastmile_qr_scan", "ios": "https://dc.lft.to/lastmile_qr_scan"},