{"data": {"bikes": [{"rental_uris": {"android": "https://dc.lft.to/lastmile_qr_scan", "ios": "https://dc.lft.to/lastmile_qr_scan"}, "bike_id": "ca8994431334399abd4c5de805d9737a", "name": "ca8994431334399abd4c5de805d9737a", "type": "electric_scooter", "lon": -76.97702216666667, "lat": 38.902495, "is_disabled": 0, "is_reserved": 0, "fusion_lat": 0.0, "fusion_lon": 0.0}, {"rental_uris": {"android": "https://dc.lft.to/lastmile_qr_scan", "ios": "https://dc.lft.to/lastmile_qr_scan"}, "bike_id": "a511d3dc6cd8b65d8bffefbcadb0bfaa", "name": "a511d3dc6cd8b65d8bffefbcadb0bfaa", "type": "electric_scooter", "lon": -77.03664766666667, "lat": 38.9272495, "is_disabled": 0, "is_reserved": 0, "fusion_lat": 0.0, "fusion_lon": 0.0}, {"rental_uris": {"android": "https://dc.lft.to/lastmile_qr_scan", "ios": "https://dc.lft.to/lastmile_qr_scan"}, "bike_id": "30743d27b1870c6df880af4a94f77e62", "name": "30743d27b1870c6df880af4a94f77e62", "type": "electric_scooter", "lon": -77.03264883333334, "lat": 38.935405333333335, "is_disabled": 0, "is_reserved": 0, "fusion_lat": 0.0, "fusion_lon": 0.0}, {"rental_uris": {"android": "https://dc.lft.to/lastmile_qr_scan", "ios": "https://dc.lft.to/lastmile_qr_scan"}, "bike_id": "72db174508c02015bae7a5f6dba7153a", "name": "72db174508c02015bae7a5f6dba7153a", "type": "electric_scooter", "lon": -77.03092033333333, "lat": 38.922543166666664, "is_disabled": 0, "is_reserved": 0, "fusion_lat": 0.0, "fusion_lon": 0.0}, {"rental_uris": {"android": "https://dc.lft.to/lastmile_qr_scan", "ios": "https://dc.lft.to/lastmile_qr_scan"}, "bike_id": "0945a9249d4e1ed68edcb8c9cbfb8e89", "name": "0945a9249d4e1ed68edcb8c9cbfb8e89", "type": "electric_scooter", "lon": -77.03672, "lat": 38.9077745, "is_disabled": 0, "is_reserved": 0, "fusion_lat": 0.0, "fusion_lon": 0.0}, {"rental_uris": {"android": "https://dc.lft.to/lastmile_qr_scan", "ios": "https://dc.lft.to/lastmile_qr_scan"}, "bike_id": "4551ff414a86ee84e6ac2541ae718486", "name": "4551ff414a86ee84e6ac2541ae718486", "type": "electric_scooter", "lon": -77.04188116666667, "lat": 38.916739, "is_disabled": 0, "is_reserved": 0, "fusion_lat": 0.0, "fusion_lon": 0.0}, {"rental_uris": {"android": "https://dc.lft.to/lastmile_qr_scan", "ios": "https://dc.lft.to/lastmile_qr_scan"}, "bike_id": "98cd49a05291791f54035ae175c10f0a", "name": "98cd49a05291791f54035ae175c10f0a", "type": "electric_scooter", "lon": -77.05001166666666, "lat": 38.892320833333336, "is_disabled": 0, "is_reserved": 0, "fusion_lat": 0.0, "fusion_lon": 0.0}, {"rental_uris": {"android": "https://dc.lft.to/lastmile_qr_scan", "ios": "https://dc.lft.to/lastmile_qr_scan"}, "bike_id": "639d0a186ee0ab788d6e758e633028f8", "name": "639d0a186ee0ab788d6e758e633028f8", "type": "electric_scooter", "lon": -77.0511785, "lat": 38.923471666666664, "is_disabled": 0, "is_reserved": 0, "fusion_lat": 0.0, "fusion_lon": 0.0}, {"rental_uris": {"android": "https://dc.lft.to/lastmile_qr_scan", "ios": "https://dc.lft.to/lastmile_qr_scan"}, "bike_id": "4d8a23b8ff7c3a76439b051a51638603", "name": "4d8a23b8ff7c3a76439b051a51638603", "type": "electric_scooter", "lon": -77.02485883333334, "lat": 38.920772166666666, "is_disabled": 0, "is_reserved": 0, "fusion_lat": 0.0, "fusion_lon": 0.0}, {"rental_uris": {"android": "https://dc.lft.to/lastmile_qr_scan", "ios": "https://dc.lft.to/lastmile_qr_scan"}, "bike_id": "4ddcbe93b06ef948673730c624c82dbf", "name": "4ddcbe93b06ef948673730c624c82dbf", "type": "electric_scooter", "lon": -77.03120183333333, "lat": 38.915622, "is_disabled": 0, "is_reserved": 0, "fusion_lat": 0.0, "fusion_lon": 0.0}, {"rental_uris": {"android": "https://dc.lft.to/lastmile_qr_scan", "ios": "https://dc.lft.to/lastmile_qr_scan"}, "bike_id": "4a21bb854a8a8fe29883506a3c5bde89", "name": "4a21bb854a8a8fe29883506a3c5bde89", "type": "electric_scooter", "lon": -76.9977845, "lat": 38.84429266666667, "is_disabled": 0, "is_reserved": 0, "fusion_lat": 0.0, "fusion_lon": 0.0}, {"rental_uris": {"android": "https://dc.lft.to/lastmile_qr_scan", "ios": "https://dc.lft.to/lastmile_qr_scan"}, "bike_id": "2653ef026ee82e1de6217c367004f225", "name": "2653ef026ee82e1de6217c367004f225", "type": "electric_scooter", "lon": -77.0320975, "lat": 38.9175245, "is_disabled": 0, "is_reserved": 0, "fusion_lat": 0.0, "fusion_lon": 0.0}, {"rental_uris": {"android": "https://dc.lft.to/lastmile_qr_scan", "ios": "https://dc.lft.to/lastmile_qr_scan"}, "bike_id": "4e692840fac60e7771a124c4d5b5a4cd", "name": "4e692840fac60e7771a124c4d5b5a4cd", "type": "electric_scooter", "lon": -77.04854916666666, "lat": 38.91531583333333, "is_disabled": 0, "is_reserved": 0, "fusion_lat": 0.0, "fusion_lon": 0.0}, {"rental_uris": {"android": "https://dc.lft.to/lastmile_qr_scan", "ios": "https://dc.lft.to/lastmile_qr_scan"}, "bike_id": "7a2a8b9b2b7d4b3ee21bcfe5dbc44b70", "name": "7a2a8b9b2b7d4b3ee21bcfe5dbc44b70", "type": "electric_scooter", "lon": -77.04181583333333, "lat": 38.91828133333333, "is_disabled": 0, "is_reserved": 0, "fusion_lat": 0.0, "fusion_lon": 0.0}, {"rental_uris": {"android": "https://dc.lft.to/lastmile_qr_scan", "ios": "https://dc.lft.to/lastmile_qr_scan"}, "bike_id": "d9058fa0fc1353322bde3623b1133637", "name": "d9058fa0fc1353322bde3623b1133637", "type": "electric_scooter", "lon": -77.04152866666666, "lat": 38.91917216666667, "is_disabled": 0, "is_reserved": 0, "fusion_lat": 0.0, "fusion_lon": 0.0}, {"rental_uris": {"android": "https://dc.lft.to/lastmile_qr_scan", "ios": "https://dc.lft.to/lastmile_qr_scan"}, "bike_id": "882410f5372251c3af8989cf4f91b3f1", "name": "882410f5372251c3af8989cf4f91b3f1", "type": "electric_scooter", "lon": -76.95756616666667, "lat": 38.88434183333333, "is_disabled": 0, "is_reserved": 0, "fusion_lat": 0.0, "fusion_lon": 0.0}, {"rental_uris": {"android": "https://dc.lft.to/lastmile_qr_scan", "ios": "https://dc.lft.to/lastmile_qr_scan"}, "bike_id": "492fbc7898ca96cf9ab93561d5be2ac9", "name": "492fbc7898ca96cf9ab93561d5be2ac9", "type": "electric_scooter", "lon": -77.03274033333334, "lat": 38.932526, "is_disabled": 0, "is_reserved": 0, "fusion_lat": 0.0, "fusion_lon": 0.0}, {"rental_uris": {"android": "https://dc.lft.to/lastmile_qr_scan", "ios": "https://dc.lft.to/lastmile_qr_scan"}, "bike_id": "f61ed324d6e923f3a02cb776859f4cf1", "name": "f61ed324d6e923f3a02cb776859f4cf1", "type": "electric_bike", "lon": -77.10600466666666, "lat": 38.92901033333333, "is_disabled": 0, "is_reserved": 0, "fusion_lat": 0.0, "fusion_lon": 0.0}, {"rental_uris": {"android": "https://dc.lft.to/lastmile_qr_scan", "ios": "https://dc.lft.to/lastmile_qr_scan"}, "bike_id": "1c45fd6f2f3a35e5bea42932179e9059", "name": "1c45fd6f2f3a35e5bea42932179e9059", "type": "electric_scooter", "lon": -76.98070816666667, "lat": 38.90144, "is_disabled": 0, "is_reserved": 0, "fusion_lat": 0.0, "fusion_lon": 0.0}, {"rental_uris": {"android": "https://dc.lft.to/lastmile_qr_scan", "ios": "https://dc.lft.to/lastmile_qr_scan"}, "bike_id": "95f44d99018399414d70a55c780e1477", "name": "95f44d99018399414d70a55c780e1477", "type": "electric_scooter", "lon": -77.011829, "lat": 38.903018833333334, "is_disabled": 0, "is_reserved": 0, "fusion_lat": 0.0, "fusion_lon": 0.0}, {"rental_uris": {"android": "https://dc.lft.to/lastmile_qr_scan", "ios": "https://dc.lft.to/lastmile_qr_scan"}, "bike_id": "311931f6636ef015240527480eb97f30", "name": "311931f6636ef015240527480eb97f30", "type": "electric_scooter", "lon": -76.94968483333334, "lat": 38.89361016666667, "is_disabled": 0, "is_reserved": 0, "fusion_lat": 0.0, "fusion_lon": 0.0}, {"rental_uris": {"android": "https://dc.lft.to/lastmile_qr_scan", "ios": "https://dc.lft.to/lastmile_qr_scan"}, "bike_id": "f8441e0065373bca536f33d420a44f8d", "name": "f8441e0065373bca536f33d420a44f8d", "type": "electric_scooter", "lon": -77.0444185, "lat": 38.90575466666667, "is_disabled": 0, "is_reserved": 0, "fusion_lat": 0.0, "fusion_lon": 0.0}, {"rental_uris": {"android": "https://dc.lft.to/lastmile_qr_scan", "ios": "https://dc.lft.to/lastmile_qr_scan"}, "bike_id": "ff724eaf602f67843011ae836ff02932", "name": "ff724eaf602f67843011ae836ff02932", "type": "electric_scooter", "lon": -77.00755533333333, "lat": 38.903681166666665, "is_disabled": 0, "is_reserved": 0, "fusion_lat": 0.0, "fusion_lon": 0.0}, {"rental_uris": {"android": "https://dc.lft.to/lastmile_qr_scan", "ios": "https://dc.lft.to/lastmile_qr_scan"}, "bike_id": "ad4537c0b6c0da4c5796bd62420bf369", "name": "ad4537c0b6c0da4c5796bd62420bf369", "type": "electric_scooter", "lon": -77.02301883333334, "lat": 38.928462333333336, "is_disabled": 0, "is_reserved": 0, "fusion_lat": 0.0, "fusion_lon": 0.0}, {"rental_uris": {"android": "https://dc.lft.to/lastmile_qr_scan", "ios": "https://dc.lft.to/lastmile_qr_scan"}, "bike_id": "6cbc9223136dbdc268f877ab929f216c", "name": "6cbc9223136dbdc268f877ab929f216c", "type": "electric_scooter", "lon": -77.03204133333334, "lat": 38.91797583333334, "is_disabled": 0, "is_reserved": 0, "fusion_lat": 0.0, "fusion_lon": 0.0}, {"rental_uris": {"android": "https://dc.lft.to/lastmile_qr_scan", "ios": "https://dc.lft.to/lastmile_qr_scan"}, "bike_id": "d44f79322229f7afbf95ce2a451c6492", "name": "d44f79322229f7afbf95ce2a451c6492", "type": "electric_scooter", "lon": -77.05765283333334, "lat": 38.93391416666667, "is_disabled": 0, "is_reserved": 0, "fusion_lat": 0.0, "fusion_lon": 0.0}, {"rental_uris": {"android": "https://dc.lft.to/lastmile_qr_scan", "ios": "https://dc.lft.to/lastmile_qr_scan"}, "bike_id": "19ff9e5a9ea8862580a8e51ae0d6cd74", "name": "19ff9e5a9ea8862580a8e51ae0d6cd74", "type": "electric_scooter", "lon": -77.0390845, "lat": 38.918336, "is_disabled": 0, "is_reserved": 0, "fusion_lat": 0.0, "fusion_lon": 0.0}, {"rental_uris": {"android": "https://dc.lft.to/lastmile_qr_scan", "ios": "https://dc.lft.to/lastmile_qr_scan"}, "bike_id": "cd207d35a92a5ad11da876ad315c2c9f", "name": "cd207d35a92a5ad11da876ad315c2c9f", "type": "electric_scooter", "lon": -77.05101033333334, "lat": 38.90262516666667, "is_disabled": 0, "is_reserved": 0, "fusion_lat": 0.0, "fusion_lon": 0.0}, {"rental_uris": {"android": "https://dc.lft.to/lastmile_qr_scan", "ios": "https://dc.lft.to/lastmile_qr_scan"}, "bike_id": "d60c56531d72f22d3db4a3dfbbf52b68", "name": "d60c56531d72f22d3db4a3dfbbf52b68", "type": "electric_scooter", "lon": -77.0373815, "lat": 38.92690783333333, "is_disabled": 0, "is_reserved": 0, "fusion_lat": 0.0, "fusion_lon": 0.0}, {"rental_uris": {"android": "https://dc.lft.to/lastmile_qr_scan", "ios": "https://dc.lft.to/lastmile_qr_scan"}, "bike_id": "91feffa5d0a921f782618556d2b13ffb", "name": "91feffa5d0a921f782618556d2b13ffb", "type": "electric_scooter", "lon": -77.02306366666667, "lat": 38.928391833333336, "is_disabled": 0, "is_reserved": 0, "fusion_lat": 0.0, "fusion_lon": 0.0}, {"rental_uris": {"android": "https://dc.lft.to/lastmile_qr_scan", "ios": "https://dc.lft.to/lastmile_qr_scan"}, "bike_id": "aedb43e1b6c2d6a79c3e2194a7a3f826", "name": "aedb43e1b6c2d6a79c3e2194a7a3f826", "type": "electric_scooter", "lon": -77.01976116666667, "lat": 38.88578283333333, "is_disabled": 0, "is_reserved": 0, "fusion_lat": 0.0, "fusion_lon": 0.0}, {"rental_uris": {"android": "https://dc.lft.to/lastmile_qr_scan", "ios": "https://dc.lft.to/lastmile_qr_scan"}, "bike_id": "58d7bf4be1640b87db9714273a3532c5", "name": "58d7bf4be1640b87db9714273a3532c5", "type": "electric_scooter", "lon": -77.0451605, "lat": 38.89217133333333, "is_disabled": 0, "is_reserved": 0, "fusion_lat": 0.0, "fusion_lon": 0.0}, {"rental_uris": {"android": "https://dc.lft.to/lastmile_qr_scan", "ios": "https://dc.lft.to/lastmile_qr_scan"}, "bike_id": "54a77961210399b55bcc6743bd9cb970", "name": "54a77961210399b55bcc6743bd9cb970", "type": "electric_scooter", "lon": -77.0007505, "lat": 38.900185666666665, "is_disabled": 0, "is_reserved": 0, "fusion_lat": 0.0, "fusion_lon": 0.0}, {"rental_uris": {"android": "https://dc.lft.to/lastmile_qr_scan", "ios": "https://dc.lft.to/lastmile_qr_scan"}, "bike_id": "60928ab104cc96e1e26e1905bd39f11c", "name": "60928ab104cc96e1e26e1905bd39f11c", "type": "electric_scooter", "lon": -77.0183415, "lat": 38.94210133333333, "is_disabled": 0, "is_reserved": 0, "fusion_lat": 0.0, "fusion_lon": 0.0}, {"rental_uris": {"android": "https://dc.lft.to/lastmile_qr_scan", "ios": "https://dc.lft.to/lastmile_qr_scan"}, "bike_id": "4fdd7099a89ede68982f08ee70f8d796", "name": "4fdd7099a89ede68982f08ee70f8d796", "type": "electric_scooter", "lon": -77.03192216666666, "lat": 38.918009, "is_disabled": 0, "is_reserved": 0, "fusion_lat": 0.0, "fusion_lon": 0.0}, {"rental_uris": {"android": "https://dc.lft.to/lastmile_qr_scan", "ios": "https://dc.lft.to/lastmile_qr_scan"}, "bike_id": "32a5de94d4e430538aa7b92468c432ef", "name": "32a5de94d4e430538aa7b92468c432ef", "type": "electric_scooter", "lon": -77.0248475, "lat": 38.927525333333335, "is_disabled": 0, "is_reserved": 0, "fusion_lat": 0.0, "fusion_lon": 0.0}, {"rental_uris": {"android": "https://dc.lft.to/lastmile_qr_scan", "ios": "https://dc.lft.to/lastmile_qr_scan"}, "bike_id": "d95547c7dba89e7cac389251c694a552", "name": "d95547c7dba89e7cac389251c694a552", "type": "electric_bike", "lon": -77.10089083333334, "lat": 38.95958683333333, "is_disabled": 0, "is_reserved": 0, "fusion_lat": 0.0, "fusion_lon": 0.0}, {"rental_uris": {"android": "https://dc.lft.to/lastmile_qr_scan", "ios": "https://dc.lft.to/lastmile_qr_scan"}, "bike_id": "c0284323b646137199c2774de80ad365", "name": "c0284323b646137199c2774de80ad365", "type": "electric_scooter", "lon": -77.032719, "lat": 38.916358833333334, "is_disabled": 0, "is_reserved": 0, "fusion_lat": 0.0, "fusion_lon": 0.0}, {"rental_uris": {"android": "https://dc.lft.to/lastmile_qr_scan", "ios": "https://dc.lft.to/lastmile_qr_scan"}, "bike_id": "b6571052d7b3da25bed0993d7d98529c", "name": "b6571052d7b3da25bed0993d7d98529c", "type": "electric_bike", "lon": -77.05754, "lat": 38.92486316666667, "is_disabled": 0, "is_reserved": 0, "fusion_lat": 0.0, "fusion_lon": 0.0}, {"rental_uris": {"android": "https://dc.lft.to/lastmile_qr_scan", "ios": "https://dc.lft.to/lastmile_qr_scan"}, "bike_id": "746726cb68e356000151a22817c90e7c", "name": "746726cb68e356000151a22817c90e7c", "type": "electric_scooter", "lon": -77.027216, "lat": 38.940894, "is_disabled": 0, "is_reserved": 0, "fusion_lat": 0.0, "fusion_lon": 0.0}, {"rental_uris": {"android": "https://dc.lft.to/lastmile_qr_scan", "ios": "https://dc.lft.to/lastmile_qr_scan"}, "bike_id": "2b3d5bda25036d8aa3642513446cd29d", "name": "2b3d5bda25036d8aa3642513446cd29d", "type": "electric_scooter", "lon": -77.03503, "lat": 38.9215225, "is_disabled": 0, "is_reserved": 0, "fusion_lat": 0.0, "fusion_lon": 0.0}, {"rental_uris": {"android": "https://dc.lft.to/lastmile_qr_scan", "ios": "https://dc.lft.to/lastmile_qr_scan"}, "bike_id": "a30373a1048b7fc56c82c1ac3cb36913", "name": "a30373a1048b7fc56c82c1ac3cb36913", "type": "electric_scooter", "lon": -77.03164433333333, "lat": 38.911938666666664, "is_disabled": 0, "is_reserved": 0, "fusion_lat": 0.0, "fusion_lon": 0.0}, {"rental_uris": {"android": "https://dc.lft.to/lastmile_qr_scan", "ios": "https://dc.lft.to/lastmile_qr_scan"}, "bike_id": "006d2e7f0bdb179373a9171e90d4dd41", "name": "006d2e7f0bdb179373a9171e90d4dd41", "type": "electric_scooter", "lon": -77.02193766666667, "lat": 38.91129383333333, "is_disabled": 0, "is_reserved": 0, "fusion_lat": 0.0, "fusion_lon": 0.0}, {"rental_uris": {"android": "https://dc.lft.to/lastmile_qr_scan", "ios": "https://dc.lft.to/lastmile_qr_scan"}, "bike_id": "98bf779bf70fae4fe57fddf17d6a38bd", "name": "98bf779bf70fae4fe57fddf17d6a38bd", "type": "electric_scooter", "lon": -77.03361166666667, "lat": 38.928443666666666, "is_disabled": 0, "is_reserved": 0, "fusion_lat": 0.0, "fusion_lon": 0.0}, {"rental_uris": {"android": "https://dc.lft.to/lastmile_qr_scan", "ios": "https://dc.lft.to/lastmile_qr_scan"}, "bike_id": "fdf6ce87352f4a6197abfdc896bd15d8", "name": "fdf6ce87352f4a6197abfdc896bd15d8", "type": "electric_scooter", "lon": -76.99998033333334, "lat": 38.900198333333336, "is_disabled": 0, "is_reserved": 0, "fusion_lat": 0.0, "fusion_lon": 0.0}, {"rental_uris": {"android": "https://dc.lft.to/lastmile_qr_scan", "ios": "https://dc.lft.to/lastmile_qr_scan"}, "bike_id": "3e291fc3137fe7f0b0d236d0b7ce6612", "name": "3e291fc3137fe7f0b0d236d0b7ce6612", "type": "electric_scooter", "lon": -77.02808016666667, "lat": 38.9141415, "is_disabled": 0, "is_reserved": 0, "fusion_lat": 0.0, "fusion_lon": 0.0}, {"rental_uris": {"android": "https://dc.lft.to/lastmile_qr_scan", "ios": "https://dc.lft.to/lastmile_qr_scan"}, "bike_id": "f34246f9b475a9a34567f4787a278070", "name": "f34246f9b475a9a34567f4787a278070", "type": "electric_scooter", "lon": -77.037891, "lat": 38.92469783333333, "is_disabled": 0, "is_reserved": 0, "fusion_lat": 0.0, "fusion_lon": 0.0}, {"rental_uris": {"android": "https://dc.lft.to/lastmile_qr_scan", "ios": "https://dc.lft.to/lastmile_qr_scan"}, "bike_id": "24951eb031770f702336cf4041f9b9d0", "name": "24951eb031770f702336cf4041f9b9d0", "type": "electric_scooter", "lon": -77.03582733333333, "lat": 38.9282155, "is_disabled": 0, "is_reserved": 0, "fusion_lat": 0.0, "fusion_lon": 0.0}, {"rental_uris": {"android": "https://dc.lft.to/lastmile_qr_scan", "ios": "https://dc.lft.to/lastmile_qr_scan"}, "bike_id": "6353a90c0125b54531cf807b9057c288", "name": "6353a90c0125b54531cf807b9057c288", "type": "electric_scooter", "lon": -76.9501655, "lat": 38.893893, "is_disabled": 0, "is_reserved": 0, "fusion_lat": 0.0, "fusion_lon": 0.0}, {"rental_uris": {"android": "https://dc.lft.to/lastmile_qr_scan", "ios": "https://dc.lft.to/lastmile_qr_scan"}, "bike_id": "ae337a1d51e04d0a9e822cbdf3d2657b", "name": "ae337a1d51e04d0a9e822cbdf3d2657b", "type": "electric_scooter", "lon": -77.0380345, "lat": 38.9250035, "is_disabled": 0, "is_reserved": 0, "fusion_lat": 0.0, "fusion_lon": 0.0}, {"rental_uris": {"android": "https://dc.lft.to/lastmile_qr_scan", "ios": "https://dc.lft.to/lastmile_qr_scan"}, "bike_id": "3d41f003aacc29710fa439970333cd69", "name": "3d41f003aacc29710fa439970333cd69", "type": "electric_scooter", "lon": -77.03778983333333, "lat": 38.916948166666664, "is_disabled": 0, "is_reserved": 0, "fusion_lat": 0.0, "fusion_lon": 0.0}, {"rental_uris": {"android": "https://dc.lft.to/lastmile_qr_scan", "ios": "https://dc.lft.to/lastmile_qr_scan"}, "bike_id": "c2bc506650997f0f020688fb7aea2ce7", "name": "c2bc506650997f0f020688fb7aea2ce7", "type": "electric_scooter", "lon": -76.9882225, "lat": 38.9003455, "is_disabled": 0, "is_reserved": 0, "fusion_lat": 0.0, "fusion_lon": 0.0}, {"rental_uris": {"android": "https://dc.lft.to/lastmile_qr_scan", "ios": "https://dc.lft.to/lastmile_qr_scan"}, "bike_id": "f931058d70e53e8b4a1d980e12c0317b", "name": "f931058d70e53e8b4a1d980e12c0317b", "type": "electric_scooter", "lon": -77.02534933333334, "lat": 38.906271333333336, "is_disabled": 0, "is_reserved": 0, "fusion_lat": 0.0, "fusion_lon": 0.0}, {"rental_uris": {"android": "https://dc.lft.to/lastmile_qr_scan", "ios": "https://dc.lft.to/lastmile_qr_scan"}, "bike_id": "15b5eed2c90139171f4860e891f2be6e", "name": "15b5eed2c90139171f4860e891f2be6e", "type": "electric_scooter", "lon": -77.0297265, "lat": 38.9154515, "is_disabled": 0, "is_reserved": 0, "fusion_lat": 0.0, "fusion_lon": 0.0}, {"rental_uris": {"android": "https://dc.lft.to/lastmile_qr_scan", "ios": "https://dc.lft.to/lastmile_qr_scan"}, "bike_id": "0abac082baeb0ec593cc6dc6d5844fda", "name": "0abac082baeb0ec593cc6dc6d5844fda", "type": "electric_scooter", "lon": -77.03410316666667, "lat": 38.92044633333333, "is_disabled": 0, "is_reserved": 0, "fusion_lat": 0.0, "fusion_lon": 0.0}, {"rental_uris": {"android": "https://dc.lft.to/lastmile_qr_scan", "ios": "https://dc.lft.to/lastmile_qr_scan"}, "bike_id": "41ea71edbeaad52e44b5a8b372e57390", "name": "41ea71edbeaad52e44b5a8b372e57390", "type": "electric_bike", "lon": -77.066517, "lat": 38.94948816666667, "is_disabled": 0, "is_reserved": 0, "fusion_lat": 0.0, "fusion_lon": 0.0}, {"rental_uris": {"android": "https://dc.lft.to/lastmile_qr_scan", "ios": "https://dc.lft.to/lastmile_qr_scan"}, "bike_id": "b9c18b43d72d17ae89887112998a7585", "name": "b9c18b43d72d17ae89887112998a7585", "type": "electric_scooter", "lon": -77.0175765, "lat": 38.87701633333333, "is_disabled": 0, "is_reserved": 0, "fusion_lat": 0.0, "fusion_lon": 0.0}, {"rental_uris": {"android": "https://dc.lft.to/lastmile_qr_scan", "ios": "https://dc.lft.to/lastmile_qr_scan"}, "bike_id": "7234a85255b550bf869a183593d91580", "name": "7234a85255b550bf869a183593d91580", "type": "electric_bike", "lon": -77.00888866666666, "lat": 38.910874166666666, "is_disabled": 0, "is_reserved": 0, "fusion_lat": 0.0, "fusion_lon": 0.0}, {"rental_uris": {"android": "https://dc.lft.to/lastmile_qr_scan", "ios": "https://dc.lft.to/lastmile_qr_scan"}, "bike_id": "958cc04785df4c5314b5ff793a58b107", "name": "958cc04785df4c5314b5ff793a58b107", "type": "electric_bike", "lon": -77.025076, "lat": 38.93413916666667, "is_disabled": 0, "is_reserved": 0, "fusion_lat": 0.0, "fusion_lon": 0.0}, {"rental_uris": {"android": "https://dc.lft.to/lastmile_qr_scan", "ios": "https://dc.lft.to/lastmile_qr_scan"}, "bike_id": "54255a14b2af360c1f43a483b6f50895", "name": "54255a14b2af360c1f43a483b6f50895", "type": "electric_scooter", "lon": -76.99029666666667, "lat": 38.888777166666664, "is_disabled": 0, "is_reserved": 0, "fusion_lat": 0.0, "fusion_lon": 0.0}, {"rental_uris": {"android": "https://dc.lft.to/lastmile_qr_scan", "ios": "https://dc.lft.to/lastmile_qr_scan"}, "bike_id": "338fa7376bd7016685eff8ee289a0ab8", "name": "338fa7376bd7016685eff8ee289a0ab8", "type": "electric_scooter", "lon": -77.05762766666666, "lat": 38.90534483333333, "is_disabled": 0, "is_reserved": 0, "fusion_lat": 0.0, "fusion_lon": 0.0}, {"rental_uris": {"android": "https://dc.lft.to/lastmile_qr_scan", "ios": "https://dc.lft.to/lastmile_qr_scan"}, "bike_id": "28ee85dfecc98c8f53abce20ada97fd1", "name": "28ee85dfecc98c8f53abce20ada97fd1", "type": "electric_scooter", "lon": -77.0325955, "lat": 38.9357305, "is_disabled": 0, "is_reserved": 0, "fusion_lat": 0.0, "fusion_lon": 0.0}, {"rental_uris": {"android": "https://dc.lft.to/lastmile_qr_scan", "ios": "https://dc.lft.to/lastmile_qr_scan"}, "bike_id": "832767c4e876384afa2b34aaebde1695", "name": "832767c4e876384afa2b34aaebde1695", "type": "electric_scooter", "lon": -77.050442, "lat": 38.92350183333333, "is_disabled": 0, "is_reserved": 0, "fusion_lat": 0.0, "fusion_lon": 0.0}, {"rental_uris": {"android": "https://dc.lft.to/lastmile_qr_scan", "ios": "https://dc.lft.to/lastmile_qr_scan"}, "bike_id": "606644d4dc877ef92b25b6d9f903f7b1", "name": "606644d4dc877ef92b25b6d9f903f7b1", "type": "electric_scooter", "lon": -77.0325855, "lat": 38.9141535, "is_disabled": 0, "is_reserved": 0, "fusion_lat": 0.0, "fusion_lon": 0.0}, {"rental_uris": {"android": "https://dc.lft.to/lastmile_qr_scan", "ios": "https://dc.lft.to/lastmile_qr_scan"}, "bike_id": "6857118d947e83c07f86f7b647e971bc", "name": "6857118d947e83c07f86f7b647e971bc", "type": "electric_scooter", "lon": -77.05236933333333, "lat": 38.92461866666667, "is_disabled": 0, "is_reserved": 0, "fusion_lat": 0.0, "fusion_lon": 0.0}, {"rental_uris": {"android": "https://dc.lft.to/lastmile_qr_scan", "ios": "https://dc.lft.to/lastmile_qr_scan"}, "bike_id": "d7308fab5042c52c0c181497cbb880f8", "name": "d7308fab5042c52c0c181497cbb880f8", "type": "electric_scooter", "lon": -76.98286266666666, "lat": 38.899860333333336, "is_disabled": 0, "is_reserved": 0, "fusion_lat": 0.0, "fusion_lon": 0.0}, {"rental_uris": {"android": "https://dc.lft.to/lastmile_qr_scan", "ios": "https://dc.lft.to/lastmile_qr_scan"}, "bike_id": "52849dab01146f1da47c327f4226eefc", "name": "52849dab01146f1da47c327f4226eefc", "type": "electric_scooter", "lon": -77.02705433333334, "lat": 38.908575, "is_disabled": 0, "is_reserved": 0, "fusion_lat": 0.0, "fusion_lon": 0.0}, {"rental_uris": {"android": "https://dc.lft.to/lastmile_qr_scan", "ios": "https://dc.lft.to/lastmile_qr_scan"}, "bike_id": "531c1253a8fe6268c68a475a55f05a0c", "name": "531c1253a8fe6268c68a475a55f05a0c", "type": "electric_scooter", "lon": -77.02922383333333, "lat": 38.909100333333335, "is_disabled": 0, "is_reserved": 0, "fusion_lat": 0.0, "fusion_lon": 0.0}, {"rental_uris": {"android": "https://dc.lft.to/lastmile_qr_scan", "ios": "https://dc.lft.to/lastmile_qr_scan"}, "bike_id": "4307b3b25e0ead2a7f99f8aaf9c55439", "name": "4307b3b25e0ead2a7f99f8aaf9c55439", "type": "electric_scooter", "lon": -77.0271845, "lat": 38.902752166666666, "is_disabled": 0, "is_reserved": 0, "fusion_lat": 0.0, "fusion_lon": 0.0}, {"rental_uris": {"android": "https://dc.lft.to/lastmile_qr_scan", "ios": "https://dc.lft.to/lastmile_qr_scan"}, "bike_id": "d439b692fb01ca5973312faa33b92f6f", "name": "d439b692fb01ca5973312faa33b92f6f", "type": "electric_scooter", "lon": -77.0336715, "lat": 38.93222633333333, "is_disabled": 0, "is_reserved": 0, "fusion_lat": 0.0, "fusion_lon": 0.0}, {"rental_uris": {"android": "https://dc.lft.to/lastmile_qr_scan", "ios": "https://dc.lft.to/lastmile_qr_scan"}, "bike_id": "7969b8cb1c6c46ef66466e4ab02b1135", "name": "7969b8cb1c6c46ef66466e4ab02b1135", "type": "electric_bike", "lon": -77.09485516666666, "lat": 39.030631, "is_disabled": 0, "is_reserved": 0, "fusion_lat": 0.0, "fusion_lon": 0.0}, {"rental_uris": {"android": "https://dc.lft.to/lastmile_qr_scan", "ios": "https://dc.lft.to/lastmile_qr_scan"}, "bike_id": "55c3c1615fd167e14abe9d81174ce877", "name": "55c3c1615fd167e14abe9d81174ce877", "type": "electric_scooter", "lon": -77.02299083333334, "lat": 38.93682483333333, "is_disabled": 0, "is_reserved": 0, "fusion_lat": 0.0, "fusion_lon": 0.0}, {"rental_uris": {"android": "https://dc.lft.to/lastmile_qr_scan", "ios": "https://dc.lft.to/lastmile_qr_scan"}, "bike_id": "51dd0464016bbcdb28b9a89b54ef3486", "name": "51dd0464016bbcdb28b9a89b54ef3486", "type": "electric_scooter", "lon": -76.947338, "lat": 38.89670266666667, "is_disabled": 0, "is_reserved": 0, "fusion_lat": 0.0, "fusion_lon": 0.0}, {"rental_uris": {"android": "https://dc.lft.to/lastmile_qr_scan", "ios": "https://dc.lft.to/lastmile_qr_scan"}, "bike_id": "a997c50aae01440773019587ddbb9b75", "name": "a997c50aae01440773019587ddbb9b75", "type": "electric_scooter", "lon": -77.02748183333334, "lat": 38.951685166666664, "is_disabled": 0, "is_reserved": 0, "fusion_lat": 0.0, "fusion_lon": 0.0}, {"rental_uris": {"android": "https://dc.lft.to/lastmile_qr_scan", "ios": "https://dc.lft.to/lastmile_qr_scan"}, "bike_id": "b0ad9350d490b12f858b0b7d4b1e846d", "name": "b0ad9350d490b12f858b0b7d4b1e846d", "type": "electric_scooter", "lon": -77.025213, "lat": 38.938669166666664, "is_disabled": 0, "is_reserved": 0, "fusion_lat": 0.0, "fusion_lon": 0.0}, {"rental_uris": {"android": "https://dc.lft.to/lastmile_qr_scan", "ios": "https://dc.lft.to/lastmile_qr_scan"}, "bike_id": "8c9db44939dc64307780bda8eef222a4", "name": "8c9db44939dc64307780bda8eef222a4", "type": "electric_scooter", "lon": -76.98995366666666, "lat": 38.92450083333333, "is_disabled": 0, "is_reserved": 0, "fusion_lat": 0.0, "fusion_lon": 0.0}, {"rental_uris": {"android": "https://dc.lft.to/lastmile_qr_scan", "ios": "https://dc.lft.to/lastmile_qr_scan"}, "bike_id": "ba7ad659be73fdb90f7d2c43955a49fb", "name": "ba7ad659be73fdb90f7d2c43955a49fb", "type": "electric_scooter", "lon": -77.0185685, "lat": 38.9007475, "is_disabled": 0, "is_reserved": 0, "fusion_lat": 0.0, "fusion_lon": 0.0}, {"rental_uris": {"android": "https://dc.lft.to/lastmile_qr_scan", "ios": "https://dc.lft.to/lastmile_qr_scan"}, "bike_id": "13475cd22b3fac39cfd6352b17bdd90b", "name": "13475cd22b3fac39cfd6352b17bdd90b", "type": "electric_bike", "lon": -77.13106083333334, "lat": 39.0243095, "is_disabled": 0, "is_reserved": 0, "fusion_lat": 0.0, "fusion_lon": 0.0}, {"rental_uris": {"android": "https://dc.lft.to/lastmile_qr_scan", "ios": "https://dc.lft.to/lastmile_qr_scan"}, "bike_id": "eca28db49f495c5aaade938d3b3df0aa", "name": "eca28db49f495c5aaade938d3b3df0aa", "type": "electric_bike", "lon": -77.060699, "lat": 38.885819166666664, "is_disabled": 0, "is_reserved": 0, "fusion_lat": 0.0, "fusion_lon": 0.0}, {"rental_uris": {"android": "https://dc.lft.to/lastmile_qr_scan", "ios": "https://dc.lft.to/lastmile_qr_scan"}, "bike_id": "83e908f259c3bfdc8f971072fd123a94", "name": "83e908f259c3bfdc8f971072fd123a94", "type": "electric_scooter", "lon": -77.04853983333334, "lat": 38.90969716666667, "is_disabled": 0, "is_reserved": 0, "fusion_lat": 0.0, "fusion_lon": 0.0}, {"rental_uris": {"android": "https://dc.lft.to/lastmile_qr_scan", "ios": "https://dc.lft.to/lastmile_qr_scan"}, "bike_id": "708ed53fbfe11b3759ca576b8164d029", "name": "708ed53fbfe11b3759ca576b8164d029", "type": "electric_scooter", "lon": -77.0118795, "lat": 38.9155235, "is_disabled": 0, "is_reserved": 0, "fusion_lat": 0.0, "fusion_lon": 0.0}, {"rental_uris": {"android": "https://dc.lft.to/lastmile_qr_scan", "ios": "https://dc.lft.to/lastmile_qr_scan"}, "bike_id": "3e6ddc2a383e10490105dbac35723d38", "name": "3e6ddc2a383e10490105dbac35723d38", "type": "electric_scooter", "lon": -77.02367183333334, "lat": 38.8922075, "is_disabled": 0, "is_reserved": 0, "fusion_lat": 0.0, "fusion_lon": 0.0}, {"rental_uris": {"android": "https://dc.lft.to/lastmile_qr_scan", "ios": "https://dc.lft.to/lastmile_qr_scan"}, "bike_id": "294dda976bd793be04d261b57fa8f40f", "name": "294dda976bd793be04d261b57fa8f40f", "type": "electric_scooter", "lon": -77.03243066666667, "lat": 38.91127016666667, "is_disabled": 0, "is_reserved": 0, "fusion_lat": 0.0, "fusion_lon": 0.0}, {"rental_uris": {"android": "https://dc.lft.to/lastmile_qr_scan", "ios": "https://dc.lft.to/lastmile_qr_scan"}, "bike_id": "0c9d4b9f47eac24b75432bf7b4dbb7ce", "name": "0c9d4b9f47eac24b75432bf7b4dbb7ce", "type": "electric_scooter", "lon": -76.9871255, "lat": 38.867034333333336, "is_disabled": 0, "is_reserved": 0, "fusion_lat": 0.0, "fusion_lon": 0.0}, {"rental_uris": {"android": "https://dc.lft.to/lastmile_qr_scan", "ios": "https://dc.lft.to/lastmile_qr_scan"}, "bike_id": "6207ff3cfd0c1e387ea00ff4dbf064c0", "name": "6207ff3cfd0c1e387ea00ff4dbf064c0", "type": "electric_scooter", "lon": -77.05402666666667, "lat": 38.928048833333335, "is_disabled": 0, "is_reserved": 0, "fusion_lat": 0.0, "fusion_lon": 0.0}, {"rental_uris": {"android": "https://dc.lft.to/lastmile_qr_scan", "ios": "https://dc.lft.to/lastmile_qr_scan"}, "bike_id": "4d51add6dfb7341deeb809ab6d693f6c", "name": "4d51add6dfb7341deeb809ab6d693f6c", "type": "electric_scooter", "lon": -77.00574366666666, "lat": 38.905589666666664, "is_disabled": 0, "is_reserved": 0, "fusion_lat": 0.0, "fusion_lon": 0.0}, {"rental_uris": {"android": "https://dc.lft.to/lastmile_qr_scan", "ios": "https://dc.lft.to/lastmile_qr_scan"}, "bike_id": "f84526f2074b035d24e0a10b2234ce37", "name": "f84526f2074b035d24e0a10b2234ce37", "type": "electric_scooter", "lon": -76.95365133333334, "lat": 38.8920715, "is_disabled": 0, "is_reserved": 0, "fusion_lat": 0.0, "fusion_lon": 0.0}, {"rental_uris": {"android": "https://dc.lft.to/lastmile_qr_scan", "ios": "https://dc.lft.to/lastmile_qr_scan"}, "bike_id": "d813c21db6a88007d0e813cfa7f635b3", "name": "d813c21db6a88007d0e813cfa7f635b3", "type": "electric_scooter", "lon": -77.025133, "lat": 38.946231166666664, "is_disabled": 0, "is_reserved": 0, "fusion_lat": 0.0, "fusion_lon": 0.0}, {"rental_uris": {"android": "https://dc.lft.to/lastmile_qr_scan", "ios": "https://dc.lft.to/lastmile_qr_scan"}, "bike_id": "88b7897af553a6f28baf16ecf3d280e4", "name": "88b7897af553a6f28baf16ecf3d280e4", "type": "electric_scooter", "lon": -77.03831983333333, "lat": 38.91262066666667, "is_disabled": 0, "is_reserved": 0, "fusion_lat": 0.0, "fusion_lon": 0.0}, {"rental_uris": {"android": "https://dc.lft.to/lastmile_qr_scan", "ios": "https://dc.lft.to/lastmile_qr_scan"}, "bike_id": "a429120c7ce561ecb5edb048a9c099bd", "name": "a429120c7ce561ecb5edb048a9c099bd", "type": "electric_scooter", "lon": -77.02898216666667, "lat": 38.887445, "is_disabled": 0, "is_reserved": 0, "fusion_lat": 0.0, "fusion_lon": 0.0}, {"rental_uris": {"android": "https://dc.lft.to/lastmile_qr_scan", "ios": "https://dc.lft.to/lastmile_qr_scan"}, "bike_id": "d4a33afd4538c6333a884b6094b5bb59", "name": "d4a33afd4538c6333a884b6094b5bb59", "type": "electric_scooter", "lon": -76.9975605, "lat": 38.92265183333333, "is_disabled": 0, "is_reserved": 0, "fusion_lat": 0.0, "fusion_lon": 0.0}, {"rental_uris": {"android": "https://dc.lft.to/lastmile_qr_scan", "ios": "https://dc.lft.to/lastmile_qr_scan"}, "bike_id": "e83412cd905cffab21aa1e3b13962068", "name": "e83412cd905cffab21aa1e3b13962068", "type": "electric_scooter", "lon": -77.04174783333333, "lat": 38.918251833333336, "is_disabled": 0, "is_reserved": 0, "fusion_lat": 0.0, "fusion_lon": 0.0}, {"rental_uris": {"android": "https://dc.lft.to/lastmile_qr_scan", "ios": "https://dc.lft.to/lastmile_qr_scan"}, "bike_id": "b49a0a72b29475ecd0d8145bf700055b", "name": "b49a0a72b29475ecd0d8145bf700055b", "type": "electric_scooter", "lon": -77.05138516666666, "lat": 38.9056045, "is_disabled": 0, "is_reserved": 0, "fusion_lat": 0.0, "fusion_lon": 0.0}, {"rental_uris": {"android": "https://dc.lft.to/lastmile_qr_scan", "ios": "https://dc.lft.to/lastmile_qr_scan"}, "bike_id": "bc16685d4eaca5ec38aac598589598d7", "name": "bc16685d4eaca5ec38aac598589598d7", "type": "electric_scooter", "lon": -76.93194066666666, "lat": 38.89875683333333, "is_disabled": 0, "is_reserved": 0, "fusion_lat": 0.0, "fusion_lon": 0.0}, {"rental_uris": {"android": "https://dc.lft.to/lastmile_qr_scan", "ios": "https://dc.lft.to/lastmile_qr_scan"}, "bike_id": "f30b1d4a70e529c480fd849f107ce823", "name": "f30b1d4a70e529c480fd849f107ce823", "type": "electric_scooter", "lon": -77.04195583333333, "lat": 38.899776, "is_disabled": 0, "is_reserved": 0, "fusion_lat": 0.0, "fusion_lon": 0.0}, {"rental_uris": {"android": "https://dc.lft.to/lastmile_qr_scan", "ios": "https://dc.lft.to/lastmile_qr_scan"}, "bike_id": "8ef970c5f09a61fc9d05fd6931445219", "name": "8ef970c5f09a61fc9d05fd6931445219", "type": "electric_scooter", "lon": -77.04478683333333, "lat": 38.922396666666664, "is_disabled": 0, "is_reserved": 0, "fusion_lat": 0.0, "fusion_lon": 0.0}, {"rental_uris": {"android": "https://dc.lft.to/lastmile_qr_scan", "ios": "https://dc.lft.to/lastmile_qr_scan"}, "bike_id": "298ffbe02c9e0f20225d1a1acfbe86c1", "name": "298ffbe02c9e0f20225d1a1acfbe86c1", "type": "electric_scooter", "lon": -76.99476383333334, "lat": 38.9029575, "is_disabled": 0, "is_reserved": 0, "fusion_lat": 0.0, "fusion_lon": 0.0}, {"rental_uris": {"android": "https://dc.lft.to/lastmile_qr_scan", "ios": "https://dc.lft.to/lastmile_qr_scan"}, "bike_id": "ad1057135074cd9309f57d9b59051d30", "name": "ad1057135074cd9309f57d9b59051d30", "type": "electric_scooter", "lon": -76.98501466666667, "lat": 38.866597166666665, "is_disabled": 0, "is_reserved": 0, "fusion_lat": 0.0, "fusion_lon": 0.0}, {"rental_uris": {"android": "https://dc.lft.to/lastmile_qr_scan", "ios": "https://dc.lft.to/lastmile_qr_scan"}, "bike_id": "749422c62f10c5944031db35aca4ecc2", "name": "749422c62f10c5944031db35aca4ecc2", "type": "electric_scooter", "lon": -77.04161566666667, "lat": 38.919451, "is_disabled": 0, "is_reserved": 0, "fusion_lat": 0.0, "fusion_lon": 0.0}, {"rental_uris": {"android": "https://dc.lft.to/lastmile_qr_scan", "ios": "https://dc.lft.to/lastmile_qr_scan"}, "bike_id": "351f921b1fd9771d7631f56483e98299", "name": "351f921b1fd9771d7631f56483e98299", "type": "electric_scooter", "lon": -77.0490805, "lat": 38.88836333333333, "is_disabled": 0, "is_reserved": 0, "fusion_lat": 0.0, "fusion_lon": 0.0}, {"rental_uris": {"android": "https://dc.lft.to/lastmile_qr_scan", "ios": "https://dc.lft.to/lastmile_qr_scan"}, "bike_id": "bf74ec8ba17099590d967b646cd7cac7", "name": "bf74ec8ba17099590d967b646cd7cac7", "type": "electric_scooter", "lon": -77.02236166666667, "lat": 38.902261, "is_disabled": 0, "is_reserved": 0, "fusion_lat": 0.0, "fusion_lon": 0.0}, {"rental_uris": {"android": "https://dc.lft.to/lastmile_qr_scan", "ios": "https://dc.lft.to/lastmile_qr_scan"}, "bike_id": "a8e3af6a2256562c870392380a10bf4c", "name": "a8e3af6a2256562c870392380a10bf4c", "type": "electric_scooter", "lon": -77.0447625, "lat": 38.91862316666667, "is_disabled": 0, "is_reserved": 0, "fusion_lat": 0.0, "fusion_lon": 0.0}, {"rental_uris": {"android": "https://dc.lft.to/lastmile_qr_scan", "ios": "https://dc.lft.to/lastmile_qr_scan"}, "bike_id": "ba4abb5197f82202ecea27a84a0cc741", "name": "ba4abb5197f82202ecea27a84a0cc741", "type": "electric_scooter", "lon": -77.0449925, "lat": 38.900045, "is_disabled": 0, "is_reserved": 0, "fusion_lat": 0.0, "fusion_lon": 0.0}, {"rental_uris": {"android": "https://dc.lft.to/lastmile_qr_scan", "ios": "https://dc.lft.to/lastmile_qr_scan"}, "bike_id": "b97d4942a05d3960f3be47011cd3872b", "name": "b97d4942a05d3960f3be47011cd3872b", "type": "electric_bike", "lon": -76.9354555, "lat": 38.9555655, "is_disabled": 0, "is_reserved": 0, "fusion_lat": 0.0, "fusion_lon": 0.0}, {"rental_uris": {"android": "https://dc.lft.to/lastmile_qr_scan", "ios": "https://dc.lft.to/lastmile_qr_scan"}, "bike_id": "bfced4e92f340ae572aedb03495027b5", "name": "bfced4e92f340ae572aedb03495027b5", "type": "electric_scooter", "lon": -77.01911333333334, "lat": 38.90248733333333, "is_disabled": 0, "is_reserved": 0, "fusion_lat": 0.0, "fusion_lon": 0.0}, {"rental_uris": {"android": "https://dc.lft.to/lastmile_qr_scan", "ios": "https://dc.lft.to/lastmile_qr_scan"}, "bike_id": "53ba776bb8362c60f7057f024db6643d", "name": "53ba776bb8362c60f7057f024db6643d", "type": "electric_scooter", "lon": -76.97835516666666, "lat": 38.872112333333334, "is_disabled": 0, "is_reserved": 0, "fusion_lat": 0.0, "fusion_lon": 0.0}, {"rental_uris": {"android": "https://dc.lft.to/lastmile_qr_scan", "ios": "https://dc.lft.to/lastmile_qr_scan"}, "bike_id": "48c2eb6e0add0649a1559adb792c5ca6", "name": "48c2eb6e0add0649a1559adb792c5ca6", "type": "electric_scooter", "lon": -77.0075335, "lat": 38.898519, "is_disabled": 0, "is_reserved": 0, "fusion_lat": 0.0, "fusion_lon": 0.0}, {"rental_uris": {"android": "https://dc.lft.to/lastmile_qr_scan", "ios": "https://dc.lft.to/lastmile_qr_scan"}, "bike_id": "996737d9a5fadbb2d5115b40db1e38b5", "name": "996737d9a5fadbb2d5115b40db1e38b5", "type": "electric_bike", "lon": -77.01280616666666, "lat": 38.871683166666664, "is_disabled": 0, "is_reserved": 0, "fusion_lat": 0.0, "fusion_lon": 0.0}, {"rental_uris": {"android": "https://dc.lft.to/lastmile_qr_scan", "ios": "https://dc.lft.to/lastmile_qr_scan"}, "bike_id": "cf1afb1eaee20e4b6fca6f96276c9a78", "name": "cf1afb1eaee20e4b6fca6f96276c9a78", "type": "electric_scooter", "lon": -77.01055516666666, "lat": 38.866720666666666, "is_disabled": 0, "is_reserved": 0, "fusion_lat": 0.0, "fusion_lon": 0.0}, {"rental_uris": {"android": "https://dc.lft.to/lastmile_qr_scan", "ios": "https://dc.lft.to/lastmile_qr_scan"}, "bike_id": "d07cf6f6f7e10a607151229a675510bb", "name": "d07cf6f6f7e10a607151229a675510bb", "type": "electric_scooter", "lon": -76.979143, "lat": 38.90445716666667, "is_disabled": 0, "is_reserved": 0, "fusion_lat": 0.0, "fusion_lon": 0.0}, {"rental_uris": {"android": "https://dc.lft.to/lastmile_qr_scan", "ios": "https://dc.lft.to/lastmile_qr_scan"}, "bike_id": "0ac3fdd0fdd01c1c9d0eaec648476ebd", "name": "0ac3fdd0fdd01c1c9d0eaec648476ebd", "type": "electric_scooter", "lon": -77.05580033333334, "lat": 38.893287, "is_disabled": 0, "is_reserved": 0, "fusion_lat": 0.0, "fusion_lon": 0.0}, {"rental_uris": {"android": "https://dc.lft.to/lastmile_qr_scan", "ios": "https://dc.lft.to/lastmile_qr_scan"}, "bike_id": "47caaa58187f2ff8ac709fc77740675d", "name": "47caaa58187f2ff8ac709fc77740675d", "type": "electric_scooter", "lon": -76.98885583333333, "lat": 38.86656083333333, "is_disabled": 0, "is_reserved": 0, "fusion_lat": 0.0, "fusion_lon": 0.0}, {"rental_uris": {"android": "https://dc.lft.to/lastmile_qr_scan", "ios": "https://dc.lft.to/lastmile_qr_scan"}, "bike_id": "1c3c88f20b39669a0da67ab46f232430", "name": "1c3c88f20b39669a0da67ab46f232430", "type": "electric_scooter", "lon": -77.04366833333333, "lat": 38.91121616666667, "is_disabled": 0, "is_reserved": 0, "fusion_lat": 0.0, "fusion_lon": 0.0}, {"rental_uris": {"android": "https://dc.lft.to/lastmile_qr_scan", "ios": "https://dc.lft.to/lastmile_qr_scan"}, "bike_id": "bb465edfb2065235aa04609642c7af10", "name": "bb465edfb2065235aa04609642c7af10", "type": "electric_scooter", "lon": -77.04621916666666, "lat": 38.90986566666667, "is_disabled": 0, "is_reserved": 0, "fusion_lat": 0.0, "fusion_lon": 0.0}, {"rental_uris": {"android": "https://dc.lft.to/lastmile_qr_scan", "ios": "https://dc.lft.to/lastmile_qr_scan"}, "bike_id": "8ae816d1716ad7c160b7bba52b7225f4", "name": "8ae816d1716ad7c160b7bba52b7225f4", "type": "electric_scooter", "lon": -77.04126633333334, "lat": 38.917091666666664, "is_disabled": 0, "is_reserved": 0, "fusion_lat": 0.0, "fusion_lon": 0.0}, {"rental_uris": {"android": "https://dc.lft.to/lastmile_qr_scan", "ios": "https://dc.lft.to/lastmile_qr_scan"}, "bike_id": "728468523ccb59b66b5ebc464a52b76d", "name": "728468523ccb59b66b5ebc464a52b76d", "type": "electric_scooter", "lon": -77.04151533333334, "lat": 38.915975333333336, "is_disabled": 0, "is_reserved": 0, "fusion_lat": 0.0, "fusion_lon": 0.0}, {"rental_uris": {"android": "https://dc.lft.to/lastmile_qr_scan", "ios": "https://dc.lft.to/lastmile_qr_scan"}, "bike_id": "6c491df106b80951c4b41d55b494587b", "name": "6c491df106b80951c4b41d55b494587b", "type": "electric_scooter", "lon": -77.021958, "lat": 38.91448183333333, "is_disabled": 0, "is_reserved": 0, "fusion_lat": 0.0, "fusion_lon": 0.0}, {"rental_uris": {"android": "https://dc.lft.to/lastmile_qr_scan", "ios": "https://dc.lft.to/lastmile_qr_scan"}, "bike_id": "75248dc20fc848b003451f36afcb2643", "name": "75248dc20fc848b003451f36afcb2643", "type": "electric_scooter", "lon": -77.028048, "lat": 38.91039833333333, "is_disabled": 0, "is_reserved": 0, "fusion_lat": 0.0, "fusion_lon": 0.0}, {"rental_uris": {"android": "https://dc.lft.to/lastmile_qr_scan", "ios": "https://dc.lft.to/lastmile_qr_scan"}, "bike_id": "ff5afa230c385ffe89ecbf4be0d8d595", "name": "ff5afa230c385ffe89ecbf4be0d8d595", "type": "electric_bike", "lon": -76.90969116666666, "lat": 38.85427933333333, "is_disabled": 0, "is_reserved": 0, "fusion_lat": 0.0, "fusion_lon": 0.0}, {"rental_uris": {"android": "https://dc.lft.to/lastmile_qr_scan", "ios": "https://dc.lft.to/lastmile_qr_scan"}, "bike_id": "a89095506d338ae861b74ef355191653", "name": "a89095506d338ae861b74ef355191653", "type": "electric_scooter", "lon": -77.02810066666666, "lat": 38.91692833333333, "is_disabled": 0, "is_reserved": 0, "fusion_lat": 0.0, "fusion_lon": 0.0}, {"rental_uris": {"android": "https://dc.lft.to/lastmile_qr_scan", "ios": "https://dc.lft.to/lastmile_qr_scan"}, "bike_id": "9fb46a707b1fe426f39bc05aaa39020c", "name": "9fb46a707b1fe426f39bc05aaa39020c", "type": "electric_scooter", "lon": -77.004832, "lat": 38.87473266666667, "is_disabled": 0, "is_reserved": 0, "fusion_lat": 0.0, "fusion_lon": 0.0}, {"rental_uris": {"android": "https://dc.lft.to/lastmile_qr_scan", "ios": "https://dc.lft.to/lastmile_qr_scan"}, "bike_id": "242471cecea3be45ee4cf26cc87c158d", "name": "242471cecea3be45ee4cf26cc87c158d", "type": "electric_scooter", "lon": -77.023127, "lat": 38.91785483333334, "is_disabled": 0, "is_reserved": 0, "fusion_lat": 0.0, "fusion_lon": 0.0}, {"rental_uris": {"android": "https://dc.lft.to/lastmile_qr_scan", "ios": "https://dc.lft.to/lastmile_qr_scan"}, "bike_id": "62864740cc9fb19fd3bbee6c91d722ac", "name": "62864740cc9fb19fd3bbee6c91d722ac", "type": "electric_scooter", "lon": -77.04101466666667, "lat": 38.917750166666664, "is_disabled": 0, "is_reserved": 0, "fusion_lat": 0.0, "fusion_lon": 0.0}, {"rental_uris": {"android": "https://dc.lft.to/lastmile_qr_scan", "ios": "https://dc.lft.to/lastmile_qr_scan"}, "bike_id": "cce5817c72fb347b8d5f2fa9d2ecdc5c", "name": "cce5817c72fb347b8d5f2fa9d2ecdc5c", "type": "electric_scooter", "lon": -76.9652805, "lat": 38.876309666666664, "is_disabled": 0, "is_reserved": 0, "fusion_lat": 0.0, "fusion_lon": 0.0}, {"rental_uris": {"android": "https://dc.lft.to/lastmile_qr_scan", "ios": "https://dc.lft.to/lastmile_qr_scan"}, "bike_id": "3445a9be58f144647f5fe7c2764e08e3", "name": "3445a9be58f144647f5fe7c2764e08e3", "type": "electric_scooter", "lon": -77.04329583333333, "lat": 38.8921985, "is_disabled": 0, "is_reserved": 0, "fusion_lat": 0.0, "fusion_lon": 0.0}, {"rental_uris": {"android": "https://dc.lft.to/lastmile_qr_scan", "ios": "https://dc.lft.to/lastmile_qr_scan"}, "bike_id": "da4cbe2909f5b519122a0a11aafc2592", "name": "da4cbe2909f5b519122a0a11aafc2592", "type": "electric_scooter", "lon": -77.03210133333333, "lat": 38.92012366666667, "is_disabled": 0, "is_reserved": 0, "fusion_lat": 0.0, "fusion_lon": 0.0}, {"rental_uris": {"android": "https://dc.lft.to/lastmile_qr_scan", "ios": "https://dc.lft.to/lastmile_qr_scan"}, "bike_id": "d99ffc1426fdbd9272016f51d26b5985", "name": "d99ffc1426fdbd9272016f51d26b5985", "type": "electric_scooter", "lon": -77.04018916666666, "lat": 38.9040175, "is_disabled": 0, "is_reserved": 0, "fusion_lat": 0.0, "fusion_lon": 0.0}, {"rental_uris": {"android": "https://dc.lft.to/lastmile_qr_scan", "ios": "https://dc.lft.to/lastmile_qr_scan"}, "bike_id": "fc2f89983b2f936b32acab3cf847f3de", "name": "fc2f89983b2f936b32acab3cf847f3de", "type": "electric_scooter", "lon": -77.0266395, "lat": 38.881312, "is_disabled": 0, "is_reserved": 0, "fusion_lat": 0.0, "fusion_lon": 0.0}, {"rental_uris": {"android": "https://dc.lft.to/lastmile_qr_scan", "ios": "https://dc.lft.to/lastmile_qr_scan"}, "bike_id": "6982cbb77c93490bbb8b5eb7f9441f29", "name": "6982cbb77c93490bbb8b5eb7f9441f29", "type": "electric_scooter", "lon": -77.03337066666667, "lat": 38.9287885, "is_disabled": 0, "is_reserved": 0, "fusion_lat": 0.0, "fusion_lon": 0.0}, {"rental_uris": {"android": "https://dc.lft.to/lastmile_qr_scan", "ios": "https://dc.lft.to/lastmile_qr_scan"}, "bike_id": "1ef51bb153e799727d55419b7d0233b4", "name": "1ef51bb153e799727d55419b7d0233b4", "type": "electric_scooter", "lon": -77.02605833333334, "lat": 38.9315255, "is_disabled": 0, "is_reserved": 0, "fusion_lat": 0.0, "fusion_lon": 0.0}, {"rental_uris": {"android": "https://dc.lft.to/lastmile_qr_scan", "ios": "https://dc.lft.to/lastmile_qr_scan"}, "bike_id": "acf7fa26ee86938711e5a7687fe24e8d", "name": "acf7fa26ee86938711e5a7687fe24e8d", "type": "electric_scooter", "lon": -77.04196083333333, "lat": 38.901520166666664, "is_disabled": 0, "is_reserved": 0, "fusion_lat": 0.0, "fusion_lon": 0.0}, {"rental_uris": {"android": "https://dc.lft.to/lastmile_qr_scan", "ios": "https://dc.lft.to/lastmile_qr_scan"}, "bike_id": "9797eb12d94b8d04d4a1f6ccc113cdf0", "name": "9797eb12d94b8d04d4a1f6ccc113cdf0", "type": "electric_bike", "lon": -76.98096266666667, "lat": 38.9211385, "is_disabled": 0, "is_reserved": 0, "fusion_lat": 0.0, "fusion_lon": 0.0}, {"rental_uris": {"android": "https://dc.lft.to/lastmile_qr_scan", "ios": "https://dc.lft.to/lastmile_qr_scan"}, "bike_id": "52119f23761bc79c7e305dc82563eba3", "name": "52119f23761bc79c7e305dc82563eba3", "type": "electric_scooter", "lon": -77.026455, "lat": 38.98451816666667, "is_disabled": 0, "is_reserved": 0, "fusion_lat": 0.0, "fusion_lon": 0.0}, {"rental_uris": {"android": "https://dc.lft.to/lastmile_qr_scan", "ios": "https://dc.lft.to/lastmile_qr_scan"}, "bike_id": "42ce4d638fa51f6fbf10284b77cb62a6", "name": "42ce4d638fa51f6fbf10284b77cb62a6", "type": "electric_scooter", "lon": -77.03294616666666, "lat": 38.95644983333333, "is_disabled": 0, "is_reserved": 0, "fusion_lat": 0.0, "fusion_lon": 0.0}, {"rental_uris": {"android": "https://dc.lft.to/lastmile_qr_scan", "ios": "https://dc.lft.to/lastmile_qr_scan"}, "bike_id": "110c24699a7437cb9e43275294ee0576", "name": "110c24699a7437cb9e43275294ee0576", "type": "electric_scooter", "lon": -77.046648, "lat": 38.906824, "is_disabled": 0, "is_reserved": 0, "fusion_lat": 0.0, "fusion_lon": 0.0}, {"rental_uris": {"android": "https://dc.lft.to/lastmile_qr_scan", "ios": "https://dc.lft.to/lastmile_qr_scan"}, "bike_id": "5715c8ce06b7974df283117a1339719f", "name": "5715c8ce06b7974df283117a1339719f", "type": "electric_scooter", "lon": -77.04563016666667, "lat": 38.902019333333335, "is_disabled": 0, "is_reserved": 0, "fusion_lat": 0.0, "fusion_lon": 0.0}, {"rental_uris": {"android": "https://dc.lft.to/lastmile_qr_scan", "ios": "https://dc.lft.to/lastmile_qr_scan"}, "bike_id": "714ea6e3611e006b35ba354f48ed93af", "name": "714ea6e3611e006b35ba354f48ed93af", "type": "electric_scooter", "lon": -76.92998033333333, "lat": 38.901945, "is_disabled": 0, "is_reserved": 0, "fusion_lat": 0.0, "fusion_lon": 0.0}, {"rental_uris": {"android": "https://dc.lft.to/lastmile_qr_scan", "ios": "https://dc.lft.to/lastmile_qr_scan"}, "bike_id": "4c5a20047b84e23c2f1d2cbdca8407e6", "name": "4c5a20047b84e23c2f1d2cbdca8407e6", "type": "electric_scooter", "lon": -77.01767816666667, "lat": 38.902575166666665, "is_disabled": 0, "is_reserved": 0, "fusion_lat": 0.0, "fusion_lon": 0.0}, {"rental_uris": {"android": "https://dc.lft.to/lastmile_qr_scan", "ios": "https://dc.lft.to/lastmile_qr_scan"}, "bike_id": "dd2cc3c813bbb904978fffbf823d1f40", "name": "dd2cc3c813bbb904978fffbf823d1f40", "type": "electric_scooter", "lon": -77.04326466666667, "lat": 38.9087675, "is_disabled": 0, "is_reserved": 0, "fusion_lat": 0.0, "fusion_lon": 0.0}, {"rental_uris": {"android": "https://dc.lft.to/lastmile_qr_scan", "ios": "https://dc.lft.to/lastmile_qr_scan"}, "bike_id": "5b2e594f36881d0c39aed92c992ee7da", "name": "5b2e594f36881d0c39aed92c992ee7da", "type": "electric_scooter", "lon": -77.03203033333334, "lat": 38.914233333333335, "is_disabled": 0, "is_reserved": 0, "fusion_lat": 0.0, "fusion_lon": 0.0}, {"rental_uris": {"android": "https://dc.lft.to/lastmile_qr_scan", "ios": "https://dc.lft.to/lastmile_qr_scan"}, "bike_id": "68896c9e51005a375d35d45abf3ee3b1", "name": "68896c9e51005a375d35d45abf3ee3b1", "type": "electric_scooter", "lon": -77.04276033333333, "lat": 38.914205833333334, "is_disabled": 0, "is_reserved": 0, "fusion_lat": 0.0, "fusion_lon": 0.0}, {"rental_uris": {"android": "https://dc.lft.to/lastmile_qr_scan", "ios": "https://dc.lft.to/lastmile_qr_scan"}, "bike_id": "3092e322ff3837e0257cf2b51304191d", "name": "3092e322ff3837e0257cf2b51304191d", "type": "electric_scooter", "lon": -77.02307883333333, "lat": 38.92099833333333, "is_disabled": 0, "is_reserved": 0, "fusion_lat": 0.0, "fusion_lon": 0.0}, {"rental_uris": {"android": "https://dc.lft.to/lastmile_qr_scan", "ios": "https://dc.lft.to/lastmile_qr_scan"}, "bike_id": "1e83c6b00854382c93a1aaf90d79721d", "name": "1e83c6b00854382c93a1aaf90d79721d", "type": "electric_bike", "lon": -77.10920766666666, "lat": 39.05193766666667, "is_disabled": 0, "is_reserved": 0, "fusion_lat": 0.0, "fusion_lon": 0.0}, {"rental_uris": {"android": "https://dc.lft.to/lastmile_qr_scan", "ios": "https://dc.lft.to/lastmile_qr_scan"}, "bike_id": "0043002518767397f47842b1542cf779", "name": "0043002518767397f47842b1542cf779", "type": "electric_scooter", "lon": -77.03479166666666, "lat": 38.902716166666664, "is_disabled": 0, "is_reserved": 0, "fusion_lat": 0.0, "fusion_lon": 0.0}, {"rental_uris": {"android": "https://dc.lft.to/lastmile_qr_scan", "ios": "https://dc.lft.to/lastmile_qr_scan"}, "bike_id": "b5c6f3088a4bf1839e5548d1848c65f4", "name": "b5c6f3088a4bf1839e5548d1848c65f4", "type": "electric_scooter", "lon": -77.04766966666666, "lat": 38.917699999999996, "is_disabled": 0, "is_reserved": 0, "fusion_lat": 0.0, "fusion_lon": 0.0}, {"rental_uris": {"android": "https://dc.lft.to/lastmile_qr_scan", "ios": "https://dc.lft.to/lastmile_qr_scan"}, "bike_id": "c61ce5fe784b5caeca0e97e48530f4bd", "name": "c61ce5fe784b5caeca0e97e48530f4bd", "type": "electric_scooter", "lon": -77.0102545, "lat": 38.917112, "is_disabled": 0, "is_reserved": 0, "fusion_lat": 0.0, "fusion_lon": 0.0}, {"rental_uris": {"android": "https://dc.lft.to/lastmile_qr_scan", "ios": "https://dc.lft.to/lastmile_qr_scan"}, "bike_id": "73ec3501d9c3cd6b8226bf6b75add4d7", "name": "73ec3501d9c3cd6b8226bf6b75add4d7", "type": "electric_scooter", "lon": -77.00579816666666, "lat": 38.873066666666666, "is_disabled": 0, "is_reserved": 0, "fusion_lat": 0.0, "fusion_lon": 0.0}, {"rental_uris": {"android": "https://dc.lft.to/lastmile_qr_scan", "ios": "https://dc.lft.to/lastmile_qr_scan"}, "bike_id": "6525e41d315f10adf615f6484eb0c911", "name": "6525e41d315f10adf615f6484eb0c911", "type": "electric_scooter", "lon": -77.042684, "lat": 38.908568833333334, "is_disabled": 0, "is_reserved": 0, "fusion_lat": 0.0, "fusion_lon": 0.0}, {"rental_uris": {"android": "https://dc.lft.to/lastmile_qr_scan", "ios": "https://dc.lft.to/lastmile_qr_scan"}, "bike_id": "98e8b1fb45cea12eb9b630a516a1e8e9", "name": "98e8b1fb45cea12eb9b630a516a1e8e9", "type": "electric_scooter", "lon": -77.034404, "lat": 38.90972383333333, "is_disabled": 0, "is_reserved": 0, "fusion_lat": 0.0, "fusion_lon": 0.0}, {"rental_uris": {"android": "https://dc.lft.to/lastmile_qr_scan", "ios": "https://dc.lft.to/lastmile_qr_scan"}, "bike_id": "3bfe4601b888ada0bac6014b160af094", "name": "3bfe4601b888ada0bac6014b160af094", "type": "electric_scooter", "lon": -77.02920283333333, "lat": 38.898389, "is_disabled": 0, "is_reserved": 0, "fusion_lat": 0.0, "fusion_lon": 0.0}, {"rental_uris": {"android": "https://dc.lft.to/lastmile_qr_scan", "ios": "https://dc.lft.to/lastmile_qr_scan"}, "bike_id": "552980707e72d45535382d5413f66f1c", "name": "552980707e72d45535382d5413f66f1c", "type": "electric_bike", "lon": -77.05663816666667, "lat": 38.92869916666667, "is_disabled": 0, "is_reserved": 0, "fusion_lat": 0.0, "fusion_lon": 0.0}, {"rental_uris": {"android": "https://dc.lft.to/lastmile_qr_scan", "ios": "https://dc.lft.to/lastmile_qr_scan"}, "bike_id": "df00a3e7e4f833c8221622cde1098d39", "name": "df00a3e7e4f833c8221622cde1098d39", "type": "electric_scooter", "lon": -76.99127766666666, "lat": 38.86206383333333, "is_disabled": 0, "is_reserved": 0, "fusion_lat": 0.0, "fusion_lon": 0.0}, {"rental_uris": {"android": "https://dc.lft.to/lastmile_qr_scan", "ios": "https://dc.lft.to/lastmile_qr_scan"}, "bike_id": "b25e111fc96bb1f402dc711eeb3726a0", "name": "b25e111fc96bb1f402dc711eeb3726a0", "type": "electric_scooter", "lon": -77.041826, "lat": 38.892881833333334, "is_disabled": 0, "is_reserved": 0, "fusion_lat": 0.0, "fusion_lon": 0.0}, {"rental_uris": {"android": "https://dc.lft.to/lastmile_qr_scan", "ios": "https://dc.lft.to/lastmile_qr_scan"}, "bike_id": "43e1fe709e9d9aa348aa8361f6420769", "name": "43e1fe709e9d9aa348aa8361f6420769", "type": "electric_scooter", "lon": -77.02893983333334, "lat": 38.917074, "is_disabled": 0, "is_reserved": 0, "fusion_lat": 0.0, "fusion_lon": 0.0}, {"rental_uris": {"android": "https://dc.lft.to/lastmile_qr_scan", "ios": "https://dc.lft.to/lastmile_qr_scan"}, "bike_id": "dc90e1a7e508fb1cc78bc6dce92e86af", "name": "dc90e1a7e508fb1cc78bc6dce92e86af", "type": "electric_scooter", "lon": -77.03194616666667, "lat": 38.921162, "is_disabled": 0, "is_reserved": 0, "fusion_lat": 0.0, "fusion_lon": 0.0}, {"rental_uris": {"android": "https://dc.lft.to/lastmile_qr_scan", "ios": "https://dc.lft.to/lastmile_qr_scan"}, "bike_id": "be89ed0ca2cbfba8ea9241c1f29c2e2d", "name": "be89ed0ca2cbfba8ea9241c1f29c2e2d", "type": "electric_scooter", "lon": -77.02411516666666, "lat": 38.909601333333335, "is_disabled": 0, "is_reserved": 0, "fusion_lat": 0.0, "fusion_lon": 0.0}, {"rental_uris": {"android": "https://dc.lft.to/lastmile_qr_scan", "ios": "https://dc.lft.to/lastmile_qr_scan"}, "bike_id": "49d0bca6f97e57003570e4d32f442ad7", "name": "49d0bca6f97e57003570e4d32f442ad7", "type": "electric_scooter", "lon": -77.021966, "lat": 38.91428466666667, "is_disabled": 0, "is_reserved": 0, "fusion_lat": 0.0, "fusion_lon": 0.0}, {"rental_uris": {"android": "https://dc.lft.to/lastmile_qr_scan", "ios": "https://dc.lft.to/lastmile_qr_scan"}, "bike_id": "09adde6482c065d9e0f0b8fd42415609", "name": "09adde6482c065d9e0f0b8fd42415609", "type": "electric_scooter", "lon": -77.03498716666667, "lat": 38.91705916666667, "is_disabled": 0, "is_reserved": 0, "fusion_lat": 0.0, "fusion_lon": 0.0}, {"rental_uris": {"android": "https://dc.lft.to/lastmile_qr_scan", "ios": "https://dc.lft.to/lastmile_qr_scan"}, "bike_id": "c02c053439e53c2f7ae034f1ff8574a6", "name": "c02c053439e53c2f7ae034f1ff8574a6", "type": "electric_scooter", "lon": -77.04171916666667, "lat": 38.918595833333335, "is_disabled": 0, "is_reserved": 0, "fusion_lat": 0.0, "fusion_lon": 0.0}, {"rental_uris": {"android": "https://dc.lft.to/lastmile_qr_scan", "ios": "https://dc.lft.to/lastmile_qr_scan"}, "bike_id": "64fa86aa415b98b078f78ed11c43bc50", "name": "64fa86aa415b98b078f78ed11c43bc50", "type": "electric_scooter", "lon": -76.96693566666667, "lat": 38.859019333333336, "is_disabled": 0, "is_reserved": 0, "fusion_lat": 0.0, "fusion_lon": 0.0}, {"rental_uris": {"android": "https://dc.lft.to/lastmile_qr_scan", "ios": "https://dc.lft.to/lastmile_qr_scan"}, "bike_id": "a6016f6a5325dd2f7864c31415b12ec6", "name": "a6016f6a5325dd2f7864c31415b12ec6", "type": "electric_scooter", "lon": -77.0216565, "lat": 38.897317666666666, "is_disabled": 0, "is_reserved": 0, "fusion_lat": 0.0, "fusion_lon": 0.0}, {"rental_uris": {"android": "https://dc.lft.to/lastmile_qr_scan", "ios": "https://dc.lft.to/lastmile_qr_scan"}, "bike_id": "e632343257344ded4e4ad4602237fab7", "name": "e632343257344ded4e4ad4602237fab7", "type": "electric_scooter", "lon": -76.9463265, "lat": 38.89843616666667, "is_disabled": 0, "is_reserved": 0, "fusion_lat": 0.0, "fusion_lon": 0.0}, {"rental_uris": {"android": "https://dc.lft.to/lastmile_qr_scan", "ios": "https://dc.lft.to/lastmile_qr_scan"}, "bike_id": "1f125d1bffbcfe6574edf605b364dccc", "name": "1f125d1bffbcfe6574edf605b364dccc", "type": "electric_scooter", "lon": -77.03448066666667, "lat": 38.91004566666667, "is_disabled": 0, "is_reserved": 0, "fusion_lat": 0.0, "fusion_lon": 0.0}, {"rental_uris": {"android": "https://dc.lft.to/lastmile_qr_scan", "ios": "https://dc.lft.to/lastmile_qr_scan"}, "bike_id": "e56d24c087856654ebf036cc5381cb94", "name": "e56d24c087856654ebf036cc5381cb94", "type": "electric_scooter", "lon": -77.032584, "lat": 38.90859566666666, "is_disabled": 0, "is_reserved": 0, "fusion_lat": 0.0, "fusion_lon": 0.0}, {"rental_uris": {"android": "https://dc.lft.to/lastmile_qr_scan", "ios": "https://dc.lft.to/lastmile_qr_scan"}, "bike_id": "6ed016143ce0d1f2b36342802a14b160", "name": "6ed016143ce0d1f2b36342802a14b160", "type": "electric_scooter", "lon": -77.031749, "lat": 38.903592333333336, "is_disabled": 0, "is_reserved": 0, "fusion_lat": 0.0, "fusion_lon": 0.0}, {"rental_uris": {"android": "https://dc.lft.to/lastmile_qr_scan", "ios": "https://dc.lft.to/lastmile_qr_scan"}, "bike_id": "00a9b1f52c05e60d8c9d872f5b70306c", "name": "00a9b1f52c05e60d8c9d872f5b70306c", "type": "electric_scooter", "lon": -76.99846083333334, "lat": 38.887642, "is_disabled": 0, "is_reserved": 0, "fusion_lat": 0.0, "fusion_lon": 0.0}, {"rental_uris": {"android": "https://dc.lft.to/lastmile_qr_scan", "ios": "https://dc.lft.to/lastmile_qr_scan"}, "bike_id": "a2134e6d33aa1f491f799e238c542c9c", "name": "a2134e6d33aa1f491f799e238c542c9c", "type": "electric_bike", "lon": -77.09963316666666, "lat": 38.857914666666666, "is_disabled": 0, "is_reserved": 0, "fusion_lat": 0.0, "fusion_lon": 0.0}, {"rental_uris": {"android": "https://dc.lft.to/lastmile_qr_scan", "ios": "https://dc.lft.to/lastmile_qr_scan"}, "bike_id": "45858d04a12232f86243eff105e3b3a6", "name": "45858d04a12232f86243eff105e3b3a6", "type": "electric_scooter", "lon": -77.0530715, "lat": 38.9276785, "is_disabled": 0, "is_reserved": 0, "fusion_lat": 0.0, "fusion_lon": 0.0}, {"rental_uris": {"android": "https://dc.lft.to/lastmile_qr_scan", "ios": "https://dc.lft.to/lastmile_qr_scan"}, "bike_id": "d453bf5ea4a62acd840b36932b2c4b48", "name": "d453bf5ea4a62acd840b36932b2c4b48", "type": "electric_scooter", "lon": -77.03469566666666, "lat": 38.9226015, "is_disabled": 0, "is_reserved": 0, "fusion_lat": 0.0, "fusion_lon": 0.0}, {"rental_uris": {"android": "https://dc.lft.to/lastmile_qr_scan", "ios": "https://dc.lft.to/lastmile_qr_scan"}, "bike_id": "5ee69089e8d200fb492fb1fe0a79f629", "name": "5ee69089e8d200fb492fb1fe0a79f629", "type": "electric_scooter", "lon": -76.93755066666667, "lat": 38.89051116666667, "is_disabled": 0, "is_reserved": 0, "fusion_lat": 0.0, "fusion_lon": 0.0}, {"rental_uris": {"android": "https://dc.lft.to/lastmile_qr_scan", "ios": "https://dc.lft.to/lastmile_qr_scan"}, "bike_id": "d5ccc9d61cf9525097fc02bb008d0d10", "name": "d5ccc9d61cf9525097fc02bb008d0d10", "type": "electric_scooter", "lon": -77.0551915, "lat": 38.909334, "is_disabled": 0, "is_reserved": 0, "fusion_lat": 0.0, "fusion_lon": 0.0}, {"rental_uris": {"android": "https://dc.lft.to/lastmile_qr_scan", "ios": "https://dc.lft.to/lastmile_qr_scan"}, "bike_id": "6db7e1b4e9e10dcded6c5321a58e5350", "name": "6db7e1b4e9e10dcded6c5321a58e5350", "type": "electric_scooter", "lon": -77.0096355, "lat": 38.91417533333333, "is_disabled": 0, "is_reserved": 0, "fusion_lat": 0.0, "fusion_lon": 0.0}, {"rental_uris": {"android": "https://dc.lft.to/lastmile_qr_scan", "ios": "https://dc.lft.to/lastmile_qr_scan"}, "bike_id": "6e31863a7f0e908695ca9d7e0c5d9949", "name": "6e31863a7f0e908695ca9d7e0c5d9949", "type": "electric_bike", "lon": -77.118493, "lat": 38.877373, "is_disabled": 0, "is_reserved": 0, "fusion_lat": 0.0, "fusion_lon": 0.0}, {"rental_uris": {"android": "https://dc.lft.to/lastmile_qr_scan", "ios": "https://dc.lft.to/lastmile_qr_scan"}, "bike_id": "a3faf0886aabe61320011a0449eee3cf", "name": "a3faf0886aabe61320011a0449eee3cf", "type": "electric_bike", "lon": -76.93543216666667, "lat": 38.9518835, "is_disabled": 0, "is_reserved": 0, "fusion_lat": 0.0, "fusion_lon": 0.0}, {"rental_uris": {"android": "https://dc.lft.to/lastmile_qr_scan", "ios": "https://dc.lft.to/lastmile_qr_scan"}, "bike_id": "ea3a21f2daf725ae74dfb4dae2dc3b08", "name": "ea3a21f2daf725ae74dfb4dae2dc3b08", "type": "electric_scooter", "lon": -77.04686833333334, "lat": 38.8922195, "is_disabled": 0, "is_reserved": 0, "fusion_lat": 0.0, "fusion_lon": 0.0}, {"rental_uris": {"android": "https://dc.lft.to/lastmile_qr_scan", "ios": "https://dc.lft.to/lastmile_qr_scan"}, "bike_id": "72be04d8a7e98e6eaa262795e7a31571", "name": "72be04d8a7e98e6eaa262795e7a31571", "type": "electric_scooter", "lon": -77.013439, "lat": 38.8697365, "is_disabled": 0, "is_reserved": 0, "fusion_lat": 0.0, "fusion_lon": 0.0}, {"rental_uris": {"android": "https://dc.lft.to/lastmile_qr_scan", "ios": "https://dc.lft.to/lastmile_qr_scan"}, "bike_id": "0f73b2bc420b79cc09caa8f94286146f", "name": "0f73b2bc420b79cc09caa8f94286146f", "type": "electric_scooter", "lon": -77.027624, "lat": 38.90727733333333, "is_disabled": 0, "is_reserved": 0, "fusion_lat": 0.0, "fusion_lon": 0.0}, {"rental_uris": {"android": "https://dc.lft.to/lastmile_qr_scan", "ios": "https://dc.lft.to/lastmile_qr_scan"}, "bike_id": "4888725e9ff2eac361e609466706b08c", "name": "4888725e9ff2eac361e609466706b08c", "type": "electric_scooter", "lon": -77.0396805, "lat": 38.906090666666664, "is_disabled": 0, "is_reserved": 0, "fusion_lat": 0.0, "fusion_lon": 0.0}, {"rental_uris": {"android": "https://dc.lft.to/lastmile_qr_scan", "ios": "https://dc.lft.to/lastmile_qr_scan"}, "bike_id": "c1950b58e50c1d6012f9015f3d9ad663", "name": "c1950b58e50c1d6012f9015f3d9ad663", "type": "electric_scooter", "lon": -77.022514, "lat": 38.9248255, "is_disabled": 0, "is_reserved": 0, "fusion_lat": 0.0, "fusion_lon": 0.0}, {"rental_uris": {"android": "https://dc.lft.to/lastmile_qr_scan", "ios": "https://dc.lft.to/lastmile_qr_scan"}, "bike_id": "b03cb216097329a8acc6e50189510f62", "name": "b03cb216097329a8acc6e50189510f62", "type": "electric_scooter", "lon": -77.002126, "lat": 38.92455366666667, "is_disabled": 0, "is_reserved": 0, "fusion_lat": 0.0, "fusion_lon": 0.0}, {"rental_uris": {"android": "https://dc.lft.to/lastmile_qr_scan", "ios": "https://dc.lft.to/lastmile_qr_scan"}, "bike_id": "b0ddc350b43d35edc74c2f97407fc2d6", "name": "b0ddc350b43d35edc74c2f97407fc2d6", "type": "electric_scooter", "lon": -76.99871566666667, "lat": 38.90029766666667, "is_disabled": 0, "is_reserved": 0, "fusion_lat": 0.0, "fusion_lon": 0.0}, {"rental_uris": {"android": "https://dc.lft.to/lastmile_qr_scan", "ios": "https://dc.lft.to/lastmile_qr_scan"}, "bike_id": "1c398c47b26484e629d85cfae192bf3a", "name": "1c398c47b26484e629d85cfae192bf3a", "type": "electric_scooter", "lon": -77.0277695, "lat": 38.954122166666664, "is_disabled": 0, "is_reserved": 0, "fusion_lat": 0.0, "fusion_lon": 0.0}, {"rental_uris": {"android": "https://dc.lft.to/lastmile_qr_scan", "ios": "https://dc.lft.to/lastmile_qr_scan"}, "bike_id": "a95d16b89a1c28fa76b0365567c7cbf7", "name": "a95d16b89a1c28fa76b0365567c7cbf7", "type": "electric_scooter", "lon": -77.063759, "lat": 38.944676666666666, "is_disabled": 0, "is_reserved": 0, "fusion_lat": 0.0, "fusion_lon": 0.0}, {"rental_uris": {"android": "https://dc.lft.to/lastmile_qr_scan", "ios": "https://dc.lft.to/lastmile_qr_scan"}, "bike_id": "a6749a7986fa0b99ba39c6e1b29e39fe", "name": "a6749a7986fa0b99ba39c6e1b29e39fe", "type": "electric_scooter", "lon": -76.93135416666667, "lat": 38.893331833333335, "is_disabled": 0, "is_reserved": 0, "fusion_lat": 0.0, "fusion_lon": 0.0}, {"rental_uris": {"android": "https://dc.lft.to/lastmile_qr_scan", "ios": "https://dc.lft.to/lastmile_qr_scan"}, "bike_id": "5479451e14d5596746c3e942e344509d", "name": "5479451e14d5596746c3e942e344509d", "type": "electric_scooter", "lon": -77.0197605, "lat": 38.900196, "is_disabled": 0, "is_reserved": 0, "fusion_lat": 0.0, "fusion_lon": 0.0}, {"rental_uris": {"android": "https://dc.lft.to/lastmile_qr_scan", "ios": "https://dc.lft.to/lastmile_qr_scan"}, "bike_id": "a377c9308681f2f82e5cdb5b79de75a3", "name": "a377c9308681f2f82e5cdb5b79de75a3", "type": "electric_bike", "lon": -77.0262665, "lat": 38.962218166666666, "is_disabled": 0, "is_reserved": 0, "fusion_lat": 0.0, "fusion_lon": 0.0}, {"rental_uris": {"android": "https://dc.lft.to/lastmile_qr_scan", "ios": "https://dc.lft.to/lastmile_qr_scan"}, "bike_id": "5e85ef66dc7469c63fd99df7e3d4755e", "name": "5e85ef66dc7469c63fd99df7e3d4755e", "type": "electric_scooter", "lon": -77.047883, "lat": 38.89386616666667, "is_disabled": 0, "is_reserved": 0, "fusion_lat": 0.0, "fusion_lon": 0.0}, {"rental_uris": {"android": "https://dc.lft.to/lastmile_qr_scan", "ios": "https://dc.lft.to/lastmile_qr_scan"}, "bike_id": "88478a65c5d18d6e879c92595f2a08a4", "name": "88478a65c5d18d6e879c92595f2a08a4", "type": "electric_scooter", "lon": -77.0197135, "lat": 38.895233, "is_disabled": 0, "is_reserved": 0, "fusion_lat": 0.0, "fusion_lon": 0.0}, {"rental_uris": {"android": "https://dc.lft.to/lastmile_qr_scan", "ios": "https://dc.lft.to/lastmile_qr_scan"}, "bike_id": "11ed8bfdd2ac32df035027aec1963737", "name": "11ed8bfdd2ac32df035027aec1963737", "type": "electric_scooter", "lon": -76.96530016666667, "lat": 38.876356, "is_disabled": 0, "is_reserved": 0, "fusion_lat": 0.0, "fusion_lon": 0.0}, {"rental_uris": {"android": "https://dc.lft.to/lastmile_qr_scan", "ios": "https://dc.lft.to/lastmile_qr_scan"}, "bike_id": "1d1047688cf568c988c15d8e1822b049", "name": "1d1047688cf568c988c15d8e1822b049", "type": "electric_scooter", "lon": -77.04274383333333, "lat": 38.9085565, "is_disabled": 0, "is_reserved": 0, "fusion_lat": 0.0, "fusion_lon": 0.0}, {"rental_uris": {"android": "https://dc.lft.to/lastmile_qr_scan", "ios": "https://dc.lft.to/lastmile_qr_scan"}, "bike_id": "20e519bee327aadafed7c15461d6eb0c", "name": "20e519bee327aadafed7c15461d6eb0c", "type": "electric_scooter", "lon": -77.02174616666667, "lat": 38.942882833333336, "is_disabled": 0, "is_reserved": 0, "fusion_lat": 0.0, "fusion_lon": 0.0}, {"rental_uris": {"android": "https://dc.lft.to/lastmile_qr_scan", "ios": "https://dc.lft.to/lastmile_qr_scan"}, "bike_id": "170c0397cf32ee9a5b98315ca99effe9", "name": "170c0397cf32ee9a5b98315ca99effe9", "type": "electric_scooter", "lon": -77.04394066666667, "lat": 38.914177333333335, "is_disabled": 0, "is_reserved": 0, "fusion_lat": 0.0, "fusion_lon": 0.0}, {"rental_uris": {"android": "https://dc.lft.to/lastmile_qr_scan", "ios": "https://dc.lft.to/lastmile_qr_scan"}, "bike_id": "7278852fe104976c058377b8e383079d", "name": "7278852fe104976c058377b8e383079d", "type": "electric_scooter", "lon": -77.0218295, "lat": 38.91432783333333, "is_disabled": 0, "is_reserved": 0, "fusion_lat": 0.0, "fusion_lon": 0.0}, {"rental_uris": {"android": "https://dc.lft.to/lastmile_qr_scan", "ios": "https://dc.lft.to/lastmile_qr_scan"}, "bike_id": "cbadebb2f16c6d53df859e600fb524a9", "name": "cbadebb2f16c6d53df859e600fb524a9", "type": "electric_bike", "lon": -76.92329516666666, "lat": 38.871077166666666, "is_disabled": 0, "is_reserved": 0, "fusion_lat": 0.0, "fusion_lon": 0.0}, {"rental_uris": {"android": "https://dc.lft.to/lastmile_qr_scan", "ios": "https://dc.lft.to/lastmile_qr_scan"}, "bike_id": "33e509d433d4f314cca0fce72859a4ce", "name": "33e509d433d4f314cca0fce72859a4ce", "type": "electric_scooter", "lon": -77.02371616666667, "lat": 38.91721583333333, "is_disabled": 0, "is_reserved": 0, "fusion_lat": 0.0, "fusion_lon": 0.0}, {"rental_uris": {"android": "https://dc.lft.to/lastmile_qr_scan", "ios": "https://dc.lft.to/lastmile_qr_scan"}, "bike_id": "4224d53a755efea48568b51e775c67c4", "name": "4224d53a755efea48568b51e775c67c4", "type": "electric_scooter", "lon": -77.047086, "lat": 38.902405333333334, "is_disabled": 0, "is_reserved": 0, "fusion_lat": 0.0, "fusion_lon": 0.0}, {"rental_uris": {"android": "https://dc.lft.to/lastmile_qr_scan", "ios": "https://dc.lft.to/lastmile_qr_scan"}, "bike_id": "e8bb4895df0f59af71bc54aef0dc2247", "name": "e8bb4895df0f59af71bc54aef0dc2247", "type": "electric_scooter", "lon": -76.967083, "lat": 38.847956333333336, "is_disabled": 0, "is_reserved": 0, "fusion_lat": 0.0, "fusion_lon": 0.0}, {"rental_uris": {"android": "https://dc.lft.to/lastmile_qr_scan", "ios": "https://dc.lft.to/lastmile_qr_scan"}, "bike_id": "3d33d16fc59ed5427a0ff63037ef5d04", "name": "3d33d16fc59ed5427a0ff63037ef5d04", "type": "electric_scooter", "lon": -77.03355916666666, "lat": 38.92878816666666, "is_disabled": 0, "is_reserved": 0, "fusion_lat": 0.0, "fusion_lon": 0.0}, {"rental_uris": {"android": "https://dc.lft.to/lastmile_qr_scan", "ios": "https://dc.lft.to/lastmile_qr_scan"}, "bike_id": "6a77830cc90fb69811535f8780303f29", "name": "6a77830cc90fb69811535f8780303f29", "type": "electric_scooter", "lon": -77.02347283333333, "lat": 38.94615133333333, "is_disabled": 0, "is_reserved": 0, "fusion_lat": 0.0, "fusion_lon": 0.0}, {"rental_uris": {"android": "https://dc.lft.to/lastmile_qr_scan", "ios": "https://dc.lft.to/lastmile_qr_scan"}, "bike_id": "7ae29d974f06593c569171a0bbdd7ec1", "name": "7ae29d974f06593c569171a0bbdd7ec1", "type": "electric_scooter", "lon": -77.03437616666666, "lat": 38.90483233333333, "is_disabled": 0, "is_reserved": 0, "fusion_lat": 0.0, "fusion_lon": 0.0}, {"rental_uris": {"android": "https://dc.lft.to/lastmile_qr_scan", "ios": "https://dc.lft.to/lastmile_qr_scan"}, "bike_id": "a25f1fb5e138e475662224baa17ed7f4", "name": "a25f1fb5e138e475662224baa17ed7f4", "type": "electric_scooter", "lon": -77.05131216666666, "lat": 38.907172333333335, "is_disabled": 0, "is_reserved": 0, "fusion_lat": 0.0, "fusion_lon": 0.0}, {"rental_uris": {"android": "https://dc.lft.to/lastmile_qr_scan", "ios": "https://dc.lft.to/lastmile_qr_scan"}, "bike_id": "d6748d9a6fa5f0a179b51efc91265742", "name": "d6748d9a6fa5f0a179b51efc91265742", "type": "electric_bike", "lon": -77.0104915, "lat": 38.877665, "is_disabled": 0, "is_reserved": 0, "fusion_lat": 0.0, "fusion_lon": 0.0}, {"rental_uris": {"android": "https://dc.lft.to/lastmile_qr_scan", "ios": "https://dc.lft.to/lastmile_qr_scan"}, "bike_id": "2112f13ac6cf7740bf099079db5c948d", "name": "2112f13ac6cf7740bf099079db5c948d", "type": "electric_bike", "lon": -76.9442435, "lat": 38.966169, "is_disabled": 0, "is_reserved": 0, "fusion_lat": 0.0, "fusion_lon": 0.0}, {"rental_uris": {"android": "https://dc.lft.to/lastmile_qr_scan", "ios": "https://dc.lft.to/lastmile_qr_scan"}, "bike_id": "4222379865d207c0bcc7fbc023cff284", "name": "4222379865d207c0bcc7fbc023cff284", "type": "electric_scooter", "lon": -77.02490066666667, "lat": 38.920718666666666, "is_disabled": 0, "is_reserved": 0, "fusion_lat": 0.0, "fusion_lon": 0.0}, {"rental_uris": {"android": "https://dc.lft.to/lastmile_qr_scan", "ios": "https://dc.lft.to/lastmile_qr_scan"}, "bike_id": "62fcc2bcbe1b80881720ece76518f421", "name": "62fcc2bcbe1b80881720ece76518f421", "type": "electric_scooter", "lon": -77.01752366666666, "lat": 38.88702033333333, "is_disabled": 0, "is_reserved": 0, "fusion_lat": 0.0, "fusion_lon": 0.0}, {"rental_uris": {"android": "https://dc.lft.to/lastmile_qr_scan", "ios": "https://dc.lft.to/lastmile_qr_scan"}, "bike_id": "7aa99a5ffcca2852f48e7ba0558160b2", "name": "7aa99a5ffcca2852f48e7ba0558160b2", "type": "electric_scooter", "lon": -77.051879, "lat": 38.90389166666667, "is_disabled": 0, "is_reserved": 0, "fusion_lat": 0.0, "fusion_lon": 0.0}, {"rental_uris": {"android": "https://dc.lft.to/lastmile_qr_scan", "ios": "https://dc.lft.to/lastmile_qr_scan"}, "bike_id": "e8cdb351dff6d9a700b73ab74af2b15b", "name": "e8cdb351dff6d9a700b73ab74af2b15b", "type": "electric_scooter", "lon": -77.0289495, "lat": 38.904332333333336, "is_disabled": 0, "is_reserved": 0, "fusion_lat": 0.0, "fusion_lon": 0.0}, {"rental_uris": {"android": "https://dc.lft.to/lastmile_qr_scan", "ios": "https://dc.lft.to/lastmile_qr_scan"}, "bike_id": "87484d9bf4f67ac0408c73993b12c2ee", "name": "87484d9bf4f67ac0408c73993b12c2ee", "type": "electric_scooter", "lon": -77.03240616666666, "lat": 38.92355166666667, "is_disabled": 0, "is_reserved": 0, "fusion_lat": 0.0, "fusion_lon": 0.0}, {"rental_uris": {"android": "https://dc.lft.to/lastmile_qr_scan", "ios": "https://dc.lft.to/lastmile_qr_scan"}, "bike_id": "1168c514aff98049d99c987862bde2a6", "name": "1168c514aff98049d99c987862bde2a6", "type": "electric_scooter", "lon": -77.02011216666666, "lat": 38.9008125, "is_disabled": 0, "is_reserved": 0, "fusion_lat": 0.0, "fusion_lon": 0.0}, {"rental_uris": {"android": "https://dc.lft.to/lastmile_qr_scan", "ios": "https://dc.lft.to/lastmile_qr_scan"}, "bike_id": "13c045d66894563d14c045f68fc34ea5", "name": "13c045d66894563d14c045f68fc34ea5", "type": "electric_bike", "lon": -76.97888183333333, "lat": 38.915905, "is_disabled": 0, "is_reserved": 0, "fusion_lat": 0.0, "fusion_lon": 0.0}, {"rental_uris": {"android": "https://dc.lft.to/lastmile_qr_scan", "ios": "https://dc.lft.to/lastmile_qr_scan"}, "bike_id": "db9e370fa913fcfa18f6cc4e551f5fe3", "name": "db9e370fa913fcfa18f6cc4e551f5fe3", "type": "electric_bike", "lon": -76.965332, "lat": 38.87481983333333, "is_disabled": 0, "is_reserved": 0, "fusion_lat": 0.0, "fusion_lon": 0.0}, {"rental_uris": {"android": "https://dc.lft.to/lastmile_qr_scan", "ios": "https://dc.lft.to/lastmile_qr_scan"}, "bike_id": "5a987d29e24b7bb96d2e27f861fc912f", "name": "5a987d29e24b7bb96d2e27f861fc912f", "type": "electric_scooter", "lon": -77.041666, "lat": 38.91683733333333, "is_disabled": 0, "is_reserved": 0, "fusion_lat": 0.0, "fusion_lon": 0.0}, {"rental_uris": {"android": "https://dc.lft.to/lastmile_qr_scan", "ios": "https://dc.lft.to/lastmile_qr_scan"}, "bike_id": "7a62b6e5ebeeb07ac97bff2ee1ef202f", "name": "7a62b6e5ebeeb07ac97bff2ee1ef202f", "type": "electric_bike", "lon": -77.01106583333333, "lat": 38.880349833333334, "is_disabled": 0, "is_reserved": 0, "fusion_lat": 0.0, "fusion_lon": 0.0}, {"rental_uris": {"android": "https://dc.lft.to/lastmile_qr_scan", "ios": "https://dc.lft.to/lastmile_qr_scan"}, "bike_id": "75550bdb69e5d3e2ba363e431d1ba329", "name": "75550bdb69e5d3e2ba363e431d1ba329", "type": "electric_bike", "lon": -77.08629083333334, "lat": 38.881906, "is_disabled": 0, "is_reserved": 0, "fusion_lat": 0.0, "fusion_lon": 0.0}, {"rental_uris": {"android": "https://dc.lft.to/lastmile_qr_scan", "ios": "https://dc.lft.to/lastmile_qr_scan"}, "bike_id": "f2dc9b91b0b2996808466015ce441e9b", "name": "f2dc9b91b0b2996808466015ce441e9b", "type": "electric_scooter", "lon": -77.03261216666667, "lat": 38.93262566666667, "is_disabled": 0, "is_reserved": 0, "fusion_lat": 0.0, "fusion_lon": 0.0}, {"rental_uris": {"android": "https://dc.lft.to/lastmile_qr_scan", "ios": "https://dc.lft.to/lastmile_qr_scan"}, "bike_id": "f3eb7d52198aaade697b78aae2ed0a88", "name": "f3eb7d52198aaade697b78aae2ed0a88", "type": "electric_scooter", "lon": -77.02313533333333, "lat": 38.896538666666665, "is_disabled": 0, "is_reserved": 0, "fusion_lat": 0.0, "fusion_lon": 0.0}, {"rental_uris": {"android": "https://dc.lft.to/lastmile_qr_scan", "ios": "https://dc.lft.to/lastmile_qr_scan"}, "bike_id": "01e8e106796c95de4435d02c97a90f0b", "name": "01e8e106796c95de4435d02c97a90f0b", "type": "electric_bike", "lon": -77.17839666666667, "lat": 39.08857166666667, "is_disabled": 0, "is_reserved": 0, "fusion_lat": 0.0, "fusion_lon": 0.0}, {"rental_uris": {"android": "https://dc.lft.to/lastmile_qr_scan", "ios": "https://dc.lft.to/lastmile_qr_scan"}, "bike_id": "6ad387b1909bd5f9bfb0e2447501a198", "name": "6ad387b1909bd5f9bfb0e2447501a198", "type": "electric_scooter", "lon": -76.93989216666667, "lat": 38.89986116666667, "is_disabled": 0, "is_reserved": 0, "fusion_lat": 0.0, "fusion_lon": 0.0}, {"rental_uris": {"android": "https://dc.lft.to/lastmile_qr_scan", "ios": "https://dc.lft.to/lastmile_qr_scan"}, "bike_id": "9dac7bd5478afd7d45cf958fbdaaf1dd", "name": "9dac7bd5478afd7d45cf958fbdaaf1dd", "type": "electric_bike", "lon": -77.22219933333334, "lat": 38.928541333333335, "is_disabled": 0, "is_reserved": 0, "fusion_lat": 0.0, "fusion_lon": 0.0}, {"rental_uris": {"android": "https://dc.lft.to/lastmile_qr_scan", "ios": "https://dc.lft.to/lastmile_qr_scan"}, "bike_id": "fc2475283e675fb980976c09c232b9f2", "name": "fc2475283e675fb980976c09c232b9f2", "type": "electric_bike", "lon": -77.06407016666667, "lat": 38.840551, "is_disabled": 0, "is_reserved": 0, "fusion_lat": 0.0, "fusion_lon": 0.0}, {"rental_uris": {"android": "https://dc.lft.to/lastmile_qr_scan", "ios": "https://dc.lft.to/lastmile_qr_scan"}, "bike_id": "52330ee5ff2f44e6bfa9066eb6af080c", "name": "52330ee5ff2f44e6bfa9066eb6af080c", "type": "electric_scooter", "lon": -77.03182416666667, "lat": 38.912705, "is_disabled": 0, "is_reserved": 0, "fusion_lat": 0.0, "fusion_lon": 0.0}, {"rental_uris": {"android": "https://dc.lft.to/lastmile_qr_scan", "ios": "https://dc.lft.to/lastmile_qr_scan"}, "bike_id": "5ad5ac91ce1a3cd8f50eb26b912e7ce7", "name": "5ad5ac91ce1a3cd8f50eb26b912e7ce7", "type": "electric_bike", "lon": -76.96052783333333, "lat": 38.88403983333333, "is_disabled": 0, "is_reserved": 0, "fusion_lat": 0.0, "fusion_lon": 0.0}, {"rental_uris": {"android": "https://dc.lft.to/lastmile_qr_scan", "ios": "https://dc.lft.to/lastmile_qr_scan"}, "bike_id": "2a7dac44b6f1322386dc04eb86b39e35", "name": "2a7dac44b6f1322386dc04eb86b39e35", "type": "electric_scooter", "lon": -77.017897, "lat": 38.901219166666664, "is_disabled": 0, "is_reserved": 0, "fusion_lat": 0.0, "fusion_lon": 0.0}, {"rental_uris": {"android": "https://dc.lft.to/lastmile_qr_scan", "ios": "https://dc.lft.to/lastmile_qr_scan"}, "bike_id": "97d5a4a4419bfa7c5a1c66787d7e9ee0", "name": "97d5a4a4419bfa7c5a1c66787d7e9ee0", "type": "electric_scooter", "lon": -76.99529616666666, "lat": 38.86250366666667, "is_disabled": 0, "is_reserved": 0, "fusion_lat": 0.0, "fusion_lon": 0.0}, {"rental_uris": {"android": "https://dc.lft.to/lastmile_qr_scan", "ios": "https://dc.lft.to/lastmile_qr_scan"}, "bike_id": "e042de083d6412cfe73d9c8885a71365", "name": "e042de083d6412cfe73d9c8885a71365", "type": "electric_scooter", "lon": -76.98383233333334, "lat": 38.86118333333334, "is_disabled": 0, "is_reserved": 0, "fusion_lat": 0.0, "fusion_lon": 0.0}, {"rental_uris": {"android": "https://dc.lft.to/lastmile_qr_scan", "ios": "https://dc.lft.to/lastmile_qr_scan"}, "bike_id": "ba7b96f50c93c9721fade5caf149032f", "name": "ba7b96f50c93c9721fade5caf149032f", "type": "electric_scooter", "lon": -77.031867, "lat": 38.9238765, "is_disabled": 0, "is_reserved": 0, "fusion_lat": 0.0, "fusion_lon": 0.0}, {"rental_uris": {"android": "https://dc.lft.to/lastmile_qr_scan", "ios": "https://dc.lft.to/lastmile_qr_scan"}, "bike_id": "49da3adf1545e7e98c83c5eb578a02bc", "name": "49da3adf1545e7e98c83c5eb578a02bc", "type": "electric_scooter", "lon": -76.981202, "lat": 38.9147085, "is_disabled": 0, "is_reserved": 0, "fusion_lat": 0.0, "fusion_lon": 0.0}, {"rental_uris": {"android": "https://dc.lft.to/lastmile_qr_scan", "ios": "https://dc.lft.to/lastmile_qr_scan"}, "bike_id": "abaac8112e606c0adde59245c1d57514", "name": "abaac8112e606c0adde59245c1d57514", "type": "electric_scooter", "lon": -77.072463, "lat": 38.93955866666667, "is_disabled": 0, "is_reserved": 0, "fusion_lat": 0.0, "fusion_lon": 0.0}, {"rental_uris": {"android": "https://dc.lft.to/lastmile_qr_scan", "ios": "https://dc.lft.to/lastmile_qr_scan"}, "bike_id": "c0f35986cb4f115a26b942e9f81d7c01", "name": "c0f35986cb4f115a26b942e9f81d7c01", "type": "electric_scooter", "lon": -77.01196833333333, "lat": 38.900156833333334, "is_disabled": 0, "is_reserved": 0, "fusion_lat": 0.0, "fusion_lon": 0.0}, {"rental_uris": {"android": "https://dc.lft.to/lastmile_qr_scan", "ios": "https://dc.lft.to/lastmile_qr_scan"}, "bike_id": "f18ba3f2853d321a0aacb61a42a4d465", "name": "f18ba3f2853d321a0aacb61a42a4d465", "type": "electric_scooter", "lon": -77.0179815, "lat": 38.87673016666667, "is_disabled": 0, "is_reserved": 0, "fusion_lat": 0.0, "fusion_lon": 0.0}, {"rental_uris": {"android": "https://dc.lft.to/lastmile_qr_scan", "ios": "https://dc.lft.to/lastmile_qr_scan"}, "bike_id": "5342986bfaf30f1b6542409d6b03a872", "name": "5342986bfaf30f1b6542409d6b03a872", "type": "electric_scooter", "lon": -77.03252916666666, "lat": 38.918184, "is_disabled": 0, "is_reserved": 0, "fusion_lat": 0.0, "fusion_lon": 0.0}, {"rental_uris": {"android": "https://dc.lft.to/lastmile_qr_scan", "ios": "https://dc.lft.to/lastmile_qr_scan"}, "bike_id": "31d1299b722c6c66c65edd1f798775f4", "name": "31d1299b722c6c66c65edd1f798775f4", "type": "electric_scooter", "lon": -76.97715916666667, "lat": 38.8882185, "is_disabled": 0, "is_reserved": 0, "fusion_lat": 0.0, "fusion_lon": 0.0}, {"rental_uris": {"android": "https://dc.lft.to/lastmile_qr_scan", "ios": "https://dc.lft.to/lastmile_qr_scan"}, "bike_id": "c16ae936ba40294907dd1ef8f34efc7c", "name": "c16ae936ba40294907dd1ef8f34efc7c", "type": "electric_scooter", "lon": -77.039068, "lat": 38.918292666666666, "is_disabled": 0, "is_reserved": 0, "fusion_lat": 0.0, "fusion_lon": 0.0}, {"rental_uris": {"android": "https://dc.lft.to/lastmile_qr_scan", "ios": "https://dc.lft.to/lastmile_qr_scan"}, "bike_id": "2952081955f2e727bf006b3ccd8e964e", "name": "2952081955f2e727bf006b3ccd8e964e", "type": "electric_scooter", "lon": -77.03864166666666, "lat": 38.91705, "is_disabled": 0, "is_reserved": 0, "fusion_lat": 0.0, "fusion_lon": 0.0}, {"rental_uris": {"android": "https://dc.lft.to/lastmile_qr_scan", "ios": "https://dc.lft.to/lastmile_qr_scan"}, "bike_id": "b7a064769c2dcbb7a665f32477b1ff0d", "name": "b7a064769c2dcbb7a665f32477b1ff0d", "type": "electric_scooter", "lon": -77.06161883333333, "lat": 38.913008, "is_disabled": 0, "is_reserved": 0, "fusion_lat": 0.0, "fusion_lon": 0.0}, {"rental_uris": {"android": "https://dc.lft.to/lastmile_qr_scan", "ios": "https://dc.lft.to/lastmile_qr_scan"}, "bike_id": "f657e82033e41ebfe700798821f92faa", "name": "f657e82033e41ebfe700798821f92faa", "type": "electric_scooter", "lon": -77.03404716666667, "lat": 38.91699033333333, "is_disabled": 0, "is_reserved": 0, "fusion_lat": 0.0, "fusion_lon": 0.0}, {"rental_uris": {"android": "https://dc.lft.to/lastmile_qr_scan", "ios": "https://dc.lft.to/lastmile_qr_scan"}, "bike_id": "7ce384897fb7c27433be90454c81d253", "name": "7ce384897fb7c27433be90454c81d253", "type": "electric_scooter", "lon": -77.03226166666667, "lat": 38.91403783333333, "is_disabled": 0, "is_reserved": 0, "fusion_lat": 0.0, "fusion_lon": 0.0}, {"rental_uris": {"android": "https://dc.lft.to/lastmile_qr_scan", "ios": "https://dc.lft.to/lastmile_qr_scan"}, "bike_id": "f6c227f809c8b5ca63e2c577a41e431e", "name": "f6c227f809c8b5ca63e2c577a41e431e", "type": "electric_scooter", "lon": -77.03272433333333, "lat": 38.927508, "is_disabled": 0, "is_reserved": 0, "fusion_lat": 0.0, "fusion_lon": 0.0}, {"rental_uris": {"android": "https://dc.lft.to/lastmile_qr_scan", "ios": "https://dc.lft.to/lastmile_qr_scan"}, "bike_id": "104be89568a5f0e191761d7f8233ef48", "name": "104be89568a5f0e191761d7f8233ef48", "type": "electric_scooter", "lon": -77.00434216666666, "lat": 38.9124955, "is_disabled": 0, "is_reserved": 0, "fusion_lat": 0.0, "fusion_lon": 0.0}, {"rental_uris": {"android": "https://dc.lft.to/lastmile_qr_scan", "ios": "https://dc.lft.to/lastmile_qr_scan"}, "bike_id": "4ad0c4a3cccf3796e561fb94759cc29b", "name": "4ad0c4a3cccf3796e561fb94759cc29b", "type": "electric_scooter", "lon": -77.00210533333333, "lat": 38.9007655, "is_disabled": 0, "is_reserved": 0, "fusion_lat": 0.0, "fusion_lon": 0.0}, {"rental_uris": {"android": "https://dc.lft.to/lastmile_qr_scan", "ios": "https://dc.lft.to/lastmile_qr_scan"}, "bike_id": "cfc10f8c26947356681b94968e5a7ab5", "name": "cfc10f8c26947356681b94968e5a7ab5", "type": "electric_scooter", "lon": -77.032349, "lat": 38.917183666666666, "is_disabled": 0, "is_reserved": 0, "fusion_lat": 0.0, "fusion_lon": 0.0}, {"rental_uris": {"android": "https://dc.lft.to/lastmile_qr_scan", "ios": "https://dc.lft.to/lastmile_qr_scan"}, "bike_id": "f0341b4df33dcd5de8a066c459485a70", "name": "f0341b4df33dcd5de8a066c459485a70", "type": "electric_scooter", "lon": -77.00216883333333, "lat": 38.90008316666667, "is_disabled": 0, "is_reserved": 0, "fusion_lat": 0.0, "fusion_lon": 0.0}, {"rental_uris": {"android": "https://dc.lft.to/lastmile_qr_scan", "ios": "https://dc.lft.to/lastmile_qr_scan"}, "bike_id": "76b74fc638ece17806afff9afa49c51c", "name": "76b74fc638ece17806afff9afa49c51c", "type": "electric_scooter", "lon": -76.96524916666667, "lat": 38.87632166666667, "is_disabled": 0, "is_reserved": 0, "fusion_lat": 0.0, "fusion_lon": 0.0}, {"rental_uris": {"android": "https://dc.lft.to/lastmile_qr_scan", "ios": "https://dc.lft.to/lastmile_qr_scan"}, "bike_id": "e0d3e23057daca71de6b0bf21a387e02", "name": "e0d3e23057daca71de6b0bf21a387e02", "type": "electric_scooter", "lon": -77.029154, "lat": 38.898351, "is_disabled": 0, "is_reserved": 0, "fusion_lat": 0.0, "fusion_lon": 0.0}, {"rental_uris": {"android": "https://dc.lft.to/lastmile_qr_scan", "ios": "https://dc.lft.to/lastmile_qr_scan"}, "bike_id": "44ba1b4ca5ffeedef96e7343d16c47df", "name": "44ba1b4ca5ffeedef96e7343d16c47df", "type": "electric_scooter", "lon": -77.01344683333333, "lat": 38.8993725, "is_disabled": 0, "is_reserved": 0, "fusion_lat": 0.0, "fusion_lon": 0.0}, {"rental_uris": {"android": "https://dc.lft.to/lastmile_qr_scan", "ios": "https://dc.lft.to/lastmile_qr_scan"}, "bike_id": "93dba4e79a5ff3b8799f30ffcab0d71b", "name": "93dba4e79a5ff3b8799f30ffcab0d71b", "type": "electric_scooter", "lon": -77.00799616666667, "lat": 38.89718083333333, "is_disabled": 0, "is_reserved": 0, "fusion_lat": 0.0, "fusion_lon": 0.0}, {"rental_uris": {"android": "https://dc.lft.to/lastmile_qr_scan", "ios": "https://dc.lft.to/lastmile_qr_scan"}, "bike_id": "2357bf6fe3fd79d1f195f4abc1de2755", "name": "2357bf6fe3fd79d1f195f4abc1de2755", "type": "electric_scooter", "lon": -77.0437035, "lat": 38.91110166666667, "is_disabled": 0, "is_reserved": 0, "fusion_lat": 0.0, "fusion_lon": 0.0}, {"rental_uris": {"android": "https://dc.lft.to/lastmile_qr_scan", "ios": "https://dc.lft.to/lastmile_qr_scan"}, "bike_id": "465048a14c01ba2e44e31b69c65daceb", "name": "465048a14c01ba2e44e31b69c65daceb", "type": "electric_scooter", "lon": -77.0240945, "lat": 38.89254966666667, "is_disabled": 0, "is_reserved": 0, "fusion_lat": 0.0, "fusion_lon": 0.0}, {"rental_uris": {"android": "https://dc.lft.to/lastmile_qr_scan", "ios": "https://dc.lft.to/lastmile_qr_scan"}, "bike_id": "7930183f5dfc7016bb208a1b74f9dfd3", "name": "7930183f5dfc7016bb208a1b74f9dfd3", "type": "electric_scooter", "lon": -77.04659116666667, "lat": 38.909136833333335, "is_disabled": 0, "is_reserved": 0, "fusion_lat": 0.0, "fusion_lon": 0.0}, {"rental_uris": {"android": "https://dc.lft.to/lastmile_qr_scan", "ios": "https://dc.lft.to/lastmile_qr_scan"}, "bike_id": "fd43373a12c317142b998c2ed15f4923", "name": "fd43373a12c317142b998c2ed15f4923", "type": "electric_scooter", "lon": -77.0229825, "lat": 38.916679, "is_disabled": 0, "is_reserved": 0, "fusion_lat": 0.0, "fusion_lon": 0.0}, {"rental_uris": {"android": "https://dc.lft.to/lastmile_qr_scan", "ios": "https://dc.lft.to/lastmile_qr_scan"}, "bike_id": "9bcb570781ac9d22d6edbc407142f634", "name": "9bcb570781ac9d22d6edbc407142f634", "type": "electric_scooter", "lon": -77.045651, "lat": 38.9177885, "is_disabled": 0, "is_reserved": 0, "fusion_lat": 0.0, "fusion_lon": 0.0}, {"rental_uris": {"android": "https://dc.lft.to/lastmile_qr_scan", "ios": "https://dc.lft.to/lastmile_qr_scan"}, "bike_id": "06c17be14589c0739c75dd86a25b7b2c", "name": "06c17be14589c0739c75dd86a25b7b2c", "type": "electric_scooter", "lon": -77.03169933333334, "lat": 38.90019383333333, "is_disabled": 0, "is_reserved": 0, "fusion_lat": 0.0, "fusion_lon": 0.0}, {"rental_uris": {"android": "https://dc.lft.to/lastmile_qr_scan", "ios": "https://dc.lft.to/lastmile_qr_scan"}, "bike_id": "049c5ef0ba0ade6f82c6ab4cf89e335d", "name": "049c5ef0ba0ade6f82c6ab4cf89e335d", "type": "electric_scooter", "lon": -77.08188133333333, "lat": 38.935349333333335, "is_disabled": 0, "is_reserved": 0, "fusion_lat": 0.0, "fusion_lon": 0.0}, {"rental_uris": {"android": "https://dc.lft.to/lastmile_qr_scan", "ios": "https://dc.lft.to/lastmile_qr_scan"}, "bike_id": "9705d743efe2d8eb878b882338672f21", "name": "9705d743efe2d8eb878b882338672f21", "type": "electric_scooter", "lon": -77.01533783333333, "lat": 38.8874975, "is_disabled": 0, "is_reserved": 0, "fusion_lat": 0.0, "fusion_lon": 0.0}, {"rental_uris": {"android": "https://dc.lft.to/lastmile_qr_scan", "ios": "https://dc.lft.to/lastmile_qr_scan"}, "bike_id": "a28dd5dae405be13800ce94cbb3857bb", "name": "a28dd5dae405be13800ce94cbb3857bb", "type": "electric_scooter", "lon": -77.02390283333334, "lat": 38.90708383333333, "is_disabled": 0, "is_reserved": 0, "fusion_lat": 0.0, "fusion_lon": 0.0}, {"rental_uris": {"android": "https://dc.lft.to/lastmile_qr_scan", "ios": "https://dc.lft.to/lastmile_qr_scan"}, "bike_id": "0c886472183fa415ec0e62def32c89c8", "name": "0c886472183fa415ec0e62def32c89c8", "type": "electric_scooter", "lon": -77.02468683333333, "lat": 38.932992, "is_disabled": 0, "is_reserved": 0, "fusion_lat": 0.0, "fusion_lon": 0.0}, {"rental_uris": {"android": "https://dc.lft.to/lastmile_qr_scan", "ios": "https://dc.lft.to/lastmile_qr_scan"}, "bike_id": "01066be7a800aa18a5cf9c9b146c72dc", "name": "01066be7a800aa18a5cf9c9b146c72dc", "type": "electric_scooter", "lon": -77.02386183333333, "lat": 38.920035166666665, "is_disabled": 0, "is_reserved": 0, "fusion_lat": 0.0, "fusion_lon": 0.0}, {"rental_uris": {"android": "https://dc.lft.to/lastmile_qr_scan", "ios": "https://dc.lft.to/lastmile_qr_scan"}, "bike_id": "6bb98bf86ca5d8f903e3be1a08df1216", "name": "6bb98bf86ca5d8f903e3be1a08df1216", "type": "electric_scooter", "lon": -77.04068283333334, "lat": 38.9025825, "is_disabled": 0, "is_reserved": 0, "fusion_lat": 0.0, "fusion_lon": 0.0}, {"rental_uris": {"android": "https://dc.lft.to/lastmile_qr_scan", "ios": "https://dc.lft.to/lastmile_qr_scan"}, "bike_id": "62b15f1b8eccd5fdb1d5f9f36fbe7e92", "name": "62b15f1b8eccd5fdb1d5f9f36fbe7e92", "type": "electric_scooter", "lon": -77.00873766666666, "lat": 38.876545666666665, "is_disabled": 0, "is_reserved": 0, "fusion_lat": 0.0, "fusion_lon": 0.0}, {"rental_uris": {"android": "https://dc.lft.to/lastmile_qr_scan", "ios": "https://dc.lft.to/lastmile_qr_scan"}, "bike_id": "e263ddf948f4a6d0b1c84099a6dbfb69", "name": "e263ddf948f4a6d0b1c84099a6dbfb69", "type": "electric_scooter", "lon": -77.034643, "lat": 38.915466333333335, "is_disabled": 0, "is_reserved": 0, "fusion_lat": 0.0, "fusion_lon": 0.0}, {"rental_uris": {"android": "https://dc.lft.to/lastmile_qr_scan", "ios": "https://dc.lft.to/lastmile_qr_scan"}, "bike_id": "ecdc5022f3e20a5b013b33a3fd93e722", "name": "ecdc5022f3e20a5b013b33a3fd93e722", "type": "electric_scooter", "lon": -76.9898785, "lat": 38.865033333333336, "is_disabled": 0, "is_reserved": 0, "fusion_lat": 0.0, "fusion_lon": 0.0}, {"rental_uris": {"android": "https://dc.lft.to/lastmile_qr_scan", "ios": "https://dc.lft.to/lastmile_qr_scan"}, "bike_id": "9e4369b253c836f18bd54a11dbc0f11d", "name": "9e4369b253c836f18bd54a11dbc0f11d", "type": "electric_scooter", "lon": -77.0009575, "lat": 38.9201985, "is_disabled": 0, "is_reserved": 0, "fusion_lat": 0.0, "fusion_lon": 0.0}, {"rental_uris": {"android": "https://dc.lft.to/lastmile_qr_scan", "ios": "https://dc.lft.to/lastmile_qr_scan"}, "bike_id": "b9bfe7d426a7d820c44406039996d133", "name": "b9bfe7d426a7d820c44406039996d133", "type": "electric_scooter", "lon": -77.032735, "lat": 38.92745033333333, "is_disabled": 0, "is_reserved": 0, "fusion_lat": 0.0, "fusion_lon": 0.0}, {"rental_uris": {"android": "https://dc.lft.to/lastmile_qr_scan", "ios": "https://dc.lft.to/lastmile_qr_scan"}, "bike_id": "43412ec39b32b86fe165ee3db13cb468", "name": "43412ec39b32b86fe165ee3db13cb468", "type": "electric_scooter", "lon": -77.03628116666667, "lat": 38.93671833333333, "is_disabled": 0, "is_reserved": 0, "fusion_lat": 0.0, "fusion_lon": 0.0}, {"rental_uris": {"android": "https://dc.lft.to/lastmile_qr_scan", "ios": "https://dc.lft.to/lastmile_qr_scan"}, "bike_id": "a0dc29e897f7f5d2494580d0d454fad2", "name": "a0dc29e897f7f5d2494580d0d454fad2", "type": "electric_scooter", "lon": -77.02730183333334, "lat": 38.89628166666667, "is_disabled": 0, "is_reserved": 0, "fusion_lat": 0.0, "fusion_lon": 0.0}, {"rental_uris": {"android": "https://dc.lft.to/lastmile_qr_scan", "ios": "https://dc.lft.to/lastmile_qr_scan"}, "bike_id": "9e585de89ea71bd573f31b3e7157a8ba", "name": "9e585de89ea71bd573f31b3e7157a8ba", "type": "electric_scooter", "lon": -77.036059, "lat": 38.92856916666667, "is_disabled": 0, "is_reserved": 0, "fusion_lat": 0.0, "fusion_lon": 0.0}, {"rental_uris": {"android": "https://dc.lft.to/lastmile_qr_scan", "ios": "https://dc.lft.to/lastmile_qr_scan"}, "bike_id": "cc7d230b7b3a1b72ef049af5ffe05f3f", "name": "cc7d230b7b3a1b72ef049af5ffe05f3f", "type": "electric_scooter", "lon": -77.02100016666667, "lat": 38.931195333333335, "is_disabled": 0, "is_reserved": 0, "fusion_lat": 0.0, "fusion_lon": 0.0}, {"rental_uris": {"android": "https://dc.lft.to/lastmile_qr_scan", "ios": "https://dc.lft.to/lastmile_qr_scan"}, "bike_id": "c424a306e8ee7dac86902b699a879ee5", "name": "c424a306e8ee7dac86902b699a879ee5", "type": "electric_bike", "lon": -77.1071205, "lat": 38.8556265, "is_disabled": 0, "is_reserved": 0, "fusion_lat": 0.0, "fusion_lon": 0.0}, {"rental_uris": {"android": "https://dc.lft.to/lastmile_qr_scan", "ios": "https://dc.lft.to/lastmile_qr_scan"}, "bike_id": "7502873c078fe3826a666d1b432ddebe", "name": "7502873c078fe3826a666d1b432ddebe", "type": "electric_scooter", "lon": -77.0154565, "lat": 38.89221633333333, "is_disabled": 0, "is_reserved": 0, "fusion_lat": 0.0, "fusion_lon": 0.0}, {"rental_uris": {"android": "https://dc.lft.to/lastmile_qr_scan", "ios": "https://dc.lft.to/lastmile_qr_scan"}, "bike_id": "b5278cb4f4d3f52f316c98039136ad1a", "name": "b5278cb4f4d3f52f316c98039136ad1a", "type": "electric_scooter", "lon": -77.02307683333333, "lat": 38.915747, "is_disabled": 0, "is_reserved": 0, "fusion_lat": 0.0, "fusion_lon": 0.0}, {"rental_uris": {"android": "https://dc.lft.to/lastmile_qr_scan", "ios": "https://dc.lft.to/lastmile_qr_scan"}, "bike_id": "c21a1246ca093e88a2a07426b1de5a60", "name": "c21a1246ca093e88a2a07426b1de5a60", "type": "electric_scooter", "lon": -76.99513333333333, "lat": 38.86258616666667, "is_disabled": 0, "is_reserved": 0, "fusion_lat": 0.0, "fusion_lon": 0.0}, {"rental_uris": {"android": "https://dc.lft.to/lastmile_qr_scan", "ios": "https://dc.lft.to/lastmile_qr_scan"}, "bike_id": "d664dfedb5c97a2e386aa00e7b0d668e", "name": "d664dfedb5c97a2e386aa00e7b0d668e", "type": "electric_scooter", "lon": -77.03825216666667, "lat": 38.918226833333335, "is_disabled": 0, "is_reserved": 0, "fusion_lat": 0.0, "fusion_lon": 0.0}, {"rental_uris": {"android": "https://dc.lft.to/lastmile_qr_scan", "ios": "https://dc.lft.to/lastmile_qr_scan"}, "bike_id": "0c14c043a29e1226189d589e31af88bb", "name": "0c14c043a29e1226189d589e31af88bb", "type": "electric_scooter", "lon": -76.95122116666667, "lat": 38.8878715, "is_disabled": 0, "is_reserved": 0, "fusion_lat": 0.0, "fusion_lon": 0.0}, {"rental_uris": {"android": "https://dc.lft.to/lastmile_qr_scan", "ios": "https://dc.lft.to/lastmile_qr_scan"}, "bike_id": "bb5d6da4c5e757c98b85c30a865c1a14", "name": "bb5d6da4c5e757c98b85c30a865c1a14", "type": "electric_scooter", "lon": -77.044095, "lat": 38.9201455, "is_disabled": 0, "is_reserved": 0, "fusion_lat": 0.0, "fusion_lon": 0.0}, {"rental_uris": {"android": "https://dc.lft.to/lastmile_qr_scan", "ios": "https://dc.lft.to/lastmile_qr_scan"}, "bike_id": "0245f23cead0df12c3dbec1df346fe2f", "name": "0245f23cead0df12c3dbec1df346fe2f", "type": "electric_scooter", "lon": -77.006183, "lat": 38.871941666666665, "is_disabled": 0, "is_reserved": 0, "fusion_lat": 0.0, "fusion_lon": 0.0}, {"rental_uris": {"android": "https://dc.lft.to/lastmile_qr_scan", "ios": "https://dc.lft.to/lastmile_qr_scan"}, "bike_id": "cb8a3a1125f05d0725b3e38cf9ee3a40", "name": "cb8a3a1125f05d0725b3e38cf9ee3a40", "type": "electric_scooter", "lon": -76.94960483333334, "lat": 38.90490416666667, "is_disabled": 0, "is_reserved": 0, "fusion_lat": 0.0, "fusion_lon": 0.0}, {"rental_uris": {"android": "https://dc.lft.to/lastmile_qr_scan", "ios": "https://dc.lft.to/lastmile_qr_scan"}, "bike_id": "e27724fe013b4b9c8f2fe249aaada887", "name": "e27724fe013b4b9c8f2fe249aaada887", "type": "electric_scooter", "lon": -77.03799133333334, "lat": 38.93056166666667, "is_disabled": 0, "is_reserved": 0, "fusion_lat": 0.0, "fusion_lon": 0.0}, {"rental_uris": {"android": "https://dc.lft.to/lastmile_qr_scan", "ios": "https://dc.lft.to/lastmile_qr_scan"}, "bike_id": "f575d8c19a46c19d54d307896a8c2858", "name": "f575d8c19a46c19d54d307896a8c2858", "type": "electric_bike", "lon": -76.975924, "lat": 38.9033505, "is_disabled": 0, "is_reserved": 0, "fusion_lat": 0.0, "fusion_lon": 0.0}, {"rental_uris": {"android": "https://dc.lft.to/lastmile_qr_scan", "ios": "https://dc.lft.to/lastmile_qr_scan"}, "bike_id": "4b8e613868297a8dc7bfe8225c1cde7c", "name": "4b8e613868297a8dc7bfe8225c1cde7c", "type": "electric_scooter", "lon": -77.07262766666666, "lat": 38.93489666666667, "is_disabled": 0, "is_reserved": 0, "fusion_lat": 0.0, "fusion_lon": 0.0}, {"rental_uris": {"android": "https://dc.lft.to/lastmile_qr_scan", "ios": "https://dc.lft.to/lastmile_qr_scan"}, "bike_id": "7b0b7baa53ac9d918d165bc92cb5d26c", "name": "7b0b7baa53ac9d918d165bc92cb5d26c", "type": "electric_scooter", "lon": -77.0265305, "lat": 38.900132, "is_disabled": 0, "is_reserved": 0, "fusion_lat": 0.0, "fusion_lon": 0.0}, {"rental_uris": {"android": "https://dc.lft.to/lastmile_qr_scan", "ios": "https://dc.lft.to/lastmile_qr_scan"}, "bike_id": "6e55c705d4f482006e344b612a8a0ace", "name": "6e55c705d4f482006e344b612a8a0ace", "type": "electric_scooter", "lon": -77.04204633333333, "lat": 38.922977, "is_disabled": 0, "is_reserved": 0, "fusion_lat": 0.0, "fusion_lon": 0.0}, {"rental_uris": {"android": "https://dc.lft.to/lastmile_qr_scan", "ios": "https://dc.lft.to/lastmile_qr_scan"}, "bike_id": "be6e626e7ea89255bf5bab2222f9b760", "name": "be6e626e7ea89255bf5bab2222f9b760", "type": "electric_scooter", "lon": -77.031228, "lat": 38.91492783333333, "is_disabled": 0, "is_reserved": 0, "fusion_lat": 0.0, "fusion_lon": 0.0}, {"rental_uris": {"android": "https://dc.lft.to/lastmile_qr_scan", "ios": "https://dc.lft.to/lastmile_qr_scan"},