{"data": {"bikes": [{"is_disabled": 0, "fusion_lon": 0.0, "fusion_lat": 0.0, "lat": 38.889930666666665, "type": "electric_scooter", "lon": -77.0005005, "bike_id": "eb3e4b3ef2ca69d3582abe87cff26e0c", "rental_uris": {"android": "https://dc.lft.to/lastmile_qr_scan", "ios": "https://dc.lft.to/lastmile_qr_scan"}, "name": "eb3e4b3ef2ca69d3582abe87cff26e0c", "is_reserved": 0}, {"is_disabled": 0, "fusion_lon": 0.0, "fusion_lat": 0.0, "lat": 39.0520495, "type": "electric_bike", "lon": -77.04406666666667, "bike_id": "3a453e6bb841c812c7de2fd68d2efdf5", "rental_uris": {"android": "https://dc.lft.to/lastmile_qr_scan", "ios": "https://dc.lft.to/lastmile_qr_scan"}, "name": "3a453e6bb841c812c7de2fd68d2efdf5", "is_reserved": 0}, {"is_disabled": 0, "fusion_lon": 0.0, "fusion_lat": 0.0, "lat": 38.897976166666666, "type": "electric_scooter", "lon": -77.02379683333334, "bike_id": "a288c0d3006f02046963016165160bc9", "rental_uris": {"android": "https://dc.lft.to/lastmile_qr_scan", "ios": "https://dc.lft.to/lastmile_qr_scan"}, "name": "a288c0d3006f02046963016165160bc9", "is_reserved": 0}, {"is_disabled": 0, "fusion_lon": 0.0, "fusion_lat": 0.0, "lat": 38.91849933333334, "type": "electric_scooter", "lon": -77.024529, "bike_id": "c192ac4f3fd523b060b9ca047727c8b1", "rental_uris": {"android": "https://dc.lft.to/lastmile_qr_scan", "ios": "https://dc.lft.to/lastmile_qr_scan"}, "name": "c192ac4f3fd523b060b9ca047727c8b1", "is_reserved": 0}, {"is_disabled": 0, "fusion_lon": 0.0, "fusion_lat": 0.0, "lat": 38.9055215, "type": "electric_scooter", "lon": -77.02200333333333, "bike_id": "9596fbc6a3fbd7487135b03b81303779", "rental_uris": {"android": "https://dc.lft.to/lastmile_qr_scan", "ios": "https://dc.lft.to/lastmile_qr_scan"}, "name": "9596fbc6a3fbd7487135b03b81303779", "is_reserved": 0}, {"is_disabled": 0, "fusion_lon": 0.0, "fusion_lat": 0.0, "lat": 38.897298166666666, "type": "electric_bike", "lon": -76.90543866666667, "bike_id": "b6eaf2f484ed2ad6ae7f495c1a1ffa87", "rental_uris": {"android": "https://dc.lft.to/lastmile_qr_scan", "ios": "https://dc.lft.to/lastmile_qr_scan"}, "name": "b6eaf2f484ed2ad6ae7f495c1a1ffa87", "is_reserved": 0}, {"is_disabled": 0, "fusion_lon": 0.0, "fusion_lat": 0.0, "lat": 38.968155333333335, "type": "electric_scooter", "lon": -77.0088895, "bike_id": "4630d5202ca46da57b24ce369bfa6505", "rental_uris": {"android": "https://dc.lft.to/lastmile_qr_scan", "ios": "https://dc.lft.to/lastmile_qr_scan"}, "name": "4630d5202ca46da57b24ce369bfa6505", "is_reserved": 0}, {"is_disabled": 0, "fusion_lon": 0.0, "fusion_lat": 0.0, "lat": 38.94101716666667, "type": "electric_scooter", "lon": -77.07722883333334, "bike_id": "1aa919b81b6e3c1b06423feb03bb0290", "rental_uris": {"android": "https://dc.lft.to/lastmile_qr_scan", "ios": "https://dc.lft.to/lastmile_qr_scan"}, "name": "1aa919b81b6e3c1b06423feb03bb0290", "is_reserved": 0}, {"is_disabled": 0, "fusion_lon": 0.0, "fusion_lat": 0.0, "lat": 38.903882333333335, "type": "electric_scooter", "lon": -77.0047155, "bike_id": "d53ec54b8ee160d5fb1c01c7f8ba25a7", "rental_uris": {"android": "https://dc.lft.to/lastmile_qr_scan", "ios": "https://dc.lft.to/lastmile_qr_scan"}, "name": "d53ec54b8ee160d5fb1c01c7f8ba25a7", "is_reserved": 0}, {"is_disabled": 0, "fusion_lon": 0.0, "fusion_lat": 0.0, "lat": 38.93219766666667, "type": "electric_scooter", "lon": -76.995344, "bike_id": "3c6500294133abbf94bb38ba521c3198", "rental_uris": {"android": "https://dc.lft.to/lastmile_qr_scan", "ios": "https://dc.lft.to/lastmile_qr_scan"}, "name": "3c6500294133abbf94bb38ba521c3198", "is_reserved": 0}, {"is_disabled": 0, "fusion_lon": 0.0, "fusion_lat": 0.0, "lat": 38.90035666666667, "type": "electric_scooter", "lon": -76.99273016666666, "bike_id": "e18a383ddaab53421dab9465248334d5", "rental_uris": {"android": "https://dc.lft.to/lastmile_qr_scan", "ios": "https://dc.lft.to/lastmile_qr_scan"}, "name": "e18a383ddaab53421dab9465248334d5", "is_reserved": 0}, {"is_disabled": 0, "fusion_lon": 0.0, "fusion_lat": 0.0, "lat": 38.922215, "type": "electric_scooter", "lon": -77.04246633333334, "bike_id": "81f69ad5d02cec851b074b2dbcba379b", "rental_uris": {"android": "https://dc.lft.to/lastmile_qr_scan", "ios": "https://dc.lft.to/lastmile_qr_scan"}, "name": "81f69ad5d02cec851b074b2dbcba379b", "is_reserved": 0}, {"is_disabled": 0, "fusion_lon": 0.0, "fusion_lat": 0.0, "lat": 39.0959105, "type": "electric_bike", "lon": -77.14775516666667, "bike_id": "155bc50f3db462ef529f2ecf4720aa95", "rental_uris": {"android": "https://dc.lft.to/lastmile_qr_scan", "ios": "https://dc.lft.to/lastmile_qr_scan"}, "name": "155bc50f3db462ef529f2ecf4720aa95", "is_reserved": 0}, {"is_disabled": 0, "fusion_lon": 0.0, "fusion_lat": 0.0, "lat": 38.85536883333333, "type": "electric_bike", "lon": -77.10711533333334, "bike_id": "bb31793d5e4d40a3bf15c33e02b2be9d", "rental_uris": {"android": "https://dc.lft.to/lastmile_qr_scan", "ios": "https://dc.lft.to/lastmile_qr_scan"}, "name": "bb31793d5e4d40a3bf15c33e02b2be9d", "is_reserved": 0}, {"is_disabled": 0, "fusion_lon": 0.0, "fusion_lat": 0.0, "lat": 38.999342666666664, "type": "electric_bike", "lon": -77.001213, "bike_id": "376eac2159c1a54bbe68e7fb96921c5d", "rental_uris": {"android": "https://dc.lft.to/lastmile_qr_scan", "ios": "https://dc.lft.to/lastmile_qr_scan"}, "name": "376eac2159c1a54bbe68e7fb96921c5d", "is_reserved": 0}, {"is_disabled": 0, "fusion_lon": 0.0, "fusion_lat": 0.0, "lat": 38.90033616666667, "type": "electric_scooter", "lon": -77.00202983333334, "bike_id": "a6a94211e54005d512138b4d66785074", "rental_uris": {"android": "https://dc.lft.to/lastmile_qr_scan", "ios": "https://dc.lft.to/lastmile_qr_scan"}, "name": "a6a94211e54005d512138b4d66785074", "is_reserved": 0}, {"is_disabled": 0, "fusion_lon": 0.0, "fusion_lat": 0.0, "lat": 38.89504516666667, "type": "electric_scooter", "lon": -76.94878866666667, "bike_id": "53f61351c60842e3a0ad9825b0246506", "rental_uris": {"android": "https://dc.lft.to/lastmile_qr_scan", "ios": "https://dc.lft.to/lastmile_qr_scan"}, "name": "53f61351c60842e3a0ad9825b0246506", "is_reserved": 0}, {"is_disabled": 0, "fusion_lon": 0.0, "fusion_lat": 0.0, "lat": 38.86351916666667, "type": "electric_scooter", "lon": -76.99065683333333, "bike_id": "a53223cf6ac565513b33cab4b486d104", "rental_uris": {"android": "https://dc.lft.to/lastmile_qr_scan", "ios": "https://dc.lft.to/lastmile_qr_scan"}, "name": "a53223cf6ac565513b33cab4b486d104", "is_reserved": 0}, {"is_disabled": 0, "fusion_lon": 0.0, "fusion_lat": 0.0, "lat": 38.91937133333333, "type": "electric_scooter", "lon": -77.0813105, "bike_id": "29d36355460ce70dfba01afa446be037", "rental_uris": {"android": "https://dc.lft.to/lastmile_qr_scan", "ios": "https://dc.lft.to/lastmile_qr_scan"}, "name": "29d36355460ce70dfba01afa446be037", "is_reserved": 0}, {"is_disabled": 0, "fusion_lon": 0.0, "fusion_lat": 0.0, "lat": 38.900055333333334, "type": "electric_scooter", "lon": -77.03978416666666, "bike_id": "e4a4d4770b335bd40092242f7f14d77a", "rental_uris": {"android": "https://dc.lft.to/lastmile_qr_scan", "ios": "https://dc.lft.to/lastmile_qr_scan"}, "name": "e4a4d4770b335bd40092242f7f14d77a", "is_reserved": 0}, {"is_disabled": 0, "fusion_lon": 0.0, "fusion_lat": 0.0, "lat": 38.9029645, "type": "electric_scooter", "lon": -77.02115983333333, "bike_id": "59ac43b78efa3cf1eed3257d0448fc0b", "rental_uris": {"android": "https://dc.lft.to/lastmile_qr_scan", "ios": "https://dc.lft.to/lastmile_qr_scan"}, "name": "59ac43b78efa3cf1eed3257d0448fc0b", "is_reserved": 0}, {"is_disabled": 0, "fusion_lon": 0.0, "fusion_lat": 0.0, "lat": 38.91705616666667, "type": "electric_scooter", "lon": -77.034682, "bike_id": "39eab2acd40857554dbcc6dde80f1b71", "rental_uris": {"android": "https://dc.lft.to/lastmile_qr_scan", "ios": "https://dc.lft.to/lastmile_qr_scan"}, "name": "39eab2acd40857554dbcc6dde80f1b71", "is_reserved": 0}, {"is_disabled": 0, "fusion_lon": 0.0, "fusion_lat": 0.0, "lat": 38.929648666666665, "type": "electric_bike", "lon": -77.05631366666667, "bike_id": "c139f7388bf5802757735385f552a79a", "rental_uris": {"android": "https://dc.lft.to/lastmile_qr_scan", "ios": "https://dc.lft.to/lastmile_qr_scan"}, "name": "c139f7388bf5802757735385f552a79a", "is_reserved": 0}, {"is_disabled": 0, "fusion_lon": 0.0, "fusion_lat": 0.0, "lat": 38.9026035, "type": "electric_scooter", "lon": -77.04063766666667, "bike_id": "f2ca5261f5c4431eb3f8ae548e0a255a", "rental_uris": {"android": "https://dc.lft.to/lastmile_qr_scan", "ios": "https://dc.lft.to/lastmile_qr_scan"}, "name": "f2ca5261f5c4431eb3f8ae548e0a255a", "is_reserved": 0}, {"is_disabled": 0, "fusion_lon": 0.0, "fusion_lat": 0.0, "lat": 38.93751066666667, "type": "electric_scooter", "lon": -77.024929, "bike_id": "65ca79cfd184ae832da40720c8059267", "rental_uris": {"android": "https://dc.lft.to/lastmile_qr_scan", "ios": "https://dc.lft.to/lastmile_qr_scan"}, "name": "65ca79cfd184ae832da40720c8059267", "is_reserved": 0}, {"is_disabled": 0, "fusion_lon": 0.0, "fusion_lat": 0.0, "lat": 38.8731955, "type": "electric_scooter", "lon": -77.00183866666667, "bike_id": "88d1fc254e2305b149982752a5bfa895", "rental_uris": {"android": "https://dc.lft.to/lastmile_qr_scan", "ios": "https://dc.lft.to/lastmile_qr_scan"}, "name": "88d1fc254e2305b149982752a5bfa895", "is_reserved": 0}, {"is_disabled": 0, "fusion_lon": 0.0, "fusion_lat": 0.0, "lat": 38.897374666666664, "type": "electric_scooter", "lon": -77.02252083333333, "bike_id": "093ba3fdb4f17e0a3bf031bba1aa7c69", "rental_uris": {"android": "https://dc.lft.to/lastmile_qr_scan", "ios": "https://dc.lft.to/lastmile_qr_scan"}, "name": "093ba3fdb4f17e0a3bf031bba1aa7c69", "is_reserved": 0}, {"is_disabled": 0, "fusion_lon": 0.0, "fusion_lat": 0.0, "lat": 38.909537666666665, "type": "electric_scooter", "lon": -77.04768916666667, "bike_id": "f1821298748b65f1836ebfc66f828917", "rental_uris": {"android": "https://dc.lft.to/lastmile_qr_scan", "ios": "https://dc.lft.to/lastmile_qr_scan"}, "name": "f1821298748b65f1836ebfc66f828917", "is_reserved": 0}, {"is_disabled": 0, "fusion_lon": 0.0, "fusion_lat": 0.0, "lat": 38.915543, "type": "electric_scooter", "lon": -77.020429, "bike_id": "8e6a33a5e0eef6aa12350d3e3e225f76", "rental_uris": {"android": "https://dc.lft.to/lastmile_qr_scan", "ios": "https://dc.lft.to/lastmile_qr_scan"}, "name": "8e6a33a5e0eef6aa12350d3e3e225f76", "is_reserved": 0}, {"is_disabled": 0, "fusion_lon": 0.0, "fusion_lat": 0.0, "lat": 38.926810833333334, "type": "electric_scooter", "lon": -77.030932, "bike_id": "4e6a098fb4edaca96dc3d6d337ab6c10", "rental_uris": {"android": "https://dc.lft.to/lastmile_qr_scan", "ios": "https://dc.lft.to/lastmile_qr_scan"}, "name": "4e6a098fb4edaca96dc3d6d337ab6c10", "is_reserved": 0}, {"is_disabled": 0, "fusion_lon": 0.0, "fusion_lat": 0.0, "lat": 38.91333933333333, "type": "electric_scooter", "lon": -77.032479, "bike_id": "6ef8a4a8eb2dd11bb0a6e55dfaa4d731", "rental_uris": {"android": "https://dc.lft.to/lastmile_qr_scan", "ios": "https://dc.lft.to/lastmile_qr_scan"}, "name": "6ef8a4a8eb2dd11bb0a6e55dfaa4d731", "is_reserved": 0}, {"is_disabled": 0, "fusion_lon": 0.0, "fusion_lat": 0.0, "lat": 38.891913333333335, "type": "electric_scooter", "lon": -76.98829066666667, "bike_id": "4eb3b418fa887b254ba602effa81f6cd", "rental_uris": {"android": "https://dc.lft.to/lastmile_qr_scan", "ios": "https://dc.lft.to/lastmile_qr_scan"}, "name": "4eb3b418fa887b254ba602effa81f6cd", "is_reserved": 0}, {"is_disabled": 0, "fusion_lon": 0.0, "fusion_lat": 0.0, "lat": 38.955641166666666, "type": "electric_scooter", "lon": -77.07028, "bike_id": "554b58568ccd0cef2e407dd6d6b866ed", "rental_uris": {"android": "https://dc.lft.to/lastmile_qr_scan", "ios": "https://dc.lft.to/lastmile_qr_scan"}, "name": "554b58568ccd0cef2e407dd6d6b866ed", "is_reserved": 0}, {"is_disabled": 0, "fusion_lon": 0.0, "fusion_lat": 0.0, "lat": 38.91611233333333, "type": "electric_scooter", "lon": -77.03120116666666, "bike_id": "5d0348701411914bf516cfa72ba85258", "rental_uris": {"android": "https://dc.lft.to/lastmile_qr_scan", "ios": "https://dc.lft.to/lastmile_qr_scan"}, "name": "5d0348701411914bf516cfa72ba85258", "is_reserved": 0}, {"is_disabled": 0, "fusion_lon": 0.0, "fusion_lat": 0.0, "lat": 38.92768133333333, "type": "electric_scooter", "lon": -77.02843733333333, "bike_id": "bf7bd390f51d6f03b5ab59c6c34ac70f", "rental_uris": {"android": "https://dc.lft.to/lastmile_qr_scan", "ios": "https://dc.lft.to/lastmile_qr_scan"}, "name": "bf7bd390f51d6f03b5ab59c6c34ac70f", "is_reserved": 0}, {"is_disabled": 0, "fusion_lon": 0.0, "fusion_lat": 0.0, "lat": 38.95957683333334, "type": "electric_bike", "lon": -77.02512683333333, "bike_id": "5f152a8a3832a6d0c5237b22e3c359cd", "rental_uris": {"android": "https://dc.lft.to/lastmile_qr_scan", "ios": "https://dc.lft.to/lastmile_qr_scan"}, "name": "5f152a8a3832a6d0c5237b22e3c359cd", "is_reserved": 0}, {"is_disabled": 0, "fusion_lon": 0.0, "fusion_lat": 0.0, "lat": 38.858070166666664, "type": "electric_scooter", "lon": -76.9865315, "bike_id": "3a5ee621e3b52cba899286144835da1f", "rental_uris": {"android": "https://dc.lft.to/lastmile_qr_scan", "ios": "https://dc.lft.to/lastmile_qr_scan"}, "name": "3a5ee621e3b52cba899286144835da1f", "is_reserved": 0}, {"is_disabled": 0, "fusion_lon": 0.0, "fusion_lat": 0.0, "lat": 38.911852833333334, "type": "electric_scooter", "lon": -77.0349795, "bike_id": "a066e685d8edbbbc60d04b2928083e64", "rental_uris": {"android": "https://dc.lft.to/lastmile_qr_scan", "ios": "https://dc.lft.to/lastmile_qr_scan"}, "name": "a066e685d8edbbbc60d04b2928083e64", "is_reserved": 0}, {"is_disabled": 0, "fusion_lon": 0.0, "fusion_lat": 0.0, "lat": 38.895318333333336, "type": "electric_scooter", "lon": -77.01128566666667, "bike_id": "96e634e0315c07cf83a1b0b623f26e29", "rental_uris": {"android": "https://dc.lft.to/lastmile_qr_scan", "ios": "https://dc.lft.to/lastmile_qr_scan"}, "name": "96e634e0315c07cf83a1b0b623f26e29", "is_reserved": 0}, {"is_disabled": 0, "fusion_lon": 0.0, "fusion_lat": 0.0, "lat": 38.926056833333334, "type": "electric_scooter", "lon": -77.0570465, "bike_id": "f5c187d976bfc5d7da27b0c6fd6df641", "rental_uris": {"android": "https://dc.lft.to/lastmile_qr_scan", "ios": "https://dc.lft.to/lastmile_qr_scan"}, "name": "f5c187d976bfc5d7da27b0c6fd6df641", "is_reserved": 0}, {"is_disabled": 0, "fusion_lon": 0.0, "fusion_lat": 0.0, "lat": 38.906825833333336, "type": "electric_scooter", "lon": -76.98000433333333, "bike_id": "fbe2d5bf0ebf6b90c32dbdf294491286", "rental_uris": {"android": "https://dc.lft.to/lastmile_qr_scan", "ios": "https://dc.lft.to/lastmile_qr_scan"}, "name": "fbe2d5bf0ebf6b90c32dbdf294491286", "is_reserved": 0}, {"is_disabled": 0, "fusion_lon": 0.0, "fusion_lat": 0.0, "lat": 38.90881133333333, "type": "electric_scooter", "lon": -77.03534466666666, "bike_id": "5487446140675ad5b0d41d242b39f983", "rental_uris": {"android": "https://dc.lft.to/lastmile_qr_scan", "ios": "https://dc.lft.to/lastmile_qr_scan"}, "name": "5487446140675ad5b0d41d242b39f983", "is_reserved": 0}, {"is_disabled": 0, "fusion_lon": 0.0, "fusion_lat": 0.0, "lat": 38.901456333333336, "type": "electric_scooter", "lon": -77.02277566666666, "bike_id": "3dd5300264ee3a770190c488c7db5ce3", "rental_uris": {"android": "https://dc.lft.to/lastmile_qr_scan", "ios": "https://dc.lft.to/lastmile_qr_scan"}, "name": "3dd5300264ee3a770190c488c7db5ce3", "is_reserved": 0}, {"is_disabled": 0, "fusion_lon": 0.0, "fusion_lat": 0.0, "lat": 38.8960745, "type": "electric_scooter", "lon": -77.00927816666666, "bike_id": "b420dc52fc7d7a2df640ee8944f2148a", "rental_uris": {"android": "https://dc.lft.to/lastmile_qr_scan", "ios": "https://dc.lft.to/lastmile_qr_scan"}, "name": "b420dc52fc7d7a2df640ee8944f2148a", "is_reserved": 0}, {"is_disabled": 0, "fusion_lon": 0.0, "fusion_lat": 0.0, "lat": 38.942044833333334, "type": "electric_scooter", "lon": -77.02587933333334, "bike_id": "8b521604f056c0e32c39ec2e9f61463f", "rental_uris": {"android": "https://dc.lft.to/lastmile_qr_scan", "ios": "https://dc.lft.to/lastmile_qr_scan"}, "name": "8b521604f056c0e32c39ec2e9f61463f", "is_reserved": 0}, {"is_disabled": 0, "fusion_lon": 0.0, "fusion_lat": 0.0, "lat": 38.949813166666665, "type": "electric_scooter", "lon": -77.02705666666667, "bike_id": "8eaac958cb0ed2070c147874e2f69f74", "rental_uris": {"android": "https://dc.lft.to/lastmile_qr_scan", "ios": "https://dc.lft.to/lastmile_qr_scan"}, "name": "8eaac958cb0ed2070c147874e2f69f74", "is_reserved": 0}, {"is_disabled": 0, "fusion_lon": 0.0, "fusion_lat": 0.0, "lat": 38.962205, "type": "electric_scooter", "lon": -77.02800633333334, "bike_id": "dce3f6d2ce40ab56e8d59f52fac1482d", "rental_uris": {"android": "https://dc.lft.to/lastmile_qr_scan", "ios": "https://dc.lft.to/lastmile_qr_scan"}, "name": "dce3f6d2ce40ab56e8d59f52fac1482d", "is_reserved": 0}, {"is_disabled": 0, "fusion_lon": 0.0, "fusion_lat": 0.0, "lat": 38.90900533333333, "type": "electric_scooter", "lon": -77.02597133333333, "bike_id": "8d498a84a1d1ae7ed5c2219b6cec4f54", "rental_uris": {"android": "https://dc.lft.to/lastmile_qr_scan", "ios": "https://dc.lft.to/lastmile_qr_scan"}, "name": "8d498a84a1d1ae7ed5c2219b6cec4f54", "is_reserved": 0}, {"is_disabled": 0, "fusion_lon": 0.0, "fusion_lat": 0.0, "lat": 38.89512333333333, "type": "electric_scooter", "lon": -77.02291, "bike_id": "5a7547050cfe3c3f9d5fb5b4b71826a1", "rental_uris": {"android": "https://dc.lft.to/lastmile_qr_scan", "ios": "https://dc.lft.to/lastmile_qr_scan"}, "name": "5a7547050cfe3c3f9d5fb5b4b71826a1", "is_reserved": 0}, {"is_disabled": 0, "fusion_lon": 0.0, "fusion_lat": 0.0, "lat": 38.860391, "type": "electric_scooter", "lon": -76.98372766666667, "bike_id": "7e236d4e77854190f5312b296910f33b", "rental_uris": {"android": "https://dc.lft.to/lastmile_qr_scan", "ios": "https://dc.lft.to/lastmile_qr_scan"}, "name": "7e236d4e77854190f5312b296910f33b", "is_reserved": 0}, {"is_disabled": 0, "fusion_lon": 0.0, "fusion_lat": 0.0, "lat": 38.9613165, "type": "electric_scooter", "lon": -77.02810966666667, "bike_id": "a48e5804ebf1d269cf22323adf93fc85", "rental_uris": {"android": "https://dc.lft.to/lastmile_qr_scan", "ios": "https://dc.lft.to/lastmile_qr_scan"}, "name": "a48e5804ebf1d269cf22323adf93fc85", "is_reserved": 0}, {"is_disabled": 0, "fusion_lon": 0.0, "fusion_lat": 0.0, "lat": 38.86523533333333, "type": "electric_scooter", "lon": -76.97336666666666, "bike_id": "0449950f17175486499df39a4cf05753", "rental_uris": {"android": "https://dc.lft.to/lastmile_qr_scan", "ios": "https://dc.lft.to/lastmile_qr_scan"}, "name": "0449950f17175486499df39a4cf05753", "is_reserved": 0}, {"is_disabled": 0, "fusion_lon": 0.0, "fusion_lat": 0.0, "lat": 38.920362, "type": "electric_scooter", "lon": -77.02424383333333, "bike_id": "4f0f6901667157a9a5885833b122479c", "rental_uris": {"android": "https://dc.lft.to/lastmile_qr_scan", "ios": "https://dc.lft.to/lastmile_qr_scan"}, "name": "4f0f6901667157a9a5885833b122479c", "is_reserved": 0}, {"is_disabled": 0, "fusion_lon": 0.0, "fusion_lat": 0.0, "lat": 38.84426633333333, "type": "electric_scooter", "lon": -76.99779933333333, "bike_id": "879ee0003926a3ad148face5401c0c81", "rental_uris": {"android": "https://dc.lft.to/lastmile_qr_scan", "ios": "https://dc.lft.to/lastmile_qr_scan"}, "name": "879ee0003926a3ad148face5401c0c81", "is_reserved": 0}, {"is_disabled": 0, "fusion_lon": 0.0, "fusion_lat": 0.0, "lat": 38.88122466666667, "type": "electric_scooter", "lon": -77.0009635, "bike_id": "4184e0a3dddcd2b302fa4c329a69a0ef", "rental_uris": {"android": "https://dc.lft.to/lastmile_qr_scan", "ios": "https://dc.lft.to/lastmile_qr_scan"}, "name": "4184e0a3dddcd2b302fa4c329a69a0ef", "is_reserved": 0}, {"is_disabled": 0, "fusion_lon": 0.0, "fusion_lat": 0.0, "lat": 38.89505583333333, "type": "electric_scooter", "lon": -76.948775, "bike_id": "65f4f2000ccb56654b83c7b74c7026cf", "rental_uris": {"android": "https://dc.lft.to/lastmile_qr_scan", "ios": "https://dc.lft.to/lastmile_qr_scan"}, "name": "65f4f2000ccb56654b83c7b74c7026cf", "is_reserved": 0}, {"is_disabled": 0, "fusion_lon": 0.0, "fusion_lat": 0.0, "lat": 38.94199033333334, "type": "electric_scooter", "lon": -77.025758, "bike_id": "cb0e45802fc96ac4021ae37f92e59a19", "rental_uris": {"android": "https://dc.lft.to/lastmile_qr_scan", "ios": "https://dc.lft.to/lastmile_qr_scan"}, "name": "cb0e45802fc96ac4021ae37f92e59a19", "is_reserved": 0}, {"is_disabled": 0, "fusion_lon": 0.0, "fusion_lat": 0.0, "lat": 38.93408433333333, "type": "electric_bike", "lon": -77.032848, "bike_id": "0b88ac0c1ce128635224e933ee9e604b", "rental_uris": {"android": "https://dc.lft.to/lastmile_qr_scan", "ios": "https://dc.lft.to/lastmile_qr_scan"}, "name": "0b88ac0c1ce128635224e933ee9e604b", "is_reserved": 0}, {"is_disabled": 0, "fusion_lon": 0.0, "fusion_lat": 0.0, "lat": 38.886589666666666, "type": "electric_bike", "lon": -77.16226416666666, "bike_id": "10a4ec699f84cbb0dc0efe45aeac9101", "rental_uris": {"android": "https://dc.lft.to/lastmile_qr_scan", "ios": "https://dc.lft.to/lastmile_qr_scan"}, "name": "10a4ec699f84cbb0dc0efe45aeac9101", "is_reserved": 0}, {"is_disabled": 0, "fusion_lon": 0.0, "fusion_lat": 0.0, "lat": 38.92259933333333, "type": "electric_scooter", "lon": -77.04128183333333, "bike_id": "886eb2753ba6ef9edcd2d4c52f22d779", "rental_uris": {"android": "https://dc.lft.to/lastmile_qr_scan", "ios": "https://dc.lft.to/lastmile_qr_scan"}, "name": "886eb2753ba6ef9edcd2d4c52f22d779", "is_reserved": 0}, {"is_disabled": 0, "fusion_lon": 0.0, "fusion_lat": 0.0, "lat": 38.961176333333334, "type": "electric_scooter", "lon": -77.08501, "bike_id": "853597610d07eaf69886ad079985dc1b", "rental_uris": {"android": "https://dc.lft.to/lastmile_qr_scan", "ios": "https://dc.lft.to/lastmile_qr_scan"}, "name": "853597610d07eaf69886ad079985dc1b", "is_reserved": 0}, {"is_disabled": 0, "fusion_lon": 0.0, "fusion_lat": 0.0, "lat": 38.926088, "type": "electric_scooter", "lon": -77.02305816666667, "bike_id": "b69b93a2562e725c5f9be40bfb80ab17", "rental_uris": {"android": "https://dc.lft.to/lastmile_qr_scan", "ios": "https://dc.lft.to/lastmile_qr_scan"}, "name": "b69b93a2562e725c5f9be40bfb80ab17", "is_reserved": 0}, {"is_disabled": 0, "fusion_lon": 0.0, "fusion_lat": 0.0, "lat": 38.93783916666667, "type": "electric_scooter", "lon": -77.018768, "bike_id": "53b78e1fe616e5d34e2a725fca03bc31", "rental_uris": {"android": "https://dc.lft.to/lastmile_qr_scan", "ios": "https://dc.lft.to/lastmile_qr_scan"}, "name": "53b78e1fe616e5d34e2a725fca03bc31", "is_reserved": 0}, {"is_disabled": 0, "fusion_lon": 0.0, "fusion_lat": 0.0, "lat": 38.887421833333335, "type": "electric_scooter", "lon": -77.015386, "bike_id": "117739694032c0220300adf98371cc69", "rental_uris": {"android": "https://dc.lft.to/lastmile_qr_scan", "ios": "https://dc.lft.to/lastmile_qr_scan"}, "name": "117739694032c0220300adf98371cc69", "is_reserved": 0}, {"is_disabled": 0, "fusion_lon": 0.0, "fusion_lat": 0.0, "lat": 38.887450333333334, "type": "electric_scooter", "lon": -77.0160675, "bike_id": "db2004833b0742ce38ff59c9e620f8a2", "rental_uris": {"android": "https://dc.lft.to/lastmile_qr_scan", "ios": "https://dc.lft.to/lastmile_qr_scan"}, "name": "db2004833b0742ce38ff59c9e620f8a2", "is_reserved": 0}, {"is_disabled": 0, "fusion_lon": 0.0, "fusion_lat": 0.0, "lat": 38.9011775, "type": "electric_scooter", "lon": -77.026002, "bike_id": "d03386759fcb8dceafa3d2596a76daa5", "rental_uris": {"android": "https://dc.lft.to/lastmile_qr_scan", "ios": "https://dc.lft.to/lastmile_qr_scan"}, "name": "d03386759fcb8dceafa3d2596a76daa5", "is_reserved": 0}, {"is_disabled": 0, "fusion_lon": 0.0, "fusion_lat": 0.0, "lat": 38.908316166666665, "type": "electric_scooter", "lon": -76.9968455, "bike_id": "a386cf35ef417b20f7c9abb205eb334b", "rental_uris": {"android": "https://dc.lft.to/lastmile_qr_scan", "ios": "https://dc.lft.to/lastmile_qr_scan"}, "name": "a386cf35ef417b20f7c9abb205eb334b", "is_reserved": 0}, {"is_disabled": 0, "fusion_lon": 0.0, "fusion_lat": 0.0, "lat": 38.949651, "type": "electric_scooter", "lon": -77.06690583333334, "bike_id": "7f090ad1e9fafd0d4fe795d366bbc94c", "rental_uris": {"android": "https://dc.lft.to/lastmile_qr_scan", "ios": "https://dc.lft.to/lastmile_qr_scan"}, "name": "7f090ad1e9fafd0d4fe795d366bbc94c", "is_reserved": 0}, {"is_disabled": 0, "fusion_lon": 0.0, "fusion_lat": 0.0, "lat": 38.89963733333333, "type": "electric_scooter", "lon": -77.016092, "bike_id": "eebd8e930e00a122c43f6b37a1aada50", "rental_uris": {"android": "https://dc.lft.to/lastmile_qr_scan", "ios": "https://dc.lft.to/lastmile_qr_scan"}, "name": "eebd8e930e00a122c43f6b37a1aada50", "is_reserved": 0}, {"is_disabled": 0, "fusion_lon": 0.0, "fusion_lat": 0.0, "lat": 38.8133315, "type": "electric_bike", "lon": -77.05083666666667, "bike_id": "31ce912584ff84f6432ef3942a6a28b7", "rental_uris": {"android": "https://dc.lft.to/lastmile_qr_scan", "ios": "https://dc.lft.to/lastmile_qr_scan"}, "name": "31ce912584ff84f6432ef3942a6a28b7", "is_reserved": 0}, {"is_disabled": 0, "fusion_lon": 0.0, "fusion_lat": 0.0, "lat": 38.972574, "type": "electric_bike", "lon": -76.99166033333333, "bike_id": "e8198d4e42c0f0fe916a83e9dc166f0e", "rental_uris": {"android": "https://dc.lft.to/lastmile_qr_scan", "ios": "https://dc.lft.to/lastmile_qr_scan"}, "name": "e8198d4e42c0f0fe916a83e9dc166f0e", "is_reserved": 0}, {"is_disabled": 0, "fusion_lon": 0.0, "fusion_lat": 0.0, "lat": 38.89428433333333, "type": "electric_scooter", "lon": -77.01087766666667, "bike_id": "5523e4c8a8340e0f10c2a14c5ed3d98b", "rental_uris": {"android": "https://dc.lft.to/lastmile_qr_scan", "ios": "https://dc.lft.to/lastmile_qr_scan"}, "name": "5523e4c8a8340e0f10c2a14c5ed3d98b", "is_reserved": 0}, {"is_disabled": 0, "fusion_lon": 0.0, "fusion_lat": 0.0, "lat": 38.89332433333333, "type": "electric_scooter", "lon": -77.0120205, "bike_id": "69e5557caaf735e35354af704d1ba576", "rental_uris": {"android": "https://dc.lft.to/lastmile_qr_scan", "ios": "https://dc.lft.to/lastmile_qr_scan"}, "name": "69e5557caaf735e35354af704d1ba576", "is_reserved": 0}, {"is_disabled": 0, "fusion_lon": 0.0, "fusion_lat": 0.0, "lat": 38.900173333333335, "type": "electric_scooter", "lon": -76.9996995, "bike_id": "f74961ea9abf95e9e86fa6991f574aba", "rental_uris": {"android": "https://dc.lft.to/lastmile_qr_scan", "ios": "https://dc.lft.to/lastmile_qr_scan"}, "name": "f74961ea9abf95e9e86fa6991f574aba", "is_reserved": 0}, {"is_disabled": 0, "fusion_lon": 0.0, "fusion_lat": 0.0, "lat": 38.913411333333336, "type": "electric_scooter", "lon": -77.0416645, "bike_id": "94aeae298e891cbf45eae410ac9f7b80", "rental_uris": {"android": "https://dc.lft.to/lastmile_qr_scan", "ios": "https://dc.lft.to/lastmile_qr_scan"}, "name": "94aeae298e891cbf45eae410ac9f7b80", "is_reserved": 0}, {"is_disabled": 0, "fusion_lon": 0.0, "fusion_lat": 0.0, "lat": 38.8393255, "type": "electric_bike", "lon": -77.07898433333334, "bike_id": "ad32d2b4d3a23fcc9a914bb48e3b325f", "rental_uris": {"android": "https://dc.lft.to/lastmile_qr_scan", "ios": "https://dc.lft.to/lastmile_qr_scan"}, "name": "ad32d2b4d3a23fcc9a914bb48e3b325f", "is_reserved": 0}, {"is_disabled": 0, "fusion_lon": 0.0, "fusion_lat": 0.0, "lat": 38.920281333333335, "type": "electric_scooter", "lon": -77.0128765, "bike_id": "2aba0388bc011f210f040db89e8c3a34", "rental_uris": {"android": "https://dc.lft.to/lastmile_qr_scan", "ios": "https://dc.lft.to/lastmile_qr_scan"}, "name": "2aba0388bc011f210f040db89e8c3a34", "is_reserved": 0}, {"is_disabled": 0, "fusion_lon": 0.0, "fusion_lat": 0.0, "lat": 38.8972355, "type": "electric_scooter", "lon": -77.01002116666666, "bike_id": "0ea72e07518926c931f52fb16567062c", "rental_uris": {"android": "https://dc.lft.to/lastmile_qr_scan", "ios": "https://dc.lft.to/lastmile_qr_scan"}, "name": "0ea72e07518926c931f52fb16567062c", "is_reserved": 0}, {"is_disabled": 0, "fusion_lon": 0.0, "fusion_lat": 0.0, "lat": 38.918537666666666, "type": "electric_bike", "lon": -76.96087483333334, "bike_id": "ce9c33ac893399565b11e09604e78202", "rental_uris": {"android": "https://dc.lft.to/lastmile_qr_scan", "ios": "https://dc.lft.to/lastmile_qr_scan"}, "name": "ce9c33ac893399565b11e09604e78202", "is_reserved": 0}, {"is_disabled": 0, "fusion_lon": 0.0, "fusion_lat": 0.0, "lat": 38.87066866666667, "type": "electric_bike", "lon": -77.00738583333333, "bike_id": "e7043c6a97be145495dddbcf256d2261", "rental_uris": {"android": "https://dc.lft.to/lastmile_qr_scan", "ios": "https://dc.lft.to/lastmile_qr_scan"}, "name": "e7043c6a97be145495dddbcf256d2261", "is_reserved": 0}, {"is_disabled": 0, "fusion_lon": 0.0, "fusion_lat": 0.0, "lat": 38.913611, "type": "electric_scooter", "lon": -77.01884533333333, "bike_id": "638d3e3f408b97eadb02288e1e0fbb61", "rental_uris": {"android": "https://dc.lft.to/lastmile_qr_scan", "ios": "https://dc.lft.to/lastmile_qr_scan"}, "name": "638d3e3f408b97eadb02288e1e0fbb61", "is_reserved": 0}, {"is_disabled": 0, "fusion_lon": 0.0, "fusion_lat": 0.0, "lat": 38.911728, "type": "electric_scooter", "lon": -77.00461183333333, "bike_id": "dcd8ff57a029fc25c629349e894a2053", "rental_uris": {"android": "https://dc.lft.to/lastmile_qr_scan", "ios": "https://dc.lft.to/lastmile_qr_scan"}, "name": "dcd8ff57a029fc25c629349e894a2053", "is_reserved": 0}, {"is_disabled": 0, "fusion_lon": 0.0, "fusion_lat": 0.0, "lat": 38.887559833333334, "type": "electric_scooter", "lon": -77.00335283333334, "bike_id": "4dec25ee1b0ddf4e7c8da4a83035a632", "rental_uris": {"android": "https://dc.lft.to/lastmile_qr_scan", "ios": "https://dc.lft.to/lastmile_qr_scan"}, "name": "4dec25ee1b0ddf4e7c8da4a83035a632", "is_reserved": 0}, {"is_disabled": 0, "fusion_lon": 0.0, "fusion_lat": 0.0, "lat": 38.868413333333336, "type": "electric_bike", "lon": -77.097341, "bike_id": "8e0d4b2837b5bf6b46d8e32df97f7975", "rental_uris": {"android": "https://dc.lft.to/lastmile_qr_scan", "ios": "https://dc.lft.to/lastmile_qr_scan"}, "name": "8e0d4b2837b5bf6b46d8e32df97f7975", "is_reserved": 0}, {"is_disabled": 0, "fusion_lon": 0.0, "fusion_lat": 0.0, "lat": 38.91265116666667, "type": "electric_scooter", "lon": -77.0372015, "bike_id": "640014a3c3c5492cf0cae687f290b6ac", "rental_uris": {"android": "https://dc.lft.to/lastmile_qr_scan", "ios": "https://dc.lft.to/lastmile_qr_scan"}, "name": "640014a3c3c5492cf0cae687f290b6ac", "is_reserved": 0}, {"is_disabled": 0, "fusion_lon": 0.0, "fusion_lat": 0.0, "lat": 38.91834016666667, "type": "electric_scooter", "lon": -77.02699616666666, "bike_id": "96873a0d80e07776f2b86cae859754bf", "rental_uris": {"android": "https://dc.lft.to/lastmile_qr_scan", "ios": "https://dc.lft.to/lastmile_qr_scan"}, "name": "96873a0d80e07776f2b86cae859754bf", "is_reserved": 0}, {"is_disabled": 0, "fusion_lon": 0.0, "fusion_lat": 0.0, "lat": 38.89859916666666, "type": "electric_scooter", "lon": -77.02279833333333, "bike_id": "0475a07df06ebfac393e0d6736e5d880", "rental_uris": {"android": "https://dc.lft.to/lastmile_qr_scan", "ios": "https://dc.lft.to/lastmile_qr_scan"}, "name": "0475a07df06ebfac393e0d6736e5d880", "is_reserved": 0}, {"is_disabled": 0, "fusion_lon": 0.0, "fusion_lat": 0.0, "lat": 38.904669, "type": "electric_scooter", "lon": -77.03801083333333, "bike_id": "cb05ab26a763ad7f50de65a507e87c8f", "rental_uris": {"android": "https://dc.lft.to/lastmile_qr_scan", "ios": "https://dc.lft.to/lastmile_qr_scan"}, "name": "cb05ab26a763ad7f50de65a507e87c8f", "is_reserved": 0}, {"is_disabled": 0, "fusion_lon": 0.0, "fusion_lat": 0.0, "lat": 38.918253, "type": "electric_scooter", "lon": -77.02706166666667, "bike_id": "c8a9a58b74ade91f3d7409d7de515707", "rental_uris": {"android": "https://dc.lft.to/lastmile_qr_scan", "ios": "https://dc.lft.to/lastmile_qr_scan"}, "name": "c8a9a58b74ade91f3d7409d7de515707", "is_reserved": 0}, {"is_disabled": 0, "fusion_lon": 0.0, "fusion_lat": 0.0, "lat": 38.88968466666667, "type": "electric_scooter", "lon": -76.92737266666667, "bike_id": "28492e9b9f5d580ea7684d76eb72ad30", "rental_uris": {"android": "https://dc.lft.to/lastmile_qr_scan", "ios": "https://dc.lft.to/lastmile_qr_scan"}, "name": "28492e9b9f5d580ea7684d76eb72ad30", "is_reserved": 0}, {"is_disabled": 0, "fusion_lon": 0.0, "fusion_lat": 0.0, "lat": 38.924665833333336, "type": "electric_scooter", "lon": -77.02710383333333, "bike_id": "09ab0cbad0b9d8a4fd43834bfd98dd4f", "rental_uris": {"android": "https://dc.lft.to/lastmile_qr_scan", "ios": "https://dc.lft.to/lastmile_qr_scan"}, "name": "09ab0cbad0b9d8a4fd43834bfd98dd4f", "is_reserved": 0}, {"is_disabled": 0, "fusion_lon": 0.0, "fusion_lat": 0.0, "lat": 38.88089766666667, "type": "electric_scooter", "lon": -77.02586433333333, "bike_id": "7991c1e7c339898ba0341ee3bd6b70e8", "rental_uris": {"android": "https://dc.lft.to/lastmile_qr_scan", "ios": "https://dc.lft.to/lastmile_qr_scan"}, "name": "7991c1e7c339898ba0341ee3bd6b70e8", "is_reserved": 0}, {"is_disabled": 0, "fusion_lon": 0.0, "fusion_lat": 0.0, "lat": 38.845144166666664, "type": "electric_scooter", "lon": -76.98788066666667, "bike_id": "d29c6d67ddf1e810be0a3131b3e322d0", "rental_uris": {"android": "https://dc.lft.to/lastmile_qr_scan", "ios": "https://dc.lft.to/lastmile_qr_scan"}, "name": "d29c6d67ddf1e810be0a3131b3e322d0", "is_reserved": 0}, {"is_disabled": 0, "fusion_lon": 0.0, "fusion_lat": 0.0, "lat": 38.887237166666665, "type": "electric_scooter", "lon": -77.02204416666666, "bike_id": "bf7f7b7997ebaf4e29b3c04a70d98e42", "rental_uris": {"android": "https://dc.lft.to/lastmile_qr_scan", "ios": "https://dc.lft.to/lastmile_qr_scan"}, "name": "bf7f7b7997ebaf4e29b3c04a70d98e42", "is_reserved": 0}, {"is_disabled": 0, "fusion_lon": 0.0, "fusion_lat": 0.0, "lat": 38.90068616666667, "type": "electric_scooter", "lon": -77.01279983333333, "bike_id": "1de0099fffe3c287518f3fc7ca28f388", "rental_uris": {"android": "https://dc.lft.to/lastmile_qr_scan", "ios": "https://dc.lft.to/lastmile_qr_scan"}, "name": "1de0099fffe3c287518f3fc7ca28f388", "is_reserved": 0}, {"is_disabled": 0, "fusion_lon": 0.0, "fusion_lat": 0.0, "lat": 38.87138816666667, "type": "electric_scooter", "lon": -77.0074945, "bike_id": "0bc5cf7eadfa3ac89f5f01653b1ff655", "rental_uris": {"android": "https://dc.lft.to/lastmile_qr_scan", "ios": "https://dc.lft.to/lastmile_qr_scan"}, "name": "0bc5cf7eadfa3ac89f5f01653b1ff655", "is_reserved": 0}, {"is_disabled": 0, "fusion_lon": 0.0, "fusion_lat": 0.0, "lat": 38.897462833333336, "type": "electric_scooter", "lon": -77.02380716666667, "bike_id": "2c2ccfc50217e0b1cd5437c464f075a9", "rental_uris": {"android": "https://dc.lft.to/lastmile_qr_scan", "ios": "https://dc.lft.to/lastmile_qr_scan"}, "name": "2c2ccfc50217e0b1cd5437c464f075a9", "is_reserved": 0}, {"is_disabled": 0, "fusion_lon": 0.0, "fusion_lat": 0.0, "lat": 38.92685933333333, "type": "electric_scooter", "lon": -77.02299116666667, "bike_id": "5847aaef303a92d541fd6732aef1f269", "rental_uris": {"android": "https://dc.lft.to/lastmile_qr_scan", "ios": "https://dc.lft.to/lastmile_qr_scan"}, "name": "5847aaef303a92d541fd6732aef1f269", "is_reserved": 0}, {"is_disabled": 0, "fusion_lon": 0.0, "fusion_lat": 0.0, "lat": 38.915507833333336, "type": "electric_scooter", "lon": -77.0123245, "bike_id": "d29a62354db0b6b0579f48fef08a7995", "rental_uris": {"android": "https://dc.lft.to/lastmile_qr_scan", "ios": "https://dc.lft.to/lastmile_qr_scan"}, "name": "d29a62354db0b6b0579f48fef08a7995", "is_reserved": 0}, {"is_disabled": 0, "fusion_lon": 0.0, "fusion_lat": 0.0, "lat": 38.95947366666667, "type": "electric_scooter", "lon": -77.072282, "bike_id": "3493a6d4a9deee4f80deeb7a96699565", "rental_uris": {"android": "https://dc.lft.to/lastmile_qr_scan", "ios": "https://dc.lft.to/lastmile_qr_scan"}, "name": "3493a6d4a9deee4f80deeb7a96699565", "is_reserved": 0}, {"is_disabled": 0, "fusion_lon": 0.0, "fusion_lat": 0.0, "lat": 38.92758883333333, "type": "electric_scooter", "lon": -77.00593366666666, "bike_id": "731a681d1c180c3e18ec45786e167d6b", "rental_uris": {"android": "https://dc.lft.to/lastmile_qr_scan", "ios": "https://dc.lft.to/lastmile_qr_scan"}, "name": "731a681d1c180c3e18ec45786e167d6b", "is_reserved": 0}, {"is_disabled": 0, "fusion_lon": 0.0, "fusion_lat": 0.0, "lat": 38.93963816666667, "type": "electric_scooter", "lon": -77.0327485, "bike_id": "710df262ec18c36d3db370f16b7e3d4b", "rental_uris": {"android": "https://dc.lft.to/lastmile_qr_scan", "ios": "https://dc.lft.to/lastmile_qr_scan"}, "name": "710df262ec18c36d3db370f16b7e3d4b", "is_reserved": 0}, {"is_disabled": 0, "fusion_lon": 0.0, "fusion_lat": 0.0, "lat": 38.903879, "type": "electric_scooter", "lon": -76.99001583333333, "bike_id": "53fb5f81521f8f7e115eaf06a1d719e8", "rental_uris": {"android": "https://dc.lft.to/lastmile_qr_scan", "ios": "https://dc.lft.to/lastmile_qr_scan"}, "name": "53fb5f81521f8f7e115eaf06a1d719e8", "is_reserved": 0}, {"is_disabled": 0, "fusion_lon": 0.0, "fusion_lat": 0.0, "lat": 38.9421995, "type": "electric_scooter", "lon": -77.024993, "bike_id": "0dea7627f4f5a77269e0dc9d390b2c2c", "rental_uris": {"android": "https://dc.lft.to/lastmile_qr_scan", "ios": "https://dc.lft.to/lastmile_qr_scan"}, "name": "0dea7627f4f5a77269e0dc9d390b2c2c", "is_reserved": 0}, {"is_disabled": 0, "fusion_lon": 0.0, "fusion_lat": 0.0, "lat": 38.924769, "type": "electric_scooter", "lon": -77.03483933333334, "bike_id": "9037ee42a47ab2633df272b05eb31140", "rental_uris": {"android": "https://dc.lft.to/lastmile_qr_scan", "ios": "https://dc.lft.to/lastmile_qr_scan"}, "name": "9037ee42a47ab2633df272b05eb31140", "is_reserved": 0}, {"is_disabled": 0, "fusion_lon": 0.0, "fusion_lat": 0.0, "lat": 38.926009, "type": "electric_scooter", "lon": -77.02151966666666, "bike_id": "fe7f62dda03d3b29efef805c41e0595a", "rental_uris": {"android": "https://dc.lft.to/lastmile_qr_scan", "ios": "https://dc.lft.to/lastmile_qr_scan"}, "name": "fe7f62dda03d3b29efef805c41e0595a", "is_reserved": 0}, {"is_disabled": 0, "fusion_lon": 0.0, "fusion_lat": 0.0, "lat": 38.91970633333333, "type": "electric_scooter", "lon": -76.98053816666666, "bike_id": "084ded4eb4ca33bf6121866a463e45ef", "rental_uris": {"android": "https://dc.lft.to/lastmile_qr_scan", "ios": "https://dc.lft.to/lastmile_qr_scan"}, "name": "084ded4eb4ca33bf6121866a463e45ef", "is_reserved": 0}, {"is_disabled": 0, "fusion_lon": 0.0, "fusion_lat": 0.0, "lat": 38.91263416666666, "type": "electric_scooter", "lon": -77.03824733333333, "bike_id": "13ea889b8f13562f86936916cd1ec8ed", "rental_uris": {"android": "https://dc.lft.to/lastmile_qr_scan", "ios": "https://dc.lft.to/lastmile_qr_scan"}, "name": "13ea889b8f13562f86936916cd1ec8ed", "is_reserved": 0}, {"is_disabled": 0, "fusion_lon": 0.0, "fusion_lat": 0.0, "lat": 38.9084745, "type": "electric_scooter", "lon": -77.020577, "bike_id": "b8ea04283a83aaaa1264d0e14de5c7ed", "rental_uris": {"android": "https://dc.lft.to/lastmile_qr_scan", "ios": "https://dc.lft.to/lastmile_qr_scan"}, "name": "b8ea04283a83aaaa1264d0e14de5c7ed", "is_reserved": 0}, {"is_disabled": 0, "fusion_lon": 0.0, "fusion_lat": 0.0, "lat": 38.876509, "type": "electric_scooter", "lon": -77.0030665, "bike_id": "b0e688ecd2da7fb35d7b3249d56cc401", "rental_uris": {"android": "https://dc.lft.to/lastmile_qr_scan", "ios": "https://dc.lft.to/lastmile_qr_scan"}, "name": "b0e688ecd2da7fb35d7b3249d56cc401", "is_reserved": 0}, {"is_disabled": 0, "fusion_lon": 0.0, "fusion_lat": 0.0, "lat": 38.8973915, "type": "electric_scooter", "lon": -77.00982416666666, "bike_id": "5d1710d0048d705b833bd6338c046748", "rental_uris": {"android": "https://dc.lft.to/lastmile_qr_scan", "ios": "https://dc.lft.to/lastmile_qr_scan"}, "name": "5d1710d0048d705b833bd6338c046748", "is_reserved": 0}, {"is_disabled": 0, "fusion_lon": 0.0, "fusion_lat": 0.0, "lat": 38.92227416666667, "type": "electric_scooter", "lon": -77.03448666666667, "bike_id": "55dd8f077e0ebca9da6bd38c363ecf21", "rental_uris": {"android": "https://dc.lft.to/lastmile_qr_scan", "ios": "https://dc.lft.to/lastmile_qr_scan"}, "name": "55dd8f077e0ebca9da6bd38c363ecf21", "is_reserved": 0}, {"is_disabled": 0, "fusion_lon": 0.0, "fusion_lat": 0.0, "lat": 38.828702666666665, "type": "electric_bike", "lon": -77.11223433333333, "bike_id": "dacae6224d29e00ac4d6516a2998c8d6", "rental_uris": {"android": "https://dc.lft.to/lastmile_qr_scan", "ios": "https://dc.lft.to/lastmile_qr_scan"}, "name": "dacae6224d29e00ac4d6516a2998c8d6", "is_reserved": 0}, {"is_disabled": 0, "fusion_lon": 0.0, "fusion_lat": 0.0, "lat": 38.9096785, "type": "electric_scooter", "lon": -77.011063, "bike_id": "53558fd85bcb1a42c7334679fe7e6382", "rental_uris": {"android": "https://dc.lft.to/lastmile_qr_scan", "ios": "https://dc.lft.to/lastmile_qr_scan"}, "name": "53558fd85bcb1a42c7334679fe7e6382", "is_reserved": 0}, {"is_disabled": 0, "fusion_lon": 0.0, "fusion_lat": 0.0, "lat": 38.8979985, "type": "electric_scooter", "lon": -77.029311, "bike_id": "c0cef87d162ecb0f919fc565ca51be5d", "rental_uris": {"android": "https://dc.lft.to/lastmile_qr_scan", "ios": "https://dc.lft.to/lastmile_qr_scan"}, "name": "c0cef87d162ecb0f919fc565ca51be5d", "is_reserved": 0}, {"is_disabled": 0, "fusion_lon": 0.0, "fusion_lat": 0.0, "lat": 38.91250383333333, "type": "electric_scooter", "lon": -77.0223055, "bike_id": "3b5c0653eaeb783bcf9f2757568245eb", "rental_uris": {"android": "https://dc.lft.to/lastmile_qr_scan", "ios": "https://dc.lft.to/lastmile_qr_scan"}, "name": "3b5c0653eaeb783bcf9f2757568245eb", "is_reserved": 0}, {"is_disabled": 0, "fusion_lon": 0.0, "fusion_lat": 0.0, "lat": 38.91040683333333, "type": "electric_scooter", "lon": -77.04265583333333, "bike_id": "c93fbe82a63d8110d821294248504dae", "rental_uris": {"android": "https://dc.lft.to/lastmile_qr_scan", "ios": "https://dc.lft.to/lastmile_qr_scan"}, "name": "c93fbe82a63d8110d821294248504dae", "is_reserved": 0}, {"is_disabled": 0, "fusion_lon": 0.0, "fusion_lat": 0.0, "lat": 39.00020166666667, "type": "electric_bike", "lon": -76.87282583333334, "bike_id": "4ef3aabc6eaac8fdc7257174278543e7", "rental_uris": {"android": "https://dc.lft.to/lastmile_qr_scan", "ios": "https://dc.lft.to/lastmile_qr_scan"}, "name": "4ef3aabc6eaac8fdc7257174278543e7", "is_reserved": 0}, {"is_disabled": 0, "fusion_lon": 0.0, "fusion_lat": 0.0, "lat": 38.91718066666667, "type": "electric_scooter", "lon": -77.02605666666666, "bike_id": "4d7cd8dcd7f6375b584010d5943b23f1", "rental_uris": {"android": "https://dc.lft.to/lastmile_qr_scan", "ios": "https://dc.lft.to/lastmile_qr_scan"}, "name": "4d7cd8dcd7f6375b584010d5943b23f1", "is_reserved": 0}, {"is_disabled": 0, "fusion_lon": 0.0, "fusion_lat": 0.0, "lat": 38.91719416666667, "type": "electric_scooter", "lon": -77.09805466666667, "bike_id": "2df2945e19c520706ff8b35986a7c4df", "rental_uris": {"android": "https://dc.lft.to/lastmile_qr_scan", "ios": "https://dc.lft.to/lastmile_qr_scan"}, "name": "2df2945e19c520706ff8b35986a7c4df", "is_reserved": 0}, {"is_disabled": 0, "fusion_lon": 0.0, "fusion_lat": 0.0, "lat": 38.917082, "type": "electric_scooter", "lon": -77.034745, "bike_id": "00892c387ce5a8aa06c9dc2a1a2641a8", "rental_uris": {"android": "https://dc.lft.to/lastmile_qr_scan", "ios": "https://dc.lft.to/lastmile_qr_scan"}, "name": "00892c387ce5a8aa06c9dc2a1a2641a8", "is_reserved": 0}, {"is_disabled": 0, "fusion_lon": 0.0, "fusion_lat": 0.0, "lat": 38.8898695, "type": "electric_scooter", "lon": -77.0024445, "bike_id": "9bbfd2d84cb2c9a3bb593e014f71a807", "rental_uris": {"android": "https://dc.lft.to/lastmile_qr_scan", "ios": "https://dc.lft.to/lastmile_qr_scan"}, "name": "9bbfd2d84cb2c9a3bb593e014f71a807", "is_reserved": 0}, {"is_disabled": 0, "fusion_lon": 0.0, "fusion_lat": 0.0, "lat": 38.911130666666665, "type": "electric_scooter", "lon": -77.03834966666666, "bike_id": "6032b1bf0bb4720d5252b1e1bd823145", "rental_uris": {"android": "https://dc.lft.to/lastmile_qr_scan", "ios": "https://dc.lft.to/lastmile_qr_scan"}, "name": "6032b1bf0bb4720d5252b1e1bd823145", "is_reserved": 0}, {"is_disabled": 0, "fusion_lon": 0.0, "fusion_lat": 0.0, "lat": 38.91949316666667, "type": "electric_scooter", "lon": -77.045073, "bike_id": "06572d795b62d0022f873fe60fad371b", "rental_uris": {"android": "https://dc.lft.to/lastmile_qr_scan", "ios": "https://dc.lft.to/lastmile_qr_scan"}, "name": "06572d795b62d0022f873fe60fad371b", "is_reserved": 0}, {"is_disabled": 0, "fusion_lon": 0.0, "fusion_lat": 0.0, "lat": 39.02685183333333, "type": "electric_bike", "lon": -77.1259415, "bike_id": "61949db767f8740d581e892321e813fd", "rental_uris": {"android": "https://dc.lft.to/lastmile_qr_scan", "ios": "https://dc.lft.to/lastmile_qr_scan"}, "name": "61949db767f8740d581e892321e813fd", "is_reserved": 0}, {"is_disabled": 0, "fusion_lon": 0.0, "fusion_lat": 0.0, "lat": 38.906371, "type": "electric_scooter", "lon": -76.98569166666667, "bike_id": "2f650ada2ac0ab3b96795cc13aa0ebec", "rental_uris": {"android": "https://dc.lft.to/lastmile_qr_scan", "ios": "https://dc.lft.to/lastmile_qr_scan"}, "name": "2f650ada2ac0ab3b96795cc13aa0ebec", "is_reserved": 0}, {"is_disabled": 0, "fusion_lon": 0.0, "fusion_lat": 0.0, "lat": 38.885028166666665, "type": "electric_scooter", "lon": -77.0032515, "bike_id": "58bc99852408584a9bffb286f3d2ba9a", "rental_uris": {"android": "https://dc.lft.to/lastmile_qr_scan", "ios": "https://dc.lft.to/lastmile_qr_scan"}, "name": "58bc99852408584a9bffb286f3d2ba9a", "is_reserved": 0}, {"is_disabled": 0, "fusion_lon": 0.0, "fusion_lat": 0.0, "lat": 38.905211, "type": "electric_bike", "lon": -76.98115433333334, "bike_id": "d23f8e479fef2e68a11b26b54c437e3e", "rental_uris": {"android": "https://dc.lft.to/lastmile_qr_scan", "ios": "https://dc.lft.to/lastmile_qr_scan"}, "name": "d23f8e479fef2e68a11b26b54c437e3e", "is_reserved": 0}, {"is_disabled": 0, "fusion_lon": 0.0, "fusion_lat": 0.0, "lat": 38.931168166666666, "type": "electric_scooter", "lon": -77.0204115, "bike_id": "7f90aed9a9d17090c55f71203bdf4c11", "rental_uris": {"android": "https://dc.lft.to/lastmile_qr_scan", "ios": "https://dc.lft.to/lastmile_qr_scan"}, "name": "7f90aed9a9d17090c55f71203bdf4c11", "is_reserved": 0}, {"is_disabled": 0, "fusion_lon": 0.0, "fusion_lat": 0.0, "lat": 38.92187916666666, "type": "electric_scooter", "lon": -76.99758516666667, "bike_id": "a462da5c8d140028bc7219b9994a2efe", "rental_uris": {"android": "https://dc.lft.to/lastmile_qr_scan", "ios": "https://dc.lft.to/lastmile_qr_scan"}, "name": "a462da5c8d140028bc7219b9994a2efe", "is_reserved": 0}, {"is_disabled": 0, "fusion_lon": 0.0, "fusion_lat": 0.0, "lat": 38.9258615, "type": "electric_scooter", "lon": -77.03226483333333, "bike_id": "edcb731e37fac679f67ea271e59baf7b", "rental_uris": {"android": "https://dc.lft.to/lastmile_qr_scan", "ios": "https://dc.lft.to/lastmile_qr_scan"}, "name": "edcb731e37fac679f67ea271e59baf7b", "is_reserved": 0}, {"is_disabled": 0, "fusion_lon": 0.0, "fusion_lat": 0.0, "lat": 39.06065533333334, "type": "electric_bike", "lon": -77.0646715, "bike_id": "5dcc09e56fd125a4696a45fac70619eb", "rental_uris": {"android": "https://dc.lft.to/lastmile_qr_scan", "ios": "https://dc.lft.to/lastmile_qr_scan"}, "name": "5dcc09e56fd125a4696a45fac70619eb", "is_reserved": 0}, {"is_disabled": 0, "fusion_lon": 0.0, "fusion_lat": 0.0, "lat": 38.9042005, "type": "electric_scooter", "lon": -76.98548033333333, "bike_id": "9a41b41d359db82e23137edea8e7b753", "rental_uris": {"android": "https://dc.lft.to/lastmile_qr_scan", "ios": "https://dc.lft.to/lastmile_qr_scan"}, "name": "9a41b41d359db82e23137edea8e7b753", "is_reserved": 0}, {"is_disabled": 0, "fusion_lon": 0.0, "fusion_lat": 0.0, "lat": 38.83814816666667, "type": "electric_scooter", "lon": -77.00432333333333, "bike_id": "3b3788e5e03fd773d484e5246f622402", "rental_uris": {"android": "https://dc.lft.to/lastmile_qr_scan", "ios": "https://dc.lft.to/lastmile_qr_scan"}, "name": "3b3788e5e03fd773d484e5246f622402", "is_reserved": 0}, {"is_disabled": 0, "fusion_lon": 0.0, "fusion_lat": 0.0, "lat": 38.918539833333334, "type": "electric_bike", "lon": -76.960863, "bike_id": "58babb725aab3c89ced8326f22e8daa8", "rental_uris": {"android": "https://dc.lft.to/lastmile_qr_scan", "ios": "https://dc.lft.to/lastmile_qr_scan"}, "name": "58babb725aab3c89ced8326f22e8daa8", "is_reserved": 0}, {"is_disabled": 0, "fusion_lon": 0.0, "fusion_lat": 0.0, "lat": 38.88745266666667, "type": "electric_scooter", "lon": -77.0173505, "bike_id": "890d40eccc345672dc026c0fa4dcf8bc", "rental_uris": {"android": "https://dc.lft.to/lastmile_qr_scan", "ios": "https://dc.lft.to/lastmile_qr_scan"}, "name": "890d40eccc345672dc026c0fa4dcf8bc", "is_reserved": 0}, {"is_disabled": 0, "fusion_lon": 0.0, "fusion_lat": 0.0, "lat": 38.943752, "type": "electric_scooter", "lon": -77.077419, "bike_id": "e391a91b5a7bf1579ab9882c3f31fb84", "rental_uris": {"android": "https://dc.lft.to/lastmile_qr_scan", "ios": "https://dc.lft.to/lastmile_qr_scan"}, "name": "e391a91b5a7bf1579ab9882c3f31fb84", "is_reserved": 0}, {"is_disabled": 0, "fusion_lon": 0.0, "fusion_lat": 0.0, "lat": 38.927671833333335, "type": "electric_scooter", "lon": -77.029134, "bike_id": "b8582b44bd0915852699a25c62d3682f", "rental_uris": {"android": "https://dc.lft.to/lastmile_qr_scan", "ios": "https://dc.lft.to/lastmile_qr_scan"}, "name": "b8582b44bd0915852699a25c62d3682f", "is_reserved": 0}, {"is_disabled": 0, "fusion_lon": 0.0, "fusion_lat": 0.0, "lat": 38.921045, "type": "electric_scooter", "lon": -77.03114116666667, "bike_id": "789313fdcdfebf6c3fa4f172d09909e7", "rental_uris": {"android": "https://dc.lft.to/lastmile_qr_scan", "ios": "https://dc.lft.to/lastmile_qr_scan"}, "name": "789313fdcdfebf6c3fa4f172d09909e7", "is_reserved": 0}, {"is_disabled": 0, "fusion_lon": 0.0, "fusion_lat": 0.0, "lat": 38.93820633333333, "type": "electric_scooter", "lon": -76.99046383333334, "bike_id": "55bea0f67fbd0ac40e6ac1ef4d9c212d", "rental_uris": {"android": "https://dc.lft.to/lastmile_qr_scan", "ios": "https://dc.lft.to/lastmile_qr_scan"}, "name": "55bea0f67fbd0ac40e6ac1ef4d9c212d", "is_reserved": 0}, {"is_disabled": 0, "fusion_lon": 0.0, "fusion_lat": 0.0, "lat": 38.90378183333333, "type": "electric_scooter", "lon": -77.04339883333333, "bike_id": "99cd6d2be2738350a8c25fee466e6e19", "rental_uris": {"android": "https://dc.lft.to/lastmile_qr_scan", "ios": "https://dc.lft.to/lastmile_qr_scan"}, "name": "99cd6d2be2738350a8c25fee466e6e19", "is_reserved": 0}, {"is_disabled": 0, "fusion_lon": 0.0, "fusion_lat": 0.0, "lat": 38.88489516666667, "type": "electric_scooter", "lon": -77.0219935, "bike_id": "d2c8accd96087688dd65a341a9c89e02", "rental_uris": {"android": "https://dc.lft.to/lastmile_qr_scan", "ios": "https://dc.lft.to/lastmile_qr_scan"}, "name": "d2c8accd96087688dd65a341a9c89e02", "is_reserved": 0}, {"is_disabled": 0, "fusion_lon": 0.0, "fusion_lat": 0.0, "lat": 38.91709266666667, "type": "electric_scooter", "lon": -77.03468833333334, "bike_id": "eed0fc766ec5359b5e742f20aa047f13", "rental_uris": {"android": "https://dc.lft.to/lastmile_qr_scan", "ios": "https://dc.lft.to/lastmile_qr_scan"}, "name": "eed0fc766ec5359b5e742f20aa047f13", "is_reserved": 0}, {"is_disabled": 0, "fusion_lon": 0.0, "fusion_lat": 0.0, "lat": 38.930134333333335, "type": "electric_scooter", "lon": -77.03244866666667, "bike_id": "7e12ffe8598e1e10b8ddf5b4b523ed5a", "rental_uris": {"android": "https://dc.lft.to/lastmile_qr_scan", "ios": "https://dc.lft.to/lastmile_qr_scan"}, "name": "7e12ffe8598e1e10b8ddf5b4b523ed5a", "is_reserved": 0}, {"is_disabled": 0, "fusion_lon": 0.0, "fusion_lat": 0.0, "lat": 38.911145166666664, "type": "electric_scooter", "lon": -76.997707, "bike_id": "a7e2252847170c63df18defc0b393ba2", "rental_uris": {"android": "https://dc.lft.to/lastmile_qr_scan", "ios": "https://dc.lft.to/lastmile_qr_scan"}, "name": "a7e2252847170c63df18defc0b393ba2", "is_reserved": 0}, {"is_disabled": 0, "fusion_lon": 0.0, "fusion_lat": 0.0, "lat": 38.87982366666667, "type": "electric_bike", "lon": -76.9159675, "bike_id": "419770ba1337f8b0fae398681cf631e1", "rental_uris": {"android": "https://dc.lft.to/lastmile_qr_scan", "ios": "https://dc.lft.to/lastmile_qr_scan"}, "name": "419770ba1337f8b0fae398681cf631e1", "is_reserved": 0}, {"is_disabled": 0, "fusion_lon": 0.0, "fusion_lat": 0.0, "lat": 38.898391, "type": "electric_scooter", "lon": -77.02815266666667, "bike_id": "f85cd011ad4016d276b0154559e4b493", "rental_uris": {"android": "https://dc.lft.to/lastmile_qr_scan", "ios": "https://dc.lft.to/lastmile_qr_scan"}, "name": "f85cd011ad4016d276b0154559e4b493", "is_reserved": 0}, {"is_disabled": 0, "fusion_lon": 0.0, "fusion_lat": 0.0, "lat": 38.90837583333333, "type": "electric_scooter", "lon": -76.99692983333334, "bike_id": "80a52eb3e5c5c9b8fda0eef5d2ee2df9", "rental_uris": {"android": "https://dc.lft.to/lastmile_qr_scan", "ios": "https://dc.lft.to/lastmile_qr_scan"}, "name": "80a52eb3e5c5c9b8fda0eef5d2ee2df9", "is_reserved": 0}, {"is_disabled": 0, "fusion_lon": 0.0, "fusion_lat": 0.0, "lat": 38.91183616666667, "type": "electric_scooter", "lon": -77.0321665, "bike_id": "99e0df8e394f26ea440589f56e40d106", "rental_uris": {"android": "https://dc.lft.to/lastmile_qr_scan", "ios": "https://dc.lft.to/lastmile_qr_scan"}, "name": "99e0df8e394f26ea440589f56e40d106", "is_reserved": 0}, {"is_disabled": 0, "fusion_lon": 0.0, "fusion_lat": 0.0, "lat": 38.858021, "type": "electric_bike", "lon": -76.98751416666667, "bike_id": "e5e153cd306b89a3e14640b1ff245b6e", "rental_uris": {"android": "https://dc.lft.to/lastmile_qr_scan", "ios": "https://dc.lft.to/lastmile_qr_scan"}, "name": "e5e153cd306b89a3e14640b1ff245b6e", "is_reserved": 0}, {"is_disabled": 0, "fusion_lon": 0.0, "fusion_lat": 0.0, "lat": 38.966486333333336, "type": "electric_bike", "lon": -76.9301745, "bike_id": "74bc1a5a3351f6875e4ade9a84ced675", "rental_uris": {"android": "https://dc.lft.to/lastmile_qr_scan", "ios": "https://dc.lft.to/lastmile_qr_scan"}, "name": "74bc1a5a3351f6875e4ade9a84ced675", "is_reserved": 0}, {"is_disabled": 0, "fusion_lon": 0.0, "fusion_lat": 0.0, "lat": 38.888154166666666, "type": "electric_scooter", "lon": -77.014927, "bike_id": "23141849bf4dcef532a323120e4b5d63", "rental_uris": {"android": "https://dc.lft.to/lastmile_qr_scan", "ios": "https://dc.lft.to/lastmile_qr_scan"}, "name": "23141849bf4dcef532a323120e4b5d63", "is_reserved": 0}, {"is_disabled": 0, "fusion_lon": 0.0, "fusion_lat": 0.0, "lat": 38.9210655, "type": "electric_scooter", "lon": -77.04366633333333, "bike_id": "30effce8bef190e24f260c7c091779ec", "rental_uris": {"android": "https://dc.lft.to/lastmile_qr_scan", "ios": "https://dc.lft.to/lastmile_qr_scan"}, "name": "30effce8bef190e24f260c7c091779ec", "is_reserved": 0}, {"is_disabled": 0, "fusion_lon": 0.0, "fusion_lat": 0.0, "lat": 38.91416316666667, "type": "electric_scooter", "lon": -77.02213833333333, "bike_id": "4e0ee97bc01cc0c1324a0d12536ccf9d", "rental_uris": {"android": "https://dc.lft.to/lastmile_qr_scan", "ios": "https://dc.lft.to/lastmile_qr_scan"}, "name": "4e0ee97bc01cc0c1324a0d12536ccf9d", "is_reserved": 0}, {"is_disabled": 0, "fusion_lon": 0.0, "fusion_lat": 0.0, "lat": 38.90280516666667, "type": "electric_scooter", "lon": -77.03452, "bike_id": "4e4a8ddc12449b5abc8095f4096f7a42", "rental_uris": {"android": "https://dc.lft.to/lastmile_qr_scan", "ios": "https://dc.lft.to/lastmile_qr_scan"}, "name": "4e4a8ddc12449b5abc8095f4096f7a42", "is_reserved": 0}, {"is_disabled": 0, "fusion_lon": 0.0, "fusion_lat": 0.0, "lat": 38.893195166666665, "type": "electric_scooter", "lon": -77.0320515, "bike_id": "430202d2d02cc75fb6e0e95396da9f6c", "rental_uris": {"android": "https://dc.lft.to/lastmile_qr_scan", "ios": "https://dc.lft.to/lastmile_qr_scan"}, "name": "430202d2d02cc75fb6e0e95396da9f6c", "is_reserved": 0}, {"is_disabled": 0, "fusion_lon": 0.0, "fusion_lat": 0.0, "lat": 38.906251166666664, "type": "electric_scooter", "lon": -77.05145383333333, "bike_id": "57e61540427acd9755f91a8539a3666f", "rental_uris": {"android": "https://dc.lft.to/lastmile_qr_scan", "ios": "https://dc.lft.to/lastmile_qr_scan"}, "name": "57e61540427acd9755f91a8539a3666f", "is_reserved": 0}, {"is_disabled": 0, "fusion_lon": 0.0, "fusion_lat": 0.0, "lat": 38.91150066666667, "type": "electric_scooter", "lon": -77.087842, "bike_id": "d6c350e1e2ad0355a6b556c5f5cc32c7", "rental_uris": {"android": "https://dc.lft.to/lastmile_qr_scan", "ios": "https://dc.lft.to/lastmile_qr_scan"}, "name": "d6c350e1e2ad0355a6b556c5f5cc32c7", "is_reserved": 0}, {"is_disabled": 0, "fusion_lon": 0.0, "fusion_lat": 0.0, "lat": 38.90650016666667, "type": "electric_scooter", "lon": -77.02534216666666, "bike_id": "b4b043384b26936a90b577646a211f38", "rental_uris": {"android": "https://dc.lft.to/lastmile_qr_scan", "ios": "https://dc.lft.to/lastmile_qr_scan"}, "name": "b4b043384b26936a90b577646a211f38", "is_reserved": 0}, {"is_disabled": 0, "fusion_lon": 0.0, "fusion_lat": 0.0, "lat": 38.929410833333336, "type": "electric_scooter", "lon": -77.03283783333333, "bike_id": "6161bc701d5bd8b4b77ced02425647f2", "rental_uris": {"android": "https://dc.lft.to/lastmile_qr_scan", "ios": "https://dc.lft.to/lastmile_qr_scan"}, "name": "6161bc701d5bd8b4b77ced02425647f2", "is_reserved": 0}, {"is_disabled": 0, "fusion_lon": 0.0, "fusion_lat": 0.0, "lat": 38.911081, "type": "electric_scooter", "lon": -77.028569, "bike_id": "f1045799d8d504d1873ff9dd2999a782", "rental_uris": {"android": "https://dc.lft.to/lastmile_qr_scan", "ios": "https://dc.lft.to/lastmile_qr_scan"}, "name": "f1045799d8d504d1873ff9dd2999a782", "is_reserved": 0}, {"is_disabled": 0, "fusion_lon": 0.0, "fusion_lat": 0.0, "lat": 38.89260133333333, "type": "electric_scooter", "lon": -76.941555, "bike_id": "d14d77b4533ce755382574d06be5e57a", "rental_uris": {"android": "https://dc.lft.to/lastmile_qr_scan", "ios": "https://dc.lft.to/lastmile_qr_scan"}, "name": "d14d77b4533ce755382574d06be5e57a", "is_reserved": 0}, {"is_disabled": 0, "fusion_lon": 0.0, "fusion_lat": 0.0, "lat": 38.96262566666667, "type": "electric_scooter", "lon": -77.02768866666666, "bike_id": "1cea0e95a249e5305c85702a1442afca", "rental_uris": {"android": "https://dc.lft.to/lastmile_qr_scan", "ios": "https://dc.lft.to/lastmile_qr_scan"}, "name": "1cea0e95a249e5305c85702a1442afca", "is_reserved": 0}, {"is_disabled": 0, "fusion_lon": 0.0, "fusion_lat": 0.0, "lat": 38.88347516666666, "type": "electric_scooter", "lon": -76.927838, "bike_id": "cfb0b7b0a89d20a57d08cc8db4dcc3bd", "rental_uris": {"android": "https://dc.lft.to/lastmile_qr_scan", "ios": "https://dc.lft.to/lastmile_qr_scan"}, "name": "cfb0b7b0a89d20a57d08cc8db4dcc3bd", "is_reserved": 0}, {"is_disabled": 0, "fusion_lon": 0.0, "fusion_lat": 0.0, "lat": 38.8316845, "type": "electric_bike", "lon": -76.99755283333333, "bike_id": "d16ab4a90f9fc0586a2221093d4664b3", "rental_uris": {"android": "https://dc.lft.to/lastmile_qr_scan", "ios": "https://dc.lft.to/lastmile_qr_scan"}, "name": "d16ab4a90f9fc0586a2221093d4664b3", "is_reserved": 0}, {"is_disabled": 0, "fusion_lon": 0.0, "fusion_lat": 0.0, "lat": 38.9138025, "type": "electric_scooter", "lon": -77.029711, "bike_id": "f0049fdd42e9f8c4f65c68c34aa7ba52", "rental_uris": {"android": "https://dc.lft.to/lastmile_qr_scan", "ios": "https://dc.lft.to/lastmile_qr_scan"}, "name": "f0049fdd42e9f8c4f65c68c34aa7ba52", "is_reserved": 0}, {"is_disabled": 0, "fusion_lon": 0.0, "fusion_lat": 0.0, "lat": 38.908237166666666, "type": "electric_scooter", "lon": -77.03344133333333, "bike_id": "fe364c18ef7ff1f5a34eb22b55453fa5", "rental_uris": {"android": "https://dc.lft.to/lastmile_qr_scan", "ios": "https://dc.lft.to/lastmile_qr_scan"}, "name": "fe364c18ef7ff1f5a34eb22b55453fa5", "is_reserved": 0}, {"is_disabled": 0, "fusion_lon": 0.0, "fusion_lat": 0.0, "lat": 38.901146833333335, "type": "electric_scooter", "lon": -77.04064866666667, "bike_id": "74acf42108d45e25f075d8b7dc157a36", "rental_uris": {"android": "https://dc.lft.to/lastmile_qr_scan", "ios": "https://dc.lft.to/lastmile_qr_scan"}, "name": "74acf42108d45e25f075d8b7dc157a36", "is_reserved": 0}, {"is_disabled": 0, "fusion_lon": 0.0, "fusion_lat": 0.0, "lat": 38.927072, "type": "electric_scooter", "lon": -76.9720605, "bike_id": "7de6fa2003ddae348335e4242dcfd297", "rental_uris": {"android": "https://dc.lft.to/lastmile_qr_scan", "ios": "https://dc.lft.to/lastmile_qr_scan"}, "name": "7de6fa2003ddae348335e4242dcfd297", "is_reserved": 0}, {"is_disabled": 0, "fusion_lon": 0.0, "fusion_lat": 0.0, "lat": 38.9056645, "type": "electric_scooter", "lon": -77.00550116666666, "bike_id": "e89c397e8d2dd584a416ce62cc1a0ee6", "rental_uris": {"android": "https://dc.lft.to/lastmile_qr_scan", "ios": "https://dc.lft.to/lastmile_qr_scan"}, "name": "e89c397e8d2dd584a416ce62cc1a0ee6", "is_reserved": 0}, {"is_disabled": 0, "fusion_lon": 0.0, "fusion_lat": 0.0, "lat": 38.97538083333333, "type": "electric_bike", "lon": -76.99531783333333, "bike_id": "158e3f5b421e882b8db47098c117a34c", "rental_uris": {"android": "https://dc.lft.to/lastmile_qr_scan", "ios": "https://dc.lft.to/lastmile_qr_scan"}, "name": "158e3f5b421e882b8db47098c117a34c", "is_reserved": 0}, {"is_disabled": 0, "fusion_lon": 0.0, "fusion_lat": 0.0, "lat": 38.9158775, "type": "electric_bike", "lon": -76.97149016666667, "bike_id": "5d6135f563ec30f47918014e48283b53", "rental_uris": {"android": "https://dc.lft.to/lastmile_qr_scan", "ios": "https://dc.lft.to/lastmile_qr_scan"}, "name": "5d6135f563ec30f47918014e48283b53", "is_reserved": 0}, {"is_disabled": 0, "fusion_lon": 0.0, "fusion_lat": 0.0, "lat": 38.93574066666667, "type": "electric_bike", "lon": -77.08250783333334, "bike_id": "ad517222aa8020e9bc3981c407f74c2f", "rental_uris": {"android": "https://dc.lft.to/lastmile_qr_scan", "ios": "https://dc.lft.to/lastmile_qr_scan"}, "name": "ad517222aa8020e9bc3981c407f74c2f", "is_reserved": 0}, {"is_disabled": 0, "fusion_lon": 0.0, "fusion_lat": 0.0, "lat": 38.8813075, "type": "electric_scooter", "lon": -77.02707266666667, "bike_id": "1167f8d1d5e4b50f439536a6f72c71b2", "rental_uris": {"android": "https://dc.lft.to/lastmile_qr_scan", "ios": "https://dc.lft.to/lastmile_qr_scan"}, "name": "1167f8d1d5e4b50f439536a6f72c71b2", "is_reserved": 0}, {"is_disabled": 0, "fusion_lon": 0.0, "fusion_lat": 0.0, "lat": 38.87139333333333, "type": "electric_scooter", "lon": -77.00753816666666, "bike_id": "e0e712bcb93051f7b9c75cb0fe51adab", "rental_uris": {"android": "https://dc.lft.to/lastmile_qr_scan", "ios": "https://dc.lft.to/lastmile_qr_scan"}, "name": "e0e712bcb93051f7b9c75cb0fe51adab", "is_reserved": 0}, {"is_disabled": 0, "fusion_lon": 0.0, "fusion_lat": 0.0, "lat": 38.904531166666665, "type": "electric_scooter", "lon": -77.04058983333333, "bike_id": "3c016afeece671578e14816482a50e3a", "rental_uris": {"android": "https://dc.lft.to/lastmile_qr_scan", "ios": "https://dc.lft.to/lastmile_qr_scan"}, "name": "3c016afeece671578e14816482a50e3a", "is_reserved": 0}, {"is_disabled": 0, "fusion_lon": 0.0, "fusion_lat": 0.0, "lat": 38.897146666666664, "type": "electric_scooter", "lon": -77.01167183333334, "bike_id": "4fa26d38905621458566373a079dd3e9", "rental_uris": {"android": "https://dc.lft.to/lastmile_qr_scan", "ios": "https://dc.lft.to/lastmile_qr_scan"}, "name": "4fa26d38905621458566373a079dd3e9", "is_reserved": 0}, {"is_disabled": 0, "fusion_lon": 0.0, "fusion_lat": 0.0, "lat": 38.91983283333333, "type": "electric_bike", "lon": -76.973078, "bike_id": "76e78f85aed772ad0eaeaea7fcaab564", "rental_uris": {"android": "https://dc.lft.to/lastmile_qr_scan", "ios": "https://dc.lft.to/lastmile_qr_scan"}, "name": "76e78f85aed772ad0eaeaea7fcaab564", "is_reserved": 0}, {"is_disabled": 0, "fusion_lon": 0.0, "fusion_lat": 0.0, "lat": 38.89731483333333, "type": "electric_scooter", "lon": -77.03037066666667, "bike_id": "565e0863bed37397401566c63a2d9f37", "rental_uris": {"android": "https://dc.lft.to/lastmile_qr_scan", "ios": "https://dc.lft.to/lastmile_qr_scan"}, "name": "565e0863bed37397401566c63a2d9f37", "is_reserved": 0}, {"is_disabled": 0, "fusion_lon": 0.0, "fusion_lat": 0.0, "lat": 38.9337825, "type": "electric_scooter", "lon": -77.07249316666666, "bike_id": "e437db37f001cb531665d17bf83f54c6", "rental_uris": {"android": "https://dc.lft.to/lastmile_qr_scan", "ios": "https://dc.lft.to/lastmile_qr_scan"}, "name": "e437db37f001cb531665d17bf83f54c6", "is_reserved": 0}, {"is_disabled": 0, "fusion_lon": 0.0, "fusion_lat": 0.0, "lat": 38.89622466666667, "type": "electric_scooter", "lon": -77.00907983333333, "bike_id": "954255d2b245543eefac68450777befa", "rental_uris": {"android": "https://dc.lft.to/lastmile_qr_scan", "ios": "https://dc.lft.to/lastmile_qr_scan"}, "name": "954255d2b245543eefac68450777befa", "is_reserved": 0}, {"is_disabled": 0, "fusion_lon": 0.0, "fusion_lat": 0.0, "lat": 38.91413683333333, "type": "electric_scooter", "lon": -77.02211, "bike_id": "05d7b97aee35a680588ea495aab3f20a", "rental_uris": {"android": "https://dc.lft.to/lastmile_qr_scan", "ios": "https://dc.lft.to/lastmile_qr_scan"}, "name": "05d7b97aee35a680588ea495aab3f20a", "is_reserved": 0}, {"is_disabled": 0, "fusion_lon": 0.0, "fusion_lat": 0.0, "lat": 38.904873, "type": "electric_scooter", "lon": -77.035492, "bike_id": "119d8ead754c834317595f06d49e591c", "rental_uris": {"android": "https://dc.lft.to/lastmile_qr_scan", "ios": "https://dc.lft.to/lastmile_qr_scan"}, "name": "119d8ead754c834317595f06d49e591c", "is_reserved": 0}, {"is_disabled": 0, "fusion_lon": 0.0, "fusion_lat": 0.0, "lat": 38.87738233333334, "type": "electric_scooter", "lon": -76.99626966666666, "bike_id": "b38f356bee72f409e026a8f83d97634a", "rental_uris": {"android": "https://dc.lft.to/lastmile_qr_scan", "ios": "https://dc.lft.to/lastmile_qr_scan"}, "name": "b38f356bee72f409e026a8f83d97634a", "is_reserved": 0}, {"is_disabled": 0, "fusion_lon": 0.0, "fusion_lat": 0.0, "lat": 38.89838983333333, "type": "electric_scooter", "lon": -77.043417, "bike_id": "848d22820fbeb1ebfeb2d2b614130d3b", "rental_uris": {"android": "https://dc.lft.to/lastmile_qr_scan", "ios": "https://dc.lft.to/lastmile_qr_scan"}, "name": "848d22820fbeb1ebfeb2d2b614130d3b", "is_reserved": 0}, {"is_disabled": 0, "fusion_lon": 0.0, "fusion_lat": 0.0, "lat": 38.8766265, "type": "electric_scooter", "lon": -77.015769, "bike_id": "55f834918be92176631acf335b33e9f8", "rental_uris": {"android": "https://dc.lft.to/lastmile_qr_scan", "ios": "https://dc.lft.to/lastmile_qr_scan"}, "name": "55f834918be92176631acf335b33e9f8", "is_reserved": 0}, {"is_disabled": 0, "fusion_lon": 0.0, "fusion_lat": 0.0, "lat": 38.926219333333336, "type": "electric_scooter", "lon": -77.04196133333333, "bike_id": "d97578e924d96107eb31697180c88b49", "rental_uris": {"android": "https://dc.lft.to/lastmile_qr_scan", "ios": "https://dc.lft.to/lastmile_qr_scan"}, "name": "d97578e924d96107eb31697180c88b49", "is_reserved": 0}, {"is_disabled": 0, "fusion_lon": 0.0, "fusion_lat": 0.0, "lat": 38.944590166666664, "type": "electric_scooter", "lon": -77.06017066666666, "bike_id": "e9bf761899d846b932be526681754ba8", "rental_uris": {"android": "https://dc.lft.to/lastmile_qr_scan", "ios": "https://dc.lft.to/lastmile_qr_scan"}, "name": "e9bf761899d846b932be526681754ba8", "is_reserved": 0}, {"is_disabled": 0, "fusion_lon": 0.0, "fusion_lat": 0.0, "lat": 38.99665666666667, "type": "electric_bike", "lon": -76.99140366666667, "bike_id": "81f80dd6e7681ba2813e9aa9ef96a2af", "rental_uris": {"android": "https://dc.lft.to/lastmile_qr_scan", "ios": "https://dc.lft.to/lastmile_qr_scan"}, "name": "81f80dd6e7681ba2813e9aa9ef96a2af", "is_reserved": 0}, {"is_disabled": 0, "fusion_lon": 0.0, "fusion_lat": 0.0, "lat": 38.909456, "type": "electric_scooter", "lon": -77.06440116666667, "bike_id": "75f5590bd8611d07d52dc2c349741c71", "rental_uris": {"android": "https://dc.lft.to/lastmile_qr_scan", "ios": "https://dc.lft.to/lastmile_qr_scan"}, "name": "75f5590bd8611d07d52dc2c349741c71", "is_reserved": 0}, {"is_disabled": 0, "fusion_lon": 0.0, "fusion_lat": 0.0, "lat": 38.952248833333336, "type": "electric_scooter", "lon": -77.0276115, "bike_id": "a2643a8cd2aa0c7c37b97fb4d9e99ed4", "rental_uris": {"android": "https://dc.lft.to/lastmile_qr_scan", "ios": "https://dc.lft.to/lastmile_qr_scan"}, "name": "a2643a8cd2aa0c7c37b97fb4d9e99ed4", "is_reserved": 0}, {"is_disabled": 0, "fusion_lon": 0.0, "fusion_lat": 0.0, "lat": 38.860589166666664, "type": "electric_scooter", "lon": -76.98508383333333, "bike_id": "d60bf98acd5626b85a0f5a4a8d18f012", "rental_uris": {"android": "https://dc.lft.to/lastmile_qr_scan", "ios": "https://dc.lft.to/lastmile_qr_scan"}, "name": "d60bf98acd5626b85a0f5a4a8d18f012", "is_reserved": 0}, {"is_disabled": 0, "fusion_lon": 0.0, "fusion_lat": 0.0, "lat": 38.92877166666667, "type": "electric_scooter", "lon": -77.04130616666667, "bike_id": "486564498579415a9f2f297c8d6168b7", "rental_uris": {"android": "https://dc.lft.to/lastmile_qr_scan", "ios": "https://dc.lft.to/lastmile_qr_scan"}, "name": "486564498579415a9f2f297c8d6168b7", "is_reserved": 0}, {"is_disabled": 0, "fusion_lon": 0.0, "fusion_lat": 0.0, "lat": 38.90964866666667, "type": "electric_scooter", "lon": -77.04795683333333, "bike_id": "9e925d5d6a42e19b6012ddc575409a44", "rental_uris": {"android": "https://dc.lft.to/lastmile_qr_scan", "ios": "https://dc.lft.to/lastmile_qr_scan"}, "name": "9e925d5d6a42e19b6012ddc575409a44", "is_reserved": 0}, {"is_disabled": 0, "fusion_lon": 0.0, "fusion_lat": 0.0, "lat": 38.91482366666666, "type": "electric_scooter", "lon": -77.04080966666666, "bike_id": "77b07009565ff5f58ae40d63a64029ea", "rental_uris": {"android": "https://dc.lft.to/lastmile_qr_scan", "ios": "https://dc.lft.to/lastmile_qr_scan"}, "name": "77b07009565ff5f58ae40d63a64029ea", "is_reserved": 0}, {"is_disabled": 0, "fusion_lon": 0.0, "fusion_lat": 0.0, "lat": 38.91386266666667, "type": "electric_scooter", "lon": -77.02967383333333, "bike_id": "80a1a7fd67d60c5e665bb6142fd4b8c5", "rental_uris": {"android": "https://dc.lft.to/lastmile_qr_scan", "ios": "https://dc.lft.to/lastmile_qr_scan"}, "name": "80a1a7fd67d60c5e665bb6142fd4b8c5", "is_reserved": 0}, {"is_disabled": 0, "fusion_lon": 0.0, "fusion_lat": 0.0, "lat": 38.8987725, "type": "electric_scooter", "lon": -76.93162866666667, "bike_id": "876fc730c19681181050c79b8cb8c1ba", "rental_uris": {"android": "https://dc.lft.to/lastmile_qr_scan", "ios": "https://dc.lft.to/lastmile_qr_scan"}, "name": "876fc730c19681181050c79b8cb8c1ba", "is_reserved": 0}, {"is_disabled": 0, "fusion_lon": 0.0, "fusion_lat": 0.0, "lat": 38.8875605, "type": "electric_scooter", "lon": -77.0022375, "bike_id": "918b5e39977c371e954d92661afc8aba", "rental_uris": {"android": "https://dc.lft.to/lastmile_qr_scan", "ios": "https://dc.lft.to/lastmile_qr_scan"}, "name": "918b5e39977c371e954d92661afc8aba", "is_reserved": 0}, {"is_disabled": 0, "fusion_lon": 0.0, "fusion_lat": 0.0, "lat": 38.90071916666667, "type": "electric_scooter", "lon": -77.050231, "bike_id": "72c4f0ab7627111ce5d880899181fe1c", "rental_uris": {"android": "https://dc.lft.to/lastmile_qr_scan", "ios": "https://dc.lft.to/lastmile_qr_scan"}, "name": "72c4f0ab7627111ce5d880899181fe1c", "is_reserved": 0}, {"is_disabled": 0, "fusion_lon": 0.0, "fusion_lat": 0.0, "lat": 38.90956283333333, "type": "electric_scooter", "lon": -77.04841783333333, "bike_id": "f13ea9eba9bd24c00750e1ed835b21b4", "rental_uris": {"android": "https://dc.lft.to/lastmile_qr_scan", "ios": "https://dc.lft.to/lastmile_qr_scan"}, "name": "f13ea9eba9bd24c00750e1ed835b21b4", "is_reserved": 0}, {"is_disabled": 0, "fusion_lon": 0.0, "fusion_lat": 0.0, "lat": 38.89786866666667, "type": "electric_scooter", "lon": -77.02481433333334, "bike_id": "d836b1bd805c5478b56446390cbeb207", "rental_uris": {"android": "https://dc.lft.to/lastmile_qr_scan", "ios": "https://dc.lft.to/lastmile_qr_scan"}, "name": "d836b1bd805c5478b56446390cbeb207", "is_reserved": 0}, {"is_disabled": 0, "fusion_lon": 0.0, "fusion_lat": 0.0, "lat": 38.945419, "type": "electric_scooter", "lon": -77.02532833333333, "bike_id": "7ad833be449963a70147ae7b02b7274b", "rental_uris": {"android": "https://dc.lft.to/lastmile_qr_scan", "ios": "https://dc.lft.to/lastmile_qr_scan"}, "name": "7ad833be449963a70147ae7b02b7274b", "is_reserved": 0}, {"is_disabled": 0, "fusion_lon": 0.0, "fusion_lat": 0.0, "lat": 38.93455933333333, "type": "electric_scooter", "lon": -77.0305275, "bike_id": "6dba3863fd820b3c9fea9999d4bd2d49", "rental_uris": {"android": "https://dc.lft.to/lastmile_qr_scan", "ios": "https://dc.lft.to/lastmile_qr_scan"}, "name": "6dba3863fd820b3c9fea9999d4bd2d49", "is_reserved": 0}, {"is_disabled": 0, "fusion_lon": 0.0, "fusion_lat": 0.0, "lat": 38.929156, "type": "electric_scooter", "lon": -77.0317225, "bike_id": "f04506c9a65db4850f9e3789c1253b9b", "rental_uris": {"android": "https://dc.lft.to/lastmile_qr_scan", "ios": "https://dc.lft.to/lastmile_qr_scan"}, "name": "f04506c9a65db4850f9e3789c1253b9b", "is_reserved": 0}, {"is_disabled": 0, "fusion_lon": 0.0, "fusion_lat": 0.0, "lat": 38.92533733333333, "type": "electric_scooter", "lon": -77.07324333333334, "bike_id": "2ac531545abc80601809d9d233aec221", "rental_uris": {"android": "https://dc.lft.to/lastmile_qr_scan", "ios": "https://dc.lft.to/lastmile_qr_scan"}, "name": "2ac531545abc80601809d9d233aec221", "is_reserved": 0}, {"is_disabled": 0, "fusion_lon": 0.0, "fusion_lat": 0.0, "lat": 38.867016666666665, "type": "electric_scooter", "lon": -76.98710283333334, "bike_id": "cf58efff40caf96cc0678bdac78d4e71", "rental_uris": {"android": "https://dc.lft.to/lastmile_qr_scan", "ios": "https://dc.lft.to/lastmile_qr_scan"}, "name": "cf58efff40caf96cc0678bdac78d4e71", "is_reserved": 0}, {"is_disabled": 0, "fusion_lon": 0.0, "fusion_lat": 0.0, "lat": 38.89466633333333, "type": "electric_scooter", "lon": -77.02199683333333, "bike_id": "7880c7722bec9e1c8b82c32f4e97c2fe", "rental_uris": {"android": "https://dc.lft.to/lastmile_qr_scan", "ios": "https://dc.lft.to/lastmile_qr_scan"}, "name": "7880c7722bec9e1c8b82c32f4e97c2fe", "is_reserved": 0}, {"is_disabled": 0, "fusion_lon": 0.0, "fusion_lat": 0.0, "lat": 38.95277216666667, "type": "electric_scooter", "lon": -77.06870366666666, "bike_id": "84639e66834be9a484194e9aaf42d0bb", "rental_uris": {"android": "https://dc.lft.to/lastmile_qr_scan", "ios": "https://dc.lft.to/lastmile_qr_scan"}, "name": "84639e66834be9a484194e9aaf42d0bb", "is_reserved": 0}, {"is_disabled": 0, "fusion_lon": 0.0, "fusion_lat": 0.0, "lat": 38.911417, "type": "electric_scooter", "lon": -77.02194433333334, "bike_id": "4e6e1d0ce9f3f8552feb7561a2dda7db", "rental_uris": {"android": "https://dc.lft.to/lastmile_qr_scan", "ios": "https://dc.lft.to/lastmile_qr_scan"}, "name": "4e6e1d0ce9f3f8552feb7561a2dda7db", "is_reserved": 0}, {"is_disabled": 0, "fusion_lon": 0.0, "fusion_lat": 0.0, "lat": 38.9052575, "type": "electric_scooter", "lon": -77.04347533333333, "bike_id": "c2fc4d818272f805262850947501af0b", "rental_uris": {"android": "https://dc.lft.to/lastmile_qr_scan", "ios": "https://dc.lft.to/lastmile_qr_scan"}, "name": "c2fc4d818272f805262850947501af0b", "is_reserved": 0}, {"is_disabled": 0, "fusion_lon": 0.0, "fusion_lat": 0.0, "lat": 38.88607116666667, "type": "electric_scooter", "lon": -77.00584766666667, "bike_id": "9fcfe87a1c52ba7d4196e08cf24c14df", "rental_uris": {"android": "https://dc.lft.to/lastmile_qr_scan", "ios": "https://dc.lft.to/lastmile_qr_scan"}, "name": "9fcfe87a1c52ba7d4196e08cf24c14df", "is_reserved": 0}, {"is_disabled": 0, "fusion_lon": 0.0, "fusion_lat": 0.0, "lat": 38.8705425, "type": "electric_scooter", "lon": -76.9807925, "bike_id": "43e994851ba94ef5f14fd0befd7ef421", "rental_uris": {"android": "https://dc.lft.to/lastmile_qr_scan", "ios": "https://dc.lft.to/lastmile_qr_scan"}, "name": "43e994851ba94ef5f14fd0befd7ef421", "is_reserved": 0}, {"is_disabled": 0, "fusion_lon": 0.0, "fusion_lat": 0.0, "lat": 38.8493035, "type": "electric_bike", "lon": -77.10007616666667, "bike_id": "fa901ee66edba3527c6dac0616a43598", "rental_uris": {"android": "https://dc.lft.to/lastmile_qr_scan", "ios": "https://dc.lft.to/lastmile_qr_scan"}, "name": "fa901ee66edba3527c6dac0616a43598", "is_reserved": 0}, {"is_disabled": 0, "fusion_lon": 0.0, "fusion_lat": 0.0, "lat": 38.901385, "type": "electric_scooter", "lon": -77.04880416666667, "bike_id": "e93c96ac02f30301382a71c01a9b66ba", "rental_uris": {"android": "https://dc.lft.to/lastmile_qr_scan", "ios": "https://dc.lft.to/lastmile_qr_scan"}, "name": "e93c96ac02f30301382a71c01a9b66ba", "is_reserved": 0}, {"is_disabled": 0, "fusion_lon": 0.0, "fusion_lat": 0.0, "lat": 38.9164795, "type": "electric_scooter", "lon": -77.0217635, "bike_id": "97af79468ebbb3d60a8b022a9543c5f8", "rental_uris": {"android": "https://dc.lft.to/lastmile_qr_scan", "ios": "https://dc.lft.to/lastmile_qr_scan"}, "name": "97af79468ebbb3d60a8b022a9543c5f8", "is_reserved": 0}, {"is_disabled": 0, "fusion_lon": 0.0, "fusion_lat": 0.0, "lat": 38.95638966666667, "type": "electric_scooter", "lon": -77.09096266666667, "bike_id": "95b7316a838dd16c461944397db3d383", "rental_uris": {"android": "https://dc.lft.to/lastmile_qr_scan", "ios": "https://dc.lft.to/lastmile_qr_scan"}, "name": "95b7316a838dd16c461944397db3d383", "is_reserved": 0}, {"is_disabled": 0, "fusion_lon": 0.0, "fusion_lat": 0.0, "lat": 38.91913, "type": "electric_scooter", "lon": -77.02412766666667, "bike_id": "9967f2cecac4a78a26cafd4b6ef39299", "rental_uris": {"android": "https://dc.lft.to/lastmile_qr_scan", "ios": "https://dc.lft.to/lastmile_qr_scan"}, "name": "9967f2cecac4a78a26cafd4b6ef39299", "is_reserved": 0}, {"is_disabled": 0, "fusion_lon": 0.0, "fusion_lat": 0.0, "lat": 38.856470333333334, "type": "electric_bike", "lon": -77.08526683333334, "bike_id": "c3dbfc65925eb32e49272da99d8f3b14", "rental_uris": {"android": "https://dc.lft.to/lastmile_qr_scan", "ios": "https://dc.lft.to/lastmile_qr_scan"}, "name": "c3dbfc65925eb32e49272da99d8f3b14", "is_reserved": 0}, {"is_disabled": 0, "fusion_lon": 0.0, "fusion_lat": 0.0, "lat": 38.8983295, "type": "electric_scooter", "lon": -76.946316, "bike_id": "a174d53b6f7caa22ae691debd23400cf", "rental_uris": {"android": "https://dc.lft.to/lastmile_qr_scan", "ios": "https://dc.lft.to/lastmile_qr_scan"}, "name": "a174d53b6f7caa22ae691debd23400cf", "is_reserved": 0}, {"is_disabled": 0, "fusion_lon": 0.0, "fusion_lat": 0.0, "lat": 38.91825983333333, "type": "electric_scooter", "lon": -77.02426933333334, "bike_id": "86828ecdc3596f48e40c72908f3af646", "rental_uris": {"android": "https://dc.lft.to/lastmile_qr_scan", "ios": "https://dc.lft.to/lastmile_qr_scan"}, "name": "86828ecdc3596f48e40c72908f3af646", "is_reserved": 0}, {"is_disabled": 0, "fusion_lon": 0.0, "fusion_lat": 0.0, "lat": 38.913832166666666, "type": "electric_scooter", "lon": -77.0296665, "bike_id": "3018169790e7b4418b790c29f1156078", "rental_uris": {"android": "https://dc.lft.to/lastmile_qr_scan", "ios": "https://dc.lft.to/lastmile_qr_scan"}, "name": "3018169790e7b4418b790c29f1156078", "is_reserved": 0}, {"is_disabled": 0, "fusion_lon": 0.0, "fusion_lat": 0.0, "lat": 38.91911833333333, "type": "electric_scooter", "lon": -77.0296995, "bike_id": "0aa932bf0f8572fc48198b6629506a05", "rental_uris": {"android": "https://dc.lft.to/lastmile_qr_scan", "ios": "https://dc.lft.to/lastmile_qr_scan"}, "name": "0aa932bf0f8572fc48198b6629506a05", "is_reserved": 0}, {"is_disabled": 0, "fusion_lon": 0.0, "fusion_lat": 0.0, "lat": 38.91697333333333, "type": "electric_scooter", "lon": -77.02718633333333, "bike_id": "271e95b07e7e6b80ded2955f87133a81", "rental_uris": {"android": "https://dc.lft.to/lastmile_qr_scan", "ios": "https://dc.lft.to/lastmile_qr_scan"}, "name": "271e95b07e7e6b80ded2955f87133a81", "is_reserved": 0}, {"is_disabled": 0, "fusion_lon": 0.0, "fusion_lat": 0.0, "lat": 38.916935, "type": "electric_scooter", "lon": -77.01167, "bike_id": "d44297e20cd556250c7f8070bf626843", "rental_uris": {"android": "https://dc.lft.to/lastmile_qr_scan", "ios": "https://dc.lft.to/lastmile_qr_scan"}, "name": "d44297e20cd556250c7f8070bf626843", "is_reserved": 0}, {"is_disabled": 0, "fusion_lon": 0.0, "fusion_lat": 0.0, "lat": 38.912548, "type": "electric_scooter", "lon": -77.02858816666667, "bike_id": "67e09a62f46628ce7617ebebef62012e", "rental_uris": {"android": "https://dc.lft.to/lastmile_qr_scan", "ios": "https://dc.lft.to/lastmile_qr_scan"}, "name": "67e09a62f46628ce7617ebebef62012e", "is_reserved": 0}, {"is_disabled": 0, "fusion_lon": 0.0, "fusion_lat": 0.0, "lat": 38.92978033333333, "type": "electric_scooter", "lon": -77.03184783333333, "bike_id": "8ab4d6905f8a77dafa2fe624856a391c", "rental_uris": {"android": "https://dc.lft.to/lastmile_qr_scan", "ios": "https://dc.lft.to/lastmile_qr_scan"}, "name": "8ab4d6905f8a77dafa2fe624856a391c", "is_reserved": 0}, {"is_disabled": 0, "fusion_lon": 0.0, "fusion_lat": 0.0, "lat": 38.9415515, "type": "electric_bike", "lon": -77.00193616666667, "bike_id": "61ef0b63833eb557748f72ad966eb2d5", "rental_uris": {"android": "https://dc.lft.to/lastmile_qr_scan", "ios": "https://dc.lft.to/lastmile_qr_scan"}, "name": "61ef0b63833eb557748f72ad966eb2d5", "is_reserved": 0}, {"is_disabled": 0, "fusion_lon": 0.0, "fusion_lat": 0.0, "lat": 38.933841666666666, "type": "electric_scooter", "lon": -77.02465933333333, "bike_id": "525d5be17adfd16e81524d87cc9f9d43", "rental_uris": {"android": "https://dc.lft.to/lastmile_qr_scan", "ios": "https://dc.lft.to/lastmile_qr_scan"}, "name": "525d5be17adfd16e81524d87cc9f9d43", "is_reserved": 0}, {"is_disabled": 0, "fusion_lon": 0.0, "fusion_lat": 0.0, "lat": 38.93532283333333, "type": "electric_scooter", "lon": -77.02353216666667, "bike_id": "ab2ec3a17b3e296795ea955aaeaea988", "rental_uris": {"android": "https://dc.lft.to/lastmile_qr_scan", "ios": "https://dc.lft.to/lastmile_qr_scan"}, "name": "ab2ec3a17b3e296795ea955aaeaea988", "is_reserved": 0}, {"is_disabled": 0, "fusion_lon": 0.0, "fusion_lat": 0.0, "lat": 38.935424833333336, "type": "electric_scooter", "lon": -77.05770966666667, "bike_id": "7843560c2339ebebf2e58e4df5477284", "rental_uris": {"android": "https://dc.lft.to/lastmile_qr_scan", "ios": "https://dc.lft.to/lastmile_qr_scan"}, "name": "7843560c2339ebebf2e58e4df5477284", "is_reserved": 0}, {"is_disabled": 0, "fusion_lon": 0.0, "fusion_lat": 0.0, "lat": 38.942502833333336, "type": "electric_scooter", "lon": -77.021617, "bike_id": "ae0d01d60ce5bac032cf385707c29f48", "rental_uris": {"android": "https://dc.lft.to/lastmile_qr_scan", "ios": "https://dc.lft.to/lastmile_qr_scan"}, "name": "ae0d01d60ce5bac032cf385707c29f48", "is_reserved": 0}, {"is_disabled": 0, "fusion_lon": 0.0, "fusion_lat": 0.0, "lat": 38.867265333333336, "type": "electric_scooter", "lon": -76.98846933333333, "bike_id": "bdd6b44c480bccbda7afb6552a62ae6e", "rental_uris": {"android": "https://dc.lft.to/lastmile_qr_scan", "ios": "https://dc.lft.to/lastmile_qr_scan"}, "name": "bdd6b44c480bccbda7afb6552a62ae6e", "is_reserved": 0}, {"is_disabled": 0, "fusion_lon": 0.0, "fusion_lat": 0.0, "lat": 38.87006083333333, "type": "electric_scooter", "lon": -77.013766, "bike_id": "a8fe8b359712329939863bd7e747b0dd", "rental_uris": {"android": "https://dc.lft.to/lastmile_qr_scan", "ios": "https://dc.lft.to/lastmile_qr_scan"}, "name": "a8fe8b359712329939863bd7e747b0dd", "is_reserved": 0}, {"is_disabled": 0, "fusion_lon": 0.0, "fusion_lat": 0.0, "lat": 38.83150766666667, "type": "electric_bike", "lon": -76.996884, "bike_id": "903b0b2151235ae46195b2751e2afba4", "rental_uris": {"android": "https://dc.lft.to/lastmile_qr_scan", "ios": "https://dc.lft.to/lastmile_qr_scan"}, "name": "903b0b2151235ae46195b2751e2afba4", "is_reserved": 0}, {"is_disabled": 0, "fusion_lon": 0.0, "fusion_lat": 0.0, "lat": 38.9498125, "type": "electric_scooter", "lon": -77.027031, "bike_id": "cdf9896b0243fd20b9a3b8524c6b6454", "rental_uris": {"android": "https://dc.lft.to/lastmile_qr_scan", "ios": "https://dc.lft.to/lastmile_qr_scan"}, "name": "cdf9896b0243fd20b9a3b8524c6b6454", "is_reserved": 0}, {"is_disabled": 0, "fusion_lon": 0.0, "fusion_lat": 0.0, "lat": 38.90953866666667, "type": "electric_scooter", "lon": -77.02884833333333, "bike_id": "b882bf50a1f8c64409008cb81d5c9ac4", "rental_uris": {"android": "https://dc.lft.to/lastmile_qr_scan", "ios": "https://dc.lft.to/lastmile_qr_scan"}, "name": "b882bf50a1f8c64409008cb81d5c9ac4", "is_reserved": 0}, {"is_disabled": 0, "fusion_lon": 0.0, "fusion_lat": 0.0, "lat": 38.898402833333336, "type": "electric_scooter", "lon": -77.02209183333333, "bike_id": "2302193b565e06b125e0f1ebb94ef2ba", "rental_uris": {"android": "https://dc.lft.to/lastmile_qr_scan", "ios": "https://dc.lft.to/lastmile_qr_scan"}, "name": "2302193b565e06b125e0f1ebb94ef2ba", "is_reserved": 0}, {"is_disabled": 0, "fusion_lon": 0.0, "fusion_lat": 0.0, "lat": 38.897927333333335, "type": "electric_scooter", "lon": -76.93056183333333, "bike_id": "088c658a436e4b4288abe60b24363db6", "rental_uris": {"android": "https://dc.lft.to/lastmile_qr_scan", "ios": "https://dc.lft.to/lastmile_qr_scan"}, "name": "088c658a436e4b4288abe60b24363db6", "is_reserved": 0}, {"is_disabled": 0, "fusion_lon": 0.0, "fusion_lat": 0.0, "lat": 38.905579833333334, "type": "electric_scooter", "lon": -77.0279115, "bike_id": "f61a2e8a30fa1e1a424bb75361a1f467", "rental_uris": {"android": "https://dc.lft.to/lastmile_qr_scan", "ios": "https://dc.lft.to/lastmile_qr_scan"}, "name": "f61a2e8a30fa1e1a424bb75361a1f467", "is_reserved": 0}, {"is_disabled": 0, "fusion_lon": 0.0, "fusion_lat": 0.0, "lat": 38.9197765, "type": "electric_scooter", "lon": -77.04123933333334, "bike_id": "78ab2f81de6742cdd1d205269994da6b", "rental_uris": {"android": "https://dc.lft.to/lastmile_qr_scan", "ios": "https://dc.lft.to/lastmile_qr_scan"}, "name": "78ab2f81de6742cdd1d205269994da6b", "is_reserved": 0}, {"is_disabled": 0, "fusion_lon": 0.0, "fusion_lat": 0.0, "lat": 38.939689, "type": "electric_bike", "lon": -77.36094333333334, "bike_id": "eca97a3cb9e63c50e000209da9b256b1", "rental_uris": {"android": "https://dc.lft.to/lastmile_qr_scan", "ios": "https://dc.lft.to/lastmile_qr_scan"}, "name": "eca97a3cb9e63c50e000209da9b256b1", "is_reserved": 0}, {"is_disabled": 0, "fusion_lon": 0.0, "fusion_lat": 0.0, "lat": 38.922846666666665, "type": "electric_scooter", "lon": -77.04459883333334, "bike_id": "2d5cee215d472afc4d0df393160df004", "rental_uris": {"android": "https://dc.lft.to/lastmile_qr_scan", "ios": "https://dc.lft.to/lastmile_qr_scan"}, "name": "2d5cee215d472afc4d0df393160df004", "is_reserved": 0}, {"is_disabled": 0, "fusion_lon": 0.0, "fusion_lat": 0.0, "lat": 38.87585, "type": "electric_scooter", "lon": -77.00416233333333, "bike_id": "76cedd241693f0d3f05c162dbc8c3cbc", "rental_uris": {"android": "https://dc.lft.to/lastmile_qr_scan", "ios": "https://dc.lft.to/lastmile_qr_scan"}, "name": "76cedd241693f0d3f05c162dbc8c3cbc", "is_reserved": 0}, {"is_disabled": 0, "fusion_lon": 0.0, "fusion_lat": 0.0, "lat": 38.92612166666667, "type": "electric_scooter", "lon": -77.02158883333334, "bike_id": "84e022a5c76225e63bbf279f44796ee9", "rental_uris": {"android": "https://dc.lft.to/lastmile_qr_scan", "ios": "https://dc.lft.to/lastmile_qr_scan"}, "name": "84e022a5c76225e63bbf279f44796ee9", "is_reserved": 0}, {"is_disabled": 0, "fusion_lon": 0.0, "fusion_lat": 0.0, "lat": 38.895259333333335, "type": "electric_scooter", "lon": -77.04852583333333, "bike_id": "e99cba63b46485e4a8f5f7f045b23fdd", "rental_uris": {"android": "https://dc.lft.to/lastmile_qr_scan", "ios": "https://dc.lft.to/lastmile_qr_scan"}, "name": "e99cba63b46485e4a8f5f7f045b23fdd", "is_reserved": 0}, {"is_disabled": 0, "fusion_lon": 0.0, "fusion_lat": 0.0, "lat": 38.92475183333333, "type": "electric_scooter", "lon": -77.07302283333334, "bike_id": "8337353934ef84ddf587201dbf72c906", "rental_uris": {"android": "https://dc.lft.to/lastmile_qr_scan", "ios": "https://dc.lft.to/lastmile_qr_scan"}, "name": "8337353934ef84ddf587201dbf72c906", "is_reserved": 0}, {"is_disabled": 0, "fusion_lon": 0.0, "fusion_lat": 0.0, "lat": 38.92486383333333, "type": "electric_scooter", "lon": -77.03179483333334, "bike_id": "332cb3b24c905c9b3c09c1350e44020f", "rental_uris": {"android": "https://dc.lft.to/lastmile_qr_scan", "ios": "https://dc.lft.to/lastmile_qr_scan"}, "name": "332cb3b24c905c9b3c09c1350e44020f", "is_reserved": 0}, {"is_disabled": 0, "fusion_lon": 0.0, "fusion_lat": 0.0, "lat": 38.87755766666667, "type": "electric_bike", "lon": -76.9800085, "bike_id": "3c933d8e1e2eb6fa7987a1c213faca17", "rental_uris": {"android": "https://dc.lft.to/lastmile_qr_scan", "ios": "https://dc.lft.to/lastmile_qr_scan"}, "name": "3c933d8e1e2eb6fa7987a1c213faca17", "is_reserved": 0}, {"is_disabled": 0, "fusion_lon": 0.0, "fusion_lat": 0.0, "lat": 38.903590333333334, "type": "electric_scooter", "lon": -77.05917433333333, "bike_id": "a96ab7cf748804b9ba99f9ac58b154cd", "rental_uris": {"android": "https://dc.lft.to/lastmile_qr_scan", "ios": "https://dc.lft.to/lastmile_qr_scan"}, "name": "a96ab7cf748804b9ba99f9ac58b154cd", "is_reserved": 0}, {"is_disabled": 0, "fusion_lon": 0.0, "fusion_lat": 0.0, "lat": 38.890103, "type": "electric_scooter", "lon": -77.0332275, "bike_id": "36afd5f77cebe6ad85d8371e6a566684", "rental_uris": {"android": "https://dc.lft.to/lastmile_qr_scan", "ios": "https://dc.lft.to/lastmile_qr_scan"}, "name": "36afd5f77cebe6ad85d8371e6a566684", "is_reserved": 0}, {"is_disabled": 0, "fusion_lon": 0.0, "fusion_lat": 0.0, "lat": 38.93484383333333, "type": "electric_scooter", "lon": -77.072584, "bike_id": "55fd9fbffcc5c0bc4f999a6990594067", "rental_uris": {"android": "https://dc.lft.to/lastmile_qr_scan", "ios": "https://dc.lft.to/lastmile_qr_scan"}, "name": "55fd9fbffcc5c0bc4f999a6990594067", "is_reserved": 0}, {"is_disabled": 0, "fusion_lon": 0.0, "fusion_lat": 0.0, "lat": 38.88768183333333, "type": "electric_scooter", "lon": -76.9891675, "bike_id": "10b678c9979bab2ab39055269fdd11ac", "rental_uris": {"android": "https://dc.lft.to/lastmile_qr_scan", "ios": "https://dc.lft.to/lastmile_qr_scan"}, "name": "10b678c9979bab2ab39055269fdd11ac", "is_reserved": 0}, {"is_disabled": 0, "fusion_lon": 0.0, "fusion_lat": 0.0, "lat": 38.902365333333336, "type": "electric_scooter", "lon": -77.05270066666667, "bike_id": "2e85a150d4f9f3011ace4273e3aefb16", "rental_uris": {"android": "https://dc.lft.to/lastmile_qr_scan", "ios": "https://dc.lft.to/lastmile_qr_scan"}, "name": "2e85a150d4f9f3011ace4273e3aefb16", "is_reserved": 0}, {"is_disabled": 0, "fusion_lon": 0.0, "fusion_lat": 0.0, "lat": 38.899984833333335, "type": "electric_scooter", "lon": -76.99157183333334, "bike_id": "967b584805a7eed95c8d1167c9693264", "rental_uris": {"android": "https://dc.lft.to/lastmile_qr_scan", "ios": "https://dc.lft.to/lastmile_qr_scan"}, "name": "967b584805a7eed95c8d1167c9693264", "is_reserved": 0}, {"is_disabled": 0, "fusion_lon": 0.0, "fusion_lat": 0.0, "lat": 38.916823666666666, "type": "electric_scooter", "lon": -77.02459833333333, "bike_id": "f32582b6b44421400f470f5387aa088c", "rental_uris": {"android": "https://dc.lft.to/lastmile_qr_scan", "ios": "https://dc.lft.to/lastmile_qr_scan"}, "name": "f32582b6b44421400f470f5387aa088c", "is_reserved": 0}, {"is_disabled": 0, "fusion_lon": 0.0, "fusion_lat": 0.0, "lat": 38.9705215, "type": "electric_bike", "lon": -76.9606565, "bike_id": "81bd865c60ded19ed934903d291b8e5d", "rental_uris": {"android": "https://dc.lft.to/lastmile_qr_scan", "ios": "https://dc.lft.to/lastmile_qr_scan"}, "name": "81bd865c60ded19ed934903d291b8e5d", "is_reserved": 0}, {"is_disabled": 0, "fusion_lon": 0.0, "fusion_lat": 0.0, "lat": 38.90119466666667, "type": "electric_scooter", "lon": -77.039833, "bike_id": "10903f34ec79bb17b3b3b431d51e3af5", "rental_uris": {"android": "https://dc.lft.to/lastmile_qr_scan", "ios": "https://dc.lft.to/lastmile_qr_scan"}, "name": "10903f34ec79bb17b3b3b431d51e3af5", "is_reserved": 0}, {"is_disabled": 0, "fusion_lon": 0.0, "fusion_lat": 0.0, "lat": 38.94778816666667, "type": "electric_bike", "lon": -76.97221866666666, "bike_id": "a5f5374acdd8b246f4c1145740bc1ddc", "rental_uris": {"android": "https://dc.lft.to/lastmile_qr_scan", "ios": "https://dc.lft.to/lastmile_qr_scan"}, "name": "a5f5374acdd8b246f4c1145740bc1ddc", "is_reserved": 0}, {"is_disabled": 0, "fusion_lon": 0.0, "fusion_lat": 0.0, "lat": 38.8746005, "type": "electric_scooter", "lon": -77.00485833333333, "bike_id": "b8bd6008b1400582c6fd5d207cc8910c", "rental_uris": {"android": "https://dc.lft.to/lastmile_qr_scan", "ios": "https://dc.lft.to/lastmile_qr_scan"}, "name": "b8bd6008b1400582c6fd5d207cc8910c", "is_reserved": 0}, {"is_disabled": 0, "fusion_lon": 0.0, "fusion_lat": 0.0, "lat": 38.926066, "type": "electric_scooter", "lon": -76.9819535, "bike_id": "938cf2b059464446aa10add9012af894", "rental_uris": {"android": "https://dc.lft.to/lastmile_qr_scan", "ios": "https://dc.lft.to/lastmile_qr_scan"}, "name": "938cf2b059464446aa10add9012af894", "is_reserved": 0}, {"is_disabled": 0, "fusion_lon": 0.0, "fusion_lat": 0.0, "lat": 38.88757916666667, "type": "electric_scooter", "lon": -77.002201, "bike_id": "0e6d2398bff71ee333b9e49859953de7", "rental_uris": {"android": "https://dc.lft.to/lastmile_qr_scan", "ios": "https://dc.lft.to/lastmile_qr_scan"}, "name": "0e6d2398bff71ee333b9e49859953de7", "is_reserved": 0}, {"is_disabled": 0, "fusion_lon": 0.0, "fusion_lat": 0.0, "lat": 38.91728333333333, "type": "electric_scooter", "lon": -76.991771, "bike_id": "c7120b5a0a220288d9bfc6562460b1af", "rental_uris": {"android": "https://dc.lft.to/lastmile_qr_scan", "ios": "https://dc.lft.to/lastmile_qr_scan"}, "name": "c7120b5a0a220288d9bfc6562460b1af", "is_reserved": 0}, {"is_disabled": 0, "fusion_lon": 0.0, "fusion_lat": 0.0, "lat": 38.92452933333333, "type": "electric_scooter", "lon": -77.031646, "bike_id": "16b1385959073696ce1bf7b2671bec8a", "rental_uris": {"android": "https://dc.lft.to/lastmile_qr_scan", "ios": "https://dc.lft.to/lastmile_qr_scan"}, "name": "16b1385959073696ce1bf7b2671bec8a", "is_reserved": 0}, {"is_disabled": 0, "fusion_lon": 0.0, "fusion_lat": 0.0, "lat": 38.9444785, "type": "electric_scooter", "lon": -77.06165766666666, "bike_id": "97e4e927240f7f26c0dd2aea31406652", "rental_uris": {"android": "https://dc.lft.to/lastmile_qr_scan", "ios": "https://dc.lft.to/lastmile_qr_scan"}, "name": "97e4e927240f7f26c0dd2aea31406652", "is_reserved": 0}, {"is_disabled": 0, "fusion_lon": 0.0, "fusion_lat": 0.0, "lat": 38.903226333333336, "type": "electric_scooter", "lon": -77.02884216666666, "bike_id": "d19694fd07047bee2097d413112f24e9", "rental_uris": {"android": "https://dc.lft.to/lastmile_qr_scan", "ios": "https://dc.lft.to/lastmile_qr_scan"}, "name": "d19694fd07047bee2097d413112f24e9", "is_reserved": 0}, {"is_disabled": 0, "fusion_lon": 0.0, "fusion_lat": 0.0, "lat": 38.90173016666667, "type": "electric_scooter", "lon": -77.05885416666666, "bike_id": "c24123d1ae104aaadaad421d664c9185", "rental_uris": {"android": "https://dc.lft.to/lastmile_qr_scan", "ios": "https://dc.lft.to/lastmile_qr_scan"}, "name": "c24123d1ae104aaadaad421d664c9185", "is_reserved": 0}, {"is_disabled": 0, "fusion_lon": 0.0, "fusion_lat": 0.0, "lat": 38.965574, "type": "electric_bike", "lon": -77.02295516666666, "bike_id": "fcbe3d90ea0375b9223c799fde125163", "rental_uris": {"android": "https://dc.lft.to/lastmile_qr_scan", "ios": "https://dc.lft.to/lastmile_qr_scan"}, "name": "fcbe3d90ea0375b9223c799fde125163", "is_reserved": 0}, {"is_disabled": 0, "fusion_lon": 0.0, "fusion_lat": 0.0, "lat": 38.894083, "type": "electric_scooter", "lon": -77.02154116666667, "bike_id": "f9e63ac1a6878a9fb03ef9a066a8fd0a", "rental_uris": {"android": "https://dc.lft.to/lastmile_qr_scan", "ios": "https://dc.lft.to/lastmile_qr_scan"}, "name": "f9e63ac1a6878a9fb03ef9a066a8fd0a", "is_reserved": 0}, {"is_disabled": 0, "fusion_lon": 0.0, "fusion_lat": 0.0, "lat": 38.923688166666665, "type": "electric_scooter", "lon": -77.050334, "bike_id": "09add9fe9a5656df67e0132e0f397f93", "rental_uris": {"android": "https://dc.lft.to/lastmile_qr_scan", "ios": "https://dc.lft.to/lastmile_qr_scan"}, "name": "09add9fe9a5656df67e0132e0f397f93", "is_reserved": 0}, {"is_disabled": 0, "fusion_lon": 0.0, "fusion_lat": 0.0, "lat": 38.903879833333335, "type": "electric_bike", "lon": -77.05362716666667, "bike_id": "8d5ffe97082508e3ed8187870f975c2a", "rental_uris": {"android": "https://dc.lft.to/lastmile_qr_scan", "ios": "https://dc.lft.to/lastmile_qr_scan"}, "name": "8d5ffe97082508e3ed8187870f975c2a", "is_reserved": 0}, {"is_disabled": 0, "fusion_lon": 0.0, "fusion_lat": 0.0, "lat": 38.902903, "type": "electric_scooter", "lon": -77.02420533333333, "bike_id": "388bc6ddce5b88bca966586f801f4873", "rental_uris": {"android": "https://dc.lft.to/lastmile_qr_scan", "ios": "https://dc.lft.to/lastmile_qr_scan"}, "name": "388bc6ddce5b88bca966586f801f4873", "is_reserved": 0}, {"is_disabled": 0, "fusion_lon": 0.0, "fusion_lat": 0.0, "lat": 38.90752416666667, "type": "electric_scooter", "lon": -77.00268766666667, "bike_id": "736affb5a63fd411d176db3383c0dfbd", "rental_uris": {"android": "https://dc.lft.to/lastmile_qr_scan", "ios": "https://dc.lft.to/lastmile_qr_scan"}, "name": "736affb5a63fd411d176db3383c0dfbd", "is_reserved": 0}, {"is_disabled": 0, "fusion_lon": 0.0, "fusion_lat": 0.0, "lat": 38.99636616666667, "type": "electric_bike", "lon": -77.04008366666666, "bike_id": "50de3b72eff1b1519b27e06338fe45b6", "rental_uris": {"android": "https://dc.lft.to/lastmile_qr_scan", "ios": "https://dc.lft.to/lastmile_qr_scan"}, "name": "50de3b72eff1b1519b27e06338fe45b6", "is_reserved": 0}, {"is_disabled": 0, "fusion_lon": 0.0, "fusion_lat": 0.0, "lat": 38.92304883333333, "type": "electric_scooter", "lon": -77.03104183333333, "bike_id": "0dfb9f00624da5593bff5a805b18dee7", "rental_uris": {"android": "https://dc.lft.to/lastmile_qr_scan", "ios": "https://dc.lft.to/lastmile_qr_scan"}, "name": "0dfb9f00624da5593bff5a805b18dee7", "is_reserved": 0}, {"is_disabled": 0, "fusion_lon": 0.0, "fusion_lat": 0.0, "lat": 38.92371, "type": "electric_scooter", "lon": -77.03061566666666, "bike_id": "0437c07fbb3887ae62ace9ff4cfba96a", "rental_uris": {"android": "https://dc.lft.to/lastmile_qr_scan", "ios": "https://dc.lft.to/lastmile_qr_scan"}, "name": "0437c07fbb3887ae62ace9ff4cfba96a", "is_reserved": 0}, {"is_disabled": 0, "fusion_lon": 0.0, "fusion_lat": 0.0, "lat": 38.92266133333333, "type": "electric_scooter", "lon": -77.02963983333333, "bike_id": "3cf5e042595a70a1a9397a99f983c713", "rental_uris": {"android": "https://dc.lft.to/lastmile_qr_scan", "ios": "https://dc.lft.to/lastmile_qr_scan"}, "name": "3cf5e042595a70a1a9397a99f983c713", "is_reserved": 0}, {"is_disabled": 0, "fusion_lon": 0.0, "fusion_lat": 0.0, "lat": 38.90391916666667, "type": "electric_scooter", "lon": -77.04349366666666, "bike_id": "51b3954a5e68d0215eaf3360fa08eea6", "rental_uris": {"android": "https://dc.lft.to/lastmile_qr_scan", "ios": "https://dc.lft.to/lastmile_qr_scan"}, "name": "51b3954a5e68d0215eaf3360fa08eea6", "is_reserved": 0}, {"is_disabled": 0, "fusion_lon": 0.0, "fusion_lat": 0.0, "lat": 38.931032333333334, "type": "electric_scooter", "lon": -77.03261616666667, "bike_id": "02e3ee51d45a37a3ebcff49062eb93da", "rental_uris": {"android": "https://dc.lft.to/lastmile_qr_scan", "ios": "https://dc.lft.to/lastmile_qr_scan"}, "name": "02e3ee51d45a37a3ebcff49062eb93da", "is_reserved": 0}, {"is_disabled": 0, "fusion_lon": 0.0, "fusion_lat": 0.0, "lat": 38.909918, "type": "electric_scooter", "lon": -77.03718483333333, "bike_id": "6842b2f98aca76495bfee44a53a26f23", "rental_uris": {"android": "https://dc.lft.to/lastmile_qr_scan", "ios": "https://dc.lft.to/lastmile_qr_scan"}, "name": "6842b2f98aca76495bfee44a53a26f23", "is_reserved": 0}, {"is_disabled": 0, "fusion_lon": 0.0, "fusion_lat": 0.0, "lat": 38.91403, "type": "electric_scooter", "lon": -77.04130333333333, "bike_id": "8dc8ab64aa579c75b7d78943aa778444", "rental_uris": {"android": "https://dc.lft.to/lastmile_qr_scan", "ios": "https://dc.lft.to/lastmile_qr_scan"}, "name": "8dc8ab64aa579c75b7d78943aa778444", "is_reserved": 0}, {"is_disabled": 0, "fusion_lon": 0.0, "fusion_lat": 0.0, "lat": 38.89575683333333, "type": "electric_scooter", "lon": -77.02574983333334, "bike_id": "d3d1f5153e3e6489be70e30b0d7012e2", "rental_uris": {"android": "https://dc.lft.to/lastmile_qr_scan", "ios": "https://dc.lft.to/lastmile_qr_scan"}, "name": "d3d1f5153e3e6489be70e30b0d7012e2", "is_reserved": 0}, {"is_disabled": 0, "fusion_lon": 0.0, "fusion_lat": 0.0, "lat": 38.91982866666667, "type": "electric_scooter", "lon": -77.04179766666667, "bike_id": "e7a342cc8383a5c33a2f213e4c832e07", "rental_uris": {"android": "https://dc.lft.to/lastmile_qr_scan", "ios": "https://dc.lft.to/lastmile_qr_scan"}, "name": "e7a342cc8383a5c33a2f213e4c832e07", "is_reserved": 0},