{"data": {"bikes": [{"bike_id": "01db8fd2814ded4b768a7b09c073a58a", "type": "electric_scooter", "is_disabled": 0, "lat": 38.88848866666667, "rental_uris": {"ios": "https://dc.lft.to/lastmile_qr_scan", "android": "https://dc.lft.to/lastmile_qr_scan"}, "is_reserved": 0, "fusion_lon": 0.0, "fusion_lat": 0.0, "lon": -76.926867, "name": "01db8fd2814ded4b768a7b09c073a58a"}, {"bike_id": "37b40329b68d13df2ee52a0ce22b6a1e", "type": "electric_bike", "is_disabled": 0, "lat": 38.869370333333336, "rental_uris": {"ios": "https://dc.lft.to/lastmile_qr_scan", "android": "https://dc.lft.to/lastmile_qr_scan"}, "is_reserved": 0, "fusion_lon": 0.0, "fusion_lat": 0.0, "lon": -77.09468083333333, "name": "37b40329b68d13df2ee52a0ce22b6a1e"}, {"bike_id": "3ac67a6b780b668fe9c9e7dccc3b2a7a", "type": "electric_scooter", "is_disabled": 0, "lat": 38.918103, "rental_uris": {"ios": "https://dc.lft.to/lastmile_qr_scan", "android": "https://dc.lft.to/lastmile_qr_scan"}, "is_reserved": 0, "fusion_lon": 0.0, "fusion_lat": 0.0, "lon": -77.02777483333334, "name": "3ac67a6b780b668fe9c9e7dccc3b2a7a"}, {"bike_id": "ce42b748d71830419b1e7ce829a97a2e", "type": "electric_scooter", "is_disabled": 0, "lat": 38.9182285, "rental_uris": {"ios": "https://dc.lft.to/lastmile_qr_scan", "android": "https://dc.lft.to/lastmile_qr_scan"}, "is_reserved": 0, "fusion_lon": 0.0, "fusion_lat": 0.0, "lon": -77.0242675, "name": "ce42b748d71830419b1e7ce829a97a2e"}, {"bike_id": "504c5573ae3c0235598c7ab3347516b0", "type": "electric_scooter", "is_disabled": 0, "lat": 38.866971, "rental_uris": {"ios": "https://dc.lft.to/lastmile_qr_scan", "android": "https://dc.lft.to/lastmile_qr_scan"}, "is_reserved": 0, "fusion_lon": 0.0, "fusion_lat": 0.0, "lon": -76.987118, "name": "504c5573ae3c0235598c7ab3347516b0"}, {"bike_id": "dc95285db19fe9638e13024beca756d3", "type": "electric_scooter", "is_disabled": 0, "lat": 38.919307333333336, "rental_uris": {"ios": "https://dc.lft.to/lastmile_qr_scan", "android": "https://dc.lft.to/lastmile_qr_scan"}, "is_reserved": 0, "fusion_lon": 0.0, "fusion_lat": 0.0, "lon": -77.07391216666667, "name": "dc95285db19fe9638e13024beca756d3"}, {"bike_id": "7a1ee3073f90827cbdc2908831366a4a", "type": "electric_scooter", "is_disabled": 0, "lat": 38.91555566666667, "rental_uris": {"ios": "https://dc.lft.to/lastmile_qr_scan", "android": "https://dc.lft.to/lastmile_qr_scan"}, "is_reserved": 0, "fusion_lon": 0.0, "fusion_lat": 0.0, "lon": -77.02335416666666, "name": "7a1ee3073f90827cbdc2908831366a4a"}, {"bike_id": "fb01c5a90cdeb33961a31c03d5032e90", "type": "electric_scooter", "is_disabled": 0, "lat": 38.9267695, "rental_uris": {"ios": "https://dc.lft.to/lastmile_qr_scan", "android": "https://dc.lft.to/lastmile_qr_scan"}, "is_reserved": 0, "fusion_lon": 0.0, "fusion_lat": 0.0, "lon": -77.02782183333333, "name": "fb01c5a90cdeb33961a31c03d5032e90"}, {"bike_id": "a27bf59c10dfbee9e304327cc3480047", "type": "electric_scooter", "is_disabled": 0, "lat": 38.91417416666667, "rental_uris": {"ios": "https://dc.lft.to/lastmile_qr_scan", "android": "https://dc.lft.to/lastmile_qr_scan"}, "is_reserved": 0, "fusion_lon": 0.0, "fusion_lat": 0.0, "lon": -77.04463066666666, "name": "a27bf59c10dfbee9e304327cc3480047"}, {"bike_id": "5734265cf3735bb3d1f1576f4ab1b79c", "type": "electric_scooter", "is_disabled": 0, "lat": 38.9182415, "rental_uris": {"ios": "https://dc.lft.to/lastmile_qr_scan", "android": "https://dc.lft.to/lastmile_qr_scan"}, "is_reserved": 0, "fusion_lon": 0.0, "fusion_lat": 0.0, "lon": -77.0241965, "name": "5734265cf3735bb3d1f1576f4ab1b79c"}, {"bike_id": "a29ec1b5792db0595b5c2c4b723ccf1b", "type": "electric_scooter", "is_disabled": 0, "lat": 38.9161765, "rental_uris": {"ios": "https://dc.lft.to/lastmile_qr_scan", "android": "https://dc.lft.to/lastmile_qr_scan"}, "is_reserved": 0, "fusion_lon": 0.0, "fusion_lat": 0.0, "lon": -77.02104316666667, "name": "a29ec1b5792db0595b5c2c4b723ccf1b"}, {"bike_id": "e30586e3816cf56bfda852db5a563047", "type": "electric_scooter", "is_disabled": 0, "lat": 38.93109916666667, "rental_uris": {"ios": "https://dc.lft.to/lastmile_qr_scan", "android": "https://dc.lft.to/lastmile_qr_scan"}, "is_reserved": 0, "fusion_lon": 0.0, "fusion_lat": 0.0, "lon": -77.03808683333334, "name": "e30586e3816cf56bfda852db5a563047"}, {"bike_id": "acfb4daee7e3fc5fc7f4c78199f2c8bc", "type": "electric_scooter", "is_disabled": 0, "lat": 38.884299166666665, "rental_uris": {"ios": "https://dc.lft.to/lastmile_qr_scan", "android": "https://dc.lft.to/lastmile_qr_scan"}, "is_reserved": 0, "fusion_lon": 0.0, "fusion_lat": 0.0, "lon": -76.957475, "name": "acfb4daee7e3fc5fc7f4c78199f2c8bc"}, {"bike_id": "9fb7703d57f7e2a39e075c4f07a8670a", "type": "electric_scooter", "is_disabled": 0, "lat": 38.93655316666667, "rental_uris": {"ios": "https://dc.lft.to/lastmile_qr_scan", "android": "https://dc.lft.to/lastmile_qr_scan"}, "is_reserved": 0, "fusion_lon": 0.0, "fusion_lat": 0.0, "lon": -77.02639616666667, "name": "9fb7703d57f7e2a39e075c4f07a8670a"}, {"bike_id": "2236722ecd1d9b63233a4538d5b74e26", "type": "electric_scooter", "is_disabled": 0, "lat": 38.892316, "rental_uris": {"ios": "https://dc.lft.to/lastmile_qr_scan", "android": "https://dc.lft.to/lastmile_qr_scan"}, "is_reserved": 0, "fusion_lon": 0.0, "fusion_lat": 0.0, "lon": -77.03374233333334, "name": "2236722ecd1d9b63233a4538d5b74e26"}, {"bike_id": "cd2e5271344529dbf819d46d70412eab", "type": "electric_scooter", "is_disabled": 0, "lat": 38.95736466666666, "rental_uris": {"ios": "https://dc.lft.to/lastmile_qr_scan", "android": "https://dc.lft.to/lastmile_qr_scan"}, "is_reserved": 0, "fusion_lon": 0.0, "fusion_lat": 0.0, "lon": -77.02420116666667, "name": "cd2e5271344529dbf819d46d70412eab"}, {"bike_id": "5cda9adf7d73826d6d3eb9f0f71968a6", "type": "electric_scooter", "is_disabled": 0, "lat": 38.914453333333334, "rental_uris": {"ios": "https://dc.lft.to/lastmile_qr_scan", "android": "https://dc.lft.to/lastmile_qr_scan"}, "is_reserved": 0, "fusion_lon": 0.0, "fusion_lat": 0.0, "lon": -77.02288083333333, "name": "5cda9adf7d73826d6d3eb9f0f71968a6"}, {"bike_id": "d79fc899ab3828be10ceaa894726108c", "type": "electric_scooter", "is_disabled": 0, "lat": 38.907289166666665, "rental_uris": {"ios": "https://dc.lft.to/lastmile_qr_scan", "android": "https://dc.lft.to/lastmile_qr_scan"}, "is_reserved": 0, "fusion_lon": 0.0, "fusion_lat": 0.0, "lon": -77.06348716666666, "name": "d79fc899ab3828be10ceaa894726108c"}, {"bike_id": "403b84c4c7ebc225151944b575b20ea3", "type": "electric_scooter", "is_disabled": 0, "lat": 38.914898, "rental_uris": {"ios": "https://dc.lft.to/lastmile_qr_scan", "android": "https://dc.lft.to/lastmile_qr_scan"}, "is_reserved": 0, "fusion_lon": 0.0, "fusion_lat": 0.0, "lon": -76.9857795, "name": "403b84c4c7ebc225151944b575b20ea3"}, {"bike_id": "47d7146ce892f59eab8e27ee70c76e65", "type": "electric_scooter", "is_disabled": 0, "lat": 38.92596283333334, "rental_uris": {"ios": "https://dc.lft.to/lastmile_qr_scan", "android": "https://dc.lft.to/lastmile_qr_scan"}, "is_reserved": 0, "fusion_lon": 0.0, "fusion_lat": 0.0, "lon": -77.0083465, "name": "47d7146ce892f59eab8e27ee70c76e65"}, {"bike_id": "e1e0972c92a314e906d6a3a4a2fdb4a3", "type": "electric_scooter", "is_disabled": 0, "lat": 38.90029766666667, "rental_uris": {"ios": "https://dc.lft.to/lastmile_qr_scan", "android": "https://dc.lft.to/lastmile_qr_scan"}, "is_reserved": 0, "fusion_lon": 0.0, "fusion_lat": 0.0, "lon": -76.98059416666666, "name": "e1e0972c92a314e906d6a3a4a2fdb4a3"}, {"bike_id": "da74abd59869cd5bb432be8be2b69789", "type": "electric_scooter", "is_disabled": 0, "lat": 38.920458333333336, "rental_uris": {"ios": "https://dc.lft.to/lastmile_qr_scan", "android": "https://dc.lft.to/lastmile_qr_scan"}, "is_reserved": 0, "fusion_lon": 0.0, "fusion_lat": 0.0, "lon": -77.0344205, "name": "da74abd59869cd5bb432be8be2b69789"}, {"bike_id": "0c742975348c5a892fef7e0b7dff4b07", "type": "electric_scooter", "is_disabled": 0, "lat": 38.931807, "rental_uris": {"ios": "https://dc.lft.to/lastmile_qr_scan", "android": "https://dc.lft.to/lastmile_qr_scan"}, "is_reserved": 0, "fusion_lon": 0.0, "fusion_lat": 0.0, "lon": -77.04298683333333, "name": "0c742975348c5a892fef7e0b7dff4b07"}, {"bike_id": "45199fbb499d7b35c252bea227ae888f", "type": "electric_scooter", "is_disabled": 0, "lat": 38.885866666666665, "rental_uris": {"ios": "https://dc.lft.to/lastmile_qr_scan", "android": "https://dc.lft.to/lastmile_qr_scan"}, "is_reserved": 0, "fusion_lon": 0.0, "fusion_lat": 0.0, "lon": -77.02839233333333, "name": "45199fbb499d7b35c252bea227ae888f"}, {"bike_id": "9492a11a06d0fb23abd0dd05b5a3ebc9", "type": "electric_scooter", "is_disabled": 0, "lat": 38.844378166666665, "rental_uris": {"ios": "https://dc.lft.to/lastmile_qr_scan", "android": "https://dc.lft.to/lastmile_qr_scan"}, "is_reserved": 0, "fusion_lon": 0.0, "fusion_lat": 0.0, "lon": -76.99778766666667, "name": "9492a11a06d0fb23abd0dd05b5a3ebc9"}, {"bike_id": "c19d97568a446f6732b160dacd3cee2b", "type": "electric_scooter", "is_disabled": 0, "lat": 38.92323366666667, "rental_uris": {"ios": "https://dc.lft.to/lastmile_qr_scan", "android": "https://dc.lft.to/lastmile_qr_scan"}, "is_reserved": 0, "fusion_lon": 0.0, "fusion_lat": 0.0, "lon": -77.0089075, "name": "c19d97568a446f6732b160dacd3cee2b"}, {"bike_id": "55899f31328b6157a478308ee933c5fc", "type": "electric_scooter", "is_disabled": 0, "lat": 38.905039, "rental_uris": {"ios": "https://dc.lft.to/lastmile_qr_scan", "android": "https://dc.lft.to/lastmile_qr_scan"}, "is_reserved": 0, "fusion_lon": 0.0, "fusion_lat": 0.0, "lon": -77.06024883333333, "name": "55899f31328b6157a478308ee933c5fc"}, {"bike_id": "2ebc8333c7468542d01f58f38248a80a", "type": "electric_scooter", "is_disabled": 0, "lat": 38.87474316666667, "rental_uris": {"ios": "https://dc.lft.to/lastmile_qr_scan", "android": "https://dc.lft.to/lastmile_qr_scan"}, "is_reserved": 0, "fusion_lon": 0.0, "fusion_lat": 0.0, "lon": -77.018944, "name": "2ebc8333c7468542d01f58f38248a80a"}, {"bike_id": "23197e0248528301937d65e63306df61", "type": "electric_scooter", "is_disabled": 0, "lat": 38.90187816666667, "rental_uris": {"ios": "https://dc.lft.to/lastmile_qr_scan", "android": "https://dc.lft.to/lastmile_qr_scan"}, "is_reserved": 0, "fusion_lon": 0.0, "fusion_lat": 0.0, "lon": -77.0392835, "name": "23197e0248528301937d65e63306df61"}, {"bike_id": "4596c3fe426aeaf5f50564c87139f581", "type": "electric_scooter", "is_disabled": 0, "lat": 38.95279433333333, "rental_uris": {"ios": "https://dc.lft.to/lastmile_qr_scan", "android": "https://dc.lft.to/lastmile_qr_scan"}, "is_reserved": 0, "fusion_lon": 0.0, "fusion_lat": 0.0, "lon": -77.06875516666666, "name": "4596c3fe426aeaf5f50564c87139f581"}, {"bike_id": "0a44a56b6996ea96e85028b8ca1ecd54", "type": "electric_scooter", "is_disabled": 0, "lat": 38.918345333333335, "rental_uris": {"ios": "https://dc.lft.to/lastmile_qr_scan", "android": "https://dc.lft.to/lastmile_qr_scan"}, "is_reserved": 0, "fusion_lon": 0.0, "fusion_lat": 0.0, "lon": -77.03191633333333, "name": "0a44a56b6996ea96e85028b8ca1ecd54"}, {"bike_id": "496caacf2999d7ac9ff0a5f9acdd1ad5", "type": "electric_scooter", "is_disabled": 0, "lat": 38.933777, "rental_uris": {"ios": "https://dc.lft.to/lastmile_qr_scan", "android": "https://dc.lft.to/lastmile_qr_scan"}, "is_reserved": 0, "fusion_lon": 0.0, "fusion_lat": 0.0, "lon": -77.023869, "name": "496caacf2999d7ac9ff0a5f9acdd1ad5"}, {"bike_id": "42c0ee11b4371f38f2adf9b992884ec9", "type": "electric_bike", "is_disabled": 0, "lat": 38.854358, "rental_uris": {"ios": "https://dc.lft.to/lastmile_qr_scan", "android": "https://dc.lft.to/lastmile_qr_scan"}, "is_reserved": 0, "fusion_lon": 0.0, "fusion_lat": 0.0, "lon": -77.08305933333334, "name": "42c0ee11b4371f38f2adf9b992884ec9"}, {"bike_id": "a41be6277b0ac3c64d247c39e1818c47", "type": "electric_scooter", "is_disabled": 0, "lat": 38.92479866666667, "rental_uris": {"ios": "https://dc.lft.to/lastmile_qr_scan", "android": "https://dc.lft.to/lastmile_qr_scan"}, "is_reserved": 0, "fusion_lon": 0.0, "fusion_lat": 0.0, "lon": -77.0271445, "name": "a41be6277b0ac3c64d247c39e1818c47"}, {"bike_id": "0ace0a9e17967511fc3beb879e70fe9c", "type": "electric_scooter", "is_disabled": 0, "lat": 38.931142666666666, "rental_uris": {"ios": "https://dc.lft.to/lastmile_qr_scan", "android": "https://dc.lft.to/lastmile_qr_scan"}, "is_reserved": 0, "fusion_lon": 0.0, "fusion_lat": 0.0, "lon": -77.03790533333333, "name": "0ace0a9e17967511fc3beb879e70fe9c"}, {"bike_id": "d8acb8b474761a5d69a71955fcae4bf4", "type": "electric_scooter", "is_disabled": 0, "lat": 38.92864316666667, "rental_uris": {"ios": "https://dc.lft.to/lastmile_qr_scan", "android": "https://dc.lft.to/lastmile_qr_scan"}, "is_reserved": 0, "fusion_lon": 0.0, "fusion_lat": 0.0, "lon": -77.02178383333333, "name": "d8acb8b474761a5d69a71955fcae4bf4"}, {"bike_id": "d90dfd7b62584f5907bcf9768e505647", "type": "electric_bike", "is_disabled": 0, "lat": 38.84029733333333, "rental_uris": {"ios": "https://dc.lft.to/lastmile_qr_scan", "android": "https://dc.lft.to/lastmile_qr_scan"}, "is_reserved": 0, "fusion_lon": 0.0, "fusion_lat": 0.0, "lon": -76.97580866666667, "name": "d90dfd7b62584f5907bcf9768e505647"}, {"bike_id": "a938f753c575c2c69970c8c9736f27ea", "type": "electric_scooter", "is_disabled": 0, "lat": 38.914194333333334, "rental_uris": {"ios": "https://dc.lft.to/lastmile_qr_scan", "android": "https://dc.lft.to/lastmile_qr_scan"}, "is_reserved": 0, "fusion_lon": 0.0, "fusion_lat": 0.0, "lon": -77.04160283333333, "name": "a938f753c575c2c69970c8c9736f27ea"}, {"bike_id": "c6a134aea374bbaaa025d3d60761fcb4", "type": "electric_scooter", "is_disabled": 0, "lat": 38.924064333333334, "rental_uris": {"ios": "https://dc.lft.to/lastmile_qr_scan", "android": "https://dc.lft.to/lastmile_qr_scan"}, "is_reserved": 0, "fusion_lon": 0.0, "fusion_lat": 0.0, "lon": -77.02978583333334, "name": "c6a134aea374bbaaa025d3d60761fcb4"}, {"bike_id": "8e3a0520e176ec304df10c20b232b82a", "type": "electric_scooter", "is_disabled": 0, "lat": 38.922809666666666, "rental_uris": {"ios": "https://dc.lft.to/lastmile_qr_scan", "android": "https://dc.lft.to/lastmile_qr_scan"}, "is_reserved": 0, "fusion_lon": 0.0, "fusion_lat": 0.0, "lon": -77.04199316666667, "name": "8e3a0520e176ec304df10c20b232b82a"}, {"bike_id": "8b718716102e7ad702de01e1e27b4b13", "type": "electric_scooter", "is_disabled": 0, "lat": 38.91792233333334, "rental_uris": {"ios": "https://dc.lft.to/lastmile_qr_scan", "android": "https://dc.lft.to/lastmile_qr_scan"}, "is_reserved": 0, "fusion_lon": 0.0, "fusion_lat": 0.0, "lon": -77.02714366666666, "name": "8b718716102e7ad702de01e1e27b4b13"}, {"bike_id": "5cb3ed29499f9807cd46f49a194d1724", "type": "electric_scooter", "is_disabled": 0, "lat": 38.880538, "rental_uris": {"ios": "https://dc.lft.to/lastmile_qr_scan", "android": "https://dc.lft.to/lastmile_qr_scan"}, "is_reserved": 0, "fusion_lon": 0.0, "fusion_lat": 0.0, "lon": -76.93209483333334, "name": "5cb3ed29499f9807cd46f49a194d1724"}, {"bike_id": "54b0ceacd2640c7b31ed818c029bb9d2", "type": "electric_scooter", "is_disabled": 0, "lat": 38.931743833333336, "rental_uris": {"ios": "https://dc.lft.to/lastmile_qr_scan", "android": "https://dc.lft.to/lastmile_qr_scan"}, "is_reserved": 0, "fusion_lon": 0.0, "fusion_lat": 0.0, "lon": -76.99484883333334, "name": "54b0ceacd2640c7b31ed818c029bb9d2"}, {"bike_id": "030f0ba0a50d3d1956ef37975beb991e", "type": "electric_scooter", "is_disabled": 0, "lat": 38.92151116666667, "rental_uris": {"ios": "https://dc.lft.to/lastmile_qr_scan", "android": "https://dc.lft.to/lastmile_qr_scan"}, "is_reserved": 0, "fusion_lon": 0.0, "fusion_lat": 0.0, "lon": -77.03383483333333, "name": "030f0ba0a50d3d1956ef37975beb991e"}, {"bike_id": "977f39d613666d4ba25c8aa7abfeceba", "type": "electric_scooter", "is_disabled": 0, "lat": 38.907334, "rental_uris": {"ios": "https://dc.lft.to/lastmile_qr_scan", "android": "https://dc.lft.to/lastmile_qr_scan"}, "is_reserved": 0, "fusion_lon": 0.0, "fusion_lat": 0.0, "lon": -77.042281, "name": "977f39d613666d4ba25c8aa7abfeceba"}, {"bike_id": "be99dea91918e0441909c5aa0be7a432", "type": "electric_scooter", "is_disabled": 0, "lat": 38.91557233333333, "rental_uris": {"ios": "https://dc.lft.to/lastmile_qr_scan", "android": "https://dc.lft.to/lastmile_qr_scan"}, "is_reserved": 0, "fusion_lon": 0.0, "fusion_lat": 0.0, "lon": -77.04289233333333, "name": "be99dea91918e0441909c5aa0be7a432"}, {"bike_id": "93865e4e2b0eab12b2d06cb32e1b173a", "type": "electric_scooter", "is_disabled": 0, "lat": 38.916620333333334, "rental_uris": {"ios": "https://dc.lft.to/lastmile_qr_scan", "android": "https://dc.lft.to/lastmile_qr_scan"}, "is_reserved": 0, "fusion_lon": 0.0, "fusion_lat": 0.0, "lon": -77.02885333333333, "name": "93865e4e2b0eab12b2d06cb32e1b173a"}, {"bike_id": "465bfea681ba9fb6ba96f7d9b8011b40", "type": "electric_scooter", "is_disabled": 0, "lat": 38.911101, "rental_uris": {"ios": "https://dc.lft.to/lastmile_qr_scan", "android": "https://dc.lft.to/lastmile_qr_scan"}, "is_reserved": 0, "fusion_lon": 0.0, "fusion_lat": 0.0, "lon": -77.03290583333333, "name": "465bfea681ba9fb6ba96f7d9b8011b40"}, {"bike_id": "a74fb0b882560384b977610570f2e650", "type": "electric_scooter", "is_disabled": 0, "lat": 38.892356, "rental_uris": {"ios": "https://dc.lft.to/lastmile_qr_scan", "android": "https://dc.lft.to/lastmile_qr_scan"}, "is_reserved": 0, "fusion_lon": 0.0, "fusion_lat": 0.0, "lon": -77.03183216666666, "name": "a74fb0b882560384b977610570f2e650"}, {"bike_id": "f226b234eaf66acb4671f7af7ca04a51", "type": "electric_scooter", "is_disabled": 0, "lat": 38.888531666666665, "rental_uris": {"ios": "https://dc.lft.to/lastmile_qr_scan", "android": "https://dc.lft.to/lastmile_qr_scan"}, "is_reserved": 0, "fusion_lon": 0.0, "fusion_lat": 0.0, "lon": -77.0004635, "name": "f226b234eaf66acb4671f7af7ca04a51"}, {"bike_id": "53ffda2aad3ddcb7472639a5d5f7b888", "type": "electric_scooter", "is_disabled": 0, "lat": 38.915443, "rental_uris": {"ios": "https://dc.lft.to/lastmile_qr_scan", "android": "https://dc.lft.to/lastmile_qr_scan"}, "is_reserved": 0, "fusion_lon": 0.0, "fusion_lat": 0.0, "lon": -77.01272983333334, "name": "53ffda2aad3ddcb7472639a5d5f7b888"}, {"bike_id": "dbb6b6fe3c91d60326a59ef7ad1913c9", "type": "electric_scooter", "is_disabled": 0, "lat": 38.936835, "rental_uris": {"ios": "https://dc.lft.to/lastmile_qr_scan", "android": "https://dc.lft.to/lastmile_qr_scan"}, "is_reserved": 0, "fusion_lon": 0.0, "fusion_lat": 0.0, "lon": -77.01944916666666, "name": "dbb6b6fe3c91d60326a59ef7ad1913c9"}, {"bike_id": "cb2f16f1ebbc34ba75f3c4e41db17a01", "type": "electric_scooter", "is_disabled": 0, "lat": 38.936057, "rental_uris": {"ios": "https://dc.lft.to/lastmile_qr_scan", "android": "https://dc.lft.to/lastmile_qr_scan"}, "is_reserved": 0, "fusion_lon": 0.0, "fusion_lat": 0.0, "lon": -77.03796483333333, "name": "cb2f16f1ebbc34ba75f3c4e41db17a01"}, {"bike_id": "ea7a5bc618b053e75b9a3e77da95b088", "type": "electric_scooter", "is_disabled": 0, "lat": 38.9241325, "rental_uris": {"ios": "https://dc.lft.to/lastmile_qr_scan", "android": "https://dc.lft.to/lastmile_qr_scan"}, "is_reserved": 0, "fusion_lon": 0.0, "fusion_lat": 0.0, "lon": -77.02007166666667, "name": "ea7a5bc618b053e75b9a3e77da95b088"}, {"bike_id": "164125c0a99f2c9b82c4a94c0db569e3", "type": "electric_scooter", "is_disabled": 0, "lat": 38.90546966666667, "rental_uris": {"ios": "https://dc.lft.to/lastmile_qr_scan", "android": "https://dc.lft.to/lastmile_qr_scan"}, "is_reserved": 0, "fusion_lon": 0.0, "fusion_lat": 0.0, "lon": -77.00573116666666, "name": "164125c0a99f2c9b82c4a94c0db569e3"}, {"bike_id": "146eac0935548c635182f54d368dc480", "type": "electric_bike", "is_disabled": 0, "lat": 38.87297233333334, "rental_uris": {"ios": "https://dc.lft.to/lastmile_qr_scan", "android": "https://dc.lft.to/lastmile_qr_scan"}, "is_reserved": 0, "fusion_lon": 0.0, "fusion_lat": 0.0, "lon": -77.1392835, "name": "146eac0935548c635182f54d368dc480"}, {"bike_id": "44d66ffe319ecb637d18d551f9e3a8e0", "type": "electric_scooter", "is_disabled": 0, "lat": 38.909720166666666, "rental_uris": {"ios": "https://dc.lft.to/lastmile_qr_scan", "android": "https://dc.lft.to/lastmile_qr_scan"}, "is_reserved": 0, "fusion_lon": 0.0, "fusion_lat": 0.0, "lon": -77.03364816666667, "name": "44d66ffe319ecb637d18d551f9e3a8e0"}, {"bike_id": "0aaeb3adde5070762f5bcf73a794bf0b", "type": "electric_scooter", "is_disabled": 0, "lat": 38.9449035, "rental_uris": {"ios": "https://dc.lft.to/lastmile_qr_scan", "android": "https://dc.lft.to/lastmile_qr_scan"}, "is_reserved": 0, "fusion_lon": 0.0, "fusion_lat": 0.0, "lon": -77.06402216666666, "name": "0aaeb3adde5070762f5bcf73a794bf0b"}, {"bike_id": "e8342eab620b3920485ca5869a48e7fa", "type": "electric_scooter", "is_disabled": 0, "lat": 38.901689, "rental_uris": {"ios": "https://dc.lft.to/lastmile_qr_scan", "android": "https://dc.lft.to/lastmile_qr_scan"}, "is_reserved": 0, "fusion_lon": 0.0, "fusion_lat": 0.0, "lon": -77.02432433333334, "name": "e8342eab620b3920485ca5869a48e7fa"}, {"bike_id": "e7b153ac492710e07c614aa64148bd95", "type": "electric_scooter", "is_disabled": 0, "lat": 38.9030885, "rental_uris": {"ios": "https://dc.lft.to/lastmile_qr_scan", "android": "https://dc.lft.to/lastmile_qr_scan"}, "is_reserved": 0, "fusion_lon": 0.0, "fusion_lat": 0.0, "lon": -76.98356033333333, "name": "e7b153ac492710e07c614aa64148bd95"}, {"bike_id": "c3de3006f39a2d57997b2ea90d98d128", "type": "electric_scooter", "is_disabled": 0, "lat": 38.907694, "rental_uris": {"ios": "https://dc.lft.to/lastmile_qr_scan", "android": "https://dc.lft.to/lastmile_qr_scan"}, "is_reserved": 0, "fusion_lon": 0.0, "fusion_lat": 0.0, "lon": -77.0122085, "name": "c3de3006f39a2d57997b2ea90d98d128"}, {"bike_id": "68f195053c84a60fe183732ec87a6942", "type": "electric_scooter", "is_disabled": 0, "lat": 38.9275515, "rental_uris": {"ios": "https://dc.lft.to/lastmile_qr_scan", "android": "https://dc.lft.to/lastmile_qr_scan"}, "is_reserved": 0, "fusion_lon": 0.0, "fusion_lat": 0.0, "lon": -77.0242985, "name": "68f195053c84a60fe183732ec87a6942"}, {"bike_id": "d208414dab0539a12a9741a095934511", "type": "electric_scooter", "is_disabled": 0, "lat": 38.9361695, "rental_uris": {"ios": "https://dc.lft.to/lastmile_qr_scan", "android": "https://dc.lft.to/lastmile_qr_scan"}, "is_reserved": 0, "fusion_lon": 0.0, "fusion_lat": 0.0, "lon": -77.06758, "name": "d208414dab0539a12a9741a095934511"}, {"bike_id": "086791d317f60180afe92fb30a664072", "type": "electric_scooter", "is_disabled": 0, "lat": 38.89732983333333, "rental_uris": {"ios": "https://dc.lft.to/lastmile_qr_scan", "android": "https://dc.lft.to/lastmile_qr_scan"}, "is_reserved": 0, "fusion_lon": 0.0, "fusion_lat": 0.0, "lon": -77.00359683333333, "name": "086791d317f60180afe92fb30a664072"}, {"bike_id": "7774e67b8853ce6d93cbded167943590", "type": "electric_bike", "is_disabled": 0, "lat": 38.990883333333336, "rental_uris": {"ios": "https://dc.lft.to/lastmile_qr_scan", "android": "https://dc.lft.to/lastmile_qr_scan"}, "is_reserved": 0, "fusion_lon": 0.0, "fusion_lat": 0.0, "lon": -76.87497416666666, "name": "7774e67b8853ce6d93cbded167943590"}, {"bike_id": "fa221a752dab008b61d1583af7c81432", "type": "electric_scooter", "is_disabled": 0, "lat": 38.897615, "rental_uris": {"ios": "https://dc.lft.to/lastmile_qr_scan", "android": "https://dc.lft.to/lastmile_qr_scan"}, "is_reserved": 0, "fusion_lon": 0.0, "fusion_lat": 0.0, "lon": -77.0296385, "name": "fa221a752dab008b61d1583af7c81432"}, {"bike_id": "a974f8653427ad816fb46e27ef7331f1", "type": "electric_scooter", "is_disabled": 0, "lat": 38.84316366666667, "rental_uris": {"ios": "https://dc.lft.to/lastmile_qr_scan", "android": "https://dc.lft.to/lastmile_qr_scan"}, "is_reserved": 0, "fusion_lon": 0.0, "fusion_lat": 0.0, "lon": -76.99931733333334, "name": "a974f8653427ad816fb46e27ef7331f1"}, {"bike_id": "2873956a5dac0eeaec5a03156109f768", "type": "electric_scooter", "is_disabled": 0, "lat": 38.89498366666667, "rental_uris": {"ios": "https://dc.lft.to/lastmile_qr_scan", "android": "https://dc.lft.to/lastmile_qr_scan"}, "is_reserved": 0, "fusion_lon": 0.0, "fusion_lat": 0.0, "lon": -76.98837233333333, "name": "2873956a5dac0eeaec5a03156109f768"}, {"bike_id": "49563cfa589b58da5a2f61d24264a471", "type": "electric_scooter", "is_disabled": 0, "lat": 38.90504216666667, "rental_uris": {"ios": "https://dc.lft.to/lastmile_qr_scan", "android": "https://dc.lft.to/lastmile_qr_scan"}, "is_reserved": 0, "fusion_lon": 0.0, "fusion_lat": 0.0, "lon": -77.06023516666667, "name": "49563cfa589b58da5a2f61d24264a471"}, {"bike_id": "cd59a4a6f6d8f18574edc3eac026a32f", "type": "electric_scooter", "is_disabled": 0, "lat": 38.888782666666664, "rental_uris": {"ios": "https://dc.lft.to/lastmile_qr_scan", "android": "https://dc.lft.to/lastmile_qr_scan"}, "is_reserved": 0, "fusion_lon": 0.0, "fusion_lat": 0.0, "lon": -76.99035033333334, "name": "cd59a4a6f6d8f18574edc3eac026a32f"}, {"bike_id": "b2bd2b818c6d1a9726ff8f5a58d62a34", "type": "electric_scooter", "is_disabled": 0, "lat": 38.92520116666667, "rental_uris": {"ios": "https://dc.lft.to/lastmile_qr_scan", "android": "https://dc.lft.to/lastmile_qr_scan"}, "is_reserved": 0, "fusion_lon": 0.0, "fusion_lat": 0.0, "lon": -77.07721633333334, "name": "b2bd2b818c6d1a9726ff8f5a58d62a34"}, {"bike_id": "c1414720093f0b31e7dc5202dcbb1244", "type": "electric_scooter", "is_disabled": 0, "lat": 38.892287333333336, "rental_uris": {"ios": "https://dc.lft.to/lastmile_qr_scan", "android": "https://dc.lft.to/lastmile_qr_scan"}, "is_reserved": 0, "fusion_lon": 0.0, "fusion_lat": 0.0, "lon": -77.05000066666666, "name": "c1414720093f0b31e7dc5202dcbb1244"}, {"bike_id": "2af34be7e2b513f1f105c28e7242a0af", "type": "electric_scooter", "is_disabled": 0, "lat": 38.90958083333334, "rental_uris": {"ios": "https://dc.lft.to/lastmile_qr_scan", "android": "https://dc.lft.to/lastmile_qr_scan"}, "is_reserved": 0, "fusion_lon": 0.0, "fusion_lat": 0.0, "lon": -77.02314333333334, "name": "2af34be7e2b513f1f105c28e7242a0af"}, {"bike_id": "e7cd2b6e6cd10e4c0086c35e2119d592", "type": "electric_scooter", "is_disabled": 0, "lat": 38.9271995, "rental_uris": {"ios": "https://dc.lft.to/lastmile_qr_scan", "android": "https://dc.lft.to/lastmile_qr_scan"}, "is_reserved": 0, "fusion_lon": 0.0, "fusion_lat": 0.0, "lon": -77.0209235, "name": "e7cd2b6e6cd10e4c0086c35e2119d592"}, {"bike_id": "754a05e81baee7b67245c9b6fbd0f0c5", "type": "electric_scooter", "is_disabled": 0, "lat": 38.92752083333333, "rental_uris": {"ios": "https://dc.lft.to/lastmile_qr_scan", "android": "https://dc.lft.to/lastmile_qr_scan"}, "is_reserved": 0, "fusion_lon": 0.0, "fusion_lat": 0.0, "lon": -77.03262516666666, "name": "754a05e81baee7b67245c9b6fbd0f0c5"}, {"bike_id": "34e405c69d227870a683dcf77cc70639", "type": "electric_scooter", "is_disabled": 0, "lat": 38.917001166666665, "rental_uris": {"ios": "https://dc.lft.to/lastmile_qr_scan", "android": "https://dc.lft.to/lastmile_qr_scan"}, "is_reserved": 0, "fusion_lon": 0.0, "fusion_lat": 0.0, "lon": -77.03115133333333, "name": "34e405c69d227870a683dcf77cc70639"}, {"bike_id": "c5e7e2e41b6e7aa824d054f709715663", "type": "electric_scooter", "is_disabled": 0, "lat": 38.92004133333333, "rental_uris": {"ios": "https://dc.lft.to/lastmile_qr_scan", "android": "https://dc.lft.to/lastmile_qr_scan"}, "is_reserved": 0, "fusion_lon": 0.0, "fusion_lat": 0.0, "lon": -77.02380583333333, "name": "c5e7e2e41b6e7aa824d054f709715663"}, {"bike_id": "e36778e879fcff94902db2229a93be81", "type": "electric_scooter", "is_disabled": 0, "lat": 38.9221735, "rental_uris": {"ios": "https://dc.lft.to/lastmile_qr_scan", "android": "https://dc.lft.to/lastmile_qr_scan"}, "is_reserved": 0, "fusion_lon": 0.0, "fusion_lat": 0.0, "lon": -77.0346755, "name": "e36778e879fcff94902db2229a93be81"}, {"bike_id": "fba826dbb34d67a4a2d44e66dde537c6", "type": "electric_bike", "is_disabled": 0, "lat": 39.03987516666667, "rental_uris": {"ios": "https://dc.lft.to/lastmile_qr_scan", "android": "https://dc.lft.to/lastmile_qr_scan"}, "is_reserved": 0, "fusion_lon": 0.0, "fusion_lat": 0.0, "lon": -76.99931816666667, "name": "fba826dbb34d67a4a2d44e66dde537c6"}, {"bike_id": "ac52f03f91c606f08c0ff5e0c99cf483", "type": "electric_scooter", "is_disabled": 0, "lat": 38.96141, "rental_uris": {"ios": "https://dc.lft.to/lastmile_qr_scan", "android": "https://dc.lft.to/lastmile_qr_scan"}, "is_reserved": 0, "fusion_lon": 0.0, "fusion_lat": 0.0, "lon": -77.02990916666667, "name": "ac52f03f91c606f08c0ff5e0c99cf483"}, {"bike_id": "45e4617bb683052f581759caa373bd25", "type": "electric_scooter", "is_disabled": 0, "lat": 38.9077035, "rental_uris": {"ios": "https://dc.lft.to/lastmile_qr_scan", "android": "https://dc.lft.to/lastmile_qr_scan"}, "is_reserved": 0, "fusion_lon": 0.0, "fusion_lat": 0.0, "lon": -77.03860866666666, "name": "45e4617bb683052f581759caa373bd25"}, {"bike_id": "b3e3080cd25720fce5e9dd218a843477", "type": "electric_scooter", "is_disabled": 0, "lat": 38.90959183333333, "rental_uris": {"ios": "https://dc.lft.to/lastmile_qr_scan", "android": "https://dc.lft.to/lastmile_qr_scan"}, "is_reserved": 0, "fusion_lon": 0.0, "fusion_lat": 0.0, "lon": -77.026813, "name": "b3e3080cd25720fce5e9dd218a843477"}, {"bike_id": "805c7d535b0c83a3dabc850b385ee9cb", "type": "electric_scooter", "is_disabled": 0, "lat": 38.9025765, "rental_uris": {"ios": "https://dc.lft.to/lastmile_qr_scan", "android": "https://dc.lft.to/lastmile_qr_scan"}, "is_reserved": 0, "fusion_lon": 0.0, "fusion_lat": 0.0, "lon": -76.97549666666667, "name": "805c7d535b0c83a3dabc850b385ee9cb"}, {"bike_id": "c255239e240b62f0942bf6d5df41e4c1", "type": "electric_scooter", "is_disabled": 0, "lat": 38.88528483333333, "rental_uris": {"ios": "https://dc.lft.to/lastmile_qr_scan", "android": "https://dc.lft.to/lastmile_qr_scan"}, "is_reserved": 0, "fusion_lon": 0.0, "fusion_lat": 0.0, "lon": -77.011392, "name": "c255239e240b62f0942bf6d5df41e4c1"}, {"bike_id": "e1b2adfed9734226c35fa3656a80470c", "type": "electric_scooter", "is_disabled": 0, "lat": 38.902390833333335, "rental_uris": {"ios": "https://dc.lft.to/lastmile_qr_scan", "android": "https://dc.lft.to/lastmile_qr_scan"}, "is_reserved": 0, "fusion_lon": 0.0, "fusion_lat": 0.0, "lon": -77.00202283333333, "name": "e1b2adfed9734226c35fa3656a80470c"}, {"bike_id": "805c04d9d8107270543fff3ca640f588", "type": "electric_bike", "is_disabled": 0, "lat": 38.91326166666666, "rental_uris": {"ios": "https://dc.lft.to/lastmile_qr_scan", "android": "https://dc.lft.to/lastmile_qr_scan"}, "is_reserved": 0, "fusion_lon": 0.0, "fusion_lat": 0.0, "lon": -77.03185283333333, "name": "805c04d9d8107270543fff3ca640f588"}, {"bike_id": "4f8284db67ef4a5de8c7ed0ec4e5eeaa", "type": "electric_scooter", "is_disabled": 0, "lat": 38.91578633333334, "rental_uris": {"ios": "https://dc.lft.to/lastmile_qr_scan", "android": "https://dc.lft.to/lastmile_qr_scan"}, "is_reserved": 0, "fusion_lon": 0.0, "fusion_lat": 0.0, "lon": -77.0319455, "name": "4f8284db67ef4a5de8c7ed0ec4e5eeaa"}, {"bike_id": "66acb37198def11572719cc9ba36569b", "type": "electric_scooter", "is_disabled": 0, "lat": 38.90494266666666, "rental_uris": {"ios": "https://dc.lft.to/lastmile_qr_scan", "android": "https://dc.lft.to/lastmile_qr_scan"}, "is_reserved": 0, "fusion_lon": 0.0, "fusion_lat": 0.0, "lon": -76.986827, "name": "66acb37198def11572719cc9ba36569b"}, {"bike_id": "3865b823bd452b2773dec7d7db942d90", "type": "electric_scooter", "is_disabled": 0, "lat": 38.8973355, "rental_uris": {"ios": "https://dc.lft.to/lastmile_qr_scan", "android": "https://dc.lft.to/lastmile_qr_scan"}, "is_reserved": 0, "fusion_lon": 0.0, "fusion_lat": 0.0, "lon": -77.05474116666667, "name": "3865b823bd452b2773dec7d7db942d90"}, {"bike_id": "4f6e3a0dfac1f34dab3b5313ad8b2891", "type": "electric_bike", "is_disabled": 0, "lat": 39.05497066666667, "rental_uris": {"ios": "https://dc.lft.to/lastmile_qr_scan", "android": "https://dc.lft.to/lastmile_qr_scan"}, "is_reserved": 0, "fusion_lon": 0.0, "fusion_lat": 0.0, "lon": -77.117896, "name": "4f6e3a0dfac1f34dab3b5313ad8b2891"}, {"bike_id": "c972959f6e0bb3aeb58288ae28e86de5", "type": "electric_scooter", "is_disabled": 0, "lat": 38.904028833333335, "rental_uris": {"ios": "https://dc.lft.to/lastmile_qr_scan", "android": "https://dc.lft.to/lastmile_qr_scan"}, "is_reserved": 0, "fusion_lon": 0.0, "fusion_lat": 0.0, "lon": -77.005808, "name": "c972959f6e0bb3aeb58288ae28e86de5"}, {"bike_id": "16bc34f2ef51dd1b2c65c22da382eb84", "type": "electric_scooter", "is_disabled": 0, "lat": 38.90541283333334, "rental_uris": {"ios": "https://dc.lft.to/lastmile_qr_scan", "android": "https://dc.lft.to/lastmile_qr_scan"}, "is_reserved": 0, "fusion_lon": 0.0, "fusion_lat": 0.0, "lon": -77.06887466666667, "name": "16bc34f2ef51dd1b2c65c22da382eb84"}, {"bike_id": "3369d239ec7312d2d7dcb8516d4a58f8", "type": "electric_scooter", "is_disabled": 0, "lat": 38.906578333333336, "rental_uris": {"ios": "https://dc.lft.to/lastmile_qr_scan", "android": "https://dc.lft.to/lastmile_qr_scan"}, "is_reserved": 0, "fusion_lon": 0.0, "fusion_lat": 0.0, "lon": -77.00903466666666, "name": "3369d239ec7312d2d7dcb8516d4a58f8"}, {"bike_id": "10f262cccbdca606d402d49e55c701c9", "type": "electric_bike", "is_disabled": 0, "lat": 38.90827733333333, "rental_uris": {"ios": "https://dc.lft.to/lastmile_qr_scan", "android": "https://dc.lft.to/lastmile_qr_scan"}, "is_reserved": 0, "fusion_lon": 0.0, "fusion_lat": 0.0, "lon": -76.94158133333333, "name": "10f262cccbdca606d402d49e55c701c9"}, {"bike_id": "55759bbe5721fec050040fa70fb3dfd6", "type": "electric_bike", "is_disabled": 0, "lat": 39.0373785, "rental_uris": {"ios": "https://dc.lft.to/lastmile_qr_scan", "android": "https://dc.lft.to/lastmile_qr_scan"}, "is_reserved": 0, "fusion_lon": 0.0, "fusion_lat": 0.0, "lon": -77.05476733333333, "name": "55759bbe5721fec050040fa70fb3dfd6"}, {"bike_id": "fb4f9a3778de67b86698ebb70ee2282e", "type": "electric_scooter", "is_disabled": 0, "lat": 38.928802833333336, "rental_uris": {"ios": "https://dc.lft.to/lastmile_qr_scan", "android": "https://dc.lft.to/lastmile_qr_scan"}, "is_reserved": 0, "fusion_lon": 0.0, "fusion_lat": 0.0, "lon": -77.0136555, "name": "fb4f9a3778de67b86698ebb70ee2282e"}, {"bike_id": "8659c923134cf4fa32476bf187dcc28c", "type": "electric_scooter", "is_disabled": 0, "lat": 38.91418766666666, "rental_uris": {"ios": "https://dc.lft.to/lastmile_qr_scan", "android": "https://dc.lft.to/lastmile_qr_scan"}, "is_reserved": 0, "fusion_lon": 0.0, "fusion_lat": 0.0, "lon": -77.022508, "name": "8659c923134cf4fa32476bf187dcc28c"}, {"bike_id": "a852a246589d923055173c6d192b50ed", "type": "electric_scooter", "is_disabled": 0, "lat": 38.92658016666667, "rental_uris": {"ios": "https://dc.lft.to/lastmile_qr_scan", "android": "https://dc.lft.to/lastmile_qr_scan"}, "is_reserved": 0, "fusion_lon": 0.0, "fusion_lat": 0.0, "lon": -77.037266, "name": "a852a246589d923055173c6d192b50ed"}, {"bike_id": "b08a4c37ba052eb910ac3f60a1752980", "type": "electric_scooter", "is_disabled": 0, "lat": 38.928061666666665, "rental_uris": {"ios": "https://dc.lft.to/lastmile_qr_scan", "android": "https://dc.lft.to/lastmile_qr_scan"}, "is_reserved": 0, "fusion_lon": 0.0, "fusion_lat": 0.0, "lon": -77.0269125, "name": "b08a4c37ba052eb910ac3f60a1752980"}, {"bike_id": "f09b1837d31a64034f8dca6935eb9690", "type": "electric_scooter", "is_disabled": 0, "lat": 38.906027333333334, "rental_uris": {"ios": "https://dc.lft.to/lastmile_qr_scan", "android": "https://dc.lft.to/lastmile_qr_scan"}, "is_reserved": 0, "fusion_lon": 0.0, "fusion_lat": 0.0, "lon": -77.06289333333334, "name": "f09b1837d31a64034f8dca6935eb9690"}, {"bike_id": "3ed902a77e76f4ff5aebac9a9838d51b", "type": "electric_scooter", "is_disabled": 0, "lat": 38.92580066666667, "rental_uris": {"ios": "https://dc.lft.to/lastmile_qr_scan", "android": "https://dc.lft.to/lastmile_qr_scan"}, "is_reserved": 0, "fusion_lon": 0.0, "fusion_lat": 0.0, "lon": -77.027616, "name": "3ed902a77e76f4ff5aebac9a9838d51b"}, {"bike_id": "8da84b4391aa807422ff0470e94d4116", "type": "electric_scooter", "is_disabled": 0, "lat": 38.90017016666667, "rental_uris": {"ios": "https://dc.lft.to/lastmile_qr_scan", "android": "https://dc.lft.to/lastmile_qr_scan"}, "is_reserved": 0, "fusion_lon": 0.0, "fusion_lat": 0.0, "lon": -77.0218615, "name": "8da84b4391aa807422ff0470e94d4116"}, {"bike_id": "3e733f8d42e4e956243d70ab8b2164ae", "type": "electric_scooter", "is_disabled": 0, "lat": 38.88679666666667, "rental_uris": {"ios": "https://dc.lft.to/lastmile_qr_scan", "android": "https://dc.lft.to/lastmile_qr_scan"}, "is_reserved": 0, "fusion_lon": 0.0, "fusion_lat": 0.0, "lon": -76.99133416666666, "name": "3e733f8d42e4e956243d70ab8b2164ae"}, {"bike_id": "c846a5b575dbb1312f93667a7463267b", "type": "electric_scooter", "is_disabled": 0, "lat": 38.8888495, "rental_uris": {"ios": "https://dc.lft.to/lastmile_qr_scan", "android": "https://dc.lft.to/lastmile_qr_scan"}, "is_reserved": 0, "fusion_lon": 0.0, "fusion_lat": 0.0, "lon": -76.9478195, "name": "c846a5b575dbb1312f93667a7463267b"}, {"bike_id": "d82c9f6690f1ab07112bc211fa4421c2", "type": "electric_scooter", "is_disabled": 0, "lat": 38.8839085, "rental_uris": {"ios": "https://dc.lft.to/lastmile_qr_scan", "android": "https://dc.lft.to/lastmile_qr_scan"}, "is_reserved": 0, "fusion_lon": 0.0, "fusion_lat": 0.0, "lon": -76.9544595, "name": "d82c9f6690f1ab07112bc211fa4421c2"}, {"bike_id": "a4f7adae1003ec7820c07efccfc2987a", "type": "electric_scooter", "is_disabled": 0, "lat": 38.886623666666665, "rental_uris": {"ios": "https://dc.lft.to/lastmile_qr_scan", "android": "https://dc.lft.to/lastmile_qr_scan"}, "is_reserved": 0, "fusion_lon": 0.0, "fusion_lat": 0.0, "lon": -77.0338885, "name": "a4f7adae1003ec7820c07efccfc2987a"}, {"bike_id": "47b6bcb9c08754c3a3eb1d602e6d267e", "type": "electric_scooter", "is_disabled": 0, "lat": 38.9049765, "rental_uris": {"ios": "https://dc.lft.to/lastmile_qr_scan", "android": "https://dc.lft.to/lastmile_qr_scan"}, "is_reserved": 0, "fusion_lon": 0.0, "fusion_lat": 0.0, "lon": -77.02597233333333, "name": "47b6bcb9c08754c3a3eb1d602e6d267e"}, {"bike_id": "cca6795cab9869b23b7b041a28da73c3", "type": "electric_scooter", "is_disabled": 0, "lat": 38.900248166666664, "rental_uris": {"ios": "https://dc.lft.to/lastmile_qr_scan", "android": "https://dc.lft.to/lastmile_qr_scan"}, "is_reserved": 0, "fusion_lon": 0.0, "fusion_lat": 0.0, "lon": -77.01188366666666, "name": "cca6795cab9869b23b7b041a28da73c3"}, {"bike_id": "9bfc3f728957c57e34eb39683d42ddaa", "type": "electric_scooter", "is_disabled": 0, "lat": 38.90357216666666, "rental_uris": {"ios": "https://dc.lft.to/lastmile_qr_scan", "android": "https://dc.lft.to/lastmile_qr_scan"}, "is_reserved": 0, "fusion_lon": 0.0, "fusion_lat": 0.0, "lon": -77.02714416666667, "name": "9bfc3f728957c57e34eb39683d42ddaa"}, {"bike_id": "6b7398c5bccff0f0d1d17ce90ddfec39", "type": "electric_scooter", "is_disabled": 0, "lat": 38.92453916666667, "rental_uris": {"ios": "https://dc.lft.to/lastmile_qr_scan", "android": "https://dc.lft.to/lastmile_qr_scan"}, "is_reserved": 0, "fusion_lon": 0.0, "fusion_lat": 0.0, "lon": -77.033411, "name": "6b7398c5bccff0f0d1d17ce90ddfec39"}, {"bike_id": "00af5d675f68cb7c6799e8a12a49fe7e", "type": "electric_scooter", "is_disabled": 0, "lat": 38.903496833333335, "rental_uris": {"ios": "https://dc.lft.to/lastmile_qr_scan", "android": "https://dc.lft.to/lastmile_qr_scan"}, "is_reserved": 0, "fusion_lon": 0.0, "fusion_lat": 0.0, "lon": -77.04488666666667, "name": "00af5d675f68cb7c6799e8a12a49fe7e"}, {"bike_id": "22b09c894bd7b8c74948db7ce3734a65", "type": "electric_scooter", "is_disabled": 0, "lat": 38.91755216666667, "rental_uris": {"ios": "https://dc.lft.to/lastmile_qr_scan", "android": "https://dc.lft.to/lastmile_qr_scan"}, "is_reserved": 0, "fusion_lon": 0.0, "fusion_lat": 0.0, "lon": -77.03208083333334, "name": "22b09c894bd7b8c74948db7ce3734a65"}, {"bike_id": "673be530b1af4129690ba8e3e5a90157", "type": "electric_bike", "is_disabled": 0, "lat": 38.7960675, "rental_uris": {"ios": "https://dc.lft.to/lastmile_qr_scan", "android": "https://dc.lft.to/lastmile_qr_scan"}, "is_reserved": 0, "fusion_lon": 0.0, "fusion_lat": 0.0, "lon": -76.997442, "name": "673be530b1af4129690ba8e3e5a90157"}, {"bike_id": "2f489e8f811ee1ea3dd0b643bb283add", "type": "electric_scooter", "is_disabled": 0, "lat": 38.9126675, "rental_uris": {"ios": "https://dc.lft.to/lastmile_qr_scan", "android": "https://dc.lft.to/lastmile_qr_scan"}, "is_reserved": 0, "fusion_lon": 0.0, "fusion_lat": 0.0, "lon": -77.01219866666666, "name": "2f489e8f811ee1ea3dd0b643bb283add"}, {"bike_id": "5b24d732b6dd097b245d962e20d922af", "type": "electric_scooter", "is_disabled": 0, "lat": 38.92137366666667, "rental_uris": {"ios": "https://dc.lft.to/lastmile_qr_scan", "android": "https://dc.lft.to/lastmile_qr_scan"}, "is_reserved": 0, "fusion_lon": 0.0, "fusion_lat": 0.0, "lon": -77.03207616666667, "name": "5b24d732b6dd097b245d962e20d922af"}, {"bike_id": "542ad181d8d52469f3a7a53868fed3c4", "type": "electric_scooter", "is_disabled": 0, "lat": 38.91572333333333, "rental_uris": {"ios": "https://dc.lft.to/lastmile_qr_scan", "android": "https://dc.lft.to/lastmile_qr_scan"}, "is_reserved": 0, "fusion_lon": 0.0, "fusion_lat": 0.0, "lon": -77.0319985, "name": "542ad181d8d52469f3a7a53868fed3c4"}, {"bike_id": "e47fdcd631c16e3cbcd6c282f37ef33b", "type": "electric_bike", "is_disabled": 0, "lat": 38.8710165, "rental_uris": {"ios": "https://dc.lft.to/lastmile_qr_scan", "android": "https://dc.lft.to/lastmile_qr_scan"}, "is_reserved": 0, "fusion_lon": 0.0, "fusion_lat": 0.0, "lon": -77.01201733333333, "name": "e47fdcd631c16e3cbcd6c282f37ef33b"}, {"bike_id": "0780332ccb3051343e91faf9d208eb22", "type": "electric_scooter", "is_disabled": 0, "lat": 38.9455815, "rental_uris": {"ios": "https://dc.lft.to/lastmile_qr_scan", "android": "https://dc.lft.to/lastmile_qr_scan"}, "is_reserved": 0, "fusion_lon": 0.0, "fusion_lat": 0.0, "lon": -77.07123316666667, "name": "0780332ccb3051343e91faf9d208eb22"}, {"bike_id": "5f1834f6e8db799cec200d35a49db71f", "type": "electric_scooter", "is_disabled": 0, "lat": 38.884499, "rental_uris": {"ios": "https://dc.lft.to/lastmile_qr_scan", "android": "https://dc.lft.to/lastmile_qr_scan"}, "is_reserved": 0, "fusion_lon": 0.0, "fusion_lat": 0.0, "lon": -76.9509965, "name": "5f1834f6e8db799cec200d35a49db71f"}, {"bike_id": "51041a23a1b2b2d1e6902d65ed5f6224", "type": "electric_bike", "is_disabled": 0, "lat": 38.85895166666667, "rental_uris": {"ios": "https://dc.lft.to/lastmile_qr_scan", "android": "https://dc.lft.to/lastmile_qr_scan"}, "is_reserved": 0, "fusion_lon": 0.0, "fusion_lat": 0.0, "lon": -77.11863183333334, "name": "51041a23a1b2b2d1e6902d65ed5f6224"}, {"bike_id": "1a9e16daf0204ba39538700eacbd1cdd", "type": "electric_scooter", "is_disabled": 0, "lat": 38.885010666666666, "rental_uris": {"ios": "https://dc.lft.to/lastmile_qr_scan", "android": "https://dc.lft.to/lastmile_qr_scan"}, "is_reserved": 0, "fusion_lon": 0.0, "fusion_lat": 0.0, "lon": -76.99847083333333, "name": "1a9e16daf0204ba39538700eacbd1cdd"}, {"bike_id": "bbb905d0d7f79379fd9a8b02e9585c5c", "type": "electric_scooter", "is_disabled": 0, "lat": 38.9106315, "rental_uris": {"ios": "https://dc.lft.to/lastmile_qr_scan", "android": "https://dc.lft.to/lastmile_qr_scan"}, "is_reserved": 0, "fusion_lon": 0.0, "fusion_lat": 0.0, "lon": -77.030893, "name": "bbb905d0d7f79379fd9a8b02e9585c5c"}, {"bike_id": "23992f8a8d6137c61972ef5df70a5684", "type": "electric_scooter", "is_disabled": 0, "lat": 38.892027, "rental_uris": {"ios": "https://dc.lft.to/lastmile_qr_scan", "android": "https://dc.lft.to/lastmile_qr_scan"}, "is_reserved": 0, "fusion_lon": 0.0, "fusion_lat": 0.0, "lon": -76.99937283333334, "name": "23992f8a8d6137c61972ef5df70a5684"}, {"bike_id": "f0cbd4d8e29068aa23a0009e92c3f8bf", "type": "electric_scooter", "is_disabled": 0, "lat": 38.914568833333334, "rental_uris": {"ios": "https://dc.lft.to/lastmile_qr_scan", "android": "https://dc.lft.to/lastmile_qr_scan"}, "is_reserved": 0, "fusion_lon": 0.0, "fusion_lat": 0.0, "lon": -77.00217316666667, "name": "f0cbd4d8e29068aa23a0009e92c3f8bf"}, {"bike_id": "ffbf2c1425475a9471bf8328a1d3f847", "type": "electric_scooter", "is_disabled": 0, "lat": 38.903143166666666, "rental_uris": {"ios": "https://dc.lft.to/lastmile_qr_scan", "android": "https://dc.lft.to/lastmile_qr_scan"}, "is_reserved": 0, "fusion_lon": 0.0, "fusion_lat": 0.0, "lon": -76.97801033333333, "name": "ffbf2c1425475a9471bf8328a1d3f847"}, {"bike_id": "9ed025ac06ba347bb3d62a6795836b2c", "type": "electric_scooter", "is_disabled": 0, "lat": 38.90854383333333, "rental_uris": {"ios": "https://dc.lft.to/lastmile_qr_scan", "android": "https://dc.lft.to/lastmile_qr_scan"}, "is_reserved": 0, "fusion_lon": 0.0, "fusion_lat": 0.0, "lon": -77.04764683333333, "name": "9ed025ac06ba347bb3d62a6795836b2c"}, {"bike_id": "165db760191523d695ff54f70cc581f5", "type": "electric_scooter", "is_disabled": 0, "lat": 38.9049015, "rental_uris": {"ios": "https://dc.lft.to/lastmile_qr_scan", "android": "https://dc.lft.to/lastmile_qr_scan"}, "is_reserved": 0, "fusion_lon": 0.0, "fusion_lat": 0.0, "lon": -76.98981766666667, "name": "165db760191523d695ff54f70cc581f5"}, {"bike_id": "857d36ca13c4184a38316a4daac9aa00", "type": "electric_scooter", "is_disabled": 0, "lat": 38.909735166666664, "rental_uris": {"ios": "https://dc.lft.to/lastmile_qr_scan", "android": "https://dc.lft.to/lastmile_qr_scan"}, "is_reserved": 0, "fusion_lon": 0.0, "fusion_lat": 0.0, "lon": -77.034381, "name": "857d36ca13c4184a38316a4daac9aa00"}, {"bike_id": "3924f292d60a4410a597259051973d19", "type": "electric_scooter", "is_disabled": 0, "lat": 38.90238933333333, "rental_uris": {"ios": "https://dc.lft.to/lastmile_qr_scan", "android": "https://dc.lft.to/lastmile_qr_scan"}, "is_reserved": 0, "fusion_lon": 0.0, "fusion_lat": 0.0, "lon": -77.00197716666666, "name": "3924f292d60a4410a597259051973d19"}, {"bike_id": "4b356d4b960dd6979d8d0bb246fd7fb2", "type": "electric_scooter", "is_disabled": 0, "lat": 38.89965633333333, "rental_uris": {"ios": "https://dc.lft.to/lastmile_qr_scan", "android": "https://dc.lft.to/lastmile_qr_scan"}, "is_reserved": 0, "fusion_lon": 0.0, "fusion_lat": 0.0, "lon": -76.98299533333333, "name": "4b356d4b960dd6979d8d0bb246fd7fb2"}, {"bike_id": "6033ce4519c585e89237e9f00e6781dc", "type": "electric_scooter", "is_disabled": 0, "lat": 38.911096, "rental_uris": {"ios": "https://dc.lft.to/lastmile_qr_scan", "android": "https://dc.lft.to/lastmile_qr_scan"}, "is_reserved": 0, "fusion_lon": 0.0, "fusion_lat": 0.0, "lon": -77.03836, "name": "6033ce4519c585e89237e9f00e6781dc"}, {"bike_id": "6e654e455e7da6273cefcce8fdb6e693", "type": "electric_scooter", "is_disabled": 0, "lat": 38.926026, "rental_uris": {"ios": "https://dc.lft.to/lastmile_qr_scan", "android": "https://dc.lft.to/lastmile_qr_scan"}, "is_reserved": 0, "fusion_lon": 0.0, "fusion_lat": 0.0, "lon": -77.02154966666667, "name": "6e654e455e7da6273cefcce8fdb6e693"}, {"bike_id": "81398ab45f1e3df8af5865685d9ad826", "type": "electric_scooter", "is_disabled": 0, "lat": 38.90194, "rental_uris": {"ios": "https://dc.lft.to/lastmile_qr_scan", "android": "https://dc.lft.to/lastmile_qr_scan"}, "is_reserved": 0, "fusion_lon": 0.0, "fusion_lat": 0.0, "lon": -76.98843983333333, "name": "81398ab45f1e3df8af5865685d9ad826"}, {"bike_id": "d88570b261cd3960c3b7336dcd39a3ab", "type": "electric_scooter", "is_disabled": 0, "lat": 38.94071616666667, "rental_uris": {"ios": "https://dc.lft.to/lastmile_qr_scan", "android": "https://dc.lft.to/lastmile_qr_scan"}, "is_reserved": 0, "fusion_lon": 0.0, "fusion_lat": 0.0, "lon": -77.0525885, "name": "d88570b261cd3960c3b7336dcd39a3ab"}, {"bike_id": "9e4d42497a4976059678cd6d9ce63b05", "type": "electric_scooter", "is_disabled": 0, "lat": 38.892394833333334, "rental_uris": {"ios": "https://dc.lft.to/lastmile_qr_scan", "android": "https://dc.lft.to/lastmile_qr_scan"}, "is_reserved": 0, "fusion_lon": 0.0, "fusion_lat": 0.0, "lon": -77.02381133333333, "name": "9e4d42497a4976059678cd6d9ce63b05"}, {"bike_id": "185d2a47e989033fbb8f85414c4ce6ae", "type": "electric_scooter", "is_disabled": 0, "lat": 38.90429, "rental_uris": {"ios": "https://dc.lft.to/lastmile_qr_scan", "android": "https://dc.lft.to/lastmile_qr_scan"}, "is_reserved": 0, "fusion_lon": 0.0, "fusion_lat": 0.0, "lon": -77.02895866666667, "name": "185d2a47e989033fbb8f85414c4ce6ae"}, {"bike_id": "0758f45665b3d342af92c188fd3b665b", "type": "electric_scooter", "is_disabled": 0, "lat": 38.90405716666667, "rental_uris": {"ios": "https://dc.lft.to/lastmile_qr_scan", "android": "https://dc.lft.to/lastmile_qr_scan"}, "is_reserved": 0, "fusion_lon": 0.0, "fusion_lat": 0.0, "lon": -77.04035266666666, "name": "0758f45665b3d342af92c188fd3b665b"}, {"bike_id": "1be877e5f38c99f8fca995101a6d6a04", "type": "electric_scooter", "is_disabled": 0, "lat": 38.898433, "rental_uris": {"ios": "https://dc.lft.to/lastmile_qr_scan", "android": "https://dc.lft.to/lastmile_qr_scan"}, "is_reserved": 0, "fusion_lon": 0.0, "fusion_lat": 0.0, "lon": -76.94635533333333, "name": "1be877e5f38c99f8fca995101a6d6a04"}, {"bike_id": "b19413f05cd8a492b7a26834ec335e70", "type": "electric_scooter", "is_disabled": 0, "lat": 38.91367066666667, "rental_uris": {"ios": "https://dc.lft.to/lastmile_qr_scan", "android": "https://dc.lft.to/lastmile_qr_scan"}, "is_reserved": 0, "fusion_lon": 0.0, "fusion_lat": 0.0, "lon": -77.0456235, "name": "b19413f05cd8a492b7a26834ec335e70"}, {"bike_id": "c4a285d00394cd2730cd5a889ce4d065", "type": "electric_scooter", "is_disabled": 0, "lat": 38.900585666666665, "rental_uris": {"ios": "https://dc.lft.to/lastmile_qr_scan", "android": "https://dc.lft.to/lastmile_qr_scan"}, "is_reserved": 0, "fusion_lon": 0.0, "fusion_lat": 0.0, "lon": -77.01369083333333, "name": "c4a285d00394cd2730cd5a889ce4d065"}, {"bike_id": "0207b80cbfd6c942466b724510a9df7e", "type": "electric_scooter", "is_disabled": 0, "lat": 38.90425233333333, "rental_uris": {"ios": "https://dc.lft.to/lastmile_qr_scan", "android": "https://dc.lft.to/lastmile_qr_scan"}, "is_reserved": 0, "fusion_lon": 0.0, "fusion_lat": 0.0, "lon": -77.0534235, "name": "0207b80cbfd6c942466b724510a9df7e"}, {"bike_id": "8b2188385601a450970d5f841c75a50d", "type": "electric_scooter", "is_disabled": 0, "lat": 38.917060166666666, "rental_uris": {"ios": "https://dc.lft.to/lastmile_qr_scan", "android": "https://dc.lft.to/lastmile_qr_scan"}, "is_reserved": 0, "fusion_lon": 0.0, "fusion_lat": 0.0, "lon": -77.04123216666666, "name": "8b2188385601a450970d5f841c75a50d"}, {"bike_id": "6f91162e5239860a61dc83ee4bd6ca1e", "type": "electric_scooter", "is_disabled": 0, "lat": 38.92058733333333, "rental_uris": {"ios": "https://dc.lft.to/lastmile_qr_scan", "android": "https://dc.lft.to/lastmile_qr_scan"}, "is_reserved": 0, "fusion_lon": 0.0, "fusion_lat": 0.0, "lon": -77.03468633333334, "name": "6f91162e5239860a61dc83ee4bd6ca1e"}, {"bike_id": "813ce523b1d7bca59c3061c233fb30b8", "type": "electric_scooter", "is_disabled": 0, "lat": 38.926873, "rental_uris": {"ios": "https://dc.lft.to/lastmile_qr_scan", "android": "https://dc.lft.to/lastmile_qr_scan"}, "is_reserved": 0, "fusion_lon": 0.0, "fusion_lat": 0.0, "lon": -77.02158716666666, "name": "813ce523b1d7bca59c3061c233fb30b8"}, {"bike_id": "9265fcb273443c00ab2ebe1626dd7627", "type": "electric_scooter", "is_disabled": 0, "lat": 38.95685816666666, "rental_uris": {"ios": "https://dc.lft.to/lastmile_qr_scan", "android": "https://dc.lft.to/lastmile_qr_scan"}, "is_reserved": 0, "fusion_lon": 0.0, "fusion_lat": 0.0, "lon": -77.02402, "name": "9265fcb273443c00ab2ebe1626dd7627"}, {"bike_id": "dab590dc28a126722d6bad8b91098dcc", "type": "electric_scooter", "is_disabled": 0, "lat": 38.91665783333333, "rental_uris": {"ios": "https://dc.lft.to/lastmile_qr_scan", "android": "https://dc.lft.to/lastmile_qr_scan"}, "is_reserved": 0, "fusion_lon": 0.0, "fusion_lat": 0.0, "lon": -77.03857116666667, "name": "dab590dc28a126722d6bad8b91098dcc"}, {"bike_id": "eb8e251694e80568c3838c2aa2b3c22e", "type": "electric_scooter", "is_disabled": 0, "lat": 38.90733216666667, "rental_uris": {"ios": "https://dc.lft.to/lastmile_qr_scan", "android": "https://dc.lft.to/lastmile_qr_scan"}, "is_reserved": 0, "fusion_lon": 0.0, "fusion_lat": 0.0, "lon": -77.05330116666667, "name": "eb8e251694e80568c3838c2aa2b3c22e"}, {"bike_id": "c12ea9366fbc641486968bc94705d7d2", "type": "electric_scooter", "is_disabled": 0, "lat": 38.91619766666667, "rental_uris": {"ios": "https://dc.lft.to/lastmile_qr_scan", "android": "https://dc.lft.to/lastmile_qr_scan"}, "is_reserved": 0, "fusion_lon": 0.0, "fusion_lat": 0.0, "lon": -77.03197433333334, "name": "c12ea9366fbc641486968bc94705d7d2"}, {"bike_id": "c8a0e633474605b1edb9ccca8507d56e", "type": "electric_scooter", "is_disabled": 0, "lat": 38.9111275, "rental_uris": {"ios": "https://dc.lft.to/lastmile_qr_scan", "android": "https://dc.lft.to/lastmile_qr_scan"}, "is_reserved": 0, "fusion_lon": 0.0, "fusion_lat": 0.0, "lon": -77.04474466666667, "name": "c8a0e633474605b1edb9ccca8507d56e"}, {"bike_id": "c54fecb5630b1c710fd24bdaaec2fdd5", "type": "electric_scooter", "is_disabled": 0, "lat": 38.862168, "rental_uris": {"ios": "https://dc.lft.to/lastmile_qr_scan", "android": "https://dc.lft.to/lastmile_qr_scan"}, "is_reserved": 0, "fusion_lon": 0.0, "fusion_lat": 0.0, "lon": -76.99485616666666, "name": "c54fecb5630b1c710fd24bdaaec2fdd5"}, {"bike_id": "deaeca0ffea66f54f5fedf749b97f3c3", "type": "electric_scooter", "is_disabled": 0, "lat": 38.8849405, "rental_uris": {"ios": "https://dc.lft.to/lastmile_qr_scan", "android": "https://dc.lft.to/lastmile_qr_scan"}, "is_reserved": 0, "fusion_lon": 0.0, "fusion_lat": 0.0, "lon": -77.015173, "name": "deaeca0ffea66f54f5fedf749b97f3c3"}, {"bike_id": "d9f01b07f44350745528ceb039aa5807", "type": "electric_scooter", "is_disabled": 0, "lat": 38.90527566666667, "rental_uris": {"ios": "https://dc.lft.to/lastmile_qr_scan", "android": "https://dc.lft.to/lastmile_qr_scan"}, "is_reserved": 0, "fusion_lon": 0.0, "fusion_lat": 0.0, "lon": -77.0638625, "name": "d9f01b07f44350745528ceb039aa5807"}, {"bike_id": "a7279ec3fffa7fc63e77f74cfa447931", "type": "electric_scooter", "is_disabled": 0, "lat": 38.905983666666664, "rental_uris": {"ios": "https://dc.lft.to/lastmile_qr_scan", "android": "https://dc.lft.to/lastmile_qr_scan"}, "is_reserved": 0, "fusion_lon": 0.0, "fusion_lat": 0.0, "lon": -77.00360833333333, "name": "a7279ec3fffa7fc63e77f74cfa447931"}, {"bike_id": "e90872e672f0f07b5f135dd43fcd938d", "type": "electric_scooter", "is_disabled": 0, "lat": 38.91947366666667, "rental_uris": {"ios": "https://dc.lft.to/lastmile_qr_scan", "android": "https://dc.lft.to/lastmile_qr_scan"}, "is_reserved": 0, "fusion_lon": 0.0, "fusion_lat": 0.0, "lon": -77.04564266666667, "name": "e90872e672f0f07b5f135dd43fcd938d"}, {"bike_id": "69f8babcf68ef80442fb91782c81de1d", "type": "electric_scooter", "is_disabled": 0, "lat": 38.906439666666664, "rental_uris": {"ios": "https://dc.lft.to/lastmile_qr_scan", "android": "https://dc.lft.to/lastmile_qr_scan"}, "is_reserved": 0, "fusion_lon": 0.0, "fusion_lat": 0.0, "lon": -77.05325283333333, "name": "69f8babcf68ef80442fb91782c81de1d"}, {"bike_id": "6df33acc90b094185b88bfe547d73f46", "type": "electric_scooter", "is_disabled": 0, "lat": 38.87938333333334, "rental_uris": {"ios": "https://dc.lft.to/lastmile_qr_scan", "android": "https://dc.lft.to/lastmile_qr_scan"}, "is_reserved": 0, "fusion_lon": 0.0, "fusion_lat": 0.0, "lon": -77.0042965, "name": "6df33acc90b094185b88bfe547d73f46"}, {"bike_id": "6e39b96530233728bc101af37e4c850d", "type": "electric_scooter", "is_disabled": 0, "lat": 38.924534666666666, "rental_uris": {"ios": "https://dc.lft.to/lastmile_qr_scan", "android": "https://dc.lft.to/lastmile_qr_scan"}, "is_reserved": 0, "fusion_lon": 0.0, "fusion_lat": 0.0, "lon": -77.05237983333333, "name": "6e39b96530233728bc101af37e4c850d"}, {"bike_id": "727651d4a861e69f6ac6f9651e8fc0fe", "type": "electric_scooter", "is_disabled": 0, "lat": 38.92530566666667, "rental_uris": {"ios": "https://dc.lft.to/lastmile_qr_scan", "android": "https://dc.lft.to/lastmile_qr_scan"}, "is_reserved": 0, "fusion_lon": 0.0, "fusion_lat": 0.0, "lon": -77.0225935, "name": "727651d4a861e69f6ac6f9651e8fc0fe"}, {"bike_id": "d789d53446571b00b83e09252e3f566b", "type": "electric_scooter", "is_disabled": 0, "lat": 38.91329966666667, "rental_uris": {"ios": "https://dc.lft.to/lastmile_qr_scan", "android": "https://dc.lft.to/lastmile_qr_scan"}, "is_reserved": 0, "fusion_lon": 0.0, "fusion_lat": 0.0, "lon": -77.03172366666666, "name": "d789d53446571b00b83e09252e3f566b"}, {"bike_id": "40c3c3b4bb3b7c53e2d0b5c6d4de74a2", "type": "electric_scooter", "is_disabled": 0, "lat": 38.8921685, "rental_uris": {"ios": "https://dc.lft.to/lastmile_qr_scan", "android": "https://dc.lft.to/lastmile_qr_scan"}, "is_reserved": 0, "fusion_lon": 0.0, "fusion_lat": 0.0, "lon": -77.0262875, "name": "40c3c3b4bb3b7c53e2d0b5c6d4de74a2"}, {"bike_id": "4016697935a627a88bbd5bee70de7342", "type": "electric_scooter", "is_disabled": 0, "lat": 38.8779765, "rental_uris": {"ios": "https://dc.lft.to/lastmile_qr_scan", "android": "https://dc.lft.to/lastmile_qr_scan"}, "is_reserved": 0, "fusion_lon": 0.0, "fusion_lat": 0.0, "lon": -76.93076583333334, "name": "4016697935a627a88bbd5bee70de7342"}, {"bike_id": "a7c9e051f4be951d8112e537b0632700", "type": "electric_scooter", "is_disabled": 0, "lat": 38.914082666666665, "rental_uris": {"ios": "https://dc.lft.to/lastmile_qr_scan", "android": "https://dc.lft.to/lastmile_qr_scan"}, "is_reserved": 0, "fusion_lon": 0.0, "fusion_lat": 0.0, "lon": -77.022119, "name": "a7c9e051f4be951d8112e537b0632700"}, {"bike_id": "a6616408524618920adc163fc65313c7", "type": "electric_bike", "is_disabled": 0, "lat": 38.8755345, "rental_uris": {"ios": "https://dc.lft.to/lastmile_qr_scan", "android": "https://dc.lft.to/lastmile_qr_scan"}, "is_reserved": 0, "fusion_lon": 0.0, "fusion_lat": 0.0, "lon": -76.96507716666666, "name": "a6616408524618920adc163fc65313c7"}, {"bike_id": "660970ecab8c1cfff3ee79cb89077dc3", "type": "electric_scooter", "is_disabled": 0, "lat": 38.90135216666667, "rental_uris": {"ios": "https://dc.lft.to/lastmile_qr_scan", "android": "https://dc.lft.to/lastmile_qr_scan"}, "is_reserved": 0, "fusion_lon": 0.0, "fusion_lat": 0.0, "lon": -77.03480783333333, "name": "660970ecab8c1cfff3ee79cb89077dc3"}, {"bike_id": "2ae4f8b62e7663f7545d934cb429024a", "type": "electric_scooter", "is_disabled": 0, "lat": 38.90969616666667, "rental_uris": {"ios": "https://dc.lft.to/lastmile_qr_scan", "android": "https://dc.lft.to/lastmile_qr_scan"}, "is_reserved": 0, "fusion_lon": 0.0, "fusion_lat": 0.0, "lon": -77.03207133333333, "name": "2ae4f8b62e7663f7545d934cb429024a"}, {"bike_id": "d072d239131e509ebbb0d980c73b01d7", "type": "electric_scooter", "is_disabled": 0, "lat": 38.956867, "rental_uris": {"ios": "https://dc.lft.to/lastmile_qr_scan", "android": "https://dc.lft.to/lastmile_qr_scan"}, "is_reserved": 0, "fusion_lon": 0.0, "fusion_lat": 0.0, "lon": -77.01155216666666, "name": "d072d239131e509ebbb0d980c73b01d7"}, {"bike_id": "09ed48089e0714b4cdd5c73a6f396eb4", "type": "electric_scooter", "is_disabled": 0, "lat": 38.921263833333335, "rental_uris": {"ios": "https://dc.lft.to/lastmile_qr_scan", "android": "https://dc.lft.to/lastmile_qr_scan"}, "is_reserved": 0, "fusion_lon": 0.0, "fusion_lat": 0.0, "lon": -76.9925115, "name": "09ed48089e0714b4cdd5c73a6f396eb4"}, {"bike_id": "ca35202ba9b7ee903d9c6b58e60d5df2", "type": "electric_scooter", "is_disabled": 0, "lat": 38.93211216666667, "rental_uris": {"ios": "https://dc.lft.to/lastmile_qr_scan", "android": "https://dc.lft.to/lastmile_qr_scan"}, "is_reserved": 0, "fusion_lon": 0.0, "fusion_lat": 0.0, "lon": -77.03356333333333, "name": "ca35202ba9b7ee903d9c6b58e60d5df2"}, {"bike_id": "42e051114b10da99a68c2edaedf6af63", "type": "electric_scooter", "is_disabled": 0, "lat": 38.91773666666667, "rental_uris": {"ios": "https://dc.lft.to/lastmile_qr_scan", "android": "https://dc.lft.to/lastmile_qr_scan"}, "is_reserved": 0, "fusion_lon": 0.0, "fusion_lat": 0.0, "lon": -77.03455416666667, "name": "42e051114b10da99a68c2edaedf6af63"}, {"bike_id": "78e57a05231a48a23675e0ade2a247e8", "type": "electric_scooter", "is_disabled": 0, "lat": 38.86246416666667, "rental_uris": {"ios": "https://dc.lft.to/lastmile_qr_scan", "android": "https://dc.lft.to/lastmile_qr_scan"}, "is_reserved": 0, "fusion_lon": 0.0, "fusion_lat": 0.0, "lon": -76.99503016666667, "name": "78e57a05231a48a23675e0ade2a247e8"}, {"bike_id": "f7ca98ba32356c155a749c2fd317fc09", "type": "electric_scooter", "is_disabled": 0, "lat": 38.91731716666666, "rental_uris": {"ios": "https://dc.lft.to/lastmile_qr_scan", "android": "https://dc.lft.to/lastmile_qr_scan"}, "is_reserved": 0, "fusion_lon": 0.0, "fusion_lat": 0.0, "lon": -77.0363535, "name": "f7ca98ba32356c155a749c2fd317fc09"}, {"bike_id": "a829bd2ea85db1f047b2353830851c5f", "type": "electric_scooter", "is_disabled": 0, "lat": 38.88063916666667, "rental_uris": {"ios": "https://dc.lft.to/lastmile_qr_scan", "android": "https://dc.lft.to/lastmile_qr_scan"}, "is_reserved": 0, "fusion_lon": 0.0, "fusion_lat": 0.0, "lon": -76.93216666666666, "name": "a829bd2ea85db1f047b2353830851c5f"}, {"bike_id": "7486a318dc698a066e8fc89f8730f725", "type": "electric_scooter", "is_disabled": 0, "lat": 38.90671066666667, "rental_uris": {"ios": "https://dc.lft.to/lastmile_qr_scan", "android": "https://dc.lft.to/lastmile_qr_scan"}, "is_reserved": 0, "fusion_lon": 0.0, "fusion_lat": 0.0, "lon": -77.07192833333333, "name": "7486a318dc698a066e8fc89f8730f725"}, {"bike_id": "d9714cb3f2197adc8cabbcb63674771c", "type": "electric_scooter", "is_disabled": 0, "lat": 38.91701916666667, "rental_uris": {"ios": "https://dc.lft.to/lastmile_qr_scan", "android": "https://dc.lft.to/lastmile_qr_scan"}, "is_reserved": 0, "fusion_lon": 0.0, "fusion_lat": 0.0, "lon": -77.0107395, "name": "d9714cb3f2197adc8cabbcb63674771c"}, {"bike_id": "e837c58855af0b5713051e1add848ac6", "type": "electric_scooter", "is_disabled": 0, "lat": 38.954058, "rental_uris": {"ios": "https://dc.lft.to/lastmile_qr_scan", "android": "https://dc.lft.to/lastmile_qr_scan"}, "is_reserved": 0, "fusion_lon": 0.0, "fusion_lat": 0.0, "lon": -76.99858066666667, "name": "e837c58855af0b5713051e1add848ac6"}, {"bike_id": "e38f82b2bcc13dc30dedbb173cd97581", "type": "electric_bike", "is_disabled": 0, "lat": 38.898241166666665, "rental_uris": {"ios": "https://dc.lft.to/lastmile_qr_scan", "android": "https://dc.lft.to/lastmile_qr_scan"}, "is_reserved": 0, "fusion_lon": 0.0, "fusion_lat": 0.0, "lon": -77.02496983333333, "name": "e38f82b2bcc13dc30dedbb173cd97581"}, {"bike_id": "7df1467db441502b44a47bc000ba82a7", "type": "electric_scooter", "is_disabled": 0, "lat": 38.933359833333334, "rental_uris": {"ios": "https://dc.lft.to/lastmile_qr_scan", "android": "https://dc.lft.to/lastmile_qr_scan"}, "is_reserved": 0, "fusion_lon": 0.0, "fusion_lat": 0.0, "lon": -77.03871116666667, "name": "7df1467db441502b44a47bc000ba82a7"}, {"bike_id": "d09a1ce45d80965c4d92ddeb4baa2e65", "type": "electric_scooter", "is_disabled": 0, "lat": 38.926585833333334, "rental_uris": {"ios": "https://dc.lft.to/lastmile_qr_scan", "android": "https://dc.lft.to/lastmile_qr_scan"}, "is_reserved": 0, "fusion_lon": 0.0, "fusion_lat": 0.0, "lon": -77.03728683333334, "name": "d09a1ce45d80965c4d92ddeb4baa2e65"}, {"bike_id": "774e54e7c5e9a5c7673aa7982e1da773", "type": "electric_scooter", "is_disabled": 0, "lat": 38.920205833333334, "rental_uris": {"ios": "https://dc.lft.to/lastmile_qr_scan", "android": "https://dc.lft.to/lastmile_qr_scan"}, "is_reserved": 0, "fusion_lon": 0.0, "fusion_lat": 0.0, "lon": -77.02798333333334, "name": "774e54e7c5e9a5c7673aa7982e1da773"}, {"bike_id": "0f49dff18028a3cbd57917d23358c7c6", "type": "electric_scooter", "is_disabled": 0, "lat": 38.9179045, "rental_uris": {"ios": "https://dc.lft.to/lastmile_qr_scan", "android": "https://dc.lft.to/lastmile_qr_scan"}, "is_reserved": 0, "fusion_lon": 0.0, "fusion_lat": 0.0, "lon": -77.0366245, "name": "0f49dff18028a3cbd57917d23358c7c6"}, {"bike_id": "cda663a63ac760caa741f34e97ebae38", "type": "electric_scooter", "is_disabled": 0, "lat": 38.91264866666667, "rental_uris": {"ios": "https://dc.lft.to/lastmile_qr_scan", "android": "https://dc.lft.to/lastmile_qr_scan"}, "is_reserved": 0, "fusion_lon": 0.0, "fusion_lat": 0.0, "lon": -77.03822716666667, "name": "cda663a63ac760caa741f34e97ebae38"}, {"bike_id": "e2fbcc5cab8bed4967caf5afc9409218", "type": "electric_scooter", "is_disabled": 0, "lat": 38.931005666666664, "rental_uris": {"ios": "https://dc.lft.to/lastmile_qr_scan", "android": "https://dc.lft.to/lastmile_qr_scan"}, "is_reserved": 0, "fusion_lon": 0.0, "fusion_lat": 0.0, "lon": -77.0266385, "name": "e2fbcc5cab8bed4967caf5afc9409218"}, {"bike_id": "1762416c340ab2039b4ba930bddddc43", "type": "electric_scooter", "is_disabled": 0, "lat": 38.90519, "rental_uris": {"ios": "https://dc.lft.to/lastmile_qr_scan", "android": "https://dc.lft.to/lastmile_qr_scan"}, "is_reserved": 0, "fusion_lon": 0.0, "fusion_lat": 0.0, "lon": -77.061977, "name": "1762416c340ab2039b4ba930bddddc43"}, {"bike_id": "7e090b41b78be5fc64a9ba9f43290c51", "type": "electric_scooter", "is_disabled": 0, "lat": 38.898756666666664, "rental_uris": {"ios": "https://dc.lft.to/lastmile_qr_scan", "android": "https://dc.lft.to/lastmile_qr_scan"}, "is_reserved": 0, "fusion_lon": 0.0, "fusion_lat": 0.0, "lon": -76.93186733333333, "name": "7e090b41b78be5fc64a9ba9f43290c51"}, {"bike_id": "eb31e6d7162fb4885011f55491f58463", "type": "electric_scooter", "is_disabled": 0, "lat": 38.909466, "rental_uris": {"ios": "https://dc.lft.to/lastmile_qr_scan", "android": "https://dc.lft.to/lastmile_qr_scan"}, "is_reserved": 0, "fusion_lon": 0.0, "fusion_lat": 0.0, "lon": -77.03446983333333, "name": "eb31e6d7162fb4885011f55491f58463"}, {"bike_id": "3dd41e9f5d0b9735926a64b0a55f11fc", "type": "electric_scooter", "is_disabled": 0, "lat": 38.9372865, "rental_uris": {"ios": "https://dc.lft.to/lastmile_qr_scan", "android": "https://dc.lft.to/lastmile_qr_scan"}, "is_reserved": 0, "fusion_lon": 0.0, "fusion_lat": 0.0, "lon": -77.0329335, "name": "3dd41e9f5d0b9735926a64b0a55f11fc"}, {"bike_id": "7f2a0d131165db43a0362537bbe17235", "type": "electric_scooter", "is_disabled": 0, "lat": 38.9013875, "rental_uris": {"ios": "https://dc.lft.to/lastmile_qr_scan", "android": "https://dc.lft.to/lastmile_qr_scan"}, "is_reserved": 0, "fusion_lon": 0.0, "fusion_lat": 0.0, "lon": -77.00852716666667, "name": "7f2a0d131165db43a0362537bbe17235"}, {"bike_id": "476ce42246010e681135b2272273cac2", "type": "electric_bike", "is_disabled": 0, "lat": 38.861926833333335, "rental_uris": {"ios": "https://dc.lft.to/lastmile_qr_scan", "android": "https://dc.lft.to/lastmile_qr_scan"}, "is_reserved": 0, "fusion_lon": 0.0, "fusion_lat": 0.0, "lon": -76.94807016666667, "name": "476ce42246010e681135b2272273cac2"}, {"bike_id": "d539dfe3cd9841194f86f3c84d833b61", "type": "electric_scooter", "is_disabled": 0, "lat": 38.92172466666667, "rental_uris": {"ios": "https://dc.lft.to/lastmile_qr_scan", "android": "https://dc.lft.to/lastmile_qr_scan"}, "is_reserved": 0, "fusion_lon": 0.0, "fusion_lat": 0.0, "lon": -77.03837733333333, "name": "d539dfe3cd9841194f86f3c84d833b61"}, {"bike_id": "7b8962d1bcdca8ad5459cd9177f4a940", "type": "electric_bike", "is_disabled": 0, "lat": 38.883085, "rental_uris": {"ios": "https://dc.lft.to/lastmile_qr_scan", "android": "https://dc.lft.to/lastmile_qr_scan"}, "is_reserved": 0, "fusion_lon": 0.0, "fusion_lat": 0.0, "lon": -76.9962005, "name": "7b8962d1bcdca8ad5459cd9177f4a940"}, {"bike_id": "11d14bb867bb5e6b6cffe6b6b18bc03c", "type": "electric_scooter", "is_disabled": 0, "lat": 38.9226205, "rental_uris": {"ios": "https://dc.lft.to/lastmile_qr_scan", "android": "https://dc.lft.to/lastmile_qr_scan"}, "is_reserved": 0, "fusion_lon": 0.0, "fusion_lat": 0.0, "lon": -77.00047433333333, "name": "11d14bb867bb5e6b6cffe6b6b18bc03c"}, {"bike_id": "fac906b1397192b819c27214b1fc80c9", "type": "electric_scooter", "is_disabled": 0, "lat": 38.90528283333333, "rental_uris": {"ios": "https://dc.lft.to/lastmile_qr_scan", "android": "https://dc.lft.to/lastmile_qr_scan"}, "is_reserved": 0, "fusion_lon": 0.0, "fusion_lat": 0.0, "lon": -77.041777, "name": "fac906b1397192b819c27214b1fc80c9"}, {"bike_id": "42945cecd24b65ba0f0ce1014f68e393", "type": "electric_scooter", "is_disabled": 0, "lat": 38.895929333333335, "rental_uris": {"ios": "https://dc.lft.to/lastmile_qr_scan", "android": "https://dc.lft.to/lastmile_qr_scan"}, "is_reserved": 0, "fusion_lon": 0.0, "fusion_lat": 0.0, "lon": -77.0050315, "name": "42945cecd24b65ba0f0ce1014f68e393"}, {"bike_id": "44f2d6f91f4686d6045f81dec9d1ad05", "type": "electric_scooter", "is_disabled": 0, "lat": 38.9378585, "rental_uris": {"ios": "https://dc.lft.to/lastmile_qr_scan", "android": "https://dc.lft.to/lastmile_qr_scan"}, "is_reserved": 0, "fusion_lon": 0.0, "fusion_lat": 0.0, "lon": -77.0329415, "name": "44f2d6f91f4686d6045f81dec9d1ad05"}, {"bike_id": "e3943b74a64d1465a30247be25ee00ab", "type": "electric_scooter", "is_disabled": 0, "lat": 38.90017433333333, "rental_uris": {"ios": "https://dc.lft.to/lastmile_qr_scan", "android": "https://dc.lft.to/lastmile_qr_scan"}, "is_reserved": 0, "fusion_lon": 0.0, "fusion_lat": 0.0, "lon": -77.04497316666667, "name": "e3943b74a64d1465a30247be25ee00ab"}, {"bike_id": "4e5da098dca7dafa28b9b11e77a1e423", "type": "electric_scooter", "is_disabled": 0, "lat": 38.9235105, "rental_uris": {"ios": "https://dc.lft.to/lastmile_qr_scan", "android": "https://dc.lft.to/lastmile_qr_scan"}, "is_reserved": 0, "fusion_lon": 0.0, "fusion_lat": 0.0, "lon": -77.04152166666667, "name": "4e5da098dca7dafa28b9b11e77a1e423"}, {"bike_id": "252dfba282bfe0307e308eb971406edc", "type": "electric_scooter", "is_disabled": 0, "lat": 38.8991175, "rental_uris": {"ios": "https://dc.lft.to/lastmile_qr_scan", "android": "https://dc.lft.to/lastmile_qr_scan"}, "is_reserved": 0, "fusion_lon": 0.0, "fusion_lat": 0.0, "lon": -76.93368266666667, "name": "252dfba282bfe0307e308eb971406edc"}, {"bike_id": "86b40d1f2d3f597a51f7b8401251f826", "type": "electric_scooter", "is_disabled": 0, "lat": 38.91672416666667, "rental_uris": {"ios": "https://dc.lft.to/lastmile_qr_scan", "android": "https://dc.lft.to/lastmile_qr_scan"}, "is_reserved": 0, "fusion_lon": 0.0, "fusion_lat": 0.0, "lon": -77.03209733333334, "name": "86b40d1f2d3f597a51f7b8401251f826"}, {"bike_id": "a5ee0925da2b307681b5bccc17721fe9", "type": "electric_scooter", "is_disabled": 0, "lat": 38.869718666666664, "rental_uris": {"ios": "https://dc.lft.to/lastmile_qr_scan", "android": "https://dc.lft.to/lastmile_qr_scan"}, "is_reserved": 0, "fusion_lon": 0.0, "fusion_lat": 0.0, "lon": -76.98175533333334, "name": "a5ee0925da2b307681b5bccc17721fe9"}, {"bike_id": "7b9d7588fa0c14e927c14e9210d962e8", "type": "electric_scooter", "is_disabled": 0, "lat": 38.947933666666664, "rental_uris": {"ios": "https://dc.lft.to/lastmile_qr_scan", "android": "https://dc.lft.to/lastmile_qr_scan"}, "is_reserved": 0, "fusion_lon": 0.0, "fusion_lat": 0.0, "lon": -77.02131866666667, "name": "7b9d7588fa0c14e927c14e9210d962e8"}, {"bike_id": "9d4c5ebad8fbbd87e3a55c70bb38dbe9", "type": "electric_bike", "is_disabled": 0, "lat": 38.872790333333334, "rental_uris": {"ios": "https://dc.lft.to/lastmile_qr_scan", "android": "https://dc.lft.to/lastmile_qr_scan"}, "is_reserved": 0, "fusion_lon": 0.0, "fusion_lat": 0.0, "lon": -77.23320983333333, "name": "9d4c5ebad8fbbd87e3a55c70bb38dbe9"}, {"bike_id": "8417e4d345108ef298ab2c0afbde4e80", "type": "electric_scooter", "is_disabled": 0, "lat": 38.92853433333333, "rental_uris": {"ios": "https://dc.lft.to/lastmile_qr_scan", "android": "https://dc.lft.to/lastmile_qr_scan"}, "is_reserved": 0, "fusion_lon": 0.0, "fusion_lat": 0.0, "lon": -77.0195135, "name": "8417e4d345108ef298ab2c0afbde4e80"}, {"bike_id": "3b4689ce98fa844d57efdf9e5805075d", "type": "electric_scooter", "is_disabled": 0, "lat": 38.91614966666667, "rental_uris": {"ios": "https://dc.lft.to/lastmile_qr_scan", "android": "https://dc.lft.to/lastmile_qr_scan"}, "is_reserved": 0, "fusion_lon": 0.0, "fusion_lat": 0.0, "lon": -77.048604, "name": "3b4689ce98fa844d57efdf9e5805075d"}, {"bike_id": "6c6a4d5ce1c26963a32c5f64534b8ffb", "type": "electric_scooter", "is_disabled": 0, "lat": 38.902435833333335, "rental_uris": {"ios": "https://dc.lft.to/lastmile_qr_scan", "android": "https://dc.lft.to/lastmile_qr_scan"}, "is_reserved": 0, "fusion_lon": 0.0, "fusion_lat": 0.0, "lon": -77.04355366666667, "name": "6c6a4d5ce1c26963a32c5f64534b8ffb"}, {"bike_id": "5fb134dd841013778e5a277af25401df", "type": "electric_scooter", "is_disabled": 0, "lat": 38.90569766666667, "rental_uris": {"ios": "https://dc.lft.to/lastmile_qr_scan", "android": "https://dc.lft.to/lastmile_qr_scan"}, "is_reserved": 0, "fusion_lon": 0.0, "fusion_lat": 0.0, "lon": -77.038255, "name": "5fb134dd841013778e5a277af25401df"}, {"bike_id": "7f7a7b6e985bc34ae0099840c6d0066f", "type": "electric_scooter", "is_disabled": 0, "lat": 38.9244005, "rental_uris": {"ios": "https://dc.lft.to/lastmile_qr_scan", "android": "https://dc.lft.to/lastmile_qr_scan"}, "is_reserved": 0, "fusion_lon": 0.0, "fusion_lat": 0.0, "lon": -77.0335415, "name": "7f7a7b6e985bc34ae0099840c6d0066f"}, {"bike_id": "8f28f23a736dd5437b92f27749d967be", "type": "electric_bike", "is_disabled": 0, "lat": 38.88062083333333, "rental_uris": {"ios": "https://dc.lft.to/lastmile_qr_scan", "android": "https://dc.lft.to/lastmile_qr_scan"}, "is_reserved": 0, "fusion_lon": 0.0, "fusion_lat": 0.0, "lon": -76.9623825, "name": "8f28f23a736dd5437b92f27749d967be"}, {"bike_id": "ddf10964ea37bd63b933e023505954d8", "type": "electric_scooter", "is_disabled": 0, "lat": 38.94454833333333, "rental_uris": {"ios": "https://dc.lft.to/lastmile_qr_scan", "android": "https://dc.lft.to/lastmile_qr_scan"}, "is_reserved": 0, "fusion_lon": 0.0, "fusion_lat": 0.0, "lon": -77.02801466666666, "name": "ddf10964ea37bd63b933e023505954d8"}, {"bike_id": "facf6c5847adb7b616430df65c101cd3", "type": "electric_scooter", "is_disabled": 0, "lat": 38.91374666666667, "rental_uris": {"ios": "https://dc.lft.to/lastmile_qr_scan", "android": "https://dc.lft.to/lastmile_qr_scan"}, "is_reserved": 0, "fusion_lon": 0.0, "fusion_lat": 0.0, "lon": -77.072692, "name": "facf6c5847adb7b616430df65c101cd3"}, {"bike_id": "f2eb8c386bd606a68c0bf804ce8e9635", "type": "electric_scooter", "is_disabled": 0, "lat": 38.9250265, "rental_uris": {"ios": "https://dc.lft.to/lastmile_qr_scan", "android": "https://dc.lft.to/lastmile_qr_scan"}, "is_reserved": 0, "fusion_lon": 0.0, "fusion_lat": 0.0, "lon": -77.0227885, "name": "f2eb8c386bd606a68c0bf804ce8e9635"}, {"bike_id": "9708c1c6aec9271b88eb5e1d6f003bf1", "type": "electric_bike", "is_disabled": 0, "lat": 38.9101365, "rental_uris": {"ios": "https://dc.lft.to/lastmile_qr_scan", "android": "https://dc.lft.to/lastmile_qr_scan"}, "is_reserved": 0, "fusion_lon": 0.0, "fusion_lat": 0.0, "lon": -77.22798083333333, "name": "9708c1c6aec9271b88eb5e1d6f003bf1"}, {"bike_id": "0de957e7cdaf9b82b7e0b474bffda4e5", "type": "electric_scooter", "is_disabled": 0, "lat": 38.919186, "rental_uris": {"ios": "https://dc.lft.to/lastmile_qr_scan", "android": "https://dc.lft.to/lastmile_qr_scan"}, "is_reserved": 0, "fusion_lon": 0.0, "fusion_lat": 0.0, "lon": -77.01414983333333, "name": "0de957e7cdaf9b82b7e0b474bffda4e5"}, {"bike_id": "7db2fd3d4ebca778458d2c117dfc95f9", "type": "electric_scooter", "is_disabled": 0, "lat": 38.9215295, "rental_uris": {"ios": "https://dc.lft.to/lastmile_qr_scan", "android": "https://dc.lft.to/lastmile_qr_scan"}, "is_reserved": 0, "fusion_lon": 0.0, "fusion_lat": 0.0, "lon": -77.03535883333333, "name": "7db2fd3d4ebca778458d2c117dfc95f9"}, {"bike_id": "79a1b503e13e5783b772b81951be5a6a", "type": "electric_scooter", "is_disabled": 0, "lat": 38.91409866666667, "rental_uris": {"ios": "https://dc.lft.to/lastmile_qr_scan", "android": "https://dc.lft.to/lastmile_qr_scan"}, "is_reserved": 0, "fusion_lon": 0.0, "fusion_lat": 0.0, "lon": -77.01558816666666, "name": "79a1b503e13e5783b772b81951be5a6a"}, {"bike_id": "8618e5229174029ad31bd7a7b95709bb", "type": "electric_scooter", "is_disabled": 0, "lat": 38.906866, "rental_uris": {"ios": "https://dc.lft.to/lastmile_qr_scan", "android": "https://dc.lft.to/lastmile_qr_scan"}, "is_reserved": 0, "fusion_lon": 0.0, "fusion_lat": 0.0, "lon": -77.03602133333334, "name": "8618e5229174029ad31bd7a7b95709bb"}, {"bike_id": "8c527cdb6f42ba46a64e5be11fe09b22", "type": "electric_scooter", "is_disabled": 0, "lat": 38.90395, "rental_uris": {"ios": "https://dc.lft.to/lastmile_qr_scan", "android": "https://dc.lft.to/lastmile_qr_scan"}, "is_reserved": 0, "fusion_lon": 0.0, "fusion_lat": 0.0, "lon": -77.0630265, "name": "8c527cdb6f42ba46a64e5be11fe09b22"}, {"bike_id": "47e7f1e6309573af787c1dc60a7219e4", "type": "electric_scooter", "is_disabled": 0, "lat": 38.924885, "rental_uris": {"ios": "https://dc.lft.to/lastmile_qr_scan", "android": "https://dc.lft.to/lastmile_qr_scan"}, "is_reserved": 0, "fusion_lon": 0.0, "fusion_lat": 0.0, "lon": -77.05755633333334, "name": "47e7f1e6309573af787c1dc60a7219e4"}, {"bike_id": "9ec6bcb8520c6354bd1b01a82cf235b8", "type": "electric_scooter", "is_disabled": 0, "lat": 38.902212166666665, "rental_uris": {"ios": "https://dc.lft.to/lastmile_qr_scan", "android": "https://dc.lft.to/lastmile_qr_scan"}, "is_reserved": 0, "fusion_lon": 0.0, "fusion_lat": 0.0, "lon": -77.022191, "name": "9ec6bcb8520c6354bd1b01a82cf235b8"}, {"bike_id": "a2afe5e48621ba30e871017a45b6c0e5", "type": "electric_scooter", "is_disabled": 0, "lat": 38.9363675, "rental_uris": {"ios": "https://dc.lft.to/lastmile_qr_scan", "android": "https://dc.lft.to/lastmile_qr_scan"}, "is_reserved": 0, "fusion_lon": 0.0, "fusion_lat": 0.0, "lon": -77.05887866666667, "name": "a2afe5e48621ba30e871017a45b6c0e5"}, {"bike_id": "af9d414f4af9945dc5ef723620c7d500", "type": "electric_scooter", "is_disabled": 0, "lat": 38.90644233333333, "rental_uris": {"ios": "https://dc.lft.to/lastmile_qr_scan", "android": "https://dc.lft.to/lastmile_qr_scan"}, "is_reserved": 0, "fusion_lon": 0.0, "fusion_lat": 0.0, "lon": -77.01436866666667, "name": "af9d414f4af9945dc5ef723620c7d500"}, {"bike_id": "1561d35f1b7d0daad56b3fac02a967e5", "type": "electric_scooter", "is_disabled": 0, "lat": 38.9057095, "rental_uris": {"ios": "https://dc.lft.to/lastmile_qr_scan", "android": "https://dc.lft.to/lastmile_qr_scan"}, "is_reserved": 0, "fusion_lon": 0.0, "fusion_lat": 0.0, "lon": -77.0382835, "name": "1561d35f1b7d0daad56b3fac02a967e5"}, {"bike_id": "224174279cbe08d43553ab03b81fb169", "type": "electric_scooter", "is_disabled": 0, "lat": 38.9107665, "rental_uris": {"ios": "https://dc.lft.to/lastmile_qr_scan", "android": "https://dc.lft.to/lastmile_qr_scan"}, "is_reserved": 0, "fusion_lon": 0.0, "fusion_lat": 0.0, "lon": -77.03714333333333, "name": "224174279cbe08d43553ab03b81fb169"}, {"bike_id": "e904c7c22d73c7ff4e1cf306e58f022e", "type": "electric_scooter", "is_disabled": 0, "lat": 38.9421185, "rental_uris": {"ios": "https://dc.lft.to/lastmile_qr_scan", "android": "https://dc.lft.to/lastmile_qr_scan"}, "is_reserved": 0, "fusion_lon": 0.0, "fusion_lat": 0.0, "lon": -77.02584916666666, "name": "e904c7c22d73c7ff4e1cf306e58f022e"}, {"bike_id": "f007a8798a77dd6f44407132f2efe077", "type": "electric_scooter", "is_disabled": 0, "lat": 38.89875683333333, "rental_uris": {"ios": "https://dc.lft.to/lastmile_qr_scan", "android": "https://dc.lft.to/lastmile_qr_scan"}, "is_reserved": 0, "fusion_lon": 0.0, "fusion_lat": 0.0, "lon": -76.9318515, "name": "f007a8798a77dd6f44407132f2efe077"}, {"bike_id": "6cd26c73009708993d3149d0a5149af4", "type": "electric_scooter", "is_disabled": 0, "lat": 38.903545, "rental_uris": {"ios": "https://dc.lft.to/lastmile_qr_scan", "android": "https://dc.lft.to/lastmile_qr_scan"}, "is_reserved": 0, "fusion_lon": 0.0, "fusion_lat": 0.0, "lon": -77.044915, "name": "6cd26c73009708993d3149d0a5149af4"}, {"bike_id": "1a1f2d7829bcaee222fdbb7f4b9443f5", "type": "electric_scooter", "is_disabled": 0, "lat": 38.95627, "rental_uris": {"ios": "https://dc.lft.to/lastmile_qr_scan", "android": "https://dc.lft.to/lastmile_qr_scan"}, "is_reserved": 0, "fusion_lon": 0.0, "fusion_lat": 0.0, "lon": -77.03615666666667, "name": "1a1f2d7829bcaee222fdbb7f4b9443f5"}, {"bike_id": "111890cb9e83651478ad13f8ad40660c", "type": "electric_scooter", "is_disabled": 0, "lat": 38.92901633333334, "rental_uris": {"ios": "https://dc.lft.to/lastmile_qr_scan", "android": "https://dc.lft.to/lastmile_qr_scan"}, "is_reserved": 0, "fusion_lon": 0.0, "fusion_lat": 0.0, "lon": -77.05454166666667, "name": "111890cb9e83651478ad13f8ad40660c"}, {"bike_id": "ba0c1f336bf0e297f0294209c1e22abe", "type": "electric_scooter", "is_disabled": 0, "lat": 38.91048633333333, "rental_uris": {"ios": "https://dc.lft.to/lastmile_qr_scan", "android": "https://dc.lft.to/lastmile_qr_scan"}, "is_reserved": 0, "fusion_lon": 0.0, "fusion_lat": 0.0, "lon": -77.04351716666666, "name": "ba0c1f336bf0e297f0294209c1e22abe"}, {"bike_id": "e2d53cfb09d6a998add2681a0acf3795", "type": "electric_scooter", "is_disabled": 0, "lat": 38.87916283333333, "rental_uris": {"ios": "https://dc.lft.to/lastmile_qr_scan", "android": "https://dc.lft.to/lastmile_qr_scan"}, "is_reserved": 0, "fusion_lon": 0.0, "fusion_lat": 0.0, "lon": -77.0088305, "name": "e2d53cfb09d6a998add2681a0acf3795"}, {"bike_id": "0aca4b5f42dfe3b866f8d56055433284", "type": "electric_scooter", "is_disabled": 0, "lat": 38.93764916666667, "rental_uris": {"ios": "https://dc.lft.to/lastmile_qr_scan", "android": "https://dc.lft.to/lastmile_qr_scan"}, "is_reserved": 0, "fusion_lon": 0.0, "fusion_lat": 0.0, "lon": -77.024774, "name": "0aca4b5f42dfe3b866f8d56055433284"}, {"bike_id": "e2599666afadaceac48111780b9f3df9", "type": "electric_scooter", "is_disabled": 0, "lat": 38.931328666666666, "rental_uris": {"ios": "https://dc.lft.to/lastmile_qr_scan", "android": "https://dc.lft.to/lastmile_qr_scan"}, "is_reserved": 0, "fusion_lon": 0.0, "fusion_lat": 0.0, "lon": -77.02801966666667, "name": "e2599666afadaceac48111780b9f3df9"}, {"bike_id": "b7dda7ff7b170b8f097464502810e8eb", "type": "electric_scooter", "is_disabled": 0, "lat": 38.9027345, "rental_uris": {"ios": "https://dc.lft.to/lastmile_qr_scan", "android": "https://dc.lft.to/lastmile_qr_scan"}, "is_reserved": 0, "fusion_lon": 0.0, "fusion_lat": 0.0, "lon": -77.0036215, "name": "b7dda7ff7b170b8f097464502810e8eb"}, {"bike_id": "5ca59f4007905bbf6b62ee8f496a28bf", "type": "electric_scooter", "is_disabled": 0, "lat": 38.9232485, "rental_uris": {"ios": "https://dc.lft.to/lastmile_qr_scan", "android": "https://dc.lft.to/lastmile_qr_scan"}, "is_reserved": 0, "fusion_lon": 0.0, "fusion_lat": 0.0, "lon": -77.03789233333333, "name": "5ca59f4007905bbf6b62ee8f496a28bf"}, {"bike_id": "6b9248b823df82fd64778cf04225ef25", "type": "electric_scooter", "is_disabled": 0, "lat": 38.9012115, "rental_uris": {"ios": "https://dc.lft.to/lastmile_qr_scan", "android": "https://dc.lft.to/lastmile_qr_scan"}, "is_reserved": 0, "fusion_lon": 0.0, "fusion_lat": 0.0, "lon": -76.92953716666666, "name": "6b9248b823df82fd64778cf04225ef25"}, {"bike_id": "60c870afe6b8874a4b016b79ac3f1221", "type": "electric_scooter", "is_disabled": 0, "lat": 38.87333783333333, "rental_uris": {"ios": "https://dc.lft.to/lastmile_qr_scan", "android": "https://dc.lft.to/lastmile_qr_scan"}, "is_reserved": 0, "fusion_lon": 0.0, "fusion_lat": 0.0, "lon": -76.96783216666667, "name": "60c870afe6b8874a4b016b79ac3f1221"}, {"bike_id": "c64ff37f0159fd941b1acd8f276dd69f", "type": "electric_bike", "is_disabled": 0, "lat": 38.97396466666667, "rental_uris": {"ios": "https://dc.lft.to/lastmile_qr_scan", "android": "https://dc.lft.to/lastmile_qr_scan"}, "is_reserved": 0, "fusion_lon": 0.0, "fusion_lat": 0.0, "lon": -77.06452883333333, "name": "c64ff37f0159fd941b1acd8f276dd69f"}, {"bike_id": "8f858e555505707ab1770bf97dc5ac69", "type": "electric_scooter", "is_disabled": 0, "lat": 38.918234166666664, "rental_uris": {"ios": "https://dc.lft.to/lastmile_qr_scan", "android": "https://dc.lft.to/lastmile_qr_scan"}, "is_reserved": 0, "fusion_lon": 0.0, "fusion_lat": 0.0, "lon": -77.032509, "name": "8f858e555505707ab1770bf97dc5ac69"}, {"bike_id": "487b9552528f3b0df102de5c855af6ba", "type": "electric_scooter", "is_disabled": 0, "lat": 38.929979333333335, "rental_uris": {"ios": "https://dc.lft.to/lastmile_qr_scan", "android": "https://dc.lft.to/lastmile_qr_scan"}, "is_reserved": 0, "fusion_lon": 0.0, "fusion_lat": 0.0, "lon": -77.02347783333333, "name": "487b9552528f3b0df102de5c855af6ba"}, {"bike_id": "403f3d5660513a1adf247445e80c3ff0", "type": "electric_scooter", "is_disabled": 0, "lat": 38.91005833333333, "rental_uris": {"ios": "https://dc.lft.to/lastmile_qr_scan", "android": "https://dc.lft.to/lastmile_qr_scan"}, "is_reserved": 0, "fusion_lon": 0.0, "fusion_lat": 0.0, "lon": -77.016217, "name": "403f3d5660513a1adf247445e80c3ff0"}, {"bike_id": "832a69e61aea42462a02cd8008ec62b5", "type": "electric_scooter", "is_disabled": 0, "lat": 38.91158683333333, "rental_uris": {"ios": "https://dc.lft.to/lastmile_qr_scan", "android": "https://dc.lft.to/lastmile_qr_scan"}, "is_reserved": 0, "fusion_lon": 0.0, "fusion_lat": 0.0, "lon": -77.048871, "name": "832a69e61aea42462a02cd8008ec62b5"}, {"bike_id": "e9e3cf788389f5b72e691a7920a6739c", "type": "electric_bike", "is_disabled": 0, "lat": 38.94650733333334, "rental_uris": {"ios": "https://dc.lft.to/lastmile_qr_scan", "android": "https://dc.lft.to/lastmile_qr_scan"}, "is_reserved": 0, "fusion_lon": 0.0, "fusion_lat": 0.0, "lon": -76.99490483333334, "name": "e9e3cf788389f5b72e691a7920a6739c"}, {"bike_id": "202a20cc509d7961be51dbd13f1f16b0", "type": "electric_scooter", "is_disabled": 0, "lat": 38.914206666666665, "rental_uris": {"ios": "https://dc.lft.to/lastmile_qr_scan", "android": "https://dc.lft.to/lastmile_qr_scan"}, "is_reserved": 0, "fusion_lon": 0.0, "fusion_lat": 0.0, "lon": -77.022897, "name": "202a20cc509d7961be51dbd13f1f16b0"}, {"bike_id": "5bcadc279631816274835647d7299595", "type": "electric_scooter", "is_disabled": 0, "lat": 38.9050605, "rental_uris": {"ios": "https://dc.lft.to/lastmile_qr_scan", "android": "https://dc.lft.to/lastmile_qr_scan"}, "is_reserved": 0, "fusion_lon": 0.0, "fusion_lat": 0.0, "lon": -77.02977133333333, "name": "5bcadc279631816274835647d7299595"}, {"bike_id": "629ad3d58b7adc85688d1e0ccd8d7902", "type": "electric_scooter", "is_disabled": 0, "lat": 38.90735133333333, "rental_uris": {"ios": "https://dc.lft.to/lastmile_qr_scan", "android": "https://dc.lft.to/lastmile_qr_scan"}, "is_reserved": 0, "fusion_lon": 0.0, "fusion_lat": 0.0, "lon": -77.04341616666666, "name": "629ad3d58b7adc85688d1e0ccd8d7902"}, {"bike_id": "dd92616b1c871d8477fe195ac19e6aba", "type": "electric_scooter", "is_disabled": 0, "lat": 38.907981, "rental_uris": {"ios": "https://dc.lft.to/lastmile_qr_scan", "android": "https://dc.lft.to/lastmile_qr_scan"}, "is_reserved": 0, "fusion_lon": 0.0, "fusion_lat": 0.0, "lon": -77.03133466666667, "name": "dd92616b1c871d8477fe195ac19e6aba"}, {"bike_id": "339c396fca660cb8121938d3f928055c", "type": "electric_scooter", "is_disabled": 0, "lat": 38.911452, "rental_uris": {"ios": "https://dc.lft.to/lastmile_qr_scan", "android": "https://dc.lft.to/lastmile_qr_scan"}, "is_reserved": 0, "fusion_lon": 0.0, "fusion_lat": 0.0, "lon": -77.02803183333333, "name": "339c396fca660cb8121938d3f928055c"}, {"bike_id": "4018ccaa031605d7522957c0c7ded027", "type": "electric_scooter", "is_disabled": 0, "lat": 38.935367666666664, "rental_uris": {"ios": "https://dc.lft.to/lastmile_qr_scan", "android": "https://dc.lft.to/lastmile_qr_scan"}, "is_reserved": 0, "fusion_lon": 0.0, "fusion_lat": 0.0, "lon": -77.03885333333334, "name": "4018ccaa031605d7522957c0c7ded027"}, {"bike_id": "b8849e49dac3b2e01d4f1a381bcf5fec", "type": "electric_scooter", "is_disabled": 0, "lat": 38.90652983333333, "rental_uris": {"ios": "https://dc.lft.to/lastmile_qr_scan", "android": "https://dc.lft.to/lastmile_qr_scan"}, "is_reserved": 0, "fusion_lon": 0.0, "fusion_lat": 0.0, "lon": -77.01414533333333, "name": "b8849e49dac3b2e01d4f1a381bcf5fec"}, {"bike_id": "0811cf8faf577b26f5bc1d2595576d76", "type": "electric_scooter", "is_disabled": 0, "lat": 38.89984533333333, "rental_uris": {"ios": "https://dc.lft.to/lastmile_qr_scan", "android": "https://dc.lft.to/lastmile_qr_scan"}, "is_reserved": 0, "fusion_lon": 0.0, "fusion_lat": 0.0, "lon": -76.98814583333333, "name": "0811cf8faf577b26f5bc1d2595576d76"}, {"bike_id": "bdb062c0c1629adf5c21d84faf7cf8ae", "type": "electric_scooter", "is_disabled": 0, "lat": 38.890067, "rental_uris": {"ios": "https://dc.lft.to/lastmile_qr_scan", "android": "https://dc.lft.to/lastmile_qr_scan"}, "is_reserved": 0, "fusion_lon": 0.0, "fusion_lat": 0.0, "lon": -76.9374825, "name": "bdb062c0c1629adf5c21d84faf7cf8ae"}, {"bike_id": "a67b6c49560f6f5a224e349cbe0aa1de", "type": "electric_scooter", "is_disabled": 0, "lat": 38.910164333333334, "rental_uris": {"ios": "https://dc.lft.to/lastmile_qr_scan", "android": "https://dc.lft.to/lastmile_qr_scan"}, "is_reserved": 0, "fusion_lon": 0.0, "fusion_lat": 0.0, "lon": -77.05287266666667, "name": "a67b6c49560f6f5a224e349cbe0aa1de"}, {"bike_id": "21068458d0a74683475205b0e405d56a", "type": "electric_scooter", "is_disabled": 0, "lat": 38.916036, "rental_uris": {"ios": "https://dc.lft.to/lastmile_qr_scan", "android": "https://dc.lft.to/lastmile_qr_scan"}, "is_reserved": 0, "fusion_lon": 0.0, "fusion_lat": 0.0, "lon": -77.01546083333334, "name": "21068458d0a74683475205b0e405d56a"}, {"bike_id": "912e75f0be7a6c5f4f37ed98355f8ad7", "type": "electric_scooter", "is_disabled": 0, "lat": 38.8932405, "rental_uris": {"ios": "https://dc.lft.to/lastmile_qr_scan", "android": "https://dc.lft.to/lastmile_qr_scan"}, "is_reserved": 0, "fusion_lon": 0.0, "fusion_lat": 0.0, "lon": -77.04875866666667, "name": "912e75f0be7a6c5f4f37ed98355f8ad7"}, {"bike_id": "62512088ccafbb5da831f284574f78d5", "type": "electric_scooter", "is_disabled": 0, "lat": 38.87348, "rental_uris": {"ios": "https://dc.lft.to/lastmile_qr_scan", "android": "https://dc.lft.to/lastmile_qr_scan"}, "is_reserved": 0, "fusion_lon": 0.0, "fusion_lat": 0.0, "lon": -77.000549, "name": "62512088ccafbb5da831f284574f78d5"}, {"bike_id": "3c06c656ee9297bab7f37aba51375484", "type": "electric_scooter", "is_disabled": 0, "lat": 38.9319155, "rental_uris": {"ios": "https://dc.lft.to/lastmile_qr_scan", "android": "https://dc.lft.to/lastmile_qr_scan"}, "is_reserved": 0, "fusion_lon": 0.0, "fusion_lat": 0.0, "lon": -77.02014933333334, "name": "3c06c656ee9297bab7f37aba51375484"}, {"bike_id": "87e737a68d6ff679274b91b38d3b7a85", "type": "electric_bike", "is_disabled": 0, "lat": 38.8133115, "rental_uris": {"ios": "https://dc.lft.to/lastmile_qr_scan", "android": "https://dc.lft.to/lastmile_qr_scan"}, "is_reserved": 0, "fusion_lon": 0.0, "fusion_lat": 0.0, "lon": -77.05093866666667, "name": "87e737a68d6ff679274b91b38d3b7a85"}, {"bike_id": "ad2c8c108086a3586301eca9a2349984", "type": "electric_scooter", "is_disabled": 0, "lat": 38.904025833333336, "rental_uris": {"ios": "https://dc.lft.to/lastmile_qr_scan", "android": "https://dc.lft.to/lastmile_qr_scan"}, "is_reserved": 0, "fusion_lon": 0.0, "fusion_lat": 0.0, "lon": -77.065094, "name": "ad2c8c108086a3586301eca9a2349984"}, {"bike_id": "52155241cc3ff57e1af9682c757a0d8c", "type": "electric_scooter", "is_disabled": 0, "lat": 38.90818516666667, "rental_uris": {"ios": "https://dc.lft.to/lastmile_qr_scan", "android": "https://dc.lft.to/lastmile_qr_scan"}, "is_reserved": 0, "fusion_lon": 0.0, "fusion_lat": 0.0, "lon": -77.0006235, "name": "52155241cc3ff57e1af9682c757a0d8c"}, {"bike_id": "dde1628e3481947224897e95d4b91c6d", "type": "electric_scooter", "is_disabled": 0, "lat": 38.9428975, "rental_uris": {"ios": "https://dc.lft.to/lastmile_qr_scan", "android": "https://dc.lft.to/lastmile_qr_scan"}, "is_reserved": 0, "fusion_lon": 0.0, "fusion_lat": 0.0, "lon": -77.00487083333333, "name": "dde1628e3481947224897e95d4b91c6d"}, {"bike_id": "1ccb842bda8bfb52f8b9936e1cce4784", "type": "electric_scooter", "is_disabled": 0, "lat": 38.879157, "rental_uris": {"ios": "https://dc.lft.to/lastmile_qr_scan", "android": "https://dc.lft.to/lastmile_qr_scan"}, "is_reserved": 0, "fusion_lon": 0.0, "fusion_lat": 0.0, "lon": -76.9951035, "name": "1ccb842bda8bfb52f8b9936e1cce4784"}, {"bike_id": "553784728c705a71b13af53a863c7f38", "type": "electric_bike", "is_disabled": 0, "lat": 38.871932, "rental_uris": {"ios": "https://dc.lft.to/lastmile_qr_scan", "android": "https://dc.lft.to/lastmile_qr_scan"}, "is_reserved": 0, "fusion_lon": 0.0, "fusion_lat": 0.0, "lon": -77.012209, "name": "553784728c705a71b13af53a863c7f38"}, {"bike_id": "c91d024e891fcb6aa01f8dfc9f5d6a36", "type": "electric_scooter", "is_disabled": 0, "lat": 38.90688083333333, "rental_uris": {"ios": "https://dc.lft.to/lastmile_qr_scan", "android": "https://dc.lft.to/lastmile_qr_scan"}, "is_reserved": 0, "fusion_lon": 0.0, "fusion_lat": 0.0, "lon": -77.05331583333333, "name": "c91d024e891fcb6aa01f8dfc9f5d6a36"}, {"bike_id": "088eb7b6ebcc4f32c203bcd47e06b058", "type": "electric_scooter", "is_disabled": 0, "lat": 38.90785483333333, "rental_uris": {"ios": "https://dc.lft.to/lastmile_qr_scan", "android": "https://dc.lft.to/lastmile_qr_scan"}, "is_reserved": 0, "fusion_lon": 0.0, "fusion_lat": 0.0, "lon": -77.01109533333333, "name": "088eb7b6ebcc4f32c203bcd47e06b058"}, {"bike_id": "c3f6c542c62d12bdf1dc7a7a182278cb", "type": "electric_bike", "is_disabled": 0, "lat": 38.908287, "rental_uris": {"ios": "https://dc.lft.to/lastmile_qr_scan", "android": "https://dc.lft.to/lastmile_qr_scan"}, "is_reserved": 0, "fusion_lon": 0.0, "fusion_lat": 0.0, "lon": -76.94157483333333, "name": "c3f6c542c62d12bdf1dc7a7a182278cb"}, {"bike_id": "9f8f414cbcc809181ef6456454d1d3ef", "type": "electric_scooter", "is_disabled": 0, "lat": 38.916843, "rental_uris": {"ios": "https://dc.lft.to/lastmile_qr_scan", "android": "https://dc.lft.to/lastmile_qr_scan"}, "is_reserved": 0, "fusion_lon": 0.0, "fusion_lat": 0.0, "lon": -77.02953866666667, "name": "9f8f414cbcc809181ef6456454d1d3ef"}, {"bike_id": "73d6a6a7e7881689796f837e6b027d25", "type": "electric_scooter", "is_disabled": 0, "lat": 38.89852316666666, "rental_uris": {"ios": "https://dc.lft.to/lastmile_qr_scan", "android": "https://dc.lft.to/lastmile_qr_scan"}, "is_reserved": 0, "fusion_lon": 0.0, "fusion_lat": 0.0, "lon": -76.99036183333334, "name": "73d6a6a7e7881689796f837e6b027d25"}, {"bike_id": "863d72d5a612673d22870bfb539a47fc", "type": "electric_scooter", "is_disabled": 0, "lat": 38.91122566666667, "rental_uris": {"ios": "https://dc.lft.to/lastmile_qr_scan", "android": "https://dc.lft.to/lastmile_qr_scan"}, "is_reserved": 0, "fusion_lon": 0.0, "fusion_lat": 0.0, "lon": -77.0383015, "name": "863d72d5a612673d22870bfb539a47fc"}, {"bike_id": "66d00eddb7f1e3c2d06500c593aa18c9", "type": "electric_bike", "is_disabled": 0, "lat": 38.8956535, "rental_uris": {"ios": "https://dc.lft.to/lastmile_qr_scan", "android": "https://dc.lft.to/lastmile_qr_scan"}, "is_reserved": 0, "fusion_lon": 0.0, "fusion_lat": 0.0, "lon": -77.12738983333334, "name": "66d00eddb7f1e3c2d06500c593aa18c9"}, {"bike_id": "4bca05aef2305c60f2c337eeae4413a2", "type": "electric_scooter", "is_disabled": 0, "lat": 38.9129035, "rental_uris": {"ios": "https://dc.lft.to/lastmile_qr_scan", "android": "https://dc.lft.to/lastmile_qr_scan"}, "is_reserved": 0, "fusion_lon": 0.0, "fusion_lat": 0.0, "lon": -77.01976916666666, "name": "4bca05aef2305c60f2c337eeae4413a2"}, {"bike_id": "353d166277e8cb173ad0e7f4f221567e", "type": "electric_scooter", "is_disabled": 0, "lat": 38.8883865, "rental_uris": {"ios": "https://dc.lft.to/lastmile_qr_scan", "android": "https://dc.lft.to/lastmile_qr_scan"}, "is_reserved": 0, "fusion_lon": 0.0, "fusion_lat": 0.0, "lon": -76.98918516666667, "name": "353d166277e8cb173ad0e7f4f221567e"}, {"bike_id": "a9f5fb3da7165bc0101d997409b35b2b", "type": "electric_scooter", "is_disabled": 0, "lat": 38.917008333333335, "rental_uris": {"ios": "https://dc.lft.to/lastmile_qr_scan", "android": "https://dc.lft.to/lastmile_qr_scan"}, "is_reserved": 0, "fusion_lon": 0.0, "fusion_lat": 0.0, "lon": -77.0106945, "name": "a9f5fb3da7165bc0101d997409b35b2b"}, {"bike_id": "88146d3649520affc792e936a477c22d", "type": "electric_scooter", "is_disabled": 0, "lat": 38.86249466666666, "rental_uris": {"ios": "https://dc.lft.to/lastmile_qr_scan", "android": "https://dc.lft.to/lastmile_qr_scan"}, "is_reserved": 0, "fusion_lon": 0.0, "fusion_lat": 0.0, "lon": -76.99267083333334, "name": "88146d3649520affc792e936a477c22d"}, {"bike_id": "e43b97e127abdb1f505612397589a6a5", "type": "electric_bike", "is_disabled": 0, "lat": 38.876949333333336, "rental_uris": {"ios": "https://dc.lft.to/lastmile_qr_scan", "android": "https://dc.lft.to/lastmile_qr_scan"}, "is_reserved": 0, "fusion_lon": 0.0, "fusion_lat": 0.0, "lon": -77.1098365, "name": "e43b97e127abdb1f505612397589a6a5"}, {"bike_id": "b71d9052da0c1acdcdb2ba2a03837c9a", "type": "electric_scooter", "is_disabled": 0, "lat": 38.863755166666664, "rental_uris": {"ios": "https://dc.lft.to/lastmile_qr_scan", "android": "https://dc.lft.to/lastmile_qr_scan"}, "is_reserved": 0, "fusion_lon": 0.0, "fusion_lat": 0.0, "lon": -76.9905565, "name": "b71d9052da0c1acdcdb2ba2a03837c9a"}, {"bike_id": "d256944b5aebce53f28ab848f777c7d9", "type": "electric_scooter", "is_disabled": 0, "lat": 38.907753166666666, "rental_uris": {"ios": "https://dc.lft.to/lastmile_qr_scan", "android": "https://dc.lft.to/lastmile_qr_scan"}, "is_reserved": 0, "fusion_lon": 0.0, "fusion_lat": 0.0, "lon": -77.0204745, "name": "d256944b5aebce53f28ab848f777c7d9"}, {"bike_id": "d04aa4de5d03a6cd38a7e9f2a6268fcd", "type": "electric_scooter", "is_disabled": 0, "lat": 38.88870766666667, "rental_uris": {"ios": "https://dc.lft.to/lastmile_qr_scan", "android": "https://dc.lft.to/lastmile_qr_scan"}, "is_reserved": 0, "fusion_lon": 0.0, "fusion_lat": 0.0, "lon": -77.039991, "name": "d04aa4de5d03a6cd38a7e9f2a6268fcd"}, {"bike_id": "b38bbd4a6bb6e4786175988b027d6394", "type": "electric_bike", "is_disabled": 0, "lat": 38.90131483333333, "rental_uris": {"ios": "https://dc.lft.to/lastmile_qr_scan", "android": "https://dc.lft.to/lastmile_qr_scan"}, "is_reserved": 0, "fusion_lon": 0.0, "fusion_lat": 0.0, "lon": -77.01722233333334, "name": "b38bbd4a6bb6e4786175988b027d6394"}, {"bike_id": "771cd513a3bff21cb47f19734467ca74", "type": "electric_scooter", "is_disabled": 0, "lat": 38.889273333333335, "rental_uris": {"ios": "https://dc.lft.to/lastmile_qr_scan", "android": "https://dc.lft.to/lastmile_qr_scan"}, "is_reserved": 0, "fusion_lon": 0.0, "fusion_lat": 0.0, "lon": -77.015092, "name": "771cd513a3bff21cb47f19734467ca74"}, {"bike_id": "0abe8f5ef52af1ce59c1c15d9d9c6b45", "type": "electric_scooter", "is_disabled": 0, "lat": 38.91491233333333, "rental_uris": {"ios": "https://dc.lft.to/lastmile_qr_scan", "android": "https://dc.lft.to/lastmile_qr_scan"}, "is_reserved": 0, "fusion_lon": 0.0, "fusion_lat": 0.0, "lon": -77.0185515, "name": "0abe8f5ef52af1ce59c1c15d9d9c6b45"}, {"bike_id": "1dd8a4430b0a116f1ed246bc51ed5103", "type": "electric_scooter", "is_disabled": 0, "lat": 38.88987916666667, "rental_uris": {"ios": "https://dc.lft.to/lastmile_qr_scan", "android": "https://dc.lft.to/lastmile_qr_scan"}, "is_reserved": 0, "fusion_lon": 0.0, "fusion_lat": 0.0, "lon": -77.00041566666667, "name": "1dd8a4430b0a116f1ed246bc51ed5103"}, {"bike_id": "af84cc6a6eb23f20368a36afc6175291", "type": "electric_bike", "is_disabled": 0, "lat": 38.853551, "rental_uris": {"ios": "https://dc.lft.to/lastmile_qr_scan", "android": "https://dc.lft.to/lastmile_qr_scan"}, "is_reserved": 0, "fusion_lon": 0.0, "fusion_lat": 0.0, "lon": -77.08686866666666, "name": "af84cc6a6eb23f20368a36afc6175291"}, {"bike_id": "647bdda84a667064fe52af63ac16336a", "type": "electric_scooter", "is_disabled": 0, "lat": 38.919171, "rental_uris": {"ios": "https://dc.lft.to/lastmile_qr_scan", "android": "https://dc.lft.to/lastmile_qr_scan"}, "is_reserved": 0, "fusion_lon": 0.0, "fusion_lat": 0.0, "lon": -77.0342015, "name": "647bdda84a667064fe52af63ac16336a"}, {"bike_id": "06fdea16610f367e85f4e5ecbb3b99e7", "type": "electric_scooter", "is_disabled": 0, "lat": 38.898676, "rental_uris": {"ios": "https://dc.lft.to/lastmile_qr_scan", "android": "https://dc.lft.to/lastmile_qr_scan"},