{"data": {"bikes": [{"fusion_lat": 0.0, "is_disabled": 0, "lat": 38.89228816666667, "lon": -77.032137, "fusion_lon": 0.0, "bike_id": "b3002fd8254a8e4f3d5cc61dc4998059", "type": "electric_scooter", "name": "b3002fd8254a8e4f3d5cc61dc4998059", "is_reserved": 0, "rental_uris": {"ios": "https://dc.lft.to/lastmile_qr_scan", "android": "https://dc.lft.to/lastmile_qr_scan"}}, {"fusion_lat": 0.0, "is_disabled": 0, "lat": 38.896818333333336, "lon": -77.00499383333333, "fusion_lon": 0.0, "bike_id": "18c6fcd0ca66bd9faf74403f5753e496", "type": "electric_scooter", "name": "18c6fcd0ca66bd9faf74403f5753e496", "is_reserved": 0, "rental_uris": {"ios": "https://dc.lft.to/lastmile_qr_scan", "android": "https://dc.lft.to/lastmile_qr_scan"}}, {"fusion_lat": 0.0, "is_disabled": 0, "lat": 38.88396683333333, "lon": -77.030203, "fusion_lon": 0.0, "bike_id": "28a7e903eb27568fff038f9f3ba63a6a", "type": "electric_bike", "name": "28a7e903eb27568fff038f9f3ba63a6a", "is_reserved": 0, "rental_uris": {"ios": "https://dc.lft.to/lastmile_qr_scan", "android": "https://dc.lft.to/lastmile_qr_scan"}}, {"fusion_lat": 0.0, "is_disabled": 0, "lat": 38.896638833333334, "lon": -76.93210883333333, "fusion_lon": 0.0, "bike_id": "627f0347bdaac00ddb5d8d4ac9cab45b", "type": "electric_scooter", "name": "627f0347bdaac00ddb5d8d4ac9cab45b", "is_reserved": 0, "rental_uris": {"ios": "https://dc.lft.to/lastmile_qr_scan", "android": "https://dc.lft.to/lastmile_qr_scan"}}, {"fusion_lat": 0.0, "is_disabled": 0, "lat": 38.95128966666667, "lon": -77.0272795, "fusion_lon": 0.0, "bike_id": "28103a684417331a3aad65477312566d", "type": "electric_scooter", "name": "28103a684417331a3aad65477312566d", "is_reserved": 0, "rental_uris": {"ios": "https://dc.lft.to/lastmile_qr_scan", "android": "https://dc.lft.to/lastmile_qr_scan"}}, {"fusion_lat": 0.0, "is_disabled": 0, "lat": 38.9104555, "lon": -77.04347333333334, "fusion_lon": 0.0, "bike_id": "052077993057271aa0aaf8299580d32b", "type": "electric_scooter", "name": "052077993057271aa0aaf8299580d32b", "is_reserved": 0, "rental_uris": {"ios": "https://dc.lft.to/lastmile_qr_scan", "android": "https://dc.lft.to/lastmile_qr_scan"}}, {"fusion_lat": 0.0, "is_disabled": 0, "lat": 38.923645, "lon": -77.05134033333333, "fusion_lon": 0.0, "bike_id": "98611bdce9ccb04fda3be61cf891c462", "type": "electric_scooter", "name": "98611bdce9ccb04fda3be61cf891c462", "is_reserved": 0, "rental_uris": {"ios": "https://dc.lft.to/lastmile_qr_scan", "android": "https://dc.lft.to/lastmile_qr_scan"}}, {"fusion_lat": 0.0, "is_disabled": 0, "lat": 38.929020333333334, "lon": -77.0165275, "fusion_lon": 0.0, "bike_id": "e9e6506fb7fcfb55ae93e67c5179fe62", "type": "electric_scooter", "name": "e9e6506fb7fcfb55ae93e67c5179fe62", "is_reserved": 0, "rental_uris": {"ios": "https://dc.lft.to/lastmile_qr_scan", "android": "https://dc.lft.to/lastmile_qr_scan"}}, {"fusion_lat": 0.0, "is_disabled": 0, "lat": 38.92436933333333, "lon": -77.02030316666666, "fusion_lon": 0.0, "bike_id": "51612885a8f21441fb3dd8adc62afd86", "type": "electric_scooter", "name": "51612885a8f21441fb3dd8adc62afd86", "is_reserved": 0, "rental_uris": {"ios": "https://dc.lft.to/lastmile_qr_scan", "android": "https://dc.lft.to/lastmile_qr_scan"}}, {"fusion_lat": 0.0, "is_disabled": 0, "lat": 38.92650366666667, "lon": -77.09019716666667, "fusion_lon": 0.0, "bike_id": "5da7f3e922dc66588bc2f4defb85627c", "type": "electric_bike", "name": "5da7f3e922dc66588bc2f4defb85627c", "is_reserved": 0, "rental_uris": {"ios": "https://dc.lft.to/lastmile_qr_scan", "android": "https://dc.lft.to/lastmile_qr_scan"}}, {"fusion_lat": 0.0, "is_disabled": 0, "lat": 38.90378783333333, "lon": -77.04658583333334, "fusion_lon": 0.0, "bike_id": "edff6bcd2f8be6dee4b3a0edce880392", "type": "electric_scooter", "name": "edff6bcd2f8be6dee4b3a0edce880392", "is_reserved": 0, "rental_uris": {"ios": "https://dc.lft.to/lastmile_qr_scan", "android": "https://dc.lft.to/lastmile_qr_scan"}}, {"fusion_lat": 0.0, "is_disabled": 0, "lat": 38.92336366666667, "lon": -77.02712383333333, "fusion_lon": 0.0, "bike_id": "d71435f6b40aef0d8bdf9c5b3cbb3248", "type": "electric_scooter", "name": "d71435f6b40aef0d8bdf9c5b3cbb3248", "is_reserved": 0, "rental_uris": {"ios": "https://dc.lft.to/lastmile_qr_scan", "android": "https://dc.lft.to/lastmile_qr_scan"}}, {"fusion_lat": 0.0, "is_disabled": 0, "lat": 38.92230133333333, "lon": -77.02211883333334, "fusion_lon": 0.0, "bike_id": "d893b174327f220d09d0ce6fbd9a85d2", "type": "electric_scooter", "name": "d893b174327f220d09d0ce6fbd9a85d2", "is_reserved": 0, "rental_uris": {"ios": "https://dc.lft.to/lastmile_qr_scan", "android": "https://dc.lft.to/lastmile_qr_scan"}}, {"fusion_lat": 0.0, "is_disabled": 0, "lat": 38.901064166666664, "lon": -77.018054, "fusion_lon": 0.0, "bike_id": "447118748e75c2023ca3c44350a1f2db", "type": "electric_scooter", "name": "447118748e75c2023ca3c44350a1f2db", "is_reserved": 0, "rental_uris": {"ios": "https://dc.lft.to/lastmile_qr_scan", "android": "https://dc.lft.to/lastmile_qr_scan"}}, {"fusion_lat": 0.0, "is_disabled": 0, "lat": 38.898217333333335, "lon": -77.0481615, "fusion_lon": 0.0, "bike_id": "fe5097b2671921159d6b9ce2272e432c", "type": "electric_scooter", "name": "fe5097b2671921159d6b9ce2272e432c", "is_reserved": 0, "rental_uris": {"ios": "https://dc.lft.to/lastmile_qr_scan", "android": "https://dc.lft.to/lastmile_qr_scan"}}, {"fusion_lat": 0.0, "is_disabled": 0, "lat": 38.902081833333334, "lon": -77.0590615, "fusion_lon": 0.0, "bike_id": "2ffb71084ce1eb23bdcb4511ace631af", "type": "electric_scooter", "name": "2ffb71084ce1eb23bdcb4511ace631af", "is_reserved": 0, "rental_uris": {"ios": "https://dc.lft.to/lastmile_qr_scan", "android": "https://dc.lft.to/lastmile_qr_scan"}}, {"fusion_lat": 0.0, "is_disabled": 0, "lat": 39.0849445, "lon": -76.95048083333333, "fusion_lon": 0.0, "bike_id": "8455642eab2e5027b5cc5bea71bbb33f", "type": "electric_bike", "name": "8455642eab2e5027b5cc5bea71bbb33f", "is_reserved": 0, "rental_uris": {"ios": "https://dc.lft.to/lastmile_qr_scan", "android": "https://dc.lft.to/lastmile_qr_scan"}}, {"fusion_lat": 0.0, "is_disabled": 0, "lat": 38.90565216666667, "lon": -77.00943466666666, "fusion_lon": 0.0, "bike_id": "aac43d9eed9b9d5733f1b63458b96b7b", "type": "electric_scooter", "name": "aac43d9eed9b9d5733f1b63458b96b7b", "is_reserved": 0, "rental_uris": {"ios": "https://dc.lft.to/lastmile_qr_scan", "android": "https://dc.lft.to/lastmile_qr_scan"}}, {"fusion_lat": 0.0, "is_disabled": 0, "lat": 38.90079733333334, "lon": -77.00728733333334, "fusion_lon": 0.0, "bike_id": "31c16c7dffeab86ef3fd5f1a6ef4229f", "type": "electric_scooter", "name": "31c16c7dffeab86ef3fd5f1a6ef4229f", "is_reserved": 0, "rental_uris": {"ios": "https://dc.lft.to/lastmile_qr_scan", "android": "https://dc.lft.to/lastmile_qr_scan"}}, {"fusion_lat": 0.0, "is_disabled": 0, "lat": 38.9198715, "lon": -77.03247433333334, "fusion_lon": 0.0, "bike_id": "1dea3dcc734ea45eca6c6bdc311520bf", "type": "electric_scooter", "name": "1dea3dcc734ea45eca6c6bdc311520bf", "is_reserved": 0, "rental_uris": {"ios": "https://dc.lft.to/lastmile_qr_scan", "android": "https://dc.lft.to/lastmile_qr_scan"}}, {"fusion_lat": 0.0, "is_disabled": 0, "lat": 38.923536166666665, "lon": -77.05075, "fusion_lon": 0.0, "bike_id": "a38a07f695300f2b6413311523f562e7", "type": "electric_scooter", "name": "a38a07f695300f2b6413311523f562e7", "is_reserved": 0, "rental_uris": {"ios": "https://dc.lft.to/lastmile_qr_scan", "android": "https://dc.lft.to/lastmile_qr_scan"}}, {"fusion_lat": 0.0, "is_disabled": 0, "lat": 38.903641666666665, "lon": -77.03842216666666, "fusion_lon": 0.0, "bike_id": "06b86a7187d1c90587be78f47844af87", "type": "electric_scooter", "name": "06b86a7187d1c90587be78f47844af87", "is_reserved": 0, "rental_uris": {"ios": "https://dc.lft.to/lastmile_qr_scan", "android": "https://dc.lft.to/lastmile_qr_scan"}}, {"fusion_lat": 0.0, "is_disabled": 0, "lat": 38.896071166666665, "lon": -77.02401483333334, "fusion_lon": 0.0, "bike_id": "f529c8b257c054c25cd99eae0161df65", "type": "electric_scooter", "name": "f529c8b257c054c25cd99eae0161df65", "is_reserved": 0, "rental_uris": {"ios": "https://dc.lft.to/lastmile_qr_scan", "android": "https://dc.lft.to/lastmile_qr_scan"}}, {"fusion_lat": 0.0, "is_disabled": 0, "lat": 38.94410416666667, "lon": -77.06329516666666, "fusion_lon": 0.0, "bike_id": "d0efb459ca4ed3b295586c4843fad263", "type": "electric_scooter", "name": "d0efb459ca4ed3b295586c4843fad263", "is_reserved": 0, "rental_uris": {"ios": "https://dc.lft.to/lastmile_qr_scan", "android": "https://dc.lft.to/lastmile_qr_scan"}}, {"fusion_lat": 0.0, "is_disabled": 0, "lat": 38.90254183333333, "lon": -77.03902833333333, "fusion_lon": 0.0, "bike_id": "a93660d37d8dbdf5e6513f4a8ddf1110", "type": "electric_scooter", "name": "a93660d37d8dbdf5e6513f4a8ddf1110", "is_reserved": 0, "rental_uris": {"ios": "https://dc.lft.to/lastmile_qr_scan", "android": "https://dc.lft.to/lastmile_qr_scan"}}, {"fusion_lat": 0.0, "is_disabled": 0, "lat": 38.93243783333333, "lon": -77.032746, "fusion_lon": 0.0, "bike_id": "dcf2b81f3b266f271d01beb14424d352", "type": "electric_scooter", "name": "dcf2b81f3b266f271d01beb14424d352", "is_reserved": 0, "rental_uris": {"ios": "https://dc.lft.to/lastmile_qr_scan", "android": "https://dc.lft.to/lastmile_qr_scan"}}, {"fusion_lat": 0.0, "is_disabled": 0, "lat": 38.89102533333333, "lon": -77.1841805, "fusion_lon": 0.0, "bike_id": "01f578991f1195667ee1e735a21008b9", "type": "electric_bike", "name": "01f578991f1195667ee1e735a21008b9", "is_reserved": 0, "rental_uris": {"ios": "https://dc.lft.to/lastmile_qr_scan", "android": "https://dc.lft.to/lastmile_qr_scan"}}, {"fusion_lat": 0.0, "is_disabled": 0, "lat": 38.89943366666667, "lon": -77.03079216666667, "fusion_lon": 0.0, "bike_id": "830c06bb8a418c4cd79731db552dee3c", "type": "electric_scooter", "name": "830c06bb8a418c4cd79731db552dee3c", "is_reserved": 0, "rental_uris": {"ios": "https://dc.lft.to/lastmile_qr_scan", "android": "https://dc.lft.to/lastmile_qr_scan"}}, {"fusion_lat": 0.0, "is_disabled": 0, "lat": 38.906435333333334, "lon": -77.05134083333333, "fusion_lon": 0.0, "bike_id": "9ba9294761d78691ec4d63f3843c0ae9", "type": "electric_scooter", "name": "9ba9294761d78691ec4d63f3843c0ae9", "is_reserved": 0, "rental_uris": {"ios": "https://dc.lft.to/lastmile_qr_scan", "android": "https://dc.lft.to/lastmile_qr_scan"}}, {"fusion_lat": 0.0, "is_disabled": 0, "lat": 38.93351, "lon": -77.08579583333334, "fusion_lon": 0.0, "bike_id": "2c9b17ced1468a76b7a4582a6f13aeb9", "type": "electric_scooter", "name": "2c9b17ced1468a76b7a4582a6f13aeb9", "is_reserved": 0, "rental_uris": {"ios": "https://dc.lft.to/lastmile_qr_scan", "android": "https://dc.lft.to/lastmile_qr_scan"}}, {"fusion_lat": 0.0, "is_disabled": 0, "lat": 38.920579000000004, "lon": -77.03465133333333, "fusion_lon": 0.0, "bike_id": "431e6aaa7104f2e2a9c365027a8001ee", "type": "electric_scooter", "name": "431e6aaa7104f2e2a9c365027a8001ee", "is_reserved": 0, "rental_uris": {"ios": "https://dc.lft.to/lastmile_qr_scan", "android": "https://dc.lft.to/lastmile_qr_scan"}}, {"fusion_lat": 0.0, "is_disabled": 0, "lat": 38.9039755, "lon": -77.05328916666667, "fusion_lon": 0.0, "bike_id": "84fee7a4a505d32451bb38194d6df33e", "type": "electric_scooter", "name": "84fee7a4a505d32451bb38194d6df33e", "is_reserved": 0, "rental_uris": {"ios": "https://dc.lft.to/lastmile_qr_scan", "android": "https://dc.lft.to/lastmile_qr_scan"}}, {"fusion_lat": 0.0, "is_disabled": 0, "lat": 38.92844266666667, "lon": -77.03635566666667, "fusion_lon": 0.0, "bike_id": "444b22d829da3b291c060fd9dfc9a811", "type": "electric_scooter", "name": "444b22d829da3b291c060fd9dfc9a811", "is_reserved": 0, "rental_uris": {"ios": "https://dc.lft.to/lastmile_qr_scan", "android": "https://dc.lft.to/lastmile_qr_scan"}}, {"fusion_lat": 0.0, "is_disabled": 0, "lat": 38.94028766666667, "lon": -77.0291025, "fusion_lon": 0.0, "bike_id": "5048945f96a3a9879891b48a0fbf30d3", "type": "electric_scooter", "name": "5048945f96a3a9879891b48a0fbf30d3", "is_reserved": 0, "rental_uris": {"ios": "https://dc.lft.to/lastmile_qr_scan", "android": "https://dc.lft.to/lastmile_qr_scan"}}, {"fusion_lat": 0.0, "is_disabled": 0, "lat": 38.924674833333334, "lon": -77.03934666666666, "fusion_lon": 0.0, "bike_id": "4de3fa646d9123d7680cce6ff5e2f445", "type": "electric_scooter", "name": "4de3fa646d9123d7680cce6ff5e2f445", "is_reserved": 0, "rental_uris": {"ios": "https://dc.lft.to/lastmile_qr_scan", "android": "https://dc.lft.to/lastmile_qr_scan"}}, {"fusion_lat": 0.0, "is_disabled": 0, "lat": 38.92164266666666, "lon": -77.01878066666667, "fusion_lon": 0.0, "bike_id": "6402901667fdb022f50f562b26bdcf66", "type": "electric_scooter", "name": "6402901667fdb022f50f562b26bdcf66", "is_reserved": 0, "rental_uris": {"ios": "https://dc.lft.to/lastmile_qr_scan", "android": "https://dc.lft.to/lastmile_qr_scan"}}, {"fusion_lat": 0.0, "is_disabled": 0, "lat": 38.94138133333333, "lon": -77.02323533333333, "fusion_lon": 0.0, "bike_id": "e8b69c1b83f55e48157d91e109468fc6", "type": "electric_scooter", "name": "e8b69c1b83f55e48157d91e109468fc6", "is_reserved": 0, "rental_uris": {"ios": "https://dc.lft.to/lastmile_qr_scan", "android": "https://dc.lft.to/lastmile_qr_scan"}}, {"fusion_lat": 0.0, "is_disabled": 0, "lat": 38.90214733333333, "lon": -77.0480515, "fusion_lon": 0.0, "bike_id": "39d08ff187d64274402cc5e680470d9a", "type": "electric_scooter", "name": "39d08ff187d64274402cc5e680470d9a", "is_reserved": 0, "rental_uris": {"ios": "https://dc.lft.to/lastmile_qr_scan", "android": "https://dc.lft.to/lastmile_qr_scan"}}, {"fusion_lat": 0.0, "is_disabled": 0, "lat": 38.91115533333333, "lon": -77.0361955, "fusion_lon": 0.0, "bike_id": "d0ab680a3be6661a99d4870474b95242", "type": "electric_scooter", "name": "d0ab680a3be6661a99d4870474b95242", "is_reserved": 0, "rental_uris": {"ios": "https://dc.lft.to/lastmile_qr_scan", "android": "https://dc.lft.to/lastmile_qr_scan"}}, {"fusion_lat": 0.0, "is_disabled": 0, "lat": 38.905408, "lon": -77.04696, "fusion_lon": 0.0, "bike_id": "2856de5c55f873c6efca6edfce2119e4", "type": "electric_scooter", "name": "2856de5c55f873c6efca6edfce2119e4", "is_reserved": 0, "rental_uris": {"ios": "https://dc.lft.to/lastmile_qr_scan", "android": "https://dc.lft.to/lastmile_qr_scan"}}, {"fusion_lat": 0.0, "is_disabled": 0, "lat": 38.893296666666664, "lon": -76.93931983333333, "fusion_lon": 0.0, "bike_id": "34ba968ff82c2e23c114cf3525bf6d9f", "type": "electric_scooter", "name": "34ba968ff82c2e23c114cf3525bf6d9f", "is_reserved": 0, "rental_uris": {"ios": "https://dc.lft.to/lastmile_qr_scan", "android": "https://dc.lft.to/lastmile_qr_scan"}}, {"fusion_lat": 0.0, "is_disabled": 0, "lat": 38.9236265, "lon": -77.05131483333334, "fusion_lon": 0.0, "bike_id": "24e58e25f1701165d036349862469117", "type": "electric_scooter", "name": "24e58e25f1701165d036349862469117", "is_reserved": 0, "rental_uris": {"ios": "https://dc.lft.to/lastmile_qr_scan", "android": "https://dc.lft.to/lastmile_qr_scan"}}, {"fusion_lat": 0.0, "is_disabled": 0, "lat": 38.944853333333334, "lon": -77.06396883333333, "fusion_lon": 0.0, "bike_id": "9ec3c0586dc51b266a5bb916d361c6ed", "type": "electric_scooter", "name": "9ec3c0586dc51b266a5bb916d361c6ed", "is_reserved": 0, "rental_uris": {"ios": "https://dc.lft.to/lastmile_qr_scan", "android": "https://dc.lft.to/lastmile_qr_scan"}}, {"fusion_lat": 0.0, "is_disabled": 0, "lat": 38.890353166666664, "lon": -77.02979533333334, "fusion_lon": 0.0, "bike_id": "7b8f6e4e6965292bc40a5a13568684db", "type": "electric_scooter", "name": "7b8f6e4e6965292bc40a5a13568684db", "is_reserved": 0, "rental_uris": {"ios": "https://dc.lft.to/lastmile_qr_scan", "android": "https://dc.lft.to/lastmile_qr_scan"}}, {"fusion_lat": 0.0, "is_disabled": 0, "lat": 38.9246245, "lon": -77.02208716666667, "fusion_lon": 0.0, "bike_id": "f6789f82cde8a9a35f5fb079eec5b178", "type": "electric_scooter", "name": "f6789f82cde8a9a35f5fb079eec5b178", "is_reserved": 0, "rental_uris": {"ios": "https://dc.lft.to/lastmile_qr_scan", "android": "https://dc.lft.to/lastmile_qr_scan"}}, {"fusion_lat": 0.0, "is_disabled": 0, "lat": 38.8524535, "lon": -77.1143095, "fusion_lon": 0.0, "bike_id": "b9a959baf96d2c46afb456bc0723076f", "type": "electric_bike", "name": "b9a959baf96d2c46afb456bc0723076f", "is_reserved": 0, "rental_uris": {"ios": "https://dc.lft.to/lastmile_qr_scan", "android": "https://dc.lft.to/lastmile_qr_scan"}}, {"fusion_lat": 0.0, "is_disabled": 0, "lat": 38.9232465, "lon": -77.05683, "fusion_lon": 0.0, "bike_id": "39ccdf2f76d8135991c7b1c434b8cf86", "type": "electric_scooter", "name": "39ccdf2f76d8135991c7b1c434b8cf86", "is_reserved": 0, "rental_uris": {"ios": "https://dc.lft.to/lastmile_qr_scan", "android": "https://dc.lft.to/lastmile_qr_scan"}}, {"fusion_lat": 0.0, "is_disabled": 0, "lat": 38.91268516666667, "lon": -77.02313883333333, "fusion_lon": 0.0, "bike_id": "fd2faaf993179198d61530f5d5040ce1", "type": "electric_scooter", "name": "fd2faaf993179198d61530f5d5040ce1", "is_reserved": 0, "rental_uris": {"ios": "https://dc.lft.to/lastmile_qr_scan", "android": "https://dc.lft.to/lastmile_qr_scan"}}, {"fusion_lat": 0.0, "is_disabled": 0, "lat": 38.90878283333333, "lon": -77.06457033333334, "fusion_lon": 0.0, "bike_id": "eca25b592a41a9f2d897b91ff4a84039", "type": "electric_scooter", "name": "eca25b592a41a9f2d897b91ff4a84039", "is_reserved": 0, "rental_uris": {"ios": "https://dc.lft.to/lastmile_qr_scan", "android": "https://dc.lft.to/lastmile_qr_scan"}}, {"fusion_lat": 0.0, "is_disabled": 0, "lat": 38.913725666666664, "lon": -77.03205633333333, "fusion_lon": 0.0, "bike_id": "1dab57a22d6d17f1e7179a171443a9cd", "type": "electric_scooter", "name": "1dab57a22d6d17f1e7179a171443a9cd", "is_reserved": 0, "rental_uris": {"ios": "https://dc.lft.to/lastmile_qr_scan", "android": "https://dc.lft.to/lastmile_qr_scan"}}, {"fusion_lat": 0.0, "is_disabled": 0, "lat": 38.894001333333335, "lon": -77.02170116666667, "fusion_lon": 0.0, "bike_id": "8d85e1c318a96882fa4b5ca5d7b489e7", "type": "electric_scooter", "name": "8d85e1c318a96882fa4b5ca5d7b489e7", "is_reserved": 0, "rental_uris": {"ios": "https://dc.lft.to/lastmile_qr_scan", "android": "https://dc.lft.to/lastmile_qr_scan"}}, {"fusion_lat": 0.0, "is_disabled": 0, "lat": 38.88987866666667, "lon": -77.00337783333333, "fusion_lon": 0.0, "bike_id": "32c7600e8d2a9ebbb6f16274d25827f5", "type": "electric_scooter", "name": "32c7600e8d2a9ebbb6f16274d25827f5", "is_reserved": 0, "rental_uris": {"ios": "https://dc.lft.to/lastmile_qr_scan", "android": "https://dc.lft.to/lastmile_qr_scan"}}, {"fusion_lat": 0.0, "is_disabled": 0, "lat": 38.916866166666665, "lon": -77.037812, "fusion_lon": 0.0, "bike_id": "2daf4f5ca31e010386f77e2b4e907afc", "type": "electric_scooter", "name": "2daf4f5ca31e010386f77e2b4e907afc", "is_reserved": 0, "rental_uris": {"ios": "https://dc.lft.to/lastmile_qr_scan", "android": "https://dc.lft.to/lastmile_qr_scan"}}, {"fusion_lat": 0.0, "is_disabled": 0, "lat": 38.92705383333333, "lon": -77.02407416666667, "fusion_lon": 0.0, "bike_id": "21c8a99c9db0ac6b1eeb4c3333bf50b1", "type": "electric_scooter", "name": "21c8a99c9db0ac6b1eeb4c3333bf50b1", "is_reserved": 0, "rental_uris": {"ios": "https://dc.lft.to/lastmile_qr_scan", "android": "https://dc.lft.to/lastmile_qr_scan"}}, {"fusion_lat": 0.0, "is_disabled": 0, "lat": 38.89955233333333, "lon": -77.03075433333333, "fusion_lon": 0.0, "bike_id": "56ebdcd507c608b9772287b1a3e84f82", "type": "electric_scooter", "name": "56ebdcd507c608b9772287b1a3e84f82", "is_reserved": 0, "rental_uris": {"ios": "https://dc.lft.to/lastmile_qr_scan", "android": "https://dc.lft.to/lastmile_qr_scan"}}, {"fusion_lat": 0.0, "is_disabled": 0, "lat": 38.90276933333333, "lon": -77.01544283333334, "fusion_lon": 0.0, "bike_id": "b2453ef2f3127cc08d16743b6117bd75", "type": "electric_scooter", "name": "b2453ef2f3127cc08d16743b6117bd75", "is_reserved": 0, "rental_uris": {"ios": "https://dc.lft.to/lastmile_qr_scan", "android": "https://dc.lft.to/lastmile_qr_scan"}}, {"fusion_lat": 0.0, "is_disabled": 0, "lat": 38.90823816666666, "lon": -77.07311516666667, "fusion_lon": 0.0, "bike_id": "a7ce324545ccb1358637ce607900c18a", "type": "electric_scooter", "name": "a7ce324545ccb1358637ce607900c18a", "is_reserved": 0, "rental_uris": {"ios": "https://dc.lft.to/lastmile_qr_scan", "android": "https://dc.lft.to/lastmile_qr_scan"}}, {"fusion_lat": 0.0, "is_disabled": 0, "lat": 38.91831766666667, "lon": -77.05316216666667, "fusion_lon": 0.0, "bike_id": "da0ddc573fa48678927e5abebebf3f54", "type": "electric_scooter", "name": "da0ddc573fa48678927e5abebebf3f54", "is_reserved": 0, "rental_uris": {"ios": "https://dc.lft.to/lastmile_qr_scan", "android": "https://dc.lft.to/lastmile_qr_scan"}}, {"fusion_lat": 0.0, "is_disabled": 0, "lat": 38.89754583333333, "lon": -77.00953133333333, "fusion_lon": 0.0, "bike_id": "3455693e8aa073ff6168f5084c998ac2", "type": "electric_scooter", "name": "3455693e8aa073ff6168f5084c998ac2", "is_reserved": 0, "rental_uris": {"ios": "https://dc.lft.to/lastmile_qr_scan", "android": "https://dc.lft.to/lastmile_qr_scan"}}, {"fusion_lat": 0.0, "is_disabled": 0, "lat": 38.87775633333333, "lon": -77.00210116666666, "fusion_lon": 0.0, "bike_id": "f35334fe72d1ffc21d00fbe28a491c3b", "type": "electric_scooter", "name": "f35334fe72d1ffc21d00fbe28a491c3b", "is_reserved": 0, "rental_uris": {"ios": "https://dc.lft.to/lastmile_qr_scan", "android": "https://dc.lft.to/lastmile_qr_scan"}}, {"fusion_lat": 0.0, "is_disabled": 0, "lat": 38.87926933333333, "lon": -77.02371016666666, "fusion_lon": 0.0, "bike_id": "e9e4a0529e9021040413cb6ea5fefc68", "type": "electric_scooter", "name": "e9e4a0529e9021040413cb6ea5fefc68", "is_reserved": 0, "rental_uris": {"ios": "https://dc.lft.to/lastmile_qr_scan", "android": "https://dc.lft.to/lastmile_qr_scan"}}, {"fusion_lat": 0.0, "is_disabled": 0, "lat": 38.8386375, "lon": -76.99488683333334, "fusion_lon": 0.0, "bike_id": "0685a675b4cf4587dd860b757bb52b8e", "type": "electric_bike", "name": "0685a675b4cf4587dd860b757bb52b8e", "is_reserved": 0, "rental_uris": {"ios": "https://dc.lft.to/lastmile_qr_scan", "android": "https://dc.lft.to/lastmile_qr_scan"}}, {"fusion_lat": 0.0, "is_disabled": 0, "lat": 38.928814833333334, "lon": -77.0329765, "fusion_lon": 0.0, "bike_id": "e16c24a2a60e0e248e55680ea196e436", "type": "electric_scooter", "name": "e16c24a2a60e0e248e55680ea196e436", "is_reserved": 0, "rental_uris": {"ios": "https://dc.lft.to/lastmile_qr_scan", "android": "https://dc.lft.to/lastmile_qr_scan"}}, {"fusion_lat": 0.0, "is_disabled": 0, "lat": 38.934004333333334, "lon": -77.04137733333333, "fusion_lon": 0.0, "bike_id": "719ed45736e8e6959a4443005357fb2a", "type": "electric_scooter", "name": "719ed45736e8e6959a4443005357fb2a", "is_reserved": 0, "rental_uris": {"ios": "https://dc.lft.to/lastmile_qr_scan", "android": "https://dc.lft.to/lastmile_qr_scan"}}, {"fusion_lat": 0.0, "is_disabled": 0, "lat": 38.937588833333336, "lon": -77.02137933333333, "fusion_lon": 0.0, "bike_id": "c9b8c53edd08ee229a0a8b7587e204e8", "type": "electric_scooter", "name": "c9b8c53edd08ee229a0a8b7587e204e8", "is_reserved": 0, "rental_uris": {"ios": "https://dc.lft.to/lastmile_qr_scan", "android": "https://dc.lft.to/lastmile_qr_scan"}}, {"fusion_lat": 0.0, "is_disabled": 0, "lat": 38.89886633333333, "lon": -77.04884433333334, "fusion_lon": 0.0, "bike_id": "4f8d6022ab5a67130c852d313b0ca59d", "type": "electric_scooter", "name": "4f8d6022ab5a67130c852d313b0ca59d", "is_reserved": 0, "rental_uris": {"ios": "https://dc.lft.to/lastmile_qr_scan", "android": "https://dc.lft.to/lastmile_qr_scan"}}, {"fusion_lat": 0.0, "is_disabled": 0, "lat": 38.907003333333336, "lon": -76.9869765, "fusion_lon": 0.0, "bike_id": "4ab7c128822cd9bda287463c311a07de", "type": "electric_scooter", "name": "4ab7c128822cd9bda287463c311a07de", "is_reserved": 0, "rental_uris": {"ios": "https://dc.lft.to/lastmile_qr_scan", "android": "https://dc.lft.to/lastmile_qr_scan"}}, {"fusion_lat": 0.0, "is_disabled": 0, "lat": 38.89747583333333, "lon": -77.03232166666666, "fusion_lon": 0.0, "bike_id": "f7e9f57b7b32715c76eef8a0184fefe2", "type": "electric_scooter", "name": "f7e9f57b7b32715c76eef8a0184fefe2", "is_reserved": 0, "rental_uris": {"ios": "https://dc.lft.to/lastmile_qr_scan", "android": "https://dc.lft.to/lastmile_qr_scan"}}, {"fusion_lat": 0.0, "is_disabled": 0, "lat": 38.921262, "lon": -77.018007, "fusion_lon": 0.0, "bike_id": "0375ce76919f99a7e2561b866fc1166e", "type": "electric_scooter", "name": "0375ce76919f99a7e2561b866fc1166e", "is_reserved": 0, "rental_uris": {"ios": "https://dc.lft.to/lastmile_qr_scan", "android": "https://dc.lft.to/lastmile_qr_scan"}}, {"fusion_lat": 0.0, "is_disabled": 0, "lat": 38.90365033333333, "lon": -77.04763983333333, "fusion_lon": 0.0, "bike_id": "21623c2e30569c487cb513835d9d00c9", "type": "electric_scooter", "name": "21623c2e30569c487cb513835d9d00c9", "is_reserved": 0, "rental_uris": {"ios": "https://dc.lft.to/lastmile_qr_scan", "android": "https://dc.lft.to/lastmile_qr_scan"}}, {"fusion_lat": 0.0, "is_disabled": 0, "lat": 38.901673333333335, "lon": -77.02216033333333, "fusion_lon": 0.0, "bike_id": "9822f775c72b5708e537e7e6733987c0", "type": "electric_scooter", "name": "9822f775c72b5708e537e7e6733987c0", "is_reserved": 0, "rental_uris": {"ios": "https://dc.lft.to/lastmile_qr_scan", "android": "https://dc.lft.to/lastmile_qr_scan"}}, {"fusion_lat": 0.0, "is_disabled": 0, "lat": 38.91540533333333, "lon": -77.03189116666667, "fusion_lon": 0.0, "bike_id": "91f58c7a7eed7742f0096ceb714e30b0", "type": "electric_scooter", "name": "91f58c7a7eed7742f0096ceb714e30b0", "is_reserved": 0, "rental_uris": {"ios": "https://dc.lft.to/lastmile_qr_scan", "android": "https://dc.lft.to/lastmile_qr_scan"}}, {"fusion_lat": 0.0, "is_disabled": 0, "lat": 38.90760616666667, "lon": -77.04542166666667, "fusion_lon": 0.0, "bike_id": "37ae0f53fd8aa52bae65944c2f322930", "type": "electric_scooter", "name": "37ae0f53fd8aa52bae65944c2f322930", "is_reserved": 0, "rental_uris": {"ios": "https://dc.lft.to/lastmile_qr_scan", "android": "https://dc.lft.to/lastmile_qr_scan"}}, {"fusion_lat": 0.0, "is_disabled": 0, "lat": 38.91402516666667, "lon": -77.02379633333334, "fusion_lon": 0.0, "bike_id": "32d823c066aed5c3c612c8d9ee964098", "type": "electric_scooter", "name": "32d823c066aed5c3c612c8d9ee964098", "is_reserved": 0, "rental_uris": {"ios": "https://dc.lft.to/lastmile_qr_scan", "android": "https://dc.lft.to/lastmile_qr_scan"}}, {"fusion_lat": 0.0, "is_disabled": 0, "lat": 38.92131066666666, "lon": -77.05157016666666, "fusion_lon": 0.0, "bike_id": "6fe1aae259dce12794d510d19d9d4af8", "type": "electric_scooter", "name": "6fe1aae259dce12794d510d19d9d4af8", "is_reserved": 0, "rental_uris": {"ios": "https://dc.lft.to/lastmile_qr_scan", "android": "https://dc.lft.to/lastmile_qr_scan"}}, {"fusion_lat": 0.0, "is_disabled": 0, "lat": 38.917714333333336, "lon": -77.04101833333333, "fusion_lon": 0.0, "bike_id": "599f7da09de1a75c6b6cc068ff64de89", "type": "electric_scooter", "name": "599f7da09de1a75c6b6cc068ff64de89", "is_reserved": 0, "rental_uris": {"ios": "https://dc.lft.to/lastmile_qr_scan", "android": "https://dc.lft.to/lastmile_qr_scan"}}, {"fusion_lat": 0.0, "is_disabled": 0, "lat": 38.88713833333333, "lon": -77.02819933333333, "fusion_lon": 0.0, "bike_id": "19e33e5693e8869ff9c9b73fee24747c", "type": "electric_scooter", "name": "19e33e5693e8869ff9c9b73fee24747c", "is_reserved": 0, "rental_uris": {"ios": "https://dc.lft.to/lastmile_qr_scan", "android": "https://dc.lft.to/lastmile_qr_scan"}}, {"fusion_lat": 0.0, "is_disabled": 0, "lat": 38.924032833333335, "lon": -77.035536, "fusion_lon": 0.0, "bike_id": "7c5c2fbeb44b0579dd4b33763042f08c", "type": "electric_scooter", "name": "7c5c2fbeb44b0579dd4b33763042f08c", "is_reserved": 0, "rental_uris": {"ios": "https://dc.lft.to/lastmile_qr_scan", "android": "https://dc.lft.to/lastmile_qr_scan"}}, {"fusion_lat": 0.0, "is_disabled": 0, "lat": 38.8972925, "lon": -77.02094966666667, "fusion_lon": 0.0, "bike_id": "4f0ab0ac12d87d09ec24f428da69d27f", "type": "electric_scooter", "name": "4f0ab0ac12d87d09ec24f428da69d27f", "is_reserved": 0, "rental_uris": {"ios": "https://dc.lft.to/lastmile_qr_scan", "android": "https://dc.lft.to/lastmile_qr_scan"}}, {"fusion_lat": 0.0, "is_disabled": 0, "lat": 38.93598083333333, "lon": -77.03193116666667, "fusion_lon": 0.0, "bike_id": "a9e6d01a3a3ead044cf9354c1e8b550f", "type": "electric_scooter", "name": "a9e6d01a3a3ead044cf9354c1e8b550f", "is_reserved": 0, "rental_uris": {"ios": "https://dc.lft.to/lastmile_qr_scan", "android": "https://dc.lft.to/lastmile_qr_scan"}}, {"fusion_lat": 0.0, "is_disabled": 0, "lat": 38.90333783333333, "lon": -77.03175383333334, "fusion_lon": 0.0, "bike_id": "3694976aba65c8f42705578f97df2085", "type": "electric_scooter", "name": "3694976aba65c8f42705578f97df2085", "is_reserved": 0, "rental_uris": {"ios": "https://dc.lft.to/lastmile_qr_scan", "android": "https://dc.lft.to/lastmile_qr_scan"}}, {"fusion_lat": 0.0, "is_disabled": 0, "lat": 38.9036775, "lon": -77.04188133333334, "fusion_lon": 0.0, "bike_id": "29b0224c7fc53ab80f9d6d99cdf8f50c", "type": "electric_scooter", "name": "29b0224c7fc53ab80f9d6d99cdf8f50c", "is_reserved": 0, "rental_uris": {"ios": "https://dc.lft.to/lastmile_qr_scan", "android": "https://dc.lft.to/lastmile_qr_scan"}}, {"fusion_lat": 0.0, "is_disabled": 0, "lat": 39.08431433333333, "lon": -76.95141383333333, "fusion_lon": 0.0, "bike_id": "874a5f0c8d9aa42b46e5c5dc64f9e9de", "type": "electric_bike", "name": "874a5f0c8d9aa42b46e5c5dc64f9e9de", "is_reserved": 0, "rental_uris": {"ios": "https://dc.lft.to/lastmile_qr_scan", "android": "https://dc.lft.to/lastmile_qr_scan"}}, {"fusion_lat": 0.0, "is_disabled": 0, "lat": 38.912555166666664, "lon": -77.03865616666667, "fusion_lon": 0.0, "bike_id": "fb6e5109cdc11ef05e28e5d068563579", "type": "electric_scooter", "name": "fb6e5109cdc11ef05e28e5d068563579", "is_reserved": 0, "rental_uris": {"ios": "https://dc.lft.to/lastmile_qr_scan", "android": "https://dc.lft.to/lastmile_qr_scan"}}, {"fusion_lat": 0.0, "is_disabled": 0, "lat": 38.92445266666667, "lon": -77.02137283333333, "fusion_lon": 0.0, "bike_id": "fabb7f3d2edb7e8f8d8a45970785a91f", "type": "electric_scooter", "name": "fabb7f3d2edb7e8f8d8a45970785a91f", "is_reserved": 0, "rental_uris": {"ios": "https://dc.lft.to/lastmile_qr_scan", "android": "https://dc.lft.to/lastmile_qr_scan"}}, {"fusion_lat": 0.0, "is_disabled": 0, "lat": 38.89714716666667, "lon": -77.02684533333333, "fusion_lon": 0.0, "bike_id": "ad1e5f54927399b72d4be7054151bd51", "type": "electric_scooter", "name": "ad1e5f54927399b72d4be7054151bd51", "is_reserved": 0, "rental_uris": {"ios": "https://dc.lft.to/lastmile_qr_scan", "android": "https://dc.lft.to/lastmile_qr_scan"}}, {"fusion_lat": 0.0, "is_disabled": 0, "lat": 38.91225716666667, "lon": -77.02796916666667, "fusion_lon": 0.0, "bike_id": "7315489bff6a892458cde3ef21f89de9", "type": "electric_scooter", "name": "7315489bff6a892458cde3ef21f89de9", "is_reserved": 0, "rental_uris": {"ios": "https://dc.lft.to/lastmile_qr_scan", "android": "https://dc.lft.to/lastmile_qr_scan"}}, {"fusion_lat": 0.0, "is_disabled": 0, "lat": 38.92635, "lon": -77.03702033333333, "fusion_lon": 0.0, "bike_id": "60b435e07fee3145403a6d7351dab5c7", "type": "electric_scooter", "name": "60b435e07fee3145403a6d7351dab5c7", "is_reserved": 0, "rental_uris": {"ios": "https://dc.lft.to/lastmile_qr_scan", "android": "https://dc.lft.to/lastmile_qr_scan"}}, {"fusion_lat": 0.0, "is_disabled": 0, "lat": 38.88403233333333, "lon": -76.93040816666667, "fusion_lon": 0.0, "bike_id": "32564b4fe0555c8ff988070f3a0c9f8b", "type": "electric_scooter", "name": "32564b4fe0555c8ff988070f3a0c9f8b", "is_reserved": 0, "rental_uris": {"ios": "https://dc.lft.to/lastmile_qr_scan", "android": "https://dc.lft.to/lastmile_qr_scan"}}, {"fusion_lat": 0.0, "is_disabled": 0, "lat": 38.91254033333333, "lon": -77.03868416666667, "fusion_lon": 0.0, "bike_id": "5d0d526063e1420c0d973a464ffe822b", "type": "electric_scooter", "name": "5d0d526063e1420c0d973a464ffe822b", "is_reserved": 0, "rental_uris": {"ios": "https://dc.lft.to/lastmile_qr_scan", "android": "https://dc.lft.to/lastmile_qr_scan"}}, {"fusion_lat": 0.0, "is_disabled": 0, "lat": 38.92466433333333, "lon": -77.02217466666667, "fusion_lon": 0.0, "bike_id": "1280da9c9fa886cb057cee92de426ef4", "type": "electric_scooter", "name": "1280da9c9fa886cb057cee92de426ef4", "is_reserved": 0, "rental_uris": {"ios": "https://dc.lft.to/lastmile_qr_scan", "android": "https://dc.lft.to/lastmile_qr_scan"}}, {"fusion_lat": 0.0, "is_disabled": 0, "lat": 38.886594333333335, "lon": -76.9367385, "fusion_lon": 0.0, "bike_id": "6a91563b22b4b031720cc0061c65ca64", "type": "electric_scooter", "name": "6a91563b22b4b031720cc0061c65ca64", "is_reserved": 0, "rental_uris": {"ios": "https://dc.lft.to/lastmile_qr_scan", "android": "https://dc.lft.to/lastmile_qr_scan"}}, {"fusion_lat": 0.0, "is_disabled": 0, "lat": 38.92130266666667, "lon": -77.0179765, "fusion_lon": 0.0, "bike_id": "47ce9c86cee48bc53efc85c4b03fdc62", "type": "electric_scooter", "name": "47ce9c86cee48bc53efc85c4b03fdc62", "is_reserved": 0, "rental_uris": {"ios": "https://dc.lft.to/lastmile_qr_scan", "android": "https://dc.lft.to/lastmile_qr_scan"}}, {"fusion_lat": 0.0, "is_disabled": 0, "lat": 38.926140833333335, "lon": -77.02162633333333, "fusion_lon": 0.0, "bike_id": "f41897847f3801e1632409a5bec8bc42", "type": "electric_scooter", "name": "f41897847f3801e1632409a5bec8bc42", "is_reserved": 0, "rental_uris": {"ios": "https://dc.lft.to/lastmile_qr_scan", "android": "https://dc.lft.to/lastmile_qr_scan"}}, {"fusion_lat": 0.0, "is_disabled": 0, "lat": 38.906162, "lon": -76.977982, "fusion_lon": 0.0, "bike_id": "ac3ec1b394d37c26eac8ba0064af1a77", "type": "electric_scooter", "name": "ac3ec1b394d37c26eac8ba0064af1a77", "is_reserved": 0, "rental_uris": {"ios": "https://dc.lft.to/lastmile_qr_scan", "android": "https://dc.lft.to/lastmile_qr_scan"}}, {"fusion_lat": 0.0, "is_disabled": 0, "lat": 38.92062333333333, "lon": -77.04553333333334, "fusion_lon": 0.0, "bike_id": "dc2c7f0f25d773a93d67fe319cc7757c", "type": "electric_scooter", "name": "dc2c7f0f25d773a93d67fe319cc7757c", "is_reserved": 0, "rental_uris": {"ios": "https://dc.lft.to/lastmile_qr_scan", "android": "https://dc.lft.to/lastmile_qr_scan"}}, {"fusion_lat": 0.0, "is_disabled": 0, "lat": 38.95700016666667, "lon": -77.359721, "fusion_lon": 0.0, "bike_id": "97382f06805c61ffd6682bc4d25e5b73", "type": "electric_bike", "name": "97382f06805c61ffd6682bc4d25e5b73", "is_reserved": 0, "rental_uris": {"ios": "https://dc.lft.to/lastmile_qr_scan", "android": "https://dc.lft.to/lastmile_qr_scan"}}, {"fusion_lat": 0.0, "is_disabled": 0, "lat": 38.882390666666666, "lon": -76.99491983333333, "fusion_lon": 0.0, "bike_id": "16879913f809da7bfaaea5e59d5d38d8", "type": "electric_scooter", "name": "16879913f809da7bfaaea5e59d5d38d8", "is_reserved": 0, "rental_uris": {"ios": "https://dc.lft.to/lastmile_qr_scan", "android": "https://dc.lft.to/lastmile_qr_scan"}}, {"fusion_lat": 0.0, "is_disabled": 0, "lat": 38.902409166666665, "lon": -77.03833283333333, "fusion_lon": 0.0, "bike_id": "96b4bf772f71133d21e0e57e76f42258", "type": "electric_scooter", "name": "96b4bf772f71133d21e0e57e76f42258", "is_reserved": 0, "rental_uris": {"ios": "https://dc.lft.to/lastmile_qr_scan", "android": "https://dc.lft.to/lastmile_qr_scan"}}, {"fusion_lat": 0.0, "is_disabled": 0, "lat": 38.91550766666667, "lon": -77.0321475, "fusion_lon": 0.0, "bike_id": "c9a7c7842e6116750d4e16b25c96e445", "type": "electric_scooter", "name": "c9a7c7842e6116750d4e16b25c96e445", "is_reserved": 0, "rental_uris": {"ios": "https://dc.lft.to/lastmile_qr_scan", "android": "https://dc.lft.to/lastmile_qr_scan"}}, {"fusion_lat": 0.0, "is_disabled": 0, "lat": 38.90231216666667, "lon": -77.02692533333334, "fusion_lon": 0.0, "bike_id": "25de06bc0150ec1ba3eddb4180081ce7", "type": "electric_scooter", "name": "25de06bc0150ec1ba3eddb4180081ce7", "is_reserved": 0, "rental_uris": {"ios": "https://dc.lft.to/lastmile_qr_scan", "android": "https://dc.lft.to/lastmile_qr_scan"}}, {"fusion_lat": 0.0, "is_disabled": 0, "lat": 38.9171185, "lon": -77.03416033333333, "fusion_lon": 0.0, "bike_id": "f6130370f3aa1e4bdfa98112a24fbfd7", "type": "electric_scooter", "name": "f6130370f3aa1e4bdfa98112a24fbfd7", "is_reserved": 0, "rental_uris": {"ios": "https://dc.lft.to/lastmile_qr_scan", "android": "https://dc.lft.to/lastmile_qr_scan"}}, {"fusion_lat": 0.0, "is_disabled": 0, "lat": 38.892169833333334, "lon": -77.0222045, "fusion_lon": 0.0, "bike_id": "1bc55c9b3ba82941e533b42e7ade07e1", "type": "electric_scooter", "name": "1bc55c9b3ba82941e533b42e7ade07e1", "is_reserved": 0, "rental_uris": {"ios": "https://dc.lft.to/lastmile_qr_scan", "android": "https://dc.lft.to/lastmile_qr_scan"}}, {"fusion_lat": 0.0, "is_disabled": 0, "lat": 38.916314666666665, "lon": -77.03185883333333, "fusion_lon": 0.0, "bike_id": "f1711410f94d79fc5ec7b398e6643f0b", "type": "electric_scooter", "name": "f1711410f94d79fc5ec7b398e6643f0b", "is_reserved": 0, "rental_uris": {"ios": "https://dc.lft.to/lastmile_qr_scan", "android": "https://dc.lft.to/lastmile_qr_scan"}}, {"fusion_lat": 0.0, "is_disabled": 0, "lat": 38.882742666666665, "lon": -76.93559083333334, "fusion_lon": 0.0, "bike_id": "5e403f0e6f3e3fc4a0f6a923b7d124fb", "type": "electric_scooter", "name": "5e403f0e6f3e3fc4a0f6a923b7d124fb", "is_reserved": 0, "rental_uris": {"ios": "https://dc.lft.to/lastmile_qr_scan", "android": "https://dc.lft.to/lastmile_qr_scan"}}, {"fusion_lat": 0.0, "is_disabled": 0, "lat": 38.9037315, "lon": -77.02981833333334, "fusion_lon": 0.0, "bike_id": "50718d22f6151dd9c5955f3e94f14002", "type": "electric_scooter", "name": "50718d22f6151dd9c5955f3e94f14002", "is_reserved": 0, "rental_uris": {"ios": "https://dc.lft.to/lastmile_qr_scan", "android": "https://dc.lft.to/lastmile_qr_scan"}}, {"fusion_lat": 0.0, "is_disabled": 0, "lat": 38.89894233333333, "lon": -77.03969733333334, "fusion_lon": 0.0, "bike_id": "8c21b82db6982c58d3884421b116a5a1", "type": "electric_scooter", "name": "8c21b82db6982c58d3884421b116a5a1", "is_reserved": 0, "rental_uris": {"ios": "https://dc.lft.to/lastmile_qr_scan", "android": "https://dc.lft.to/lastmile_qr_scan"}}, {"fusion_lat": 0.0, "is_disabled": 0, "lat": 38.89636133333333, "lon": -77.04335216666666, "fusion_lon": 0.0, "bike_id": "6335ab40ab5e406386c2a708cd09abcb", "type": "electric_scooter", "name": "6335ab40ab5e406386c2a708cd09abcb", "is_reserved": 0, "rental_uris": {"ios": "https://dc.lft.to/lastmile_qr_scan", "android": "https://dc.lft.to/lastmile_qr_scan"}}, {"fusion_lat": 0.0, "is_disabled": 0, "lat": 38.92333333333333, "lon": -77.0539405, "fusion_lon": 0.0, "bike_id": "487e32ee0fd94d760a47b0199a68dc2c", "type": "electric_scooter", "name": "487e32ee0fd94d760a47b0199a68dc2c", "is_reserved": 0, "rental_uris": {"ios": "https://dc.lft.to/lastmile_qr_scan", "android": "https://dc.lft.to/lastmile_qr_scan"}}, {"fusion_lat": 0.0, "is_disabled": 0, "lat": 38.90248416666667, "lon": -77.04262016666667, "fusion_lon": 0.0, "bike_id": "b4eb2cafdd374e36fe9ba89e8d596859", "type": "electric_scooter", "name": "b4eb2cafdd374e36fe9ba89e8d596859", "is_reserved": 0, "rental_uris": {"ios": "https://dc.lft.to/lastmile_qr_scan", "android": "https://dc.lft.to/lastmile_qr_scan"}}, {"fusion_lat": 0.0, "is_disabled": 0, "lat": 38.883768833333335, "lon": -77.00887966666667, "fusion_lon": 0.0, "bike_id": "e34efb1e65f369b5767c20612cd42288", "type": "electric_scooter", "name": "e34efb1e65f369b5767c20612cd42288", "is_reserved": 0, "rental_uris": {"ios": "https://dc.lft.to/lastmile_qr_scan", "android": "https://dc.lft.to/lastmile_qr_scan"}}, {"fusion_lat": 0.0, "is_disabled": 0, "lat": 38.90031, "lon": -76.9722225, "fusion_lon": 0.0, "bike_id": "6cfb700dbf2838ad49c7f09a31871b63", "type": "electric_bike", "name": "6cfb700dbf2838ad49c7f09a31871b63", "is_reserved": 0, "rental_uris": {"ios": "https://dc.lft.to/lastmile_qr_scan", "android": "https://dc.lft.to/lastmile_qr_scan"}}, {"fusion_lat": 0.0, "is_disabled": 0, "lat": 39.03425816666667, "lon": -77.04294566666667, "fusion_lon": 0.0, "bike_id": "793d6d32d5d6bc79bf3511b61914467a", "type": "electric_bike", "name": "793d6d32d5d6bc79bf3511b61914467a", "is_reserved": 0, "rental_uris": {"ios": "https://dc.lft.to/lastmile_qr_scan", "android": "https://dc.lft.to/lastmile_qr_scan"}}, {"fusion_lat": 0.0, "is_disabled": 0, "lat": 38.9237015, "lon": -77.051461, "fusion_lon": 0.0, "bike_id": "637e5eb309aa0a41792ebc1bb4ed0b56", "type": "electric_scooter", "name": "637e5eb309aa0a41792ebc1bb4ed0b56", "is_reserved": 0, "rental_uris": {"ios": "https://dc.lft.to/lastmile_qr_scan", "android": "https://dc.lft.to/lastmile_qr_scan"}}, {"fusion_lat": 0.0, "is_disabled": 0, "lat": 38.90350983333333, "lon": -77.04531883333334, "fusion_lon": 0.0, "bike_id": "a024c4387d5b76d34082d7b69e0f7816", "type": "electric_scooter", "name": "a024c4387d5b76d34082d7b69e0f7816", "is_reserved": 0, "rental_uris": {"ios": "https://dc.lft.to/lastmile_qr_scan", "android": "https://dc.lft.to/lastmile_qr_scan"}}, {"fusion_lat": 0.0, "is_disabled": 0, "lat": 38.854356333333335, "lon": -77.083212, "fusion_lon": 0.0, "bike_id": "c03ed0765bb1202b0475f26246662451", "type": "electric_bike", "name": "c03ed0765bb1202b0475f26246662451", "is_reserved": 0, "rental_uris": {"ios": "https://dc.lft.to/lastmile_qr_scan", "android": "https://dc.lft.to/lastmile_qr_scan"}}, {"fusion_lat": 0.0, "is_disabled": 0, "lat": 38.92126916666667, "lon": -77.01796483333334, "fusion_lon": 0.0, "bike_id": "6fc92f240da95658990907fd70f2d638", "type": "electric_scooter", "name": "6fc92f240da95658990907fd70f2d638", "is_reserved": 0, "rental_uris": {"ios": "https://dc.lft.to/lastmile_qr_scan", "android": "https://dc.lft.to/lastmile_qr_scan"}}, {"fusion_lat": 0.0, "is_disabled": 0, "lat": 38.92329866666667, "lon": -77.05680433333333, "fusion_lon": 0.0, "bike_id": "5d429c0d556398d787626af879bcbb79", "type": "electric_scooter", "name": "5d429c0d556398d787626af879bcbb79", "is_reserved": 0, "rental_uris": {"ios": "https://dc.lft.to/lastmile_qr_scan", "android": "https://dc.lft.to/lastmile_qr_scan"}}, {"fusion_lat": 0.0, "is_disabled": 0, "lat": 38.9223725, "lon": -77.02117333333334, "fusion_lon": 0.0, "bike_id": "a18543de4dca6a46748ab12b05e6d914", "type": "electric_scooter", "name": "a18543de4dca6a46748ab12b05e6d914", "is_reserved": 0, "rental_uris": {"ios": "https://dc.lft.to/lastmile_qr_scan", "android": "https://dc.lft.to/lastmile_qr_scan"}}, {"fusion_lat": 0.0, "is_disabled": 0, "lat": 38.875831833333336, "lon": -77.00803233333333, "fusion_lon": 0.0, "bike_id": "e4c5e99696b636946f428b68d8cfe432", "type": "electric_bike", "name": "e4c5e99696b636946f428b68d8cfe432", "is_reserved": 0, "rental_uris": {"ios": "https://dc.lft.to/lastmile_qr_scan", "android": "https://dc.lft.to/lastmile_qr_scan"}}, {"fusion_lat": 0.0, "is_disabled": 0, "lat": 38.91542116666667, "lon": -77.02449983333334, "fusion_lon": 0.0, "bike_id": "4496bf027737a5771c15f24c9b774ccf", "type": "electric_scooter", "name": "4496bf027737a5771c15f24c9b774ccf", "is_reserved": 0, "rental_uris": {"ios": "https://dc.lft.to/lastmile_qr_scan", "android": "https://dc.lft.to/lastmile_qr_scan"}}, {"fusion_lat": 0.0, "is_disabled": 0, "lat": 38.8984205, "lon": -77.03206883333333, "fusion_lon": 0.0, "bike_id": "fc0f1d2d9305979b9995fa2afd9f72da", "type": "electric_scooter", "name": "fc0f1d2d9305979b9995fa2afd9f72da", "is_reserved": 0, "rental_uris": {"ios": "https://dc.lft.to/lastmile_qr_scan", "android": "https://dc.lft.to/lastmile_qr_scan"}}, {"fusion_lat": 0.0, "is_disabled": 0, "lat": 38.895434, "lon": -77.00911516666666, "fusion_lon": 0.0, "bike_id": "e12680f7aaadbc0db622ee0b92a42859", "type": "electric_scooter", "name": "e12680f7aaadbc0db622ee0b92a42859", "is_reserved": 0, "rental_uris": {"ios": "https://dc.lft.to/lastmile_qr_scan", "android": "https://dc.lft.to/lastmile_qr_scan"}}, {"fusion_lat": 0.0, "is_disabled": 0, "lat": 38.904050833333336, "lon": -77.04652433333334, "fusion_lon": 0.0, "bike_id": "fbdf51d088e766d77a78b67fba37a491", "type": "electric_scooter", "name": "fbdf51d088e766d77a78b67fba37a491", "is_reserved": 0, "rental_uris": {"ios": "https://dc.lft.to/lastmile_qr_scan", "android": "https://dc.lft.to/lastmile_qr_scan"}}, {"fusion_lat": 0.0, "is_disabled": 0, "lat": 38.919129833333336, "lon": -77.03394433333334, "fusion_lon": 0.0, "bike_id": "e8a3b6564b730e49f0e664a9e353a9c9", "type": "electric_scooter", "name": "e8a3b6564b730e49f0e664a9e353a9c9", "is_reserved": 0, "rental_uris": {"ios": "https://dc.lft.to/lastmile_qr_scan", "android": "https://dc.lft.to/lastmile_qr_scan"}}, {"fusion_lat": 0.0, "is_disabled": 0, "lat": 38.91116433333333, "lon": -77.044787, "fusion_lon": 0.0, "bike_id": "b04b99b7dc9a7888120128cb934b3d56", "type": "electric_scooter", "name": "b04b99b7dc9a7888120128cb934b3d56", "is_reserved": 0, "rental_uris": {"ios": "https://dc.lft.to/lastmile_qr_scan", "android": "https://dc.lft.to/lastmile_qr_scan"}}, {"fusion_lat": 0.0, "is_disabled": 0, "lat": 38.924060833333336, "lon": -77.0203415, "fusion_lon": 0.0, "bike_id": "5b43efbbb3d74a743b14d30e87de0bc0", "type": "electric_scooter", "name": "5b43efbbb3d74a743b14d30e87de0bc0", "is_reserved": 0, "rental_uris": {"ios": "https://dc.lft.to/lastmile_qr_scan", "android": "https://dc.lft.to/lastmile_qr_scan"}}, {"fusion_lat": 0.0, "is_disabled": 0, "lat": 38.897773, "lon": -77.0120055, "fusion_lon": 0.0, "bike_id": "e99b4e9fa39b1bcb2b02f43dad7722db", "type": "electric_scooter", "name": "e99b4e9fa39b1bcb2b02f43dad7722db", "is_reserved": 0, "rental_uris": {"ios": "https://dc.lft.to/lastmile_qr_scan", "android": "https://dc.lft.to/lastmile_qr_scan"}}, {"fusion_lat": 0.0, "is_disabled": 0, "lat": 38.902548833333334, "lon": -77.04513533333333, "fusion_lon": 0.0, "bike_id": "6a74b4c9b984759a591e479f5281ea57", "type": "electric_scooter", "name": "6a74b4c9b984759a591e479f5281ea57", "is_reserved": 0, "rental_uris": {"ios": "https://dc.lft.to/lastmile_qr_scan", "android": "https://dc.lft.to/lastmile_qr_scan"}}, {"fusion_lat": 0.0, "is_disabled": 0, "lat": 38.901337833333336, "lon": -77.0444595, "fusion_lon": 0.0, "bike_id": "3902fff0a520ee1384a11dad66b9e3eb", "type": "electric_scooter", "name": "3902fff0a520ee1384a11dad66b9e3eb", "is_reserved": 0, "rental_uris": {"ios": "https://dc.lft.to/lastmile_qr_scan", "android": "https://dc.lft.to/lastmile_qr_scan"}}, {"fusion_lat": 0.0, "is_disabled": 0, "lat": 38.89228166666667, "lon": -77.02749, "fusion_lon": 0.0, "bike_id": "9474353b18d4fddb2db2c349da1e3eca", "type": "electric_scooter", "name": "9474353b18d4fddb2db2c349da1e3eca", "is_reserved": 0, "rental_uris": {"ios": "https://dc.lft.to/lastmile_qr_scan", "android": "https://dc.lft.to/lastmile_qr_scan"}}, {"fusion_lat": 0.0, "is_disabled": 0, "lat": 38.89512033333333, "lon": -77.01982733333334, "fusion_lon": 0.0, "bike_id": "7029dd79120476f4790f3e09ba1a13b1", "type": "electric_scooter", "name": "7029dd79120476f4790f3e09ba1a13b1", "is_reserved": 0, "rental_uris": {"ios": "https://dc.lft.to/lastmile_qr_scan", "android": "https://dc.lft.to/lastmile_qr_scan"}}, {"fusion_lat": 0.0, "is_disabled": 0, "lat": 38.933573, "lon": -77.061481, "fusion_lon": 0.0, "bike_id": "b5e49f03882179419e9dbb2acd8cad96", "type": "electric_scooter", "name": "b5e49f03882179419e9dbb2acd8cad96", "is_reserved": 0, "rental_uris": {"ios": "https://dc.lft.to/lastmile_qr_scan", "android": "https://dc.lft.to/lastmile_qr_scan"}}, {"fusion_lat": 0.0, "is_disabled": 0, "lat": 38.895723333333336, "lon": -77.01359083333334, "fusion_lon": 0.0, "bike_id": "a7d3fa9422d39aadb4067d8644c0123b", "type": "electric_scooter", "name": "a7d3fa9422d39aadb4067d8644c0123b", "is_reserved": 0, "rental_uris": {"ios": "https://dc.lft.to/lastmile_qr_scan", "android": "https://dc.lft.to/lastmile_qr_scan"}}, {"fusion_lat": 0.0, "is_disabled": 0, "lat": 38.93236533333334, "lon": -77.0408405, "fusion_lon": 0.0, "bike_id": "483dad94bd6f5c6f61bde4a2976dfeba", "type": "electric_scooter", "name": "483dad94bd6f5c6f61bde4a2976dfeba", "is_reserved": 0, "rental_uris": {"ios": "https://dc.lft.to/lastmile_qr_scan", "android": "https://dc.lft.to/lastmile_qr_scan"}}, {"fusion_lat": 0.0, "is_disabled": 0, "lat": 38.90599666666667, "lon": -77.1289195, "fusion_lon": 0.0, "bike_id": "22af938aa7b36393d42f3a6b667326d1", "type": "electric_bike", "name": "22af938aa7b36393d42f3a6b667326d1", "is_reserved": 0, "rental_uris": {"ios": "https://dc.lft.to/lastmile_qr_scan", "android": "https://dc.lft.to/lastmile_qr_scan"}}, {"fusion_lat": 0.0, "is_disabled": 0, "lat": 38.8922265, "lon": -77.02423933333333, "fusion_lon": 0.0, "bike_id": "e483ffd3393ed6eed4a67602f2776a49", "type": "electric_scooter", "name": "e483ffd3393ed6eed4a67602f2776a49", "is_reserved": 0, "rental_uris": {"ios": "https://dc.lft.to/lastmile_qr_scan", "android": "https://dc.lft.to/lastmile_qr_scan"}}, {"fusion_lat": 0.0, "is_disabled": 0, "lat": 38.8950485, "lon": -77.00338083333334, "fusion_lon": 0.0, "bike_id": "4a38439cd1130824221eaa15bed535b1", "type": "electric_scooter", "name": "4a38439cd1130824221eaa15bed535b1", "is_reserved": 0, "rental_uris": {"ios": "https://dc.lft.to/lastmile_qr_scan", "android": "https://dc.lft.to/lastmile_qr_scan"}}, {"fusion_lat": 0.0, "is_disabled": 0, "lat": 38.90394166666667, "lon": -77.06298933333333, "fusion_lon": 0.0, "bike_id": "7af03a699b6693a474724af3ee315bba", "type": "electric_scooter", "name": "7af03a699b6693a474724af3ee315bba", "is_reserved": 0, "rental_uris": {"ios": "https://dc.lft.to/lastmile_qr_scan", "android": "https://dc.lft.to/lastmile_qr_scan"}}, {"fusion_lat": 0.0, "is_disabled": 0, "lat": 38.9206235, "lon": -76.97076433333334, "fusion_lon": 0.0, "bike_id": "611d39babd5e6fa188ba314e4fb9b060", "type": "electric_bike", "name": "611d39babd5e6fa188ba314e4fb9b060", "is_reserved": 0, "rental_uris": {"ios": "https://dc.lft.to/lastmile_qr_scan", "android": "https://dc.lft.to/lastmile_qr_scan"}}, {"fusion_lat": 0.0, "is_disabled": 0, "lat": 38.89695066666667, "lon": -77.03274366666666, "fusion_lon": 0.0, "bike_id": "e6fc0edcf907821dada227cf067ec427", "type": "electric_scooter", "name": "e6fc0edcf907821dada227cf067ec427", "is_reserved": 0, "rental_uris": {"ios": "https://dc.lft.to/lastmile_qr_scan", "android": "https://dc.lft.to/lastmile_qr_scan"}}, {"fusion_lat": 0.0, "is_disabled": 0, "lat": 38.9344185, "lon": -77.02979266666667, "fusion_lon": 0.0, "bike_id": "205f8878c8293bbf9b8ddeac802a9245", "type": "electric_scooter", "name": "205f8878c8293bbf9b8ddeac802a9245", "is_reserved": 0, "rental_uris": {"ios": "https://dc.lft.to/lastmile_qr_scan", "android": "https://dc.lft.to/lastmile_qr_scan"}}, {"fusion_lat": 0.0, "is_disabled": 0, "lat": 38.91452783333333, "lon": -77.0219625, "fusion_lon": 0.0, "bike_id": "7b1cde392eb21caf1e70d1a042e43c44", "type": "electric_scooter", "name": "7b1cde392eb21caf1e70d1a042e43c44", "is_reserved": 0, "rental_uris": {"ios": "https://dc.lft.to/lastmile_qr_scan", "android": "https://dc.lft.to/lastmile_qr_scan"}}, {"fusion_lat": 0.0, "is_disabled": 0, "lat": 38.928505666666666, "lon": -77.014075, "fusion_lon": 0.0, "bike_id": "e57bbe41d49ce28e150e4788da9abb4d", "type": "electric_scooter", "name": "e57bbe41d49ce28e150e4788da9abb4d", "is_reserved": 0, "rental_uris": {"ios": "https://dc.lft.to/lastmile_qr_scan", "android": "https://dc.lft.to/lastmile_qr_scan"}}, {"fusion_lat": 0.0, "is_disabled": 0, "lat": 38.889864333333335, "lon": -77.00340716666666, "fusion_lon": 0.0, "bike_id": "8b08dbaa02b873196fb9031823f89f2d", "type": "electric_scooter", "name": "8b08dbaa02b873196fb9031823f89f2d", "is_reserved": 0, "rental_uris": {"ios": "https://dc.lft.to/lastmile_qr_scan", "android": "https://dc.lft.to/lastmile_qr_scan"}}, {"fusion_lat": 0.0, "is_disabled": 0, "lat": 38.917077, "lon": -77.034123, "fusion_lon": 0.0, "bike_id": "367aed8fc77926a35e9973357922c06f", "type": "electric_scooter", "name": "367aed8fc77926a35e9973357922c06f", "is_reserved": 0, "rental_uris": {"ios": "https://dc.lft.to/lastmile_qr_scan", "android": "https://dc.lft.to/lastmile_qr_scan"}}, {"fusion_lat": 0.0, "is_disabled": 0, "lat": 38.887020666666665, "lon": -77.01366216666666, "fusion_lon": 0.0, "bike_id": "e3cd31be4f856478b301cf9e606d8565", "type": "electric_scooter", "name": "e3cd31be4f856478b301cf9e606d8565", "is_reserved": 0, "rental_uris": {"ios": "https://dc.lft.to/lastmile_qr_scan", "android": "https://dc.lft.to/lastmile_qr_scan"}}, {"fusion_lat": 0.0, "is_disabled": 0, "lat": 38.90250433333333, "lon": -77.03464083333333, "fusion_lon": 0.0, "bike_id": "5c26cb94b8b9898d77996c0c0705474a", "type": "electric_scooter", "name": "5c26cb94b8b9898d77996c0c0705474a", "is_reserved": 0, "rental_uris": {"ios": "https://dc.lft.to/lastmile_qr_scan", "android": "https://dc.lft.to/lastmile_qr_scan"}}, {"fusion_lat": 0.0, "is_disabled": 0, "lat": 38.9244625, "lon": -77.02244516666667, "fusion_lon": 0.0, "bike_id": "ce71c87b15a70b7d43d71b553353887c", "type": "electric_scooter", "name": "ce71c87b15a70b7d43d71b553353887c", "is_reserved": 0, "rental_uris": {"ios": "https://dc.lft.to/lastmile_qr_scan", "android": "https://dc.lft.to/lastmile_qr_scan"}}, {"fusion_lat": 0.0, "is_disabled": 0, "lat": 38.897326, "lon": -77.03229216666666, "fusion_lon": 0.0, "bike_id": "c074eb4a85790803d27c378fc09583b3", "type": "electric_scooter", "name": "c074eb4a85790803d27c378fc09583b3", "is_reserved": 0, "rental_uris": {"ios": "https://dc.lft.to/lastmile_qr_scan", "android": "https://dc.lft.to/lastmile_qr_scan"}}, {"fusion_lat": 0.0, "is_disabled": 0, "lat": 38.88371816666667, "lon": -76.99521483333334, "fusion_lon": 0.0, "bike_id": "3b89383c8a2cc08992831bede5925d17", "type": "electric_scooter", "name": "3b89383c8a2cc08992831bede5925d17", "is_reserved": 0, "rental_uris": {"ios": "https://dc.lft.to/lastmile_qr_scan", "android": "https://dc.lft.to/lastmile_qr_scan"}}, {"fusion_lat": 0.0, "is_disabled": 0, "lat": 38.9232865, "lon": -77.02080783333334, "fusion_lon": 0.0, "bike_id": "9df3fcff02189ad18a4ed9e6d4764b8c", "type": "electric_scooter", "name": "9df3fcff02189ad18a4ed9e6d4764b8c", "is_reserved": 0, "rental_uris": {"ios": "https://dc.lft.to/lastmile_qr_scan", "android": "https://dc.lft.to/lastmile_qr_scan"}}, {"fusion_lat": 0.0, "is_disabled": 0, "lat": 38.904685, "lon": -77.03211533333334, "fusion_lon": 0.0, "bike_id": "6fe288ee9a91d1b4dc1ca4cfe90166d8", "type": "electric_scooter", "name": "6fe288ee9a91d1b4dc1ca4cfe90166d8", "is_reserved": 0, "rental_uris": {"ios": "https://dc.lft.to/lastmile_qr_scan", "android": "https://dc.lft.to/lastmile_qr_scan"}}, {"fusion_lat": 0.0, "is_disabled": 0, "lat": 38.924677833333334, "lon": -77.0221105, "fusion_lon": 0.0, "bike_id": "37d5d2c4714efbfb79061ce281548f2b", "type": "electric_scooter", "name": "37d5d2c4714efbfb79061ce281548f2b", "is_reserved": 0, "rental_uris": {"ios": "https://dc.lft.to/lastmile_qr_scan", "android": "https://dc.lft.to/lastmile_qr_scan"}}, {"fusion_lat": 0.0, "is_disabled": 0, "lat": 38.8991205, "lon": -77.0138145, "fusion_lon": 0.0, "bike_id": "600a764821a1cbf0e6043152d219a838", "type": "electric_scooter", "name": "600a764821a1cbf0e6043152d219a838", "is_reserved": 0, "rental_uris": {"ios": "https://dc.lft.to/lastmile_qr_scan", "android": "https://dc.lft.to/lastmile_qr_scan"}}, {"fusion_lat": 0.0, "is_disabled": 0, "lat": 38.93446516666667, "lon": -77.02093816666667, "fusion_lon": 0.0, "bike_id": "eb670a7ba7ca885176ee4d5919ce4c39", "type": "electric_scooter", "name": "eb670a7ba7ca885176ee4d5919ce4c39", "is_reserved": 0, "rental_uris": {"ios": "https://dc.lft.to/lastmile_qr_scan", "android": "https://dc.lft.to/lastmile_qr_scan"}}, {"fusion_lat": 0.0, "is_disabled": 0, "lat": 38.907011833333335, "lon": -76.98695283333333, "fusion_lon": 0.0, "bike_id": "ca7c29363aac99b572d2b9dee14e01f4", "type": "electric_scooter", "name": "ca7c29363aac99b572d2b9dee14e01f4", "is_reserved": 0, "rental_uris": {"ios": "https://dc.lft.to/lastmile_qr_scan", "android": "https://dc.lft.to/lastmile_qr_scan"}}, {"fusion_lat": 0.0, "is_disabled": 0, "lat": 38.88717366666667, "lon": -76.99647333333333, "fusion_lon": 0.0, "bike_id": "d34b286b41876357c3536acabbf63593", "type": "electric_scooter", "name": "d34b286b41876357c3536acabbf63593", "is_reserved": 0, "rental_uris": {"ios": "https://dc.lft.to/lastmile_qr_scan", "android": "https://dc.lft.to/lastmile_qr_scan"}}, {"fusion_lat": 0.0, "is_disabled": 0, "lat": 38.90283, "lon": -77.04460783333333, "fusion_lon": 0.0, "bike_id": "8e331abe133482649e80ddf26924e8c1", "type": "electric_scooter", "name": "8e331abe133482649e80ddf26924e8c1", "is_reserved": 0, "rental_uris": {"ios": "https://dc.lft.to/lastmile_qr_scan", "android": "https://dc.lft.to/lastmile_qr_scan"}}, {"fusion_lat": 0.0, "is_disabled": 0, "lat": 38.926863833333336, "lon": -77.029639, "fusion_lon": 0.0, "bike_id": "614e823e9180f56e295caf599f5698db", "type": "electric_scooter", "name": "614e823e9180f56e295caf599f5698db", "is_reserved": 0, "rental_uris": {"ios": "https://dc.lft.to/lastmile_qr_scan", "android": "https://dc.lft.to/lastmile_qr_scan"}}, {"fusion_lat": 0.0, "is_disabled": 0, "lat": 38.917963, "lon": -77.03127683333334, "fusion_lon": 0.0, "bike_id": "833ae30a18e5196e30b9d17cbb1766ea", "type": "electric_scooter", "name": "833ae30a18e5196e30b9d17cbb1766ea", "is_reserved": 0, "rental_uris": {"ios": "https://dc.lft.to/lastmile_qr_scan", "android": "https://dc.lft.to/lastmile_qr_scan"}}, {"fusion_lat": 0.0, "is_disabled": 0, "lat": 38.897204, "lon": -77.05525866666666, "fusion_lon": 0.0, "bike_id": "b5b58bd699b7c1c76740c97e4cd05ac4", "type": "electric_scooter", "name": "b5b58bd699b7c1c76740c97e4cd05ac4", "is_reserved": 0, "rental_uris": {"ios": "https://dc.lft.to/lastmile_qr_scan", "android": "https://dc.lft.to/lastmile_qr_scan"}}, {"fusion_lat": 0.0, "is_disabled": 0, "lat": 38.870582666666664, "lon": -77.11041416666667, "fusion_lon": 0.0, "bike_id": "3d6408dedf366d916eb00cac67c6447d", "type": "electric_bike", "name": "3d6408dedf366d916eb00cac67c6447d", "is_reserved": 0, "rental_uris": {"ios": "https://dc.lft.to/lastmile_qr_scan", "android": "https://dc.lft.to/lastmile_qr_scan"}}, {"fusion_lat": 0.0, "is_disabled": 0, "lat": 38.9266095, "lon": -77.01469033333333, "fusion_lon": 0.0, "bike_id": "f753dc68911b44ff20232e213ac0b172", "type": "electric_scooter", "name": "f753dc68911b44ff20232e213ac0b172", "is_reserved": 0, "rental_uris": {"ios": "https://dc.lft.to/lastmile_qr_scan", "android": "https://dc.lft.to/lastmile_qr_scan"}}, {"fusion_lat": 0.0, "is_disabled": 0, "lat": 38.914202333333336, "lon": -77.04503433333333, "fusion_lon": 0.0, "bike_id": "4e3cddd63e0f6dd2616444eb442257aa", "type": "electric_scooter", "name": "4e3cddd63e0f6dd2616444eb442257aa", "is_reserved": 0, "rental_uris": {"ios": "https://dc.lft.to/lastmile_qr_scan", "android": "https://dc.lft.to/lastmile_qr_scan"}}, {"fusion_lat": 0.0, "is_disabled": 0, "lat": 38.964088833333335, "lon": -77.032902, "fusion_lon": 0.0, "bike_id": "0006c4044b5bcea5912076a1314cd91c", "type": "electric_scooter", "name": "0006c4044b5bcea5912076a1314cd91c", "is_reserved": 0, "rental_uris": {"ios": "https://dc.lft.to/lastmile_qr_scan", "android": "https://dc.lft.to/lastmile_qr_scan"}}, {"fusion_lat": 0.0, "is_disabled": 0, "lat": 38.903338166666664, "lon": -77.0383575, "fusion_lon": 0.0, "bike_id": "59da94b5622b9cff120ff051a4a64404", "type": "electric_scooter", "name": "59da94b5622b9cff120ff051a4a64404", "is_reserved": 0, "rental_uris": {"ios": "https://dc.lft.to/lastmile_qr_scan", "android": "https://dc.lft.to/lastmile_qr_scan"}}, {"fusion_lat": 0.0, "is_disabled": 0, "lat": 38.923919, "lon": -77.02087083333333, "fusion_lon": 0.0, "bike_id": "1c476e72a450a3e5bf4d1474dd91e83a", "type": "electric_scooter", "name": "1c476e72a450a3e5bf4d1474dd91e83a", "is_reserved": 0, "rental_uris": {"ios": "https://dc.lft.to/lastmile_qr_scan", "android": "https://dc.lft.to/lastmile_qr_scan"}}, {"fusion_lat": 0.0, "is_disabled": 0, "lat": 38.9240395, "lon": -77.02257566666667, "fusion_lon": 0.0, "bike_id": "43b7ebd09aba5f2981bfbea90502bb3b", "type": "electric_scooter", "name": "43b7ebd09aba5f2981bfbea90502bb3b", "is_reserved": 0, "rental_uris": {"ios": "https://dc.lft.to/lastmile_qr_scan", "android": "https://dc.lft.to/lastmile_qr_scan"}}, {"fusion_lat": 0.0, "is_disabled": 0, "lat": 38.87470533333333, "lon": -77.00509083333333, "fusion_lon": 0.0, "bike_id": "3297243859a29b2066404245558085e5", "type": "electric_scooter", "name": "3297243859a29b2066404245558085e5", "is_reserved": 0, "rental_uris": {"ios": "https://dc.lft.to/lastmile_qr_scan", "android": "https://dc.lft.to/lastmile_qr_scan"}}, {"fusion_lat": 0.0, "is_disabled": 0, "lat": 38.902456, "lon": -77.0149725, "fusion_lon": 0.0, "bike_id": "b10b710850bfa4ad7898797da4b1dffc", "type": "electric_scooter", "name": "b10b710850bfa4ad7898797da4b1dffc", "is_reserved": 0, "rental_uris": {"ios": "https://dc.lft.to/lastmile_qr_scan", "android": "https://dc.lft.to/lastmile_qr_scan"}}, {"fusion_lat": 0.0, "is_disabled": 0, "lat": 38.915622166666665, "lon": -77.03258633333333, "fusion_lon": 0.0, "bike_id": "4d64f16678b01064e87e1d53f9d84546", "type": "electric_scooter", "name": "4d64f16678b01064e87e1d53f9d84546", "is_reserved": 0, "rental_uris": {"ios": "https://dc.lft.to/lastmile_qr_scan", "android": "https://dc.lft.to/lastmile_qr_scan"}}, {"fusion_lat": 0.0, "is_disabled": 0, "lat": 38.92425866666667, "lon": -77.02136133333333, "fusion_lon": 0.0, "bike_id": "8111809d9a271cf54127c6c719e3795f", "type": "electric_scooter", "name": "8111809d9a271cf54127c6c719e3795f", "is_reserved": 0, "rental_uris": {"ios": "https://dc.lft.to/lastmile_qr_scan", "android": "https://dc.lft.to/lastmile_qr_scan"}}, {"fusion_lat": 0.0, "is_disabled": 0, "lat": 38.92470816666667, "lon": -77.03786883333333, "fusion_lon": 0.0, "bike_id": "577a76bfa569e52a84f105c66251c507", "type": "electric_scooter", "name": "577a76bfa569e52a84f105c66251c507", "is_reserved": 0, "rental_uris": {"ios": "https://dc.lft.to/lastmile_qr_scan", "android": "https://dc.lft.to/lastmile_qr_scan"}}, {"fusion_lat": 0.0, "is_disabled": 0, "lat": 38.86479583333333, "lon": -76.97750133333334, "fusion_lon": 0.0, "bike_id": "ea2cefffdd574bc571dcae69f55fe3d3", "type": "electric_bike", "name": "ea2cefffdd574bc571dcae69f55fe3d3", "is_reserved": 0, "rental_uris": {"ios": "https://dc.lft.to/lastmile_qr_scan", "android": "https://dc.lft.to/lastmile_qr_scan"}}, {"fusion_lat": 0.0, "is_disabled": 0, "lat": 38.901675166666664, "lon": -77.04876783333333, "fusion_lon": 0.0, "bike_id": "bb5c9e50dceaf0fde74b5f2c7c389654", "type": "electric_scooter", "name": "bb5c9e50dceaf0fde74b5f2c7c389654", "is_reserved": 0, "rental_uris": {"ios": "https://dc.lft.to/lastmile_qr_scan", "android": "https://dc.lft.to/lastmile_qr_scan"}}, {"fusion_lat": 0.0, "is_disabled": 0, "lat": 38.957484, "lon": -76.98024066666666, "fusion_lon": 0.0, "bike_id": "bb8d3905bf0c6324228bfab532dccf99", "type": "electric_bike", "name": "bb8d3905bf0c6324228bfab532dccf99", "is_reserved": 0, "rental_uris": {"ios": "https://dc.lft.to/lastmile_qr_scan", "android": "https://dc.lft.to/lastmile_qr_scan"}}, {"fusion_lat": 0.0, "is_disabled": 0, "lat": 38.857857833333334, "lon": -77.0996425, "fusion_lon": 0.0, "bike_id": "47057b84025aaddb980422f7e0912442", "type": "electric_bike", "name": "47057b84025aaddb980422f7e0912442", "is_reserved": 0, "rental_uris": {"ios": "https://dc.lft.to/lastmile_qr_scan", "android": "https://dc.lft.to/lastmile_qr_scan"}}, {"fusion_lat": 0.0, "is_disabled": 0, "lat": 38.95585666666667, "lon": -77.02811183333333, "fusion_lon": 0.0, "bike_id": "afa8fe693589362df0c9fad2f878d831", "type": "electric_scooter", "name": "afa8fe693589362df0c9fad2f878d831", "is_reserved": 0, "rental_uris": {"ios": "https://dc.lft.to/lastmile_qr_scan", "android": "https://dc.lft.to/lastmile_qr_scan"}}, {"fusion_lat": 0.0, "is_disabled": 0, "lat": 38.898356, "lon": -77.028596, "fusion_lon": 0.0, "bike_id": "2eb3b0d7f370b69028800fc9b30a18ee", "type": "electric_scooter", "name": "2eb3b0d7f370b69028800fc9b30a18ee", "is_reserved": 0, "rental_uris": {"ios": "https://dc.lft.to/lastmile_qr_scan", "android": "https://dc.lft.to/lastmile_qr_scan"}}, {"fusion_lat": 0.0, "is_disabled": 0, "lat": 38.91587533333333, "lon": -77.04029933333334, "fusion_lon": 0.0, "bike_id": "f541eb70bd0a790f44e2af2372541214", "type": "electric_scooter", "name": "f541eb70bd0a790f44e2af2372541214", "is_reserved": 0, "rental_uris": {"ios": "https://dc.lft.to/lastmile_qr_scan", "android": "https://dc.lft.to/lastmile_qr_scan"}}, {"fusion_lat": 0.0, "is_disabled": 0, "lat": 38.901566833333334, "lon": -76.9823185, "fusion_lon": 0.0, "bike_id": "1d5940e46e5fd3e3e6ccbf190826a5d1", "type": "electric_scooter", "name": "1d5940e46e5fd3e3e6ccbf190826a5d1", "is_reserved": 0, "rental_uris": {"ios": "https://dc.lft.to/lastmile_qr_scan", "android": "https://dc.lft.to/lastmile_qr_scan"}}, {"fusion_lat": 0.0, "is_disabled": 0, "lat": 38.92587183333333, "lon": -77.02574616666666, "fusion_lon": 0.0, "bike_id": "e6008ee5f843756ced17ce33c6085dd2", "type": "electric_scooter", "name": "e6008ee5f843756ced17ce33c6085dd2", "is_reserved": 0, "rental_uris": {"ios": "https://dc.lft.to/lastmile_qr_scan", "android": "https://dc.lft.to/lastmile_qr_scan"}}, {"fusion_lat": 0.0, "is_disabled": 0, "lat": 38.90630766666666, "lon": -77.0434085, "fusion_lon": 0.0, "bike_id": "7eb505759c65af9fa74b8d5ac27c0659", "type": "electric_scooter", "name": "7eb505759c65af9fa74b8d5ac27c0659", "is_reserved": 0, "rental_uris": {"ios": "https://dc.lft.to/lastmile_qr_scan", "android": "https://dc.lft.to/lastmile_qr_scan"}}, {"fusion_lat": 0.0, "is_disabled": 0, "lat": 38.85218833333333, "lon": -76.993773, "fusion_lon": 0.0, "bike_id": "4c36930b97951fe73a6328a1b3ebb134", "type": "electric_scooter", "name": "4c36930b97951fe73a6328a1b3ebb134", "is_reserved": 0, "rental_uris": {"ios": "https://dc.lft.to/lastmile_qr_scan", "android": "https://dc.lft.to/lastmile_qr_scan"}}, {"fusion_lat": 0.0, "is_disabled": 0, "lat": 38.894801, "lon": -77.04178533333334, "fusion_lon": 0.0, "bike_id": "8fbeb865771f09d86d41be646f39d1a2", "type": "electric_scooter", "name": "8fbeb865771f09d86d41be646f39d1a2", "is_reserved": 0, "rental_uris": {"ios": "https://dc.lft.to/lastmile_qr_scan", "android": "https://dc.lft.to/lastmile_qr_scan"}}, {"fusion_lat": 0.0, "is_disabled": 0, "lat": 38.90485316666667, "lon": -77.034784, "fusion_lon": 0.0, "bike_id": "c3e64aecfa31872fe3d62eb049bda0aa", "type": "electric_scooter", "name": "c3e64aecfa31872fe3d62eb049bda0aa", "is_reserved": 0, "rental_uris": {"ios": "https://dc.lft.to/lastmile_qr_scan", "android": "https://dc.lft.to/lastmile_qr_scan"}}, {"fusion_lat": 0.0, "is_disabled": 0, "lat": 38.85557983333333, "lon": -77.063263, "fusion_lon": 0.0, "bike_id": "93fd74f1d22ef6f77b1294de3514119e", "type": "electric_bike", "name": "93fd74f1d22ef6f77b1294de3514119e", "is_reserved": 0, "rental_uris": {"ios": "https://dc.lft.to/lastmile_qr_scan", "android": "https://dc.lft.to/lastmile_qr_scan"}}, {"fusion_lat": 0.0, "is_disabled": 0, "lat": 38.92558833333333, "lon": -77.02278983333333, "fusion_lon": 0.0, "bike_id": "65924250de4b994f250fe93fc939d5bc", "type": "electric_scooter", "name": "65924250de4b994f250fe93fc939d5bc", "is_reserved": 0, "rental_uris": {"ios": "https://dc.lft.to/lastmile_qr_scan", "android": "https://dc.lft.to/lastmile_qr_scan"}}, {"fusion_lat": 0.0, "is_disabled": 0, "lat": 38.90140533333334, "lon": -77.01222216666666, "fusion_lon": 0.0, "bike_id": "76e1db9a4d7903b51bee95b684b54162", "type": "electric_scooter", "name": "76e1db9a4d7903b51bee95b684b54162", "is_reserved": 0, "rental_uris": {"ios": "https://dc.lft.to/lastmile_qr_scan", "android": "https://dc.lft.to/lastmile_qr_scan"}}, {"fusion_lat": 0.0, "is_disabled": 0, "lat": 38.923263666666664, "lon": -77.05677666666666, "fusion_lon": 0.0, "bike_id": "388a62e95678fcc7400b9c51a47e460e", "type": "electric_scooter", "name": "388a62e95678fcc7400b9c51a47e460e", "is_reserved": 0, "rental_uris": {"ios": "https://dc.lft.to/lastmile_qr_scan", "android": "https://dc.lft.to/lastmile_qr_scan"}}, {"fusion_lat": 0.0, "is_disabled": 0, "lat": 38.905350166666665, "lon": -77.05030383333333, "fusion_lon": 0.0, "bike_id": "c8216a58228fcea169789abb9f24198e", "type": "electric_scooter", "name": "c8216a58228fcea169789abb9f24198e", "is_reserved": 0, "rental_uris": {"ios": "https://dc.lft.to/lastmile_qr_scan", "android": "https://dc.lft.to/lastmile_qr_scan"}}, {"fusion_lat": 0.0, "is_disabled": 0, "lat": 38.8422095, "lon": -76.94893083333334, "fusion_lon": 0.0, "bike_id": "f68aebcb9c8f3e6cc916041907d44291", "type": "electric_bike", "name": "f68aebcb9c8f3e6cc916041907d44291", "is_reserved": 0, "rental_uris": {"ios": "https://dc.lft.to/lastmile_qr_scan", "android": "https://dc.lft.to/lastmile_qr_scan"}}, {"fusion_lat": 0.0, "is_disabled": 0, "lat": 38.862458, "lon": -76.99504866666666, "fusion_lon": 0.0, "bike_id": "547ab9b7f09d6785f314cd0c0d61401a", "type": "electric_scooter", "name": "547ab9b7f09d6785f314cd0c0d61401a", "is_reserved": 0, "rental_uris": {"ios": "https://dc.lft.to/lastmile_qr_scan", "android": "https://dc.lft.to/lastmile_qr_scan"}}, {"fusion_lat": 0.0, "is_disabled": 0, "lat": 38.916802833333335, "lon": -77.02716766666667, "fusion_lon": 0.0, "bike_id": "4fb857a35a390e05ef3ed75e004e52a7", "type": "electric_scooter", "name": "4fb857a35a390e05ef3ed75e004e52a7", "is_reserved": 0, "rental_uris": {"ios": "https://dc.lft.to/lastmile_qr_scan", "android": "https://dc.lft.to/lastmile_qr_scan"}}, {"fusion_lat": 0.0, "is_disabled": 0, "lat": 38.87637733333333, "lon": -77.00083516666666, "fusion_lon": 0.0, "bike_id": "ab2cbb92b4065c93921e544e0c4f71fa", "type": "electric_scooter", "name": "ab2cbb92b4065c93921e544e0c4f71fa", "is_reserved": 0, "rental_uris": {"ios": "https://dc.lft.to/lastmile_qr_scan", "android": "https://dc.lft.to/lastmile_qr_scan"}}, {"fusion_lat": 0.0, "is_disabled": 0, "lat": 38.882421, "lon": -76.99500766666667, "fusion_lon": 0.0, "bike_id": "1173aa65489c8638576f4b3488f9b519", "type": "electric_scooter", "name": "1173aa65489c8638576f4b3488f9b519", "is_reserved": 0, "rental_uris": {"ios": "https://dc.lft.to/lastmile_qr_scan", "android": "https://dc.lft.to/lastmile_qr_scan"}}, {"fusion_lat": 0.0, "is_disabled": 0, "lat": 38.89818666666667, "lon": -77.02985633333333, "fusion_lon": 0.0, "bike_id": "e4069b34b93b4060afb74849cfb8b6e1", "type": "electric_scooter", "name": "e4069b34b93b4060afb74849cfb8b6e1", "is_reserved": 0, "rental_uris": {"ios": "https://dc.lft.to/lastmile_qr_scan", "android": "https://dc.lft.to/lastmile_qr_scan"}}, {"fusion_lat": 0.0, "is_disabled": 0, "lat": 38.9102695, "lon": -77.04334883333334, "fusion_lon": 0.0, "bike_id": "685d3366d72d01f63421fd854dcee5b4", "type": "electric_scooter", "name": "685d3366d72d01f63421fd854dcee5b4", "is_reserved": 0, "rental_uris": {"ios": "https://dc.lft.to/lastmile_qr_scan", "android": "https://dc.lft.to/lastmile_qr_scan"}}, {"fusion_lat": 0.0, "is_disabled": 0, "lat": 38.90592616666667, "lon": -77.04125166666667, "fusion_lon": 0.0, "bike_id": "3df55ff3f147c10ecf2d9cf9eec3f6ff", "type": "electric_scooter", "name": "3df55ff3f147c10ecf2d9cf9eec3f6ff", "is_reserved": 0, "rental_uris": {"ios": "https://dc.lft.to/lastmile_qr_scan", "android": "https://dc.lft.to/lastmile_qr_scan"}}, {"fusion_lat": 0.0, "is_disabled": 0, "lat": 38.92480283333333, "lon": -77.02270416666667, "fusion_lon": 0.0, "bike_id": "11bb2ab54e21e2a0d2ee7c5e2cf05817", "type": "electric_scooter", "name": "11bb2ab54e21e2a0d2ee7c5e2cf05817", "is_reserved": 0, "rental_uris": {"ios": "https://dc.lft.to/lastmile_qr_scan", "android": "https://dc.lft.to/lastmile_qr_scan"}}, {"fusion_lat": 0.0, "is_disabled": 0, "lat": 38.8973755, "lon": -77.0257095, "fusion_lon": 0.0, "bike_id": "71172becc3f2a48e06cdef2331a824e7", "type": "electric_scooter", "name": "71172becc3f2a48e06cdef2331a824e7", "is_reserved": 0, "rental_uris": {"ios": "https://dc.lft.to/lastmile_qr_scan", "android": "https://dc.lft.to/lastmile_qr_scan"}}, {"fusion_lat": 0.0, "is_disabled": 0, "lat": 38.886995166666665, "lon": -77.0217945, "fusion_lon": 0.0, "bike_id": "d4094d3a9181bd3e6bef0b545f43f9c0", "type": "electric_scooter", "name": "d4094d3a9181bd3e6bef0b545f43f9c0", "is_reserved": 0, "rental_uris": {"ios": "https://dc.lft.to/lastmile_qr_scan", "android": "https://dc.lft.to/lastmile_qr_scan"}}, {"fusion_lat": 0.0, "is_disabled": 0, "lat": 38.89389583333333, "lon": -77.04659866666667, "fusion_lon": 0.0, "bike_id": "a013d7b979a68a5db7a17f9703f9e14f", "type": "electric_scooter", "name": "a013d7b979a68a5db7a17f9703f9e14f", "is_reserved": 0, "rental_uris": {"ios": "https://dc.lft.to/lastmile_qr_scan", "android": "https://dc.lft.to/lastmile_qr_scan"}}, {"fusion_lat": 0.0, "is_disabled": 0, "lat": 38.902771666666666, "lon": -77.03842733333333, "fusion_lon": 0.0, "bike_id": "d00dbc99f65daa3eaba03cf507b2c898", "type": "electric_scooter", "name": "d00dbc99f65daa3eaba03cf507b2c898", "is_reserved": 0, "rental_uris": {"ios": "https://dc.lft.to/lastmile_qr_scan", "android": "https://dc.lft.to/lastmile_qr_scan"}}, {"fusion_lat": 0.0, "is_disabled": 0, "lat": 38.927211, "lon": -77.051418, "fusion_lon": 0.0, "bike_id": "975fa81f0cf6e3ece33ab46255c45795", "type": "electric_scooter", "name": "975fa81f0cf6e3ece33ab46255c45795", "is_reserved": 0, "rental_uris": {"ios": "https://dc.lft.to/lastmile_qr_scan", "android": "https://dc.lft.to/lastmile_qr_scan"}}, {"fusion_lat": 0.0, "is_disabled": 0, "lat": 38.904145166666666, "lon": -77.04660883333334, "fusion_lon": 0.0, "bike_id": "954bb82cce681f761d67a02c5eda08ac", "type": "electric_scooter", "name": "954bb82cce681f761d67a02c5eda08ac", "is_reserved": 0, "rental_uris": {"ios": "https://dc.lft.to/lastmile_qr_scan", "android": "https://dc.lft.to/lastmile_qr_scan"}}, {"fusion_lat": 0.0, "is_disabled": 0, "lat": 38.92636266666667, "lon": -77.037031, "fusion_lon": 0.0, "bike_id": "0e1103ec5e72d21cffa9abfbc6a08a38", "type": "electric_scooter", "name": "0e1103ec5e72d21cffa9abfbc6a08a38", "is_reserved": 0, "rental_uris": {"ios": "https://dc.lft.to/lastmile_qr_scan", "android": "https://dc.lft.to/lastmile_qr_scan"}}, {"fusion_lat": 0.0, "is_disabled": 0, "lat": 38.923779, "lon": -77.03057933333334, "fusion_lon": 0.0, "bike_id": "9a71fec61da9862d64886fa979f874c7", "type": "electric_scooter", "name": "9a71fec61da9862d64886fa979f874c7", "is_reserved": 0, "rental_uris": {"ios": "https://dc.lft.to/lastmile_qr_scan", "android": "https://dc.lft.to/lastmile_qr_scan"}}, {"fusion_lat": 0.0, "is_disabled": 0, "lat": 38.892323166666664, "lon": -77.02919466666667, "fusion_lon": 0.0, "bike_id": "f9e4790fac22e589a112f3ec4fc0faeb", "type": "electric_scooter", "name": "f9e4790fac22e589a112f3ec4fc0faeb", "is_reserved": 0, "rental_uris": {"ios": "https://dc.lft.to/lastmile_qr_scan", "android": "https://dc.lft.to/lastmile_qr_scan"}}, {"fusion_lat": 0.0, "is_disabled": 0, "lat": 38.942581833333335, "lon": -77.02841533333333, "fusion_lon": 0.0, "bike_id": "b854116d906df89e78eee4303248448a", "type": "electric_scooter", "name": "b854116d906df89e78eee4303248448a", "is_reserved": 0, "rental_uris": {"ios": "https://dc.lft.to/lastmile_qr_scan", "android": "https://dc.lft.to/lastmile_qr_scan"}}, {"fusion_lat": 0.0, "is_disabled": 0, "lat": 38.933476666666664, "lon": -76.994376, "fusion_lon": 0.0, "bike_id": "3dced5c766260c1cbcaedc31508d8bd1", "type": "electric_scooter", "name": "3dced5c766260c1cbcaedc31508d8bd1", "is_reserved": 0, "rental_uris": {"ios": "https://dc.lft.to/lastmile_qr_scan", "android": "https://dc.lft.to/lastmile_qr_scan"}}, {"fusion_lat": 0.0, "is_disabled": 0, "lat": 38.92315216666667, "lon": -77.01955533333333, "fusion_lon": 0.0, "bike_id": "7b71520f7a6cf2370728123791646454", "type": "electric_scooter", "name": "7b71520f7a6cf2370728123791646454", "is_reserved": 0, "rental_uris": {"ios": "https://dc.lft.to/lastmile_qr_scan", "android": "https://dc.lft.to/lastmile_qr_scan"}}, {"fusion_lat": 0.0, "is_disabled": 0, "lat": 38.8737055, "lon": -77.00086583333334, "fusion_lon": 0.0, "bike_id": "d3ab557534c5e8099bede02489743cfc", "type": "electric_scooter", "name": "d3ab557534c5e8099bede02489743cfc", "is_reserved": 0, "rental_uris": {"ios": "https://dc.lft.to/lastmile_qr_scan", "android": "https://dc.lft.to/lastmile_qr_scan"}}, {"fusion_lat": 0.0, "is_disabled": 0, "lat": 38.91057766666667, "lon": -77.0439035, "fusion_lon": 0.0, "bike_id": "e881cf062de68e085baac2662aaf8e93", "type": "electric_scooter", "name": "e881cf062de68e085baac2662aaf8e93", "is_reserved": 0, "rental_uris": {"ios": "https://dc.lft.to/lastmile_qr_scan", "android": "https://dc.lft.to/lastmile_qr_scan"}}, {"fusion_lat": 0.0, "is_disabled": 0, "lat": 38.886394, "lon": -77.0021275, "fusion_lon": 0.0, "bike_id": "5bac6fc511bb68b3f7da3bf1c5d68e1d", "type": "electric_scooter", "name": "5bac6fc511bb68b3f7da3bf1c5d68e1d", "is_reserved": 0, "rental_uris": {"ios": "https://dc.lft.to/lastmile_qr_scan", "android": "https://dc.lft.to/lastmile_qr_scan"}}, {"fusion_lat": 0.0, "is_disabled": 0, "lat": 38.9225195, "lon": -77.01945016666667, "fusion_lon": 0.0, "bike_id": "bf39ba9667c69840842264af6cede670", "type": "electric_scooter", "name": "bf39ba9667c69840842264af6cede670", "is_reserved": 0, "rental_uris": {"ios": "https://dc.lft.to/lastmile_qr_scan", "android": "https://dc.lft.to/lastmile_qr_scan"}}, {"fusion_lat": 0.0, "is_disabled": 0, "lat": 38.90229866666667, "lon": -77.03471266666666, "fusion_lon": 0.0, "bike_id": "aa3ef6001fefba0516f28bdee3e69185", "type": "electric_scooter", "name": "aa3ef6001fefba0516f28bdee3e69185", "is_reserved": 0, "rental_uris": {"ios": "https://dc.lft.to/lastmile_qr_scan", "android": "https://dc.lft.to/lastmile_qr_scan"}}, {"fusion_lat": 0.0, "is_disabled": 0, "lat": 38.90397083333333, "lon": -77.05330566666666, "fusion_lon": 0.0, "bike_id": "503d1ee2ce35fb302ebf25cd1c02bd2d", "type": "electric_scooter", "name": "503d1ee2ce35fb302ebf25cd1c02bd2d", "is_reserved": 0, "rental_uris": {"ios": "https://dc.lft.to/lastmile_qr_scan", "android": "https://dc.lft.to/lastmile_qr_scan"}}, {"fusion_lat": 0.0, "is_disabled": 0, "lat": 38.9087115, "lon": -77.03758733333333, "fusion_lon": 0.0, "bike_id": "cdff67aef75f625109d46f16fb7b9ff9", "type": "electric_scooter", "name": "cdff67aef75f625109d46f16fb7b9ff9", "is_reserved": 0, "rental_uris": {"ios": "https://dc.lft.to/lastmile_qr_scan", "android": "https://dc.lft.to/lastmile_qr_scan"}}, {"fusion_lat": 0.0, "is_disabled": 0, "lat": 38.93657683333333, "lon": -77.06609183333333, "fusion_lon": 0.0, "bike_id": "6f2bdb9f8c940964a5a1943a0528b166", "type": "electric_scooter", "name": "6f2bdb9f8c940964a5a1943a0528b166", "is_reserved": 0, "rental_uris": {"ios": "https://dc.lft.to/lastmile_qr_scan", "android": "https://dc.lft.to/lastmile_qr_scan"}}, {"fusion_lat": 0.0, "is_disabled": 0, "lat": 38.90140733333333, "lon": -77.0293105, "fusion_lon": 0.0, "bike_id": "a168b90e8074b3e7a46d75c6a5b5ff79", "type": "electric_scooter", "name": "a168b90e8074b3e7a46d75c6a5b5ff79", "is_reserved": 0, "rental_uris": {"ios": "https://dc.lft.to/lastmile_qr_scan", "android": "https://dc.lft.to/lastmile_qr_scan"}}, {"fusion_lat": 0.0, "is_disabled": 0, "lat": 38.916191166666664, "lon": -77.02293883333333, "fusion_lon": 0.0, "bike_id": "44eceeab5daf70f0dd0b096e1827971a", "type": "electric_scooter", "name": "44eceeab5daf70f0dd0b096e1827971a", "is_reserved": 0, "rental_uris": {"ios": "https://dc.lft.to/lastmile_qr_scan", "android": "https://dc.lft.to/lastmile_qr_scan"}}, {"fusion_lat": 0.0, "is_disabled": 0, "lat": 38.9251045, "lon": -77.0022685, "fusion_lon": 0.0, "bike_id": "3ed3c931db3524f78ec012dad04c536a", "type": "electric_scooter", "name": "3ed3c931db3524f78ec012dad04c536a", "is_reserved": 0, "rental_uris": {"ios": "https://dc.lft.to/lastmile_qr_scan", "android": "https://dc.lft.to/lastmile_qr_scan"}}, {"fusion_lat": 0.0, "is_disabled": 0, "lat": 38.887142833333336, "lon": -77.02826616666667, "fusion_lon": 0.0, "bike_id": "f310c5239cfe902b4253ba1567f3fa09", "type": "electric_scooter", "name": "f310c5239cfe902b4253ba1567f3fa09", "is_reserved": 0, "rental_uris": {"ios": "https://dc.lft.to/lastmile_qr_scan", "android": "https://dc.lft.to/lastmile_qr_scan"}}, {"fusion_lat": 0.0, "is_disabled": 0, "lat": 38.900547, "lon": -77.04816683333334, "fusion_lon": 0.0, "bike_id": "f54466a15cbc318e2f011398ceaa44a0", "type": "electric_scooter", "name": "f54466a15cbc318e2f011398ceaa44a0", "is_reserved": 0, "rental_uris": {"ios": "https://dc.lft.to/lastmile_qr_scan", "android": "https://dc.lft.to/lastmile_qr_scan"}}, {"fusion_lat": 0.0, "is_disabled": 0, "lat": 38.921534, "lon": -77.03509016666666, "fusion_lon": 0.0, "bike_id": "5f833a39ac67c3711fa192d445dd2b4d", "type": "electric_scooter", "name": "5f833a39ac67c3711fa192d445dd2b4d", "is_reserved": 0, "rental_uris": {"ios": "https://dc.lft.to/lastmile_qr_scan", "android": "https://dc.lft.to/lastmile_qr_scan"}}, {"fusion_lat": 0.0, "is_disabled": 0, "lat": 38.92627683333333, "lon": -77.07323366666667, "fusion_lon": 0.0, "bike_id": "48d9f7820faa22880a7292822f4a4788", "type": "electric_scooter", "name": "48d9f7820faa22880a7292822f4a4788", "is_reserved": 0, "rental_uris": {"ios": "https://dc.lft.to/lastmile_qr_scan", "android": "https://dc.lft.to/lastmile_qr_scan"}}, {"fusion_lat": 0.0, "is_disabled": 0, "lat": 38.8929895, "lon": -77.021742, "fusion_lon": 0.0, "bike_id": "188552cc40f7af4e1130433aba54438c", "type": "electric_scooter", "name": "188552cc40f7af4e1130433aba54438c", "is_reserved": 0, "rental_uris": {"ios": "https://dc.lft.to/lastmile_qr_scan", "android": "https://dc.lft.to/lastmile_qr_scan"}}, {"fusion_lat": 0.0, "is_disabled": 0, "lat": 38.94262633333334, "lon": -77.02841066666667, "fusion_lon": 0.0, "bike_id": "60709b6a4e556e2dbc47ed873825dbd9", "type": "electric_bike", "name": "60709b6a4e556e2dbc47ed873825dbd9", "is_reserved": 0, "rental_uris": {"ios": "https://dc.lft.to/lastmile_qr_scan", "android": "https://dc.lft.to/lastmile_qr_scan"}}, {"fusion_lat": 0.0, "is_disabled": 0, "lat": 38.908363, "lon": -77.00221816666667, "fusion_lon": 0.0, "bike_id": "f229211ee46074ec427e7fca28303c90", "type": "electric_scooter", "name": "f229211ee46074ec427e7fca28303c90", "is_reserved": 0, "rental_uris": {"ios": "https://dc.lft.to/lastmile_qr_scan", "android": "https://dc.lft.to/lastmile_qr_scan"}}, {"fusion_lat": 0.0, "is_disabled": 0, "lat": 38.92237383333333, "lon": -77.03660983333333, "fusion_lon": 0.0, "bike_id": "af585499b325d581916deb1bdf393055", "type": "electric_scooter", "name": "af585499b325d581916deb1bdf393055", "is_reserved": 0, "rental_uris": {"ios": "https://dc.lft.to/lastmile_qr_scan", "android": "https://dc.lft.to/lastmile_qr_scan"}}, {"fusion_lat": 0.0, "is_disabled": 0, "lat": 38.9125165, "lon": -77.038726, "fusion_lon": 0.0, "bike_id": "b6d122a8c07c34f39c39ec08ab86ef83", "type": "electric_scooter", "name": "b6d122a8c07c34f39c39ec08ab86ef83", "is_reserved": 0, "rental_uris": {"ios": "https://dc.lft.to/lastmile_qr_scan", "android": "https://dc.lft.to/lastmile_qr_scan"}}, {"fusion_lat": 0.0, "is_disabled": 0, "lat": 38.92148233333333, "lon": -77.02210966666667, "fusion_lon": 0.0, "bike_id": "07d5a16ddc569f2d51578c5def6d9423", "type": "electric_scooter", "name": "07d5a16ddc569f2d51578c5def6d9423", "is_reserved": 0, "rental_uris": {"ios": "https://dc.lft.to/lastmile_qr_scan", "android": "https://dc.lft.to/lastmile_qr_scan"}}, {"fusion_lat": 0.0, "is_disabled": 0, "lat": 38.933451833333336, "lon": -76.99441266666666, "fusion_lon": 0.0, "bike_id": "abaa0832ff8abb1cd56297485b23d8b4", "type": "electric_scooter", "name": "abaa0832ff8abb1cd56297485b23d8b4", "is_reserved": 0, "rental_uris": {"ios": "https://dc.lft.to/lastmile_qr_scan", "android": "https://dc.lft.to/lastmile_qr_scan"}}, {"fusion_lat": 0.0, "is_disabled": 0, "lat": 38.9039135, "lon": -76.98946866666667, "fusion_lon": 0.0, "bike_id": "3db6882682466c57b5d9a8d1f5069fda", "type": "electric_scooter", "name": "3db6882682466c57b5d9a8d1f5069fda", "is_reserved": 0, "rental_uris": {"ios": "https://dc.lft.to/lastmile_qr_scan", "android": "https://dc.lft.to/lastmile_qr_scan"}}, {"fusion_lat": 0.0, "is_disabled": 0, "lat": 38.896169666666665, "lon": -76.90754333333334, "fusion_lon": 0.0, "bike_id": "558b95e63dc002f4adec9829b0ca4c0a", "type": "electric_bike", "name": "558b95e63dc002f4adec9829b0ca4c0a", "is_reserved": 0, "rental_uris": {"ios": "https://dc.lft.to/lastmile_qr_scan", "android": "https://dc.lft.to/lastmile_qr_scan"}}, {"fusion_lat": 0.0, "is_disabled": 0, "lat": 38.914176499999996, "lon": -77.03176983333333, "fusion_lon": 0.0, "bike_id": "062aa2e3b5216b52d57ae8cd5ab609a7", "type": "electric_scooter", "name": "062aa2e3b5216b52d57ae8cd5ab609a7", "is_reserved": 0, "rental_uris": {"ios": "https://dc.lft.to/lastmile_qr_scan", "android": "https://dc.lft.to/lastmile_qr_scan"}}, {"fusion_lat": 0.0, "is_disabled": 0, "lat": 38.89909433333333, "lon": -76.93382816666667, "fusion_lon": 0.0, "bike_id": "503001121bc7c8dfe146294e8c517cfe", "type": "electric_scooter", "name": "503001121bc7c8dfe146294e8c517cfe", "is_reserved": 0, "rental_uris": {"ios": "https://dc.lft.to/lastmile_qr_scan", "android": "https://dc.lft.to/lastmile_qr_scan"}}, {"fusion_lat": 0.0, "is_disabled": 0, "lat": 38.92369333333333, "lon": -77.02723766666666, "fusion_lon": 0.0, "bike_id": "db7a2245b723ae9ef14f6d59cb6568e3", "type": "electric_scooter", "name": "db7a2245b723ae9ef14f6d59cb6568e3", "is_reserved": 0, "rental_uris": {"ios": "https://dc.lft.to/lastmile_qr_scan", "android": "https://dc.lft.to/lastmile_qr_scan"}}, {"fusion_lat": 0.0, "is_disabled": 0, "lat": 38.8191155, "lon": -77.1266045, "fusion_lon": 0.0, "bike_id": "547ed28126e6d02b7a3fc3029e36635f", "type": "electric_bike", "name": "547ed28126e6d02b7a3fc3029e36635f", "is_reserved": 0, "rental_uris": {"ios": "https://dc.lft.to/lastmile_qr_scan", "android": "https://dc.lft.to/lastmile_qr_scan"}}, {"fusion_lat": 0.0, "is_disabled": 0, "lat": 38.907841, "lon": -77.072575, "fusion_lon": 0.0, "bike_id": "45854968af6ae6b45416d38ceb1e685a", "type": "electric_scooter", "name": "45854968af6ae6b45416d38ceb1e685a", "is_reserved": 0, "rental_uris": {"ios": "https://dc.lft.to/lastmile_qr_scan", "android": "https://dc.lft.to/lastmile_qr_scan"}}, {"fusion_lat": 0.0, "is_disabled": 0, "lat": 38.93086233333333, "lon": -77.02554383333333, "fusion_lon": 0.0, "bike_id": "d25682fa92137b3a8811286bfc865981", "type": "electric_scooter", "name": "d25682fa92137b3a8811286bfc865981", "is_reserved": 0, "rental_uris": {"ios": "https://dc.lft.to/lastmile_qr_scan", "android": "https://dc.lft.to/lastmile_qr_scan"}}, {"fusion_lat": 0.0, "is_disabled": 0, "lat": 38.863260333333336, "lon": -76.98712383333333, "fusion_lon": 0.0, "bike_id": "ee5dc57a3349fc6fcb72ecee6d22b40c", "type": "electric_bike", "name": "ee5dc57a3349fc6fcb72ecee6d22b40c", "is_reserved": 0, "rental_uris": {"ios": "https://dc.lft.to/lastmile_qr_scan", "android": "https://dc.lft.to/lastmile_qr_scan"}}, {"fusion_lat": 0.0, "is_disabled": 0, "lat": 38.90409733333333, "lon": -77.04653916666666, "fusion_lon": 0.0, "bike_id": "38c8f17ce9f1dd59d1b9cf6482a9b006", "type": "electric_scooter", "name": "38c8f17ce9f1dd59d1b9cf6482a9b006", "is_reserved": 0, "rental_uris": {"ios": "https://dc.lft.to/lastmile_qr_scan", "android": "https://dc.lft.to/lastmile_qr_scan"}}, {"fusion_lat": 0.0, "is_disabled": 0, "lat": 38.96219, "lon": -77.01355116666667, "fusion_lon": 0.0, "bike_id": "dd211168f48a9e32e944c78eedf9be35", "type": "electric_scooter", "name": "dd211168f48a9e32e944c78eedf9be35", "is_reserved": 0, "rental_uris": {"ios": "https://dc.lft.to/lastmile_qr_scan", "android": "https://dc.lft.to/lastmile_qr_scan"}}, {"fusion_lat": 0.0, "is_disabled": 0, "lat": 38.9570255, "lon": -76.973762, "fusion_lon": 0.0, "bike_id": "a9d07eea0d43776e15dcabf09fab0f15", "type": "electric_bike", "name": "a9d07eea0d43776e15dcabf09fab0f15", "is_reserved": 0, "rental_uris": {"ios": "https://dc.lft.to/lastmile_qr_scan", "android": "https://dc.lft.to/lastmile_qr_scan"}}, {"fusion_lat": 0.0, "is_disabled": 0, "lat": 38.804802333333335, "lon": -76.99109966666667, "fusion_lon": 0.0, "bike_id": "f9809b3d0fe38d4d8f21400b32b1e73e", "type": "electric_bike", "name": "f9809b3d0fe38d4d8f21400b32b1e73e", "is_reserved": 0, "rental_uris": {"ios": "https://dc.lft.to/lastmile_qr_scan", "android": "https://dc.lft.to/lastmile_qr_scan"}}, {"fusion_lat": 0.0, "is_disabled": 0, "lat": 38.92799883333333, "lon": -77.01561733333334, "fusion_lon": 0.0, "bike_id": "15c4eb3ae3070c0389f6adbea1da89a1", "type": "electric_scooter", "name": "15c4eb3ae3070c0389f6adbea1da89a1", "is_reserved": 0, "rental_uris": {"ios": "https://dc.lft.to/lastmile_qr_scan", "android": "https://dc.lft.to/lastmile_qr_scan"}}, {"fusion_lat": 0.0, "is_disabled": 0, "lat": 38.905156166666664, "lon": -77.00697133333334, "fusion_lon": 0.0, "bike_id": "c6188a6ab46a0adf066017e36383d866", "type": "electric_scooter", "name": "c6188a6ab46a0adf066017e36383d866", "is_reserved": 0, "rental_uris": {"ios": "https://dc.lft.to/lastmile_qr_scan", "android": "https://dc.lft.to/lastmile_qr_scan"}}, {"fusion_lat": 0.0, "is_disabled": 0, "lat": 38.784605166666665, "lon": -77.05438966666667, "fusion_lon": 0.0, "bike_id": "b334a35a2d1d18784e35e57e53db33e0", "type": "electric_bike", "name": "b334a35a2d1d18784e35e57e53db33e0", "is_reserved": 0, "rental_uris": {"ios": "https://dc.lft.to/lastmile_qr_scan", "android": "https://dc.lft.to/lastmile_qr_scan"}}, {"fusion_lat": 0.0, "is_disabled": 0, "lat": 38.908415833333336, "lon": -77.02389183333334, "fusion_lon": 0.0, "bike_id": "44693b82288388f93a346a74d6fc118a", "type": "electric_scooter", "name": "44693b82288388f93a346a74d6fc118a", "is_reserved": 0, "rental_uris": {"ios": "https://dc.lft.to/lastmile_qr_scan", "android": "https://dc.lft.to/lastmile_qr_scan"}}, {"fusion_lat": 0.0, "is_disabled": 0, "lat": 38.895025833333335, "lon": -77.04159533333333, "fusion_lon": 0.0, "bike_id": "505299df337b4a90eaa09fc399990152", "type": "electric_scooter", "name": "505299df337b4a90eaa09fc399990152", "is_reserved": 0, "rental_uris": {"ios": "https://dc.lft.to/lastmile_qr_scan", "android": "https://dc.lft.to/lastmile_qr_scan"}}, {"fusion_lat": 0.0, "is_disabled": 0, "lat": 38.890318666666666, "lon": -76.937559, "fusion_lon": 0.0, "bike_id": "c6e9fa89a7690f8ed8deb09b7869f421", "type": "electric_scooter", "name": "c6e9fa89a7690f8ed8deb09b7869f421", "is_reserved": 0, "rental_uris": {"ios": "https://dc.lft.to/lastmile_qr_scan", "android": "https://dc.lft.to/lastmile_qr_scan"}}, {"fusion_lat": 0.0, "is_disabled": 0, "lat": 38.8922785, "lon": -77.03136266666667, "fusion_lon": 0.0, "bike_id": "6db1686346ca3d88344d37a9b0bc6157", "type": "electric_scooter", "name": "6db1686346ca3d88344d37a9b0bc6157", "is_reserved": 0, "rental_uris": {"ios": "https://dc.lft.to/lastmile_qr_scan", "android": "https://dc.lft.to/lastmile_qr_scan"}}, {"fusion_lat": 0.0, "is_disabled": 0, "lat": 38.896118, "lon": -77.02387933333333, "fusion_lon": 0.0, "bike_id": "34eaab35bff4b077be4d46d141216772", "type": "electric_scooter", "name": "34eaab35bff4b077be4d46d141216772", "is_reserved": 0, "rental_uris": {"ios": "https://dc.lft.to/lastmile_qr_scan", "android": "https://dc.lft.to/lastmile_qr_scan"}}, {"fusion_lat": 0.0, "is_disabled": 0, "lat": 38.904250166666664, "lon": -77.034392, "fusion_lon": 0.0, "bike_id": "dec267fe11bed24ed4c8103f5803800d", "type": "electric_scooter", "name": "dec267fe11bed24ed4c8103f5803800d", "is_reserved": 0, "rental_uris": {"ios": "https://dc.lft.to/lastmile_qr_scan", "android": "https://dc.lft.to/lastmile_qr_scan"}}, {"fusion_lat": 0.0, "is_disabled": 0, "lat": 38.89002816666667, "lon": -76.921114, "fusion_lon": 0.0, "bike_id": "bc8f4d58f9fde2cad3d5549aff4c68f8", "type": "electric_scooter", "name": "bc8f4d58f9fde2cad3d5549aff4c68f8", "is_reserved": 0, "rental_uris": {"ios": "https://dc.lft.to/lastmile_qr_scan", "android": "https://dc.lft.to/lastmile_qr_scan"}}, {"fusion_lat": 0.0, "is_disabled": 0, "lat": 38.87460016666667, "lon": -77.009344, "fusion_lon": 0.0, "bike_id": "5703b0aef032558a5c9b90a9ffdb20fe", "type": "electric_scooter", "name": "5703b0aef032558a5c9b90a9ffdb20fe", "is_reserved": 0, "rental_uris": {"ios": "https://dc.lft.to/lastmile_qr_scan", "android": "https://dc.lft.to/lastmile_qr_scan"}}, {"fusion_lat": 0.0, "is_disabled": 0, "lat": 38.909009166666664, "lon": -77.03198816666666, "fusion_lon": 0.0, "bike_id": "be3a9da99b63a794a6ba7aaf3f355f27", "type": "electric_scooter", "name": "be3a9da99b63a794a6ba7aaf3f355f27", "is_reserved": 0, "rental_uris": {"ios": "https://dc.lft.to/lastmile_qr_scan", "android": "https://dc.lft.to/lastmile_qr_scan"}}, {"fusion_lat": 0.0, "is_disabled": 0, "lat": 38.89884683333333, "lon": -76.93175116666667, "fusion_lon": 0.0, "bike_id": "c5f3132b9425e3fef8f55c5793a30504", "type": "electric_scooter", "name": "c5f3132b9425e3fef8f55c5793a30504", "is_reserved": 0, "rental_uris": {"ios": "https://dc.lft.to/lastmile_qr_scan", "android": "https://dc.lft.to/lastmile_qr_scan"}}, {"fusion_lat": 0.0, "is_disabled": 0, "lat": 38.899726666666666, "lon": -77.0159125, "fusion_lon": 0.0, "bike_id": "1c04adaf3ddd9d7326ceb45c749d1909", "type": "electric_scooter", "name": "1c04adaf3ddd9d7326ceb45c749d1909", "is_reserved": 0, "rental_uris": {"ios": "https://dc.lft.to/lastmile_qr_scan", "android": "https://dc.lft.to/lastmile_qr_scan"}}, {"fusion_lat": 0.0, "is_disabled": 0, "lat": 38.898649666666664, "lon": -77.029839, "fusion_lon": 0.0, "bike_id": "eaa831f878b5003426859b07c7306c1a", "type": "electric_scooter", "name": "eaa831f878b5003426859b07c7306c1a", "is_reserved": 0, "rental_uris": {"ios": "https://dc.lft.to/lastmile_qr_scan", "android": "https://dc.lft.to/lastmile_qr_scan"}}, {"fusion_lat": 0.0, "is_disabled": 0, "lat": 38.8799515, "lon": -76.98543266666667, "fusion_lon": 0.0, "bike_id": "dcd67fcd6796d8a829d784a7dcf95f83", "type": "electric_scooter", "name": "dcd67fcd6796d8a829d784a7dcf95f83", "is_reserved": 0, "rental_uris": {"ios": "https://dc.lft.to/lastmile_qr_scan", "android": "https://dc.lft.to/lastmile_qr_scan"}}, {"fusion_lat": 0.0, "is_disabled": 0, "lat": 38.933900333333334, "lon": -77.02318, "fusion_lon": 0.0, "bike_id": "12dbb4894968672baa98edd2e91fd720", "type": "electric_scooter", "name": "12dbb4894968672baa98edd2e91fd720", "is_reserved": 0, "rental_uris": {"ios": "https://dc.lft.to/lastmile_qr_scan", "android": "https://dc.lft.to/lastmile_qr_scan"}}, {"fusion_lat": 0.0, "is_disabled": 0, "lat": 38.885405666666664, "lon": -77.11702, "fusion_lon": 0.0, "bike_id": "369b772d01c30fb5fa02d98a2919a84b", "type": "electric_bike", "name": "369b772d01c30fb5fa02d98a2919a84b", "is_reserved": 0, "rental_uris": {"ios": "https://dc.lft.to/lastmile_qr_scan", "android": "https://dc.lft.to/lastmile_qr_scan"}}, {"fusion_lat": 0.0, "is_disabled": 0, "lat": 38.924199333333334, "lon": -77.01949433333333, "fusion_lon": 0.0, "bike_id": "a4ce2499a183eb1eb7eab4a4f565fa1f", "type": "electric_scooter", "name": "a4ce2499a183eb1eb7eab4a4f565fa1f", "is_reserved": 0, "rental_uris": {"ios": "https://dc.lft.to/lastmile_qr_scan", "android": "https://dc.lft.to/lastmile_qr_scan"}}, {"fusion_lat": 0.0, "is_disabled": 0, "lat": 38.96504216666666, "lon": -77.03366666666666, "fusion_lon": 0.0, "bike_id": "cf401b7c09bded99f3d7de37f331f5f2", "type": "electric_bike", "name": "cf401b7c09bded99f3d7de37f331f5f2", "is_reserved": 0, "rental_uris": {"ios": "https://dc.lft.to/lastmile_qr_scan", "android": "https://dc.lft.to/lastmile_qr_scan"}}, {"fusion_lat": 0.0, "is_disabled": 0, "lat": 38.88653333333333, "lon": -77.16232083333334, "fusion_lon": 0.0, "bike_id": "b9c9eb70654eb788da2339ed55a442af", "type": "electric_bike", "name": "b9c9eb70654eb788da2339ed55a442af", "is_reserved": 0, "rental_uris": {"ios": "https://dc.lft.to/lastmile_qr_scan", "android": "https://dc.lft.to/lastmile_qr_scan"}}, {"fusion_lat": 0.0, "is_disabled": 0, "lat": 38.92601883333333, "lon": -77.02153783333333, "fusion_lon": 0.0, "bike_id": "6b861f9fedc6c43efe35ad499907e2af", "type": "electric_scooter", "name": "6b861f9fedc6c43efe35ad499907e2af", "is_reserved": 0, "rental_uris": {"ios": "https://dc.lft.to/lastmile_qr_scan", "android": "https://dc.lft.to/lastmile_qr_scan"}}, {"fusion_lat": 0.0, "is_disabled": 0, "lat": 38.92824533333334, "lon": -77.05417516666667, "fusion_lon": 0.0, "bike_id": "139512f2f95df405c3350691bb21efe5", "type": "electric_scooter", "name": "139512f2f95df405c3350691bb21efe5", "is_reserved": 0, "rental_uris": {"ios": "https://dc.lft.to/lastmile_qr_scan", "android": "https://dc.lft.to/lastmile_qr_scan"}}, {"fusion_lat": 0.0, "is_disabled": 0, "lat": 38.913129, "lon": -77.046606, "fusion_lon": 0.0, "bike_id": "7da38d45a4e5a8e0eecdd8ba9225f6d3", "type": "electric_scooter", "name": "7da38d45a4e5a8e0eecdd8ba9225f6d3", "is_reserved": 0, "rental_uris": {"ios": "https://dc.lft.to/lastmile_qr_scan", "android": "https://dc.lft.to/lastmile_qr_scan"}}, {"fusion_lat": 0.0, "is_disabled": 0, "lat": 38.8971225, "lon": -77.03126133333333, "fusion_lon": 0.0, "bike_id": "a70a3ce8116ba86392ab002a42c04932", "type": "electric_scooter", "name": "a70a3ce8116ba86392ab002a42c04932", "is_reserved": 0, "rental_uris": {"ios": "https://dc.lft.to/lastmile_qr_scan", "android": "https://dc.lft.to/lastmile_qr_scan"}}, {"fusion_lat": 0.0, "is_disabled": 0, "lat": 38.918856166666664, "lon": -77.0241165, "fusion_lon": 0.0, "bike_id": "b843130f8ac23288ef43f9bfeadbd34b", "type": "electric_scooter", "name": "b843130f8ac23288ef43f9bfeadbd34b", "is_reserved": 0, "rental_uris": {"ios": "https://dc.lft.to/lastmile_qr_scan", "android": "https://dc.lft.to/lastmile_qr_scan"}}, {"fusion_lat": 0.0, "is_disabled": 0, "lat": 38.910320166666665, "lon": -77.03200616666666, "fusion_lon": 0.0, "bike_id": "a0654bf3eb569f3dffc692707830780d", "type": "electric_scooter", "name": "a0654bf3eb569f3dffc692707830780d", "is_reserved": 0, "rental_uris": {"ios": "https://dc.lft.to/lastmile_qr_scan", "android": "https://dc.lft.to/lastmile_qr_scan"}}, {"fusion_lat": 0.0, "is_disabled": 0, "lat": 38.924505333333336, "lon": -77.02243833333333, "fusion_lon": 0.0, "bike_id": "3730d20ea81c079a57ae0b8ff0638296", "type": "electric_scooter", "name": "3730d20ea81c079a57ae0b8ff0638296", "is_reserved": 0, "rental_uris": {"ios": "https://dc.lft.to/lastmile_qr_scan", "android": "https://dc.lft.to/lastmile_qr_scan"}}, {"fusion_lat": 0.0, "is_disabled": 0, "lat": 38.9045085, "lon": -76.99455766666667, "fusion_lon": 0.0, "bike_id": "f497021dcce1c6b8c19f424cadc5cbee", "type": "electric_scooter", "name": "f497021dcce1c6b8c19f424cadc5cbee", "is_reserved": 0, "rental_uris": {"ios": "https://dc.lft.to/lastmile_qr_scan", "android": "https://dc.lft.to/lastmile_qr_scan"}}, {"fusion_lat": 0.0, "is_disabled": 0, "lat": 38.899821833333334, "lon": -77.015949, "fusion_lon": 0.0, "bike_id": "5be5399bbd9c61e32fab8ce17754766e", "type": "electric_scooter", "name": "5be5399bbd9c61e32fab8ce17754766e", "is_reserved": 0, "rental_uris": {"ios": "https://dc.lft.to/lastmile_qr_scan", "android": "https://dc.lft.to/lastmile_qr_scan"}}, {"fusion_lat": 0.0, "is_disabled": 0, "lat": 38.9122585, "lon": -77.07749016666666, "fusion_lon": 0.0, "bike_id": "cf421b7e73fb549f2df3e9969ab8c1af", "type": "electric_scooter", "name": "cf421b7e73fb549f2df3e9969ab8c1af", "is_reserved": 0, "rental_uris": {"ios": "https://dc.lft.to/lastmile_qr_scan", "android": "https://dc.lft.to/lastmile_qr_scan"}}, {"fusion_lat": 0.0, "is_disabled": 0, "lat": 38.90093, "lon": -77.05787483333333, "fusion_lon": 0.0, "bike_id": "f31430f6f7d53737bd5492436ab8c835", "type": "electric_scooter", "name": "f31430f6f7d53737bd5492436ab8c835", "is_reserved": 0, "rental_uris": {"ios": "https://dc.lft.to/lastmile_qr_scan", "android": "https://dc.lft.to/lastmile_qr_scan"}}, {"fusion_lat": 0.0, "is_disabled": 0, "lat": 38.92237683333333, "lon": -77.02850983333333, "fusion_lon": 0.0, "bike_id": "440209705023d383b1768ce1b11d19d1", "type": "electric_scooter", "name": "440209705023d383b1768ce1b11d19d1", "is_reserved": 0, "rental_uris": {"ios": "https://dc.lft.to/lastmile_qr_scan", "android": "https://dc.lft.to/lastmile_qr_scan"}},