{"data": {"bikes": [{"lat": 38.896104333333334, "is_disabled": 0, "type": "electric_scooter", "lon": -77.01334483333333, "bike_id": "6bb6d0cd8b8ab71e29f3fd02856f0ca7", "fusion_lat": 0.0, "name": "6bb6d0cd8b8ab71e29f3fd02856f0ca7", "is_reserved": 0, "rental_uris": {"android": "https://dc.lft.to/lastmile_qr_scan", "ios": "https://dc.lft.to/lastmile_qr_scan"}, "fusion_lon": 0.0}, {"lat": 38.931134166666666, "is_disabled": 0, "type": "electric_scooter", "lon": -77.03811433333334, "bike_id": "25b00da1dc73d300bb39419af46e7a8d", "fusion_lat": 0.0, "name": "25b00da1dc73d300bb39419af46e7a8d", "is_reserved": 0, "rental_uris": {"android": "https://dc.lft.to/lastmile_qr_scan", "ios": "https://dc.lft.to/lastmile_qr_scan"}, "fusion_lon": 0.0}, {"lat": 38.91864316666667, "is_disabled": 0, "type": "electric_scooter", "lon": -77.04028816666667, "bike_id": "c411f2c869d94e9af36a4a21a442437b", "fusion_lat": 0.0, "name": "c411f2c869d94e9af36a4a21a442437b", "is_reserved": 0, "rental_uris": {"android": "https://dc.lft.to/lastmile_qr_scan", "ios": "https://dc.lft.to/lastmile_qr_scan"}, "fusion_lon": 0.0}, {"lat": 38.903892166666665, "is_disabled": 0, "type": "electric_scooter", "lon": -77.02805183333334, "bike_id": "38afe1530bb4d553539e12de4200f8f1", "fusion_lat": 0.0, "name": "38afe1530bb4d553539e12de4200f8f1", "is_reserved": 0, "rental_uris": {"android": "https://dc.lft.to/lastmile_qr_scan", "ios": "https://dc.lft.to/lastmile_qr_scan"}, "fusion_lon": 0.0}, {"lat": 38.91998566666667, "is_disabled": 0, "type": "electric_scooter", "lon": -77.03967, "bike_id": "c7d2d6b07029db36bed426dbdefff3b9", "fusion_lat": 0.0, "name": "c7d2d6b07029db36bed426dbdefff3b9", "is_reserved": 0, "rental_uris": {"android": "https://dc.lft.to/lastmile_qr_scan", "ios": "https://dc.lft.to/lastmile_qr_scan"}, "fusion_lon": 0.0}, {"lat": 38.918210333333334, "is_disabled": 0, "type": "electric_scooter", "lon": -77.04172216666667, "bike_id": "58b10c74ff745174fcf018ed2d585e10", "fusion_lat": 0.0, "name": "58b10c74ff745174fcf018ed2d585e10", "is_reserved": 0, "rental_uris": {"android": "https://dc.lft.to/lastmile_qr_scan", "ios": "https://dc.lft.to/lastmile_qr_scan"}, "fusion_lon": 0.0}, {"lat": 38.89592833333333, "is_disabled": 0, "type": "electric_scooter", "lon": -77.02190516666667, "bike_id": "ffb235f233a40c95e98eca715a13e25c", "fusion_lat": 0.0, "name": "ffb235f233a40c95e98eca715a13e25c", "is_reserved": 0, "rental_uris": {"android": "https://dc.lft.to/lastmile_qr_scan", "ios": "https://dc.lft.to/lastmile_qr_scan"}, "fusion_lon": 0.0}, {"lat": 38.90670683333333, "is_disabled": 0, "type": "electric_scooter", "lon": -77.03524183333333, "bike_id": "108a3731407bfa8a0d3ab2ceff422982", "fusion_lat": 0.0, "name": "108a3731407bfa8a0d3ab2ceff422982", "is_reserved": 0, "rental_uris": {"android": "https://dc.lft.to/lastmile_qr_scan", "ios": "https://dc.lft.to/lastmile_qr_scan"}, "fusion_lon": 0.0}, {"lat": 38.90211266666667, "is_disabled": 0, "type": "electric_scooter", "lon": -76.9819445, "bike_id": "ff4d846ffebd0c9637b3b055409f9819", "fusion_lat": 0.0, "name": "ff4d846ffebd0c9637b3b055409f9819", "is_reserved": 0, "rental_uris": {"android": "https://dc.lft.to/lastmile_qr_scan", "ios": "https://dc.lft.to/lastmile_qr_scan"}, "fusion_lon": 0.0}, {"lat": 38.8968445, "is_disabled": 0, "type": "electric_scooter", "lon": -76.93607616666667, "bike_id": "9f920139afb2ce031e4f0986bfaf3954", "fusion_lat": 0.0, "name": "9f920139afb2ce031e4f0986bfaf3954", "is_reserved": 0, "rental_uris": {"android": "https://dc.lft.to/lastmile_qr_scan", "ios": "https://dc.lft.to/lastmile_qr_scan"}, "fusion_lon": 0.0}, {"lat": 38.95264566666667, "is_disabled": 0, "type": "electric_bike", "lon": -77.06985533333334, "bike_id": "f47356ee69121a558e1a83f6d1b92be6", "fusion_lat": 0.0, "name": "f47356ee69121a558e1a83f6d1b92be6", "is_reserved": 0, "rental_uris": {"android": "https://dc.lft.to/lastmile_qr_scan", "ios": "https://dc.lft.to/lastmile_qr_scan"}, "fusion_lon": 0.0}, {"lat": 38.9308855, "is_disabled": 0, "type": "electric_scooter", "lon": -77.03443633333333, "bike_id": "d3c9145a8b0d3ca658ce564091d7c8c7", "fusion_lat": 0.0, "name": "d3c9145a8b0d3ca658ce564091d7c8c7", "is_reserved": 0, "rental_uris": {"android": "https://dc.lft.to/lastmile_qr_scan", "ios": "https://dc.lft.to/lastmile_qr_scan"}, "fusion_lon": 0.0}, {"lat": 38.88726066666667, "is_disabled": 0, "type": "electric_scooter", "lon": -76.95472466666666, "bike_id": "2f6bfbaa73c320d19c2050595728dde5", "fusion_lat": 0.0, "name": "2f6bfbaa73c320d19c2050595728dde5", "is_reserved": 0, "rental_uris": {"android": "https://dc.lft.to/lastmile_qr_scan", "ios": "https://dc.lft.to/lastmile_qr_scan"}, "fusion_lon": 0.0}, {"lat": 38.87690216666667, "is_disabled": 0, "type": "electric_scooter", "lon": -77.00412316666667, "bike_id": "461b5e6c403fe634b9ee65109b7dfaeb", "fusion_lat": 0.0, "name": "461b5e6c403fe634b9ee65109b7dfaeb", "is_reserved": 0, "rental_uris": {"android": "https://dc.lft.to/lastmile_qr_scan", "ios": "https://dc.lft.to/lastmile_qr_scan"}, "fusion_lon": 0.0}, {"lat": 38.85211533333333, "is_disabled": 0, "type": "electric_bike", "lon": -76.99578083333333, "bike_id": "b67d988d5ef388c60486e37445ccc1d7", "fusion_lat": 0.0, "name": "b67d988d5ef388c60486e37445ccc1d7", "is_reserved": 0, "rental_uris": {"android": "https://dc.lft.to/lastmile_qr_scan", "ios": "https://dc.lft.to/lastmile_qr_scan"}, "fusion_lon": 0.0}, {"lat": 38.84427483333333, "is_disabled": 0, "type": "electric_scooter", "lon": -76.99779016666666, "bike_id": "0d2b7a797c30e9c7bff78f8b26eec7df", "fusion_lat": 0.0, "name": "0d2b7a797c30e9c7bff78f8b26eec7df", "is_reserved": 0, "rental_uris": {"android": "https://dc.lft.to/lastmile_qr_scan", "ios": "https://dc.lft.to/lastmile_qr_scan"}, "fusion_lon": 0.0}, {"lat": 38.92046366666667, "is_disabled": 0, "type": "electric_scooter", "lon": -77.04200433333334, "bike_id": "94844d150a9bfb86e7fb71d1d9dcdd7e", "fusion_lat": 0.0, "name": "94844d150a9bfb86e7fb71d1d9dcdd7e", "is_reserved": 0, "rental_uris": {"android": "https://dc.lft.to/lastmile_qr_scan", "ios": "https://dc.lft.to/lastmile_qr_scan"}, "fusion_lon": 0.0}, {"lat": 38.91416916666667, "is_disabled": 0, "type": "electric_scooter", "lon": -77.03163783333333, "bike_id": "57758b822a51be8f557a44ff3f64dd7c", "fusion_lat": 0.0, "name": "57758b822a51be8f557a44ff3f64dd7c", "is_reserved": 0, "rental_uris": {"android": "https://dc.lft.to/lastmile_qr_scan", "ios": "https://dc.lft.to/lastmile_qr_scan"}, "fusion_lon": 0.0}, {"lat": 38.93112933333333, "is_disabled": 0, "type": "electric_scooter", "lon": -77.02088333333333, "bike_id": "29d99c91b98d9acebf3817ab06a4f358", "fusion_lat": 0.0, "name": "29d99c91b98d9acebf3817ab06a4f358", "is_reserved": 0, "rental_uris": {"android": "https://dc.lft.to/lastmile_qr_scan", "ios": "https://dc.lft.to/lastmile_qr_scan"}, "fusion_lon": 0.0}, {"lat": 38.8852545, "is_disabled": 0, "type": "electric_scooter", "lon": -77.011346, "bike_id": "52459cecc44ab818c8c2b41b072e8800", "fusion_lat": 0.0, "name": "52459cecc44ab818c8c2b41b072e8800", "is_reserved": 0, "rental_uris": {"android": "https://dc.lft.to/lastmile_qr_scan", "ios": "https://dc.lft.to/lastmile_qr_scan"}, "fusion_lon": 0.0}, {"lat": 38.8050395, "is_disabled": 0, "type": "electric_bike", "lon": -77.04132216666666, "bike_id": "efb91d2bef04f9e9b1836394eb5e08ed", "fusion_lat": 0.0, "name": "efb91d2bef04f9e9b1836394eb5e08ed", "is_reserved": 0, "rental_uris": {"android": "https://dc.lft.to/lastmile_qr_scan", "ios": "https://dc.lft.to/lastmile_qr_scan"}, "fusion_lon": 0.0}, {"lat": 38.93230366666667, "is_disabled": 0, "type": "electric_scooter", "lon": -77.023768, "bike_id": "630eec99170077c39dc6c89132880f23", "fusion_lat": 0.0, "name": "630eec99170077c39dc6c89132880f23", "is_reserved": 0, "rental_uris": {"android": "https://dc.lft.to/lastmile_qr_scan", "ios": "https://dc.lft.to/lastmile_qr_scan"}, "fusion_lon": 0.0}, {"lat": 38.918134333333334, "is_disabled": 0, "type": "electric_scooter", "lon": -77.03074233333334, "bike_id": "0f9d265ae65568129323816c309a6878", "fusion_lat": 0.0, "name": "0f9d265ae65568129323816c309a6878", "is_reserved": 0, "rental_uris": {"android": "https://dc.lft.to/lastmile_qr_scan", "ios": "https://dc.lft.to/lastmile_qr_scan"}, "fusion_lon": 0.0}, {"lat": 38.917052, "is_disabled": 0, "type": "electric_scooter", "lon": -77.01105133333333, "bike_id": "bcb7457e73a494f7f5f514edcac1c532", "fusion_lat": 0.0, "name": "bcb7457e73a494f7f5f514edcac1c532", "is_reserved": 0, "rental_uris": {"android": "https://dc.lft.to/lastmile_qr_scan", "ios": "https://dc.lft.to/lastmile_qr_scan"}, "fusion_lon": 0.0}, {"lat": 38.953307333333335, "is_disabled": 0, "type": "electric_bike", "lon": -76.98818966666667, "bike_id": "859187721408bf118039cdd9197d2fc7", "fusion_lat": 0.0, "name": "859187721408bf118039cdd9197d2fc7", "is_reserved": 0, "rental_uris": {"android": "https://dc.lft.to/lastmile_qr_scan", "ios": "https://dc.lft.to/lastmile_qr_scan"}, "fusion_lon": 0.0}, {"lat": 38.8661845, "is_disabled": 0, "type": "electric_scooter", "lon": -76.98641116666667, "bike_id": "9301725b72ca1ab4297c93c5bbcbdcd4", "fusion_lat": 0.0, "name": "9301725b72ca1ab4297c93c5bbcbdcd4", "is_reserved": 0, "rental_uris": {"android": "https://dc.lft.to/lastmile_qr_scan", "ios": "https://dc.lft.to/lastmile_qr_scan"}, "fusion_lon": 0.0}, {"lat": 38.906464666666665, "is_disabled": 0, "type": "electric_scooter", "lon": -76.99021583333334, "bike_id": "8cc60d2df6cc4b66bb1ade35addf08fe", "fusion_lat": 0.0, "name": "8cc60d2df6cc4b66bb1ade35addf08fe", "is_reserved": 0, "rental_uris": {"android": "https://dc.lft.to/lastmile_qr_scan", "ios": "https://dc.lft.to/lastmile_qr_scan"}, "fusion_lon": 0.0}, {"lat": 38.91552683333333, "is_disabled": 0, "type": "electric_scooter", "lon": -77.03244966666666, "bike_id": "1b7e03ce5c8e484244e6094c9c5ffce4", "fusion_lat": 0.0, "name": "1b7e03ce5c8e484244e6094c9c5ffce4", "is_reserved": 0, "rental_uris": {"android": "https://dc.lft.to/lastmile_qr_scan", "ios": "https://dc.lft.to/lastmile_qr_scan"}, "fusion_lon": 0.0}, {"lat": 38.91551166666667, "is_disabled": 0, "type": "electric_scooter", "lon": -77.01235666666666, "bike_id": "eda6419298307dcda2f3abf1779c63e2", "fusion_lat": 0.0, "name": "eda6419298307dcda2f3abf1779c63e2", "is_reserved": 0, "rental_uris": {"android": "https://dc.lft.to/lastmile_qr_scan", "ios": "https://dc.lft.to/lastmile_qr_scan"}, "fusion_lon": 0.0}, {"lat": 38.887983, "is_disabled": 0, "type": "electric_scooter", "lon": -76.93362, "bike_id": "d2cdac08a26a9bb7f82abc9a06624ad7", "fusion_lat": 0.0, "name": "d2cdac08a26a9bb7f82abc9a06624ad7", "is_reserved": 0, "rental_uris": {"android": "https://dc.lft.to/lastmile_qr_scan", "ios": "https://dc.lft.to/lastmile_qr_scan"}, "fusion_lon": 0.0}, {"lat": 38.913691166666666, "is_disabled": 0, "type": "electric_scooter", "lon": -77.03447316666667, "bike_id": "5378520bc3a5c22fab2f87587ba434b7", "fusion_lat": 0.0, "name": "5378520bc3a5c22fab2f87587ba434b7", "is_reserved": 0, "rental_uris": {"android": "https://dc.lft.to/lastmile_qr_scan", "ios": "https://dc.lft.to/lastmile_qr_scan"}, "fusion_lon": 0.0}, {"lat": 38.915587333333335, "is_disabled": 0, "type": "electric_scooter", "lon": -77.01046083333334, "bike_id": "58d2ce09cc22c2644ddfb2f12b62888e", "fusion_lat": 0.0, "name": "58d2ce09cc22c2644ddfb2f12b62888e", "is_reserved": 0, "rental_uris": {"android": "https://dc.lft.to/lastmile_qr_scan", "ios": "https://dc.lft.to/lastmile_qr_scan"}, "fusion_lon": 0.0}, {"lat": 38.90971116666667, "is_disabled": 0, "type": "electric_bike", "lon": -77.08827633333334, "bike_id": "84c92f7c386096024b6ef98cd09d0e86", "fusion_lat": 0.0, "name": "84c92f7c386096024b6ef98cd09d0e86", "is_reserved": 0, "rental_uris": {"android": "https://dc.lft.to/lastmile_qr_scan", "ios": "https://dc.lft.to/lastmile_qr_scan"}, "fusion_lon": 0.0}, {"lat": 38.827894666666666, "is_disabled": 0, "type": "electric_bike", "lon": -77.00914116666667, "bike_id": "b1f74b70359e5a1d7479e099f605955d", "fusion_lat": 0.0, "name": "b1f74b70359e5a1d7479e099f605955d", "is_reserved": 0, "rental_uris": {"android": "https://dc.lft.to/lastmile_qr_scan", "ios": "https://dc.lft.to/lastmile_qr_scan"}, "fusion_lon": 0.0}, {"lat": 38.93299783333333, "is_disabled": 0, "type": "electric_scooter", "lon": -77.04532766666667, "bike_id": "326ae40c70e501fce7bc5ef6ca16aa86", "fusion_lat": 0.0, "name": "326ae40c70e501fce7bc5ef6ca16aa86", "is_reserved": 0, "rental_uris": {"android": "https://dc.lft.to/lastmile_qr_scan", "ios": "https://dc.lft.to/lastmile_qr_scan"}, "fusion_lon": 0.0}, {"lat": 38.984297, "is_disabled": 0, "type": "electric_scooter", "lon": -77.02668916666667, "bike_id": "a0aa53eef044e21f8314765dff71eae5", "fusion_lat": 0.0, "name": "a0aa53eef044e21f8314765dff71eae5", "is_reserved": 0, "rental_uris": {"android": "https://dc.lft.to/lastmile_qr_scan", "ios": "https://dc.lft.to/lastmile_qr_scan"}, "fusion_lon": 0.0}, {"lat": 38.88091033333333, "is_disabled": 0, "type": "electric_scooter", "lon": -76.99252683333333, "bike_id": "80ce95e712eef8ecdc2e726215353e8e", "fusion_lat": 0.0, "name": "80ce95e712eef8ecdc2e726215353e8e", "is_reserved": 0, "rental_uris": {"android": "https://dc.lft.to/lastmile_qr_scan", "ios": "https://dc.lft.to/lastmile_qr_scan"}, "fusion_lon": 0.0}, {"lat": 38.915676833333336, "is_disabled": 0, "type": "electric_scooter", "lon": -77.01167433333333, "bike_id": "b1312bba51c51bf4a260388efcce6ca2", "fusion_lat": 0.0, "name": "b1312bba51c51bf4a260388efcce6ca2", "is_reserved": 0, "rental_uris": {"android": "https://dc.lft.to/lastmile_qr_scan", "ios": "https://dc.lft.to/lastmile_qr_scan"}, "fusion_lon": 0.0}, {"lat": 38.907704333333335, "is_disabled": 0, "type": "electric_scooter", "lon": -77.03205733333333, "bike_id": "5e559eff840d5a0bdf659e88a606e04a", "fusion_lat": 0.0, "name": "5e559eff840d5a0bdf659e88a606e04a", "is_reserved": 0, "rental_uris": {"android": "https://dc.lft.to/lastmile_qr_scan", "ios": "https://dc.lft.to/lastmile_qr_scan"}, "fusion_lon": 0.0}, {"lat": 38.9246895, "is_disabled": 0, "type": "electric_scooter", "lon": -77.03388783333334, "bike_id": "327a3cecf7f6aa47eba5a8f6edb45e5e", "fusion_lat": 0.0, "name": "327a3cecf7f6aa47eba5a8f6edb45e5e", "is_reserved": 0, "rental_uris": {"android": "https://dc.lft.to/lastmile_qr_scan", "ios": "https://dc.lft.to/lastmile_qr_scan"}, "fusion_lon": 0.0}, {"lat": 38.896095, "is_disabled": 0, "type": "electric_scooter", "lon": -76.95520983333333, "bike_id": "c0e81e2596bdfccaeb81c288aa802d3d", "fusion_lat": 0.0, "name": "c0e81e2596bdfccaeb81c288aa802d3d", "is_reserved": 0, "rental_uris": {"android": "https://dc.lft.to/lastmile_qr_scan", "ios": "https://dc.lft.to/lastmile_qr_scan"}, "fusion_lon": 0.0}, {"lat": 38.9257395, "is_disabled": 0, "type": "electric_scooter", "lon": -77.0283795, "bike_id": "6cef8552276587f03c96c7bfc7e42be9", "fusion_lat": 0.0, "name": "6cef8552276587f03c96c7bfc7e42be9", "is_reserved": 0, "rental_uris": {"android": "https://dc.lft.to/lastmile_qr_scan", "ios": "https://dc.lft.to/lastmile_qr_scan"}, "fusion_lon": 0.0}, {"lat": 38.88479516666666, "is_disabled": 0, "type": "electric_scooter", "lon": -76.94525916666667, "bike_id": "8493a4b1e8b2ed0f83d7f1fec54666b0", "fusion_lat": 0.0, "name": "8493a4b1e8b2ed0f83d7f1fec54666b0", "is_reserved": 0, "rental_uris": {"android": "https://dc.lft.to/lastmile_qr_scan", "ios": "https://dc.lft.to/lastmile_qr_scan"}, "fusion_lon": 0.0}, {"lat": 38.91709066666667, "is_disabled": 0, "type": "electric_scooter", "lon": -77.03213583333333, "bike_id": "6f345be21064523a8e9153b31ba5b0b6", "fusion_lat": 0.0, "name": "6f345be21064523a8e9153b31ba5b0b6", "is_reserved": 0, "rental_uris": {"android": "https://dc.lft.to/lastmile_qr_scan", "ios": "https://dc.lft.to/lastmile_qr_scan"}, "fusion_lon": 0.0}, {"lat": 38.91934766666667, "is_disabled": 0, "type": "electric_scooter", "lon": -77.03386866666666, "bike_id": "7b5d2f1389138b1f607fb350635e4ee0", "fusion_lat": 0.0, "name": "7b5d2f1389138b1f607fb350635e4ee0", "is_reserved": 0, "rental_uris": {"android": "https://dc.lft.to/lastmile_qr_scan", "ios": "https://dc.lft.to/lastmile_qr_scan"}, "fusion_lon": 0.0}, {"lat": 38.91756933333333, "is_disabled": 0, "type": "electric_scooter", "lon": -77.03877816666666, "bike_id": "3c504932ebc5581763174352ba975b48", "fusion_lat": 0.0, "name": "3c504932ebc5581763174352ba975b48", "is_reserved": 0, "rental_uris": {"android": "https://dc.lft.to/lastmile_qr_scan", "ios": "https://dc.lft.to/lastmile_qr_scan"}, "fusion_lon": 0.0}, {"lat": 38.92288466666667, "is_disabled": 0, "type": "electric_scooter", "lon": -77.0320665, "bike_id": "81289f8c6a897fd2d02e79c3744adc0d", "fusion_lat": 0.0, "name": "81289f8c6a897fd2d02e79c3744adc0d", "is_reserved": 0, "rental_uris": {"android": "https://dc.lft.to/lastmile_qr_scan", "ios": "https://dc.lft.to/lastmile_qr_scan"}, "fusion_lon": 0.0}, {"lat": 38.889178, "is_disabled": 0, "type": "electric_scooter", "lon": -76.997416, "bike_id": "7d5618f0ceb44d20a4638cf6e71fe707", "fusion_lat": 0.0, "name": "7d5618f0ceb44d20a4638cf6e71fe707", "is_reserved": 0, "rental_uris": {"android": "https://dc.lft.to/lastmile_qr_scan", "ios": "https://dc.lft.to/lastmile_qr_scan"}, "fusion_lon": 0.0}, {"lat": 38.916927666666666, "is_disabled": 0, "type": "electric_scooter", "lon": -77.03103866666666, "bike_id": "6d0e26d0f9491cf4e08d0eaa56712086", "fusion_lat": 0.0, "name": "6d0e26d0f9491cf4e08d0eaa56712086", "is_reserved": 0, "rental_uris": {"android": "https://dc.lft.to/lastmile_qr_scan", "ios": "https://dc.lft.to/lastmile_qr_scan"}, "fusion_lon": 0.0}, {"lat": 38.84467466666667, "is_disabled": 0, "type": "electric_bike", "lon": -76.987487, "bike_id": "814e3d16f9f5f76b4ef67d1b00d38fb5", "fusion_lat": 0.0, "name": "814e3d16f9f5f76b4ef67d1b00d38fb5", "is_reserved": 0, "rental_uris": {"android": "https://dc.lft.to/lastmile_qr_scan", "ios": "https://dc.lft.to/lastmile_qr_scan"}, "fusion_lon": 0.0}, {"lat": 38.876269, "is_disabled": 0, "type": "electric_scooter", "lon": -76.96525116666666, "bike_id": "87602cd7e8ed3631857a727d627f944a", "fusion_lat": 0.0, "name": "87602cd7e8ed3631857a727d627f944a", "is_reserved": 0, "rental_uris": {"android": "https://dc.lft.to/lastmile_qr_scan", "ios": "https://dc.lft.to/lastmile_qr_scan"}, "fusion_lon": 0.0}, {"lat": 38.85929016666667, "is_disabled": 0, "type": "electric_scooter", "lon": -76.99719133333333, "bike_id": "67e37080d50da3281ce7f5930725a2f9", "fusion_lat": 0.0, "name": "67e37080d50da3281ce7f5930725a2f9", "is_reserved": 0, "rental_uris": {"android": "https://dc.lft.to/lastmile_qr_scan", "ios": "https://dc.lft.to/lastmile_qr_scan"}, "fusion_lon": 0.0}, {"lat": 38.834185833333336, "is_disabled": 0, "type": "electric_bike", "lon": -77.10376283333333, "bike_id": "5ca51589dd7a82d58c9eb177f25351d6", "fusion_lat": 0.0, "name": "5ca51589dd7a82d58c9eb177f25351d6", "is_reserved": 0, "rental_uris": {"android": "https://dc.lft.to/lastmile_qr_scan", "ios": "https://dc.lft.to/lastmile_qr_scan"}, "fusion_lon": 0.0}, {"lat": 38.93237383333334, "is_disabled": 0, "type": "electric_scooter", "lon": -77.03090816666666, "bike_id": "eb22b4f959a5742ff3dfbb3fd9d1ad67", "fusion_lat": 0.0, "name": "eb22b4f959a5742ff3dfbb3fd9d1ad67", "is_reserved": 0, "rental_uris": {"android": "https://dc.lft.to/lastmile_qr_scan", "ios": "https://dc.lft.to/lastmile_qr_scan"}, "fusion_lon": 0.0}, {"lat": 38.86524033333333, "is_disabled": 0, "type": "electric_scooter", "lon": -76.99025166666667, "bike_id": "859b87f1c38830fb03fe25d4d328754b", "fusion_lat": 0.0, "name": "859b87f1c38830fb03fe25d4d328754b", "is_reserved": 0, "rental_uris": {"android": "https://dc.lft.to/lastmile_qr_scan", "ios": "https://dc.lft.to/lastmile_qr_scan"}, "fusion_lon": 0.0}, {"lat": 38.9057405, "is_disabled": 0, "type": "electric_scooter", "lon": -77.00891933333334, "bike_id": "23527574cd024127d4b68332c07ad9b8", "fusion_lat": 0.0, "name": "23527574cd024127d4b68332c07ad9b8", "is_reserved": 0, "rental_uris": {"android": "https://dc.lft.to/lastmile_qr_scan", "ios": "https://dc.lft.to/lastmile_qr_scan"}, "fusion_lon": 0.0}, {"lat": 38.9162335, "is_disabled": 0, "type": "electric_scooter", "lon": -77.03169966666667, "bike_id": "ef976f9a6b361033612414f804ab34ad", "fusion_lat": 0.0, "name": "ef976f9a6b361033612414f804ab34ad", "is_reserved": 0, "rental_uris": {"android": "https://dc.lft.to/lastmile_qr_scan", "ios": "https://dc.lft.to/lastmile_qr_scan"}, "fusion_lon": 0.0}, {"lat": 38.92415716666667, "is_disabled": 0, "type": "electric_scooter", "lon": -77.02738483333333, "bike_id": "bfff5db656a9dca822c00c75693fa3d4", "fusion_lat": 0.0, "name": "bfff5db656a9dca822c00c75693fa3d4", "is_reserved": 0, "rental_uris": {"android": "https://dc.lft.to/lastmile_qr_scan", "ios": "https://dc.lft.to/lastmile_qr_scan"}, "fusion_lon": 0.0}, {"lat": 38.9026775, "is_disabled": 0, "type": "electric_scooter", "lon": -77.03445966666666, "bike_id": "6d13420c4c7895b4074d85e2cc99ac72", "fusion_lat": 0.0, "name": "6d13420c4c7895b4074d85e2cc99ac72", "is_reserved": 0, "rental_uris": {"android": "https://dc.lft.to/lastmile_qr_scan", "ios": "https://dc.lft.to/lastmile_qr_scan"}, "fusion_lon": 0.0}, {"lat": 38.902978, "is_disabled": 0, "type": "electric_scooter", "lon": -77.0403115, "bike_id": "7b6a982d198ef56cb966608e3876291a", "fusion_lat": 0.0, "name": "7b6a982d198ef56cb966608e3876291a", "is_reserved": 0, "rental_uris": {"android": "https://dc.lft.to/lastmile_qr_scan", "ios": "https://dc.lft.to/lastmile_qr_scan"}, "fusion_lon": 0.0}, {"lat": 38.903687, "is_disabled": 0, "type": "electric_scooter", "lon": -77.04225416666667, "bike_id": "d8c1cf21191a5ececff9653647b066d6", "fusion_lat": 0.0, "name": "d8c1cf21191a5ececff9653647b066d6", "is_reserved": 0, "rental_uris": {"android": "https://dc.lft.to/lastmile_qr_scan", "ios": "https://dc.lft.to/lastmile_qr_scan"}, "fusion_lon": 0.0}, {"lat": 38.94156316666667, "is_disabled": 0, "type": "electric_scooter", "lon": -77.0328465, "bike_id": "3314cde42065c44cb40df8d6ae235626", "fusion_lat": 0.0, "name": "3314cde42065c44cb40df8d6ae235626", "is_reserved": 0, "rental_uris": {"android": "https://dc.lft.to/lastmile_qr_scan", "ios": "https://dc.lft.to/lastmile_qr_scan"}, "fusion_lon": 0.0}, {"lat": 38.9507425, "is_disabled": 0, "type": "electric_scooter", "lon": -77.0665385, "bike_id": "71fd83b270fc8935f2a34364c803e3e4", "fusion_lat": 0.0, "name": "71fd83b270fc8935f2a34364c803e3e4", "is_reserved": 0, "rental_uris": {"android": "https://dc.lft.to/lastmile_qr_scan", "ios": "https://dc.lft.to/lastmile_qr_scan"}, "fusion_lon": 0.0}, {"lat": 38.905885, "is_disabled": 0, "type": "electric_scooter", "lon": -77.02186733333333, "bike_id": "a8332b9f110744d82d33f0b7395c604d", "fusion_lat": 0.0, "name": "a8332b9f110744d82d33f0b7395c604d", "is_reserved": 0, "rental_uris": {"android": "https://dc.lft.to/lastmile_qr_scan", "ios": "https://dc.lft.to/lastmile_qr_scan"}, "fusion_lon": 0.0}, {"lat": 38.87341933333333, "is_disabled": 0, "type": "electric_scooter", "lon": -76.991638, "bike_id": "c93e7d9a85002e920c7df48027d086ec", "fusion_lat": 0.0, "name": "c93e7d9a85002e920c7df48027d086ec", "is_reserved": 0, "rental_uris": {"android": "https://dc.lft.to/lastmile_qr_scan", "ios": "https://dc.lft.to/lastmile_qr_scan"}, "fusion_lon": 0.0}, {"lat": 38.876291, "is_disabled": 0, "type": "electric_scooter", "lon": -76.96524683333334, "bike_id": "61a4e183ad0dd25f280b48229edca8d8", "fusion_lat": 0.0, "name": "61a4e183ad0dd25f280b48229edca8d8", "is_reserved": 0, "rental_uris": {"android": "https://dc.lft.to/lastmile_qr_scan", "ios": "https://dc.lft.to/lastmile_qr_scan"}, "fusion_lon": 0.0}, {"lat": 38.842922333333334, "is_disabled": 0, "type": "electric_scooter", "lon": -76.99946383333334, "bike_id": "4f913c878cc87673f320f807688bffaf", "fusion_lat": 0.0, "name": "4f913c878cc87673f320f807688bffaf", "is_reserved": 0, "rental_uris": {"android": "https://dc.lft.to/lastmile_qr_scan", "ios": "https://dc.lft.to/lastmile_qr_scan"}, "fusion_lon": 0.0}, {"lat": 38.89495466666666, "is_disabled": 0, "type": "electric_scooter", "lon": -77.02388366666666, "bike_id": "108703b4b66a9f8b91841e3624751fc7", "fusion_lat": 0.0, "name": "108703b4b66a9f8b91841e3624751fc7", "is_reserved": 0, "rental_uris": {"android": "https://dc.lft.to/lastmile_qr_scan", "ios": "https://dc.lft.to/lastmile_qr_scan"}, "fusion_lon": 0.0}, {"lat": 38.900563, "is_disabled": 0, "type": "electric_scooter", "lon": -77.04402866666666, "bike_id": "892025d5e75162ecdbf0e2fc46ef7ee3", "fusion_lat": 0.0, "name": "892025d5e75162ecdbf0e2fc46ef7ee3", "is_reserved": 0, "rental_uris": {"android": "https://dc.lft.to/lastmile_qr_scan", "ios": "https://dc.lft.to/lastmile_qr_scan"}, "fusion_lon": 0.0}, {"lat": 38.9028705, "is_disabled": 0, "type": "electric_scooter", "lon": -77.03440433333333, "bike_id": "b2502556258878741e947486d8fdf68c", "fusion_lat": 0.0, "name": "b2502556258878741e947486d8fdf68c", "is_reserved": 0, "rental_uris": {"android": "https://dc.lft.to/lastmile_qr_scan", "ios": "https://dc.lft.to/lastmile_qr_scan"}, "fusion_lon": 0.0}, {"lat": 38.900259166666665, "is_disabled": 0, "type": "electric_scooter", "lon": -76.98808533333333, "bike_id": "9dc2369029232a4591683ed16b4b9891", "fusion_lat": 0.0, "name": "9dc2369029232a4591683ed16b4b9891", "is_reserved": 0, "rental_uris": {"android": "https://dc.lft.to/lastmile_qr_scan", "ios": "https://dc.lft.to/lastmile_qr_scan"}, "fusion_lon": 0.0}, {"lat": 38.907377333333336, "is_disabled": 0, "type": "electric_scooter", "lon": -77.04780316666667, "bike_id": "fc91169cd9ddd943601e30db6efd0982", "fusion_lat": 0.0, "name": "fc91169cd9ddd943601e30db6efd0982", "is_reserved": 0, "rental_uris": {"android": "https://dc.lft.to/lastmile_qr_scan", "ios": "https://dc.lft.to/lastmile_qr_scan"}, "fusion_lon": 0.0}, {"lat": 38.89463883333333, "is_disabled": 0, "type": "electric_bike", "lon": -77.009488, "bike_id": "60f5d3fa0c2361961626dcffb36877d9", "fusion_lat": 0.0, "name": "60f5d3fa0c2361961626dcffb36877d9", "is_reserved": 0, "rental_uris": {"android": "https://dc.lft.to/lastmile_qr_scan", "ios": "https://dc.lft.to/lastmile_qr_scan"}, "fusion_lon": 0.0}, {"lat": 38.90288066666667, "is_disabled": 0, "type": "electric_scooter", "lon": -77.04693183333333, "bike_id": "d27f06d6aa87322c8bd09463ff937f91", "fusion_lat": 0.0, "name": "d27f06d6aa87322c8bd09463ff937f91", "is_reserved": 0, "rental_uris": {"android": "https://dc.lft.to/lastmile_qr_scan", "ios": "https://dc.lft.to/lastmile_qr_scan"}, "fusion_lon": 0.0}, {"lat": 38.94174783333333, "is_disabled": 0, "type": "electric_scooter", "lon": -77.03282233333333, "bike_id": "6f5f2ba523c8cec5566ca68e6924f2cb", "fusion_lat": 0.0, "name": "6f5f2ba523c8cec5566ca68e6924f2cb", "is_reserved": 0, "rental_uris": {"android": "https://dc.lft.to/lastmile_qr_scan", "ios": "https://dc.lft.to/lastmile_qr_scan"}, "fusion_lon": 0.0}, {"lat": 38.91938666666667, "is_disabled": 0, "type": "electric_scooter", "lon": -77.02537466666666, "bike_id": "418e2b19a84a3591396b43d54910087b", "fusion_lat": 0.0, "name": "418e2b19a84a3591396b43d54910087b", "is_reserved": 0, "rental_uris": {"android": "https://dc.lft.to/lastmile_qr_scan", "ios": "https://dc.lft.to/lastmile_qr_scan"}, "fusion_lon": 0.0}, {"lat": 38.866533833333335, "is_disabled": 0, "type": "electric_scooter", "lon": -76.988862, "bike_id": "3f6d0c2a36118293e578494f781fbf70", "fusion_lat": 0.0, "name": "3f6d0c2a36118293e578494f781fbf70", "is_reserved": 0, "rental_uris": {"android": "https://dc.lft.to/lastmile_qr_scan", "ios": "https://dc.lft.to/lastmile_qr_scan"}, "fusion_lon": 0.0}, {"lat": 38.913580333333336, "is_disabled": 0, "type": "electric_scooter", "lon": -77.06920416666667, "bike_id": "b76b752dbad668d7a99b1146ada9f939", "fusion_lat": 0.0, "name": "b76b752dbad668d7a99b1146ada9f939", "is_reserved": 0, "rental_uris": {"android": "https://dc.lft.to/lastmile_qr_scan", "ios": "https://dc.lft.to/lastmile_qr_scan"}, "fusion_lon": 0.0}, {"lat": 38.905165333333336, "is_disabled": 0, "type": "electric_scooter", "lon": -77.03872583333333, "bike_id": "69b7cc84bf9c78ff83982e63a8d5ab81", "fusion_lat": 0.0, "name": "69b7cc84bf9c78ff83982e63a8d5ab81", "is_reserved": 0, "rental_uris": {"android": "https://dc.lft.to/lastmile_qr_scan", "ios": "https://dc.lft.to/lastmile_qr_scan"}, "fusion_lon": 0.0}, {"lat": 38.92311766666667, "is_disabled": 0, "type": "electric_scooter", "lon": -77.03962666666666, "bike_id": "a188ef16b3c5ad08465f60359d5bbe9c", "fusion_lat": 0.0, "name": "a188ef16b3c5ad08465f60359d5bbe9c", "is_reserved": 0, "rental_uris": {"android": "https://dc.lft.to/lastmile_qr_scan", "ios": "https://dc.lft.to/lastmile_qr_scan"}, "fusion_lon": 0.0}, {"lat": 38.8739535, "is_disabled": 0, "type": "electric_bike", "lon": -77.00580633333334, "bike_id": "640f040f5f2c446f662959f3b5d8bab7", "fusion_lat": 0.0, "name": "640f040f5f2c446f662959f3b5d8bab7", "is_reserved": 0, "rental_uris": {"android": "https://dc.lft.to/lastmile_qr_scan", "ios": "https://dc.lft.to/lastmile_qr_scan"}, "fusion_lon": 0.0}, {"lat": 38.8923245, "is_disabled": 0, "type": "electric_scooter", "lon": -77.0500075, "bike_id": "6ae37b396722dae7cda70a5605e8b359", "fusion_lat": 0.0, "name": "6ae37b396722dae7cda70a5605e8b359", "is_reserved": 0, "rental_uris": {"android": "https://dc.lft.to/lastmile_qr_scan", "ios": "https://dc.lft.to/lastmile_qr_scan"}, "fusion_lon": 0.0}, {"lat": 38.960208, "is_disabled": 0, "type": "electric_bike", "lon": -77.01727083333333, "bike_id": "69c89e8890dff8c16e44a9ff490a7647", "fusion_lat": 0.0, "name": "69c89e8890dff8c16e44a9ff490a7647", "is_reserved": 0, "rental_uris": {"android": "https://dc.lft.to/lastmile_qr_scan", "ios": "https://dc.lft.to/lastmile_qr_scan"}, "fusion_lon": 0.0}, {"lat": 38.80752533333333, "is_disabled": 0, "type": "electric_bike", "lon": -77.09474916666667, "bike_id": "a2e01a34e121b839d521a632204755fd", "fusion_lat": 0.0, "name": "a2e01a34e121b839d521a632204755fd", "is_reserved": 0, "rental_uris": {"android": "https://dc.lft.to/lastmile_qr_scan", "ios": "https://dc.lft.to/lastmile_qr_scan"}, "fusion_lon": 0.0}, {"lat": 38.87867633333333, "is_disabled": 0, "type": "electric_scooter", "lon": -77.02240816666666, "bike_id": "c4e9036ea4b313db3459374f3218ecb8", "fusion_lat": 0.0, "name": "c4e9036ea4b313db3459374f3218ecb8", "is_reserved": 0, "rental_uris": {"android": "https://dc.lft.to/lastmile_qr_scan", "ios": "https://dc.lft.to/lastmile_qr_scan"}, "fusion_lon": 0.0}, {"lat": 38.8847025, "is_disabled": 0, "type": "electric_scooter", "lon": -76.99257783333333, "bike_id": "5f3aa404dd93033fdd891c82dd1db6a5", "fusion_lat": 0.0, "name": "5f3aa404dd93033fdd891c82dd1db6a5", "is_reserved": 0, "rental_uris": {"android": "https://dc.lft.to/lastmile_qr_scan", "ios": "https://dc.lft.to/lastmile_qr_scan"}, "fusion_lon": 0.0}, {"lat": 38.953292833333336, "is_disabled": 0, "type": "electric_scooter", "lon": -77.02755533333334, "bike_id": "9b6b35b268ac8c6b6902558dfc1d5a29", "fusion_lat": 0.0, "name": "9b6b35b268ac8c6b6902558dfc1d5a29", "is_reserved": 0, "rental_uris": {"android": "https://dc.lft.to/lastmile_qr_scan", "ios": "https://dc.lft.to/lastmile_qr_scan"}, "fusion_lon": 0.0}, {"lat": 39.029355, "is_disabled": 0, "type": "electric_bike", "lon": -77.04926683333333, "bike_id": "bd238aa3066ca3d5be45b920c913abca", "fusion_lat": 0.0, "name": "bd238aa3066ca3d5be45b920c913abca", "is_reserved": 0, "rental_uris": {"android": "https://dc.lft.to/lastmile_qr_scan", "ios": "https://dc.lft.to/lastmile_qr_scan"}, "fusion_lon": 0.0}, {"lat": 38.91988583333333, "is_disabled": 0, "type": "electric_scooter", "lon": -76.9730885, "bike_id": "4e727f6531516f4b58ba94627d8f0b3e", "fusion_lat": 0.0, "name": "4e727f6531516f4b58ba94627d8f0b3e", "is_reserved": 0, "rental_uris": {"android": "https://dc.lft.to/lastmile_qr_scan", "ios": "https://dc.lft.to/lastmile_qr_scan"}, "fusion_lon": 0.0}, {"lat": 38.92719816666666, "is_disabled": 0, "type": "electric_scooter", "lon": -77.022881, "bike_id": "cb783e685287b70507b56b3b87da5464", "fusion_lat": 0.0, "name": "cb783e685287b70507b56b3b87da5464", "is_reserved": 0, "rental_uris": {"android": "https://dc.lft.to/lastmile_qr_scan", "ios": "https://dc.lft.to/lastmile_qr_scan"}, "fusion_lon": 0.0}, {"lat": 38.8849135, "is_disabled": 0, "type": "electric_scooter", "lon": -77.0071345, "bike_id": "d6656b0a4b89be4f2dac92b6c69ac260", "fusion_lat": 0.0, "name": "d6656b0a4b89be4f2dac92b6c69ac260", "is_reserved": 0, "rental_uris": {"android": "https://dc.lft.to/lastmile_qr_scan", "ios": "https://dc.lft.to/lastmile_qr_scan"}, "fusion_lon": 0.0}, {"lat": 38.97347466666667, "is_disabled": 0, "type": "electric_scooter", "lon": -77.01794433333333, "bike_id": "c0887657c5b1e7ee0e189df002c70101", "fusion_lat": 0.0, "name": "c0887657c5b1e7ee0e189df002c70101", "is_reserved": 0, "rental_uris": {"android": "https://dc.lft.to/lastmile_qr_scan", "ios": "https://dc.lft.to/lastmile_qr_scan"}, "fusion_lon": 0.0}, {"lat": 38.87633866666667, "is_disabled": 0, "type": "electric_scooter", "lon": -77.00952816666667, "bike_id": "9b477e68fe55dce7a2d472b7ea05b761", "fusion_lat": 0.0, "name": "9b477e68fe55dce7a2d472b7ea05b761", "is_reserved": 0, "rental_uris": {"android": "https://dc.lft.to/lastmile_qr_scan", "ios": "https://dc.lft.to/lastmile_qr_scan"}, "fusion_lon": 0.0}, {"lat": 38.887678333333334, "is_disabled": 0, "type": "electric_scooter", "lon": -76.9557715, "bike_id": "f496028d3d1813d575e2acfaafd12603", "fusion_lat": 0.0, "name": "f496028d3d1813d575e2acfaafd12603", "is_reserved": 0, "rental_uris": {"android": "https://dc.lft.to/lastmile_qr_scan", "ios": "https://dc.lft.to/lastmile_qr_scan"}, "fusion_lon": 0.0}, {"lat": 38.92340766666667, "is_disabled": 0, "type": "electric_scooter", "lon": -77.04342683333333, "bike_id": "c3171200198f6c4a9e09be1d72e3fd05", "fusion_lat": 0.0, "name": "c3171200198f6c4a9e09be1d72e3fd05", "is_reserved": 0, "rental_uris": {"android": "https://dc.lft.to/lastmile_qr_scan", "ios": "https://dc.lft.to/lastmile_qr_scan"}, "fusion_lon": 0.0}, {"lat": 38.87794816666667, "is_disabled": 0, "type": "electric_bike", "lon": -77.02328433333334, "bike_id": "c7a0d634f06d5c3d2aa45f937195ab92", "fusion_lat": 0.0, "name": "c7a0d634f06d5c3d2aa45f937195ab92", "is_reserved": 0, "rental_uris": {"android": "https://dc.lft.to/lastmile_qr_scan", "ios": "https://dc.lft.to/lastmile_qr_scan"}, "fusion_lon": 0.0}, {"lat": 38.9134365, "is_disabled": 0, "type": "electric_scooter", "lon": -77.04050333333333, "bike_id": "7bb294add8b54302e978010d8760643f", "fusion_lat": 0.0, "name": "7bb294add8b54302e978010d8760643f", "is_reserved": 0, "rental_uris": {"android": "https://dc.lft.to/lastmile_qr_scan", "ios": "https://dc.lft.to/lastmile_qr_scan"}, "fusion_lon": 0.0}, {"lat": 38.9208695, "is_disabled": 0, "type": "electric_scooter", "lon": -77.024118, "bike_id": "173a957295aacbdb9cee7505a668534f", "fusion_lat": 0.0, "name": "173a957295aacbdb9cee7505a668534f", "is_reserved": 0, "rental_uris": {"android": "https://dc.lft.to/lastmile_qr_scan", "ios": "https://dc.lft.to/lastmile_qr_scan"}, "fusion_lon": 0.0}, {"lat": 38.89772583333333, "is_disabled": 0, "type": "electric_scooter", "lon": -77.02945166666667, "bike_id": "6fb922ae663b75d5531fa8538019237d", "fusion_lat": 0.0, "name": "6fb922ae663b75d5531fa8538019237d", "is_reserved": 0, "rental_uris": {"android": "https://dc.lft.to/lastmile_qr_scan", "ios": "https://dc.lft.to/lastmile_qr_scan"}, "fusion_lon": 0.0}, {"lat": 38.90453083333333, "is_disabled": 0, "type": "electric_scooter", "lon": -76.99458566666667, "bike_id": "3aca2d4b0cdf526acbaa2fda5e4ce0c9", "fusion_lat": 0.0, "name": "3aca2d4b0cdf526acbaa2fda5e4ce0c9", "is_reserved": 0, "rental_uris": {"android": "https://dc.lft.to/lastmile_qr_scan", "ios": "https://dc.lft.to/lastmile_qr_scan"}, "fusion_lon": 0.0}, {"lat": 38.9097255, "is_disabled": 0, "type": "electric_scooter", "lon": -77.03376933333334, "bike_id": "218e6f8257bfef67a5ecc5ab2d1b00ea", "fusion_lat": 0.0, "name": "218e6f8257bfef67a5ecc5ab2d1b00ea", "is_reserved": 0, "rental_uris": {"android": "https://dc.lft.to/lastmile_qr_scan", "ios": "https://dc.lft.to/lastmile_qr_scan"}, "fusion_lon": 0.0}, {"lat": 38.916365666666664, "is_disabled": 0, "type": "electric_scooter", "lon": -77.04617433333334, "bike_id": "c29432dd0fe2d401ecd9956c853f4c83", "fusion_lat": 0.0, "name": "c29432dd0fe2d401ecd9956c853f4c83", "is_reserved": 0, "rental_uris": {"android": "https://dc.lft.to/lastmile_qr_scan", "ios": "https://dc.lft.to/lastmile_qr_scan"}, "fusion_lon": 0.0}, {"lat": 38.90323683333333, "is_disabled": 0, "type": "electric_scooter", "lon": -77.02867316666666, "bike_id": "6d378eb6f62253b514643a1fbe414fe0", "fusion_lat": 0.0, "name": "6d378eb6f62253b514643a1fbe414fe0", "is_reserved": 0, "rental_uris": {"android": "https://dc.lft.to/lastmile_qr_scan", "ios": "https://dc.lft.to/lastmile_qr_scan"}, "fusion_lon": 0.0}, {"lat": 38.876413, "is_disabled": 0, "type": "electric_scooter", "lon": -76.99320883333333, "bike_id": "dd207afe39c5340244a4e92534cfad9c", "fusion_lat": 0.0, "name": "dd207afe39c5340244a4e92534cfad9c", "is_reserved": 0, "rental_uris": {"android": "https://dc.lft.to/lastmile_qr_scan", "ios": "https://dc.lft.to/lastmile_qr_scan"}, "fusion_lon": 0.0}, {"lat": 39.088571333333334, "is_disabled": 0, "type": "electric_bike", "lon": -77.17840316666667, "bike_id": "5d8fb2380661c0da49a52c4522530c2c", "fusion_lat": 0.0, "name": "5d8fb2380661c0da49a52c4522530c2c", "is_reserved": 0, "rental_uris": {"android": "https://dc.lft.to/lastmile_qr_scan", "ios": "https://dc.lft.to/lastmile_qr_scan"}, "fusion_lon": 0.0}, {"lat": 38.917831166666666, "is_disabled": 0, "type": "electric_scooter", "lon": -77.02881283333333, "bike_id": "044faf393083606a56361595c5064564", "fusion_lat": 0.0, "name": "044faf393083606a56361595c5064564", "is_reserved": 0, "rental_uris": {"android": "https://dc.lft.to/lastmile_qr_scan", "ios": "https://dc.lft.to/lastmile_qr_scan"}, "fusion_lon": 0.0}, {"lat": 38.9285975, "is_disabled": 0, "type": "electric_bike", "lon": -77.2221765, "bike_id": "65eb7674cf4462eeded67124c26541e0", "fusion_lat": 0.0, "name": "65eb7674cf4462eeded67124c26541e0", "is_reserved": 0, "rental_uris": {"android": "https://dc.lft.to/lastmile_qr_scan", "ios": "https://dc.lft.to/lastmile_qr_scan"}, "fusion_lon": 0.0}, {"lat": 38.938743833333334, "is_disabled": 0, "type": "electric_scooter", "lon": -77.03258216666667, "bike_id": "070e2f751e04d3f8f552c739d33bba8e", "fusion_lat": 0.0, "name": "070e2f751e04d3f8f552c739d33bba8e", "is_reserved": 0, "rental_uris": {"android": "https://dc.lft.to/lastmile_qr_scan", "ios": "https://dc.lft.to/lastmile_qr_scan"}, "fusion_lon": 0.0}, {"lat": 38.90248166666667, "is_disabled": 0, "type": "electric_scooter", "lon": -77.043486, "bike_id": "c6abe6b4a25b7a44be9bb2d81972c723", "fusion_lat": 0.0, "name": "c6abe6b4a25b7a44be9bb2d81972c723", "is_reserved": 0, "rental_uris": {"android": "https://dc.lft.to/lastmile_qr_scan", "ios": "https://dc.lft.to/lastmile_qr_scan"}, "fusion_lon": 0.0}, {"lat": 38.91577866666667, "is_disabled": 0, "type": "electric_scooter", "lon": -77.03210416666667, "bike_id": "842c61076e3c716676fc538b76fdc113", "fusion_lat": 0.0, "name": "842c61076e3c716676fc538b76fdc113", "is_reserved": 0, "rental_uris": {"android": "https://dc.lft.to/lastmile_qr_scan", "ios": "https://dc.lft.to/lastmile_qr_scan"}, "fusion_lon": 0.0}, {"lat": 38.91949816666666, "is_disabled": 0, "type": "electric_scooter", "lon": -76.98078216666667, "bike_id": "3abc41b74f96b0f1024a50f569fd468b", "fusion_lat": 0.0, "name": "3abc41b74f96b0f1024a50f569fd468b", "is_reserved": 0, "rental_uris": {"android": "https://dc.lft.to/lastmile_qr_scan", "ios": "https://dc.lft.to/lastmile_qr_scan"}, "fusion_lon": 0.0}, {"lat": 38.933741833333336, "is_disabled": 0, "type": "electric_scooter", "lon": -77.03794983333333, "bike_id": "b0c9b2046cfae57ea078d3e15b117844", "fusion_lat": 0.0, "name": "b0c9b2046cfae57ea078d3e15b117844", "is_reserved": 0, "rental_uris": {"android": "https://dc.lft.to/lastmile_qr_scan", "ios": "https://dc.lft.to/lastmile_qr_scan"}, "fusion_lon": 0.0}, {"lat": 38.90323033333333, "is_disabled": 0, "type": "electric_scooter", "lon": -77.03771016666667, "bike_id": "efe37e8cfc0a8bd675006ef14f920770", "fusion_lat": 0.0, "name": "efe37e8cfc0a8bd675006ef14f920770", "is_reserved": 0, "rental_uris": {"android": "https://dc.lft.to/lastmile_qr_scan", "ios": "https://dc.lft.to/lastmile_qr_scan"}, "fusion_lon": 0.0}, {"lat": 38.911645166666666, "is_disabled": 0, "type": "electric_scooter", "lon": -77.04498583333333, "bike_id": "7345f0279cd9ff2fec04065d71977d84", "fusion_lat": 0.0, "name": "7345f0279cd9ff2fec04065d71977d84", "is_reserved": 0, "rental_uris": {"android": "https://dc.lft.to/lastmile_qr_scan", "ios": "https://dc.lft.to/lastmile_qr_scan"}, "fusion_lon": 0.0}, {"lat": 38.8604945, "is_disabled": 0, "type": "electric_scooter", "lon": -77.0576105, "bike_id": "bc572140abd873391c9eed1d552f405a", "fusion_lat": 0.0, "name": "bc572140abd873391c9eed1d552f405a", "is_reserved": 0, "rental_uris": {"android": "https://dc.lft.to/lastmile_qr_scan", "ios": "https://dc.lft.to/lastmile_qr_scan"}, "fusion_lon": 0.0}, {"lat": 38.972292833333334, "is_disabled": 0, "type": "electric_bike", "lon": -76.99343916666666, "bike_id": "71c0c2065f0303470e2bd8614f6d7731", "fusion_lat": 0.0, "name": "71c0c2065f0303470e2bd8614f6d7731", "is_reserved": 0, "rental_uris": {"android": "https://dc.lft.to/lastmile_qr_scan", "ios": "https://dc.lft.to/lastmile_qr_scan"}, "fusion_lon": 0.0}, {"lat": 38.92237316666667, "is_disabled": 0, "type": "electric_scooter", "lon": -77.04580483333334, "bike_id": "0144940822e3691f2fe741ccec0acb55", "fusion_lat": 0.0, "name": "0144940822e3691f2fe741ccec0acb55", "is_reserved": 0, "rental_uris": {"android": "https://dc.lft.to/lastmile_qr_scan", "ios": "https://dc.lft.to/lastmile_qr_scan"}, "fusion_lon": 0.0}, {"lat": 38.91782833333333, "is_disabled": 0, "type": "electric_scooter", "lon": -77.03213366666667, "bike_id": "908062e1ed639d69d9b2151634f90dd0", "fusion_lat": 0.0, "name": "908062e1ed639d69d9b2151634f90dd0", "is_reserved": 0, "rental_uris": {"android": "https://dc.lft.to/lastmile_qr_scan", "ios": "https://dc.lft.to/lastmile_qr_scan"}, "fusion_lon": 0.0}, {"lat": 38.916745, "is_disabled": 0, "type": "electric_scooter", "lon": -77.0065555, "bike_id": "93b28478d3aac762515badf1dd87d1b7", "fusion_lat": 0.0, "name": "93b28478d3aac762515badf1dd87d1b7", "is_reserved": 0, "rental_uris": {"android": "https://dc.lft.to/lastmile_qr_scan", "ios": "https://dc.lft.to/lastmile_qr_scan"}, "fusion_lon": 0.0}, {"lat": 38.9260225, "is_disabled": 0, "type": "electric_scooter", "lon": -77.02156083333334, "bike_id": "a51824a0af0ace85c426546156e67bc5", "fusion_lat": 0.0, "name": "a51824a0af0ace85c426546156e67bc5", "is_reserved": 0, "rental_uris": {"android": "https://dc.lft.to/lastmile_qr_scan", "ios": "https://dc.lft.to/lastmile_qr_scan"}, "fusion_lon": 0.0}, {"lat": 38.92528333333333, "is_disabled": 0, "type": "electric_scooter", "lon": -77.0076105, "bike_id": "27bf46f8b105283c6b1211583a54bba6", "fusion_lat": 0.0, "name": "27bf46f8b105283c6b1211583a54bba6", "is_reserved": 0, "rental_uris": {"android": "https://dc.lft.to/lastmile_qr_scan", "ios": "https://dc.lft.to/lastmile_qr_scan"}, "fusion_lon": 0.0}, {"lat": 38.874589, "is_disabled": 0, "type": "electric_scooter", "lon": -77.005446, "bike_id": "336362ecc70df56338c8208a57973904", "fusion_lat": 0.0, "name": "336362ecc70df56338c8208a57973904", "is_reserved": 0, "rental_uris": {"android": "https://dc.lft.to/lastmile_qr_scan", "ios": "https://dc.lft.to/lastmile_qr_scan"}, "fusion_lon": 0.0}, {"lat": 38.91662183333333, "is_disabled": 0, "type": "electric_scooter", "lon": -77.04777866666667, "bike_id": "103155e73064ebdb737b587b360dfff4", "fusion_lat": 0.0, "name": "103155e73064ebdb737b587b360dfff4", "is_reserved": 0, "rental_uris": {"android": "https://dc.lft.to/lastmile_qr_scan", "ios": "https://dc.lft.to/lastmile_qr_scan"}, "fusion_lon": 0.0}, {"lat": 38.994004833333335, "is_disabled": 0, "type": "electric_bike", "lon": -77.03169483333333, "bike_id": "70d48fe74940e381b3256f12d7748155", "fusion_lat": 0.0, "name": "70d48fe74940e381b3256f12d7748155", "is_reserved": 0, "rental_uris": {"android": "https://dc.lft.to/lastmile_qr_scan", "ios": "https://dc.lft.to/lastmile_qr_scan"}, "fusion_lon": 0.0}, {"lat": 38.842904, "is_disabled": 0, "type": "electric_scooter", "lon": -76.99947733333333, "bike_id": "7fa661a9fcfb752f62de682b27b43c7d", "fusion_lat": 0.0, "name": "7fa661a9fcfb752f62de682b27b43c7d", "is_reserved": 0, "rental_uris": {"android": "https://dc.lft.to/lastmile_qr_scan", "ios": "https://dc.lft.to/lastmile_qr_scan"}, "fusion_lon": 0.0}, {"lat": 38.90176066666667, "is_disabled": 0, "type": "electric_scooter", "lon": -76.98030483333334, "bike_id": "adfed49ea2ae02251a3098bcd6db3365", "fusion_lat": 0.0, "name": "adfed49ea2ae02251a3098bcd6db3365", "is_reserved": 0, "rental_uris": {"android": "https://dc.lft.to/lastmile_qr_scan", "ios": "https://dc.lft.to/lastmile_qr_scan"}, "fusion_lon": 0.0}, {"lat": 38.900142, "is_disabled": 0, "type": "electric_scooter", "lon": -77.0120115, "bike_id": "962c383886f6cc5a455aa76ec757ed8e", "fusion_lat": 0.0, "name": "962c383886f6cc5a455aa76ec757ed8e", "is_reserved": 0, "rental_uris": {"android": "https://dc.lft.to/lastmile_qr_scan", "ios": "https://dc.lft.to/lastmile_qr_scan"}, "fusion_lon": 0.0}, {"lat": 38.884882833333336, "is_disabled": 0, "type": "electric_scooter", "lon": -77.00710333333333, "bike_id": "765db4d447e72bd337557f97ef31b5c9", "fusion_lat": 0.0, "name": "765db4d447e72bd337557f97ef31b5c9", "is_reserved": 0, "rental_uris": {"android": "https://dc.lft.to/lastmile_qr_scan", "ios": "https://dc.lft.to/lastmile_qr_scan"}, "fusion_lon": 0.0}, {"lat": 38.897319833333334, "is_disabled": 0, "type": "electric_scooter", "lon": -77.04991366666667, "bike_id": "832b475eb662cf582aebc2027d01a530", "fusion_lat": 0.0, "name": "832b475eb662cf582aebc2027d01a530", "is_reserved": 0, "rental_uris": {"android": "https://dc.lft.to/lastmile_qr_scan", "ios": "https://dc.lft.to/lastmile_qr_scan"}, "fusion_lon": 0.0}, {"lat": 38.92860133333333, "is_disabled": 0, "type": "electric_scooter", "lon": -77.0309835, "bike_id": "2b4e619b98dc35866f6ed7cb1acaf607", "fusion_lat": 0.0, "name": "2b4e619b98dc35866f6ed7cb1acaf607", "is_reserved": 0, "rental_uris": {"android": "https://dc.lft.to/lastmile_qr_scan", "ios": "https://dc.lft.to/lastmile_qr_scan"}, "fusion_lon": 0.0}, {"lat": 38.9257385, "is_disabled": 0, "type": "electric_scooter", "lon": -76.98608066666667, "bike_id": "c29e4bb3226f4f332d059c1be3fde8a6", "fusion_lat": 0.0, "name": "c29e4bb3226f4f332d059c1be3fde8a6", "is_reserved": 0, "rental_uris": {"android": "https://dc.lft.to/lastmile_qr_scan", "ios": "https://dc.lft.to/lastmile_qr_scan"}, "fusion_lon": 0.0}, {"lat": 38.945571, "is_disabled": 0, "type": "electric_bike", "lon": -76.895397, "bike_id": "67740b0f75e43de97012093e6667b9bc", "fusion_lat": 0.0, "name": "67740b0f75e43de97012093e6667b9bc", "is_reserved": 0, "rental_uris": {"android": "https://dc.lft.to/lastmile_qr_scan", "ios": "https://dc.lft.to/lastmile_qr_scan"}, "fusion_lon": 0.0}, {"lat": 38.91983233333333, "is_disabled": 0, "type": "electric_scooter", "lon": -77.02385066666666, "bike_id": "d07647483f01231d8bc6ea0417215bb9", "fusion_lat": 0.0, "name": "d07647483f01231d8bc6ea0417215bb9", "is_reserved": 0, "rental_uris": {"android": "https://dc.lft.to/lastmile_qr_scan", "ios": "https://dc.lft.to/lastmile_qr_scan"}, "fusion_lon": 0.0}, {"lat": 38.905300833333335, "is_disabled": 0, "type": "electric_scooter", "lon": -77.02694366666667, "bike_id": "676d5ede3062b123e1112284d6e72afd", "fusion_lat": 0.0, "name": "676d5ede3062b123e1112284d6e72afd", "is_reserved": 0, "rental_uris": {"android": "https://dc.lft.to/lastmile_qr_scan", "ios": "https://dc.lft.to/lastmile_qr_scan"}, "fusion_lon": 0.0}, {"lat": 38.878992333333336, "is_disabled": 0, "type": "electric_scooter", "lon": -77.00571433333333, "bike_id": "9f9ffeafb2937d522da136df9f0cf9fc", "fusion_lat": 0.0, "name": "9f9ffeafb2937d522da136df9f0cf9fc", "is_reserved": 0, "rental_uris": {"android": "https://dc.lft.to/lastmile_qr_scan", "ios": "https://dc.lft.to/lastmile_qr_scan"}, "fusion_lon": 0.0}, {"lat": 38.91259316666667, "is_disabled": 0, "type": "electric_scooter", "lon": -77.0323175, "bike_id": "eb51a981383d30df548d3b5a136f95b9", "fusion_lat": 0.0, "name": "eb51a981383d30df548d3b5a136f95b9", "is_reserved": 0, "rental_uris": {"android": "https://dc.lft.to/lastmile_qr_scan", "ios": "https://dc.lft.to/lastmile_qr_scan"}, "fusion_lon": 0.0}, {"lat": 38.90752066666667, "is_disabled": 0, "type": "electric_scooter", "lon": -77.04156816666666, "bike_id": "0bd4ceb9dad8ea50ed965933f1c6c3bc", "fusion_lat": 0.0, "name": "0bd4ceb9dad8ea50ed965933f1c6c3bc", "is_reserved": 0, "rental_uris": {"android": "https://dc.lft.to/lastmile_qr_scan", "ios": "https://dc.lft.to/lastmile_qr_scan"}, "fusion_lon": 0.0}, {"lat": 38.91687733333333, "is_disabled": 0, "type": "electric_scooter", "lon": -77.02514033333334, "bike_id": "652b8b584ccc069dd687db2212a182d0", "fusion_lat": 0.0, "name": "652b8b584ccc069dd687db2212a182d0", "is_reserved": 0, "rental_uris": {"android": "https://dc.lft.to/lastmile_qr_scan", "ios": "https://dc.lft.to/lastmile_qr_scan"}, "fusion_lon": 0.0}, {"lat": 38.9374365, "is_disabled": 0, "type": "electric_scooter", "lon": -77.03638183333334, "bike_id": "2540cd2b5bcd915c9f27da400dab7514", "fusion_lat": 0.0, "name": "2540cd2b5bcd915c9f27da400dab7514", "is_reserved": 0, "rental_uris": {"android": "https://dc.lft.to/lastmile_qr_scan", "ios": "https://dc.lft.to/lastmile_qr_scan"}, "fusion_lon": 0.0}, {"lat": 38.900429833333334, "is_disabled": 0, "type": "electric_scooter", "lon": -76.9961285, "bike_id": "1a52f4dc02332b2a554ea1bb76019fcf", "fusion_lat": 0.0, "name": "1a52f4dc02332b2a554ea1bb76019fcf", "is_reserved": 0, "rental_uris": {"android": "https://dc.lft.to/lastmile_qr_scan", "ios": "https://dc.lft.to/lastmile_qr_scan"}, "fusion_lon": 0.0}, {"lat": 38.89728816666667, "is_disabled": 0, "type": "electric_scooter", "lon": -77.04987166666666, "bike_id": "aabfdc8d74ae1a875b783105c45f5888", "fusion_lat": 0.0, "name": "aabfdc8d74ae1a875b783105c45f5888", "is_reserved": 0, "rental_uris": {"android": "https://dc.lft.to/lastmile_qr_scan", "ios": "https://dc.lft.to/lastmile_qr_scan"}, "fusion_lon": 0.0}, {"lat": 38.973300333333334, "is_disabled": 0, "type": "electric_bike", "lon": -77.02148433333333, "bike_id": "7d2fbef1d9c5742de81b41f182e7a7e4", "fusion_lat": 0.0, "name": "7d2fbef1d9c5742de81b41f182e7a7e4", "is_reserved": 0, "rental_uris": {"android": "https://dc.lft.to/lastmile_qr_scan", "ios": "https://dc.lft.to/lastmile_qr_scan"}, "fusion_lon": 0.0}, {"lat": 38.9365875, "is_disabled": 0, "type": "electric_bike", "lon": -76.9522005, "bike_id": "597d83ee6970dc07965640d2f6a7d653", "fusion_lat": 0.0, "name": "597d83ee6970dc07965640d2f6a7d653", "is_reserved": 0, "rental_uris": {"android": "https://dc.lft.to/lastmile_qr_scan", "ios": "https://dc.lft.to/lastmile_qr_scan"}, "fusion_lon": 0.0}, {"lat": 38.92241666666666, "is_disabled": 0, "type": "electric_scooter", "lon": -77.0426805, "bike_id": "025455c9f77badf4ca447586b4baf72f", "fusion_lat": 0.0, "name": "025455c9f77badf4ca447586b4baf72f", "is_reserved": 0, "rental_uris": {"android": "https://dc.lft.to/lastmile_qr_scan", "ios": "https://dc.lft.to/lastmile_qr_scan"}, "fusion_lon": 0.0}, {"lat": 38.88736566666667, "is_disabled": 0, "type": "electric_scooter", "lon": -77.0317265, "bike_id": "5ed40fa5d18482dcab89ae60115f3861", "fusion_lat": 0.0, "name": "5ed40fa5d18482dcab89ae60115f3861", "is_reserved": 0, "rental_uris": {"android": "https://dc.lft.to/lastmile_qr_scan", "ios": "https://dc.lft.to/lastmile_qr_scan"}, "fusion_lon": 0.0}, {"lat": 38.8642835, "is_disabled": 0, "type": "electric_scooter", "lon": -77.01356883333334, "bike_id": "1bfeeee94bd4b1949ec8aceffed3b0e9", "fusion_lat": 0.0, "name": "1bfeeee94bd4b1949ec8aceffed3b0e9", "is_reserved": 0, "rental_uris": {"android": "https://dc.lft.to/lastmile_qr_scan", "ios": "https://dc.lft.to/lastmile_qr_scan"}, "fusion_lon": 0.0}, {"lat": 38.9166125, "is_disabled": 0, "type": "electric_scooter", "lon": -76.98227866666667, "bike_id": "e12192552a8721a658be0657bebfc764", "fusion_lat": 0.0, "name": "e12192552a8721a658be0657bebfc764", "is_reserved": 0, "rental_uris": {"android": "https://dc.lft.to/lastmile_qr_scan", "ios": "https://dc.lft.to/lastmile_qr_scan"}, "fusion_lon": 0.0}, {"lat": 38.851895, "is_disabled": 0, "type": "electric_scooter", "lon": -76.97623133333333, "bike_id": "988a1a113ef370daa2dc4b5037e52cee", "fusion_lat": 0.0, "name": "988a1a113ef370daa2dc4b5037e52cee", "is_reserved": 0, "rental_uris": {"android": "https://dc.lft.to/lastmile_qr_scan", "ios": "https://dc.lft.to/lastmile_qr_scan"}, "fusion_lon": 0.0}, {"lat": 38.844284, "is_disabled": 0, "type": "electric_scooter", "lon": -76.99774, "bike_id": "2bb1c2a0e417a6fb2133041b663aa0c1", "fusion_lat": 0.0, "name": "2bb1c2a0e417a6fb2133041b663aa0c1", "is_reserved": 0, "rental_uris": {"android": "https://dc.lft.to/lastmile_qr_scan", "ios": "https://dc.lft.to/lastmile_qr_scan"}, "fusion_lon": 0.0}, {"lat": 39.034214166666665, "is_disabled": 0, "type": "electric_bike", "lon": -77.043182, "bike_id": "61293961e068d28325a92735cfd3c114", "fusion_lat": 0.0, "name": "61293961e068d28325a92735cfd3c114", "is_reserved": 0, "rental_uris": {"android": "https://dc.lft.to/lastmile_qr_scan", "ios": "https://dc.lft.to/lastmile_qr_scan"}, "fusion_lon": 0.0}, {"lat": 38.92224066666667, "is_disabled": 0, "type": "electric_scooter", "lon": -77.042451, "bike_id": "bc1637d85249ce61ac873518b45d0a2e", "fusion_lat": 0.0, "name": "bc1637d85249ce61ac873518b45d0a2e", "is_reserved": 0, "rental_uris": {"android": "https://dc.lft.to/lastmile_qr_scan", "ios": "https://dc.lft.to/lastmile_qr_scan"}, "fusion_lon": 0.0}, {"lat": 38.8981825, "is_disabled": 0, "type": "electric_scooter", "lon": -76.97427183333333, "bike_id": "e062d569656f6a0fe28230e4d63f0019", "fusion_lat": 0.0, "name": "e062d569656f6a0fe28230e4d63f0019", "is_reserved": 0, "rental_uris": {"android": "https://dc.lft.to/lastmile_qr_scan", "ios": "https://dc.lft.to/lastmile_qr_scan"}, "fusion_lon": 0.0}, {"lat": 38.90371533333333, "is_disabled": 0, "type": "electric_scooter", "lon": -77.06279633333334, "bike_id": "b12967ae611e7a08fd2b0fb404b6944d", "fusion_lat": 0.0, "name": "b12967ae611e7a08fd2b0fb404b6944d", "is_reserved": 0, "rental_uris": {"android": "https://dc.lft.to/lastmile_qr_scan", "ios": "https://dc.lft.to/lastmile_qr_scan"}, "fusion_lon": 0.0}, {"lat": 38.91624483333333, "is_disabled": 0, "type": "electric_scooter", "lon": -77.02387666666667, "bike_id": "ea15f29b61961536691e4697fb200f69", "fusion_lat": 0.0, "name": "ea15f29b61961536691e4697fb200f69", "is_reserved": 0, "rental_uris": {"android": "https://dc.lft.to/lastmile_qr_scan", "ios": "https://dc.lft.to/lastmile_qr_scan"}, "fusion_lon": 0.0}, {"lat": 38.9312235, "is_disabled": 0, "type": "electric_scooter", "lon": -77.0303745, "bike_id": "8c86a1457922a1dcc1a1a4453be2de2f", "fusion_lat": 0.0, "name": "8c86a1457922a1dcc1a1a4453be2de2f", "is_reserved": 0, "rental_uris": {"android": "https://dc.lft.to/lastmile_qr_scan", "ios": "https://dc.lft.to/lastmile_qr_scan"}, "fusion_lon": 0.0}, {"lat": 38.927641666666666, "is_disabled": 0, "type": "electric_scooter", "lon": -77.0368595, "bike_id": "2971d1312ef8a32a07f45e37a0a8d080", "fusion_lat": 0.0, "name": "2971d1312ef8a32a07f45e37a0a8d080", "is_reserved": 0, "rental_uris": {"android": "https://dc.lft.to/lastmile_qr_scan", "ios": "https://dc.lft.to/lastmile_qr_scan"}, "fusion_lon": 0.0}, {"lat": 38.904219833333336, "is_disabled": 0, "type": "electric_scooter", "lon": -76.9906895, "bike_id": "63ed4ee2a5029683cfa7aec79f3c46a5", "fusion_lat": 0.0, "name": "63ed4ee2a5029683cfa7aec79f3c46a5", "is_reserved": 0, "rental_uris": {"android": "https://dc.lft.to/lastmile_qr_scan", "ios": "https://dc.lft.to/lastmile_qr_scan"}, "fusion_lon": 0.0}, {"lat": 38.904052666666665, "is_disabled": 0, "type": "electric_scooter", "lon": -77.0432845, "bike_id": "550155b19127834392f4f1f481c1d2fa", "fusion_lat": 0.0, "name": "550155b19127834392f4f1f481c1d2fa", "is_reserved": 0, "rental_uris": {"android": "https://dc.lft.to/lastmile_qr_scan", "ios": "https://dc.lft.to/lastmile_qr_scan"}, "fusion_lon": 0.0}, {"lat": 38.91967566666667, "is_disabled": 0, "type": "electric_scooter", "lon": -76.992281, "bike_id": "a124ea4be46eb07bbf65ddf1fd64c2c2", "fusion_lat": 0.0, "name": "a124ea4be46eb07bbf65ddf1fd64c2c2", "is_reserved": 0, "rental_uris": {"android": "https://dc.lft.to/lastmile_qr_scan", "ios": "https://dc.lft.to/lastmile_qr_scan"}, "fusion_lon": 0.0}, {"lat": 38.908547666666664, "is_disabled": 0, "type": "electric_scooter", "lon": -77.00623833333333, "bike_id": "07b63fe149aace86fe5f891a1db42a7b", "fusion_lat": 0.0, "name": "07b63fe149aace86fe5f891a1db42a7b", "is_reserved": 0, "rental_uris": {"android": "https://dc.lft.to/lastmile_qr_scan", "ios": "https://dc.lft.to/lastmile_qr_scan"}, "fusion_lon": 0.0}, {"lat": 38.90142266666667, "is_disabled": 0, "type": "electric_scooter", "lon": -76.98055066666667, "bike_id": "9e00f573eb51c0facb676b32e01695e7", "fusion_lat": 0.0, "name": "9e00f573eb51c0facb676b32e01695e7", "is_reserved": 0, "rental_uris": {"android": "https://dc.lft.to/lastmile_qr_scan", "ios": "https://dc.lft.to/lastmile_qr_scan"}, "fusion_lon": 0.0}, {"lat": 38.823407333333336, "is_disabled": 0, "type": "electric_bike", "lon": -77.05820083333333, "bike_id": "e7756ce7983f01023cc01f51716bfe23", "fusion_lat": 0.0, "name": "e7756ce7983f01023cc01f51716bfe23", "is_reserved": 0, "rental_uris": {"android": "https://dc.lft.to/lastmile_qr_scan", "ios": "https://dc.lft.to/lastmile_qr_scan"}, "fusion_lon": 0.0}, {"lat": 38.84613433333333, "is_disabled": 0, "type": "electric_bike", "lon": -76.96903316666666, "bike_id": "0cb7928bff75c6d5e6d03311302d9259", "fusion_lat": 0.0, "name": "0cb7928bff75c6d5e6d03311302d9259", "is_reserved": 0, "rental_uris": {"android": "https://dc.lft.to/lastmile_qr_scan", "ios": "https://dc.lft.to/lastmile_qr_scan"}, "fusion_lon": 0.0}, {"lat": 38.91774133333333, "is_disabled": 0, "type": "electric_scooter", "lon": -77.04096266666667, "bike_id": "4e0a36e95e70aa4e6d68d4d506014e33", "fusion_lat": 0.0, "name": "4e0a36e95e70aa4e6d68d4d506014e33", "is_reserved": 0, "rental_uris": {"android": "https://dc.lft.to/lastmile_qr_scan", "ios": "https://dc.lft.to/lastmile_qr_scan"}, "fusion_lon": 0.0}, {"lat": 38.92253016666667, "is_disabled": 0, "type": "electric_scooter", "lon": -77.01934233333333, "bike_id": "b2d3e7c1d94b23c423f35c5cff9dd195", "fusion_lat": 0.0, "name": "b2d3e7c1d94b23c423f35c5cff9dd195", "is_reserved": 0, "rental_uris": {"android": "https://dc.lft.to/lastmile_qr_scan", "ios": "https://dc.lft.to/lastmile_qr_scan"}, "fusion_lon": 0.0}, {"lat": 38.8950675, "is_disabled": 0, "type": "electric_scooter", "lon": -77.01615316666667, "bike_id": "0a18748d151b5b39ff08b8e006718a3d", "fusion_lat": 0.0, "name": "0a18748d151b5b39ff08b8e006718a3d", "is_reserved": 0, "rental_uris": {"android": "https://dc.lft.to/lastmile_qr_scan", "ios": "https://dc.lft.to/lastmile_qr_scan"}, "fusion_lon": 0.0}, {"lat": 38.91401883333333, "is_disabled": 0, "type": "electric_scooter", "lon": -77.023854, "bike_id": "01310518cc8ff830b9488a0d6af2a20d", "fusion_lat": 0.0, "name": "01310518cc8ff830b9488a0d6af2a20d", "is_reserved": 0, "rental_uris": {"android": "https://dc.lft.to/lastmile_qr_scan", "ios": "https://dc.lft.to/lastmile_qr_scan"}, "fusion_lon": 0.0}, {"lat": 38.9431145, "is_disabled": 0, "type": "electric_scooter", "lon": -77.06135466666667, "bike_id": "efbd5faa492f1b41c27957ab59dd5766", "fusion_lat": 0.0, "name": "efbd5faa492f1b41c27957ab59dd5766", "is_reserved": 0, "rental_uris": {"android": "https://dc.lft.to/lastmile_qr_scan", "ios": "https://dc.lft.to/lastmile_qr_scan"}, "fusion_lon": 0.0}, {"lat": 38.894938833333335, "is_disabled": 0, "type": "electric_scooter", "lon": -77.002531, "bike_id": "1380d009a03887423e4a8a88e654bd66", "fusion_lat": 0.0, "name": "1380d009a03887423e4a8a88e654bd66", "is_reserved": 0, "rental_uris": {"android": "https://dc.lft.to/lastmile_qr_scan", "ios": "https://dc.lft.to/lastmile_qr_scan"}, "fusion_lon": 0.0}, {"lat": 38.89656733333333, "is_disabled": 0, "type": "electric_scooter", "lon": -77.046682, "bike_id": "97090062a8a312837c3ee671b3d07ce5", "fusion_lat": 0.0, "name": "97090062a8a312837c3ee671b3d07ce5", "is_reserved": 0, "rental_uris": {"android": "https://dc.lft.to/lastmile_qr_scan", "ios": "https://dc.lft.to/lastmile_qr_scan"}, "fusion_lon": 0.0}, {"lat": 38.88637216666667, "is_disabled": 0, "type": "electric_scooter", "lon": -76.95488383333333, "bike_id": "4cc663250386dc5bfce7fd3e9154a38e", "fusion_lat": 0.0, "name": "4cc663250386dc5bfce7fd3e9154a38e", "is_reserved": 0, "rental_uris": {"android": "https://dc.lft.to/lastmile_qr_scan", "ios": "https://dc.lft.to/lastmile_qr_scan"}, "fusion_lon": 0.0}, {"lat": 38.87069483333333, "is_disabled": 0, "type": "electric_scooter", "lon": -76.97967116666666, "bike_id": "a7c403f6050e2c6ba61bf7ff149ff7a5", "fusion_lat": 0.0, "name": "a7c403f6050e2c6ba61bf7ff149ff7a5", "is_reserved": 0, "rental_uris": {"android": "https://dc.lft.to/lastmile_qr_scan", "ios": "https://dc.lft.to/lastmile_qr_scan"}, "fusion_lon": 0.0}, {"lat": 38.915667, "is_disabled": 0, "type": "electric_scooter", "lon": -77.050278, "bike_id": "7f591fbfd8b06d8eb3116967f356aa6a", "fusion_lat": 0.0, "name": "7f591fbfd8b06d8eb3116967f356aa6a", "is_reserved": 0, "rental_uris": {"android": "https://dc.lft.to/lastmile_qr_scan", "ios": "https://dc.lft.to/lastmile_qr_scan"}, "fusion_lon": 0.0}, {"lat": 38.947021166666666, "is_disabled": 0, "type": "electric_scooter", "lon": -77.0194215, "bike_id": "26d77b9727f7b4d8c0fac1c92f15689d", "fusion_lat": 0.0, "name": "26d77b9727f7b4d8c0fac1c92f15689d", "is_reserved": 0, "rental_uris": {"android": "https://dc.lft.to/lastmile_qr_scan", "ios": "https://dc.lft.to/lastmile_qr_scan"}, "fusion_lon": 0.0}, {"lat": 38.921136, "is_disabled": 0, "type": "electric_scooter", "lon": -77.0418615, "bike_id": "74ca6dbef9a18cef9eabdad2ac625e27", "fusion_lat": 0.0, "name": "74ca6dbef9a18cef9eabdad2ac625e27", "is_reserved": 0, "rental_uris": {"android": "https://dc.lft.to/lastmile_qr_scan", "ios": "https://dc.lft.to/lastmile_qr_scan"}, "fusion_lon": 0.0}, {"lat": 38.90648983333333, "is_disabled": 0, "type": "electric_scooter", "lon": -77.01412966666666, "bike_id": "13db064af9488408940cdbd3f3020bb6", "fusion_lat": 0.0, "name": "13db064af9488408940cdbd3f3020bb6", "is_reserved": 0, "rental_uris": {"android": "https://dc.lft.to/lastmile_qr_scan", "ios": "https://dc.lft.to/lastmile_qr_scan"}, "fusion_lon": 0.0}, {"lat": 38.896953, "is_disabled": 0, "type": "electric_scooter", "lon": -77.00496616666666, "bike_id": "dc45bf475e72ba333cec86a4726d9cf7", "fusion_lat": 0.0, "name": "dc45bf475e72ba333cec86a4726d9cf7", "is_reserved": 0, "rental_uris": {"android": "https://dc.lft.to/lastmile_qr_scan", "ios": "https://dc.lft.to/lastmile_qr_scan"}, "fusion_lon": 0.0}, {"lat": 38.924704, "is_disabled": 0, "type": "electric_scooter", "lon": -77.05243416666667, "bike_id": "48450ecafa3b523dc31003c5805a3e16", "fusion_lat": 0.0, "name": "48450ecafa3b523dc31003c5805a3e16", "is_reserved": 0, "rental_uris": {"android": "https://dc.lft.to/lastmile_qr_scan", "ios": "https://dc.lft.to/lastmile_qr_scan"}, "fusion_lon": 0.0}, {"lat": 38.9097395, "is_disabled": 0, "type": "electric_scooter", "lon": -77.0483485, "bike_id": "b11a81026df30797dc0a050ff51c20b1", "fusion_lat": 0.0, "name": "b11a81026df30797dc0a050ff51c20b1", "is_reserved": 0, "rental_uris": {"android": "https://dc.lft.to/lastmile_qr_scan", "ios": "https://dc.lft.to/lastmile_qr_scan"}, "fusion_lon": 0.0}, {"lat": 38.88603766666667, "is_disabled": 0, "type": "electric_scooter", "lon": -77.021784, "bike_id": "23c23f66524f2b55da1c8614456c8940", "fusion_lat": 0.0, "name": "23c23f66524f2b55da1c8614456c8940", "is_reserved": 0, "rental_uris": {"android": "https://dc.lft.to/lastmile_qr_scan", "ios": "https://dc.lft.to/lastmile_qr_scan"}, "fusion_lon": 0.0}, {"lat": 38.91627733333333, "is_disabled": 0, "type": "electric_scooter", "lon": -77.03173866666667, "bike_id": "f0cdcbbaa67dac96cf75d491e51f571b", "fusion_lat": 0.0, "name": "f0cdcbbaa67dac96cf75d491e51f571b", "is_reserved": 0, "rental_uris": {"android": "https://dc.lft.to/lastmile_qr_scan", "ios": "https://dc.lft.to/lastmile_qr_scan"}, "fusion_lon": 0.0}, {"lat": 38.9182225, "is_disabled": 0, "type": "electric_scooter", "lon": -77.030855, "bike_id": "dcc2cdaf38bdca80c6e67f5bba669adc", "fusion_lat": 0.0, "name": "dcc2cdaf38bdca80c6e67f5bba669adc", "is_reserved": 0, "rental_uris": {"android": "https://dc.lft.to/lastmile_qr_scan", "ios": "https://dc.lft.to/lastmile_qr_scan"}, "fusion_lon": 0.0}, {"lat": 38.930697, "is_disabled": 0, "type": "electric_scooter", "lon": -77.02817683333333, "bike_id": "96413ae578564f391e0959c00678b28b", "fusion_lat": 0.0, "name": "96413ae578564f391e0959c00678b28b", "is_reserved": 0, "rental_uris": {"android": "https://dc.lft.to/lastmile_qr_scan", "ios": "https://dc.lft.to/lastmile_qr_scan"}, "fusion_lon": 0.0}, {"lat": 38.917101833333334, "is_disabled": 0, "type": "electric_scooter", "lon": -77.03378283333333, "bike_id": "f5bdcc79d0e48c79f02df40a6bdbb49a", "fusion_lat": 0.0, "name": "f5bdcc79d0e48c79f02df40a6bdbb49a", "is_reserved": 0, "rental_uris": {"android": "https://dc.lft.to/lastmile_qr_scan", "ios": "https://dc.lft.to/lastmile_qr_scan"}, "fusion_lon": 0.0}, {"lat": 38.93235033333333, "is_disabled": 0, "type": "electric_scooter", "lon": -76.9960075, "bike_id": "67762f45a86e0aedac92eaa065d3b5dc", "fusion_lat": 0.0, "name": "67762f45a86e0aedac92eaa065d3b5dc", "is_reserved": 0, "rental_uris": {"android": "https://dc.lft.to/lastmile_qr_scan", "ios": "https://dc.lft.to/lastmile_qr_scan"}, "fusion_lon": 0.0}, {"lat": 38.918506, "is_disabled": 0, "type": "electric_scooter", "lon": -77.03213633333333, "bike_id": "84ed93ec2a3610270260205efa0e94b8", "fusion_lat": 0.0, "name": "84ed93ec2a3610270260205efa0e94b8", "is_reserved": 0, "rental_uris": {"android": "https://dc.lft.to/lastmile_qr_scan", "ios": "https://dc.lft.to/lastmile_qr_scan"}, "fusion_lon": 0.0}, {"lat": 38.92043233333333, "is_disabled": 0, "type": "electric_scooter", "lon": -77.03643066666666, "bike_id": "d2f7b0b0c7a750c45a838b1b79f8ee56", "fusion_lat": 0.0, "name": "d2f7b0b0c7a750c45a838b1b79f8ee56", "is_reserved": 0, "rental_uris": {"android": "https://dc.lft.to/lastmile_qr_scan", "ios": "https://dc.lft.to/lastmile_qr_scan"}, "fusion_lon": 0.0}, {"lat": 38.9175305, "is_disabled": 0, "type": "electric_scooter", "lon": -77.02825683333333, "bike_id": "c826224d11ecee9a119081d3aeebcf79", "fusion_lat": 0.0, "name": "c826224d11ecee9a119081d3aeebcf79", "is_reserved": 0, "rental_uris": {"android": "https://dc.lft.to/lastmile_qr_scan", "ios": "https://dc.lft.to/lastmile_qr_scan"}, "fusion_lon": 0.0}, {"lat": 38.916955333333334, "is_disabled": 0, "type": "electric_scooter", "lon": -77.032161, "bike_id": "ec486129c3334f271bb65dab953c0ff7", "fusion_lat": 0.0, "name": "ec486129c3334f271bb65dab953c0ff7", "is_reserved": 0, "rental_uris": {"android": "https://dc.lft.to/lastmile_qr_scan", "ios": "https://dc.lft.to/lastmile_qr_scan"}, "fusion_lon": 0.0}, {"lat": 38.91902616666667, "is_disabled": 0, "type": "electric_scooter", "lon": -77.00236583333333, "bike_id": "64f6f05473235e7c44fb9fabe369bfdc", "fusion_lat": 0.0, "name": "64f6f05473235e7c44fb9fabe369bfdc", "is_reserved": 0, "rental_uris": {"android": "https://dc.lft.to/lastmile_qr_scan", "ios": "https://dc.lft.to/lastmile_qr_scan"}, "fusion_lon": 0.0}, {"lat": 38.93827016666667, "is_disabled": 0, "type": "electric_scooter", "lon": -77.06029583333333, "bike_id": "53e3f6ec55ee7aeac2384e8812a2ad2c", "fusion_lat": 0.0, "name": "53e3f6ec55ee7aeac2384e8812a2ad2c", "is_reserved": 0, "rental_uris": {"android": "https://dc.lft.to/lastmile_qr_scan", "ios": "https://dc.lft.to/lastmile_qr_scan"}, "fusion_lon": 0.0}, {"lat": 38.9129115, "is_disabled": 0, "type": "electric_scooter", "lon": -77.04540383333334, "bike_id": "467e77bfe8170ce6c6e34891f638988d", "fusion_lat": 0.0, "name": "467e77bfe8170ce6c6e34891f638988d", "is_reserved": 0, "rental_uris": {"android": "https://dc.lft.to/lastmile_qr_scan", "ios": "https://dc.lft.to/lastmile_qr_scan"}, "fusion_lon": 0.0}, {"lat": 38.969295833333334, "is_disabled": 0, "type": "electric_bike", "lon": -77.02621033333334, "bike_id": "883152414bae335ce039cedf414b21dc", "fusion_lat": 0.0, "name": "883152414bae335ce039cedf414b21dc", "is_reserved": 0, "rental_uris": {"android": "https://dc.lft.to/lastmile_qr_scan", "ios": "https://dc.lft.to/lastmile_qr_scan"}, "fusion_lon": 0.0}, {"lat": 38.920666, "is_disabled": 0, "type": "electric_scooter", "lon": -77.0249785, "bike_id": "7fe6ca937cc49f4fa210dce20581eec9", "fusion_lat": 0.0, "name": "7fe6ca937cc49f4fa210dce20581eec9", "is_reserved": 0, "rental_uris": {"android": "https://dc.lft.to/lastmile_qr_scan", "ios": "https://dc.lft.to/lastmile_qr_scan"}, "fusion_lon": 0.0}, {"lat": 38.91712883333334, "is_disabled": 0, "type": "electric_scooter", "lon": -77.03472483333333, "bike_id": "9479e876abec09e29b295fc8c9afc65f", "fusion_lat": 0.0, "name": "9479e876abec09e29b295fc8c9afc65f", "is_reserved": 0, "rental_uris": {"android": "https://dc.lft.to/lastmile_qr_scan", "ios": "https://dc.lft.to/lastmile_qr_scan"}, "fusion_lon": 0.0}, {"lat": 38.96606466666667, "is_disabled": 0, "type": "electric_bike", "lon": -76.98332216666667, "bike_id": "16c514af040db6f14c201a8fdf7f32fd", "fusion_lat": 0.0, "name": "16c514af040db6f14c201a8fdf7f32fd", "is_reserved": 0, "rental_uris": {"android": "https://dc.lft.to/lastmile_qr_scan", "ios": "https://dc.lft.to/lastmile_qr_scan"}, "fusion_lon": 0.0}, {"lat": 38.898383833333334, "is_disabled": 0, "type": "electric_scooter", "lon": -76.9310105, "bike_id": "46aed6ac712166d98139c48558c3565e", "fusion_lat": 0.0, "name": "46aed6ac712166d98139c48558c3565e", "is_reserved": 0, "rental_uris": {"android": "https://dc.lft.to/lastmile_qr_scan", "ios": "https://dc.lft.to/lastmile_qr_scan"}, "fusion_lon": 0.0}, {"lat": 38.916117166666666, "is_disabled": 0, "type": "electric_bike", "lon": -77.02138916666667, "bike_id": "361a912b4925d6f3b4a838bd29417bed", "fusion_lat": 0.0, "name": "361a912b4925d6f3b4a838bd29417bed", "is_reserved": 0, "rental_uris": {"android": "https://dc.lft.to/lastmile_qr_scan", "ios": "https://dc.lft.to/lastmile_qr_scan"}, "fusion_lon": 0.0}, {"lat": 38.89248833333333, "is_disabled": 0, "type": "electric_scooter", "lon": -77.04889266666666, "bike_id": "d3ea6706f76c347ed87f8c6f520a460c", "fusion_lat": 0.0, "name": "d3ea6706f76c347ed87f8c6f520a460c", "is_reserved": 0, "rental_uris": {"android": "https://dc.lft.to/lastmile_qr_scan", "ios": "https://dc.lft.to/lastmile_qr_scan"}, "fusion_lon": 0.0}, {"lat": 38.930823833333335, "is_disabled": 0, "type": "electric_scooter", "lon": -77.025512, "bike_id": "6b1b27e65f32bbfe6c75fdca17908bb1", "fusion_lat": 0.0, "name": "6b1b27e65f32bbfe6c75fdca17908bb1", "is_reserved": 0, "rental_uris": {"android": "https://dc.lft.to/lastmile_qr_scan", "ios": "https://dc.lft.to/lastmile_qr_scan"}, "fusion_lon": 0.0}, {"lat": 38.88926283333333, "is_disabled": 0, "type": "electric_scooter", "lon": -76.97376, "bike_id": "a7d71748fcc52d176693343edfbea7a1", "fusion_lat": 0.0, "name": "a7d71748fcc52d176693343edfbea7a1", "is_reserved": 0, "rental_uris": {"android": "https://dc.lft.to/lastmile_qr_scan", "ios": "https://dc.lft.to/lastmile_qr_scan"}, "fusion_lon": 0.0}, {"lat": 38.918038, "is_disabled": 0, "type": "electric_scooter", "lon": -77.0363545, "bike_id": "23887d51f0c3d7361260f3ae776cba3a", "fusion_lat": 0.0, "name": "23887d51f0c3d7361260f3ae776cba3a", "is_reserved": 0, "rental_uris": {"android": "https://dc.lft.to/lastmile_qr_scan", "ios": "https://dc.lft.to/lastmile_qr_scan"}, "fusion_lon": 0.0}, {"lat": 38.906386499999996, "is_disabled": 0, "type": "electric_scooter", "lon": -77.062829, "bike_id": "c5f0359367220d9a0c0872525b2167ba", "fusion_lat": 0.0, "name": "c5f0359367220d9a0c0872525b2167ba", "is_reserved": 0, "rental_uris": {"android": "https://dc.lft.to/lastmile_qr_scan", "ios": "https://dc.lft.to/lastmile_qr_scan"}, "fusion_lon": 0.0}, {"lat": 38.86161033333333, "is_disabled": 0, "type": "electric_bike", "lon": -77.130919, "bike_id": "39b0a8e3b9337ff5e508b5e8e2361ffc", "fusion_lat": 0.0, "name": "39b0a8e3b9337ff5e508b5e8e2361ffc", "is_reserved": 0, "rental_uris": {"android": "https://dc.lft.to/lastmile_qr_scan", "ios": "https://dc.lft.to/lastmile_qr_scan"}, "fusion_lon": 0.0}, {"lat": 38.8955685, "is_disabled": 0, "type": "electric_scooter", "lon": -77.00362816666667, "bike_id": "2537d042a2fd891a3c21dafef962610e", "fusion_lat": 0.0, "name": "2537d042a2fd891a3c21dafef962610e", "is_reserved": 0, "rental_uris": {"android": "https://dc.lft.to/lastmile_qr_scan", "ios": "https://dc.lft.to/lastmile_qr_scan"}, "fusion_lon": 0.0}, {"lat": 38.91620266666666, "is_disabled": 0, "type": "electric_scooter", "lon": -77.01439416666666, "bike_id": "2ae0f98d8a5baf5b08c43337a6cf89dc", "fusion_lat": 0.0, "name": "2ae0f98d8a5baf5b08c43337a6cf89dc", "is_reserved": 0, "rental_uris": {"android": "https://dc.lft.to/lastmile_qr_scan", "ios": "https://dc.lft.to/lastmile_qr_scan"}, "fusion_lon": 0.0}, {"lat": 38.9351125, "is_disabled": 0, "type": "electric_scooter", "lon": -77.03675716666666, "bike_id": "2c98d411a57e3823175263ab0c92c1cf", "fusion_lat": 0.0, "name": "2c98d411a57e3823175263ab0c92c1cf", "is_reserved": 0, "rental_uris": {"android": "https://dc.lft.to/lastmile_qr_scan", "ios": "https://dc.lft.to/lastmile_qr_scan"}, "fusion_lon": 0.0}, {"lat": 38.927960666666664, "is_disabled": 0, "type": "electric_scooter", "lon": -77.05358166666667, "bike_id": "d4d72c824511f0e8046ffa7729618978", "fusion_lat": 0.0, "name": "d4d72c824511f0e8046ffa7729618978", "is_reserved": 0, "rental_uris": {"android": "https://dc.lft.to/lastmile_qr_scan", "ios": "https://dc.lft.to/lastmile_qr_scan"}, "fusion_lon": 0.0}, {"lat": 38.917806666666664, "is_disabled": 0, "type": "electric_scooter", "lon": -77.02257166666666, "bike_id": "9a3b9561a7423d13d575719a39b5e96c", "fusion_lat": 0.0, "name": "9a3b9561a7423d13d575719a39b5e96c", "is_reserved": 0, "rental_uris": {"android": "https://dc.lft.to/lastmile_qr_scan", "ios": "https://dc.lft.to/lastmile_qr_scan"}, "fusion_lon": 0.0}, {"lat": 38.9040445, "is_disabled": 0, "type": "electric_scooter", "lon": -77.06500733333333, "bike_id": "3c3c8e3edf498e6e7d3b8613fe7ca9a3", "fusion_lat": 0.0, "name": "3c3c8e3edf498e6e7d3b8613fe7ca9a3", "is_reserved": 0, "rental_uris": {"android": "https://dc.lft.to/lastmile_qr_scan", "ios": "https://dc.lft.to/lastmile_qr_scan"}, "fusion_lon": 0.0}, {"lat": 38.920535, "is_disabled": 0, "type": "electric_scooter", "lon": -77.03287483333334, "bike_id": "2fe9e5fb236ba759d85ea36fda0d86a3", "fusion_lat": 0.0, "name": "2fe9e5fb236ba759d85ea36fda0d86a3", "is_reserved": 0, "rental_uris": {"android": "https://dc.lft.to/lastmile_qr_scan", "ios": "https://dc.lft.to/lastmile_qr_scan"}, "fusion_lon": 0.0}, {"lat": 38.9111255, "is_disabled": 0, "type": "electric_scooter", "lon": -77.0480755, "bike_id": "aa2748e275c4ecc66f79cb2850d3344c", "fusion_lat": 0.0, "name": "aa2748e275c4ecc66f79cb2850d3344c", "is_reserved": 0, "rental_uris": {"android": "https://dc.lft.to/lastmile_qr_scan", "ios": "https://dc.lft.to/lastmile_qr_scan"}, "fusion_lon": 0.0}, {"lat": 38.927619666666665, "is_disabled": 0, "type": "electric_scooter", "lon": -77.0231975, "bike_id": "04d729a8f2b99beeda8b68863f69ac33", "fusion_lat": 0.0, "name": "04d729a8f2b99beeda8b68863f69ac33", "is_reserved": 0, "rental_uris": {"android": "https://dc.lft.to/lastmile_qr_scan", "ios": "https://dc.lft.to/lastmile_qr_scan"}, "fusion_lon": 0.0}, {"lat": 38.9168, "is_disabled": 0, "type": "electric_scooter", "lon": -77.02973083333333, "bike_id": "2370fc1e218cc189af2b6fdba07a0afe", "fusion_lat": 0.0, "name": "2370fc1e218cc189af2b6fdba07a0afe", "is_reserved": 0, "rental_uris": {"android": "https://dc.lft.to/lastmile_qr_scan", "ios": "https://dc.lft.to/lastmile_qr_scan"}, "fusion_lon": 0.0}, {"lat": 38.866608666666664, "is_disabled": 0, "type": "electric_scooter", "lon": -76.98879, "bike_id": "7ad79d1735e88beec0698fc717d2a4b7", "fusion_lat": 0.0, "name": "7ad79d1735e88beec0698fc717d2a4b7", "is_reserved": 0, "rental_uris": {"android": "https://dc.lft.to/lastmile_qr_scan", "ios": "https://dc.lft.to/lastmile_qr_scan"}, "fusion_lon": 0.0}, {"lat": 38.907363, "is_disabled": 0, "type": "electric_scooter", "lon": -77.04278116666667, "bike_id": "1eb359c31b6338181769e44cd2cadc1b", "fusion_lat": 0.0, "name": "1eb359c31b6338181769e44cd2cadc1b", "is_reserved": 0, "rental_uris": {"android": "https://dc.lft.to/lastmile_qr_scan", "ios": "https://dc.lft.to/lastmile_qr_scan"}, "fusion_lon": 0.0}, {"lat": 38.90163116666667, "is_disabled": 0, "type": "electric_scooter", "lon": -77.02579433333334, "bike_id": "bf24c48bc0f9418e109b68a20f682793", "fusion_lat": 0.0, "name": "bf24c48bc0f9418e109b68a20f682793", "is_reserved": 0, "rental_uris": {"android": "https://dc.lft.to/lastmile_qr_scan", "ios": "https://dc.lft.to/lastmile_qr_scan"}, "fusion_lon": 0.0}, {"lat": 38.93991883333333, "is_disabled": 0, "type": "electric_scooter", "lon": -77.0717395, "bike_id": "b88bf52e7e4116504efaa741709de897", "fusion_lat": 0.0, "name": "b88bf52e7e4116504efaa741709de897", "is_reserved": 0, "rental_uris": {"android": "https://dc.lft.to/lastmile_qr_scan", "ios": "https://dc.lft.to/lastmile_qr_scan"}, "fusion_lon": 0.0}, {"lat": 38.925690833333334, "is_disabled": 0, "type": "electric_scooter", "lon": -77.057572, "bike_id": "f1259c92cc3bec25a33b5b16892cac13", "fusion_lat": 0.0, "name": "f1259c92cc3bec25a33b5b16892cac13", "is_reserved": 0, "rental_uris": {"android": "https://dc.lft.to/lastmile_qr_scan", "ios": "https://dc.lft.to/lastmile_qr_scan"}, "fusion_lon": 0.0}, {"lat": 38.89735233333333, "is_disabled": 0, "type": "electric_scooter", "lon": -77.04529266666667, "bike_id": "5093595f6d5d418850daf0df716d3996", "fusion_lat": 0.0, "name": "5093595f6d5d418850daf0df716d3996", "is_reserved": 0, "rental_uris": {"android": "https://dc.lft.to/lastmile_qr_scan", "ios": "https://dc.lft.to/lastmile_qr_scan"}, "fusion_lon": 0.0}, {"lat": 38.89903133333333, "is_disabled": 0, "type": "electric_scooter", "lon": -76.93353033333334, "bike_id": "a1ea1899475e9f0cf52a742d95111f88", "fusion_lat": 0.0, "name": "a1ea1899475e9f0cf52a742d95111f88", "is_reserved": 0, "rental_uris": {"android": "https://dc.lft.to/lastmile_qr_scan", "ios": "https://dc.lft.to/lastmile_qr_scan"}, "fusion_lon": 0.0}, {"lat": 38.91783016666667, "is_disabled": 0, "type": "electric_scooter", "lon": -77.0433365, "bike_id": "f0a2af8778f96b4da7bcc595219b83a6", "fusion_lat": 0.0, "name": "f0a2af8778f96b4da7bcc595219b83a6", "is_reserved": 0, "rental_uris": {"android": "https://dc.lft.to/lastmile_qr_scan", "ios": "https://dc.lft.to/lastmile_qr_scan"}, "fusion_lon": 0.0}, {"lat": 38.880007666666664, "is_disabled": 0, "type": "electric_scooter", "lon": -76.98543133333334, "bike_id": "fe8ae824284d781652b11367f8f19688", "fusion_lat": 0.0, "name": "fe8ae824284d781652b11367f8f19688", "is_reserved": 0, "rental_uris": {"android": "https://dc.lft.to/lastmile_qr_scan", "ios": "https://dc.lft.to/lastmile_qr_scan"}, "fusion_lon": 0.0}, {"lat": 38.9325395, "is_disabled": 0, "type": "electric_scooter", "lon": -77.03272683333333, "bike_id": "8512a5829d80fb9bd2a0d59964f64eff", "fusion_lat": 0.0, "name": "8512a5829d80fb9bd2a0d59964f64eff", "is_reserved": 0, "rental_uris": {"android": "https://dc.lft.to/lastmile_qr_scan", "ios": "https://dc.lft.to/lastmile_qr_scan"}, "fusion_lon": 0.0}, {"lat": 38.921439, "is_disabled": 0, "type": "electric_scooter", "lon": -77.04361333333334, "bike_id": "770fafe21e2421b7b0fb22201cd1a074", "fusion_lat": 0.0, "name": "770fafe21e2421b7b0fb22201cd1a074", "is_reserved": 0, "rental_uris": {"android": "https://dc.lft.to/lastmile_qr_scan", "ios": "https://dc.lft.to/lastmile_qr_scan"}, "fusion_lon": 0.0}, {"lat": 38.973717666666666, "is_disabled": 0, "type": "electric_scooter", "lon": -77.01847066666667, "bike_id": "72419eebedadc26f87827ec0b07b12ae", "fusion_lat": 0.0, "name": "72419eebedadc26f87827ec0b07b12ae", "is_reserved": 0, "rental_uris": {"android": "https://dc.lft.to/lastmile_qr_scan", "ios": "https://dc.lft.to/lastmile_qr_scan"}, "fusion_lon": 0.0}, {"lat": 38.914603, "is_disabled": 0, "type": "electric_scooter", "lon": -77.03189316666666, "bike_id": "5be12f0d76155d8218e51991f33c68e2", "fusion_lat": 0.0, "name": "5be12f0d76155d8218e51991f33c68e2", "is_reserved": 0, "rental_uris": {"android": "https://dc.lft.to/lastmile_qr_scan", "ios": "https://dc.lft.to/lastmile_qr_scan"}, "fusion_lon": 0.0}, {"lat": 38.89261166666667, "is_disabled": 0, "type": "electric_scooter", "lon": -76.941575, "bike_id": "0698a85c4c442041eb44a9b790f28f35", "fusion_lat": 0.0, "name": "0698a85c4c442041eb44a9b790f28f35", "is_reserved": 0, "rental_uris": {"android": "https://dc.lft.to/lastmile_qr_scan", "ios": "https://dc.lft.to/lastmile_qr_scan"}, "fusion_lon": 0.0}, {"lat": 38.897942, "is_disabled": 0, "type": "electric_scooter", "lon": -77.03187783333334, "bike_id": "29436556212d2aa5f3e9480334c70b51", "fusion_lat": 0.0, "name": "29436556212d2aa5f3e9480334c70b51", "is_reserved": 0, "rental_uris": {"android": "https://dc.lft.to/lastmile_qr_scan", "ios": "https://dc.lft.to/lastmile_qr_scan"}, "fusion_lon": 0.0}, {"lat": 38.85808766666667, "is_disabled": 0, "type": "electric_scooter", "lon": -76.98990233333333, "bike_id": "df8282e284e5704b2c2323635331f28f", "fusion_lat": 0.0, "name": "df8282e284e5704b2c2323635331f28f", "is_reserved": 0, "rental_uris": {"android": "https://dc.lft.to/lastmile_qr_scan", "ios": "https://dc.lft.to/lastmile_qr_scan"}, "fusion_lon": 0.0}, {"lat": 38.806806, "is_disabled": 0, "type": "electric_bike", "lon": -77.08119733333334, "bike_id": "05df46aec8e27d9f39dedaf239d96552", "fusion_lat": 0.0, "name": "05df46aec8e27d9f39dedaf239d96552", "is_reserved": 0, "rental_uris": {"android": "https://dc.lft.to/lastmile_qr_scan", "ios": "https://dc.lft.to/lastmile_qr_scan"}, "fusion_lon": 0.0}, {"lat": 38.887671, "is_disabled": 0, "type": "electric_scooter", "lon": -76.955985, "bike_id": "ddc7b9127da134a5ec8b569d10174a33", "fusion_lat": 0.0, "name": "ddc7b9127da134a5ec8b569d10174a33", "is_reserved": 0, "rental_uris": {"android": "https://dc.lft.to/lastmile_qr_scan", "ios": "https://dc.lft.to/lastmile_qr_scan"}, "fusion_lon": 0.0}, {"lat": 38.92065366666667, "is_disabled": 0, "type": "electric_scooter", "lon": -77.04373366666667, "bike_id": "8c837d057f692859835fc625068e226c", "fusion_lat": 0.0, "name": "8c837d057f692859835fc625068e226c", "is_reserved": 0, "rental_uris": {"android": "https://dc.lft.to/lastmile_qr_scan", "ios": "https://dc.lft.to/lastmile_qr_scan"}, "fusion_lon": 0.0}, {"lat": 38.9389655, "is_disabled": 0, "type": "electric_scooter", "lon": -77.08490583333334, "bike_id": "6db47de51655845645ee37eb7264f936", "fusion_lat": 0.0, "name": "6db47de51655845645ee37eb7264f936", "is_reserved": 0, "rental_uris": {"android": "https://dc.lft.to/lastmile_qr_scan", "ios": "https://dc.lft.to/lastmile_qr_scan"}, "fusion_lon": 0.0}, {"lat": 38.92012483333333, "is_disabled": 0, "type": "electric_scooter", "lon": -77.0170545, "bike_id": "fa35f268c6b3207c78c1664c8c4e3158", "fusion_lat": 0.0, "name": "fa35f268c6b3207c78c1664c8c4e3158", "is_reserved": 0, "rental_uris": {"android": "https://dc.lft.to/lastmile_qr_scan", "ios": "https://dc.lft.to/lastmile_qr_scan"}, "fusion_lon": 0.0}, {"lat": 38.897867833333336, "is_disabled": 0, "type": "electric_scooter", "lon": -77.00921216666667, "bike_id": "f82ea3e2a978bd96b85ffe92383d9757", "fusion_lat": 0.0, "name": "f82ea3e2a978bd96b85ffe92383d9757", "is_reserved": 0, "rental_uris": {"android": "https://dc.lft.to/lastmile_qr_scan", "ios": "https://dc.lft.to/lastmile_qr_scan"}, "fusion_lon": 0.0}, {"lat": 38.90394833333333, "is_disabled": 0, "type": "electric_scooter", "lon": -77.02469416666666, "bike_id": "395fc8907fb701bd0be92b2eb5c53cc2", "fusion_lat": 0.0, "name": "395fc8907fb701bd0be92b2eb5c53cc2", "is_reserved": 0, "rental_uris": {"android": "https://dc.lft.to/lastmile_qr_scan", "ios": "https://dc.lft.to/lastmile_qr_scan"}, "fusion_lon": 0.0}, {"lat": 38.952675, "is_disabled": 0, "type": "electric_bike", "lon": -77.06987283333333, "bike_id": "579516b16474b32ce1c8e07511cdc39f", "fusion_lat": 0.0, "name": "579516b16474b32ce1c8e07511cdc39f", "is_reserved": 0, "rental_uris": {"android": "https://dc.lft.to/lastmile_qr_scan", "ios": "https://dc.lft.to/lastmile_qr_scan"}, "fusion_lon": 0.0}, {"lat": 38.91682333333333, "is_disabled": 0, "type": "electric_scooter", "lon": -77.0238095, "bike_id": "8c8b86217275a31876b272fb1ecf33e8", "fusion_lat": 0.0, "name": "8c8b86217275a31876b272fb1ecf33e8", "is_reserved": 0, "rental_uris": {"android": "https://dc.lft.to/lastmile_qr_scan", "ios": "https://dc.lft.to/lastmile_qr_scan"}, "fusion_lon": 0.0}, {"lat": 38.907637, "is_disabled": 0, "type": "electric_scooter", "lon": -77.041559, "bike_id": "af84ff254bee57491e6090a3226d96fe", "fusion_lat": 0.0, "name": "af84ff254bee57491e6090a3226d96fe", "is_reserved": 0, "rental_uris": {"android": "https://dc.lft.to/lastmile_qr_scan", "ios": "https://dc.lft.to/lastmile_qr_scan"}, "fusion_lon": 0.0}, {"lat": 38.882811333333336, "is_disabled": 0, "type": "electric_bike", "lon": -76.93237016666667, "bike_id": "e3e8f01c04f28f10647f7c59d32c3dbe", "fusion_lat": 0.0, "name": "e3e8f01c04f28f10647f7c59d32c3dbe", "is_reserved": 0, "rental_uris": {"android": "https://dc.lft.to/lastmile_qr_scan", "ios": "https://dc.lft.to/lastmile_qr_scan"}, "fusion_lon": 0.0}, {"lat": 38.9033585, "is_disabled": 0, "type": "electric_scooter", "lon": -76.97056816666667, "bike_id": "9eb569069289613a28f04e2425a30056", "fusion_lat": 0.0, "name": "9eb569069289613a28f04e2425a30056", "is_reserved": 0, "rental_uris": {"android": "https://dc.lft.to/lastmile_qr_scan", "ios": "https://dc.lft.to/lastmile_qr_scan"}, "fusion_lon": 0.0}, {"lat": 38.90114333333333, "is_disabled": 0, "type": "electric_scooter", "lon": -77.0500575, "bike_id": "f05cb27085bcddbd86eec3d3f737cc41", "fusion_lat": 0.0, "name": "f05cb27085bcddbd86eec3d3f737cc41", "is_reserved": 0, "rental_uris": {"android": "https://dc.lft.to/lastmile_qr_scan", "ios": "https://dc.lft.to/lastmile_qr_scan"}, "fusion_lon": 0.0}, {"lat": 38.95731216666667, "is_disabled": 0, "type": "electric_scooter", "lon": -77.02384066666667, "bike_id": "ad09ed73ef23a241ee9f502f840e759c", "fusion_lat": 0.0, "name": "ad09ed73ef23a241ee9f502f840e759c", "is_reserved": 0, "rental_uris": {"android": "https://dc.lft.to/lastmile_qr_scan", "ios": "https://dc.lft.to/lastmile_qr_scan"}, "fusion_lon": 0.0}, {"lat": 38.88767516666667, "is_disabled": 0, "type": "electric_scooter", "lon": -76.98352283333334, "bike_id": "c39105db94bf924d4236867f630d1814", "fusion_lat": 0.0, "name": "c39105db94bf924d4236867f630d1814", "is_reserved": 0, "rental_uris": {"android": "https://dc.lft.to/lastmile_qr_scan", "ios": "https://dc.lft.to/lastmile_qr_scan"}, "fusion_lon": 0.0}, {"lat": 38.935698, "is_disabled": 0, "type": "electric_scooter", "lon": -77.03730783333333, "bike_id": "5c6ac5084a2eee0171a2c496312d62b1", "fusion_lat": 0.0, "name": "5c6ac5084a2eee0171a2c496312d62b1", "is_reserved": 0, "rental_uris": {"android": "https://dc.lft.to/lastmile_qr_scan", "ios": "https://dc.lft.to/lastmile_qr_scan"}, "fusion_lon": 0.0}, {"lat": 38.900780833333336, "is_disabled": 0, "type": "electric_scooter", "lon": -77.05067516666666, "bike_id": "b66e1af4d60b1fc6f7b5ca19daac4ba7", "fusion_lat": 0.0, "name": "b66e1af4d60b1fc6f7b5ca19daac4ba7", "is_reserved": 0, "rental_uris": {"android": "https://dc.lft.to/lastmile_qr_scan", "ios": "https://dc.lft.to/lastmile_qr_scan"}, "fusion_lon": 0.0}, {"lat": 38.9120055, "is_disabled": 0, "type": "electric_scooter", "lon": -77.04471883333333, "bike_id": "82748bf61458ecd312857b44a8592661", "fusion_lat": 0.0, "name": "82748bf61458ecd312857b44a8592661", "is_reserved": 0, "rental_uris": {"android": "https://dc.lft.to/lastmile_qr_scan", "ios": "https://dc.lft.to/lastmile_qr_scan"}, "fusion_lon": 0.0}, {"lat": 38.950825, "is_disabled": 0, "type": "electric_bike", "lon": -77.011976, "bike_id": "878a789963d1ae1a01e9af810fd14a19", "fusion_lat": 0.0, "name": "878a789963d1ae1a01e9af810fd14a19", "is_reserved": 0, "rental_uris": {"android": "https://dc.lft.to/lastmile_qr_scan", "ios": "https://dc.lft.to/lastmile_qr_scan"}, "fusion_lon": 0.0}, {"lat": 38.86618683333333, "is_disabled": 0, "type": "electric_scooter", "lon": -76.98659033333334, "bike_id": "06a55bd2718cebecbcac48836eabca32", "fusion_lat": 0.0, "name": "06a55bd2718cebecbcac48836eabca32", "is_reserved": 0, "rental_uris": {"android": "https://dc.lft.to/lastmile_qr_scan", "ios": "https://dc.lft.to/lastmile_qr_scan"}, "fusion_lon": 0.0}, {"lat": 38.90233466666667, "is_disabled": 0, "type": "electric_scooter", "lon": -77.04353883333333, "bike_id": "8b496c7bb98b75bc838216370223e4cb", "fusion_lat": 0.0, "name": "8b496c7bb98b75bc838216370223e4cb", "is_reserved": 0, "rental_uris": {"android": "https://dc.lft.to/lastmile_qr_scan", "ios": "https://dc.lft.to/lastmile_qr_scan"}, "fusion_lon": 0.0}, {"lat": 38.915667666666664, "is_disabled": 0, "type": "electric_scooter", "lon": -77.00974533333333, "bike_id": "92f91f07b5f00c4d2b5e180a0cba3f6a", "fusion_lat": 0.0, "name": "92f91f07b5f00c4d2b5e180a0cba3f6a", "is_reserved": 0, "rental_uris": {"android": "https://dc.lft.to/lastmile_qr_scan", "ios": "https://dc.lft.to/lastmile_qr_scan"}, "fusion_lon": 0.0}, {"lat": 38.86226633333333, "is_disabled": 0, "type": "electric_scooter", "lon": -76.98351016666666, "bike_id": "a63d24ed526eb9fff1d2615cddf6d760", "fusion_lat": 0.0, "name": "a63d24ed526eb9fff1d2615cddf6d760", "is_reserved": 0, "rental_uris": {"android": "https://dc.lft.to/lastmile_qr_scan", "ios": "https://dc.lft.to/lastmile_qr_scan"}, "fusion_lon": 0.0}, {"lat": 38.915608666666664, "is_disabled": 0, "type": "electric_scooter", "lon": -77.01031883333333, "bike_id": "687acad08dde226a330886da21a778cd", "fusion_lat": 0.0, "name": "687acad08dde226a330886da21a778cd", "is_reserved": 0, "rental_uris": {"android": "https://dc.lft.to/lastmile_qr_scan", "ios": "https://dc.lft.to/lastmile_qr_scan"}, "fusion_lon": 0.0}, {"lat": 38.91496216666667, "is_disabled": 0, "type": "electric_scooter", "lon": -76.983735, "bike_id": "a23afd92b28ff083b7783c2c1137fb2c", "fusion_lat": 0.0, "name": "a23afd92b28ff083b7783c2c1137fb2c", "is_reserved": 0, "rental_uris": {"android": "https://dc.lft.to/lastmile_qr_scan", "ios": "https://dc.lft.to/lastmile_qr_scan"}, "fusion_lon": 0.0}, {"lat": 38.91425433333333, "is_disabled": 0, "type": "electric_scooter", "lon": -77.03204266666667, "bike_id": "e3057b3e8f13bbb79572e2fc92f980ec", "fusion_lat": 0.0, "name": "e3057b3e8f13bbb79572e2fc92f980ec", "is_reserved": 0, "rental_uris": {"android": "https://dc.lft.to/lastmile_qr_scan", "ios": "https://dc.lft.to/lastmile_qr_scan"}, "fusion_lon": 0.0}, {"lat": 38.9088285, "is_disabled": 0, "type": "electric_scooter", "lon": -77.036638, "bike_id": "618b8440633ed92bb4689dddac3ab624", "fusion_lat": 0.0, "name": "618b8440633ed92bb4689dddac3ab624", "is_reserved": 0, "rental_uris": {"android": "https://dc.lft.to/lastmile_qr_scan", "ios": "https://dc.lft.to/lastmile_qr_scan"}, "fusion_lon": 0.0}, {"lat": 38.926638, "is_disabled": 0, "type": "electric_scooter", "lon": -77.05594216666667, "bike_id": "a3ee749e35e66c2f3bf606b1f706701a", "fusion_lat": 0.0, "name": "a3ee749e35e66c2f3bf606b1f706701a", "is_reserved": 0, "rental_uris": {"android": "https://dc.lft.to/lastmile_qr_scan", "ios": "https://dc.lft.to/lastmile_qr_scan"}, "fusion_lon": 0.0}, {"lat": 38.91124, "is_disabled": 0, "type": "electric_scooter", "lon": -77.04361433333334, "bike_id": "e7189caba51819f4f393b9f184cc6928", "fusion_lat": 0.0, "name": "e7189caba51819f4f393b9f184cc6928", "is_reserved": 0, "rental_uris": {"android": "https://dc.lft.to/lastmile_qr_scan", "ios": "https://dc.lft.to/lastmile_qr_scan"}, "fusion_lon": 0.0}, {"lat": 38.913511, "is_disabled": 0, "type": "electric_scooter", "lon": -77.03182383333333, "bike_id": "01c4ff2606c6b9db65436bb9dd63621c", "fusion_lat": 0.0, "name": "01c4ff2606c6b9db65436bb9dd63621c", "is_reserved": 0, "rental_uris": {"android": "https://dc.lft.to/lastmile_qr_scan", "ios": "https://dc.lft.to/lastmile_qr_scan"}, "fusion_lon": 0.0}, {"lat": 38.90727833333333, "is_disabled": 0, "type": "electric_scooter", "lon": -77.0399335, "bike_id": "502053fbdeb23dc9cbf38a11d2d01654", "fusion_lat": 0.0, "name": "502053fbdeb23dc9cbf38a11d2d01654", "is_reserved": 0, "rental_uris": {"android": "https://dc.lft.to/lastmile_qr_scan", "ios": "https://dc.lft.to/lastmile_qr_scan"}, "fusion_lon": 0.0}, {"lat": 38.89558566666667, "is_disabled": 0, "type": "electric_scooter", "lon": -76.9335745, "bike_id": "638a571b6fd5c8552669754744aea6f6", "fusion_lat": 0.0, "name": "638a571b6fd5c8552669754744aea6f6", "is_reserved": 0, "rental_uris": {"android": "https://dc.lft.to/lastmile_qr_scan", "ios": "https://dc.lft.to/lastmile_qr_scan"}, "fusion_lon": 0.0}, {"lat": 38.89584983333334, "is_disabled": 0, "type": "electric_scooter", "lon": -77.04362266666666, "bike_id": "e5c4ee24e06053ac38ea975adc7dcd34", "fusion_lat": 0.0, "name": "e5c4ee24e06053ac38ea975adc7dcd34", "is_reserved": 0, "rental_uris": {"android": "https://dc.lft.to/lastmile_qr_scan", "ios": "https://dc.lft.to/lastmile_qr_scan"}, "fusion_lon": 0.0}, {"lat": 38.91878833333333, "is_disabled": 0, "type": "electric_scooter", "lon": -77.034985, "bike_id": "efecd40ee7f6ff553212bd1da8573260", "fusion_lat": 0.0, "name": "efecd40ee7f6ff553212bd1da8573260", "is_reserved": 0, "rental_uris": {"android": "https://dc.lft.to/lastmile_qr_scan", "ios": "https://dc.lft.to/lastmile_qr_scan"}, "fusion_lon": 0.0}, {"lat": 38.925652666666664, "is_disabled": 0, "type": "electric_scooter", "lon": -77.03801266666666, "bike_id": "2d1ab03cfb13de084b406df1ead0b9c5", "fusion_lat": 0.0, "name": "2d1ab03cfb13de084b406df1ead0b9c5", "is_reserved": 0, "rental_uris": {"android": "https://dc.lft.to/lastmile_qr_scan", "ios": "https://dc.lft.to/lastmile_qr_scan"}, "fusion_lon": 0.0}, {"lat": 38.924974666666664, "is_disabled": 0, "type": "electric_scooter", "lon": -77.05218583333334, "bike_id": "74cce4357bb82b897bf5cccb24c2010d", "fusion_lat": 0.0, "name": "74cce4357bb82b897bf5cccb24c2010d", "is_reserved": 0, "rental_uris": {"android": "https://dc.lft.to/lastmile_qr_scan", "ios": "https://dc.lft.to/lastmile_qr_scan"}, "fusion_lon": 0.0}, {"lat": 38.903654, "is_disabled": 0, "type": "electric_scooter", "lon": -76.9765215, "bike_id": "d05fa88a7189739a6e4a4e6af4e47b42", "fusion_lat": 0.0, "name": "d05fa88a7189739a6e4a4e6af4e47b42", "is_reserved": 0, "rental_uris": {"android": "https://dc.lft.to/lastmile_qr_scan", "ios": "https://dc.lft.to/lastmile_qr_scan"}, "fusion_lon": 0.0}, {"lat": 38.90210033333334, "is_disabled": 0, "type": "electric_scooter", "lon": -76.988437, "bike_id": "85419446ee99c55420af616e4aeabf39", "fusion_lat": 0.0, "name": "85419446ee99c55420af616e4aeabf39", "is_reserved": 0, "rental_uris": {"android": "https://dc.lft.to/lastmile_qr_scan", "ios": "https://dc.lft.to/lastmile_qr_scan"}, "fusion_lon": 0.0}, {"lat": 38.89696283333333, "is_disabled": 0, "type": "electric_scooter", "lon": -77.05024266666666, "bike_id": "9b45690050b250ceb0c704a70fb05f5e", "fusion_lat": 0.0, "name": "9b45690050b250ceb0c704a70fb05f5e", "is_reserved": 0, "rental_uris": {"android": "https://dc.lft.to/lastmile_qr_scan", "ios": "https://dc.lft.to/lastmile_qr_scan"}, "fusion_lon": 0.0}, {"lat": 38.94650333333333, "is_disabled": 0, "type": "electric_scooter", "lon": -77.06479533333334, "bike_id": "55bbc01a6337c32836ea9cf7a9d7526c", "fusion_lat": 0.0, "name": "55bbc01a6337c32836ea9cf7a9d7526c", "is_reserved": 0, "rental_uris": {"android": "https://dc.lft.to/lastmile_qr_scan", "ios": "https://dc.lft.to/lastmile_qr_scan"}, "fusion_lon": 0.0}, {"lat": 38.868888, "is_disabled": 0, "type": "electric_scooter", "lon": -76.983141, "bike_id": "2b8ad015856e9bcde5b39b1ed09710a6", "fusion_lat": 0.0, "name": "2b8ad015856e9bcde5b39b1ed09710a6", "is_reserved": 0, "rental_uris": {"android": "https://dc.lft.to/lastmile_qr_scan", "ios": "https://dc.lft.to/lastmile_qr_scan"}, "fusion_lon": 0.0}, {"lat": 38.91707566666667, "is_disabled": 0, "type": "electric_scooter", "lon": -77.02500083333334, "bike_id": "35fa79fd2d3e1928a302a91b7a893d53", "fusion_lat": 0.0, "name": "35fa79fd2d3e1928a302a91b7a893d53", "is_reserved": 0, "rental_uris": {"android": "https://dc.lft.to/lastmile_qr_scan", "ios": "https://dc.lft.to/lastmile_qr_scan"}, "fusion_lon": 0.0}, {"lat": 38.90044683333333, "is_disabled": 0, "type": "electric_scooter", "lon": -77.03960016666667, "bike_id": "8de4923718a911cf5d64a0858436ec94", "fusion_lat": 0.0, "name": "8de4923718a911cf5d64a0858436ec94", "is_reserved": 0, "rental_uris": {"android": "https://dc.lft.to/lastmile_qr_scan", "ios": "https://dc.lft.to/lastmile_qr_scan"}, "fusion_lon": 0.0}, {"lat": 38.88692733333333, "is_disabled": 0, "type": "electric_scooter", "lon": -77.01769316666666, "bike_id": "43256f74178f7824fadf24fda2269797", "fusion_lat": 0.0, "name": "43256f74178f7824fadf24fda2269797", "is_reserved": 0, "rental_uris": {"android": "https://dc.lft.to/lastmile_qr_scan", "ios": "https://dc.lft.to/lastmile_qr_scan"}, "fusion_lon": 0.0}, {"lat": 38.881287666666665, "is_disabled": 0, "type": "electric_scooter", "lon": -76.995134, "bike_id": "53cf28df6f89293fa2189f7803a44160", "fusion_lat": 0.0, "name": "53cf28df6f89293fa2189f7803a44160", "is_reserved": 0, "rental_uris": {"android": "https://dc.lft.to/lastmile_qr_scan", "ios": "https://dc.lft.to/lastmile_qr_scan"}, "fusion_lon": 0.0}, {"lat": 38.903765666666665, "is_disabled": 0, "type": "electric_scooter", "lon": -77.02187683333334, "bike_id": "d88b0f5c15c11634a91271cbd6be6ec8", "fusion_lat": 0.0, "name": "d88b0f5c15c11634a91271cbd6be6ec8", "is_reserved": 0, "rental_uris": {"android": "https://dc.lft.to/lastmile_qr_scan", "ios": "https://dc.lft.to/lastmile_qr_scan"}, "fusion_lon": 0.0}, {"lat": 38.883936, "is_disabled": 0, "type": "electric_scooter", "lon": -77.01883866666667, "bike_id": "6d6aa2bddb5b4aa4556f587ef7ce1ee9", "fusion_lat": 0.0, "name": "6d6aa2bddb5b4aa4556f587ef7ce1ee9", "is_reserved": 0, "rental_uris": {"android": "https://dc.lft.to/lastmile_qr_scan", "ios": "https://dc.lft.to/lastmile_qr_scan"}, "fusion_lon": 0.0}, {"lat": 38.92242233333333, "is_disabled": 0, "type": "electric_scooter", "lon": -77.02183266666667, "bike_id": "51f39afd6ee48b210744ccd9114dc578", "fusion_lat": 0.0, "name": "51f39afd6ee48b210744ccd9114dc578", "is_reserved": 0, "rental_uris": {"android": "https://dc.lft.to/lastmile_qr_scan", "ios": "https://dc.lft.to/lastmile_qr_scan"}, "fusion_lon": 0.0}, {"lat": 38.87344866666667, "is_disabled": 0, "type": "electric_scooter", "lon": -77.01853233333334, "bike_id": "15063ae1f56ba9723464b9b6ceef2e56", "fusion_lat": 0.0, "name": "15063ae1f56ba9723464b9b6ceef2e56", "is_reserved": 0, "rental_uris": {"android": "https://dc.lft.to/lastmile_qr_scan", "ios": "https://dc.lft.to/lastmile_qr_scan"}, "fusion_lon": 0.0}, {"lat": 38.8836265, "is_disabled": 0, "type": "electric_scooter", "lon": -76.9415415, "bike_id": "b30e6f9124750d3318c2cfd2c8fb4365", "fusion_lat": 0.0, "name": "b30e6f9124750d3318c2cfd2c8fb4365", "is_reserved": 0, "rental_uris": {"android": "https://dc.lft.to/lastmile_qr_scan", "ios": "https://dc.lft.to/lastmile_qr_scan"}, "fusion_lon": 0.0}, {"lat": 38.91774783333334, "is_disabled": 0, "type": "electric_scooter", "lon": -76.976063, "bike_id": "0678d4bff2b1adbb752b7a5e5bddfd6e", "fusion_lat": 0.0, "name": "0678d4bff2b1adbb752b7a5e5bddfd6e", "is_reserved": 0, "rental_uris": {"android": "https://dc.lft.to/lastmile_qr_scan", "ios": "https://dc.lft.to/lastmile_qr_scan"}, "fusion_lon": 0.0}, {"lat": 38.941242833333334, "is_disabled": 0, "type": "electric_scooter", "lon": -77.0007055, "bike_id": "8fe5ef946af3c799c42e6612ffb46dfd", "fusion_lat": 0.0, "name": "8fe5ef946af3c799c42e6612ffb46dfd", "is_reserved": 0, "rental_uris": {"android": "https://dc.lft.to/lastmile_qr_scan", "ios": "https://dc.lft.to/lastmile_qr_scan"}, "fusion_lon": 0.0},