{"data": {"bikes": [{"rental_uris": {"ios": "https://dc.lft.to/lastmile_qr_scan", "android": "https://dc.lft.to/lastmile_qr_scan"}, "type": "electric_scooter", "name": "f223dcfe3c0b85e70e267ed9dc3334b0", "is_reserved": 0, "lon": -76.9570015, "is_disabled": 0, "fusion_lat": 0.0, "lat": 38.8919765, "bike_id": "f223dcfe3c0b85e70e267ed9dc3334b0", "fusion_lon": 0.0}, {"rental_uris": {"ios": "https://dc.lft.to/lastmile_qr_scan", "android": "https://dc.lft.to/lastmile_qr_scan"}, "type": "electric_scooter", "name": "08f55b6b940e2c1aad657ae9e31f6736", "is_reserved": 0, "lon": -76.99035666666667, "is_disabled": 0, "fusion_lat": 0.0, "lat": 38.88873266666667, "bike_id": "08f55b6b940e2c1aad657ae9e31f6736", "fusion_lon": 0.0}, {"rental_uris": {"ios": "https://dc.lft.to/lastmile_qr_scan", "android": "https://dc.lft.to/lastmile_qr_scan"}, "type": "electric_scooter", "name": "df4878b52294777e9f78274c61f810f8", "is_reserved": 0, "lon": -77.03858933333333, "is_disabled": 0, "fusion_lat": 0.0, "lat": 38.91711466666667, "bike_id": "df4878b52294777e9f78274c61f810f8", "fusion_lon": 0.0}, {"rental_uris": {"ios": "https://dc.lft.to/lastmile_qr_scan", "android": "https://dc.lft.to/lastmile_qr_scan"}, "type": "electric_scooter", "name": "fa6aabb2842fb2e4ec434bc985583fa1", "is_reserved": 0, "lon": -77.0114255, "is_disabled": 0, "fusion_lat": 0.0, "lat": 38.91435, "bike_id": "fa6aabb2842fb2e4ec434bc985583fa1", "fusion_lon": 0.0}, {"rental_uris": {"ios": "https://dc.lft.to/lastmile_qr_scan", "android": "https://dc.lft.to/lastmile_qr_scan"}, "type": "electric_scooter", "name": "7ccf46dbdd621dbb3ba053a3574661d5", "is_reserved": 0, "lon": -77.04351516666667, "is_disabled": 0, "fusion_lat": 0.0, "lat": 38.90124683333333, "bike_id": "7ccf46dbdd621dbb3ba053a3574661d5", "fusion_lon": 0.0}, {"rental_uris": {"ios": "https://dc.lft.to/lastmile_qr_scan", "android": "https://dc.lft.to/lastmile_qr_scan"}, "type": "electric_bike", "name": "5f9b17d490f0385aa6415123d4c3acf0", "is_reserved": 0, "lon": -76.97536666666667, "is_disabled": 0, "fusion_lat": 0.0, "lat": 38.903256166666665, "bike_id": "5f9b17d490f0385aa6415123d4c3acf0", "fusion_lon": 0.0}, {"rental_uris": {"ios": "https://dc.lft.to/lastmile_qr_scan", "android": "https://dc.lft.to/lastmile_qr_scan"}, "type": "electric_scooter", "name": "58dd6ae1e28abf284feaad96462b464a", "is_reserved": 0, "lon": -77.01764866666667, "is_disabled": 0, "fusion_lat": 0.0, "lat": 38.92099416666667, "bike_id": "58dd6ae1e28abf284feaad96462b464a", "fusion_lon": 0.0}, {"rental_uris": {"ios": "https://dc.lft.to/lastmile_qr_scan", "android": "https://dc.lft.to/lastmile_qr_scan"}, "type": "electric_scooter", "name": "397de3737134e2911006cea2b83a3d45", "is_reserved": 0, "lon": -77.0176055, "is_disabled": 0, "fusion_lat": 0.0, "lat": 38.87710366666667, "bike_id": "397de3737134e2911006cea2b83a3d45", "fusion_lon": 0.0}, {"rental_uris": {"ios": "https://dc.lft.to/lastmile_qr_scan", "android": "https://dc.lft.to/lastmile_qr_scan"}, "type": "electric_scooter", "name": "c6ad838eb3e1947a23d9a94e4ee63d3a", "is_reserved": 0, "lon": -77.00930966666667, "is_disabled": 0, "fusion_lat": 0.0, "lat": 38.912528333333334, "bike_id": "c6ad838eb3e1947a23d9a94e4ee63d3a", "fusion_lon": 0.0}, {"rental_uris": {"ios": "https://dc.lft.to/lastmile_qr_scan", "android": "https://dc.lft.to/lastmile_qr_scan"}, "type": "electric_scooter", "name": "d51e582754d82ab7b1bcfe355e2583dd", "is_reserved": 0, "lon": -77.0040335, "is_disabled": 0, "fusion_lat": 0.0, "lat": 38.8744205, "bike_id": "d51e582754d82ab7b1bcfe355e2583dd", "fusion_lon": 0.0}, {"rental_uris": {"ios": "https://dc.lft.to/lastmile_qr_scan", "android": "https://dc.lft.to/lastmile_qr_scan"}, "type": "electric_bike", "name": "ee3ef5b87e996cdf8d8b3ed8521d4eb7", "is_reserved": 0, "lon": -77.022011, "is_disabled": 0, "fusion_lat": 0.0, "lat": 38.951428666666665, "bike_id": "ee3ef5b87e996cdf8d8b3ed8521d4eb7", "fusion_lon": 0.0}, {"rental_uris": {"ios": "https://dc.lft.to/lastmile_qr_scan", "android": "https://dc.lft.to/lastmile_qr_scan"}, "type": "electric_scooter", "name": "9b3aaf294f217a0c8e130641dd82128d", "is_reserved": 0, "lon": -77.0325865, "is_disabled": 0, "fusion_lat": 0.0, "lat": 38.92847316666667, "bike_id": "9b3aaf294f217a0c8e130641dd82128d", "fusion_lon": 0.0}, {"rental_uris": {"ios": "https://dc.lft.to/lastmile_qr_scan", "android": "https://dc.lft.to/lastmile_qr_scan"}, "type": "electric_scooter", "name": "bbe25c6bd1cd71c9586dda59a4be86b6", "is_reserved": 0, "lon": -77.01906333333334, "is_disabled": 0, "fusion_lat": 0.0, "lat": 38.92335383333333, "bike_id": "bbe25c6bd1cd71c9586dda59a4be86b6", "fusion_lon": 0.0}, {"rental_uris": {"ios": "https://dc.lft.to/lastmile_qr_scan", "android": "https://dc.lft.to/lastmile_qr_scan"}, "type": "electric_scooter", "name": "8e61d72aca14e05cbe3c2c06865f5f69", "is_reserved": 0, "lon": -77.03537566666667, "is_disabled": 0, "fusion_lat": 0.0, "lat": 38.92328366666667, "bike_id": "8e61d72aca14e05cbe3c2c06865f5f69", "fusion_lon": 0.0}, {"rental_uris": {"ios": "https://dc.lft.to/lastmile_qr_scan", "android": "https://dc.lft.to/lastmile_qr_scan"}, "type": "electric_scooter", "name": "1f6a8001f9927aaf9b8482d185235903", "is_reserved": 0, "lon": -76.98504383333334, "is_disabled": 0, "fusion_lat": 0.0, "lat": 38.906826833333334, "bike_id": "1f6a8001f9927aaf9b8482d185235903", "fusion_lon": 0.0}, {"rental_uris": {"ios": "https://dc.lft.to/lastmile_qr_scan", "android": "https://dc.lft.to/lastmile_qr_scan"}, "type": "electric_scooter", "name": "527747e62e60939c793cfcc9d3d78fb7", "is_reserved": 0, "lon": -77.00570816666666, "is_disabled": 0, "fusion_lat": 0.0, "lat": 38.874551, "bike_id": "527747e62e60939c793cfcc9d3d78fb7", "fusion_lon": 0.0}, {"rental_uris": {"ios": "https://dc.lft.to/lastmile_qr_scan", "android": "https://dc.lft.to/lastmile_qr_scan"}, "type": "electric_scooter", "name": "4812551d5710185b0a37d59c30ec72ec", "is_reserved": 0, "lon": -77.03819366666667, "is_disabled": 0, "fusion_lat": 0.0, "lat": 38.915536, "bike_id": "4812551d5710185b0a37d59c30ec72ec", "fusion_lon": 0.0}, {"rental_uris": {"ios": "https://dc.lft.to/lastmile_qr_scan", "android": "https://dc.lft.to/lastmile_qr_scan"}, "type": "electric_scooter", "name": "a854dc22c159f4b38c5c140f1098ecfb", "is_reserved": 0, "lon": -77.0385855, "is_disabled": 0, "fusion_lat": 0.0, "lat": 38.9117675, "bike_id": "a854dc22c159f4b38c5c140f1098ecfb", "fusion_lon": 0.0}, {"rental_uris": {"ios": "https://dc.lft.to/lastmile_qr_scan", "android": "https://dc.lft.to/lastmile_qr_scan"}, "type": "electric_scooter", "name": "b8016dc936112d9247b3092dba0cbcc9", "is_reserved": 0, "lon": -77.00739283333333, "is_disabled": 0, "fusion_lat": 0.0, "lat": 38.876537, "bike_id": "b8016dc936112d9247b3092dba0cbcc9", "fusion_lon": 0.0}, {"rental_uris": {"ios": "https://dc.lft.to/lastmile_qr_scan", "android": "https://dc.lft.to/lastmile_qr_scan"}, "type": "electric_scooter", "name": "cd1278fcf9d4ad8ec5612d389230ab0d", "is_reserved": 0, "lon": -77.03200583333333, "is_disabled": 0, "fusion_lat": 0.0, "lat": 38.92028, "bike_id": "cd1278fcf9d4ad8ec5612d389230ab0d", "fusion_lon": 0.0}, {"rental_uris": {"ios": "https://dc.lft.to/lastmile_qr_scan", "android": "https://dc.lft.to/lastmile_qr_scan"}, "type": "electric_bike", "name": "475939ab006550663eb5ac9c852f2756", "is_reserved": 0, "lon": -77.006791, "is_disabled": 0, "fusion_lat": 0.0, "lat": 38.94512816666666, "bike_id": "475939ab006550663eb5ac9c852f2756", "fusion_lon": 0.0}, {"rental_uris": {"ios": "https://dc.lft.to/lastmile_qr_scan", "android": "https://dc.lft.to/lastmile_qr_scan"}, "type": "electric_scooter", "name": "cb19a4860e5e5e71ea6cf1f4345f521c", "is_reserved": 0, "lon": -77.03281316666667, "is_disabled": 0, "fusion_lat": 0.0, "lat": 38.8987885, "bike_id": "cb19a4860e5e5e71ea6cf1f4345f521c", "fusion_lon": 0.0}, {"rental_uris": {"ios": "https://dc.lft.to/lastmile_qr_scan", "android": "https://dc.lft.to/lastmile_qr_scan"}, "type": "electric_scooter", "name": "803ae1e4eac76c3f1a9237a560b21335", "is_reserved": 0, "lon": -77.02383633333334, "is_disabled": 0, "fusion_lat": 0.0, "lat": 38.933762, "bike_id": "803ae1e4eac76c3f1a9237a560b21335", "fusion_lon": 0.0}, {"rental_uris": {"ios": "https://dc.lft.to/lastmile_qr_scan", "android": "https://dc.lft.to/lastmile_qr_scan"}, "type": "electric_scooter", "name": "163987f095e61b069427bf0af661026d", "is_reserved": 0, "lon": -77.05142333333333, "is_disabled": 0, "fusion_lat": 0.0, "lat": 38.8974955, "bike_id": "163987f095e61b069427bf0af661026d", "fusion_lon": 0.0}, {"rental_uris": {"ios": "https://dc.lft.to/lastmile_qr_scan", "android": "https://dc.lft.to/lastmile_qr_scan"}, "type": "electric_scooter", "name": "ac412f6916ba8e35290fb5374b800e44", "is_reserved": 0, "lon": -77.02947716666667, "is_disabled": 0, "fusion_lat": 0.0, "lat": 38.9072015, "bike_id": "ac412f6916ba8e35290fb5374b800e44", "fusion_lon": 0.0}, {"rental_uris": {"ios": "https://dc.lft.to/lastmile_qr_scan", "android": "https://dc.lft.to/lastmile_qr_scan"}, "type": "electric_scooter", "name": "e2bf6a0828fdcb49ef1edcc73f4a1f75", "is_reserved": 0, "lon": -77.02283666666666, "is_disabled": 0, "fusion_lat": 0.0, "lat": 38.9168875, "bike_id": "e2bf6a0828fdcb49ef1edcc73f4a1f75", "fusion_lon": 0.0}, {"rental_uris": {"ios": "https://dc.lft.to/lastmile_qr_scan", "android": "https://dc.lft.to/lastmile_qr_scan"}, "type": "electric_scooter", "name": "a4364a374795e743379d99beb743b3f6", "is_reserved": 0, "lon": -77.0052945, "is_disabled": 0, "fusion_lat": 0.0, "lat": 38.87920916666667, "bike_id": "a4364a374795e743379d99beb743b3f6", "fusion_lon": 0.0}, {"rental_uris": {"ios": "https://dc.lft.to/lastmile_qr_scan", "android": "https://dc.lft.to/lastmile_qr_scan"}, "type": "electric_scooter", "name": "51504db403f6cbbb50ae0dcd8d09e38f", "is_reserved": 0, "lon": -77.02096333333333, "is_disabled": 0, "fusion_lat": 0.0, "lat": 38.923221833333336, "bike_id": "51504db403f6cbbb50ae0dcd8d09e38f", "fusion_lon": 0.0}, {"rental_uris": {"ios": "https://dc.lft.to/lastmile_qr_scan", "android": "https://dc.lft.to/lastmile_qr_scan"}, "type": "electric_scooter", "name": "763d34bc6513e4baae3dd5dabe0c819a", "is_reserved": 0, "lon": -77.04564933333333, "is_disabled": 0, "fusion_lat": 0.0, "lat": 38.91402516666667, "bike_id": "763d34bc6513e4baae3dd5dabe0c819a", "fusion_lon": 0.0}, {"rental_uris": {"ios": "https://dc.lft.to/lastmile_qr_scan", "android": "https://dc.lft.to/lastmile_qr_scan"}, "type": "electric_scooter", "name": "12614a399db6df5b662507e60af96b49", "is_reserved": 0, "lon": -77.030696, "is_disabled": 0, "fusion_lat": 0.0, "lat": 38.934485333333335, "bike_id": "12614a399db6df5b662507e60af96b49", "fusion_lon": 0.0}, {"rental_uris": {"ios": "https://dc.lft.to/lastmile_qr_scan", "android": "https://dc.lft.to/lastmile_qr_scan"}, "type": "electric_scooter", "name": "182c5d4cb609e3ab5101925a8cb50e54", "is_reserved": 0, "lon": -76.93699466666666, "is_disabled": 0, "fusion_lat": 0.0, "lat": 38.89020283333333, "bike_id": "182c5d4cb609e3ab5101925a8cb50e54", "fusion_lon": 0.0}, {"rental_uris": {"ios": "https://dc.lft.to/lastmile_qr_scan", "android": "https://dc.lft.to/lastmile_qr_scan"}, "type": "electric_scooter", "name": "fc4e307a636358fa425f85881cb7e4de", "is_reserved": 0, "lon": -77.02224533333333, "is_disabled": 0, "fusion_lat": 0.0, "lat": 38.92082166666667, "bike_id": "fc4e307a636358fa425f85881cb7e4de", "fusion_lon": 0.0}, {"rental_uris": {"ios": "https://dc.lft.to/lastmile_qr_scan", "android": "https://dc.lft.to/lastmile_qr_scan"}, "type": "electric_scooter", "name": "f8df6e8ec3daa7d01fd99edad3b72dce", "is_reserved": 0, "lon": -77.032037, "is_disabled": 0, "fusion_lat": 0.0, "lat": 38.908254666666664, "bike_id": "f8df6e8ec3daa7d01fd99edad3b72dce", "fusion_lon": 0.0}, {"rental_uris": {"ios": "https://dc.lft.to/lastmile_qr_scan", "android": "https://dc.lft.to/lastmile_qr_scan"}, "type": "electric_scooter", "name": "a7255018ecec4754ece52629f6301ff2", "is_reserved": 0, "lon": -77.06416666666667, "is_disabled": 0, "fusion_lat": 0.0, "lat": 38.913985, "bike_id": "a7255018ecec4754ece52629f6301ff2", "fusion_lon": 0.0}, {"rental_uris": {"ios": "https://dc.lft.to/lastmile_qr_scan", "android": "https://dc.lft.to/lastmile_qr_scan"}, "type": "electric_scooter", "name": "a97573504ccc57cef9617d174ee686bb", "is_reserved": 0, "lon": -77.02070816666667, "is_disabled": 0, "fusion_lat": 0.0, "lat": 38.931080333333334, "bike_id": "a97573504ccc57cef9617d174ee686bb", "fusion_lon": 0.0}, {"rental_uris": {"ios": "https://dc.lft.to/lastmile_qr_scan", "android": "https://dc.lft.to/lastmile_qr_scan"}, "type": "electric_scooter", "name": "255d598882e5d2585e1ddad51571c311", "is_reserved": 0, "lon": -77.02952, "is_disabled": 0, "fusion_lat": 0.0, "lat": 38.90504383333333, "bike_id": "255d598882e5d2585e1ddad51571c311", "fusion_lon": 0.0}, {"rental_uris": {"ios": "https://dc.lft.to/lastmile_qr_scan", "android": "https://dc.lft.to/lastmile_qr_scan"}, "type": "electric_scooter", "name": "1ab1c274103a632ed87239bf10496599", "is_reserved": 0, "lon": -77.04213866666667, "is_disabled": 0, "fusion_lat": 0.0, "lat": 38.903547333333336, "bike_id": "1ab1c274103a632ed87239bf10496599", "fusion_lon": 0.0}, {"rental_uris": {"ios": "https://dc.lft.to/lastmile_qr_scan", "android": "https://dc.lft.to/lastmile_qr_scan"}, "type": "electric_scooter", "name": "c1783cd3b8cb70854ee25ffeff33e6e8", "is_reserved": 0, "lon": -77.00985616666667, "is_disabled": 0, "fusion_lat": 0.0, "lat": 38.905563, "bike_id": "c1783cd3b8cb70854ee25ffeff33e6e8", "fusion_lon": 0.0}, {"rental_uris": {"ios": "https://dc.lft.to/lastmile_qr_scan", "android": "https://dc.lft.to/lastmile_qr_scan"}, "type": "electric_scooter", "name": "d28f0efbe47cdf7967c8381ec46fca90", "is_reserved": 0, "lon": -77.00558666666667, "is_disabled": 0, "fusion_lat": 0.0, "lat": 38.87469733333333, "bike_id": "d28f0efbe47cdf7967c8381ec46fca90", "fusion_lon": 0.0}, {"rental_uris": {"ios": "https://dc.lft.to/lastmile_qr_scan", "android": "https://dc.lft.to/lastmile_qr_scan"}, "type": "electric_scooter", "name": "b869a1b90aaf50b9a6b74817e02ba2a4", "is_reserved": 0, "lon": -77.02474733333334, "is_disabled": 0, "fusion_lat": 0.0, "lat": 38.91818083333333, "bike_id": "b869a1b90aaf50b9a6b74817e02ba2a4", "fusion_lon": 0.0}, {"rental_uris": {"ios": "https://dc.lft.to/lastmile_qr_scan", "android": "https://dc.lft.to/lastmile_qr_scan"}, "type": "electric_scooter", "name": "24a86385d0d21fd49fd4b2bfa16f9a20", "is_reserved": 0, "lon": -77.008858, "is_disabled": 0, "fusion_lat": 0.0, "lat": 38.917125, "bike_id": "24a86385d0d21fd49fd4b2bfa16f9a20", "fusion_lon": 0.0}, {"rental_uris": {"ios": "https://dc.lft.to/lastmile_qr_scan", "android": "https://dc.lft.to/lastmile_qr_scan"}, "type": "electric_scooter", "name": "c91308da7bf45c8b306331fa8320a5a4", "is_reserved": 0, "lon": -77.02578983333333, "is_disabled": 0, "fusion_lat": 0.0, "lat": 38.9252375, "bike_id": "c91308da7bf45c8b306331fa8320a5a4", "fusion_lon": 0.0}, {"rental_uris": {"ios": "https://dc.lft.to/lastmile_qr_scan", "android": "https://dc.lft.to/lastmile_qr_scan"}, "type": "electric_bike", "name": "545a6af24db9c731d1821533dfc1c114", "is_reserved": 0, "lon": -76.97777283333333, "is_disabled": 0, "fusion_lat": 0.0, "lat": 38.85721233333334, "bike_id": "545a6af24db9c731d1821533dfc1c114", "fusion_lon": 0.0}, {"rental_uris": {"ios": "https://dc.lft.to/lastmile_qr_scan", "android": "https://dc.lft.to/lastmile_qr_scan"}, "type": "electric_scooter", "name": "8c13d6e1adb0c3968777a23b54469036", "is_reserved": 0, "lon": -77.03826233333334, "is_disabled": 0, "fusion_lat": 0.0, "lat": 38.912524833333336, "bike_id": "8c13d6e1adb0c3968777a23b54469036", "fusion_lon": 0.0}, {"rental_uris": {"ios": "https://dc.lft.to/lastmile_qr_scan", "android": "https://dc.lft.to/lastmile_qr_scan"}, "type": "electric_scooter", "name": "eded505f48613219171ef83b61fb0109", "is_reserved": 0, "lon": -77.04380866666666, "is_disabled": 0, "fusion_lat": 0.0, "lat": 38.9296225, "bike_id": "eded505f48613219171ef83b61fb0109", "fusion_lon": 0.0}, {"rental_uris": {"ios": "https://dc.lft.to/lastmile_qr_scan", "android": "https://dc.lft.to/lastmile_qr_scan"}, "type": "electric_scooter", "name": "96606010cec2ab3b94d6c109d6b0531f", "is_reserved": 0, "lon": -77.03256, "is_disabled": 0, "fusion_lat": 0.0, "lat": 38.9325055, "bike_id": "96606010cec2ab3b94d6c109d6b0531f", "fusion_lon": 0.0}, {"rental_uris": {"ios": "https://dc.lft.to/lastmile_qr_scan", "android": "https://dc.lft.to/lastmile_qr_scan"}, "type": "electric_scooter", "name": "123fa24bf1cf1ac051e8bfe35aa66a33", "is_reserved": 0, "lon": -77.04367366666666, "is_disabled": 0, "fusion_lat": 0.0, "lat": 38.89219, "bike_id": "123fa24bf1cf1ac051e8bfe35aa66a33", "fusion_lon": 0.0}, {"rental_uris": {"ios": "https://dc.lft.to/lastmile_qr_scan", "android": "https://dc.lft.to/lastmile_qr_scan"}, "type": "electric_scooter", "name": "eea375710fdaf0e01f7745e9ae281e5b", "is_reserved": 0, "lon": -77.04558533333334, "is_disabled": 0, "fusion_lat": 0.0, "lat": 38.913124833333335, "bike_id": "eea375710fdaf0e01f7745e9ae281e5b", "fusion_lon": 0.0}, {"rental_uris": {"ios": "https://dc.lft.to/lastmile_qr_scan", "android": "https://dc.lft.to/lastmile_qr_scan"}, "type": "electric_scooter", "name": "25788216bc65110c584d3fe966a5ad12", "is_reserved": 0, "lon": -77.02500083333334, "is_disabled": 0, "fusion_lat": 0.0, "lat": 38.942116666666664, "bike_id": "25788216bc65110c584d3fe966a5ad12", "fusion_lon": 0.0}, {"rental_uris": {"ios": "https://dc.lft.to/lastmile_qr_scan", "android": "https://dc.lft.to/lastmile_qr_scan"}, "type": "electric_bike", "name": "9524fac9ccb81df03b9165bcf059553c", "is_reserved": 0, "lon": -76.99987016666667, "is_disabled": 0, "fusion_lat": 0.0, "lat": 38.964009833333336, "bike_id": "9524fac9ccb81df03b9165bcf059553c", "fusion_lon": 0.0}, {"rental_uris": {"ios": "https://dc.lft.to/lastmile_qr_scan", "android": "https://dc.lft.to/lastmile_qr_scan"}, "type": "electric_scooter", "name": "810034fbdef7130e987564b7666f2b18", "is_reserved": 0, "lon": -77.01207066666667, "is_disabled": 0, "fusion_lat": 0.0, "lat": 38.91111933333333, "bike_id": "810034fbdef7130e987564b7666f2b18", "fusion_lon": 0.0}, {"rental_uris": {"ios": "https://dc.lft.to/lastmile_qr_scan", "android": "https://dc.lft.to/lastmile_qr_scan"}, "type": "electric_scooter", "name": "d88ef13a1c9a744e3556870b7edbe703", "is_reserved": 0, "lon": -77.00720116666666, "is_disabled": 0, "fusion_lat": 0.0, "lat": 38.9111235, "bike_id": "d88ef13a1c9a744e3556870b7edbe703", "fusion_lon": 0.0}, {"rental_uris": {"ios": "https://dc.lft.to/lastmile_qr_scan", "android": "https://dc.lft.to/lastmile_qr_scan"}, "type": "electric_scooter", "name": "e2fecf76db641a9d5a0957e04020f1e5", "is_reserved": 0, "lon": -77.03704583333334, "is_disabled": 0, "fusion_lat": 0.0, "lat": 38.92772133333333, "bike_id": "e2fecf76db641a9d5a0957e04020f1e5", "fusion_lon": 0.0}, {"rental_uris": {"ios": "https://dc.lft.to/lastmile_qr_scan", "android": "https://dc.lft.to/lastmile_qr_scan"}, "type": "electric_scooter", "name": "9bb52e262c0503c3709387bad5ec18b1", "is_reserved": 0, "lon": -77.03250583333333, "is_disabled": 0, "fusion_lat": 0.0, "lat": 38.91705116666667, "bike_id": "9bb52e262c0503c3709387bad5ec18b1", "fusion_lon": 0.0}, {"rental_uris": {"ios": "https://dc.lft.to/lastmile_qr_scan", "android": "https://dc.lft.to/lastmile_qr_scan"}, "type": "electric_scooter", "name": "c21b10a087e68e898abdced26a0de83f", "is_reserved": 0, "lon": -76.99747933333333, "is_disabled": 0, "fusion_lat": 0.0, "lat": 38.90015566666667, "bike_id": "c21b10a087e68e898abdced26a0de83f", "fusion_lon": 0.0}, {"rental_uris": {"ios": "https://dc.lft.to/lastmile_qr_scan", "android": "https://dc.lft.to/lastmile_qr_scan"}, "type": "electric_scooter", "name": "59f7293fa67fbc6c2174a97068f32897", "is_reserved": 0, "lon": -77.02117583333333, "is_disabled": 0, "fusion_lat": 0.0, "lat": 38.91736433333333, "bike_id": "59f7293fa67fbc6c2174a97068f32897", "fusion_lon": 0.0}, {"rental_uris": {"ios": "https://dc.lft.to/lastmile_qr_scan", "android": "https://dc.lft.to/lastmile_qr_scan"}, "type": "electric_scooter", "name": "5fe3f14e49af4f257085c9823ab1036b", "is_reserved": 0, "lon": -77.0877735, "is_disabled": 0, "fusion_lat": 0.0, "lat": 38.935578166666666, "bike_id": "5fe3f14e49af4f257085c9823ab1036b", "fusion_lon": 0.0}, {"rental_uris": {"ios": "https://dc.lft.to/lastmile_qr_scan", "android": "https://dc.lft.to/lastmile_qr_scan"}, "type": "electric_scooter", "name": "3194dc3acdb3f75715460d497a9c8e89", "is_reserved": 0, "lon": -77.06319833333333, "is_disabled": 0, "fusion_lat": 0.0, "lat": 38.913392333333334, "bike_id": "3194dc3acdb3f75715460d497a9c8e89", "fusion_lon": 0.0}, {"rental_uris": {"ios": "https://dc.lft.to/lastmile_qr_scan", "android": "https://dc.lft.to/lastmile_qr_scan"}, "type": "electric_bike", "name": "f58ebb4a60bf555464a454a02821a2f4", "is_reserved": 0, "lon": -77.11283233333333, "is_disabled": 0, "fusion_lat": 0.0, "lat": 38.831054333333334, "bike_id": "f58ebb4a60bf555464a454a02821a2f4", "fusion_lon": 0.0}, {"rental_uris": {"ios": "https://dc.lft.to/lastmile_qr_scan", "android": "https://dc.lft.to/lastmile_qr_scan"}, "type": "electric_scooter", "name": "7986e5baa8c92d0cdd42bc5ed1d1b08f", "is_reserved": 0, "lon": -77.0069045, "is_disabled": 0, "fusion_lat": 0.0, "lat": 38.90623083333333, "bike_id": "7986e5baa8c92d0cdd42bc5ed1d1b08f", "fusion_lon": 0.0}, {"rental_uris": {"ios": "https://dc.lft.to/lastmile_qr_scan", "android": "https://dc.lft.to/lastmile_qr_scan"}, "type": "electric_bike", "name": "5b59b4c0aa339046825e7d2e04ef8212", "is_reserved": 0, "lon": -77.00138616666666, "is_disabled": 0, "fusion_lat": 0.0, "lat": 38.99501816666667, "bike_id": "5b59b4c0aa339046825e7d2e04ef8212", "fusion_lon": 0.0}, {"rental_uris": {"ios": "https://dc.lft.to/lastmile_qr_scan", "android": "https://dc.lft.to/lastmile_qr_scan"}, "type": "electric_scooter", "name": "cb2382c8b179b50ecc81c9551a2aed26", "is_reserved": 0, "lon": -77.05216816666666, "is_disabled": 0, "fusion_lat": 0.0, "lat": 38.90018533333333, "bike_id": "cb2382c8b179b50ecc81c9551a2aed26", "fusion_lon": 0.0}, {"rental_uris": {"ios": "https://dc.lft.to/lastmile_qr_scan", "android": "https://dc.lft.to/lastmile_qr_scan"}, "type": "electric_scooter", "name": "47ddfa6266aaafa61c9d82b9bfa8bd25", "is_reserved": 0, "lon": -77.00912466666666, "is_disabled": 0, "fusion_lat": 0.0, "lat": 38.89896616666667, "bike_id": "47ddfa6266aaafa61c9d82b9bfa8bd25", "fusion_lon": 0.0}, {"rental_uris": {"ios": "https://dc.lft.to/lastmile_qr_scan", "android": "https://dc.lft.to/lastmile_qr_scan"}, "type": "electric_scooter", "name": "396ff7ffd784d669ee65864afcc32b8d", "is_reserved": 0, "lon": -77.06474233333333, "is_disabled": 0, "fusion_lat": 0.0, "lat": 38.910257333333334, "bike_id": "396ff7ffd784d669ee65864afcc32b8d", "fusion_lon": 0.0}, {"rental_uris": {"ios": "https://dc.lft.to/lastmile_qr_scan", "android": "https://dc.lft.to/lastmile_qr_scan"}, "type": "electric_scooter", "name": "6bf3048d7d6d7b3c03aef65ec29dacc8", "is_reserved": 0, "lon": -77.00757483333334, "is_disabled": 0, "fusion_lat": 0.0, "lat": 38.9252545, "bike_id": "6bf3048d7d6d7b3c03aef65ec29dacc8", "fusion_lon": 0.0}, {"rental_uris": {"ios": "https://dc.lft.to/lastmile_qr_scan", "android": "https://dc.lft.to/lastmile_qr_scan"}, "type": "electric_scooter", "name": "db363341283d98955c7b8b63f9c10c99", "is_reserved": 0, "lon": -77.02695883333334, "is_disabled": 0, "fusion_lat": 0.0, "lat": 38.92328933333334, "bike_id": "db363341283d98955c7b8b63f9c10c99", "fusion_lon": 0.0}, {"rental_uris": {"ios": "https://dc.lft.to/lastmile_qr_scan", "android": "https://dc.lft.to/lastmile_qr_scan"}, "type": "electric_scooter", "name": "8ffa5a7b6533f62db7d25887b29d0332", "is_reserved": 0, "lon": -77.00409133333334, "is_disabled": 0, "fusion_lat": 0.0, "lat": 38.905591, "bike_id": "8ffa5a7b6533f62db7d25887b29d0332", "fusion_lon": 0.0}, {"rental_uris": {"ios": "https://dc.lft.to/lastmile_qr_scan", "android": "https://dc.lft.to/lastmile_qr_scan"}, "type": "electric_scooter", "name": "aac61a74a8d73038a3227c9e5e409c3c", "is_reserved": 0, "lon": -77.04738016666667, "is_disabled": 0, "fusion_lat": 0.0, "lat": 38.908493, "bike_id": "aac61a74a8d73038a3227c9e5e409c3c", "fusion_lon": 0.0}, {"rental_uris": {"ios": "https://dc.lft.to/lastmile_qr_scan", "android": "https://dc.lft.to/lastmile_qr_scan"}, "type": "electric_scooter", "name": "84df06c4b93db0fa69943381939a08e7", "is_reserved": 0, "lon": -76.979358, "is_disabled": 0, "fusion_lat": 0.0, "lat": 38.906617, "bike_id": "84df06c4b93db0fa69943381939a08e7", "fusion_lon": 0.0}, {"rental_uris": {"ios": "https://dc.lft.to/lastmile_qr_scan", "android": "https://dc.lft.to/lastmile_qr_scan"}, "type": "electric_scooter", "name": "78f0930d3af182dfca6c87e5d00fe675", "is_reserved": 0, "lon": -77.026994, "is_disabled": 0, "fusion_lat": 0.0, "lat": 38.91799616666667, "bike_id": "78f0930d3af182dfca6c87e5d00fe675", "fusion_lon": 0.0}, {"rental_uris": {"ios": "https://dc.lft.to/lastmile_qr_scan", "android": "https://dc.lft.to/lastmile_qr_scan"}, "type": "electric_scooter", "name": "0a83a3958a2ff30e39244d263f884c07", "is_reserved": 0, "lon": -77.03660533333333, "is_disabled": 0, "fusion_lat": 0.0, "lat": 38.9228275, "bike_id": "0a83a3958a2ff30e39244d263f884c07", "fusion_lon": 0.0}, {"rental_uris": {"ios": "https://dc.lft.to/lastmile_qr_scan", "android": "https://dc.lft.to/lastmile_qr_scan"}, "type": "electric_scooter", "name": "5e841c267808c903235165ea02e1f68b", "is_reserved": 0, "lon": -77.0386665, "is_disabled": 0, "fusion_lat": 0.0, "lat": 38.9117795, "bike_id": "5e841c267808c903235165ea02e1f68b", "fusion_lon": 0.0}, {"rental_uris": {"ios": "https://dc.lft.to/lastmile_qr_scan", "android": "https://dc.lft.to/lastmile_qr_scan"}, "type": "electric_scooter", "name": "8fd598571e726962fbd9b71aca8ebb96", "is_reserved": 0, "lon": -77.00363083333333, "is_disabled": 0, "fusion_lat": 0.0, "lat": 38.899337833333334, "bike_id": "8fd598571e726962fbd9b71aca8ebb96", "fusion_lon": 0.0}, {"rental_uris": {"ios": "https://dc.lft.to/lastmile_qr_scan", "android": "https://dc.lft.to/lastmile_qr_scan"}, "type": "electric_scooter", "name": "57089068747010b5a2223c435863a3e1", "is_reserved": 0, "lon": -77.020904, "is_disabled": 0, "fusion_lat": 0.0, "lat": 38.9270265, "bike_id": "57089068747010b5a2223c435863a3e1", "fusion_lon": 0.0}, {"rental_uris": {"ios": "https://dc.lft.to/lastmile_qr_scan", "android": "https://dc.lft.to/lastmile_qr_scan"}, "type": "electric_scooter", "name": "08373094049d7c24113a789eae1f21e6", "is_reserved": 0, "lon": -77.043637, "is_disabled": 0, "fusion_lat": 0.0, "lat": 38.926733, "bike_id": "08373094049d7c24113a789eae1f21e6", "fusion_lon": 0.0}, {"rental_uris": {"ios": "https://dc.lft.to/lastmile_qr_scan", "android": "https://dc.lft.to/lastmile_qr_scan"}, "type": "electric_bike", "name": "ed0d5ebe8215cc03f888a701d267a9ea", "is_reserved": 0, "lon": -76.91720616666667, "is_disabled": 0, "fusion_lat": 0.0, "lat": 38.880221, "bike_id": "ed0d5ebe8215cc03f888a701d267a9ea", "fusion_lon": 0.0}, {"rental_uris": {"ios": "https://dc.lft.to/lastmile_qr_scan", "android": "https://dc.lft.to/lastmile_qr_scan"}, "type": "electric_scooter", "name": "cd7a5115b206064b8f626a3896d32a9b", "is_reserved": 0, "lon": -76.98069283333334, "is_disabled": 0, "fusion_lat": 0.0, "lat": 38.901782, "bike_id": "cd7a5115b206064b8f626a3896d32a9b", "fusion_lon": 0.0}, {"rental_uris": {"ios": "https://dc.lft.to/lastmile_qr_scan", "android": "https://dc.lft.to/lastmile_qr_scan"}, "type": "electric_scooter", "name": "29ec842cc08ac15cdfa9263cf8efc796", "is_reserved": 0, "lon": -77.02372733333333, "is_disabled": 0, "fusion_lat": 0.0, "lat": 38.9168045, "bike_id": "29ec842cc08ac15cdfa9263cf8efc796", "fusion_lon": 0.0}, {"rental_uris": {"ios": "https://dc.lft.to/lastmile_qr_scan", "android": "https://dc.lft.to/lastmile_qr_scan"}, "type": "electric_scooter", "name": "c9242bd29eb4bf58e95bdeb3a8dc23c9", "is_reserved": 0, "lon": -77.03247983333333, "is_disabled": 0, "fusion_lat": 0.0, "lat": 38.919922, "bike_id": "c9242bd29eb4bf58e95bdeb3a8dc23c9", "fusion_lon": 0.0}, {"rental_uris": {"ios": "https://dc.lft.to/lastmile_qr_scan", "android": "https://dc.lft.to/lastmile_qr_scan"}, "type": "electric_scooter", "name": "d585698d1371de0a56adfae545613b49", "is_reserved": 0, "lon": -77.041252, "is_disabled": 0, "fusion_lat": 0.0, "lat": 38.933580166666665, "bike_id": "d585698d1371de0a56adfae545613b49", "fusion_lon": 0.0}, {"rental_uris": {"ios": "https://dc.lft.to/lastmile_qr_scan", "android": "https://dc.lft.to/lastmile_qr_scan"}, "type": "electric_scooter", "name": "8a30b4a06ed932746cd7366f08918e84", "is_reserved": 0, "lon": -77.03243683333334, "is_disabled": 0, "fusion_lat": 0.0, "lat": 38.919946, "bike_id": "8a30b4a06ed932746cd7366f08918e84", "fusion_lon": 0.0}, {"rental_uris": {"ios": "https://dc.lft.to/lastmile_qr_scan", "android": "https://dc.lft.to/lastmile_qr_scan"}, "type": "electric_bike", "name": "22e4de7bb80f4df03c6300b383944fb0", "is_reserved": 0, "lon": -77.02056216666666, "is_disabled": 0, "fusion_lat": 0.0, "lat": 38.92826683333333, "bike_id": "22e4de7bb80f4df03c6300b383944fb0", "fusion_lon": 0.0}, {"rental_uris": {"ios": "https://dc.lft.to/lastmile_qr_scan", "android": "https://dc.lft.to/lastmile_qr_scan"}, "type": "electric_scooter", "name": "9796448cd22e3e34809a5e323e365d54", "is_reserved": 0, "lon": -76.94072583333333, "is_disabled": 0, "fusion_lat": 0.0, "lat": 38.8858215, "bike_id": "9796448cd22e3e34809a5e323e365d54", "fusion_lon": 0.0}, {"rental_uris": {"ios": "https://dc.lft.to/lastmile_qr_scan", "android": "https://dc.lft.to/lastmile_qr_scan"}, "type": "electric_scooter", "name": "564064a80db6608ac9c07fd32c81bc56", "is_reserved": 0, "lon": -77.03263633333333, "is_disabled": 0, "fusion_lat": 0.0, "lat": 38.93235333333333, "bike_id": "564064a80db6608ac9c07fd32c81bc56", "fusion_lon": 0.0}, {"rental_uris": {"ios": "https://dc.lft.to/lastmile_qr_scan", "android": "https://dc.lft.to/lastmile_qr_scan"}, "type": "electric_scooter", "name": "02a8a7a86353a913832d3eaa22fb0c89", "is_reserved": 0, "lon": -77.02548683333333, "is_disabled": 0, "fusion_lat": 0.0, "lat": 38.95170066666667, "bike_id": "02a8a7a86353a913832d3eaa22fb0c89", "fusion_lon": 0.0}, {"rental_uris": {"ios": "https://dc.lft.to/lastmile_qr_scan", "android": "https://dc.lft.to/lastmile_qr_scan"}, "type": "electric_scooter", "name": "45a7abaec8e814a658a83b7611d0a4eb", "is_reserved": 0, "lon": -76.952995, "is_disabled": 0, "fusion_lat": 0.0, "lat": 38.885136, "bike_id": "45a7abaec8e814a658a83b7611d0a4eb", "fusion_lon": 0.0}, {"rental_uris": {"ios": "https://dc.lft.to/lastmile_qr_scan", "android": "https://dc.lft.to/lastmile_qr_scan"}, "type": "electric_scooter", "name": "1934336442df67a5300ace246bc6d7ea", "is_reserved": 0, "lon": -77.01946083333333, "is_disabled": 0, "fusion_lat": 0.0, "lat": 38.92416766666667, "bike_id": "1934336442df67a5300ace246bc6d7ea", "fusion_lon": 0.0}, {"rental_uris": {"ios": "https://dc.lft.to/lastmile_qr_scan", "android": "https://dc.lft.to/lastmile_qr_scan"}, "type": "electric_scooter", "name": "d4ec50f8bfa02ed7ef119543c64aa6a0", "is_reserved": 0, "lon": -76.99506816666667, "is_disabled": 0, "fusion_lat": 0.0, "lat": 38.909782666666665, "bike_id": "d4ec50f8bfa02ed7ef119543c64aa6a0", "fusion_lon": 0.0}, {"rental_uris": {"ios": "https://dc.lft.to/lastmile_qr_scan", "android": "https://dc.lft.to/lastmile_qr_scan"}, "type": "electric_scooter", "name": "12b2ac4a139ad6d71e79281e654cdda6", "is_reserved": 0, "lon": -77.01737483333334, "is_disabled": 0, "fusion_lat": 0.0, "lat": 38.902599, "bike_id": "12b2ac4a139ad6d71e79281e654cdda6", "fusion_lon": 0.0}, {"rental_uris": {"ios": "https://dc.lft.to/lastmile_qr_scan", "android": "https://dc.lft.to/lastmile_qr_scan"}, "type": "electric_scooter", "name": "9ec160743723c10d4400c77a9c089c16", "is_reserved": 0, "lon": -77.00597666666667, "is_disabled": 0, "fusion_lat": 0.0, "lat": 38.87962116666667, "bike_id": "9ec160743723c10d4400c77a9c089c16", "fusion_lon": 0.0}, {"rental_uris": {"ios": "https://dc.lft.to/lastmile_qr_scan", "android": "https://dc.lft.to/lastmile_qr_scan"}, "type": "electric_scooter", "name": "2cfa461ba6fdd69e6f098212ec35fbd9", "is_reserved": 0, "lon": -77.04455483333334, "is_disabled": 0, "fusion_lat": 0.0, "lat": 38.91879816666667, "bike_id": "2cfa461ba6fdd69e6f098212ec35fbd9", "fusion_lon": 0.0}, {"rental_uris": {"ios": "https://dc.lft.to/lastmile_qr_scan", "android": "https://dc.lft.to/lastmile_qr_scan"}, "type": "electric_scooter", "name": "8fd2eaebb15cc67fc92971444b3cef3d", "is_reserved": 0, "lon": -76.994392, "is_disabled": 0, "fusion_lat": 0.0, "lat": 38.959217333333335, "bike_id": "8fd2eaebb15cc67fc92971444b3cef3d", "fusion_lon": 0.0}, {"rental_uris": {"ios": "https://dc.lft.to/lastmile_qr_scan", "android": "https://dc.lft.to/lastmile_qr_scan"}, "type": "electric_scooter", "name": "2090c228cfe257218218ccdd7952d8f3", "is_reserved": 0, "lon": -76.9720605, "is_disabled": 0, "fusion_lat": 0.0, "lat": 38.924564833333335, "bike_id": "2090c228cfe257218218ccdd7952d8f3", "fusion_lon": 0.0}, {"rental_uris": {"ios": "https://dc.lft.to/lastmile_qr_scan", "android": "https://dc.lft.to/lastmile_qr_scan"}, "type": "electric_scooter", "name": "12913903784365f366992f0d3081e88a", "is_reserved": 0, "lon": -77.04042783333334, "is_disabled": 0, "fusion_lat": 0.0, "lat": 38.93015333333334, "bike_id": "12913903784365f366992f0d3081e88a", "fusion_lon": 0.0}, {"rental_uris": {"ios": "https://dc.lft.to/lastmile_qr_scan", "android": "https://dc.lft.to/lastmile_qr_scan"}, "type": "electric_scooter", "name": "3b363c09166973fa7aa18c10607e9e2e", "is_reserved": 0, "lon": -77.00431766666667, "is_disabled": 0, "fusion_lat": 0.0, "lat": 38.885115166666665, "bike_id": "3b363c09166973fa7aa18c10607e9e2e", "fusion_lon": 0.0}, {"rental_uris": {"ios": "https://dc.lft.to/lastmile_qr_scan", "android": "https://dc.lft.to/lastmile_qr_scan"}, "type": "electric_scooter", "name": "4d4507a12be21e7fd2e5b4a80e75b401", "is_reserved": 0, "lon": -77.02271866666666, "is_disabled": 0, "fusion_lat": 0.0, "lat": 38.9247375, "bike_id": "4d4507a12be21e7fd2e5b4a80e75b401", "fusion_lon": 0.0}, {"rental_uris": {"ios": "https://dc.lft.to/lastmile_qr_scan", "android": "https://dc.lft.to/lastmile_qr_scan"}, "type": "electric_scooter", "name": "93b108133d4bde915fed7764a45121c8", "is_reserved": 0, "lon": -77.03777466666666, "is_disabled": 0, "fusion_lat": 0.0, "lat": 38.915657333333336, "bike_id": "93b108133d4bde915fed7764a45121c8", "fusion_lon": 0.0}, {"rental_uris": {"ios": "https://dc.lft.to/lastmile_qr_scan", "android": "https://dc.lft.to/lastmile_qr_scan"}, "type": "electric_scooter", "name": "d49c1e006a52e5f7f767eae749045966", "is_reserved": 0, "lon": -77.02309416666667, "is_disabled": 0, "fusion_lat": 0.0, "lat": 38.961297, "bike_id": "d49c1e006a52e5f7f767eae749045966", "fusion_lon": 0.0}, {"rental_uris": {"ios": "https://dc.lft.to/lastmile_qr_scan", "android": "https://dc.lft.to/lastmile_qr_scan"}, "type": "electric_scooter", "name": "e8af493c792094dadf168b9fcca0dff2", "is_reserved": 0, "lon": -77.04425616666667, "is_disabled": 0, "fusion_lat": 0.0, "lat": 38.897474833333334, "bike_id": "e8af493c792094dadf168b9fcca0dff2", "fusion_lon": 0.0}, {"rental_uris": {"ios": "https://dc.lft.to/lastmile_qr_scan", "android": "https://dc.lft.to/lastmile_qr_scan"}, "type": "electric_scooter", "name": "a9c5e2c33428f37da11a91e47102b60f", "is_reserved": 0, "lon": -77.0186635, "is_disabled": 0, "fusion_lat": 0.0, "lat": 38.951487166666666, "bike_id": "a9c5e2c33428f37da11a91e47102b60f", "fusion_lon": 0.0}, {"rental_uris": {"ios": "https://dc.lft.to/lastmile_qr_scan", "android": "https://dc.lft.to/lastmile_qr_scan"}, "type": "electric_scooter", "name": "0d141b72975d41eb7c12ae1884769f60", "is_reserved": 0, "lon": -77.0228545, "is_disabled": 0, "fusion_lat": 0.0, "lat": 38.916899666666666, "bike_id": "0d141b72975d41eb7c12ae1884769f60", "fusion_lon": 0.0}, {"rental_uris": {"ios": "https://dc.lft.to/lastmile_qr_scan", "android": "https://dc.lft.to/lastmile_qr_scan"}, "type": "electric_scooter", "name": "a019ff810cf7e3f656fa4c0d4771f602", "is_reserved": 0, "lon": -77.0221845, "is_disabled": 0, "fusion_lat": 0.0, "lat": 38.924656, "bike_id": "a019ff810cf7e3f656fa4c0d4771f602", "fusion_lon": 0.0}, {"rental_uris": {"ios": "https://dc.lft.to/lastmile_qr_scan", "android": "https://dc.lft.to/lastmile_qr_scan"}, "type": "electric_scooter", "name": "737d88401f17d3d1f84cb464db6cad8b", "is_reserved": 0, "lon": -77.04042566666666, "is_disabled": 0, "fusion_lat": 0.0, "lat": 38.93012816666667, "bike_id": "737d88401f17d3d1f84cb464db6cad8b", "fusion_lon": 0.0}, {"rental_uris": {"ios": "https://dc.lft.to/lastmile_qr_scan", "android": "https://dc.lft.to/lastmile_qr_scan"}, "type": "electric_scooter", "name": "d3f99873213cf86925f189fec03379d6", "is_reserved": 0, "lon": -77.04153633333334, "is_disabled": 0, "fusion_lat": 0.0, "lat": 38.905698, "bike_id": "d3f99873213cf86925f189fec03379d6", "fusion_lon": 0.0}, {"rental_uris": {"ios": "https://dc.lft.to/lastmile_qr_scan", "android": "https://dc.lft.to/lastmile_qr_scan"}, "type": "electric_scooter", "name": "abe75cab3d8e59fed8663e32839f651e", "is_reserved": 0, "lon": -76.99506283333334, "is_disabled": 0, "fusion_lat": 0.0, "lat": 38.903271833333335, "bike_id": "abe75cab3d8e59fed8663e32839f651e", "fusion_lon": 0.0}, {"rental_uris": {"ios": "https://dc.lft.to/lastmile_qr_scan", "android": "https://dc.lft.to/lastmile_qr_scan"}, "type": "electric_scooter", "name": "ee34c263e969dccfd8979e87540b4d95", "is_reserved": 0, "lon": -77.0450595, "is_disabled": 0, "fusion_lat": 0.0, "lat": 38.914123000000004, "bike_id": "ee34c263e969dccfd8979e87540b4d95", "fusion_lon": 0.0}, {"rental_uris": {"ios": "https://dc.lft.to/lastmile_qr_scan", "android": "https://dc.lft.to/lastmile_qr_scan"}, "type": "electric_scooter", "name": "8d34233f60070c58d6febaa7486a63ee", "is_reserved": 0, "lon": -77.0532295, "is_disabled": 0, "fusion_lat": 0.0, "lat": 38.90455866666667, "bike_id": "8d34233f60070c58d6febaa7486a63ee", "fusion_lon": 0.0}, {"rental_uris": {"ios": "https://dc.lft.to/lastmile_qr_scan", "android": "https://dc.lft.to/lastmile_qr_scan"}, "type": "electric_scooter", "name": "5e89658bd731bf2328f764783174932c", "is_reserved": 0, "lon": -77.025545, "is_disabled": 0, "fusion_lat": 0.0, "lat": 38.951744166666664, "bike_id": "5e89658bd731bf2328f764783174932c", "fusion_lon": 0.0}, {"rental_uris": {"ios": "https://dc.lft.to/lastmile_qr_scan", "android": "https://dc.lft.to/lastmile_qr_scan"}, "type": "electric_scooter", "name": "f67ef7dffb8992cdb64586fff589ebae", "is_reserved": 0, "lon": -77.0144465, "is_disabled": 0, "fusion_lat": 0.0, "lat": 38.9125095, "bike_id": "f67ef7dffb8992cdb64586fff589ebae", "fusion_lon": 0.0}, {"rental_uris": {"ios": "https://dc.lft.to/lastmile_qr_scan", "android": "https://dc.lft.to/lastmile_qr_scan"}, "type": "electric_scooter", "name": "324aa57bdad7d94ba94569e5915b1459", "is_reserved": 0, "lon": -77.03468933333333, "is_disabled": 0, "fusion_lat": 0.0, "lat": 38.90713733333333, "bike_id": "324aa57bdad7d94ba94569e5915b1459", "fusion_lon": 0.0}, {"rental_uris": {"ios": "https://dc.lft.to/lastmile_qr_scan", "android": "https://dc.lft.to/lastmile_qr_scan"}, "type": "electric_scooter", "name": "b4e85ab85a55fcce717c49d258ee0552", "is_reserved": 0, "lon": -77.04868616666667, "is_disabled": 0, "fusion_lat": 0.0, "lat": 38.910207, "bike_id": "b4e85ab85a55fcce717c49d258ee0552", "fusion_lon": 0.0}, {"rental_uris": {"ios": "https://dc.lft.to/lastmile_qr_scan", "android": "https://dc.lft.to/lastmile_qr_scan"}, "type": "electric_scooter", "name": "4cbf2ebfa45a6b9c419b245e5561bccf", "is_reserved": 0, "lon": -77.04355966666667, "is_disabled": 0, "fusion_lat": 0.0, "lat": 38.90701683333333, "bike_id": "4cbf2ebfa45a6b9c419b245e5561bccf", "fusion_lon": 0.0}, {"rental_uris": {"ios": "https://dc.lft.to/lastmile_qr_scan", "android": "https://dc.lft.to/lastmile_qr_scan"}, "type": "electric_scooter", "name": "0a565015595acc3768e8b1638004dee9", "is_reserved": 0, "lon": -77.02798533333333, "is_disabled": 0, "fusion_lat": 0.0, "lat": 38.906193, "bike_id": "0a565015595acc3768e8b1638004dee9", "fusion_lon": 0.0}, {"rental_uris": {"ios": "https://dc.lft.to/lastmile_qr_scan", "android": "https://dc.lft.to/lastmile_qr_scan"}, "type": "electric_scooter", "name": "e78c275b78c8609587535383d222f58e", "is_reserved": 0, "lon": -77.02230766666666, "is_disabled": 0, "fusion_lat": 0.0, "lat": 38.892204166666666, "bike_id": "e78c275b78c8609587535383d222f58e", "fusion_lon": 0.0}, {"rental_uris": {"ios": "https://dc.lft.to/lastmile_qr_scan", "android": "https://dc.lft.to/lastmile_qr_scan"}, "type": "electric_scooter", "name": "845134155806f84497b910495da514aa", "is_reserved": 0, "lon": -77.02756, "is_disabled": 0, "fusion_lat": 0.0, "lat": 38.91194566666667, "bike_id": "845134155806f84497b910495da514aa", "fusion_lon": 0.0}, {"rental_uris": {"ios": "https://dc.lft.to/lastmile_qr_scan", "android": "https://dc.lft.to/lastmile_qr_scan"}, "type": "electric_scooter", "name": "7bc34013f476a2de50b7658805df899b", "is_reserved": 0, "lon": -77.02013783333334, "is_disabled": 0, "fusion_lat": 0.0, "lat": 38.89869816666667, "bike_id": "7bc34013f476a2de50b7658805df899b", "fusion_lon": 0.0}, {"rental_uris": {"ios": "https://dc.lft.to/lastmile_qr_scan", "android": "https://dc.lft.to/lastmile_qr_scan"}, "type": "electric_scooter", "name": "0a8b16c9d3bc4318a69065fddfc02dd3", "is_reserved": 0, "lon": -77.02030833333333, "is_disabled": 0, "fusion_lat": 0.0, "lat": 38.93641983333333, "bike_id": "0a8b16c9d3bc4318a69065fddfc02dd3", "fusion_lon": 0.0}, {"rental_uris": {"ios": "https://dc.lft.to/lastmile_qr_scan", "android": "https://dc.lft.to/lastmile_qr_scan"}, "type": "electric_scooter", "name": "849ae0a3d7b05b9e9e7795514cd83a26", "is_reserved": 0, "lon": -77.04567616666667, "is_disabled": 0, "fusion_lat": 0.0, "lat": 38.917851666666664, "bike_id": "849ae0a3d7b05b9e9e7795514cd83a26", "fusion_lon": 0.0}, {"rental_uris": {"ios": "https://dc.lft.to/lastmile_qr_scan", "android": "https://dc.lft.to/lastmile_qr_scan"}, "type": "electric_scooter", "name": "3ebcafdbd0627cbef09fea64a8777b66", "is_reserved": 0, "lon": -77.03210483333334, "is_disabled": 0, "fusion_lat": 0.0, "lat": 38.908986, "bike_id": "3ebcafdbd0627cbef09fea64a8777b66", "fusion_lon": 0.0}, {"rental_uris": {"ios": "https://dc.lft.to/lastmile_qr_scan", "android": "https://dc.lft.to/lastmile_qr_scan"}, "type": "electric_scooter", "name": "2c4a7b5c56a0ae1dddc1cbe1339d196a", "is_reserved": 0, "lon": -76.96506233333334, "is_disabled": 0, "fusion_lat": 0.0, "lat": 38.876436166666664, "bike_id": "2c4a7b5c56a0ae1dddc1cbe1339d196a", "fusion_lon": 0.0}, {"rental_uris": {"ios": "https://dc.lft.to/lastmile_qr_scan", "android": "https://dc.lft.to/lastmile_qr_scan"}, "type": "electric_scooter", "name": "df5d7065afb6b77cfa1b416699bd27af", "is_reserved": 0, "lon": -76.9223445, "is_disabled": 0, "fusion_lat": 0.0, "lat": 38.8999345, "bike_id": "df5d7065afb6b77cfa1b416699bd27af", "fusion_lon": 0.0}, {"rental_uris": {"ios": "https://dc.lft.to/lastmile_qr_scan", "android": "https://dc.lft.to/lastmile_qr_scan"}, "type": "electric_bike", "name": "e76232e36f445895133304b3d2c3851b", "is_reserved": 0, "lon": -77.0663675, "is_disabled": 0, "fusion_lat": 0.0, "lat": 38.949558833333334, "bike_id": "e76232e36f445895133304b3d2c3851b", "fusion_lon": 0.0}, {"rental_uris": {"ios": "https://dc.lft.to/lastmile_qr_scan", "android": "https://dc.lft.to/lastmile_qr_scan"}, "type": "electric_scooter", "name": "b028fb9c54d94cd840c7e305cab085c0", "is_reserved": 0, "lon": -77.04589383333334, "is_disabled": 0, "fusion_lat": 0.0, "lat": 38.91425783333333, "bike_id": "b028fb9c54d94cd840c7e305cab085c0", "fusion_lon": 0.0}, {"rental_uris": {"ios": "https://dc.lft.to/lastmile_qr_scan", "android": "https://dc.lft.to/lastmile_qr_scan"}, "type": "electric_scooter", "name": "beae6d99c6df04500f331b67778a31b8", "is_reserved": 0, "lon": -77.00872283333334, "is_disabled": 0, "fusion_lat": 0.0, "lat": 38.9224085, "bike_id": "beae6d99c6df04500f331b67778a31b8", "fusion_lon": 0.0}, {"rental_uris": {"ios": "https://dc.lft.to/lastmile_qr_scan", "android": "https://dc.lft.to/lastmile_qr_scan"}, "type": "electric_scooter", "name": "5959355517022bd7e2a28b9117bddfbd", "is_reserved": 0, "lon": -77.03843316666666, "is_disabled": 0, "fusion_lat": 0.0, "lat": 38.9103955, "bike_id": "5959355517022bd7e2a28b9117bddfbd", "fusion_lon": 0.0}, {"rental_uris": {"ios": "https://dc.lft.to/lastmile_qr_scan", "android": "https://dc.lft.to/lastmile_qr_scan"}, "type": "electric_scooter", "name": "48137d0c2affa46bcd565de753caa366", "is_reserved": 0, "lon": -77.0092455, "is_disabled": 0, "fusion_lat": 0.0, "lat": 38.881822, "bike_id": "48137d0c2affa46bcd565de753caa366", "fusion_lon": 0.0}, {"rental_uris": {"ios": "https://dc.lft.to/lastmile_qr_scan", "android": "https://dc.lft.to/lastmile_qr_scan"}, "type": "electric_scooter", "name": "086449d71c2b79c242c5ffef16b1ae53", "is_reserved": 0, "lon": -77.01901816666667, "is_disabled": 0, "fusion_lat": 0.0, "lat": 38.923297, "bike_id": "086449d71c2b79c242c5ffef16b1ae53", "fusion_lon": 0.0}, {"rental_uris": {"ios": "https://dc.lft.to/lastmile_qr_scan", "android": "https://dc.lft.to/lastmile_qr_scan"}, "type": "electric_scooter", "name": "397975a1f2b1427b02f96e73928386b6", "is_reserved": 0, "lon": -77.026015, "is_disabled": 0, "fusion_lat": 0.0, "lat": 38.905812833333336, "bike_id": "397975a1f2b1427b02f96e73928386b6", "fusion_lon": 0.0}, {"rental_uris": {"ios": "https://dc.lft.to/lastmile_qr_scan", "android": "https://dc.lft.to/lastmile_qr_scan"}, "type": "electric_scooter", "name": "822da3a6c4f3d4fdc2b7fb7e555afc0b", "is_reserved": 0, "lon": -77.02344816666667, "is_disabled": 0, "fusion_lat": 0.0, "lat": 38.93135083333333, "bike_id": "822da3a6c4f3d4fdc2b7fb7e555afc0b", "fusion_lon": 0.0}, {"rental_uris": {"ios": "https://dc.lft.to/lastmile_qr_scan", "android": "https://dc.lft.to/lastmile_qr_scan"}, "type": "electric_scooter", "name": "82be45e0b070b380622dc1de7aa60473", "is_reserved": 0, "lon": -77.03663683333333, "is_disabled": 0, "fusion_lat": 0.0, "lat": 38.917220666666665, "bike_id": "82be45e0b070b380622dc1de7aa60473", "fusion_lon": 0.0}, {"rental_uris": {"ios": "https://dc.lft.to/lastmile_qr_scan", "android": "https://dc.lft.to/lastmile_qr_scan"}, "type": "electric_scooter", "name": "01dec592ab86e584d85fcce210daf13a", "is_reserved": 0, "lon": -77.02385433333333, "is_disabled": 0, "fusion_lat": 0.0, "lat": 38.926973333333336, "bike_id": "01dec592ab86e584d85fcce210daf13a", "fusion_lon": 0.0}, {"rental_uris": {"ios": "https://dc.lft.to/lastmile_qr_scan", "android": "https://dc.lft.to/lastmile_qr_scan"}, "type": "electric_bike", "name": "57059ef005262dd794ac7cdc9e762574", "is_reserved": 0, "lon": -76.97325016666667, "is_disabled": 0, "fusion_lat": 0.0, "lat": 38.857771166666666, "bike_id": "57059ef005262dd794ac7cdc9e762574", "fusion_lon": 0.0}, {"rental_uris": {"ios": "https://dc.lft.to/lastmile_qr_scan", "android": "https://dc.lft.to/lastmile_qr_scan"}, "type": "electric_scooter", "name": "92907854d5a62601c44495fb102d503a", "is_reserved": 0, "lon": -77.024711, "is_disabled": 0, "fusion_lat": 0.0, "lat": 38.939114000000004, "bike_id": "92907854d5a62601c44495fb102d503a", "fusion_lon": 0.0}, {"rental_uris": {"ios": "https://dc.lft.to/lastmile_qr_scan", "android": "https://dc.lft.to/lastmile_qr_scan"}, "type": "electric_scooter", "name": "6286978e22c4e5326d6999d87f0be35d", "is_reserved": 0, "lon": -77.0318235, "is_disabled": 0, "fusion_lat": 0.0, "lat": 38.919974, "bike_id": "6286978e22c4e5326d6999d87f0be35d", "fusion_lon": 0.0}, {"rental_uris": {"ios": "https://dc.lft.to/lastmile_qr_scan", "android": "https://dc.lft.to/lastmile_qr_scan"}, "type": "electric_scooter", "name": "ced97d15862f5acce9555dc83dd72d74", "is_reserved": 0, "lon": -77.05022466666667, "is_disabled": 0, "fusion_lat": 0.0, "lat": 38.923504666666666, "bike_id": "ced97d15862f5acce9555dc83dd72d74", "fusion_lon": 0.0}, {"rental_uris": {"ios": "https://dc.lft.to/lastmile_qr_scan", "android": "https://dc.lft.to/lastmile_qr_scan"}, "type": "electric_scooter", "name": "6318df6044174fa80bf44f04f6dd149d", "is_reserved": 0, "lon": -77.038388, "is_disabled": 0, "fusion_lat": 0.0, "lat": 38.91076733333333, "bike_id": "6318df6044174fa80bf44f04f6dd149d", "fusion_lon": 0.0}, {"rental_uris": {"ios": "https://dc.lft.to/lastmile_qr_scan", "android": "https://dc.lft.to/lastmile_qr_scan"}, "type": "electric_scooter", "name": "94f6deb5372eee34f476b09af7e9799a", "is_reserved": 0, "lon": -77.0241165, "is_disabled": 0, "fusion_lat": 0.0, "lat": 38.90954716666667, "bike_id": "94f6deb5372eee34f476b09af7e9799a", "fusion_lon": 0.0}, {"rental_uris": {"ios": "https://dc.lft.to/lastmile_qr_scan", "android": "https://dc.lft.to/lastmile_qr_scan"}, "type": "electric_bike", "name": "81a09032a363bfb3559b1d254b9ede4e", "is_reserved": 0, "lon": -76.9734185, "is_disabled": 0, "fusion_lat": 0.0, "lat": 38.897239, "bike_id": "81a09032a363bfb3559b1d254b9ede4e", "fusion_lon": 0.0}, {"rental_uris": {"ios": "https://dc.lft.to/lastmile_qr_scan", "android": "https://dc.lft.to/lastmile_qr_scan"}, "type": "electric_scooter", "name": "02b12fc4bf1b5aa02e480592e21a299b", "is_reserved": 0, "lon": -77.0176805, "is_disabled": 0, "fusion_lat": 0.0, "lat": 38.883023, "bike_id": "02b12fc4bf1b5aa02e480592e21a299b", "fusion_lon": 0.0}, {"rental_uris": {"ios": "https://dc.lft.to/lastmile_qr_scan", "android": "https://dc.lft.to/lastmile_qr_scan"}, "type": "electric_scooter", "name": "db4d4ee8766b1040d58c32d4c22193db", "is_reserved": 0, "lon": -77.05940033333333, "is_disabled": 0, "fusion_lat": 0.0, "lat": 38.94314383333333, "bike_id": "db4d4ee8766b1040d58c32d4c22193db", "fusion_lon": 0.0}, {"rental_uris": {"ios": "https://dc.lft.to/lastmile_qr_scan", "android": "https://dc.lft.to/lastmile_qr_scan"}, "type": "electric_scooter", "name": "6fd4314247153fe4b8770750e358c536", "is_reserved": 0, "lon": -77.00708766666666, "is_disabled": 0, "fusion_lat": 0.0, "lat": 38.884894, "bike_id": "6fd4314247153fe4b8770750e358c536", "fusion_lon": 0.0}, {"rental_uris": {"ios": "https://dc.lft.to/lastmile_qr_scan", "android": "https://dc.lft.to/lastmile_qr_scan"}, "type": "electric_scooter", "name": "5da714759af56f7416fa9461ad279ee1", "is_reserved": 0, "lon": -77.03876516666666, "is_disabled": 0, "fusion_lat": 0.0, "lat": 38.9336665, "bike_id": "5da714759af56f7416fa9461ad279ee1", "fusion_lon": 0.0}, {"rental_uris": {"ios": "https://dc.lft.to/lastmile_qr_scan", "android": "https://dc.lft.to/lastmile_qr_scan"}, "type": "electric_scooter", "name": "981d5d9e1cd0367a1cc72a7b09d316c1", "is_reserved": 0, "lon": -77.01082466666666, "is_disabled": 0, "fusion_lat": 0.0, "lat": 38.90326133333333, "bike_id": "981d5d9e1cd0367a1cc72a7b09d316c1", "fusion_lon": 0.0}, {"rental_uris": {"ios": "https://dc.lft.to/lastmile_qr_scan", "android": "https://dc.lft.to/lastmile_qr_scan"}, "type": "electric_scooter", "name": "66fad6de29eb51ccfa4cb72c4e485458", "is_reserved": 0, "lon": -77.035401, "is_disabled": 0, "fusion_lat": 0.0, "lat": 38.90452883333333, "bike_id": "66fad6de29eb51ccfa4cb72c4e485458", "fusion_lon": 0.0}, {"rental_uris": {"ios": "https://dc.lft.to/lastmile_qr_scan", "android": "https://dc.lft.to/lastmile_qr_scan"}, "type": "electric_scooter", "name": "78b8dbde2ccd7f94db5865f34aceb377", "is_reserved": 0, "lon": -77.05596166666666, "is_disabled": 0, "fusion_lat": 0.0, "lat": 38.9370205, "bike_id": "78b8dbde2ccd7f94db5865f34aceb377", "fusion_lon": 0.0}, {"rental_uris": {"ios": "https://dc.lft.to/lastmile_qr_scan", "android": "https://dc.lft.to/lastmile_qr_scan"}, "type": "electric_scooter", "name": "04d219e1f405b4e9ee96df109c75d1df", "is_reserved": 0, "lon": -77.04501466666666, "is_disabled": 0, "fusion_lat": 0.0, "lat": 38.892582166666664, "bike_id": "04d219e1f405b4e9ee96df109c75d1df", "fusion_lon": 0.0}, {"rental_uris": {"ios": "https://dc.lft.to/lastmile_qr_scan", "android": "https://dc.lft.to/lastmile_qr_scan"}, "type": "electric_scooter", "name": "aab978f3fceb3f309d2560696607035e", "is_reserved": 0, "lon": -77.00758866666666, "is_disabled": 0, "fusion_lat": 0.0, "lat": 38.926702, "bike_id": "aab978f3fceb3f309d2560696607035e", "fusion_lon": 0.0}, {"rental_uris": {"ios": "https://dc.lft.to/lastmile_qr_scan", "android": "https://dc.lft.to/lastmile_qr_scan"}, "type": "electric_scooter", "name": "1e8d312a6e2edd55e7e3d8e7729e9267", "is_reserved": 0, "lon": -77.0366335, "is_disabled": 0, "fusion_lat": 0.0, "lat": 38.91756483333333, "bike_id": "1e8d312a6e2edd55e7e3d8e7729e9267", "fusion_lon": 0.0}, {"rental_uris": {"ios": "https://dc.lft.to/lastmile_qr_scan", "android": "https://dc.lft.to/lastmile_qr_scan"}, "type": "electric_bike", "name": "d351599417729213d38ef3b9c49b2cd7", "is_reserved": 0, "lon": -76.99797483333333, "is_disabled": 0, "fusion_lat": 0.0, "lat": 38.8812205, "bike_id": "d351599417729213d38ef3b9c49b2cd7", "fusion_lon": 0.0}, {"rental_uris": {"ios": "https://dc.lft.to/lastmile_qr_scan", "android": "https://dc.lft.to/lastmile_qr_scan"}, "type": "electric_scooter", "name": "a5ef6533bed4396fabe35fd27c5dfe50", "is_reserved": 0, "lon": -77.00458516666667, "is_disabled": 0, "fusion_lat": 0.0, "lat": 38.92072983333333, "bike_id": "a5ef6533bed4396fabe35fd27c5dfe50", "fusion_lon": 0.0}, {"rental_uris": {"ios": "https://dc.lft.to/lastmile_qr_scan", "android": "https://dc.lft.to/lastmile_qr_scan"}, "type": "electric_scooter", "name": "711df5687a788633142ba9922f1a2e0e", "is_reserved": 0, "lon": -77.0440535, "is_disabled": 0, "fusion_lat": 0.0, "lat": 38.9295265, "bike_id": "711df5687a788633142ba9922f1a2e0e", "fusion_lon": 0.0}, {"rental_uris": {"ios": "https://dc.lft.to/lastmile_qr_scan", "android": "https://dc.lft.to/lastmile_qr_scan"}, "type": "electric_scooter", "name": "a039a6b4cc44585ce401048bc3d5545d", "is_reserved": 0, "lon": -77.05317133333334, "is_disabled": 0, "fusion_lat": 0.0, "lat": 38.9026, "bike_id": "a039a6b4cc44585ce401048bc3d5545d", "fusion_lon": 0.0}, {"rental_uris": {"ios": "https://dc.lft.to/lastmile_qr_scan", "android": "https://dc.lft.to/lastmile_qr_scan"}, "type": "electric_scooter", "name": "d9cc2e8ea0bb25ce03f5d5c24a68a605", "is_reserved": 0, "lon": -77.03661916666667, "is_disabled": 0, "fusion_lat": 0.0, "lat": 38.92285616666667, "bike_id": "d9cc2e8ea0bb25ce03f5d5c24a68a605", "fusion_lon": 0.0}, {"rental_uris": {"ios": "https://dc.lft.to/lastmile_qr_scan", "android": "https://dc.lft.to/lastmile_qr_scan"}, "type": "electric_scooter", "name": "c56b6dce56a59dc6a9d4a5c5f49b584c", "is_reserved": 0, "lon": -77.024137, "is_disabled": 0, "fusion_lat": 0.0, "lat": 38.9095655, "bike_id": "c56b6dce56a59dc6a9d4a5c5f49b584c", "fusion_lon": 0.0}, {"rental_uris": {"ios": "https://dc.lft.to/lastmile_qr_scan", "android": "https://dc.lft.to/lastmile_qr_scan"}, "type": "electric_scooter", "name": "8eb568244fea339f251f71840b17c7b3", "is_reserved": 0, "lon": -76.9656855, "is_disabled": 0, "fusion_lat": 0.0, "lat": 38.87607966666667, "bike_id": "8eb568244fea339f251f71840b17c7b3", "fusion_lon": 0.0}, {"rental_uris": {"ios": "https://dc.lft.to/lastmile_qr_scan", "android": "https://dc.lft.to/lastmile_qr_scan"}, "type": "electric_scooter", "name": "e4868b5888c33606e00ebd4f3a2387cf", "is_reserved": 0, "lon": -76.94388266666667, "is_disabled": 0, "fusion_lat": 0.0, "lat": 38.89110866666667, "bike_id": "e4868b5888c33606e00ebd4f3a2387cf", "fusion_lon": 0.0}, {"rental_uris": {"ios": "https://dc.lft.to/lastmile_qr_scan", "android": "https://dc.lft.to/lastmile_qr_scan"}, "type": "electric_scooter", "name": "4a06c89511069f81d64477a07e759cd4", "is_reserved": 0, "lon": -77.070944, "is_disabled": 0, "fusion_lat": 0.0, "lat": 38.897115, "bike_id": "4a06c89511069f81d64477a07e759cd4", "fusion_lon": 0.0}, {"rental_uris": {"ios": "https://dc.lft.to/lastmile_qr_scan", "android": "https://dc.lft.to/lastmile_qr_scan"}, "type": "electric_scooter", "name": "18ad9f06872288a7c60b5e48c3d9e907", "is_reserved": 0, "lon": -77.03819916666667, "is_disabled": 0, "fusion_lat": 0.0, "lat": 38.915583833333336, "bike_id": "18ad9f06872288a7c60b5e48c3d9e907", "fusion_lon": 0.0}, {"rental_uris": {"ios": "https://dc.lft.to/lastmile_qr_scan", "android": "https://dc.lft.to/lastmile_qr_scan"}, "type": "electric_bike", "name": "e3c8cb1c0970b6d070ae147613c8e708", "is_reserved": 0, "lon": -77.07014, "is_disabled": 0, "fusion_lat": 0.0, "lat": 38.8410665, "bike_id": "e3c8cb1c0970b6d070ae147613c8e708", "fusion_lon": 0.0}, {"rental_uris": {"ios": "https://dc.lft.to/lastmile_qr_scan", "android": "https://dc.lft.to/lastmile_qr_scan"}, "type": "electric_scooter", "name": "f3659db6cc64a027f0efb84c2d6c8ba6", "is_reserved": 0, "lon": -77.0074955, "is_disabled": 0, "fusion_lat": 0.0, "lat": 38.9110735, "bike_id": "f3659db6cc64a027f0efb84c2d6c8ba6", "fusion_lon": 0.0}, {"rental_uris": {"ios": "https://dc.lft.to/lastmile_qr_scan", "android": "https://dc.lft.to/lastmile_qr_scan"}, "type": "electric_scooter", "name": "a4f37f8f1adebe032b4f34cba2b94194", "is_reserved": 0, "lon": -77.0422105, "is_disabled": 0, "fusion_lat": 0.0, "lat": 38.91114666666667, "bike_id": "a4f37f8f1adebe032b4f34cba2b94194", "fusion_lon": 0.0}, {"rental_uris": {"ios": "https://dc.lft.to/lastmile_qr_scan", "android": "https://dc.lft.to/lastmile_qr_scan"}, "type": "electric_scooter", "name": "a5652183cafdc00910200cf317a83608", "is_reserved": 0, "lon": -77.03432033333333, "is_disabled": 0, "fusion_lat": 0.0, "lat": 38.90553966666667, "bike_id": "a5652183cafdc00910200cf317a83608", "fusion_lon": 0.0}, {"rental_uris": {"ios": "https://dc.lft.to/lastmile_qr_scan", "android": "https://dc.lft.to/lastmile_qr_scan"}, "type": "electric_scooter", "name": "e371157111950684ad68eedd2dd2c713", "is_reserved": 0, "lon": -77.0388595, "is_disabled": 0, "fusion_lat": 0.0, "lat": 38.903448833333336, "bike_id": "e371157111950684ad68eedd2dd2c713", "fusion_lon": 0.0}, {"rental_uris": {"ios": "https://dc.lft.to/lastmile_qr_scan", "android": "https://dc.lft.to/lastmile_qr_scan"}, "type": "electric_scooter", "name": "68f962a41f9ac5a06f00c76685c14511", "is_reserved": 0, "lon": -77.02572083333334, "is_disabled": 0, "fusion_lat": 0.0, "lat": 38.884086333333336, "bike_id": "68f962a41f9ac5a06f00c76685c14511", "fusion_lon": 0.0}, {"rental_uris": {"ios": "https://dc.lft.to/lastmile_qr_scan", "android": "https://dc.lft.to/lastmile_qr_scan"}, "type": "electric_scooter", "name": "3d487673b7cb7aea387a9042ce34232c", "is_reserved": 0, "lon": -77.04016516666667, "is_disabled": 0, "fusion_lat": 0.0, "lat": 38.92164616666667, "bike_id": "3d487673b7cb7aea387a9042ce34232c", "fusion_lon": 0.0}, {"rental_uris": {"ios": "https://dc.lft.to/lastmile_qr_scan", "android": "https://dc.lft.to/lastmile_qr_scan"}, "type": "electric_scooter", "name": "55c84968633098b1b4bfd4affa142fe8", "is_reserved": 0, "lon": -77.043627, "is_disabled": 0, "fusion_lat": 0.0, "lat": 38.8973145, "bike_id": "55c84968633098b1b4bfd4affa142fe8", "fusion_lon": 0.0}, {"rental_uris": {"ios": "https://dc.lft.to/lastmile_qr_scan", "android": "https://dc.lft.to/lastmile_qr_scan"}, "type": "electric_scooter", "name": "9c48c8225521b4d00c16624243202a01", "is_reserved": 0, "lon": -77.03409433333333, "is_disabled": 0, "fusion_lat": 0.0, "lat": 38.9240595, "bike_id": "9c48c8225521b4d00c16624243202a01", "fusion_lon": 0.0}, {"rental_uris": {"ios": "https://dc.lft.to/lastmile_qr_scan", "android": "https://dc.lft.to/lastmile_qr_scan"}, "type": "electric_bike", "name": "82183bbb6efdb906f9e5a3e80cd532ee", "is_reserved": 0, "lon": -76.98012783333333, "is_disabled": 0, "fusion_lat": 0.0, "lat": 38.853162, "bike_id": "82183bbb6efdb906f9e5a3e80cd532ee", "fusion_lon": 0.0}, {"rental_uris": {"ios": "https://dc.lft.to/lastmile_qr_scan", "android": "https://dc.lft.to/lastmile_qr_scan"}, "type": "electric_scooter", "name": "eadfe5f2b32a2d369fed37754ad6bd2e", "is_reserved": 0, "lon": -77.0244975, "is_disabled": 0, "fusion_lat": 0.0, "lat": 38.920505666666664, "bike_id": "eadfe5f2b32a2d369fed37754ad6bd2e", "fusion_lon": 0.0}, {"rental_uris": {"ios": "https://dc.lft.to/lastmile_qr_scan", "android": "https://dc.lft.to/lastmile_qr_scan"}, "type": "electric_scooter", "name": "be4382d111a6a196ed26720259fe0870", "is_reserved": 0, "lon": -77.040842, "is_disabled": 0, "fusion_lat": 0.0, "lat": 38.9478425, "bike_id": "be4382d111a6a196ed26720259fe0870", "fusion_lon": 0.0}, {"rental_uris": {"ios": "https://dc.lft.to/lastmile_qr_scan", "android": "https://dc.lft.to/lastmile_qr_scan"}, "type": "electric_scooter", "name": "82920cd5cb13d24975c3963134d499ab", "is_reserved": 0, "lon": -77.02483833333334, "is_disabled": 0, "fusion_lat": 0.0, "lat": 38.935120166666664, "bike_id": "82920cd5cb13d24975c3963134d499ab", "fusion_lon": 0.0}, {"rental_uris": {"ios": "https://dc.lft.to/lastmile_qr_scan", "android": "https://dc.lft.to/lastmile_qr_scan"}, "type": "electric_scooter", "name": "5f3687e0da65167d8370c5aa574d2cff", "is_reserved": 0, "lon": -77.02965433333334, "is_disabled": 0, "fusion_lat": 0.0, "lat": 38.90542716666667, "bike_id": "5f3687e0da65167d8370c5aa574d2cff", "fusion_lon": 0.0}, {"rental_uris": {"ios": "https://dc.lft.to/lastmile_qr_scan", "android": "https://dc.lft.to/lastmile_qr_scan"}, "type": "electric_scooter", "name": "6a02ab0e0f97ebe6c743d29acd334cec", "is_reserved": 0, "lon": -77.03888566666667, "is_disabled": 0, "fusion_lat": 0.0, "lat": 38.90359, "bike_id": "6a02ab0e0f97ebe6c743d29acd334cec", "fusion_lon": 0.0}, {"rental_uris": {"ios": "https://dc.lft.to/lastmile_qr_scan", "android": "https://dc.lft.to/lastmile_qr_scan"}, "type": "electric_scooter", "name": "f2419db3bf9e82dde7a6a7ace6cee005", "is_reserved": 0, "lon": -77.00917866666667, "is_disabled": 0, "fusion_lat": 0.0, "lat": 38.923374333333335, "bike_id": "f2419db3bf9e82dde7a6a7ace6cee005", "fusion_lon": 0.0}, {"rental_uris": {"ios": "https://dc.lft.to/lastmile_qr_scan", "android": "https://dc.lft.to/lastmile_qr_scan"}, "type": "electric_scooter", "name": "d980347e6326d52e8129e089a5b4e145", "is_reserved": 0, "lon": -77.028841, "is_disabled": 0, "fusion_lat": 0.0, "lat": 38.90437583333333, "bike_id": "d980347e6326d52e8129e089a5b4e145", "fusion_lon": 0.0}, {"rental_uris": {"ios": "https://dc.lft.to/lastmile_qr_scan", "android": "https://dc.lft.to/lastmile_qr_scan"}, "type": "electric_scooter", "name": "f645c8e02caaed6798913be68f2eba89", "is_reserved": 0, "lon": -77.05320916666666, "is_disabled": 0, "fusion_lat": 0.0, "lat": 38.90639383333333, "bike_id": "f645c8e02caaed6798913be68f2eba89", "fusion_lon": 0.0}, {"rental_uris": {"ios": "https://dc.lft.to/lastmile_qr_scan", "android": "https://dc.lft.to/lastmile_qr_scan"}, "type": "electric_scooter", "name": "45de06d9ace077c334469092dfbf95a1", "is_reserved": 0, "lon": -77.00599866666667, "is_disabled": 0, "fusion_lat": 0.0, "lat": 38.905566666666665, "bike_id": "45de06d9ace077c334469092dfbf95a1", "fusion_lon": 0.0}, {"rental_uris": {"ios": "https://dc.lft.to/lastmile_qr_scan", "android": "https://dc.lft.to/lastmile_qr_scan"}, "type": "electric_scooter", "name": "7ff595571af399c21fb054fcb41a80b4", "is_reserved": 0, "lon": -77.0500315, "is_disabled": 0, "fusion_lat": 0.0, "lat": 38.90068183333333, "bike_id": "7ff595571af399c21fb054fcb41a80b4", "fusion_lon": 0.0}, {"rental_uris": {"ios": "https://dc.lft.to/lastmile_qr_scan", "android": "https://dc.lft.to/lastmile_qr_scan"}, "type": "electric_scooter", "name": "37f6b37a3d2c3c08b625a098a5d66bd5", "is_reserved": 0, "lon": -77.03384766666667, "is_disabled": 0, "fusion_lat": 0.0, "lat": 38.902581166666664, "bike_id": "37f6b37a3d2c3c08b625a098a5d66bd5", "fusion_lon": 0.0}, {"rental_uris": {"ios": "https://dc.lft.to/lastmile_qr_scan", "android": "https://dc.lft.to/lastmile_qr_scan"}, "type": "electric_scooter", "name": "e5ac43fbebb2fd60b6b1ec324c36eb5a", "is_reserved": 0, "lon": -77.025034, "is_disabled": 0, "fusion_lat": 0.0, "lat": 38.94206166666667, "bike_id": "e5ac43fbebb2fd60b6b1ec324c36eb5a", "fusion_lon": 0.0}, {"rental_uris": {"ios": "https://dc.lft.to/lastmile_qr_scan", "android": "https://dc.lft.to/lastmile_qr_scan"}, "type": "electric_scooter", "name": "6e9bd2ce0c1a56c8f8827a6483bd2875", "is_reserved": 0, "lon": -76.983165, "is_disabled": 0, "fusion_lat": 0.0, "lat": 38.925885, "bike_id": "6e9bd2ce0c1a56c8f8827a6483bd2875", "fusion_lon": 0.0}, {"rental_uris": {"ios": "https://dc.lft.to/lastmile_qr_scan", "android": "https://dc.lft.to/lastmile_qr_scan"}, "type": "electric_bike", "name": "cb84dccffa1af9e37b5cae8a6e5bf22c", "is_reserved": 0, "lon": -77.00728483333333, "is_disabled": 0, "fusion_lat": 0.0, "lat": 38.832411666666665, "bike_id": "cb84dccffa1af9e37b5cae8a6e5bf22c", "fusion_lon": 0.0}, {"rental_uris": {"ios": "https://dc.lft.to/lastmile_qr_scan", "android": "https://dc.lft.to/lastmile_qr_scan"}, "type": "electric_scooter", "name": "58e2973997d8fbc171ca7841fd4e5204", "is_reserved": 0, "lon": -77.02314783333334, "is_disabled": 0, "fusion_lat": 0.0, "lat": 38.91768116666667, "bike_id": "58e2973997d8fbc171ca7841fd4e5204", "fusion_lon": 0.0}, {"rental_uris": {"ios": "https://dc.lft.to/lastmile_qr_scan", "android": "https://dc.lft.to/lastmile_qr_scan"}, "type": "electric_scooter", "name": "85d428e9b92180c40a9211e01add0dc9", "is_reserved": 0, "lon": -77.03660283333333, "is_disabled": 0, "fusion_lat": 0.0, "lat": 38.917225, "bike_id": "85d428e9b92180c40a9211e01add0dc9", "fusion_lon": 0.0}, {"rental_uris": {"ios": "https://dc.lft.to/lastmile_qr_scan", "android": "https://dc.lft.to/lastmile_qr_scan"}, "type": "electric_scooter", "name": "ad36fc2612497d15c2f04dec48562117", "is_reserved": 0, "lon": -77.02614516666667, "is_disabled": 0, "fusion_lat": 0.0, "lat": 38.95185983333333, "bike_id": "ad36fc2612497d15c2f04dec48562117", "fusion_lon": 0.0}, {"rental_uris": {"ios": "https://dc.lft.to/lastmile_qr_scan", "android": "https://dc.lft.to/lastmile_qr_scan"}, "type": "electric_scooter", "name": "3a17efe57cd232d6751ff8167c92cce5", "is_reserved": 0, "lon": -77.02573616666666, "is_disabled": 0, "fusion_lat": 0.0, "lat": 38.887443833333336, "bike_id": "3a17efe57cd232d6751ff8167c92cce5", "fusion_lon": 0.0}, {"rental_uris": {"ios": "https://dc.lft.to/lastmile_qr_scan", "android": "https://dc.lft.to/lastmile_qr_scan"}, "type": "electric_bike", "name": "dee4f654f783e4fba5c3a05c35f10e23", "is_reserved": 0, "lon": -77.00533566666667, "is_disabled": 0, "fusion_lat": 0.0, "lat": 38.879304166666664, "bike_id": "dee4f654f783e4fba5c3a05c35f10e23", "fusion_lon": 0.0}, {"rental_uris": {"ios": "https://dc.lft.to/lastmile_qr_scan", "android": "https://dc.lft.to/lastmile_qr_scan"}, "type": "electric_scooter", "name": "7e71526ce6ca8e0f8b3907fa63e4ae3a", "is_reserved": 0, "lon": -77.0260115, "is_disabled": 0, "fusion_lat": 0.0, "lat": 38.906225166666665, "bike_id": "7e71526ce6ca8e0f8b3907fa63e4ae3a", "fusion_lon": 0.0}, {"rental_uris": {"ios": "https://dc.lft.to/lastmile_qr_scan", "android": "https://dc.lft.to/lastmile_qr_scan"}, "type": "electric_scooter", "name": "6bb2430854cf60ca67aa0bdbe1339bb3", "is_reserved": 0, "lon": -77.03623666666667, "is_disabled": 0, "fusion_lat": 0.0, "lat": 38.94289283333333, "bike_id": "6bb2430854cf60ca67aa0bdbe1339bb3", "fusion_lon": 0.0}, {"rental_uris": {"ios": "https://dc.lft.to/lastmile_qr_scan", "android": "https://dc.lft.to/lastmile_qr_scan"}, "type": "electric_scooter", "name": "14d3e53a93baf34d034ffa47834830a4", "is_reserved": 0, "lon": -76.985223, "is_disabled": 0, "fusion_lat": 0.0, "lat": 38.914524, "bike_id": "14d3e53a93baf34d034ffa47834830a4", "fusion_lon": 0.0}, {"rental_uris": {"ios": "https://dc.lft.to/lastmile_qr_scan", "android": "https://dc.lft.to/lastmile_qr_scan"}, "type": "electric_scooter", "name": "94648ff683e84f0294be4b80b8a4b83e", "is_reserved": 0, "lon": -77.0230115, "is_disabled": 0, "fusion_lat": 0.0, "lat": 38.91778516666667, "bike_id": "94648ff683e84f0294be4b80b8a4b83e", "fusion_lon": 0.0}, {"rental_uris": {"ios": "https://dc.lft.to/lastmile_qr_scan", "android": "https://dc.lft.to/lastmile_qr_scan"}, "type": "electric_bike", "name": "aa297151f11732b48042bc295113bb51", "is_reserved": 0, "lon": -76.99370433333333, "is_disabled": 0, "fusion_lat": 0.0, "lat": 38.92728266666667, "bike_id": "aa297151f11732b48042bc295113bb51", "fusion_lon": 0.0}, {"rental_uris": {"ios": "https://dc.lft.to/lastmile_qr_scan", "android": "https://dc.lft.to/lastmile_qr_scan"}, "type": "electric_scooter", "name": "70ac0fd299cf980e42b6e1a888dff255", "is_reserved": 0, "lon": -77.008547, "is_disabled": 0, "fusion_lat": 0.0, "lat": 38.878175166666665, "bike_id": "70ac0fd299cf980e42b6e1a888dff255", "fusion_lon": 0.0}, {"rental_uris": {"ios": "https://dc.lft.to/lastmile_qr_scan", "android": "https://dc.lft.to/lastmile_qr_scan"}, "type": "electric_scooter", "name": "8d59a19f0b82278fd5d80319aafd4bd8", "is_reserved": 0, "lon": -77.021087, "is_disabled": 0, "fusion_lat": 0.0, "lat": 38.966691833333336, "bike_id": "8d59a19f0b82278fd5d80319aafd4bd8", "fusion_lon": 0.0}, {"rental_uris": {"ios": "https://dc.lft.to/lastmile_qr_scan", "android": "https://dc.lft.to/lastmile_qr_scan"}, "type": "electric_scooter", "name": "3cdadde2d27ace43b8e122abe2823aca", "is_reserved": 0, "lon": -76.990256, "is_disabled": 0, "fusion_lat": 0.0, "lat": 38.8888335, "bike_id": "3cdadde2d27ace43b8e122abe2823aca", "fusion_lon": 0.0}, {"rental_uris": {"ios": "https://dc.lft.to/lastmile_qr_scan", "android": "https://dc.lft.to/lastmile_qr_scan"}, "type": "electric_bike", "name": "9849046462be20ee73489aac2f653b5b", "is_reserved": 0, "lon": -77.01921633333333, "is_disabled": 0, "fusion_lat": 0.0, "lat": 38.97666616666667, "bike_id": "9849046462be20ee73489aac2f653b5b", "fusion_lon": 0.0}, {"rental_uris": {"ios": "https://dc.lft.to/lastmile_qr_scan", "android": "https://dc.lft.to/lastmile_qr_scan"}, "type": "electric_bike", "name": "e5dd94b3e16ff1cd0a91bf83980e8cf5", "is_reserved": 0, "lon": -77.0207375, "is_disabled": 0, "fusion_lat": 0.0, "lat": 38.96438883333333, "bike_id": "e5dd94b3e16ff1cd0a91bf83980e8cf5", "fusion_lon": 0.0}, {"rental_uris": {"ios": "https://dc.lft.to/lastmile_qr_scan", "android": "https://dc.lft.to/lastmile_qr_scan"}, "type": "electric_scooter", "name": "706431bdb5887df8279a0fb99cfb3535", "is_reserved": 0, "lon": -77.00747766666667, "is_disabled": 0, "fusion_lat": 0.0, "lat": 38.91113416666666, "bike_id": "706431bdb5887df8279a0fb99cfb3535", "fusion_lon": 0.0}, {"rental_uris": {"ios": "https://dc.lft.to/lastmile_qr_scan", "android": "https://dc.lft.to/lastmile_qr_scan"}, "type": "electric_scooter", "name": "2fc42234f6b88a66c4d5f49dc78ec972", "is_reserved": 0, "lon": -76.98856583333334, "is_disabled": 0, "fusion_lat": 0.0, "lat": 38.907014, "bike_id": "2fc42234f6b88a66c4d5f49dc78ec972", "fusion_lon": 0.0}, {"rental_uris": {"ios": "https://dc.lft.to/lastmile_qr_scan", "android": "https://dc.lft.to/lastmile_qr_scan"}, "type": "electric_scooter", "name": "3c50ec5710e8d3783a5f83b2730916ef", "is_reserved": 0, "lon": -77.0238255, "is_disabled": 0, "fusion_lat": 0.0, "lat": 38.9170425, "bike_id": "3c50ec5710e8d3783a5f83b2730916ef", "fusion_lon": 0.0}, {"rental_uris": {"ios": "https://dc.lft.to/lastmile_qr_scan", "android": "https://dc.lft.to/lastmile_qr_scan"}, "type": "electric_bike", "name": "469dfb5ba1db917cb8984db5fedfa44e", "is_reserved": 0, "lon": -76.9796865, "is_disabled": 0, "fusion_lat": 0.0, "lat": 38.92046116666667, "bike_id": "469dfb5ba1db917cb8984db5fedfa44e", "fusion_lon": 0.0}, {"rental_uris": {"ios": "https://dc.lft.to/lastmile_qr_scan", "android": "https://dc.lft.to/lastmile_qr_scan"}, "type": "electric_bike", "name": "de659bb1fa1e940a927723a08f69ad3c", "is_reserved": 0, "lon": -76.99548566666667, "is_disabled": 0, "fusion_lat": 0.0, "lat": 38.90820733333334, "bike_id": "de659bb1fa1e940a927723a08f69ad3c", "fusion_lon": 0.0}, {"rental_uris": {"ios": "https://dc.lft.to/lastmile_qr_scan", "android": "https://dc.lft.to/lastmile_qr_scan"}, "type": "electric_scooter", "name": "792c7305215a7513316e679c4e8df47c", "is_reserved": 0, "lon": -77.018557, "is_disabled": 0, "fusion_lat": 0.0, "lat": 38.90069366666667, "bike_id": "792c7305215a7513316e679c4e8df47c", "fusion_lon": 0.0}, {"rental_uris": {"ios": "https://dc.lft.to/lastmile_qr_scan", "android": "https://dc.lft.to/lastmile_qr_scan"}, "type": "electric_bike", "name": "34d520665aae9611f1f73c5b1f6593eb", "is_reserved": 0, "lon": -76.99281116666667, "is_disabled": 0, "fusion_lat": 0.0, "lat": 38.972616, "bike_id": "34d520665aae9611f1f73c5b1f6593eb", "fusion_lon": 0.0}, {"rental_uris": {"ios": "https://dc.lft.to/lastmile_qr_scan", "android": "https://dc.lft.to/lastmile_qr_scan"}, "type": "electric_scooter", "name": "eadfe93f11565a8e0c5e9d249cd474d0", "is_reserved": 0, "lon": -77.02981866666667, "is_disabled": 0, "fusion_lat": 0.0, "lat": 38.923753833333336, "bike_id": "eadfe93f11565a8e0c5e9d249cd474d0", "fusion_lon": 0.0}, {"rental_uris": {"ios": "https://dc.lft.to/lastmile_qr_scan", "android": "https://dc.lft.to/lastmile_qr_scan"}, "type": "electric_scooter", "name": "4e8468a47dedf04e60604199c29d870c", "is_reserved": 0, "lon": -77.03826066666667, "is_disabled": 0, "fusion_lat": 0.0, "lat": 38.912665, "bike_id": "4e8468a47dedf04e60604199c29d870c", "fusion_lon": 0.0}, {"rental_uris": {"ios": "https://dc.lft.to/lastmile_qr_scan", "android": "https://dc.lft.to/lastmile_qr_scan"}, "type": "electric_scooter", "name": "e52a442a3b4f9137025af50c769a2420", "is_reserved": 0, "lon": -77.01552783333334, "is_disabled": 0, "fusion_lat": 0.0, "lat": 38.902559833333335, "bike_id": "e52a442a3b4f9137025af50c769a2420", "fusion_lon": 0.0}, {"rental_uris": {"ios": "https://dc.lft.to/lastmile_qr_scan", "android": "https://dc.lft.to/lastmile_qr_scan"}, "type": "electric_bike", "name": "b815f459f397e908524f5734c1fd3576", "is_reserved": 0, "lon": -76.99696683333333, "is_disabled": 0, "fusion_lat": 0.0, "lat": 38.838605, "bike_id": "b815f459f397e908524f5734c1fd3576", "fusion_lon": 0.0}, {"rental_uris": {"ios": "https://dc.lft.to/lastmile_qr_scan", "android": "https://dc.lft.to/lastmile_qr_scan"}, "type": "electric_scooter", "name": "d4cbc9293aedc0f1c73ab1817b10bd28", "is_reserved": 0, "lon": -77.0483645, "is_disabled": 0, "fusion_lat": 0.0, "lat": 38.89834966666667, "bike_id": "d4cbc9293aedc0f1c73ab1817b10bd28", "fusion_lon": 0.0}, {"rental_uris": {"ios": "https://dc.lft.to/lastmile_qr_scan", "android": "https://dc.lft.to/lastmile_qr_scan"}, "type": "electric_scooter", "name": "4ecc43106b5a107174ec11a5617516d6", "is_reserved": 0, "lon": -77.02619883333334, "is_disabled": 0, "fusion_lat": 0.0, "lat": 38.8961985, "bike_id": "4ecc43106b5a107174ec11a5617516d6", "fusion_lon": 0.0}, {"rental_uris": {"ios": "https://dc.lft.to/lastmile_qr_scan", "android": "https://dc.lft.to/lastmile_qr_scan"}, "type": "electric_scooter", "name": "743bcdbaa1927f851d302ce7be14b3cd", "is_reserved": 0, "lon": -77.042308, "is_disabled": 0, "fusion_lat": 0.0, "lat": 38.92171033333333, "bike_id": "743bcdbaa1927f851d302ce7be14b3cd", "fusion_lon": 0.0}, {"rental_uris": {"ios": "https://dc.lft.to/lastmile_qr_scan", "android": "https://dc.lft.to/lastmile_qr_scan"}, "type": "electric_scooter", "name": "f20fb8836c5933c74657a52775bda640", "is_reserved": 0, "lon": -77.045293, "is_disabled": 0, "fusion_lat": 0.0, "lat": 38.89945566666667, "bike_id": "f20fb8836c5933c74657a52775bda640", "fusion_lon": 0.0}, {"rental_uris": {"ios": "https://dc.lft.to/lastmile_qr_scan", "android": "https://dc.lft.to/lastmile_qr_scan"}, "type": "electric_scooter", "name": "bc3187b938d7729c4d892007cfa020e7", "is_reserved": 0, "lon": -77.0059655, "is_disabled": 0, "fusion_lat": 0.0, "lat": 38.8753715, "bike_id": "bc3187b938d7729c4d892007cfa020e7", "fusion_lon": 0.0}, {"rental_uris": {"ios": "https://dc.lft.to/lastmile_qr_scan", "android": "https://dc.lft.to/lastmile_qr_scan"}, "type": "electric_scooter", "name": "177fa180a3aedd480805eed1ad33032a", "is_reserved": 0, "lon": -77.04218883333333, "is_disabled": 0, "fusion_lat": 0.0, "lat": 38.91113083333333, "bike_id": "177fa180a3aedd480805eed1ad33032a", "fusion_lon": 0.0}, {"rental_uris": {"ios": "https://dc.lft.to/lastmile_qr_scan", "android": "https://dc.lft.to/lastmile_qr_scan"}, "type": "electric_scooter", "name": "b1492fc670dfd81026cfba9cddd5a796", "is_reserved": 0, "lon": -76.9952955, "is_disabled": 0, "fusion_lat": 0.0, "lat": 38.862679666666665, "bike_id": "b1492fc670dfd81026cfba9cddd5a796", "fusion_lon": 0.0}, {"rental_uris": {"ios": "https://dc.lft.to/lastmile_qr_scan", "android": "https://dc.lft.to/lastmile_qr_scan"}, "type": "electric_scooter", "name": "f9c4c296d59a347b53205b9f2bd7232c", "is_reserved": 0, "lon": -77.03478283333334, "is_disabled": 0, "fusion_lat": 0.0, "lat": 38.9072575, "bike_id": "f9c4c296d59a347b53205b9f2bd7232c", "fusion_lon": 0.0}, {"rental_uris": {"ios": "https://dc.lft.to/lastmile_qr_scan", "android": "https://dc.lft.to/lastmile_qr_scan"}, "type": "electric_scooter", "name": "8f0270e7853dd2a1c8869e5fab1d8f2b", "is_reserved": 0, "lon": -76.98518816666666, "is_disabled": 0, "fusion_lat": 0.0, "lat": 38.860052833333334, "bike_id": "8f0270e7853dd2a1c8869e5fab1d8f2b", "fusion_lon": 0.0}, {"rental_uris": {"ios": "https://dc.lft.to/lastmile_qr_scan", "android": "https://dc.lft.to/lastmile_qr_scan"}, "type": "electric_scooter", "name": "cb262a0846cd7f58c3c10b1d4e67f172", "is_reserved": 0, "lon": -77.0274525, "is_disabled": 0, "fusion_lat": 0.0, "lat": 38.966079, "bike_id": "cb262a0846cd7f58c3c10b1d4e67f172", "fusion_lon": 0.0}, {"rental_uris": {"ios": "https://dc.lft.to/lastmile_qr_scan", "android": "https://dc.lft.to/lastmile_qr_scan"}, "type": "electric_scooter", "name": "b7f4b5bf40771d548bfea28a1164d4a5", "is_reserved": 0, "lon": -77.07520566666666, "is_disabled": 0, "fusion_lat": 0.0, "lat": 38.939495, "bike_id": "b7f4b5bf40771d548bfea28a1164d4a5", "fusion_lon": 0.0}, {"rental_uris": {"ios": "https://dc.lft.to/lastmile_qr_scan", "android": "https://dc.lft.to/lastmile_qr_scan"}, "type": "electric_scooter", "name": "89f6595a67a62f2be114dd69833cb262", "is_reserved": 0, "lon": -77.02799416666667, "is_disabled": 0, "fusion_lat": 0.0, "lat": 38.9231815, "bike_id": "89f6595a67a62f2be114dd69833cb262", "fusion_lon": 0.0}, {"rental_uris": {"ios": "https://dc.lft.to/lastmile_qr_scan", "android": "https://dc.lft.to/lastmile_qr_scan"}, "type": "electric_scooter", "name": "cccc84027cf0e5ab08c58ed45d44752f", "is_reserved": 0, "lon": -77.036198, "is_disabled": 0, "fusion_lat": 0.0, "lat": 38.92847233333333, "bike_id": "cccc84027cf0e5ab08c58ed45d44752f", "fusion_lon": 0.0}, {"rental_uris": {"ios": "https://dc.lft.to/lastmile_qr_scan", "android": "https://dc.lft.to/lastmile_qr_scan"}, "type": "electric_scooter", "name": "1d6f6857558aa77908c7673d6e09c254", "is_reserved": 0, "lon": -77.03662283333334, "is_disabled": 0, "fusion_lat": 0.0, "lat": 38.9394705, "bike_id": "1d6f6857558aa77908c7673d6e09c254", "fusion_lon": 0.0}, {"rental_uris": {"ios": "https://dc.lft.to/lastmile_qr_scan", "android": "https://dc.lft.to/lastmile_qr_scan"}, "type": "electric_scooter", "name": "81b6d9c99c3fcdd43408ef7b7cba7e7f", "is_reserved": 0, "lon": -77.010552, "is_disabled": 0, "fusion_lat": 0.0, "lat": 38.9163745, "bike_id": "81b6d9c99c3fcdd43408ef7b7cba7e7f", "fusion_lon": 0.0}, {"rental_uris": {"ios": "https://dc.lft.to/lastmile_qr_scan", "android": "https://dc.lft.to/lastmile_qr_scan"}, "type": "electric_scooter", "name": "ea94342345df8cc2e71d77d2308ce10a", "is_reserved": 0, "lon": -77.04693883333333, "is_disabled": 0, "fusion_lat": 0.0, "lat": 38.9028625, "bike_id": "ea94342345df8cc2e71d77d2308ce10a", "fusion_lon": 0.0}, {"rental_uris": {"ios": "https://dc.lft.to/lastmile_qr_scan", "android": "https://dc.lft.to/lastmile_qr_scan"}, "type": "electric_scooter", "name": "8bd3baccb207a6e8f30e498abdf18868", "is_reserved": 0, "lon": -77.00615633333334, "is_disabled": 0, "fusion_lat": 0.0, "lat": 38.905470666666666, "bike_id": "8bd3baccb207a6e8f30e498abdf18868", "fusion_lon": 0.0}, {"rental_uris": {"ios": "https://dc.lft.to/lastmile_qr_scan", "android": "https://dc.lft.to/lastmile_qr_scan"}, "type": "electric_scooter", "name": "71b59327d6b0be76ed93cbaa94c5a9f6", "is_reserved": 0, "lon": -77.03714316666667, "is_disabled": 0, "fusion_lat": 0.0, "lat": 38.92649016666667, "bike_id": "71b59327d6b0be76ed93cbaa94c5a9f6", "fusion_lon": 0.0}, {"rental_uris": {"ios": "https://dc.lft.to/lastmile_qr_scan", "android": "https://dc.lft.to/lastmile_qr_scan"}, "type": "electric_bike", "name": "32802a3e19919653f7b5bdd8792bf0f9", "is_reserved": 0, "lon": -77.01231466666667, "is_disabled": 0, "fusion_lat": 0.0, "lat": 38.950882666666665, "bike_id": "32802a3e19919653f7b5bdd8792bf0f9", "fusion_lon": 0.0}, {"rental_uris": {"ios": "https://dc.lft.to/lastmile_qr_scan", "android": "https://dc.lft.to/lastmile_qr_scan"}, "type": "electric_bike", "name": "6088f0f6b0bae54e3f01fb2184aea4b8", "is_reserved": 0, "lon": -77.12732766666667, "is_disabled": 0, "fusion_lat": 0.0, "lat": 38.8956125, "bike_id": "6088f0f6b0bae54e3f01fb2184aea4b8", "fusion_lon": 0.0}, {"rental_uris": {"ios": "https://dc.lft.to/lastmile_qr_scan", "android": "https://dc.lft.to/lastmile_qr_scan"}, "type": "electric_scooter", "name": "722ea7add1ed6a7ad9b9cbfbb0cedc87", "is_reserved": 0, "lon": -77.04335416666666, "is_disabled": 0, "fusion_lat": 0.0, "lat": 38.907172, "bike_id": "722ea7add1ed6a7ad9b9cbfbb0cedc87", "fusion_lon": 0.0}, {"rental_uris": {"ios": "https://dc.lft.to/lastmile_qr_scan", "android": "https://dc.lft.to/lastmile_qr_scan"}, "type": "electric_scooter", "name": "32f82a8be6b305f95a73bf5432d74cc0", "is_reserved": 0, "lon": -76.9347465, "is_disabled": 0, "fusion_lat": 0.0, "lat": 38.89500966666667, "bike_id": "32f82a8be6b305f95a73bf5432d74cc0", "fusion_lon": 0.0}, {"rental_uris": {"ios": "https://dc.lft.to/lastmile_qr_scan", "android": "https://dc.lft.to/lastmile_qr_scan"}, "type": "electric_scooter", "name": "8abc69528a119b839ab0af2568c74320", "is_reserved": 0, "lon": -77.03335683333333, "is_disabled": 0, "fusion_lat": 0.0, "lat": 38.896277, "bike_id": "8abc69528a119b839ab0af2568c74320", "fusion_lon": 0.0}, {"rental_uris": {"ios": "https://dc.lft.to/lastmile_qr_scan", "android": "https://dc.lft.to/lastmile_qr_scan"}, "type": "electric_scooter", "name": "c4dd600f00974f04e81c34825f656c80", "is_reserved": 0, "lon": -77.02978133333333, "is_disabled": 0, "fusion_lat": 0.0, "lat": 38.923685166666665, "bike_id": "c4dd600f00974f04e81c34825f656c80", "fusion_lon": 0.0}, {"rental_uris": {"ios": "https://dc.lft.to/lastmile_qr_scan", "android": "https://dc.lft.to/lastmile_qr_scan"}, "type": "electric_scooter", "name": "ed92be357a2f12b16befbaf570466bc2", "is_reserved": 0, "lon": -76.96981983333333, "is_disabled": 0, "fusion_lat": 0.0, "lat": 38.873984666666665, "bike_id": "ed92be357a2f12b16befbaf570466bc2", "fusion_lon": 0.0}, {"rental_uris": {"ios": "https://dc.lft.to/lastmile_qr_scan", "android": "https://dc.lft.to/lastmile_qr_scan"}, "type": "electric_scooter", "name": "68e4b07c3e5309b81676d5a0d2c07b05", "is_reserved": 0, "lon": -77.02230566666667, "is_disabled": 0, "fusion_lat": 0.0, "lat": 38.892160833333335, "bike_id": "68e4b07c3e5309b81676d5a0d2c07b05", "fusion_lon": 0.0}, {"rental_uris": {"ios": "https://dc.lft.to/lastmile_qr_scan", "android": "https://dc.lft.to/lastmile_qr_scan"}, "type": "electric_scooter", "name": "6c581a544240aa54794a517eee229df3", "is_reserved": 0, "lon": -76.96158883333334, "is_disabled": 0, "fusion_lat": 0.0, "lat": 38.883556666666664, "bike_id": "6c581a544240aa54794a517eee229df3", "fusion_lon": 0.0}, {"rental_uris": {"ios": "https://dc.lft.to/lastmile_qr_scan", "android": "https://dc.lft.to/lastmile_qr_scan"}, "type": "electric_scooter", "name": "032c8c80b99f7f9454a77c7fdb1b1487", "is_reserved": 0, "lon": -77.03634233333334, "is_disabled": 0, "fusion_lat": 0.0, "lat": 38.9350525, "bike_id": "032c8c80b99f7f9454a77c7fdb1b1487", "fusion_lon": 0.0}, {"rental_uris": {"ios": "https://dc.lft.to/lastmile_qr_scan", "android": "https://dc.lft.to/lastmile_qr_scan"}, "type": "electric_scooter", "name": "9c284a264ab32e0cde1f3f280f280362", "is_reserved": 0, "lon": -77.03466966666667, "is_disabled": 0, "fusion_lat": 0.0, "lat": 38.916947, "bike_id": "9c284a264ab32e0cde1f3f280f280362", "fusion_lon": 0.0}, {"rental_uris": {"ios": "https://dc.lft.to/lastmile_qr_scan", "android": "https://dc.lft.to/lastmile_qr_scan"}, "type": "electric_scooter", "name": "c0c0a1516ea66fbc479085eba6bf93fa", "is_reserved": 0, "lon": -77.04381, "is_disabled": 0, "fusion_lat": 0.0, "lat": 38.9165185, "bike_id": "c0c0a1516ea66fbc479085eba6bf93fa", "fusion_lon": 0.0}, {"rental_uris": {"ios": "https://dc.lft.to/lastmile_qr_scan", "android": "https://dc.lft.to/lastmile_qr_scan"}, "type": "electric_scooter", "name": "3d11fb2296b55392862aa059955d40bd", "is_reserved": 0, "lon": -77.0276465, "is_disabled": 0, "fusion_lat": 0.0, "lat": 38.92376816666667, "bike_id": "3d11fb2296b55392862aa059955d40bd", "fusion_lon": 0.0}, {"rental_uris": {"ios": "https://dc.lft.to/lastmile_qr_scan", "android": "https://dc.lft.to/lastmile_qr_scan"}, "type": "electric_scooter", "name": "978aabf1d5fba7cf2fabd7fcb7b7fa6b", "is_reserved": 0, "lon": -77.012296, "is_disabled": 0, "fusion_lat": 0.0, "lat": 38.91680516666667, "bike_id": "978aabf1d5fba7cf2fabd7fcb7b7fa6b", "fusion_lon": 0.0}, {"rental_uris": {"ios": "https://dc.lft.to/lastmile_qr_scan", "android": "https://dc.lft.to/lastmile_qr_scan"}, "type": "electric_scooter", "name": "00226f7a08cdaf4302aeec0410572d9b", "is_reserved": 0, "lon": -76.97802766666666, "is_disabled": 0, "fusion_lat": 0.0, "lat": 38.90309383333334, "bike_id": "00226f7a08cdaf4302aeec0410572d9b", "fusion_lon": 0.0}, {"rental_uris": {"ios": "https://dc.lft.to/lastmile_qr_scan", "android": "https://dc.lft.to/lastmile_qr_scan"}, "type": "electric_scooter", "name": "41dfa670cd495ef7d64394dbd860139c", "is_reserved": 0, "lon": -77.04656333333334, "is_disabled": 0, "fusion_lat": 0.0, "lat": 38.905539833333336, "bike_id": "41dfa670cd495ef7d64394dbd860139c", "fusion_lon": 0.0}, {"rental_uris": {"ios": "https://dc.lft.to/lastmile_qr_scan", "android": "https://dc.lft.to/lastmile_qr_scan"}, "type": "electric_scooter", "name": "5e82a40d4df0ef3a65a63b6efcd05d73", "is_reserved": 0, "lon": -77.03661816666667, "is_disabled": 0, "fusion_lat": 0.0, "lat": 38.91320666666667, "bike_id": "5e82a40d4df0ef3a65a63b6efcd05d73", "fusion_lon": 0.0}, {"rental_uris": {"ios": "https://dc.lft.to/lastmile_qr_scan", "android": "https://dc.lft.to/lastmile_qr_scan"}, "type": "electric_scooter", "name": "50dba37f3fc5099638103a8b9a320a24", "is_reserved": 0, "lon": -77.03761733333333, "is_disabled": 0, "fusion_lat": 0.0, "lat": 38.92315133333334, "bike_id": "50dba37f3fc5099638103a8b9a320a24", "fusion_lon": 0.0}, {"rental_uris": {"ios": "https://dc.lft.to/lastmile_qr_scan", "android": "https://dc.lft.to/lastmile_qr_scan"}, "type": "electric_scooter", "name": "606dcab6f061d651da4edd1ed6843915", "is_reserved": 0, "lon": -77.029779, "is_disabled": 0, "fusion_lat": 0.0, "lat": 38.922473833333335, "bike_id": "606dcab6f061d651da4edd1ed6843915", "fusion_lon": 0.0}, {"rental_uris": {"ios": "https://dc.lft.to/lastmile_qr_scan", "android": "https://dc.lft.to/lastmile_qr_scan"}, "type": "electric_scooter", "name": "ef7fbb276a73c1edc75e4b5e9b2465ab", "is_reserved": 0, "lon": -77.04158033333333, "is_disabled": 0, "fusion_lat": 0.0, "lat": 38.9157295, "bike_id": "ef7fbb276a73c1edc75e4b5e9b2465ab", "fusion_lon": 0.0}, {"rental_uris": {"ios": "https://dc.lft.to/lastmile_qr_scan", "android": "https://dc.lft.to/lastmile_qr_scan"}, "type": "electric_scooter", "name": "6c023a548f21c165b4bec8ada342fd87", "is_reserved": 0, "lon": -76.97150833333333, "is_disabled": 0, "fusion_lat": 0.0, "lat": 38.916166833333335, "bike_id": "6c023a548f21c165b4bec8ada342fd87", "fusion_lon": 0.0}, {"rental_uris": {"ios": "https://dc.lft.to/lastmile_qr_scan", "android": "https://dc.lft.to/lastmile_qr_scan"}, "type": "electric_scooter", "name": "32bbfb2c642fdd40b1b435701d6ddee2", "is_reserved": 0, "lon": -77.00211216666666, "is_disabled": 0, "fusion_lat": 0.0, "lat": 38.900349166666665, "bike_id": "32bbfb2c642fdd40b1b435701d6ddee2", "fusion_lon": 0.0}, {"rental_uris": {"ios": "https://dc.lft.to/lastmile_qr_scan", "android": "https://dc.lft.to/lastmile_qr_scan"}, "type": "electric_scooter", "name": "a8dbac487f112c0674dc3f6d185bf8b4", "is_reserved": 0, "lon": -77.05371333333333, "is_disabled": 0, "fusion_lat": 0.0, "lat": 38.92331216666667, "bike_id": "a8dbac487f112c0674dc3f6d185bf8b4", "fusion_lon": 0.0}, {"rental_uris": {"ios": "https://dc.lft.to/lastmile_qr_scan", "android": "https://dc.lft.to/lastmile_qr_scan"}, "type": "electric_scooter", "name": "378ae441d5c4b0917367e2b46b9914e0", "is_reserved": 0, "lon": -77.01254916666667, "is_disabled": 0, "fusion_lat": 0.0, "lat": 38.897085, "bike_id": "378ae441d5c4b0917367e2b46b9914e0", "fusion_lon": 0.0}, {"rental_uris": {"ios": "https://dc.lft.to/lastmile_qr_scan", "android": "https://dc.lft.to/lastmile_qr_scan"}, "type": "electric_scooter", "name": "36214a35bf0e7a3bebd495b59cc73fb7", "is_reserved": 0, "lon": -77.01909133333334, "is_disabled": 0, "fusion_lat": 0.0, "lat": 38.93717916666667, "bike_id": "36214a35bf0e7a3bebd495b59cc73fb7", "fusion_lon": 0.0}, {"rental_uris": {"ios": "https://dc.lft.to/lastmile_qr_scan", "android": "https://dc.lft.to/lastmile_qr_scan"}, "type": "electric_scooter", "name": "2cbe7057241d18d6d900147f240e88f6", "is_reserved": 0, "lon": -77.010929, "is_disabled": 0, "fusion_lat": 0.0, "lat": 38.89526733333334, "bike_id": "2cbe7057241d18d6d900147f240e88f6", "fusion_lon": 0.0}, {"rental_uris": {"ios": "https://dc.lft.to/lastmile_qr_scan", "android": "https://dc.lft.to/lastmile_qr_scan"}, "type": "electric_scooter", "name": "963e7ce5520a26211fd5128d883b5a8c", "is_reserved": 0, "lon": -77.00574933333333, "is_disabled": 0, "fusion_lat": 0.0, "lat": 38.9000575, "bike_id": "963e7ce5520a26211fd5128d883b5a8c", "fusion_lon": 0.0}, {"rental_uris": {"ios": "https://dc.lft.to/lastmile_qr_scan", "android": "https://dc.lft.to/lastmile_qr_scan"}, "type": "electric_scooter", "name": "b9e0d41e12a754c6e544f7230d359460", "is_reserved": 0, "lon": -77.03149766666667, "is_disabled": 0, "fusion_lat": 0.0, "lat": 38.88740166666667, "bike_id": "b9e0d41e12a754c6e544f7230d359460", "fusion_lon": 0.0}, {"rental_uris": {"ios": "https://dc.lft.to/lastmile_qr_scan", "android": "https://dc.lft.to/lastmile_qr_scan"}, "type": "electric_scooter", "name": "80be25f9946c71ec2f992fd6a43b079b", "is_reserved": 0, "lon": -76.99662116666667, "is_disabled": 0, "fusion_lat": 0.0, "lat": 38.892283, "bike_id": "80be25f9946c71ec2f992fd6a43b079b", "fusion_lon": 0.0}, {"rental_uris": {"ios": "https://dc.lft.to/lastmile_qr_scan", "android": "https://dc.lft.to/lastmile_qr_scan"}, "type": "electric_scooter", "name": "7a124136e31067c745920d9b77df8762", "is_reserved": 0, "lon": -77.03214583333333, "is_disabled": 0, "fusion_lat": 0.0, "lat": 38.916911999999996, "bike_id": "7a124136e31067c745920d9b77df8762", "fusion_lon": 0.0}, {"rental_uris": {"ios": "https://dc.lft.to/lastmile_qr_scan", "android": "https://dc.lft.to/lastmile_qr_scan"}, "type": "electric_scooter", "name": "89738488a9c27a6590058a6ac67f78e0", "is_reserved": 0, "lon": -77.02530366666667, "is_disabled": 0, "fusion_lat": 0.0, "lat": 38.94534766666666, "bike_id": "89738488a9c27a6590058a6ac67f78e0", "fusion_lon": 0.0}, {"rental_uris": {"ios": "https://dc.lft.to/lastmile_qr_scan", "android": "https://dc.lft.to/lastmile_qr_scan"}, "type": "electric_scooter", "name": "1c0b20477c82d20d3eea9c6f8d1c4a53", "is_reserved": 0, "lon": -76.99714916666667, "is_disabled": 0, "fusion_lat": 0.0, "lat": 38.8973735, "bike_id": "1c0b20477c82d20d3eea9c6f8d1c4a53", "fusion_lon": 0.0}, {"rental_uris": {"ios": "https://dc.lft.to/lastmile_qr_scan", "android": "https://dc.lft.to/lastmile_qr_scan"}, "type": "electric_scooter", "name": "cf9bca75cde65a209ccae0fae279bfce", "is_reserved": 0, "lon": -77.032247, "is_disabled": 0, "fusion_lat": 0.0, "lat": 38.9096925, "bike_id": "cf9bca75cde65a209ccae0fae279bfce", "fusion_lon": 0.0}, {"rental_uris": {"ios": "https://dc.lft.to/lastmile_qr_scan", "android": "https://dc.lft.to/lastmile_qr_scan"}, "type": "electric_scooter", "name": "9fb7b5c2cae85fab891061dbdd5590bc", "is_reserved": 0, "lon": -77.002826, "is_disabled": 0, "fusion_lat": 0.0, "lat": 38.908725833333335, "bike_id": "9fb7b5c2cae85fab891061dbdd5590bc", "fusion_lon": 0.0}, {"rental_uris": {"ios": "https://dc.lft.to/lastmile_qr_scan", "android": "https://dc.lft.to/lastmile_qr_scan"}, "type": "electric_bike", "name": "380e58494ccf62cc4a2d2a45fbe6e7a8", "is_reserved": 0, "lon": -76.99576283333333, "is_disabled": 0, "fusion_lat": 0.0, "lat": 38.83156183333333, "bike_id": "380e58494ccf62cc4a2d2a45fbe6e7a8", "fusion_lon": 0.0}, {"rental_uris": {"ios": "https://dc.lft.to/lastmile_qr_scan", "android": "https://dc.lft.to/lastmile_qr_scan"}, "type": "electric_scooter", "name": "4dd34bdb0cbb754430fc6b13d9c07b98", "is_reserved": 0, "lon": -77.02802883333334, "is_disabled": 0, "fusion_lat": 0.0, "lat": 38.907342, "bike_id": "4dd34bdb0cbb754430fc6b13d9c07b98", "fusion_lon": 0.0}, {"rental_uris": {"ios": "https://dc.lft.to/lastmile_qr_scan", "android": "https://dc.lft.to/lastmile_qr_scan"}, "type": "electric_scooter", "name": "63e27d76acf5b1716f688d5f05d9d13f", "is_reserved": 0, "lon": -76.99592916666667, "is_disabled": 0, "fusion_lat": 0.0, "lat": 38.90028266666667, "bike_id": "63e27d76acf5b1716f688d5f05d9d13f", "fusion_lon": 0.0}, {"rental_uris": {"ios": "https://dc.lft.to/lastmile_qr_scan", "android": "https://dc.lft.to/lastmile_qr_scan"}, "type": "electric_scooter", "name": "33c7568dae419fc2e5564f0fd168306c", "is_reserved": 0, "lon": -77.02806033333333, "is_disabled": 0, "fusion_lat": 0.0, "lat": 38.9073905, "bike_id": "33c7568dae419fc2e5564f0fd168306c", "fusion_lon": 0.0}, {"rental_uris": {"ios": "https://dc.lft.to/lastmile_qr_scan", "android": "https://dc.lft.to/lastmile_qr_scan"}, "type": "electric_scooter", "name": "7602a9edeabed3b63267af5b1ba1585e", "is_reserved": 0, "lon": -77.01224833333333, "is_disabled": 0, "fusion_lat": 0.0, "lat": 38.916616833333336, "bike_id": "7602a9edeabed3b63267af5b1ba1585e", "fusion_lon": 0.0}, {"rental_uris": {"ios": "https://dc.lft.to/lastmile_qr_scan", "android": "https://dc.lft.to/lastmile_qr_scan"}, "type": "electric_scooter", "name": "b9dbbadd6b6d65b449d195c136741b3f", "is_reserved": 0, "lon": -77.04190433333333, "is_disabled": 0, "fusion_lat": 0.0, "lat": 38.92197483333333, "bike_id": "b9dbbadd6b6d65b449d195c136741b3f", "fusion_lon": 0.0}, {"rental_uris": {"ios": "https://dc.lft.to/lastmile_qr_scan", "android": "https://dc.lft.to/lastmile_qr_scan"}, "type": "electric_scooter", "name": "1b3f072a8479ff0053405839158b1f8a", "is_reserved": 0, "lon": -77.02969683333333, "is_disabled": 0, "fusion_lat": 0.0, "lat": 38.91718983333333, "bike_id": "1b3f072a8479ff0053405839158b1f8a", "fusion_lon": 0.0}, {"rental_uris": {"ios": "https://dc.lft.to/lastmile_qr_scan", "android": "https://dc.lft.to/lastmile_qr_scan"}, "type": "electric_scooter", "name": "7c9d96b17e552ce3d7169032f349bf48", "is_reserved": 0, "lon": -77.03654266666666, "is_disabled": 0, "fusion_lat": 0.0, "lat": 38.95598116666667, "bike_id": "7c9d96b17e552ce3d7169032f349bf48", "fusion_lon": 0.0}, {"rental_uris": {"ios": "https://dc.lft.to/lastmile_qr_scan", "android": "https://dc.lft.to/lastmile_qr_scan"}, "type": "electric_scooter", "name": "83a9a0547cad26154e5a8b154906adac", "is_reserved": 0, "lon": -77.036611, "is_disabled": 0, "fusion_lat": 0.0, "lat": 38.93634316666667, "bike_id": "83a9a0547cad26154e5a8b154906adac", "fusion_lon": 0.0}, {"rental_uris": {"ios": "https://dc.lft.to/lastmile_qr_scan", "android": "https://dc.lft.to/lastmile_qr_scan"}, "type": "electric_scooter", "name": "6a053b8e0ecb7d8dd3133024ed79e262", "is_reserved": 0, "lon": -77.06769966666667, "is_disabled": 0, "fusion_lat": 0.0, "lat": 38.90413, "bike_id": "6a053b8e0ecb7d8dd3133024ed79e262", "fusion_lon": 0.0}, {"rental_uris": {"ios": "https://dc.lft.to/lastmile_qr_scan", "android": "https://dc.lft.to/lastmile_qr_scan"}, "type": "electric_scooter", "name": "6bcf33901f4eb060d668314463956947", "is_reserved": 0, "lon": -77.02216666666666, "is_disabled": 0, "fusion_lat": 0.0, "lat": 38.92469583333333, "bike_id": "6bcf33901f4eb060d668314463956947", "fusion_lon": 0.0}, {"rental_uris": {"ios": "https://dc.lft.to/lastmile_qr_scan", "android": "https://dc.lft.to/lastmile_qr_scan"}, "type": "electric_scooter", "name": "65351af7781c53c89f66c9b965ae9fa6", "is_reserved": 0, "lon": -76.92925066666666, "is_disabled": 0, "fusion_lat": 0.0, "lat": 38.886576833333336, "bike_id": "65351af7781c53c89f66c9b965ae9fa6", "fusion_lon": 0.0}, {"rental_uris": {"ios": "https://dc.lft.to/lastmile_qr_scan", "android": "https://dc.lft.to/lastmile_qr_scan"}, "type": "electric_scooter", "name": "da3ce8768b17b9745e3e88ca8ad20f09", "is_reserved": 0, "lon": -77.0385975, "is_disabled": 0, "fusion_lat": 0.0, "lat": 38.917122166666665, "bike_id": "da3ce8768b17b9745e3e88ca8ad20f09", "fusion_lon": 0.0}, {"rental_uris": {"ios": "https://dc.lft.to/lastmile_qr_scan", "android": "https://dc.lft.to/lastmile_qr_scan"}, "type": "electric_scooter", "name": "08d4ab31822cc29665c1df641ff214f4", "is_reserved": 0, "lon": -77.0390025, "is_disabled": 0, "fusion_lat": 0.0, "lat": 38.924307, "bike_id": "08d4ab31822cc29665c1df641ff214f4", "fusion_lon": 0.0}, {"rental_uris": {"ios": "https://dc.lft.to/lastmile_qr_scan", "android": "https://dc.lft.to/lastmile_qr_scan"}, "type": "electric_scooter", "name": "05c3011957ed23d49aa680194b264333", "is_reserved": 0, "lon": -76.970384, "is_disabled": 0, "fusion_lat": 0.0, "lat": 38.86329583333333, "bike_id": "05c3011957ed23d49aa680194b264333", "fusion_lon": 0.0}, {"rental_uris": {"ios": "https://dc.lft.to/lastmile_qr_scan", "android": "https://dc.lft.to/lastmile_qr_scan"}, "type": "electric_scooter", "name": "5843bc11d92a54e750ac286b49e8dd40", "is_reserved": 0, "lon": -76.99562, "is_disabled": 0, "fusion_lat": 0.0, "lat": 38.92675533333333, "bike_id": "5843bc11d92a54e750ac286b49e8dd40", "fusion_lon": 0.0}, {"rental_uris": {"ios": "https://dc.lft.to/lastmile_qr_scan", "android": "https://dc.lft.to/lastmile_qr_scan"}, "type": "electric_scooter", "name": "44325d742c9aca1a9491f49f096f7bb2", "is_reserved": 0, "lon": -77.0366135, "is_disabled": 0, "fusion_lat": 0.0, "lat": 38.913835166666665, "bike_id": "44325d742c9aca1a9491f49f096f7bb2", "fusion_lon": 0.0}, {"rental_uris": {"ios": "https://dc.lft.to/lastmile_qr_scan", "android": "https://dc.lft.to/lastmile_qr_scan"}, "type": "electric_scooter", "name": "f4ef5f34082a69af3dc7747a27891059", "is_reserved": 0, "lon": -77.0587165, "is_disabled": 0, "fusion_lat": 0.0, "lat": 38.942395166666664, "bike_id": "f4ef5f34082a69af3dc7747a27891059", "fusion_lon": 0.0}, {"rental_uris": {"ios": "https://dc.lft.to/lastmile_qr_scan", "android": "https://dc.lft.to/lastmile_qr_scan"}, "type": "electric_bike", "name": "04766294a2da3009df8f7ae18874c240", "is_reserved": 0, "lon": -76.94975766666667, "is_disabled": 0, "fusion_lat": 0.0, "lat": 38.882987, "bike_id": "04766294a2da3009df8f7ae18874c240", "fusion_lon": 0.0}, {"rental_uris": {"ios": "https://dc.lft.to/lastmile_qr_scan", "android": "https://dc.lft.to/lastmile_qr_scan"}, "type": "electric_scooter", "name": "29b4aa891163078fb9d10f187ceda476", "is_reserved": 0, "lon": -77.0484825, "is_disabled": 0, "fusion_lat": 0.0, "lat": 38.90436533333333, "bike_id": "29b4aa891163078fb9d10f187ceda476", "fusion_lon": 0.0}, {"rental_uris": {"ios": "https://dc.lft.to/lastmile_qr_scan", "android": "https://dc.lft.to/lastmile_qr_scan"}, "type": "electric_scooter", "name": "d4922425e6a40de8a3645458bf5a003d", "is_reserved": 0, "lon": -77.00501683333333, "is_disabled": 0, "fusion_lat": 0.0, "lat": 38.944035, "bike_id": "d4922425e6a40de8a3645458bf5a003d", "fusion_lon": 0.0}, {"rental_uris": {"ios": "https://dc.lft.to/lastmile_qr_scan", "android": "https://dc.lft.to/lastmile_qr_scan"}, "type": "electric_scooter", "name": "773b3912e9c5aeab9b95e0a47b0e8c2a", "is_reserved": 0, "lon": -77.02150233333333, "is_disabled": 0, "fusion_lat": 0.0, "lat": 38.91894683333334, "bike_id": "773b3912e9c5aeab9b95e0a47b0e8c2a", "fusion_lon": 0.0}, {"rental_uris": {"ios": "https://dc.lft.to/lastmile_qr_scan", "android": "https://dc.lft.to/lastmile_qr_scan"},