{"data": {"bikes": [{"name": "a29167f55af6169db10534ebd3b88592", "fusion_lat": 0.0, "type": "electric_scooter", "lat": 38.933126, "is_reserved": 0, "is_disabled": 0, "fusion_lon": 0.0, "bike_id": "a29167f55af6169db10534ebd3b88592", "lon": -77.03427983333333, "rental_uris": {"ios": "https://dc.lft.to/lastmile_qr_scan", "android": "https://dc.lft.to/lastmile_qr_scan"}}, {"name": "7c1788aae8b08ea31e88293ae67f1eb1", "fusion_lat": 0.0, "type": "electric_scooter", "lat": 38.94953783333333, "is_reserved": 0, "is_disabled": 0, "fusion_lon": 0.0, "bike_id": "7c1788aae8b08ea31e88293ae67f1eb1", "lon": -77.02721416666667, "rental_uris": {"ios": "https://dc.lft.to/lastmile_qr_scan", "android": "https://dc.lft.to/lastmile_qr_scan"}}, {"name": "dc8802372839f9834696a92b7b3581e6", "fusion_lat": 0.0, "type": "electric_bike", "lat": 38.83934083333333, "is_reserved": 0, "is_disabled": 0, "fusion_lon": 0.0, "bike_id": "dc8802372839f9834696a92b7b3581e6", "lon": -77.07891, "rental_uris": {"ios": "https://dc.lft.to/lastmile_qr_scan", "android": "https://dc.lft.to/lastmile_qr_scan"}}, {"name": "725ce84322a392e57d4c236ee7eddc2b", "fusion_lat": 0.0, "type": "electric_scooter", "lat": 38.92152866666667, "is_reserved": 0, "is_disabled": 0, "fusion_lon": 0.0, "bike_id": "725ce84322a392e57d4c236ee7eddc2b", "lon": -77.03467616666667, "rental_uris": {"ios": "https://dc.lft.to/lastmile_qr_scan", "android": "https://dc.lft.to/lastmile_qr_scan"}}, {"name": "2221467c182b8ba3530419f3be36546a", "fusion_lat": 0.0, "type": "electric_scooter", "lat": 38.91809216666667, "is_reserved": 0, "is_disabled": 0, "fusion_lon": 0.0, "bike_id": "2221467c182b8ba3530419f3be36546a", "lon": -77.0462375, "rental_uris": {"ios": "https://dc.lft.to/lastmile_qr_scan", "android": "https://dc.lft.to/lastmile_qr_scan"}}, {"name": "1726b9b551cf44d0bead2a45f999f60d", "fusion_lat": 0.0, "type": "electric_scooter", "lat": 38.8924285, "is_reserved": 0, "is_disabled": 0, "fusion_lon": 0.0, "bike_id": "1726b9b551cf44d0bead2a45f999f60d", "lon": -77.03382983333333, "rental_uris": {"ios": "https://dc.lft.to/lastmile_qr_scan", "android": "https://dc.lft.to/lastmile_qr_scan"}}, {"name": "4acfbfc4bd3b754a6e2fd53b83457529", "fusion_lat": 0.0, "type": "electric_scooter", "lat": 38.905789666666664, "is_reserved": 0, "is_disabled": 0, "fusion_lon": 0.0, "bike_id": "4acfbfc4bd3b754a6e2fd53b83457529", "lon": -77.04577283333333, "rental_uris": {"ios": "https://dc.lft.to/lastmile_qr_scan", "android": "https://dc.lft.to/lastmile_qr_scan"}}, {"name": "262ae4f1682540ed2cb4980b9f72696f", "fusion_lat": 0.0, "type": "electric_scooter", "lat": 38.92179816666667, "is_reserved": 0, "is_disabled": 0, "fusion_lon": 0.0, "bike_id": "262ae4f1682540ed2cb4980b9f72696f", "lon": -77.04290783333333, "rental_uris": {"ios": "https://dc.lft.to/lastmile_qr_scan", "android": "https://dc.lft.to/lastmile_qr_scan"}}, {"name": "3b7a2c937bf892cf534de6ecb543e7b3", "fusion_lat": 0.0, "type": "electric_scooter", "lat": 38.90740066666667, "is_reserved": 0, "is_disabled": 0, "fusion_lon": 0.0, "bike_id": "3b7a2c937bf892cf534de6ecb543e7b3", "lon": -77.02694666666666, "rental_uris": {"ios": "https://dc.lft.to/lastmile_qr_scan", "android": "https://dc.lft.to/lastmile_qr_scan"}}, {"name": "edcecdeabd6d33ab64b82b8a08f920c0", "fusion_lat": 0.0, "type": "electric_scooter", "lat": 38.9181635, "is_reserved": 0, "is_disabled": 0, "fusion_lon": 0.0, "bike_id": "edcecdeabd6d33ab64b82b8a08f920c0", "lon": -77.0250355, "rental_uris": {"ios": "https://dc.lft.to/lastmile_qr_scan", "android": "https://dc.lft.to/lastmile_qr_scan"}}, {"name": "cd3d2b1600b9e089d331aa650016f27a", "fusion_lat": 0.0, "type": "electric_scooter", "lat": 38.9318525, "is_reserved": 0, "is_disabled": 0, "fusion_lon": 0.0, "bike_id": "cd3d2b1600b9e089d331aa650016f27a", "lon": -77.034466, "rental_uris": {"ios": "https://dc.lft.to/lastmile_qr_scan", "android": "https://dc.lft.to/lastmile_qr_scan"}}, {"name": "580d306cbe0025fdeb874196ecc5a668", "fusion_lat": 0.0, "type": "electric_scooter", "lat": 38.9101695, "is_reserved": 0, "is_disabled": 0, "fusion_lon": 0.0, "bike_id": "580d306cbe0025fdeb874196ecc5a668", "lon": -77.04877, "rental_uris": {"ios": "https://dc.lft.to/lastmile_qr_scan", "android": "https://dc.lft.to/lastmile_qr_scan"}}, {"name": "6ee16158f895c1f8f8432b11b93015dc", "fusion_lat": 0.0, "type": "electric_scooter", "lat": 38.91935266666667, "is_reserved": 0, "is_disabled": 0, "fusion_lon": 0.0, "bike_id": "6ee16158f895c1f8f8432b11b93015dc", "lon": -77.02391633333333, "rental_uris": {"ios": "https://dc.lft.to/lastmile_qr_scan", "android": "https://dc.lft.to/lastmile_qr_scan"}}, {"name": "5a2059b3bbf7bbf37016ef47688f553c", "fusion_lat": 0.0, "type": "electric_scooter", "lat": 38.89761133333333, "is_reserved": 0, "is_disabled": 0, "fusion_lon": 0.0, "bike_id": "5a2059b3bbf7bbf37016ef47688f553c", "lon": -77.0316795, "rental_uris": {"ios": "https://dc.lft.to/lastmile_qr_scan", "android": "https://dc.lft.to/lastmile_qr_scan"}}, {"name": "f1f614417d946c816f632ff4e90008b6", "fusion_lat": 0.0, "type": "electric_scooter", "lat": 38.9055365, "is_reserved": 0, "is_disabled": 0, "fusion_lon": 0.0, "bike_id": "f1f614417d946c816f632ff4e90008b6", "lon": -77.03232, "rental_uris": {"ios": "https://dc.lft.to/lastmile_qr_scan", "android": "https://dc.lft.to/lastmile_qr_scan"}}, {"name": "38d1053f1a842294dfb201b1794f615b", "fusion_lat": 0.0, "type": "electric_scooter", "lat": 38.916940333333336, "is_reserved": 0, "is_disabled": 0, "fusion_lon": 0.0, "bike_id": "38d1053f1a842294dfb201b1794f615b", "lon": -77.04337566666666, "rental_uris": {"ios": "https://dc.lft.to/lastmile_qr_scan", "android": "https://dc.lft.to/lastmile_qr_scan"}}, {"name": "6e970e5ae715b0c1808dbbcac3ce137e", "fusion_lat": 0.0, "type": "electric_bike", "lat": 38.934648833333334, "is_reserved": 0, "is_disabled": 0, "fusion_lon": 0.0, "bike_id": "6e970e5ae715b0c1808dbbcac3ce137e", "lon": -77.07291283333333, "rental_uris": {"ios": "https://dc.lft.to/lastmile_qr_scan", "android": "https://dc.lft.to/lastmile_qr_scan"}}, {"name": "b0b0712eb19288b02dd28aaed76810dc", "fusion_lat": 0.0, "type": "electric_scooter", "lat": 38.860763, "is_reserved": 0, "is_disabled": 0, "fusion_lon": 0.0, "bike_id": "b0b0712eb19288b02dd28aaed76810dc", "lon": -76.96740683333333, "rental_uris": {"ios": "https://dc.lft.to/lastmile_qr_scan", "android": "https://dc.lft.to/lastmile_qr_scan"}}, {"name": "93a8fe9e92a40968ae7e5b3d43a163a3", "fusion_lat": 0.0, "type": "electric_scooter", "lat": 38.9066195, "is_reserved": 0, "is_disabled": 0, "fusion_lon": 0.0, "bike_id": "93a8fe9e92a40968ae7e5b3d43a163a3", "lon": -77.0271755, "rental_uris": {"ios": "https://dc.lft.to/lastmile_qr_scan", "android": "https://dc.lft.to/lastmile_qr_scan"}}, {"name": "1b72da8a3de202c744734bc88806d097", "fusion_lat": 0.0, "type": "electric_scooter", "lat": 38.899909, "is_reserved": 0, "is_disabled": 0, "fusion_lon": 0.0, "bike_id": "1b72da8a3de202c744734bc88806d097", "lon": -77.02958366666667, "rental_uris": {"ios": "https://dc.lft.to/lastmile_qr_scan", "android": "https://dc.lft.to/lastmile_qr_scan"}}, {"name": "e67bbb80d8a3e600e9d29ffe44109419", "fusion_lat": 0.0, "type": "electric_scooter", "lat": 38.9480225, "is_reserved": 0, "is_disabled": 0, "fusion_lon": 0.0, "bike_id": "e67bbb80d8a3e600e9d29ffe44109419", "lon": -77.07908316666666, "rental_uris": {"ios": "https://dc.lft.to/lastmile_qr_scan", "android": "https://dc.lft.to/lastmile_qr_scan"}}, {"name": "4b8189b2c5e3efb268d7f906f21790a1", "fusion_lat": 0.0, "type": "electric_bike", "lat": 38.9312, "is_reserved": 0, "is_disabled": 0, "fusion_lon": 0.0, "bike_id": "4b8189b2c5e3efb268d7f906f21790a1", "lon": -77.02722133333333, "rental_uris": {"ios": "https://dc.lft.to/lastmile_qr_scan", "android": "https://dc.lft.to/lastmile_qr_scan"}}, {"name": "405928040b69e108de695d30b459a622", "fusion_lat": 0.0, "type": "electric_scooter", "lat": 38.919327333333335, "is_reserved": 0, "is_disabled": 0, "fusion_lon": 0.0, "bike_id": "405928040b69e108de695d30b459a622", "lon": -77.045508, "rental_uris": {"ios": "https://dc.lft.to/lastmile_qr_scan", "android": "https://dc.lft.to/lastmile_qr_scan"}}, {"name": "6d8f13b362a0190cdba5243b60bb4c8e", "fusion_lat": 0.0, "type": "electric_scooter", "lat": 38.927313833333336, "is_reserved": 0, "is_disabled": 0, "fusion_lon": 0.0, "bike_id": "6d8f13b362a0190cdba5243b60bb4c8e", "lon": -77.023126, "rental_uris": {"ios": "https://dc.lft.to/lastmile_qr_scan", "android": "https://dc.lft.to/lastmile_qr_scan"}}, {"name": "e85da586cb2a874c59a34aecc3370644", "fusion_lat": 0.0, "type": "electric_scooter", "lat": 38.88840483333333, "is_reserved": 0, "is_disabled": 0, "fusion_lon": 0.0, "bike_id": "e85da586cb2a874c59a34aecc3370644", "lon": -77.0490975, "rental_uris": {"ios": "https://dc.lft.to/lastmile_qr_scan", "android": "https://dc.lft.to/lastmile_qr_scan"}}, {"name": "0514a026da1fd13fe8bb7ba4420cfd74", "fusion_lat": 0.0, "type": "electric_scooter", "lat": 38.93366366666667, "is_reserved": 0, "is_disabled": 0, "fusion_lon": 0.0, "bike_id": "0514a026da1fd13fe8bb7ba4420cfd74", "lon": -77.03446566666666, "rental_uris": {"ios": "https://dc.lft.to/lastmile_qr_scan", "android": "https://dc.lft.to/lastmile_qr_scan"}}, {"name": "bc56ed8f25cd3d0624827948bf5dd0c2", "fusion_lat": 0.0, "type": "electric_scooter", "lat": 38.904151166666665, "is_reserved": 0, "is_disabled": 0, "fusion_lon": 0.0, "bike_id": "bc56ed8f25cd3d0624827948bf5dd0c2", "lon": -77.05315866666666, "rental_uris": {"ios": "https://dc.lft.to/lastmile_qr_scan", "android": "https://dc.lft.to/lastmile_qr_scan"}}, {"name": "77c0eea81ad329a0358e2bfb158d6fb9", "fusion_lat": 0.0, "type": "electric_scooter", "lat": 38.93288016666666, "is_reserved": 0, "is_disabled": 0, "fusion_lon": 0.0, "bike_id": "77c0eea81ad329a0358e2bfb158d6fb9", "lon": -77.03979333333334, "rental_uris": {"ios": "https://dc.lft.to/lastmile_qr_scan", "android": "https://dc.lft.to/lastmile_qr_scan"}}, {"name": "efdcfb0ea4650990fae2bd47591383bb", "fusion_lat": 0.0, "type": "electric_scooter", "lat": 38.88687633333333, "is_reserved": 0, "is_disabled": 0, "fusion_lon": 0.0, "bike_id": "efdcfb0ea4650990fae2bd47591383bb", "lon": -76.9576195, "rental_uris": {"ios": "https://dc.lft.to/lastmile_qr_scan", "android": "https://dc.lft.to/lastmile_qr_scan"}}, {"name": "7aca2dec974da93a6dc335ecf2200b30", "fusion_lat": 0.0, "type": "electric_bike", "lat": 38.838280166666664, "is_reserved": 0, "is_disabled": 0, "fusion_lon": 0.0, "bike_id": "7aca2dec974da93a6dc335ecf2200b30", "lon": -76.99685283333334, "rental_uris": {"ios": "https://dc.lft.to/lastmile_qr_scan", "android": "https://dc.lft.to/lastmile_qr_scan"}}, {"name": "d3925ce426a7134ff7632f1573aa168b", "fusion_lat": 0.0, "type": "electric_scooter", "lat": 38.90777033333333, "is_reserved": 0, "is_disabled": 0, "fusion_lon": 0.0, "bike_id": "d3925ce426a7134ff7632f1573aa168b", "lon": -77.0716445, "rental_uris": {"ios": "https://dc.lft.to/lastmile_qr_scan", "android": "https://dc.lft.to/lastmile_qr_scan"}}, {"name": "93df2007f7c9e5f6f3b77c0a7b8f5589", "fusion_lat": 0.0, "type": "electric_bike", "lat": 38.94231033333333, "is_reserved": 0, "is_disabled": 0, "fusion_lon": 0.0, "bike_id": "93df2007f7c9e5f6f3b77c0a7b8f5589", "lon": -77.01389216666666, "rental_uris": {"ios": "https://dc.lft.to/lastmile_qr_scan", "android": "https://dc.lft.to/lastmile_qr_scan"}}, {"name": "a2c04cb3b760c5199f70e5b088b7ea7f", "fusion_lat": 0.0, "type": "electric_scooter", "lat": 38.89735533333333, "is_reserved": 0, "is_disabled": 0, "fusion_lon": 0.0, "bike_id": "a2c04cb3b760c5199f70e5b088b7ea7f", "lon": -76.9384945, "rental_uris": {"ios": "https://dc.lft.to/lastmile_qr_scan", "android": "https://dc.lft.to/lastmile_qr_scan"}}, {"name": "601fbf39b2fb2421f6063b0360a830b5", "fusion_lat": 0.0, "type": "electric_scooter", "lat": 38.937702333333334, "is_reserved": 0, "is_disabled": 0, "fusion_lon": 0.0, "bike_id": "601fbf39b2fb2421f6063b0360a830b5", "lon": -77.05990733333333, "rental_uris": {"ios": "https://dc.lft.to/lastmile_qr_scan", "android": "https://dc.lft.to/lastmile_qr_scan"}}, {"name": "c2892f5844e59a1a4ccaad6e12e71bdc", "fusion_lat": 0.0, "type": "electric_scooter", "lat": 38.9002575, "is_reserved": 0, "is_disabled": 0, "fusion_lon": 0.0, "bike_id": "c2892f5844e59a1a4ccaad6e12e71bdc", "lon": -77.00204633333334, "rental_uris": {"ios": "https://dc.lft.to/lastmile_qr_scan", "android": "https://dc.lft.to/lastmile_qr_scan"}}, {"name": "1defb3bf08843612f754bdfb2c204da6", "fusion_lat": 0.0, "type": "electric_scooter", "lat": 38.91107216666666, "is_reserved": 0, "is_disabled": 0, "fusion_lon": 0.0, "bike_id": "1defb3bf08843612f754bdfb2c204da6", "lon": -77.03147183333333, "rental_uris": {"ios": "https://dc.lft.to/lastmile_qr_scan", "android": "https://dc.lft.to/lastmile_qr_scan"}}, {"name": "d4be2f4e26ddbcb66721cdf4c653929c", "fusion_lat": 0.0, "type": "electric_bike", "lat": 38.8964925, "is_reserved": 0, "is_disabled": 0, "fusion_lon": 0.0, "bike_id": "d4be2f4e26ddbcb66721cdf4c653929c", "lon": -77.08637266666666, "rental_uris": {"ios": "https://dc.lft.to/lastmile_qr_scan", "android": "https://dc.lft.to/lastmile_qr_scan"}}, {"name": "08e1b5249bb27445509122cceb209a1f", "fusion_lat": 0.0, "type": "electric_scooter", "lat": 38.88575066666667, "is_reserved": 0, "is_disabled": 0, "fusion_lon": 0.0, "bike_id": "08e1b5249bb27445509122cceb209a1f", "lon": -76.9962405, "rental_uris": {"ios": "https://dc.lft.to/lastmile_qr_scan", "android": "https://dc.lft.to/lastmile_qr_scan"}}, {"name": "c60c6d579879a2465bee70f43b37f635", "fusion_lat": 0.0, "type": "electric_scooter", "lat": 38.92157266666667, "is_reserved": 0, "is_disabled": 0, "fusion_lon": 0.0, "bike_id": "c60c6d579879a2465bee70f43b37f635", "lon": -77.04223816666666, "rental_uris": {"ios": "https://dc.lft.to/lastmile_qr_scan", "android": "https://dc.lft.to/lastmile_qr_scan"}}, {"name": "f9e9d4c327a6ec406d797b5ccba3a5a1", "fusion_lat": 0.0, "type": "electric_scooter", "lat": 38.8584825, "is_reserved": 0, "is_disabled": 0, "fusion_lon": 0.0, "bike_id": "f9e9d4c327a6ec406d797b5ccba3a5a1", "lon": -76.95884333333333, "rental_uris": {"ios": "https://dc.lft.to/lastmile_qr_scan", "android": "https://dc.lft.to/lastmile_qr_scan"}}, {"name": "3dfd0e2b7cf7a010f9616acbcea9be92", "fusion_lat": 0.0, "type": "electric_scooter", "lat": 38.894534666666665, "is_reserved": 0, "is_disabled": 0, "fusion_lon": 0.0, "bike_id": "3dfd0e2b7cf7a010f9616acbcea9be92", "lon": -77.01922366666666, "rental_uris": {"ios": "https://dc.lft.to/lastmile_qr_scan", "android": "https://dc.lft.to/lastmile_qr_scan"}}, {"name": "f87771d208d56aca070e5eec1b8444fb", "fusion_lat": 0.0, "type": "electric_scooter", "lat": 38.93251216666667, "is_reserved": 0, "is_disabled": 0, "fusion_lon": 0.0, "bike_id": "f87771d208d56aca070e5eec1b8444fb", "lon": -77.04004616666667, "rental_uris": {"ios": "https://dc.lft.to/lastmile_qr_scan", "android": "https://dc.lft.to/lastmile_qr_scan"}}, {"name": "f560b330ea03cb266d0a073713373cd4", "fusion_lat": 0.0, "type": "electric_scooter", "lat": 38.89481133333334, "is_reserved": 0, "is_disabled": 0, "fusion_lon": 0.0, "bike_id": "f560b330ea03cb266d0a073713373cd4", "lon": -76.948762, "rental_uris": {"ios": "https://dc.lft.to/lastmile_qr_scan", "android": "https://dc.lft.to/lastmile_qr_scan"}}, {"name": "e2e6d6740a9157ec22505c3f7716935d", "fusion_lat": 0.0, "type": "electric_scooter", "lat": 38.908347666666664, "is_reserved": 0, "is_disabled": 0, "fusion_lon": 0.0, "bike_id": "e2e6d6740a9157ec22505c3f7716935d", "lon": -76.99988116666667, "rental_uris": {"ios": "https://dc.lft.to/lastmile_qr_scan", "android": "https://dc.lft.to/lastmile_qr_scan"}}, {"name": "e135c870751623bb0e9d4b7667dcc3c4", "fusion_lat": 0.0, "type": "electric_scooter", "lat": 38.90088016666667, "is_reserved": 0, "is_disabled": 0, "fusion_lon": 0.0, "bike_id": "e135c870751623bb0e9d4b7667dcc3c4", "lon": -77.01351333333334, "rental_uris": {"ios": "https://dc.lft.to/lastmile_qr_scan", "android": "https://dc.lft.to/lastmile_qr_scan"}}, {"name": "ab1351ea473c282a55e91874e5f19951", "fusion_lat": 0.0, "type": "electric_scooter", "lat": 38.93122266666666, "is_reserved": 0, "is_disabled": 0, "fusion_lon": 0.0, "bike_id": "ab1351ea473c282a55e91874e5f19951", "lon": -77.03601433333333, "rental_uris": {"ios": "https://dc.lft.to/lastmile_qr_scan", "android": "https://dc.lft.to/lastmile_qr_scan"}}, {"name": "fd36917a8965150e76674e8b4b5a3ef6", "fusion_lat": 0.0, "type": "electric_scooter", "lat": 38.892883, "is_reserved": 0, "is_disabled": 0, "fusion_lon": 0.0, "bike_id": "fd36917a8965150e76674e8b4b5a3ef6", "lon": -77.03220183333333, "rental_uris": {"ios": "https://dc.lft.to/lastmile_qr_scan", "android": "https://dc.lft.to/lastmile_qr_scan"}}, {"name": "f27d1e9af5718279b199016f1ecf2743", "fusion_lat": 0.0, "type": "electric_scooter", "lat": 38.89775866666667, "is_reserved": 0, "is_disabled": 0, "fusion_lon": 0.0, "bike_id": "f27d1e9af5718279b199016f1ecf2743", "lon": -76.99161616666666, "rental_uris": {"ios": "https://dc.lft.to/lastmile_qr_scan", "android": "https://dc.lft.to/lastmile_qr_scan"}}, {"name": "3992f6a9f54352ff62977fc1904fdc1e", "fusion_lat": 0.0, "type": "electric_scooter", "lat": 38.9154465, "is_reserved": 0, "is_disabled": 0, "fusion_lon": 0.0, "bike_id": "3992f6a9f54352ff62977fc1904fdc1e", "lon": -77.03854966666667, "rental_uris": {"ios": "https://dc.lft.to/lastmile_qr_scan", "android": "https://dc.lft.to/lastmile_qr_scan"}}, {"name": "8eb410e31307a148e4146cfbabc278b6", "fusion_lat": 0.0, "type": "electric_bike", "lat": 38.945516, "is_reserved": 0, "is_disabled": 0, "fusion_lon": 0.0, "bike_id": "8eb410e31307a148e4146cfbabc278b6", "lon": -76.89539266666667, "rental_uris": {"ios": "https://dc.lft.to/lastmile_qr_scan", "android": "https://dc.lft.to/lastmile_qr_scan"}}, {"name": "a875687dd30bd5f7789471faac55f855", "fusion_lat": 0.0, "type": "electric_scooter", "lat": 38.883942166666664, "is_reserved": 0, "is_disabled": 0, "fusion_lon": 0.0, "bike_id": "a875687dd30bd5f7789471faac55f855", "lon": -76.93045933333333, "rental_uris": {"ios": "https://dc.lft.to/lastmile_qr_scan", "android": "https://dc.lft.to/lastmile_qr_scan"}}, {"name": "0e85ff63e2938aabea04eebd21f83dc5", "fusion_lat": 0.0, "type": "electric_scooter", "lat": 38.908122166666665, "is_reserved": 0, "is_disabled": 0, "fusion_lon": 0.0, "bike_id": "0e85ff63e2938aabea04eebd21f83dc5", "lon": -77.02609633333333, "rental_uris": {"ios": "https://dc.lft.to/lastmile_qr_scan", "android": "https://dc.lft.to/lastmile_qr_scan"}}, {"name": "8b0d01bb84218779843365ac8cfc8068", "fusion_lat": 0.0, "type": "electric_scooter", "lat": 38.918131333333335, "is_reserved": 0, "is_disabled": 0, "fusion_lon": 0.0, "bike_id": "8b0d01bb84218779843365ac8cfc8068", "lon": -77.03164366666667, "rental_uris": {"ios": "https://dc.lft.to/lastmile_qr_scan", "android": "https://dc.lft.to/lastmile_qr_scan"}}, {"name": "6b928b576df491f95cf0443da1a3893b", "fusion_lat": 0.0, "type": "electric_scooter", "lat": 38.92860866666667, "is_reserved": 0, "is_disabled": 0, "fusion_lon": 0.0, "bike_id": "6b928b576df491f95cf0443da1a3893b", "lon": -77.013803, "rental_uris": {"ios": "https://dc.lft.to/lastmile_qr_scan", "android": "https://dc.lft.to/lastmile_qr_scan"}}, {"name": "90da3546cc3f3dea2582abd071378517", "fusion_lat": 0.0, "type": "electric_scooter", "lat": 38.907583833333334, "is_reserved": 0, "is_disabled": 0, "fusion_lon": 0.0, "bike_id": "90da3546cc3f3dea2582abd071378517", "lon": -77.000312, "rental_uris": {"ios": "https://dc.lft.to/lastmile_qr_scan", "android": "https://dc.lft.to/lastmile_qr_scan"}}, {"name": "2280adfed400218a52c0443270feb206", "fusion_lat": 0.0, "type": "electric_scooter", "lat": 38.900437, "is_reserved": 0, "is_disabled": 0, "fusion_lon": 0.0, "bike_id": "2280adfed400218a52c0443270feb206", "lon": -77.04337683333334, "rental_uris": {"ios": "https://dc.lft.to/lastmile_qr_scan", "android": "https://dc.lft.to/lastmile_qr_scan"}}, {"name": "addc2eb58aa296e8199aceec1c2e8ad9", "fusion_lat": 0.0, "type": "electric_scooter", "lat": 38.9418415, "is_reserved": 0, "is_disabled": 0, "fusion_lon": 0.0, "bike_id": "addc2eb58aa296e8199aceec1c2e8ad9", "lon": -77.0248905, "rental_uris": {"ios": "https://dc.lft.to/lastmile_qr_scan", "android": "https://dc.lft.to/lastmile_qr_scan"}}, {"name": "2e24d8ba4322409cbe1dec2a0d75746a", "fusion_lat": 0.0, "type": "electric_scooter", "lat": 38.905073333333334, "is_reserved": 0, "is_disabled": 0, "fusion_lon": 0.0, "bike_id": "2e24d8ba4322409cbe1dec2a0d75746a", "lon": -77.06381716666667, "rental_uris": {"ios": "https://dc.lft.to/lastmile_qr_scan", "android": "https://dc.lft.to/lastmile_qr_scan"}}, {"name": "e31eb865fba4b347ef3f7214dfdbdb8c", "fusion_lat": 0.0, "type": "electric_scooter", "lat": 38.916199666666664, "is_reserved": 0, "is_disabled": 0, "fusion_lon": 0.0, "bike_id": "e31eb865fba4b347ef3f7214dfdbdb8c", "lon": -77.03849033333333, "rental_uris": {"ios": "https://dc.lft.to/lastmile_qr_scan", "android": "https://dc.lft.to/lastmile_qr_scan"}}, {"name": "8eee051a08c59d07e7a8ed7b1cff73b8", "fusion_lat": 0.0, "type": "electric_bike", "lat": 38.97326183333333, "is_reserved": 0, "is_disabled": 0, "fusion_lon": 0.0, "bike_id": "8eee051a08c59d07e7a8ed7b1cff73b8", "lon": -77.02149366666667, "rental_uris": {"ios": "https://dc.lft.to/lastmile_qr_scan", "android": "https://dc.lft.to/lastmile_qr_scan"}}, {"name": "1d697785dfebeb8b88fbdf02b56d2be5", "fusion_lat": 0.0, "type": "electric_scooter", "lat": 38.939952166666664, "is_reserved": 0, "is_disabled": 0, "fusion_lon": 0.0, "bike_id": "1d697785dfebeb8b88fbdf02b56d2be5", "lon": -77.029604, "rental_uris": {"ios": "https://dc.lft.to/lastmile_qr_scan", "android": "https://dc.lft.to/lastmile_qr_scan"}}, {"name": "ac0adcb890551dbcaf1fae9d624185d8", "fusion_lat": 0.0, "type": "electric_scooter", "lat": 38.89852716666667, "is_reserved": 0, "is_disabled": 0, "fusion_lon": 0.0, "bike_id": "ac0adcb890551dbcaf1fae9d624185d8", "lon": -76.99032133333333, "rental_uris": {"ios": "https://dc.lft.to/lastmile_qr_scan", "android": "https://dc.lft.to/lastmile_qr_scan"}}, {"name": "b0e8bbcabc42f5bb8a99226ea3ebb2c3", "fusion_lat": 0.0, "type": "electric_scooter", "lat": 38.920705833333336, "is_reserved": 0, "is_disabled": 0, "fusion_lon": 0.0, "bike_id": "b0e8bbcabc42f5bb8a99226ea3ebb2c3", "lon": -77.022135, "rental_uris": {"ios": "https://dc.lft.to/lastmile_qr_scan", "android": "https://dc.lft.to/lastmile_qr_scan"}}, {"name": "9b60a1aa6e597d72a170af005daf3754", "fusion_lat": 0.0, "type": "electric_scooter", "lat": 38.89763666666666, "is_reserved": 0, "is_disabled": 0, "fusion_lon": 0.0, "bike_id": "9b60a1aa6e597d72a170af005daf3754", "lon": -76.97723766666667, "rental_uris": {"ios": "https://dc.lft.to/lastmile_qr_scan", "android": "https://dc.lft.to/lastmile_qr_scan"}}, {"name": "f73635ffaeeaa95a67f0195dbf3a6d81", "fusion_lat": 0.0, "type": "electric_scooter", "lat": 38.944353666666665, "is_reserved": 0, "is_disabled": 0, "fusion_lon": 0.0, "bike_id": "f73635ffaeeaa95a67f0195dbf3a6d81", "lon": -77.03284866666667, "rental_uris": {"ios": "https://dc.lft.to/lastmile_qr_scan", "android": "https://dc.lft.to/lastmile_qr_scan"}}, {"name": "13ee7860d461c1fe7521d44edcfc44c1", "fusion_lat": 0.0, "type": "electric_bike", "lat": 38.917573833333336, "is_reserved": 0, "is_disabled": 0, "fusion_lon": 0.0, "bike_id": "13ee7860d461c1fe7521d44edcfc44c1", "lon": -77.01607133333333, "rental_uris": {"ios": "https://dc.lft.to/lastmile_qr_scan", "android": "https://dc.lft.to/lastmile_qr_scan"}}, {"name": "020304e93fe8fd21e90da2e7e459dbe2", "fusion_lat": 0.0, "type": "electric_scooter", "lat": 38.93735783333333, "is_reserved": 0, "is_disabled": 0, "fusion_lon": 0.0, "bike_id": "020304e93fe8fd21e90da2e7e459dbe2", "lon": -77.03279233333333, "rental_uris": {"ios": "https://dc.lft.to/lastmile_qr_scan", "android": "https://dc.lft.to/lastmile_qr_scan"}}, {"name": "5fa18e9ed85adeb8ea8d67cbc4db8247", "fusion_lat": 0.0, "type": "electric_scooter", "lat": 38.91560283333333, "is_reserved": 0, "is_disabled": 0, "fusion_lon": 0.0, "bike_id": "5fa18e9ed85adeb8ea8d67cbc4db8247", "lon": -77.01414933333334, "rental_uris": {"ios": "https://dc.lft.to/lastmile_qr_scan", "android": "https://dc.lft.to/lastmile_qr_scan"}}, {"name": "7ec5649a94e1dfd3e6ea8b576ea69e72", "fusion_lat": 0.0, "type": "electric_scooter", "lat": 38.92284883333333, "is_reserved": 0, "is_disabled": 0, "fusion_lon": 0.0, "bike_id": "7ec5649a94e1dfd3e6ea8b576ea69e72", "lon": -77.0366115, "rental_uris": {"ios": "https://dc.lft.to/lastmile_qr_scan", "android": "https://dc.lft.to/lastmile_qr_scan"}}, {"name": "2fcdcf6598a2af44685d9541878cb7df", "fusion_lat": 0.0, "type": "electric_scooter", "lat": 38.926850333333334, "is_reserved": 0, "is_disabled": 0, "fusion_lon": 0.0, "bike_id": "2fcdcf6598a2af44685d9541878cb7df", "lon": -77.06644666666666, "rental_uris": {"ios": "https://dc.lft.to/lastmile_qr_scan", "android": "https://dc.lft.to/lastmile_qr_scan"}}, {"name": "e10ad2986080a5238ce14621b5d03575", "fusion_lat": 0.0, "type": "electric_scooter", "lat": 38.9165415, "is_reserved": 0, "is_disabled": 0, "fusion_lon": 0.0, "bike_id": "e10ad2986080a5238ce14621b5d03575", "lon": -77.02300666666666, "rental_uris": {"ios": "https://dc.lft.to/lastmile_qr_scan", "android": "https://dc.lft.to/lastmile_qr_scan"}}, {"name": "dd402d31638be743e8c7be510ce682f4", "fusion_lat": 0.0, "type": "electric_scooter", "lat": 38.909588166666666, "is_reserved": 0, "is_disabled": 0, "fusion_lon": 0.0, "bike_id": "dd402d31638be743e8c7be510ce682f4", "lon": -77.01139766666667, "rental_uris": {"ios": "https://dc.lft.to/lastmile_qr_scan", "android": "https://dc.lft.to/lastmile_qr_scan"}}, {"name": "aa182b4cf0a1fe99524ebd71b386231a", "fusion_lat": 0.0, "type": "electric_bike", "lat": 38.9460255, "is_reserved": 0, "is_disabled": 0, "fusion_lon": 0.0, "bike_id": "aa182b4cf0a1fe99524ebd71b386231a", "lon": -77.02980933333333, "rental_uris": {"ios": "https://dc.lft.to/lastmile_qr_scan", "android": "https://dc.lft.to/lastmile_qr_scan"}}, {"name": "73777ad8f3e6cb1a6e123e3d2630cef8", "fusion_lat": 0.0, "type": "electric_scooter", "lat": 38.9103435, "is_reserved": 0, "is_disabled": 0, "fusion_lon": 0.0, "bike_id": "73777ad8f3e6cb1a6e123e3d2630cef8", "lon": -77.02394583333333, "rental_uris": {"ios": "https://dc.lft.to/lastmile_qr_scan", "android": "https://dc.lft.to/lastmile_qr_scan"}}, {"name": "bf30c2ddb66e0def931c926fd14a6b61", "fusion_lat": 0.0, "type": "electric_bike", "lat": 38.85407333333333, "is_reserved": 0, "is_disabled": 0, "fusion_lon": 0.0, "bike_id": "bf30c2ddb66e0def931c926fd14a6b61", "lon": -77.11827766666667, "rental_uris": {"ios": "https://dc.lft.to/lastmile_qr_scan", "android": "https://dc.lft.to/lastmile_qr_scan"}}, {"name": "0914a4b75c4983c822790aaf064ceae6", "fusion_lat": 0.0, "type": "electric_scooter", "lat": 38.91417666666667, "is_reserved": 0, "is_disabled": 0, "fusion_lon": 0.0, "bike_id": "0914a4b75c4983c822790aaf064ceae6", "lon": -77.026466, "rental_uris": {"ios": "https://dc.lft.to/lastmile_qr_scan", "android": "https://dc.lft.to/lastmile_qr_scan"}}, {"name": "df55c58d67e62e5735f1efcb6f5b43ff", "fusion_lat": 0.0, "type": "electric_scooter", "lat": 38.904652, "is_reserved": 0, "is_disabled": 0, "fusion_lon": 0.0, "bike_id": "df55c58d67e62e5735f1efcb6f5b43ff", "lon": -77.048249, "rental_uris": {"ios": "https://dc.lft.to/lastmile_qr_scan", "android": "https://dc.lft.to/lastmile_qr_scan"}}, {"name": "460224402c397638d5a2b01372e18ed4", "fusion_lat": 0.0, "type": "electric_bike", "lat": 39.038816, "is_reserved": 0, "is_disabled": 0, "fusion_lon": 0.0, "bike_id": "460224402c397638d5a2b01372e18ed4", "lon": -76.99045483333333, "rental_uris": {"ios": "https://dc.lft.to/lastmile_qr_scan", "android": "https://dc.lft.to/lastmile_qr_scan"}}, {"name": "5954dd9e387ae5737de0318a55faf5d9", "fusion_lat": 0.0, "type": "electric_scooter", "lat": 38.93909683333333, "is_reserved": 0, "is_disabled": 0, "fusion_lon": 0.0, "bike_id": "5954dd9e387ae5737de0318a55faf5d9", "lon": -77.0604715, "rental_uris": {"ios": "https://dc.lft.to/lastmile_qr_scan", "android": "https://dc.lft.to/lastmile_qr_scan"}}, {"name": "a08f562b90038dad123b6fe6d01993c4", "fusion_lat": 0.0, "type": "electric_scooter", "lat": 38.88503583333333, "is_reserved": 0, "is_disabled": 0, "fusion_lon": 0.0, "bike_id": "a08f562b90038dad123b6fe6d01993c4", "lon": -77.03074616666666, "rental_uris": {"ios": "https://dc.lft.to/lastmile_qr_scan", "android": "https://dc.lft.to/lastmile_qr_scan"}}, {"name": "8b3eeb7ad8d65fb26938af1ad41e24b8", "fusion_lat": 0.0, "type": "electric_scooter", "lat": 38.90576216666667, "is_reserved": 0, "is_disabled": 0, "fusion_lon": 0.0, "bike_id": "8b3eeb7ad8d65fb26938af1ad41e24b8", "lon": -77.029887, "rental_uris": {"ios": "https://dc.lft.to/lastmile_qr_scan", "android": "https://dc.lft.to/lastmile_qr_scan"}}, {"name": "7374ae4d17f73122410a33f63baeb417", "fusion_lat": 0.0, "type": "electric_bike", "lat": 38.9348675, "is_reserved": 0, "is_disabled": 0, "fusion_lon": 0.0, "bike_id": "7374ae4d17f73122410a33f63baeb417", "lon": -77.03013666666666, "rental_uris": {"ios": "https://dc.lft.to/lastmile_qr_scan", "android": "https://dc.lft.to/lastmile_qr_scan"}}, {"name": "4efe5a0c78815c8602e88c04059f01b2", "fusion_lat": 0.0, "type": "electric_scooter", "lat": 38.90576566666667, "is_reserved": 0, "is_disabled": 0, "fusion_lon": 0.0, "bike_id": "4efe5a0c78815c8602e88c04059f01b2", "lon": -77.02985966666667, "rental_uris": {"ios": "https://dc.lft.to/lastmile_qr_scan", "android": "https://dc.lft.to/lastmile_qr_scan"}}, {"name": "c473087e3e43d0be699d59d3c1bf4c09", "fusion_lat": 0.0, "type": "electric_scooter", "lat": 38.920507666666666, "is_reserved": 0, "is_disabled": 0, "fusion_lon": 0.0, "bike_id": "c473087e3e43d0be699d59d3c1bf4c09", "lon": -77.03444, "rental_uris": {"ios": "https://dc.lft.to/lastmile_qr_scan", "android": "https://dc.lft.to/lastmile_qr_scan"}}, {"name": "272bb78c951db2ef8fced1a513cabf91", "fusion_lat": 0.0, "type": "electric_scooter", "lat": 38.90067066666667, "is_reserved": 0, "is_disabled": 0, "fusion_lon": 0.0, "bike_id": "272bb78c951db2ef8fced1a513cabf91", "lon": -77.04510633333334, "rental_uris": {"ios": "https://dc.lft.to/lastmile_qr_scan", "android": "https://dc.lft.to/lastmile_qr_scan"}}, {"name": "4ebcf934e2a3990b0e54d4c3cd49cbaa", "fusion_lat": 0.0, "type": "electric_scooter", "lat": 38.9187015, "is_reserved": 0, "is_disabled": 0, "fusion_lon": 0.0, "bike_id": "4ebcf934e2a3990b0e54d4c3cd49cbaa", "lon": -77.04138983333333, "rental_uris": {"ios": "https://dc.lft.to/lastmile_qr_scan", "android": "https://dc.lft.to/lastmile_qr_scan"}}, {"name": "d6d839aa1a804f031952d69da4376f33", "fusion_lat": 0.0, "type": "electric_scooter", "lat": 38.92753716666667, "is_reserved": 0, "is_disabled": 0, "fusion_lon": 0.0, "bike_id": "d6d839aa1a804f031952d69da4376f33", "lon": -77.03276033333333, "rental_uris": {"ios": "https://dc.lft.to/lastmile_qr_scan", "android": "https://dc.lft.to/lastmile_qr_scan"}}, {"name": "620571a24f11213f7e4b4825f0a91103", "fusion_lat": 0.0, "type": "electric_scooter", "lat": 38.9262855, "is_reserved": 0, "is_disabled": 0, "fusion_lon": 0.0, "bike_id": "620571a24f11213f7e4b4825f0a91103", "lon": -77.03513916666667, "rental_uris": {"ios": "https://dc.lft.to/lastmile_qr_scan", "android": "https://dc.lft.to/lastmile_qr_scan"}}, {"name": "7b7030defb44100fd09df4b6eed79922", "fusion_lat": 0.0, "type": "electric_scooter", "lat": 38.90475766666667, "is_reserved": 0, "is_disabled": 0, "fusion_lon": 0.0, "bike_id": "7b7030defb44100fd09df4b6eed79922", "lon": -77.02705766666666, "rental_uris": {"ios": "https://dc.lft.to/lastmile_qr_scan", "android": "https://dc.lft.to/lastmile_qr_scan"}}, {"name": "7d3e58361981f4ffe8293a0faa3f5252", "fusion_lat": 0.0, "type": "electric_scooter", "lat": 38.92064933333333, "is_reserved": 0, "is_disabled": 0, "fusion_lon": 0.0, "bike_id": "7d3e58361981f4ffe8293a0faa3f5252", "lon": -76.97802133333333, "rental_uris": {"ios": "https://dc.lft.to/lastmile_qr_scan", "android": "https://dc.lft.to/lastmile_qr_scan"}}, {"name": "42b9965f0c8418a87f401f886ac22282", "fusion_lat": 0.0, "type": "electric_scooter", "lat": 38.917221833333336, "is_reserved": 0, "is_disabled": 0, "fusion_lon": 0.0, "bike_id": "42b9965f0c8418a87f401f886ac22282", "lon": -77.00818483333333, "rental_uris": {"ios": "https://dc.lft.to/lastmile_qr_scan", "android": "https://dc.lft.to/lastmile_qr_scan"}}, {"name": "24e11f57597486bb3034028d2bb55b47", "fusion_lat": 0.0, "type": "electric_scooter", "lat": 38.90779666666667, "is_reserved": 0, "is_disabled": 0, "fusion_lon": 0.0, "bike_id": "24e11f57597486bb3034028d2bb55b47", "lon": -77.038635, "rental_uris": {"ios": "https://dc.lft.to/lastmile_qr_scan", "android": "https://dc.lft.to/lastmile_qr_scan"}}, {"name": "06cb7828cfaec27c61d9285610e216dd", "fusion_lat": 0.0, "type": "electric_scooter", "lat": 38.9192205, "is_reserved": 0, "is_disabled": 0, "fusion_lon": 0.0, "bike_id": "06cb7828cfaec27c61d9285610e216dd", "lon": -77.024137, "rental_uris": {"ios": "https://dc.lft.to/lastmile_qr_scan", "android": "https://dc.lft.to/lastmile_qr_scan"}}, {"name": "4850b4c270de5e2294e480c9b0c0c68e", "fusion_lat": 0.0, "type": "electric_scooter", "lat": 38.925165, "is_reserved": 0, "is_disabled": 0, "fusion_lon": 0.0, "bike_id": "4850b4c270de5e2294e480c9b0c0c68e", "lon": -77.02559433333333, "rental_uris": {"ios": "https://dc.lft.to/lastmile_qr_scan", "android": "https://dc.lft.to/lastmile_qr_scan"}}, {"name": "daab03cec8f08e0799012339355726ac", "fusion_lat": 0.0, "type": "electric_scooter", "lat": 38.910981666666665, "is_reserved": 0, "is_disabled": 0, "fusion_lon": 0.0, "bike_id": "daab03cec8f08e0799012339355726ac", "lon": -77.0297455, "rental_uris": {"ios": "https://dc.lft.to/lastmile_qr_scan", "android": "https://dc.lft.to/lastmile_qr_scan"}}, {"name": "491dc4391c72d2f98487480591efab0c", "fusion_lat": 0.0, "type": "electric_scooter", "lat": 38.909166, "is_reserved": 0, "is_disabled": 0, "fusion_lon": 0.0, "bike_id": "491dc4391c72d2f98487480591efab0c", "lon": -77.04161733333333, "rental_uris": {"ios": "https://dc.lft.to/lastmile_qr_scan", "android": "https://dc.lft.to/lastmile_qr_scan"}}, {"name": "6d4d350771fc296f8e30fe39371a5844", "fusion_lat": 0.0, "type": "electric_scooter", "lat": 38.88353683333333, "is_reserved": 0, "is_disabled": 0, "fusion_lon": 0.0, "bike_id": "6d4d350771fc296f8e30fe39371a5844", "lon": -77.01556566666666, "rental_uris": {"ios": "https://dc.lft.to/lastmile_qr_scan", "android": "https://dc.lft.to/lastmile_qr_scan"}}, {"name": "8c3e5f550b9a61edb31a0561051a5271", "fusion_lat": 0.0, "type": "electric_bike", "lat": 38.96438916666666, "is_reserved": 0, "is_disabled": 0, "fusion_lon": 0.0, "bike_id": "8c3e5f550b9a61edb31a0561051a5271", "lon": -77.03164683333334, "rental_uris": {"ios": "https://dc.lft.to/lastmile_qr_scan", "android": "https://dc.lft.to/lastmile_qr_scan"}}, {"name": "dfc18faf7dccf1d647abc6e9aab91728", "fusion_lat": 0.0, "type": "electric_scooter", "lat": 38.86534283333334, "is_reserved": 0, "is_disabled": 0, "fusion_lon": 0.0, "bike_id": "dfc18faf7dccf1d647abc6e9aab91728", "lon": -76.987087, "rental_uris": {"ios": "https://dc.lft.to/lastmile_qr_scan", "android": "https://dc.lft.to/lastmile_qr_scan"}}, {"name": "c2eaf62b658f6e73112abcfa07e3bf90", "fusion_lat": 0.0, "type": "electric_scooter", "lat": 38.9053425, "is_reserved": 0, "is_disabled": 0, "fusion_lon": 0.0, "bike_id": "c2eaf62b658f6e73112abcfa07e3bf90", "lon": -77.05037816666666, "rental_uris": {"ios": "https://dc.lft.to/lastmile_qr_scan", "android": "https://dc.lft.to/lastmile_qr_scan"}}, {"name": "5ae847795ab1f451a46e7a831b9d4d3e", "fusion_lat": 0.0, "type": "electric_scooter", "lat": 38.909720166666666, "is_reserved": 0, "is_disabled": 0, "fusion_lon": 0.0, "bike_id": "5ae847795ab1f451a46e7a831b9d4d3e", "lon": -77.01686266666667, "rental_uris": {"ios": "https://dc.lft.to/lastmile_qr_scan", "android": "https://dc.lft.to/lastmile_qr_scan"}}, {"name": "7147f71a647a9bdd54128fe108ba2890", "fusion_lat": 0.0, "type": "electric_scooter", "lat": 38.916301, "is_reserved": 0, "is_disabled": 0, "fusion_lon": 0.0, "bike_id": "7147f71a647a9bdd54128fe108ba2890", "lon": -77.001071, "rental_uris": {"ios": "https://dc.lft.to/lastmile_qr_scan", "android": "https://dc.lft.to/lastmile_qr_scan"}}, {"name": "dedcaf45505c2f1df2a11ba668029b79", "fusion_lat": 0.0, "type": "electric_scooter", "lat": 38.975064333333336, "is_reserved": 0, "is_disabled": 0, "fusion_lon": 0.0, "bike_id": "dedcaf45505c2f1df2a11ba668029b79", "lon": -77.01693666666667, "rental_uris": {"ios": "https://dc.lft.to/lastmile_qr_scan", "android": "https://dc.lft.to/lastmile_qr_scan"}}, {"name": "5a67edfa06a5c2985efc1a4e30a83e42", "fusion_lat": 0.0, "type": "electric_scooter", "lat": 38.8964735, "is_reserved": 0, "is_disabled": 0, "fusion_lon": 0.0, "bike_id": "5a67edfa06a5c2985efc1a4e30a83e42", "lon": -77.02590066666667, "rental_uris": {"ios": "https://dc.lft.to/lastmile_qr_scan", "android": "https://dc.lft.to/lastmile_qr_scan"}}, {"name": "7774b04b3e3502a0362df68b846b6212", "fusion_lat": 0.0, "type": "electric_scooter", "lat": 38.90147316666667, "is_reserved": 0, "is_disabled": 0, "fusion_lon": 0.0, "bike_id": "7774b04b3e3502a0362df68b846b6212", "lon": -77.0396345, "rental_uris": {"ios": "https://dc.lft.to/lastmile_qr_scan", "android": "https://dc.lft.to/lastmile_qr_scan"}}, {"name": "79fa4594978e29df987de0e62f1c5598", "fusion_lat": 0.0, "type": "electric_scooter", "lat": 38.889890333333334, "is_reserved": 0, "is_disabled": 0, "fusion_lon": 0.0, "bike_id": "79fa4594978e29df987de0e62f1c5598", "lon": -76.95419083333333, "rental_uris": {"ios": "https://dc.lft.to/lastmile_qr_scan", "android": "https://dc.lft.to/lastmile_qr_scan"}}, {"name": "dde22c77d35e0c67126f3596c2159b4d", "fusion_lat": 0.0, "type": "electric_scooter", "lat": 38.90270266666667, "is_reserved": 0, "is_disabled": 0, "fusion_lon": 0.0, "bike_id": "dde22c77d35e0c67126f3596c2159b4d", "lon": -77.01790916666667, "rental_uris": {"ios": "https://dc.lft.to/lastmile_qr_scan", "android": "https://dc.lft.to/lastmile_qr_scan"}}, {"name": "340c986bbb6ec0b0e650c24accc8a157", "fusion_lat": 0.0, "type": "electric_scooter", "lat": 38.912136833333335, "is_reserved": 0, "is_disabled": 0, "fusion_lon": 0.0, "bike_id": "340c986bbb6ec0b0e650c24accc8a157", "lon": -77.07594733333333, "rental_uris": {"ios": "https://dc.lft.to/lastmile_qr_scan", "android": "https://dc.lft.to/lastmile_qr_scan"}}, {"name": "d613e014b78ed15a084ef0ccf3da0907", "fusion_lat": 0.0, "type": "electric_scooter", "lat": 38.8428975, "is_reserved": 0, "is_disabled": 0, "fusion_lon": 0.0, "bike_id": "d613e014b78ed15a084ef0ccf3da0907", "lon": -76.99948066666667, "rental_uris": {"ios": "https://dc.lft.to/lastmile_qr_scan", "android": "https://dc.lft.to/lastmile_qr_scan"}}, {"name": "5b4487d77a35f7ac90ef0123f31e79e0", "fusion_lat": 0.0, "type": "electric_scooter", "lat": 38.911868, "is_reserved": 0, "is_disabled": 0, "fusion_lon": 0.0, "bike_id": "5b4487d77a35f7ac90ef0123f31e79e0", "lon": -77.0608985, "rental_uris": {"ios": "https://dc.lft.to/lastmile_qr_scan", "android": "https://dc.lft.to/lastmile_qr_scan"}}, {"name": "fbc2b41b7c518b0a299d807f720ebe5e", "fusion_lat": 0.0, "type": "electric_scooter", "lat": 38.923395166666666, "is_reserved": 0, "is_disabled": 0, "fusion_lon": 0.0, "bike_id": "fbc2b41b7c518b0a299d807f720ebe5e", "lon": -77.050163, "rental_uris": {"ios": "https://dc.lft.to/lastmile_qr_scan", "android": "https://dc.lft.to/lastmile_qr_scan"}}, {"name": "74a35b46238fb841f364b46e3c4b43c9", "fusion_lat": 0.0, "type": "electric_scooter", "lat": 38.897308833333334, "is_reserved": 0, "is_disabled": 0, "fusion_lon": 0.0, "bike_id": "74a35b46238fb841f364b46e3c4b43c9", "lon": -76.947226, "rental_uris": {"ios": "https://dc.lft.to/lastmile_qr_scan", "android": "https://dc.lft.to/lastmile_qr_scan"}}, {"name": "e7ee2649f833b47f918050da2980c7f9", "fusion_lat": 0.0, "type": "electric_bike", "lat": 38.93598566666667, "is_reserved": 0, "is_disabled": 0, "fusion_lon": 0.0, "bike_id": "e7ee2649f833b47f918050da2980c7f9", "lon": -77.0211835, "rental_uris": {"ios": "https://dc.lft.to/lastmile_qr_scan", "android": "https://dc.lft.to/lastmile_qr_scan"}}, {"name": "5bfce4af039b788672b93c24d9fbd951", "fusion_lat": 0.0, "type": "electric_scooter", "lat": 38.93378116666667, "is_reserved": 0, "is_disabled": 0, "fusion_lon": 0.0, "bike_id": "5bfce4af039b788672b93c24d9fbd951", "lon": -77.05762633333333, "rental_uris": {"ios": "https://dc.lft.to/lastmile_qr_scan", "android": "https://dc.lft.to/lastmile_qr_scan"}}, {"name": "9d134ec74a25e204bd3a3538780b36bf", "fusion_lat": 0.0, "type": "electric_scooter", "lat": 38.90846616666666, "is_reserved": 0, "is_disabled": 0, "fusion_lon": 0.0, "bike_id": "9d134ec74a25e204bd3a3538780b36bf", "lon": -77.02044216666667, "rental_uris": {"ios": "https://dc.lft.to/lastmile_qr_scan", "android": "https://dc.lft.to/lastmile_qr_scan"}}, {"name": "f42967625c57561bbab972ae0e3c3d65", "fusion_lat": 0.0, "type": "electric_scooter", "lat": 38.90160916666667, "is_reserved": 0, "is_disabled": 0, "fusion_lon": 0.0, "bike_id": "f42967625c57561bbab972ae0e3c3d65", "lon": -77.02184466666667, "rental_uris": {"ios": "https://dc.lft.to/lastmile_qr_scan", "android": "https://dc.lft.to/lastmile_qr_scan"}}, {"name": "68381efb32332d918f782bfadbf7a70b", "fusion_lat": 0.0, "type": "electric_scooter", "lat": 38.91252016666667, "is_reserved": 0, "is_disabled": 0, "fusion_lon": 0.0, "bike_id": "68381efb32332d918f782bfadbf7a70b", "lon": -77.0222745, "rental_uris": {"ios": "https://dc.lft.to/lastmile_qr_scan", "android": "https://dc.lft.to/lastmile_qr_scan"}}, {"name": "ed42002807a12fa5ff3e6563f488d4b3", "fusion_lat": 0.0, "type": "electric_scooter", "lat": 38.94290566666667, "is_reserved": 0, "is_disabled": 0, "fusion_lon": 0.0, "bike_id": "ed42002807a12fa5ff3e6563f488d4b3", "lon": -77.02172783333333, "rental_uris": {"ios": "https://dc.lft.to/lastmile_qr_scan", "android": "https://dc.lft.to/lastmile_qr_scan"}}, {"name": "4f85c373a99a4ae8eda84c3b638fc092", "fusion_lat": 0.0, "type": "electric_scooter", "lat": 38.929986666666665, "is_reserved": 0, "is_disabled": 0, "fusion_lon": 0.0, "bike_id": "4f85c373a99a4ae8eda84c3b638fc092", "lon": -77.02306566666667, "rental_uris": {"ios": "https://dc.lft.to/lastmile_qr_scan", "android": "https://dc.lft.to/lastmile_qr_scan"}}, {"name": "2c7f25e21d89889d4a2747edd590bbf4", "fusion_lat": 0.0, "type": "electric_scooter", "lat": 38.89728733333333, "is_reserved": 0, "is_disabled": 0, "fusion_lon": 0.0, "bike_id": "2c7f25e21d89889d4a2747edd590bbf4", "lon": -76.942499, "rental_uris": {"ios": "https://dc.lft.to/lastmile_qr_scan", "android": "https://dc.lft.to/lastmile_qr_scan"}}, {"name": "5147108ee8157709632b5ffed688295b", "fusion_lat": 0.0, "type": "electric_scooter", "lat": 38.91414966666667, "is_reserved": 0, "is_disabled": 0, "fusion_lon": 0.0, "bike_id": "5147108ee8157709632b5ffed688295b", "lon": -77.03169633333333, "rental_uris": {"ios": "https://dc.lft.to/lastmile_qr_scan", "android": "https://dc.lft.to/lastmile_qr_scan"}}, {"name": "bba4e99009909dbbb2089613b40e23de", "fusion_lat": 0.0, "type": "electric_scooter", "lat": 38.90025216666667, "is_reserved": 0, "is_disabled": 0, "fusion_lon": 0.0, "bike_id": "bba4e99009909dbbb2089613b40e23de", "lon": -77.03330383333333, "rental_uris": {"ios": "https://dc.lft.to/lastmile_qr_scan", "android": "https://dc.lft.to/lastmile_qr_scan"}}, {"name": "1ccfbb2c3f0ba28f3bd7612ceec4dcda", "fusion_lat": 0.0, "type": "electric_scooter", "lat": 38.907992166666666, "is_reserved": 0, "is_disabled": 0, "fusion_lon": 0.0, "bike_id": "1ccfbb2c3f0ba28f3bd7612ceec4dcda", "lon": -77.04824166666667, "rental_uris": {"ios": "https://dc.lft.to/lastmile_qr_scan", "android": "https://dc.lft.to/lastmile_qr_scan"}}, {"name": "32b836e9d70a0066596c9c7be83728c4", "fusion_lat": 0.0, "type": "electric_scooter", "lat": 38.9085945, "is_reserved": 0, "is_disabled": 0, "fusion_lon": 0.0, "bike_id": "32b836e9d70a0066596c9c7be83728c4", "lon": -77.027127, "rental_uris": {"ios": "https://dc.lft.to/lastmile_qr_scan", "android": "https://dc.lft.to/lastmile_qr_scan"}}, {"name": "d2ad0ce94fd760c51896a37aec34850a", "fusion_lat": 0.0, "type": "electric_scooter", "lat": 38.909622666666664, "is_reserved": 0, "is_disabled": 0, "fusion_lon": 0.0, "bike_id": "d2ad0ce94fd760c51896a37aec34850a", "lon": -77.03868766666666, "rental_uris": {"ios": "https://dc.lft.to/lastmile_qr_scan", "android": "https://dc.lft.to/lastmile_qr_scan"}}, {"name": "9041674b0d8e506b01eea0c879052eb2", "fusion_lat": 0.0, "type": "electric_bike", "lat": 38.89684416666667, "is_reserved": 0, "is_disabled": 0, "fusion_lon": 0.0, "bike_id": "9041674b0d8e506b01eea0c879052eb2", "lon": -76.94065916666666, "rental_uris": {"ios": "https://dc.lft.to/lastmile_qr_scan", "android": "https://dc.lft.to/lastmile_qr_scan"}}, {"name": "7c45caabb2aa35e3f6cb821bb71a3d91", "fusion_lat": 0.0, "type": "electric_scooter", "lat": 38.93309216666667, "is_reserved": 0, "is_disabled": 0, "fusion_lon": 0.0, "bike_id": "7c45caabb2aa35e3f6cb821bb71a3d91", "lon": -77.03095233333333, "rental_uris": {"ios": "https://dc.lft.to/lastmile_qr_scan", "android": "https://dc.lft.to/lastmile_qr_scan"}}, {"name": "a2b3da4d610c822149c7b0dfc0d4efc6", "fusion_lat": 0.0, "type": "electric_scooter", "lat": 38.93187183333333, "is_reserved": 0, "is_disabled": 0, "fusion_lon": 0.0, "bike_id": "a2b3da4d610c822149c7b0dfc0d4efc6", "lon": -77.02800083333334, "rental_uris": {"ios": "https://dc.lft.to/lastmile_qr_scan", "android": "https://dc.lft.to/lastmile_qr_scan"}}, {"name": "0aa09e546fe06364369b72a88c6b74c5", "fusion_lat": 0.0, "type": "electric_scooter", "lat": 38.92382666666666, "is_reserved": 0, "is_disabled": 0, "fusion_lon": 0.0, "bike_id": "0aa09e546fe06364369b72a88c6b74c5", "lon": -77.029565, "rental_uris": {"ios": "https://dc.lft.to/lastmile_qr_scan", "android": "https://dc.lft.to/lastmile_qr_scan"}}, {"name": "7e72e1865f7a2c7fb2c5a931bdc92911", "fusion_lat": 0.0, "type": "electric_bike", "lat": 38.91402333333333, "is_reserved": 0, "is_disabled": 0, "fusion_lon": 0.0, "bike_id": "7e72e1865f7a2c7fb2c5a931bdc92911", "lon": -77.0322585, "rental_uris": {"ios": "https://dc.lft.to/lastmile_qr_scan", "android": "https://dc.lft.to/lastmile_qr_scan"}}, {"name": "2158fb365312fad3646594ddea9081db", "fusion_lat": 0.0, "type": "electric_bike", "lat": 38.8863805, "is_reserved": 0, "is_disabled": 0, "fusion_lon": 0.0, "bike_id": "2158fb365312fad3646594ddea9081db", "lon": -76.95465183333333, "rental_uris": {"ios": "https://dc.lft.to/lastmile_qr_scan", "android": "https://dc.lft.to/lastmile_qr_scan"}}, {"name": "7af46c96934cf5133d81241e7ebf7568", "fusion_lat": 0.0, "type": "electric_scooter", "lat": 38.90379183333334, "is_reserved": 0, "is_disabled": 0, "fusion_lon": 0.0, "bike_id": "7af46c96934cf5133d81241e7ebf7568", "lon": -77.0451845, "rental_uris": {"ios": "https://dc.lft.to/lastmile_qr_scan", "android": "https://dc.lft.to/lastmile_qr_scan"}}, {"name": "0c86fd0582f8795baef704b882012d71", "fusion_lat": 0.0, "type": "electric_scooter", "lat": 38.91001633333333, "is_reserved": 0, "is_disabled": 0, "fusion_lon": 0.0, "bike_id": "0c86fd0582f8795baef704b882012d71", "lon": -77.04003716666666, "rental_uris": {"ios": "https://dc.lft.to/lastmile_qr_scan", "android": "https://dc.lft.to/lastmile_qr_scan"}}, {"name": "9073617c4ec77c511f5b3288347edffc", "fusion_lat": 0.0, "type": "electric_scooter", "lat": 38.912541166666664, "is_reserved": 0, "is_disabled": 0, "fusion_lon": 0.0, "bike_id": "9073617c4ec77c511f5b3288347edffc", "lon": -77.0077915, "rental_uris": {"ios": "https://dc.lft.to/lastmile_qr_scan", "android": "https://dc.lft.to/lastmile_qr_scan"}}, {"name": "d37d6159aa71a72ee06b085ee679ecea", "fusion_lat": 0.0, "type": "electric_scooter", "lat": 38.91420633333333, "is_reserved": 0, "is_disabled": 0, "fusion_lon": 0.0, "bike_id": "d37d6159aa71a72ee06b085ee679ecea", "lon": -77.04156533333334, "rental_uris": {"ios": "https://dc.lft.to/lastmile_qr_scan", "android": "https://dc.lft.to/lastmile_qr_scan"}}, {"name": "b0f8dc669f714be53b893f8049825fc7", "fusion_lat": 0.0, "type": "electric_scooter", "lat": 38.886135, "is_reserved": 0, "is_disabled": 0, "fusion_lon": 0.0, "bike_id": "b0f8dc669f714be53b893f8049825fc7", "lon": -76.978187, "rental_uris": {"ios": "https://dc.lft.to/lastmile_qr_scan", "android": "https://dc.lft.to/lastmile_qr_scan"}}, {"name": "3c74b698269e3b68fd7147cd99369d26", "fusion_lat": 0.0, "type": "electric_scooter", "lat": 38.92128316666667, "is_reserved": 0, "is_disabled": 0, "fusion_lon": 0.0, "bike_id": "3c74b698269e3b68fd7147cd99369d26", "lon": -77.04576133333333, "rental_uris": {"ios": "https://dc.lft.to/lastmile_qr_scan", "android": "https://dc.lft.to/lastmile_qr_scan"}}, {"name": "47125de8c4b58eba828a6b17ab0aed48", "fusion_lat": 0.0, "type": "electric_bike", "lat": 38.898357, "is_reserved": 0, "is_disabled": 0, "fusion_lon": 0.0, "bike_id": "47125de8c4b58eba828a6b17ab0aed48", "lon": -77.11800766666667, "rental_uris": {"ios": "https://dc.lft.to/lastmile_qr_scan", "android": "https://dc.lft.to/lastmile_qr_scan"}}, {"name": "ff7e6aa66ed8faa0bc9dc2d2e9ef78a4", "fusion_lat": 0.0, "type": "electric_scooter", "lat": 38.9335995, "is_reserved": 0, "is_disabled": 0, "fusion_lon": 0.0, "bike_id": "ff7e6aa66ed8faa0bc9dc2d2e9ef78a4", "lon": -77.05726016666667, "rental_uris": {"ios": "https://dc.lft.to/lastmile_qr_scan", "android": "https://dc.lft.to/lastmile_qr_scan"}}, {"name": "aabe08c305ad230b4446209a6cc98b79", "fusion_lat": 0.0, "type": "electric_scooter", "lat": 38.92056066666667, "is_reserved": 0, "is_disabled": 0, "fusion_lon": 0.0, "bike_id": "aabe08c305ad230b4446209a6cc98b79", "lon": -77.02932616666666, "rental_uris": {"ios": "https://dc.lft.to/lastmile_qr_scan", "android": "https://dc.lft.to/lastmile_qr_scan"}}, {"name": "af4f2b816ca516cb4ead7a7c358dad97", "fusion_lat": 0.0, "type": "electric_scooter", "lat": 38.91575566666667, "is_reserved": 0, "is_disabled": 0, "fusion_lon": 0.0, "bike_id": "af4f2b816ca516cb4ead7a7c358dad97", "lon": -77.0320245, "rental_uris": {"ios": "https://dc.lft.to/lastmile_qr_scan", "android": "https://dc.lft.to/lastmile_qr_scan"}}, {"name": "de1cbb7a15d1788debd86520ff26b967", "fusion_lat": 0.0, "type": "electric_scooter", "lat": 38.922289166666665, "is_reserved": 0, "is_disabled": 0, "fusion_lon": 0.0, "bike_id": "de1cbb7a15d1788debd86520ff26b967", "lon": -77.04251766666667, "rental_uris": {"ios": "https://dc.lft.to/lastmile_qr_scan", "android": "https://dc.lft.to/lastmile_qr_scan"}}, {"name": "0ae03b50e817d7eab43a1342ed8d0154", "fusion_lat": 0.0, "type": "electric_scooter", "lat": 38.95869966666667, "is_reserved": 0, "is_disabled": 0, "fusion_lon": 0.0, "bike_id": "0ae03b50e817d7eab43a1342ed8d0154", "lon": -77.0205045, "rental_uris": {"ios": "https://dc.lft.to/lastmile_qr_scan", "android": "https://dc.lft.to/lastmile_qr_scan"}}, {"name": "be743e6027ab66f213e9175323874b3b", "fusion_lat": 0.0, "type": "electric_scooter", "lat": 38.929067, "is_reserved": 0, "is_disabled": 0, "fusion_lon": 0.0, "bike_id": "be743e6027ab66f213e9175323874b3b", "lon": -77.02616816666666, "rental_uris": {"ios": "https://dc.lft.to/lastmile_qr_scan", "android": "https://dc.lft.to/lastmile_qr_scan"}}, {"name": "1e74d8a74a588363e8ef8fcaca86f8cc", "fusion_lat": 0.0, "type": "electric_scooter", "lat": 38.909596666666665, "is_reserved": 0, "is_disabled": 0, "fusion_lon": 0.0, "bike_id": "1e74d8a74a588363e8ef8fcaca86f8cc", "lon": -77.04134983333333, "rental_uris": {"ios": "https://dc.lft.to/lastmile_qr_scan", "android": "https://dc.lft.to/lastmile_qr_scan"}}, {"name": "c153981e0b5cffbfa67187ecf4fb864b", "fusion_lat": 0.0, "type": "electric_scooter", "lat": 38.84288816666667, "is_reserved": 0, "is_disabled": 0, "fusion_lon": 0.0, "bike_id": "c153981e0b5cffbfa67187ecf4fb864b", "lon": -76.9994975, "rental_uris": {"ios": "https://dc.lft.to/lastmile_qr_scan", "android": "https://dc.lft.to/lastmile_qr_scan"}}, {"name": "530352e8018bc0fb6e8f8cb0969ef2f6", "fusion_lat": 0.0, "type": "electric_bike", "lat": 38.85243466666667, "is_reserved": 0, "is_disabled": 0, "fusion_lon": 0.0, "bike_id": "530352e8018bc0fb6e8f8cb0969ef2f6", "lon": -77.11429583333333, "rental_uris": {"ios": "https://dc.lft.to/lastmile_qr_scan", "android": "https://dc.lft.to/lastmile_qr_scan"}}, {"name": "bf125d22db4834cfdac560508ab377d4", "fusion_lat": 0.0, "type": "electric_scooter", "lat": 38.95403666666667, "is_reserved": 0, "is_disabled": 0, "fusion_lon": 0.0, "bike_id": "bf125d22db4834cfdac560508ab377d4", "lon": -77.027504, "rental_uris": {"ios": "https://dc.lft.to/lastmile_qr_scan", "android": "https://dc.lft.to/lastmile_qr_scan"}}, {"name": "2cbb32390813e1c3100f91383f715c87", "fusion_lat": 0.0, "type": "electric_scooter", "lat": 38.90259183333333, "is_reserved": 0, "is_disabled": 0, "fusion_lon": 0.0, "bike_id": "2cbb32390813e1c3100f91383f715c87", "lon": -77.038405, "rental_uris": {"ios": "https://dc.lft.to/lastmile_qr_scan", "android": "https://dc.lft.to/lastmile_qr_scan"}}, {"name": "984aec091c611bb95191a77153782f76", "fusion_lat": 0.0, "type": "electric_scooter", "lat": 38.914045333333334, "is_reserved": 0, "is_disabled": 0, "fusion_lon": 0.0, "bike_id": "984aec091c611bb95191a77153782f76", "lon": -77.02727033333333, "rental_uris": {"ios": "https://dc.lft.to/lastmile_qr_scan", "android": "https://dc.lft.to/lastmile_qr_scan"}}, {"name": "1fcd7c9535feaaf0d098c88d5d63b2af", "fusion_lat": 0.0, "type": "electric_scooter", "lat": 38.9180075, "is_reserved": 0, "is_disabled": 0, "fusion_lon": 0.0, "bike_id": "1fcd7c9535feaaf0d098c88d5d63b2af", "lon": -77.04015816666667, "rental_uris": {"ios": "https://dc.lft.to/lastmile_qr_scan", "android": "https://dc.lft.to/lastmile_qr_scan"}}, {"name": "fd40868a08bf5cd770174f6d521c7dbd", "fusion_lat": 0.0, "type": "electric_scooter", "lat": 38.9346585, "is_reserved": 0, "is_disabled": 0, "fusion_lon": 0.0, "bike_id": "fd40868a08bf5cd770174f6d521c7dbd", "lon": -77.028546, "rental_uris": {"ios": "https://dc.lft.to/lastmile_qr_scan", "android": "https://dc.lft.to/lastmile_qr_scan"}}, {"name": "67ab52487f8a2ff3d98523875d6a78a6", "fusion_lat": 0.0, "type": "electric_scooter", "lat": 38.9072965, "is_reserved": 0, "is_disabled": 0, "fusion_lon": 0.0, "bike_id": "67ab52487f8a2ff3d98523875d6a78a6", "lon": -77.04497066666667, "rental_uris": {"ios": "https://dc.lft.to/lastmile_qr_scan", "android": "https://dc.lft.to/lastmile_qr_scan"}}, {"name": "df371bd7413cda7467e2939d0b34c0af", "fusion_lat": 0.0, "type": "electric_scooter", "lat": 38.9270085, "is_reserved": 0, "is_disabled": 0, "fusion_lon": 0.0, "bike_id": "df371bd7413cda7467e2939d0b34c0af", "lon": -77.037315, "rental_uris": {"ios": "https://dc.lft.to/lastmile_qr_scan", "android": "https://dc.lft.to/lastmile_qr_scan"}}, {"name": "faa6eee6cd6161190404974b6793374d", "fusion_lat": 0.0, "type": "electric_scooter", "lat": 38.885153333333335, "is_reserved": 0, "is_disabled": 0, "fusion_lon": 0.0, "bike_id": "faa6eee6cd6161190404974b6793374d", "lon": -77.03353966666667, "rental_uris": {"ios": "https://dc.lft.to/lastmile_qr_scan", "android": "https://dc.lft.to/lastmile_qr_scan"}}, {"name": "4401e1ddba6db363c4b91d11be9da210", "fusion_lat": 0.0, "type": "electric_scooter", "lat": 38.909598333333335, "is_reserved": 0, "is_disabled": 0, "fusion_lon": 0.0, "bike_id": "4401e1ddba6db363c4b91d11be9da210", "lon": -77.03867033333333, "rental_uris": {"ios": "https://dc.lft.to/lastmile_qr_scan", "android": "https://dc.lft.to/lastmile_qr_scan"}}, {"name": "3d2856caaa74d988f451f67409257505", "fusion_lat": 0.0, "type": "electric_scooter", "lat": 38.873749833333335, "is_reserved": 0, "is_disabled": 0, "fusion_lon": 0.0, "bike_id": "3d2856caaa74d988f451f67409257505", "lon": -77.00035766666667, "rental_uris": {"ios": "https://dc.lft.to/lastmile_qr_scan", "android": "https://dc.lft.to/lastmile_qr_scan"}}, {"name": "7853136062358341530259610d97de39", "fusion_lat": 0.0, "type": "electric_scooter", "lat": 38.886554, "is_reserved": 0, "is_disabled": 0, "fusion_lon": 0.0, "bike_id": "7853136062358341530259610d97de39", "lon": -77.00116516666667, "rental_uris": {"ios": "https://dc.lft.to/lastmile_qr_scan", "android": "https://dc.lft.to/lastmile_qr_scan"}}, {"name": "1a49328ecd524c17e3a8d8a53a58b796", "fusion_lat": 0.0, "type": "electric_scooter", "lat": 38.91729983333333, "is_reserved": 0, "is_disabled": 0, "fusion_lon": 0.0, "bike_id": "1a49328ecd524c17e3a8d8a53a58b796", "lon": -77.00005483333334, "rental_uris": {"ios": "https://dc.lft.to/lastmile_qr_scan", "android": "https://dc.lft.to/lastmile_qr_scan"}}, {"name": "383ad3fbd0be28b60d291acc95538df7", "fusion_lat": 0.0, "type": "electric_scooter", "lat": 38.90523016666667, "is_reserved": 0, "is_disabled": 0, "fusion_lon": 0.0, "bike_id": "383ad3fbd0be28b60d291acc95538df7", "lon": -77.02934133333333, "rental_uris": {"ios": "https://dc.lft.to/lastmile_qr_scan", "android": "https://dc.lft.to/lastmile_qr_scan"}}, {"name": "caa21a82194177585b50b93cba9ea572", "fusion_lat": 0.0, "type": "electric_scooter", "lat": 38.90188883333333, "is_reserved": 0, "is_disabled": 0, "fusion_lon": 0.0, "bike_id": "caa21a82194177585b50b93cba9ea572", "lon": -77.02367616666666, "rental_uris": {"ios": "https://dc.lft.to/lastmile_qr_scan", "android": "https://dc.lft.to/lastmile_qr_scan"}}, {"name": "3d5ab9d798eea7c6815f7e352bffa1f8", "fusion_lat": 0.0, "type": "electric_scooter", "lat": 38.9191145, "is_reserved": 0, "is_disabled": 0, "fusion_lon": 0.0, "bike_id": "3d5ab9d798eea7c6815f7e352bffa1f8", "lon": -77.02137533333334, "rental_uris": {"ios": "https://dc.lft.to/lastmile_qr_scan", "android": "https://dc.lft.to/lastmile_qr_scan"}}, {"name": "5068bf00451f2921d88d60d89b939731", "fusion_lat": 0.0, "type": "electric_scooter", "lat": 38.92481433333333, "is_reserved": 0, "is_disabled": 0, "fusion_lon": 0.0, "bike_id": "5068bf00451f2921d88d60d89b939731", "lon": -77.05215616666666, "rental_uris": {"ios": "https://dc.lft.to/lastmile_qr_scan", "android": "https://dc.lft.to/lastmile_qr_scan"}}, {"name": "7f59c4d6542e134ef945be786e4b85a4", "fusion_lat": 0.0, "type": "electric_bike", "lat": 38.90627716666667, "is_reserved": 0, "is_disabled": 0, "fusion_lon": 0.0, "bike_id": "7f59c4d6542e134ef945be786e4b85a4", "lon": -76.98609283333333, "rental_uris": {"ios": "https://dc.lft.to/lastmile_qr_scan", "android": "https://dc.lft.to/lastmile_qr_scan"}}, {"name": "531866f5e091f4198b28314cf0371294", "fusion_lat": 0.0, "type": "electric_scooter", "lat": 38.91875066666667, "is_reserved": 0, "is_disabled": 0, "fusion_lon": 0.0, "bike_id": "531866f5e091f4198b28314cf0371294", "lon": -77.0421695, "rental_uris": {"ios": "https://dc.lft.to/lastmile_qr_scan", "android": "https://dc.lft.to/lastmile_qr_scan"}}, {"name": "f68277d3b31b92b3ea5f98ebcc1b36b2", "fusion_lat": 0.0, "type": "electric_scooter", "lat": 38.9067215, "is_reserved": 0, "is_disabled": 0, "fusion_lon": 0.0, "bike_id": "f68277d3b31b92b3ea5f98ebcc1b36b2", "lon": -77.027155, "rental_uris": {"ios": "https://dc.lft.to/lastmile_qr_scan", "android": "https://dc.lft.to/lastmile_qr_scan"}}, {"name": "cdf47a6d846fc69dae26ea09a423ea59", "fusion_lat": 0.0, "type": "electric_bike", "lat": 38.95893133333333, "is_reserved": 0, "is_disabled": 0, "fusion_lon": 0.0, "bike_id": "cdf47a6d846fc69dae26ea09a423ea59", "lon": -77.0259625, "rental_uris": {"ios": "https://dc.lft.to/lastmile_qr_scan", "android": "https://dc.lft.to/lastmile_qr_scan"}}, {"name": "eced215608625ea26a6465051d9d6597", "fusion_lat": 0.0, "type": "electric_scooter", "lat": 38.90570016666667, "is_reserved": 0, "is_disabled": 0, "fusion_lon": 0.0, "bike_id": "eced215608625ea26a6465051d9d6597", "lon": -77.022163, "rental_uris": {"ios": "https://dc.lft.to/lastmile_qr_scan", "android": "https://dc.lft.to/lastmile_qr_scan"}}, {"name": "6ecd5986be9939a493084ef4fd58d810", "fusion_lat": 0.0, "type": "electric_scooter", "lat": 38.86657683333333, "is_reserved": 0, "is_disabled": 0, "fusion_lon": 0.0, "bike_id": "6ecd5986be9939a493084ef4fd58d810", "lon": -76.98883416666666, "rental_uris": {"ios": "https://dc.lft.to/lastmile_qr_scan", "android": "https://dc.lft.to/lastmile_qr_scan"}}, {"name": "d0c0e178c5d0edf81e730ac93e37ad2c", "fusion_lat": 0.0, "type": "electric_scooter", "lat": 38.926293, "is_reserved": 0, "is_disabled": 0, "fusion_lon": 0.0, "bike_id": "d0c0e178c5d0edf81e730ac93e37ad2c", "lon": -77.03719116666667, "rental_uris": {"ios": "https://dc.lft.to/lastmile_qr_scan", "android": "https://dc.lft.to/lastmile_qr_scan"}}, {"name": "68262ce6db3232184945b0b08b458783", "fusion_lat": 0.0, "type": "electric_scooter", "lat": 38.90506716666667, "is_reserved": 0, "is_disabled": 0, "fusion_lon": 0.0, "bike_id": "68262ce6db3232184945b0b08b458783", "lon": -76.994477, "rental_uris": {"ios": "https://dc.lft.to/lastmile_qr_scan", "android": "https://dc.lft.to/lastmile_qr_scan"}}, {"name": "9d297208f82b97dc178fafdfe0c5a669", "fusion_lat": 0.0, "type": "electric_scooter", "lat": 38.88105216666666, "is_reserved": 0, "is_disabled": 0, "fusion_lon": 0.0, "bike_id": "9d297208f82b97dc178fafdfe0c5a669", "lon": -77.01211416666666, "rental_uris": {"ios": "https://dc.lft.to/lastmile_qr_scan", "android": "https://dc.lft.to/lastmile_qr_scan"}}, {"name": "cf8655152093c1d6ba166863e20d15fd", "fusion_lat": 0.0, "type": "electric_scooter", "lat": 38.90640033333333, "is_reserved": 0, "is_disabled": 0, "fusion_lon": 0.0, "bike_id": "cf8655152093c1d6ba166863e20d15fd", "lon": -77.03868583333333, "rental_uris": {"ios": "https://dc.lft.to/lastmile_qr_scan", "android": "https://dc.lft.to/lastmile_qr_scan"}}, {"name": "b5bb20bc910e78b79f7720ea427370f4", "fusion_lat": 0.0, "type": "electric_scooter", "lat": 38.91203083333333, "is_reserved": 0, "is_disabled": 0, "fusion_lon": 0.0, "bike_id": "b5bb20bc910e78b79f7720ea427370f4", "lon": -77.03644266666667, "rental_uris": {"ios": "https://dc.lft.to/lastmile_qr_scan", "android": "https://dc.lft.to/lastmile_qr_scan"}}, {"name": "aec3f865c8a1d5a6c4b67e8d2cc918a6", "fusion_lat": 0.0, "type": "electric_scooter", "lat": 38.902369, "is_reserved": 0, "is_disabled": 0, "fusion_lon": 0.0, "bike_id": "aec3f865c8a1d5a6c4b67e8d2cc918a6", "lon": -77.02692466666667, "rental_uris": {"ios": "https://dc.lft.to/lastmile_qr_scan", "android": "https://dc.lft.to/lastmile_qr_scan"}}, {"name": "f6e22145bdad50eaf20cce192041be79", "fusion_lat": 0.0, "type": "electric_scooter", "lat": 38.90406683333333, "is_reserved": 0, "is_disabled": 0, "fusion_lon": 0.0, "bike_id": "f6e22145bdad50eaf20cce192041be79", "lon": -77.034242, "rental_uris": {"ios": "https://dc.lft.to/lastmile_qr_scan", "android": "https://dc.lft.to/lastmile_qr_scan"}}, {"name": "f9c0f5c5377ea2d6dc7ddab568229ea5", "fusion_lat": 0.0, "type": "electric_scooter", "lat": 38.923156, "is_reserved": 0, "is_disabled": 0, "fusion_lon": 0.0, "bike_id": "f9c0f5c5377ea2d6dc7ddab568229ea5", "lon": -77.03980383333334, "rental_uris": {"ios": "https://dc.lft.to/lastmile_qr_scan", "android": "https://dc.lft.to/lastmile_qr_scan"}}, {"name": "d87225fd13c27469f66ad89620c06cda", "fusion_lat": 0.0, "type": "electric_scooter", "lat": 38.906285833333335, "is_reserved": 0, "is_disabled": 0, "fusion_lon": 0.0, "bike_id": "d87225fd13c27469f66ad89620c06cda", "lon": -77.02947166666667, "rental_uris": {"ios": "https://dc.lft.to/lastmile_qr_scan", "android": "https://dc.lft.to/lastmile_qr_scan"}}, {"name": "8c8fdb5194cd6ab723f946e1cf9349df", "fusion_lat": 0.0, "type": "electric_scooter", "lat": 38.9246245, "is_reserved": 0, "is_disabled": 0, "fusion_lon": 0.0, "bike_id": "8c8fdb5194cd6ab723f946e1cf9349df", "lon": -77.0364185, "rental_uris": {"ios": "https://dc.lft.to/lastmile_qr_scan", "android": "https://dc.lft.to/lastmile_qr_scan"}}, {"name": "49a69d37ec36e8366b149fe1b91f2a9c", "fusion_lat": 0.0, "type": "electric_scooter", "lat": 38.928075666666665, "is_reserved": 0, "is_disabled": 0, "fusion_lon": 0.0, "bike_id": "49a69d37ec36e8366b149fe1b91f2a9c", "lon": -77.03634566666666, "rental_uris": {"ios": "https://dc.lft.to/lastmile_qr_scan", "android": "https://dc.lft.to/lastmile_qr_scan"}}, {"name": "0939ba78638b4efe25c63a70600c8ce6", "fusion_lat": 0.0, "type": "electric_scooter", "lat": 38.89511983333333, "is_reserved": 0, "is_disabled": 0, "fusion_lon": 0.0, "bike_id": "0939ba78638b4efe25c63a70600c8ce6", "lon": -76.992197, "rental_uris": {"ios": "https://dc.lft.to/lastmile_qr_scan", "android": "https://dc.lft.to/lastmile_qr_scan"}}, {"name": "ff8a276c522a2e16533aa9522f230cdb", "fusion_lat": 0.0, "type": "electric_scooter", "lat": 38.90336033333333, "is_reserved": 0, "is_disabled": 0, "fusion_lon": 0.0, "bike_id": "ff8a276c522a2e16533aa9522f230cdb", "lon": -77.0543705, "rental_uris": {"ios": "https://dc.lft.to/lastmile_qr_scan", "android": "https://dc.lft.to/lastmile_qr_scan"}}, {"name": "15a6906748b28f90656169352dfba4b3", "fusion_lat": 0.0, "type": "electric_scooter", "lat": 38.8786505, "is_reserved": 0, "is_disabled": 0, "fusion_lon": 0.0, "bike_id": "15a6906748b28f90656169352dfba4b3", "lon": -76.96528283333333, "rental_uris": {"ios": "https://dc.lft.to/lastmile_qr_scan", "android": "https://dc.lft.to/lastmile_qr_scan"}}, {"name": "1a5daf857d18a4cc6f2f9d54a9818ab2", "fusion_lat": 0.0, "type": "electric_scooter", "lat": 38.900796166666666, "is_reserved": 0, "is_disabled": 0, "fusion_lon": 0.0, "bike_id": "1a5daf857d18a4cc6f2f9d54a9818ab2", "lon": -77.050061, "rental_uris": {"ios": "https://dc.lft.to/lastmile_qr_scan", "android": "https://dc.lft.to/lastmile_qr_scan"}}, {"name": "47eca649069129ae89e32534b7b6be8a", "fusion_lat": 0.0, "type": "electric_scooter", "lat": 38.918777, "is_reserved": 0, "is_disabled": 0, "fusion_lon": 0.0, "bike_id": "47eca649069129ae89e32534b7b6be8a", "lon": -77.04315716666666, "rental_uris": {"ios": "https://dc.lft.to/lastmile_qr_scan", "android": "https://dc.lft.to/lastmile_qr_scan"}}, {"name": "a942878eaa43bef9ab1f59e71c653110", "fusion_lat": 0.0, "type": "electric_scooter", "lat": 38.92080933333333, "is_reserved": 0, "is_disabled": 0, "fusion_lon": 0.0, "bike_id": "a942878eaa43bef9ab1f59e71c653110", "lon": -77.047004, "rental_uris": {"ios": "https://dc.lft.to/lastmile_qr_scan", "android": "https://dc.lft.to/lastmile_qr_scan"}}, {"name": "3b61105783c95df8165b0f05e97c9eb2", "fusion_lat": 0.0, "type": "electric_scooter", "lat": 38.89876683333333, "is_reserved": 0, "is_disabled": 0, "fusion_lon": 0.0, "bike_id": "3b61105783c95df8165b0f05e97c9eb2", "lon": -76.93159383333334, "rental_uris": {"ios": "https://dc.lft.to/lastmile_qr_scan", "android": "https://dc.lft.to/lastmile_qr_scan"}}, {"name": "372a67b1d439bbf04a5206a8aee525c6", "fusion_lat": 0.0, "type": "electric_scooter", "lat": 38.90351066666667, "is_reserved": 0, "is_disabled": 0, "fusion_lon": 0.0, "bike_id": "372a67b1d439bbf04a5206a8aee525c6", "lon": -77.0110555, "rental_uris": {"ios": "https://dc.lft.to/lastmile_qr_scan", "android": "https://dc.lft.to/lastmile_qr_scan"}}, {"name": "e8c56a6d0c8730db95b2a7a5844102c6", "fusion_lat": 0.0, "type": "electric_scooter", "lat": 38.91191, "is_reserved": 0, "is_disabled": 0, "fusion_lon": 0.0, "bike_id": "e8c56a6d0c8730db95b2a7a5844102c6", "lon": -77.03641, "rental_uris": {"ios": "https://dc.lft.to/lastmile_qr_scan", "android": "https://dc.lft.to/lastmile_qr_scan"}}, {"name": "f739ed0d791be9c2748780f0007ac179", "fusion_lat": 0.0, "type": "electric_scooter", "lat": 38.9066625, "is_reserved": 0, "is_disabled": 0, "fusion_lon": 0.0, "bike_id": "f739ed0d791be9c2748780f0007ac179", "lon": -77.04183616666667, "rental_uris": {"ios": "https://dc.lft.to/lastmile_qr_scan", "android": "https://dc.lft.to/lastmile_qr_scan"}}, {"name": "c0bf9f8d599c7967e44c54b16f6f341e", "fusion_lat": 0.0, "type": "electric_scooter", "lat": 38.903384833333334, "is_reserved": 0, "is_disabled": 0, "fusion_lon": 0.0, "bike_id": "c0bf9f8d599c7967e44c54b16f6f341e", "lon": -77.06650066666667, "rental_uris": {"ios": "https://dc.lft.to/lastmile_qr_scan", "android": "https://dc.lft.to/lastmile_qr_scan"}}, {"name": "c92b3e985b49534e0ff44d251a7f9eb4", "fusion_lat": 0.0, "type": "electric_scooter", "lat": 38.91614766666667, "is_reserved": 0, "is_disabled": 0, "fusion_lon": 0.0, "bike_id": "c92b3e985b49534e0ff44d251a7f9eb4", "lon": -77.02163416666667, "rental_uris": {"ios": "https://dc.lft.to/lastmile_qr_scan", "android": "https://dc.lft.to/lastmile_qr_scan"}}, {"name": "f2011ff9e3f9c5de645b3a3e7cc15e21", "fusion_lat": 0.0, "type": "electric_scooter", "lat": 38.941679, "is_reserved": 0, "is_disabled": 0, "fusion_lon": 0.0, "bike_id": "f2011ff9e3f9c5de645b3a3e7cc15e21", "lon": -77.0413275, "rental_uris": {"ios": "https://dc.lft.to/lastmile_qr_scan", "android": "https://dc.lft.to/lastmile_qr_scan"}}, {"name": "977ccab1f72d219f55e83dc1a14d722d", "fusion_lat": 0.0, "type": "electric_scooter", "lat": 38.914897, "is_reserved": 0, "is_disabled": 0, "fusion_lon": 0.0, "bike_id": "977ccab1f72d219f55e83dc1a14d722d", "lon": -77.03261533333334, "rental_uris": {"ios": "https://dc.lft.to/lastmile_qr_scan", "android": "https://dc.lft.to/lastmile_qr_scan"}}, {"name": "2d4de203ec88239f9cdb38c447a75a64", "fusion_lat": 0.0, "type": "electric_bike", "lat": 38.998176, "is_reserved": 0, "is_disabled": 0, "fusion_lon": 0.0, "bike_id": "2d4de203ec88239f9cdb38c447a75a64", "lon": -76.883756, "rental_uris": {"ios": "https://dc.lft.to/lastmile_qr_scan", "android": "https://dc.lft.to/lastmile_qr_scan"}}, {"name": "a31a08ce891e473cf5c1a9baa8dbf6d9", "fusion_lat": 0.0, "type": "electric_bike", "lat": 38.948978333333336, "is_reserved": 0, "is_disabled": 0, "fusion_lon": 0.0, "bike_id": "a31a08ce891e473cf5c1a9baa8dbf6d9", "lon": -76.96369316666667, "rental_uris": {"ios": "https://dc.lft.to/lastmile_qr_scan", "android": "https://dc.lft.to/lastmile_qr_scan"}}, {"name": "2c30723b00436234354b8d17d31a210a", "fusion_lat": 0.0, "type": "electric_scooter", "lat": 38.8742465, "is_reserved": 0, "is_disabled": 0, "fusion_lon": 0.0, "bike_id": "2c30723b00436234354b8d17d31a210a", "lon": -76.97182716666667, "rental_uris": {"ios": "https://dc.lft.to/lastmile_qr_scan", "android": "https://dc.lft.to/lastmile_qr_scan"}}, {"name": "36ffdea798851612a931d490b9e042d3", "fusion_lat": 0.0, "type": "electric_scooter", "lat": 38.83598333333333, "is_reserved": 0, "is_disabled": 0, "fusion_lon": 0.0, "bike_id": "36ffdea798851612a931d490b9e042d3", "lon": -76.99364066666666, "rental_uris": {"ios": "https://dc.lft.to/lastmile_qr_scan", "android": "https://dc.lft.to/lastmile_qr_scan"}}, {"name": "371269e1edc6c644385ab20979ec32cb", "fusion_lat": 0.0, "type": "electric_bike", "lat": 38.86386183333333, "is_reserved": 0, "is_disabled": 0, "fusion_lon": 0.0, "bike_id": "371269e1edc6c644385ab20979ec32cb", "lon": -76.989932, "rental_uris": {"ios": "https://dc.lft.to/lastmile_qr_scan", "android": "https://dc.lft.to/lastmile_qr_scan"}}, {"name": "8b6b3075fa554b8f3a67c97b308918ab", "fusion_lat": 0.0, "type": "electric_scooter", "lat": 38.91840233333333, "is_reserved": 0, "is_disabled": 0, "fusion_lon": 0.0, "bike_id": "8b6b3075fa554b8f3a67c97b308918ab", "lon": -77.02601083333333, "rental_uris": {"ios": "https://dc.lft.to/lastmile_qr_scan", "android": "https://dc.lft.to/lastmile_qr_scan"}}, {"name": "7c778d6094c9d536195111e58d5373b5", "fusion_lat": 0.0, "type": "electric_bike", "lat": 38.955443833333334, "is_reserved": 0, "is_disabled": 0, "fusion_lon": 0.0, "bike_id": "7c778d6094c9d536195111e58d5373b5", "lon": -76.93542583333333, "rental_uris": {"ios": "https://dc.lft.to/lastmile_qr_scan", "android": "https://dc.lft.to/lastmile_qr_scan"}}, {"name": "77fb388abc38496951960ead8ca9cbd5", "fusion_lat": 0.0, "type": "electric_scooter", "lat": 38.9111025, "is_reserved": 0, "is_disabled": 0, "fusion_lon": 0.0, "bike_id": "77fb388abc38496951960ead8ca9cbd5", "lon": -77.04927783333333, "rental_uris": {"ios": "https://dc.lft.to/lastmile_qr_scan", "android": "https://dc.lft.to/lastmile_qr_scan"}}, {"name": "cde4db6ceb75e424b9377643d574afa9", "fusion_lat": 0.0, "type": "electric_scooter", "lat": 38.908641, "is_reserved": 0, "is_disabled": 0, "fusion_lon": 0.0, "bike_id": "cde4db6ceb75e424b9377643d574afa9", "lon": -76.99955133333333, "rental_uris": {"ios": "https://dc.lft.to/lastmile_qr_scan", "android": "https://dc.lft.to/lastmile_qr_scan"}}, {"name": "c028c6095db16e1ae5927f8674761f8d", "fusion_lat": 0.0, "type": "electric_scooter", "lat": 38.91917483333334, "is_reserved": 0, "is_disabled": 0, "fusion_lon": 0.0, "bike_id": "c028c6095db16e1ae5927f8674761f8d", "lon": -77.03436583333334, "rental_uris": {"ios": "https://dc.lft.to/lastmile_qr_scan", "android": "https://dc.lft.to/lastmile_qr_scan"}}, {"name": "2202334a426210cc352162316901d6c8", "fusion_lat": 0.0, "type": "electric_scooter", "lat": 38.904696666666666, "is_reserved": 0, "is_disabled": 0, "fusion_lon": 0.0, "bike_id": "2202334a426210cc352162316901d6c8", "lon": -77.03865016666667, "rental_uris": {"ios": "https://dc.lft.to/lastmile_qr_scan", "android": "https://dc.lft.to/lastmile_qr_scan"}}, {"name": "d75a086b3d6afda666d6530129a34f99", "fusion_lat": 0.0, "type": "electric_scooter", "lat": 38.92179816666667, "is_reserved": 0, "is_disabled": 0, "fusion_lon": 0.0, "bike_id": "d75a086b3d6afda666d6530129a34f99", "lon": -77.04259583333334, "rental_uris": {"ios": "https://dc.lft.to/lastmile_qr_scan", "android": "https://dc.lft.to/lastmile_qr_scan"}}, {"name": "60322d02f165255cb16b739e2cbc4200", "fusion_lat": 0.0, "type": "electric_scooter", "lat": 38.91595483333333, "is_reserved": 0, "is_disabled": 0, "fusion_lon": 0.0, "bike_id": "60322d02f165255cb16b739e2cbc4200", "lon": -77.04158683333333, "rental_uris": {"ios": "https://dc.lft.to/lastmile_qr_scan", "android": "https://dc.lft.to/lastmile_qr_scan"}}, {"name": "f5dc8e0157f57732f43f3eac3f09ee05", "fusion_lat": 0.0, "type": "electric_scooter", "lat": 38.93599616666667, "is_reserved": 0, "is_disabled": 0, "fusion_lon": 0.0, "bike_id": "f5dc8e0157f57732f43f3eac3f09ee05", "lon": -77.03657166666666, "rental_uris": {"ios": "https://dc.lft.to/lastmile_qr_scan", "android": "https://dc.lft.to/lastmile_qr_scan"}}, {"name": "4fb6c7260848bb5ec3f5a4956da622f4", "fusion_lat": 0.0, "type": "electric_scooter", "lat": 38.901497166666665, "is_reserved": 0, "is_disabled": 0, "fusion_lon": 0.0, "bike_id": "4fb6c7260848bb5ec3f5a4956da622f4", "lon": -77.05915916666666, "rental_uris": {"ios": "https://dc.lft.to/lastmile_qr_scan", "android": "https://dc.lft.to/lastmile_qr_scan"}}, {"name": "535620d4ffaf2ed4300431c0a92802ef", "fusion_lat": 0.0, "type": "electric_bike", "lat": 38.81515616666667, "is_reserved": 0, "is_disabled": 0, "fusion_lon": 0.0, "bike_id": "535620d4ffaf2ed4300431c0a92802ef", "lon": -77.1265435, "rental_uris": {"ios": "https://dc.lft.to/lastmile_qr_scan", "android": "https://dc.lft.to/lastmile_qr_scan"}}, {"name": "2d32b8946862f03780243742fe257a62", "fusion_lat": 0.0, "type": "electric_scooter", "lat": 38.896099, "is_reserved": 0, "is_disabled": 0, "fusion_lon": 0.0, "bike_id": "2d32b8946862f03780243742fe257a62", "lon": -77.04690766666667, "rental_uris": {"ios": "https://dc.lft.to/lastmile_qr_scan", "android": "https://dc.lft.to/lastmile_qr_scan"}}, {"name": "5cf526c3d5426499cdeeda246389eb22", "fusion_lat": 0.0, "type": "electric_bike", "lat": 38.891865333333335, "is_reserved": 0, "is_disabled": 0, "fusion_lon": 0.0, "bike_id": "5cf526c3d5426499cdeeda246389eb22", "lon": -77.12257866666667, "rental_uris": {"ios": "https://dc.lft.to/lastmile_qr_scan", "android": "https://dc.lft.to/lastmile_qr_scan"}}, {"name": "cf24228e9e0c6b68f613a8af8499f0be", "fusion_lat": 0.0, "type": "electric_scooter", "lat": 38.9123075, "is_reserved": 0, "is_disabled": 0, "fusion_lon": 0.0, "bike_id": "cf24228e9e0c6b68f613a8af8499f0be", "lon": -77.03840016666666, "rental_uris": {"ios": "https://dc.lft.to/lastmile_qr_scan", "android": "https://dc.lft.to/lastmile_qr_scan"}}, {"name": "a23583af3d2186ba6ada9db544cdf5e9", "fusion_lat": 0.0, "type": "electric_scooter", "lat": 38.933598333333336, "is_reserved": 0, "is_disabled": 0, "fusion_lon": 0.0, "bike_id": "a23583af3d2186ba6ada9db544cdf5e9", "lon": -77.03721883333333, "rental_uris": {"ios": "https://dc.lft.to/lastmile_qr_scan", "android": "https://dc.lft.to/lastmile_qr_scan"}}, {"name": "41b75b5c3b680dc62280206d6c13da4d", "fusion_lat": 0.0, "type": "electric_scooter", "lat": 38.91716066666667, "is_reserved": 0, "is_disabled": 0, "fusion_lon": 0.0, "bike_id": "41b75b5c3b680dc62280206d6c13da4d", "lon": -77.0289915, "rental_uris": {"ios": "https://dc.lft.to/lastmile_qr_scan", "android": "https://dc.lft.to/lastmile_qr_scan"}}, {"name": "22df31804927df6814c680c2d86def53", "fusion_lat": 0.0, "type": "electric_scooter", "lat": 38.906759666666666, "is_reserved": 0, "is_disabled": 0, "fusion_lon": 0.0, "bike_id": "22df31804927df6814c680c2d86def53", "lon": -76.97814333333334, "rental_uris": {"ios": "https://dc.lft.to/lastmile_qr_scan", "android": "https://dc.lft.to/lastmile_qr_scan"}}, {"name": "190d8816cfa32daafceffa78ae7ad8b2", "fusion_lat": 0.0, "type": "electric_scooter", "lat": 38.905198666666664, "is_reserved": 0, "is_disabled": 0, "fusion_lon": 0.0, "bike_id": "190d8816cfa32daafceffa78ae7ad8b2", "lon": -77.04739283333333, "rental_uris": {"ios": "https://dc.lft.to/lastmile_qr_scan", "android": "https://dc.lft.to/lastmile_qr_scan"}}, {"name": "f5a0a7a182cb24d98faeda53f6d8e351", "fusion_lat": 0.0, "type": "electric_bike", "lat": 38.83191983333333, "is_reserved": 0, "is_disabled": 0, "fusion_lon": 0.0, "bike_id": "f5a0a7a182cb24d98faeda53f6d8e351", "lon": -77.07687233333333, "rental_uris": {"ios": "https://dc.lft.to/lastmile_qr_scan", "android": "https://dc.lft.to/lastmile_qr_scan"}}, {"name": "d431daba04b2636861c39151910dbf83", "fusion_lat": 0.0, "type": "electric_scooter", "lat": 38.90544083333333, "is_reserved": 0, "is_disabled": 0, "fusion_lon": 0.0, "bike_id": "d431daba04b2636861c39151910dbf83", "lon": -77.05045883333334, "rental_uris": {"ios": "https://dc.lft.to/lastmile_qr_scan", "android": "https://dc.lft.to/lastmile_qr_scan"}}, {"name": "91fdbb29f1736771655380c0de77ca84", "fusion_lat": 0.0, "type": "electric_bike", "lat": 38.8961065, "is_reserved": 0, "is_disabled": 0, "fusion_lon": 0.0, "bike_id": "91fdbb29f1736771655380c0de77ca84", "lon": -76.99286966666666, "rental_uris": {"ios": "https://dc.lft.to/lastmile_qr_scan", "android": "https://dc.lft.to/lastmile_qr_scan"}}, {"name": "72ff97a146a171ceccf6c6935815ca51", "fusion_lat": 0.0, "type": "electric_bike", "lat": 38.8278865, "is_reserved": 0, "is_disabled": 0, "fusion_lon": 0.0, "bike_id": "72ff97a146a171ceccf6c6935815ca51", "lon": -77.0090205, "rental_uris": {"ios": "https://dc.lft.to/lastmile_qr_scan", "android": "https://dc.lft.to/lastmile_qr_scan"}}, {"name": "0711a489f5ed6cd9102f38983272c746", "fusion_lat": 0.0, "type": "electric_bike", "lat": 38.8578655, "is_reserved": 0, "is_disabled": 0, "fusion_lon": 0.0, "bike_id": "0711a489f5ed6cd9102f38983272c746", "lon": -77.099656, "rental_uris": {"ios": "https://dc.lft.to/lastmile_qr_scan", "android": "https://dc.lft.to/lastmile_qr_scan"}}, {"name": "63b259b21e1315d2b6082face2a4e5ca", "fusion_lat": 0.0, "type": "electric_scooter", "lat": 38.89906883333333, "is_reserved": 0, "is_disabled": 0, "fusion_lon": 0.0, "bike_id": "63b259b21e1315d2b6082face2a4e5ca", "lon": -76.933686, "rental_uris": {"ios": "https://dc.lft.to/lastmile_qr_scan", "android": "https://dc.lft.to/lastmile_qr_scan"}}, {"name": "41012b6ada88e1072952eca67b692ee3", "fusion_lat": 0.0, "type": "electric_scooter", "lat": 38.918184833333335, "is_reserved": 0, "is_disabled": 0, "fusion_lon": 0.0, "bike_id": "41012b6ada88e1072952eca67b692ee3", "lon": -77.027975, "rental_uris": {"ios": "https://dc.lft.to/lastmile_qr_scan", "android": "https://dc.lft.to/lastmile_qr_scan"}}, {"name": "79ea587e85fed800e8ee65ea289ea4e1", "fusion_lat": 0.0, "type": "electric_bike", "lat": 39.0945585, "is_reserved": 0, "is_disabled": 0, "fusion_lon": 0.0, "bike_id": "79ea587e85fed800e8ee65ea289ea4e1", "lon": -77.14993016666666, "rental_uris": {"ios": "https://dc.lft.to/lastmile_qr_scan", "android": "https://dc.lft.to/lastmile_qr_scan"}}, {"name": "a54ed5889c25d9ff1d8a25e5ab9b806f", "fusion_lat": 0.0, "type": "electric_scooter", "lat": 38.901199166666665, "is_reserved": 0, "is_disabled": 0, "fusion_lon": 0.0, "bike_id": "a54ed5889c25d9ff1d8a25e5ab9b806f", "lon": -77.02723983333334, "rental_uris": {"ios": "https://dc.lft.to/lastmile_qr_scan", "android": "https://dc.lft.to/lastmile_qr_scan"}}, {"name": "0e7319cd7b4656805cfc0368dec515c1", "fusion_lat": 0.0, "type": "electric_scooter", "lat": 38.89218983333333, "is_reserved": 0, "is_disabled": 0, "fusion_lon": 0.0, "bike_id": "0e7319cd7b4656805cfc0368dec515c1", "lon": -77.02227383333333, "rental_uris": {"ios": "https://dc.lft.to/lastmile_qr_scan", "android": "https://dc.lft.to/lastmile_qr_scan"}}, {"name": "1a8413a7061da1f4ebb02cdf1f1dcdd0", "fusion_lat": 0.0, "type": "electric_scooter", "lat": 38.927239666666665, "is_reserved": 0, "is_disabled": 0, "fusion_lon": 0.0, "bike_id": "1a8413a7061da1f4ebb02cdf1f1dcdd0", "lon": -77.005646, "rental_uris": {"ios": "https://dc.lft.to/lastmile_qr_scan", "android": "https://dc.lft.to/lastmile_qr_scan"}}, {"name": "913fde44a45b82b794cb54e7d5773c02", "fusion_lat": 0.0, "type": "electric_bike", "lat": 38.875287166666666, "is_reserved": 0, "is_disabled": 0, "fusion_lon": 0.0, "bike_id": "913fde44a45b82b794cb54e7d5773c02", "lon": -77.19911083333334, "rental_uris": {"ios": "https://dc.lft.to/lastmile_qr_scan", "android": "https://dc.lft.to/lastmile_qr_scan"}}, {"name": "7eb83b468117cf6fa0a729b55dddc3db", "fusion_lat": 0.0, "type": "electric_scooter", "lat": 38.923695, "is_reserved": 0, "is_disabled": 0, "fusion_lon": 0.0, "bike_id": "7eb83b468117cf6fa0a729b55dddc3db", "lon": -77.02989066666666, "rental_uris": {"ios": "https://dc.lft.to/lastmile_qr_scan", "android": "https://dc.lft.to/lastmile_qr_scan"}}, {"name": "dee14ef0bf993ed7075837201b794c4d", "fusion_lat": 0.0, "type": "electric_scooter", "lat": 38.9096085, "is_reserved": 0, "is_disabled": 0, "fusion_lon": 0.0, "bike_id": "dee14ef0bf993ed7075837201b794c4d", "lon": -77.04630783333333, "rental_uris": {"ios": "https://dc.lft.to/lastmile_qr_scan", "android": "https://dc.lft.to/lastmile_qr_scan"}}, {"name": "9a0de58ac43e14db934f4f19f69a6ea5", "fusion_lat": 0.0, "type": "electric_scooter", "lat": 38.9112965, "is_reserved": 0, "is_disabled": 0, "fusion_lon": 0.0, "bike_id": "9a0de58ac43e14db934f4f19f69a6ea5", "lon": -77.03653916666667, "rental_uris": {"ios": "https://dc.lft.to/lastmile_qr_scan", "android": "https://dc.lft.to/lastmile_qr_scan"}}, {"name": "09b56689c1ac428cfb265b30a593b0a5", "fusion_lat": 0.0, "type": "electric_scooter", "lat": 38.91182516666667, "is_reserved": 0, "is_disabled": 0, "fusion_lon": 0.0, "bike_id": "09b56689c1ac428cfb265b30a593b0a5", "lon": -77.03145883333333, "rental_uris": {"ios": "https://dc.lft.to/lastmile_qr_scan", "android": "https://dc.lft.to/lastmile_qr_scan"}}, {"name": "b3f7c1f7d89efc0e50b52299d2dc39bb", "fusion_lat": 0.0, "type": "electric_scooter", "lat": 38.91845, "is_reserved": 0, "is_disabled": 0, "fusion_lon": 0.0, "bike_id": "b3f7c1f7d89efc0e50b52299d2dc39bb", "lon": -77.02310583333333, "rental_uris": {"ios": "https://dc.lft.to/lastmile_qr_scan", "android": "https://dc.lft.to/lastmile_qr_scan"}}, {"name": "076fb6340d71416c409f4c394eb32f96", "fusion_lat": 0.0, "type": "electric_scooter", "lat": 38.8985285, "is_reserved": 0, "is_disabled": 0, "fusion_lon": 0.0, "bike_id": "076fb6340d71416c409f4c394eb32f96", "lon": -77.01612333333334, "rental_uris": {"ios": "https://dc.lft.to/lastmile_qr_scan", "android": "https://dc.lft.to/lastmile_qr_scan"}}, {"name": "10d0d0d6ae04b47b733bb075bdd0136f", "fusion_lat": 0.0, "type": "electric_scooter", "lat": 38.86353483333333, "is_reserved": 0, "is_disabled": 0, "fusion_lon": 0.0, "bike_id": "10d0d0d6ae04b47b733bb075bdd0136f", "lon": -76.99065733333333, "rental_uris": {"ios": "https://dc.lft.to/lastmile_qr_scan", "android": "https://dc.lft.to/lastmile_qr_scan"}}, {"name": "41643b7e3f7e336144572c6d4bf7f3db", "fusion_lat": 0.0, "type": "electric_scooter", "lat": 38.880554000000004, "is_reserved": 0, "is_disabled": 0, "fusion_lon": 0.0, "bike_id": "41643b7e3f7e336144572c6d4bf7f3db", "lon": -77.01332583333334, "rental_uris": {"ios": "https://dc.lft.to/lastmile_qr_scan", "android": "https://dc.lft.to/lastmile_qr_scan"}}, {"name": "0d6659c5052e211eefc1359d8fbea032", "fusion_lat": 0.0, "type": "electric_scooter", "lat": 38.92065516666667, "is_reserved": 0, "is_disabled": 0, "fusion_lon": 0.0, "bike_id": "0d6659c5052e211eefc1359d8fbea032", "lon": -76.99852016666667, "rental_uris": {"ios": "https://dc.lft.to/lastmile_qr_scan", "android": "https://dc.lft.to/lastmile_qr_scan"}}, {"name": "9250a6404357e155737035c90911cee9", "fusion_lat": 0.0, "type": "electric_scooter", "lat": 38.90004283333333, "is_reserved": 0, "is_disabled": 0, "fusion_lon": 0.0, "bike_id": "9250a6404357e155737035c90911cee9", "lon": -77.05518416666666, "rental_uris": {"ios": "https://dc.lft.to/lastmile_qr_scan", "android": "https://dc.lft.to/lastmile_qr_scan"}}, {"name": "0e1c22bde607a506208129fe9bf443b2", "fusion_lat": 0.0, "type": "electric_scooter", "lat": 38.92298316666667, "is_reserved": 0, "is_disabled": 0, "fusion_lon": 0.0, "bike_id": "0e1c22bde607a506208129fe9bf443b2", "lon": -77.04213583333333, "rental_uris": {"ios": "https://dc.lft.to/lastmile_qr_scan", "android": "https://dc.lft.to/lastmile_qr_scan"}}, {"name": "677910c960cc8a21d3c7eb6a2cb9dc82", "fusion_lat": 0.0, "type": "electric_scooter", "lat": 38.907346, "is_reserved": 0, "is_disabled": 0, "fusion_lon": 0.0, "bike_id": "677910c960cc8a21d3c7eb6a2cb9dc82", "lon": -77.00611266666667, "rental_uris": {"ios": "https://dc.lft.to/lastmile_qr_scan", "android": "https://dc.lft.to/lastmile_qr_scan"}}, {"name": "8edd09b4a5a21feac94469037d434df6", "fusion_lat": 0.0, "type": "electric_scooter", "lat": 38.912558, "is_reserved": 0, "is_disabled": 0, "fusion_lon": 0.0, "bike_id": "8edd09b4a5a21feac94469037d434df6", "lon": -77.03866383333333, "rental_uris": {"ios": "https://dc.lft.to/lastmile_qr_scan", "android": "https://dc.lft.to/lastmile_qr_scan"}}, {"name": "823c0c93c3410e2eb706d114af8a6f24", "fusion_lat": 0.0, "type": "electric_scooter", "lat": 38.942044, "is_reserved": 0, "is_disabled": 0, "fusion_lon": 0.0, "bike_id": "823c0c93c3410e2eb706d114af8a6f24", "lon": -77.03591566666667, "rental_uris": {"ios": "https://dc.lft.to/lastmile_qr_scan", "android": "https://dc.lft.to/lastmile_qr_scan"}}, {"name": "fade997a70b7834d5992eab271721395", "fusion_lat": 0.0, "type": "electric_scooter", "lat": 38.89829016666667, "is_reserved": 0, "is_disabled": 0, "fusion_lon": 0.0, "bike_id": "fade997a70b7834d5992eab271721395", "lon": -76.987778, "rental_uris": {"ios": "https://dc.lft.to/lastmile_qr_scan", "android": "https://dc.lft.to/lastmile_qr_scan"}}, {"name": "76b4d18c9ea545b14a8d14a0b3e917b5", "fusion_lat": 0.0, "type": "electric_scooter", "lat": 38.898001, "is_reserved": 0, "is_disabled": 0, "fusion_lon": 0.0, "bike_id": "76b4d18c9ea545b14a8d14a0b3e917b5", "lon": -76.991646, "rental_uris": {"ios": "https://dc.lft.to/lastmile_qr_scan", "android": "https://dc.lft.to/lastmile_qr_scan"}}, {"name": "66a1566cf506eedfdceca9a1a0ea5f8d", "fusion_lat": 0.0, "type": "electric_scooter", "lat": 38.896034666666665, "is_reserved": 0, "is_disabled": 0, "fusion_lon": 0.0, "bike_id": "66a1566cf506eedfdceca9a1a0ea5f8d", "lon": -77.02684033333334, "rental_uris": {"ios": "https://dc.lft.to/lastmile_qr_scan", "android": "https://dc.lft.to/lastmile_qr_scan"}}, {"name": "bdab9c3b9f4829418a7fb033ba54dac6", "fusion_lat": 0.0, "type": "electric_scooter", "lat": 38.901035666666665, "is_reserved": 0, "is_disabled": 0, "fusion_lon": 0.0, "bike_id": "bdab9c3b9f4829418a7fb033ba54dac6", "lon": -77.04990833333333, "rental_uris": {"ios": "https://dc.lft.to/lastmile_qr_scan", "android": "https://dc.lft.to/lastmile_qr_scan"}}, {"name": "0eac2cb88a74adcffa1e269c2084d3a3", "fusion_lat": 0.0, "type": "electric_scooter", "lat": 38.898760833333334, "is_reserved": 0, "is_disabled": 0, "fusion_lon": 0.0, "bike_id": "0eac2cb88a74adcffa1e269c2084d3a3", "lon": -77.039041, "rental_uris": {"ios": "https://dc.lft.to/lastmile_qr_scan", "android": "https://dc.lft.to/lastmile_qr_scan"}}, {"name": "b76223f93cc4ea3b3ac518afeaf1ce01", "fusion_lat": 0.0, "type": "electric_scooter", "lat": 38.9065125, "is_reserved": 0, "is_disabled": 0, "fusion_lon": 0.0, "bike_id": "b76223f93cc4ea3b3ac518afeaf1ce01", "lon": -77.05308483333333, "rental_uris": {"ios": "https://dc.lft.to/lastmile_qr_scan", "android": "https://dc.lft.to/lastmile_qr_scan"}}, {"name": "a2a7219a279e1d9a753d933a4aae40a5", "fusion_lat": 0.0, "type": "electric_scooter", "lat": 38.90373966666667, "is_reserved": 0, "is_disabled": 0, "fusion_lon": 0.0, "bike_id": "a2a7219a279e1d9a753d933a4aae40a5", "lon": -77.03563633333333, "rental_uris": {"ios": "https://dc.lft.to/lastmile_qr_scan", "android": "https://dc.lft.to/lastmile_qr_scan"}}, {"name": "ed7d90c8f957611a599e834b5accadc1", "fusion_lat": 0.0, "type": "electric_scooter", "lat": 38.91012766666667, "is_reserved": 0, "is_disabled": 0, "fusion_lon": 0.0, "bike_id": "ed7d90c8f957611a599e834b5accadc1", "lon": -77.0277445, "rental_uris": {"ios": "https://dc.lft.to/lastmile_qr_scan", "android": "https://dc.lft.to/lastmile_qr_scan"}}, {"name": "09c6efa4b9a5e191280b1577803111fe", "fusion_lat": 0.0, "type": "electric_bike", "lat": 38.954781833333335, "is_reserved": 0, "is_disabled": 0, "fusion_lon": 0.0, "bike_id": "09c6efa4b9a5e191280b1577803111fe", "lon": -77.08242816666667, "rental_uris": {"ios": "https://dc.lft.to/lastmile_qr_scan", "android": "https://dc.lft.to/lastmile_qr_scan"}}, {"name": "7d5a97c5cb00e804c16fae8fb02a8cdf", "fusion_lat": 0.0, "type": "electric_scooter", "lat": 38.9287575, "is_reserved": 0, "is_disabled": 0, "fusion_lon": 0.0, "bike_id": "7d5a97c5cb00e804c16fae8fb02a8cdf", "lon": -77.04129666666667, "rental_uris": {"ios": "https://dc.lft.to/lastmile_qr_scan", "android": "https://dc.lft.to/lastmile_qr_scan"}}, {"name": "2870bb1da49acba86d6cf89ea8a38ff8", "fusion_lat": 0.0, "type": "electric_scooter", "lat": 38.90459966666667, "is_reserved": 0, "is_disabled": 0, "fusion_lon": 0.0, "bike_id": "2870bb1da49acba86d6cf89ea8a38ff8", "lon": -77.03275766666667, "rental_uris": {"ios": "https://dc.lft.to/lastmile_qr_scan", "android": "https://dc.lft.to/lastmile_qr_scan"}}, {"name": "ab2a1a8a22eafee358b7533ea6f97292", "fusion_lat": 0.0, "type": "electric_scooter", "lat": 38.933586, "is_reserved": 0, "is_disabled": 0, "fusion_lon": 0.0, "bike_id": "ab2a1a8a22eafee358b7533ea6f97292", "lon": -77.05728333333333, "rental_uris": {"ios": "https://dc.lft.to/lastmile_qr_scan", "android": "https://dc.lft.to/lastmile_qr_scan"}}, {"name": "33bf4c60909d67ec22252b262f0cb9e0", "fusion_lat": 0.0, "type": "electric_scooter", "lat": 38.92895133333333, "is_reserved": 0, "is_disabled": 0, "fusion_lon": 0.0, "bike_id": "33bf4c60909d67ec22252b262f0cb9e0", "lon": -77.05939866666667, "rental_uris": {"ios": "https://dc.lft.to/lastmile_qr_scan", "android": "https://dc.lft.to/lastmile_qr_scan"}}, {"name": "f3dbd564e4b073696fbe1e8520b9cff4", "fusion_lat": 0.0, "type": "electric_scooter", "lat": 38.93303483333333, "is_reserved": 0, "is_disabled": 0, "fusion_lon": 0.0, "bike_id": "f3dbd564e4b073696fbe1e8520b9cff4", "lon": -77.02470316666667, "rental_uris": {"ios": "https://dc.lft.to/lastmile_qr_scan", "android": "https://dc.lft.to/lastmile_qr_scan"}}, {"name": "3a9b7fefa4001b8b6e57e03c8fc314ba", "fusion_lat": 0.0, "type": "electric_scooter", "lat": 38.911085666666665, "is_reserved": 0, "is_disabled": 0, "fusion_lon": 0.0, "bike_id": "3a9b7fefa4001b8b6e57e03c8fc314ba", "lon": -77.03480683333333, "rental_uris": {"ios": "https://dc.lft.to/lastmile_qr_scan", "android": "https://dc.lft.to/lastmile_qr_scan"}}, {"name": "262e0dc42ac67199eb8551a273b092f3", "fusion_lat": 0.0, "type": "electric_scooter", "lat": 38.924209, "is_reserved": 0, "is_disabled": 0, "fusion_lon": 0.0, "bike_id": "262e0dc42ac67199eb8551a273b092f3", "lon": -77.01950833333333, "rental_uris": {"ios": "https://dc.lft.to/lastmile_qr_scan", "android": "https://dc.lft.to/lastmile_qr_scan"}}, {"name": "61a9268f67a373509975a4aaafc597a2", "fusion_lat": 0.0, "type": "electric_scooter", "lat": 38.8966215, "is_reserved": 0, "is_disabled": 0, "fusion_lon": 0.0, "bike_id": "61a9268f67a373509975a4aaafc597a2", "lon": -77.04872483333334, "rental_uris": {"ios": "https://dc.lft.to/lastmile_qr_scan", "android": "https://dc.lft.to/lastmile_qr_scan"}}, {"name": "48c3340d4cef518f4e60d83821d9a6e5", "fusion_lat": 0.0, "type": "electric_scooter", "lat": 38.900901166666664, "is_reserved": 0, "is_disabled": 0, "fusion_lon": 0.0, "bike_id": "48c3340d4cef518f4e60d83821d9a6e5", "lon": -77.050245, "rental_uris": {"ios": "https://dc.lft.to/lastmile_qr_scan", "android": "https://dc.lft.to/lastmile_qr_scan"}}, {"name": "6168e139dcc415dfb58ebb14ffc59090", "fusion_lat": 0.0, "type": "electric_scooter", "lat": 38.904582166666664, "is_reserved": 0, "is_disabled": 0, "fusion_lon": 0.0, "bike_id": "6168e139dcc415dfb58ebb14ffc59090", "lon": -77.0413625, "rental_uris": {"ios": "https://dc.lft.to/lastmile_qr_scan", "android": "https://dc.lft.to/lastmile_qr_scan"}}, {"name": "93ae1358d4b8f625c5d57b7c9358179e", "fusion_lat": 0.0, "type": "electric_scooter", "lat": 38.92737733333333, "is_reserved": 0, "is_disabled": 0, "fusion_lon": 0.0, "bike_id": "93ae1358d4b8f625c5d57b7c9358179e", "lon": -77.02494466666667, "rental_uris": {"ios": "https://dc.lft.to/lastmile_qr_scan", "android": "https://dc.lft.to/lastmile_qr_scan"}}, {"name": "03e8873fbb0ea6053a35ef126279383d", "fusion_lat": 0.0, "type": "electric_scooter", "lat": 38.92878316666667, "is_reserved": 0, "is_disabled": 0, "fusion_lon": 0.0, "bike_id": "03e8873fbb0ea6053a35ef126279383d", "lon": -77.02713816666666, "rental_uris": {"ios": "https://dc.lft.to/lastmile_qr_scan", "android": "https://dc.lft.to/lastmile_qr_scan"}}, {"name": "4b2daea6faafe79f945a6df6c28aa38d", "fusion_lat": 0.0, "type": "electric_scooter", "lat": 38.911751333333335, "is_reserved": 0, "is_disabled": 0, "fusion_lon": 0.0, "bike_id": "4b2daea6faafe79f945a6df6c28aa38d", "lon": -77.031853, "rental_uris": {"ios": "https://dc.lft.to/lastmile_qr_scan", "android": "https://dc.lft.to/lastmile_qr_scan"}}, {"name": "b94384dcaffa0d1689df72abdf0c261c", "fusion_lat": 0.0, "type": "electric_scooter", "lat": 38.902497833333335, "is_reserved": 0, "is_disabled": 0, "fusion_lon": 0.0, "bike_id": "b94384dcaffa0d1689df72abdf0c261c", "lon": -77.03980766666666, "rental_uris": {"ios": "https://dc.lft.to/lastmile_qr_scan", "android": "https://dc.lft.to/lastmile_qr_scan"}}, {"name": "c2f5e5cd0695045f962a458c2dc388ee", "fusion_lat": 0.0, "type": "electric_scooter", "lat": 38.899598833333336, "is_reserved": 0, "is_disabled": 0, "fusion_lon": 0.0, "bike_id": "c2f5e5cd0695045f962a458c2dc388ee", "lon": -77.052941, "rental_uris": {"ios": "https://dc.lft.to/lastmile_qr_scan", "android": "https://dc.lft.to/lastmile_qr_scan"}}, {"name": "83797574b296ba5fb56565d59baef6ca", "fusion_lat": 0.0, "type": "electric_scooter", "lat": 38.9273865, "is_reserved": 0, "is_disabled": 0, "fusion_lon": 0.0, "bike_id": "83797574b296ba5fb56565d59baef6ca", "lon": -77.022536, "rental_uris": {"ios": "https://dc.lft.to/lastmile_qr_scan", "android": "https://dc.lft.to/lastmile_qr_scan"}}, {"name": "3e12b02f37c40b1e192677556519b60a", "fusion_lat": 0.0, "type": "electric_scooter", "lat": 38.90731266666667, "is_reserved": 0, "is_disabled": 0, "fusion_lon": 0.0, "bike_id": "3e12b02f37c40b1e192677556519b60a", "lon": -77.032114, "rental_uris": {"ios": "https://dc.lft.to/lastmile_qr_scan", "android": "https://dc.lft.to/lastmile_qr_scan"}}, {"name": "af9586285150876b8c50ef85b44c7bc4", "fusion_lat": 0.0, "type": "electric_scooter", "lat": 38.87841, "is_reserved": 0, "is_disabled": 0, "fusion_lon": 0.0, "bike_id": "af9586285150876b8c50ef85b44c7bc4", "lon": -76.98618716666667, "rental_uris": {"ios": "https://dc.lft.to/lastmile_qr_scan", "android": "https://dc.lft.to/lastmile_qr_scan"}}, {"name": "e6c28df1f26073d75b7db4891a0555aa", "fusion_lat": 0.0, "type": "electric_scooter", "lat": 38.901638, "is_reserved": 0, "is_disabled": 0, "fusion_lon": 0.0, "bike_id": "e6c28df1f26073d75b7db4891a0555aa", "lon": -77.04703966666666, "rental_uris": {"ios": "https://dc.lft.to/lastmile_qr_scan", "android": "https://dc.lft.to/lastmile_qr_scan"}}, {"name": "77dd5ace323ad9c3349f7876b91a027e", "fusion_lat": 0.0, "type": "electric_scooter", "lat": 38.939098333333334, "is_reserved": 0, "is_disabled": 0, "fusion_lon": 0.0, "bike_id": "77dd5ace323ad9c3349f7876b91a027e", "lon": -77.0604565, "rental_uris": {"ios": "https://dc.lft.to/lastmile_qr_scan", "android": "https://dc.lft.to/lastmile_qr_scan"}}, {"name": "8d6bf4b7923aed301ff783226987dc25", "fusion_lat": 0.0, "type": "electric_scooter", "lat": 38.910138333333336, "is_reserved": 0, "is_disabled": 0, "fusion_lon": 0.0, "bike_id": "8d6bf4b7923aed301ff783226987dc25", "lon": -76.99678216666666, "rental_uris": {"ios": "https://dc.lft.to/lastmile_qr_scan", "android": "https://dc.lft.to/lastmile_qr_scan"}}, {"name": "f6c45c10f69051b1b205e37efcf18652", "fusion_lat": 0.0, "type": "electric_scooter", "lat": 38.883462333333334, "is_reserved": 0, "is_disabled": 0, "fusion_lon": 0.0, "bike_id": "f6c45c10f69051b1b205e37efcf18652", "lon": -77.015596, "rental_uris": {"ios": "https://dc.lft.to/lastmile_qr_scan", "android": "https://dc.lft.to/lastmile_qr_scan"}}, {"name": "67d0a8073db985d3e47db57d05d96357", "fusion_lat": 0.0, "type": "electric_scooter", "lat": 38.905648666666664, "is_reserved": 0, "is_disabled": 0, "fusion_lon": 0.0, "bike_id": "67d0a8073db985d3e47db57d05d96357", "lon": -77.00585266666667, "rental_uris": {"ios": "https://dc.lft.to/lastmile_qr_scan", "android": "https://dc.lft.to/lastmile_qr_scan"}}, {"name": "6b7540d2d3abf61eec2fb52be476f80f", "fusion_lat": 0.0, "type": "electric_scooter", "lat": 38.922108, "is_reserved": 0, "is_disabled": 0, "fusion_lon": 0.0, "bike_id": "6b7540d2d3abf61eec2fb52be476f80f", "lon": -76.98752066666667, "rental_uris": {"ios": "https://dc.lft.to/lastmile_qr_scan", "android": "https://dc.lft.to/lastmile_qr_scan"}}, {"name": "95e7c63dfd9f113f646af695f0e7a875", "fusion_lat": 0.0, "type": "electric_scooter", "lat": 38.93199333333333, "is_reserved": 0, "is_disabled": 0, "fusion_lon": 0.0, "bike_id": "95e7c63dfd9f113f646af695f0e7a875", "lon": -77.036574, "rental_uris": {"ios": "https://dc.lft.to/lastmile_qr_scan", "android": "https://dc.lft.to/lastmile_qr_scan"}}, {"name": "527cb96a1a6f9b518efba699ce9ea344", "fusion_lat": 0.0, "type": "electric_scooter", "lat": 38.959097166666666, "is_reserved": 0, "is_disabled": 0, "fusion_lon": 0.0, "bike_id": "527cb96a1a6f9b518efba699ce9ea344", "lon": -77.08082516666667, "rental_uris": {"ios": "https://dc.lft.to/lastmile_qr_scan", "android": "https://dc.lft.to/lastmile_qr_scan"}}, {"name": "4eefa44cc99cccfcca678bae8f03f762", "fusion_lat": 0.0, "type": "electric_scooter", "lat": 38.924783833333336, "is_reserved": 0, "is_disabled": 0, "fusion_lon": 0.0, "bike_id": "4eefa44cc99cccfcca678bae8f03f762", "lon": -77.0521635, "rental_uris": {"ios": "https://dc.lft.to/lastmile_qr_scan", "android": "https://dc.lft.to/lastmile_qr_scan"}}, {"name": "4e6dbaeccde72aadfa21155c01ac104d", "fusion_lat": 0.0, "type": "electric_scooter", "lat": 38.9127525, "is_reserved": 0, "is_disabled": 0, "fusion_lon": 0.0, "bike_id": "4e6dbaeccde72aadfa21155c01ac104d", "lon": -77.03196033333333, "rental_uris": {"ios": "https://dc.lft.to/lastmile_qr_scan", "android": "https://dc.lft.to/lastmile_qr_scan"}}, {"name": "4e8ff31192044625ca738fb7759e304b", "fusion_lat": 0.0, "type": "electric_bike", "lat": 39.0038235, "is_reserved": 0, "is_disabled": 0, "fusion_lon": 0.0, "bike_id": "4e8ff31192044625ca738fb7759e304b", "lon": -77.012922, "rental_uris": {"ios": "https://dc.lft.to/lastmile_qr_scan", "android": "https://dc.lft.to/lastmile_qr_scan"}}, {"name": "b3d8e71a6474ce5bdeec5b514bc0c026", "fusion_lat": 0.0, "type": "electric_bike", "lat": 38.8078805, "is_reserved": 0, "is_disabled": 0, "fusion_lon": 0.0, "bike_id": "b3d8e71a6474ce5bdeec5b514bc0c026", "lon": -77.12959066666667, "rental_uris": {"ios": "https://dc.lft.to/lastmile_qr_scan", "android": "https://dc.lft.to/lastmile_qr_scan"}},