{"data": {"bikes": [{"lat": 38.88926383333333, "is_disabled": 0, "type": "electric_scooter", "lon": -76.97375983333333, "bike_id": "ac0554a6f71897ddaf1c1840f1b60c9c", "fusion_lat": 0.0, "name": "ac0554a6f71897ddaf1c1840f1b60c9c", "is_reserved": 0, "rental_uris": {"android": "https://dc.lft.to/lastmile_qr_scan", "ios": "https://dc.lft.to/lastmile_qr_scan"}, "fusion_lon": 0.0}, {"lat": 38.917004, "is_disabled": 0, "type": "electric_scooter", "lon": -77.033479, "bike_id": "5cf09938ad178ac9d317a9b46dd9b702", "fusion_lat": 0.0, "name": "5cf09938ad178ac9d317a9b46dd9b702", "is_reserved": 0, "rental_uris": {"android": "https://dc.lft.to/lastmile_qr_scan", "ios": "https://dc.lft.to/lastmile_qr_scan"}, "fusion_lon": 0.0}, {"lat": 38.902559, "is_disabled": 0, "type": "electric_scooter", "lon": -77.03068816666666, "bike_id": "c749e37bb8479a56b54f80307494f294", "fusion_lat": 0.0, "name": "c749e37bb8479a56b54f80307494f294", "is_reserved": 0, "rental_uris": {"android": "https://dc.lft.to/lastmile_qr_scan", "ios": "https://dc.lft.to/lastmile_qr_scan"}, "fusion_lon": 0.0}, {"lat": 38.94407316666667, "is_disabled": 0, "type": "electric_scooter", "lon": -77.02643083333334, "bike_id": "5655939f9df7ab41cf9341ed97772cf5", "fusion_lat": 0.0, "name": "5655939f9df7ab41cf9341ed97772cf5", "is_reserved": 0, "rental_uris": {"android": "https://dc.lft.to/lastmile_qr_scan", "ios": "https://dc.lft.to/lastmile_qr_scan"}, "fusion_lon": 0.0}, {"lat": 38.855127, "is_disabled": 0, "type": "electric_bike", "lon": -76.98420683333333, "bike_id": "e0e5acee119dad3bd1ab1a7879bf09ab", "fusion_lat": 0.0, "name": "e0e5acee119dad3bd1ab1a7879bf09ab", "is_reserved": 0, "rental_uris": {"android": "https://dc.lft.to/lastmile_qr_scan", "ios": "https://dc.lft.to/lastmile_qr_scan"}, "fusion_lon": 0.0}, {"lat": 38.9085495, "is_disabled": 0, "type": "electric_scooter", "lon": -77.04776583333333, "bike_id": "8bc8e0e475c34935bb573199be633680", "fusion_lat": 0.0, "name": "8bc8e0e475c34935bb573199be633680", "is_reserved": 0, "rental_uris": {"android": "https://dc.lft.to/lastmile_qr_scan", "ios": "https://dc.lft.to/lastmile_qr_scan"}, "fusion_lon": 0.0}, {"lat": 38.902102, "is_disabled": 0, "type": "electric_scooter", "lon": -77.02369333333333, "bike_id": "b5464179b40e520e06e60265bd960768", "fusion_lat": 0.0, "name": "b5464179b40e520e06e60265bd960768", "is_reserved": 0, "rental_uris": {"android": "https://dc.lft.to/lastmile_qr_scan", "ios": "https://dc.lft.to/lastmile_qr_scan"}, "fusion_lon": 0.0}, {"lat": 38.900684166666665, "is_disabled": 0, "type": "electric_scooter", "lon": -77.0021275, "bike_id": "c13914caecd1bd32a17fa3c1964006c4", "fusion_lat": 0.0, "name": "c13914caecd1bd32a17fa3c1964006c4", "is_reserved": 0, "rental_uris": {"android": "https://dc.lft.to/lastmile_qr_scan", "ios": "https://dc.lft.to/lastmile_qr_scan"}, "fusion_lon": 0.0}, {"lat": 38.91288816666667, "is_disabled": 0, "type": "electric_bike", "lon": -77.04484183333334, "bike_id": "f14094e1d911a209d202582c1895e11a", "fusion_lat": 0.0, "name": "f14094e1d911a209d202582c1895e11a", "is_reserved": 0, "rental_uris": {"android": "https://dc.lft.to/lastmile_qr_scan", "ios": "https://dc.lft.to/lastmile_qr_scan"}, "fusion_lon": 0.0}, {"lat": 38.87243866666667, "is_disabled": 0, "type": "electric_scooter", "lon": -76.97729216666667, "bike_id": "fbe78409c54ad139edec7825f11bad4e", "fusion_lat": 0.0, "name": "fbe78409c54ad139edec7825f11bad4e", "is_reserved": 0, "rental_uris": {"android": "https://dc.lft.to/lastmile_qr_scan", "ios": "https://dc.lft.to/lastmile_qr_scan"}, "fusion_lon": 0.0}, {"lat": 38.93084283333334, "is_disabled": 0, "type": "electric_scooter", "lon": -77.02556483333333, "bike_id": "28e4d9bbe41a11a630219e94dc50dcf5", "fusion_lat": 0.0, "name": "28e4d9bbe41a11a630219e94dc50dcf5", "is_reserved": 0, "rental_uris": {"android": "https://dc.lft.to/lastmile_qr_scan", "ios": "https://dc.lft.to/lastmile_qr_scan"}, "fusion_lon": 0.0}, {"lat": 38.87068416666666, "is_disabled": 0, "type": "electric_scooter", "lon": -76.96846966666666, "bike_id": "c607a39c5ff5073f757e06bd45c0df00", "fusion_lat": 0.0, "name": "c607a39c5ff5073f757e06bd45c0df00", "is_reserved": 0, "rental_uris": {"android": "https://dc.lft.to/lastmile_qr_scan", "ios": "https://dc.lft.to/lastmile_qr_scan"}, "fusion_lon": 0.0}, {"lat": 38.901063666666666, "is_disabled": 0, "type": "electric_scooter", "lon": -77.03197383333334, "bike_id": "ebeeead6d015a0959db1afbfeb7f0bbf", "fusion_lat": 0.0, "name": "ebeeead6d015a0959db1afbfeb7f0bbf", "is_reserved": 0, "rental_uris": {"android": "https://dc.lft.to/lastmile_qr_scan", "ios": "https://dc.lft.to/lastmile_qr_scan"}, "fusion_lon": 0.0}, {"lat": 38.92036133333333, "is_disabled": 0, "type": "electric_bike", "lon": -77.03708816666666, "bike_id": "51cb6fde8db0849acb9f664a21900c95", "fusion_lat": 0.0, "name": "51cb6fde8db0849acb9f664a21900c95", "is_reserved": 0, "rental_uris": {"android": "https://dc.lft.to/lastmile_qr_scan", "ios": "https://dc.lft.to/lastmile_qr_scan"}, "fusion_lon": 0.0}, {"lat": 38.907685, "is_disabled": 0, "type": "electric_scooter", "lon": -76.9830695, "bike_id": "e3e10cba69f8e5ff9835ef352a7b1a49", "fusion_lat": 0.0, "name": "e3e10cba69f8e5ff9835ef352a7b1a49", "is_reserved": 0, "rental_uris": {"android": "https://dc.lft.to/lastmile_qr_scan", "ios": "https://dc.lft.to/lastmile_qr_scan"}, "fusion_lon": 0.0}, {"lat": 38.91799183333333, "is_disabled": 0, "type": "electric_scooter", "lon": -77.040161, "bike_id": "270d6d3663f0846259021d02102f6139", "fusion_lat": 0.0, "name": "270d6d3663f0846259021d02102f6139", "is_reserved": 0, "rental_uris": {"android": "https://dc.lft.to/lastmile_qr_scan", "ios": "https://dc.lft.to/lastmile_qr_scan"}, "fusion_lon": 0.0}, {"lat": 38.92152733333333, "is_disabled": 0, "type": "electric_scooter", "lon": -77.03514, "bike_id": "53a7eff2034e48c04df7faff078b61b1", "fusion_lat": 0.0, "name": "53a7eff2034e48c04df7faff078b61b1", "is_reserved": 0, "rental_uris": {"android": "https://dc.lft.to/lastmile_qr_scan", "ios": "https://dc.lft.to/lastmile_qr_scan"}, "fusion_lon": 0.0}, {"lat": 38.87625416666667, "is_disabled": 0, "type": "electric_scooter", "lon": -76.96527033333334, "bike_id": "67438c1742daff89a2932ba4bbefa859", "fusion_lat": 0.0, "name": "67438c1742daff89a2932ba4bbefa859", "is_reserved": 0, "rental_uris": {"android": "https://dc.lft.to/lastmile_qr_scan", "ios": "https://dc.lft.to/lastmile_qr_scan"}, "fusion_lon": 0.0}, {"lat": 38.8592795, "is_disabled": 0, "type": "electric_scooter", "lon": -76.99706316666666, "bike_id": "c31ba292100a1e52f4d8d0047da858de", "fusion_lat": 0.0, "name": "c31ba292100a1e52f4d8d0047da858de", "is_reserved": 0, "rental_uris": {"android": "https://dc.lft.to/lastmile_qr_scan", "ios": "https://dc.lft.to/lastmile_qr_scan"}, "fusion_lon": 0.0}, {"lat": 38.95563333333333, "is_disabled": 0, "type": "electric_scooter", "lon": -77.02237216666667, "bike_id": "4275b32589d666c0d1a652dc58ef9165", "fusion_lat": 0.0, "name": "4275b32589d666c0d1a652dc58ef9165", "is_reserved": 0, "rental_uris": {"android": "https://dc.lft.to/lastmile_qr_scan", "ios": "https://dc.lft.to/lastmile_qr_scan"}, "fusion_lon": 0.0}, {"lat": 38.905709, "is_disabled": 0, "type": "electric_scooter", "lon": -77.0431365, "bike_id": "7519c6dcfc8e11e02d972e9cc35c3930", "fusion_lat": 0.0, "name": "7519c6dcfc8e11e02d972e9cc35c3930", "is_reserved": 0, "rental_uris": {"android": "https://dc.lft.to/lastmile_qr_scan", "ios": "https://dc.lft.to/lastmile_qr_scan"}, "fusion_lon": 0.0}, {"lat": 38.904862, "is_disabled": 0, "type": "electric_scooter", "lon": -77.04877666666667, "bike_id": "44cd66afe0cc4a74e3ade44bfb116fa1", "fusion_lat": 0.0, "name": "44cd66afe0cc4a74e3ade44bfb116fa1", "is_reserved": 0, "rental_uris": {"android": "https://dc.lft.to/lastmile_qr_scan", "ios": "https://dc.lft.to/lastmile_qr_scan"}, "fusion_lon": 0.0}, {"lat": 38.913600833333334, "is_disabled": 0, "type": "electric_scooter", "lon": -77.03363083333333, "bike_id": "0bea620ee1c283ccc65680e6a1e1da99", "fusion_lat": 0.0, "name": "0bea620ee1c283ccc65680e6a1e1da99", "is_reserved": 0, "rental_uris": {"android": "https://dc.lft.to/lastmile_qr_scan", "ios": "https://dc.lft.to/lastmile_qr_scan"}, "fusion_lon": 0.0}, {"lat": 38.91567366666666, "is_disabled": 0, "type": "electric_scooter", "lon": -77.0228635, "bike_id": "68ccad32d8f0a0a3f78f31073fe4d70a", "fusion_lat": 0.0, "name": "68ccad32d8f0a0a3f78f31073fe4d70a", "is_reserved": 0, "rental_uris": {"android": "https://dc.lft.to/lastmile_qr_scan", "ios": "https://dc.lft.to/lastmile_qr_scan"}, "fusion_lon": 0.0}, {"lat": 38.90945216666667, "is_disabled": 0, "type": "electric_scooter", "lon": -77.03455833333334, "bike_id": "865ed843512e6abc2b6d53dd617e2768", "fusion_lat": 0.0, "name": "865ed843512e6abc2b6d53dd617e2768", "is_reserved": 0, "rental_uris": {"android": "https://dc.lft.to/lastmile_qr_scan", "ios": "https://dc.lft.to/lastmile_qr_scan"}, "fusion_lon": 0.0}, {"lat": 38.902181, "is_disabled": 0, "type": "electric_scooter", "lon": -77.0590775, "bike_id": "6c02547ad83ff4503cc03425cb670baa", "fusion_lat": 0.0, "name": "6c02547ad83ff4503cc03425cb670baa", "is_reserved": 0, "rental_uris": {"android": "https://dc.lft.to/lastmile_qr_scan", "ios": "https://dc.lft.to/lastmile_qr_scan"}, "fusion_lon": 0.0}, {"lat": 38.900922666666666, "is_disabled": 0, "type": "electric_scooter", "lon": -77.05611516666667, "bike_id": "1594ae4a429c88097257c5e480cd5999", "fusion_lat": 0.0, "name": "1594ae4a429c88097257c5e480cd5999", "is_reserved": 0, "rental_uris": {"android": "https://dc.lft.to/lastmile_qr_scan", "ios": "https://dc.lft.to/lastmile_qr_scan"}, "fusion_lon": 0.0}, {"lat": 38.86508583333333, "is_disabled": 0, "type": "electric_scooter", "lon": -76.99010516666667, "bike_id": "ba59a3b40aa98cd4f0ec916a3d24b47d", "fusion_lat": 0.0, "name": "ba59a3b40aa98cd4f0ec916a3d24b47d", "is_reserved": 0, "rental_uris": {"android": "https://dc.lft.to/lastmile_qr_scan", "ios": "https://dc.lft.to/lastmile_qr_scan"}, "fusion_lon": 0.0}, {"lat": 38.898093, "is_disabled": 0, "type": "electric_scooter", "lon": -77.02813383333333, "bike_id": "ad1d0143c291b7734452a5e52781758f", "fusion_lat": 0.0, "name": "ad1d0143c291b7734452a5e52781758f", "is_reserved": 0, "rental_uris": {"android": "https://dc.lft.to/lastmile_qr_scan", "ios": "https://dc.lft.to/lastmile_qr_scan"}, "fusion_lon": 0.0}, {"lat": 38.89992433333333, "is_disabled": 0, "type": "electric_scooter", "lon": -77.00620433333333, "bike_id": "94ea55248350b209cdddc107c2ab5f19", "fusion_lat": 0.0, "name": "94ea55248350b209cdddc107c2ab5f19", "is_reserved": 0, "rental_uris": {"android": "https://dc.lft.to/lastmile_qr_scan", "ios": "https://dc.lft.to/lastmile_qr_scan"}, "fusion_lon": 0.0}, {"lat": 38.89222766666666, "is_disabled": 0, "type": "electric_scooter", "lon": -77.022127, "bike_id": "3e26e468d44d470411a6ad38d1a77d83", "fusion_lat": 0.0, "name": "3e26e468d44d470411a6ad38d1a77d83", "is_reserved": 0, "rental_uris": {"android": "https://dc.lft.to/lastmile_qr_scan", "ios": "https://dc.lft.to/lastmile_qr_scan"}, "fusion_lon": 0.0}, {"lat": 38.90334766666667, "is_disabled": 0, "type": "electric_scooter", "lon": -77.02602583333334, "bike_id": "6be5f67fcf12a0b85d0040988da6ea95", "fusion_lat": 0.0, "name": "6be5f67fcf12a0b85d0040988da6ea95", "is_reserved": 0, "rental_uris": {"android": "https://dc.lft.to/lastmile_qr_scan", "ios": "https://dc.lft.to/lastmile_qr_scan"}, "fusion_lon": 0.0}, {"lat": 38.941723833333334, "is_disabled": 0, "type": "electric_scooter", "lon": -77.025044, "bike_id": "845b56d9bdff5be4ecd8f472d205d847", "fusion_lat": 0.0, "name": "845b56d9bdff5be4ecd8f472d205d847", "is_reserved": 0, "rental_uris": {"android": "https://dc.lft.to/lastmile_qr_scan", "ios": "https://dc.lft.to/lastmile_qr_scan"}, "fusion_lon": 0.0}, {"lat": 38.892188, "is_disabled": 0, "type": "electric_scooter", "lon": -76.9329195, "bike_id": "c9ad2602a8abedce80f114f95826cf65", "fusion_lat": 0.0, "name": "c9ad2602a8abedce80f114f95826cf65", "is_reserved": 0, "rental_uris": {"android": "https://dc.lft.to/lastmile_qr_scan", "ios": "https://dc.lft.to/lastmile_qr_scan"}, "fusion_lon": 0.0}, {"lat": 38.908468, "is_disabled": 0, "type": "electric_scooter", "lon": -77.02058466666666, "bike_id": "61bb1ab7100230bd934d9348519b2aea", "fusion_lat": 0.0, "name": "61bb1ab7100230bd934d9348519b2aea", "is_reserved": 0, "rental_uris": {"android": "https://dc.lft.to/lastmile_qr_scan", "ios": "https://dc.lft.to/lastmile_qr_scan"}, "fusion_lon": 0.0}, {"lat": 38.912630666666665, "is_disabled": 0, "type": "electric_scooter", "lon": -77.0183565, "bike_id": "f1986f03c1e27c2c4dd82ae82c5d04ea", "fusion_lat": 0.0, "name": "f1986f03c1e27c2c4dd82ae82c5d04ea", "is_reserved": 0, "rental_uris": {"android": "https://dc.lft.to/lastmile_qr_scan", "ios": "https://dc.lft.to/lastmile_qr_scan"}, "fusion_lon": 0.0}, {"lat": 38.9142445, "is_disabled": 0, "type": "electric_scooter", "lon": -77.0320075, "bike_id": "df88c2fb4cf377045700d1053ad951b0", "fusion_lat": 0.0, "name": "df88c2fb4cf377045700d1053ad951b0", "is_reserved": 0, "rental_uris": {"android": "https://dc.lft.to/lastmile_qr_scan", "ios": "https://dc.lft.to/lastmile_qr_scan"}, "fusion_lon": 0.0}, {"lat": 38.90593233333333, "is_disabled": 0, "type": "electric_scooter", "lon": -77.003039, "bike_id": "79fab52dd329849eb578b2507c54f377", "fusion_lat": 0.0, "name": "79fab52dd329849eb578b2507c54f377", "is_reserved": 0, "rental_uris": {"android": "https://dc.lft.to/lastmile_qr_scan", "ios": "https://dc.lft.to/lastmile_qr_scan"}, "fusion_lon": 0.0}, {"lat": 38.940367333333334, "is_disabled": 0, "type": "electric_bike", "lon": -76.98820266666667, "bike_id": "a3d7fc15d9244b7b85df341bdc929dee", "fusion_lat": 0.0, "name": "a3d7fc15d9244b7b85df341bdc929dee", "is_reserved": 0, "rental_uris": {"android": "https://dc.lft.to/lastmile_qr_scan", "ios": "https://dc.lft.to/lastmile_qr_scan"}, "fusion_lon": 0.0}, {"lat": 38.91199966666667, "is_disabled": 0, "type": "electric_scooter", "lon": -77.03210066666666, "bike_id": "0aee79a8ec22504e522c392e5e2dc64e", "fusion_lat": 0.0, "name": "0aee79a8ec22504e522c392e5e2dc64e", "is_reserved": 0, "rental_uris": {"android": "https://dc.lft.to/lastmile_qr_scan", "ios": "https://dc.lft.to/lastmile_qr_scan"}, "fusion_lon": 0.0}, {"lat": 38.920716, "is_disabled": 0, "type": "electric_scooter", "lon": -77.0254105, "bike_id": "204b6d83046511dd3baac12a2428bafd", "fusion_lat": 0.0, "name": "204b6d83046511dd3baac12a2428bafd", "is_reserved": 0, "rental_uris": {"android": "https://dc.lft.to/lastmile_qr_scan", "ios": "https://dc.lft.to/lastmile_qr_scan"}, "fusion_lon": 0.0}, {"lat": 38.92107216666667, "is_disabled": 0, "type": "electric_bike", "lon": -77.0632875, "bike_id": "beae21ba8fe969f3f7722a2436cdd16e", "fusion_lat": 0.0, "name": "beae21ba8fe969f3f7722a2436cdd16e", "is_reserved": 0, "rental_uris": {"android": "https://dc.lft.to/lastmile_qr_scan", "ios": "https://dc.lft.to/lastmile_qr_scan"}, "fusion_lon": 0.0}, {"lat": 38.88501016666667, "is_disabled": 0, "type": "electric_scooter", "lon": -77.007087, "bike_id": "8a22668e956584464f53f7dcce47c04d", "fusion_lat": 0.0, "name": "8a22668e956584464f53f7dcce47c04d", "is_reserved": 0, "rental_uris": {"android": "https://dc.lft.to/lastmile_qr_scan", "ios": "https://dc.lft.to/lastmile_qr_scan"}, "fusion_lon": 0.0}, {"lat": 38.800634, "is_disabled": 0, "type": "electric_bike", "lon": -77.07136216666666, "bike_id": "05cfed656339ca0aa8ae3b258b4afaa5", "fusion_lat": 0.0, "name": "05cfed656339ca0aa8ae3b258b4afaa5", "is_reserved": 0, "rental_uris": {"android": "https://dc.lft.to/lastmile_qr_scan", "ios": "https://dc.lft.to/lastmile_qr_scan"}, "fusion_lon": 0.0}, {"lat": 38.86650133333333, "is_disabled": 0, "type": "electric_scooter", "lon": -76.98886366666666, "bike_id": "a01d13c6ae294aab4795deb70b06c8bd", "fusion_lat": 0.0, "name": "a01d13c6ae294aab4795deb70b06c8bd", "is_reserved": 0, "rental_uris": {"android": "https://dc.lft.to/lastmile_qr_scan", "ios": "https://dc.lft.to/lastmile_qr_scan"}, "fusion_lon": 0.0}, {"lat": 38.92959666666667, "is_disabled": 0, "type": "electric_bike", "lon": -77.22571066666667, "bike_id": "df25699e9bbf04140f3417e12f7c4b49", "fusion_lat": 0.0, "name": "df25699e9bbf04140f3417e12f7c4b49", "is_reserved": 0, "rental_uris": {"android": "https://dc.lft.to/lastmile_qr_scan", "ios": "https://dc.lft.to/lastmile_qr_scan"}, "fusion_lon": 0.0}, {"lat": 38.842710833333335, "is_disabled": 0, "type": "electric_bike", "lon": -76.98848016666666, "bike_id": "3addd76eed615b1c648d0e0d43aa23a3", "fusion_lat": 0.0, "name": "3addd76eed615b1c648d0e0d43aa23a3", "is_reserved": 0, "rental_uris": {"android": "https://dc.lft.to/lastmile_qr_scan", "ios": "https://dc.lft.to/lastmile_qr_scan"}, "fusion_lon": 0.0}, {"lat": 38.86620583333333, "is_disabled": 0, "type": "electric_scooter", "lon": -76.98703166666667, "bike_id": "d05f7eeb8281cb5c5771dc7bec991dd9", "fusion_lat": 0.0, "name": "d05f7eeb8281cb5c5771dc7bec991dd9", "is_reserved": 0, "rental_uris": {"android": "https://dc.lft.to/lastmile_qr_scan", "ios": "https://dc.lft.to/lastmile_qr_scan"}, "fusion_lon": 0.0}, {"lat": 38.884877, "is_disabled": 0, "type": "electric_scooter", "lon": -77.00708666666667, "bike_id": "2a8cf5714fb999feeb36107e4db258fc", "fusion_lat": 0.0, "name": "2a8cf5714fb999feeb36107e4db258fc", "is_reserved": 0, "rental_uris": {"android": "https://dc.lft.to/lastmile_qr_scan", "ios": "https://dc.lft.to/lastmile_qr_scan"}, "fusion_lon": 0.0}, {"lat": 38.892191, "is_disabled": 0, "type": "electric_scooter", "lon": -77.0277725, "bike_id": "c86224f0b719d2409ee3748eb35b7301", "fusion_lat": 0.0, "name": "c86224f0b719d2409ee3748eb35b7301", "is_reserved": 0, "rental_uris": {"android": "https://dc.lft.to/lastmile_qr_scan", "ios": "https://dc.lft.to/lastmile_qr_scan"}, "fusion_lon": 0.0}, {"lat": 38.90530616666667, "is_disabled": 0, "type": "electric_scooter", "lon": -77.04361433333334, "bike_id": "5523e0d1d64ffbae9ce491cd64f8409f", "fusion_lat": 0.0, "name": "5523e0d1d64ffbae9ce491cd64f8409f", "is_reserved": 0, "rental_uris": {"android": "https://dc.lft.to/lastmile_qr_scan", "ios": "https://dc.lft.to/lastmile_qr_scan"}, "fusion_lon": 0.0}, {"lat": 38.9001015, "is_disabled": 0, "type": "electric_scooter", "lon": -76.99769716666667, "bike_id": "f342f3678b68526460483f9629fa94f6", "fusion_lat": 0.0, "name": "f342f3678b68526460483f9629fa94f6", "is_reserved": 0, "rental_uris": {"android": "https://dc.lft.to/lastmile_qr_scan", "ios": "https://dc.lft.to/lastmile_qr_scan"}, "fusion_lon": 0.0}, {"lat": 38.91361, "is_disabled": 0, "type": "electric_scooter", "lon": -77.039588, "bike_id": "22ea38ecfa1b1c74b2fde0852430a555", "fusion_lat": 0.0, "name": "22ea38ecfa1b1c74b2fde0852430a555", "is_reserved": 0, "rental_uris": {"android": "https://dc.lft.to/lastmile_qr_scan", "ios": "https://dc.lft.to/lastmile_qr_scan"}, "fusion_lon": 0.0}, {"lat": 38.9053125, "is_disabled": 0, "type": "electric_scooter", "lon": -77.0416145, "bike_id": "a36032f67d652e8435b53f705453649b", "fusion_lat": 0.0, "name": "a36032f67d652e8435b53f705453649b", "is_reserved": 0, "rental_uris": {"android": "https://dc.lft.to/lastmile_qr_scan", "ios": "https://dc.lft.to/lastmile_qr_scan"}, "fusion_lon": 0.0}, {"lat": 38.905299166666666, "is_disabled": 0, "type": "electric_scooter", "lon": -77.041683, "bike_id": "116a24b0e332e34af5614beab22c3770", "fusion_lat": 0.0, "name": "116a24b0e332e34af5614beab22c3770", "is_reserved": 0, "rental_uris": {"android": "https://dc.lft.to/lastmile_qr_scan", "ios": "https://dc.lft.to/lastmile_qr_scan"}, "fusion_lon": 0.0}, {"lat": 38.94926, "is_disabled": 0, "type": "electric_scooter", "lon": -77.019385, "bike_id": "2f27f325f61f9d9c1004f0dba2db40d5", "fusion_lat": 0.0, "name": "2f27f325f61f9d9c1004f0dba2db40d5", "is_reserved": 0, "rental_uris": {"android": "https://dc.lft.to/lastmile_qr_scan", "ios": "https://dc.lft.to/lastmile_qr_scan"}, "fusion_lon": 0.0}, {"lat": 38.926103166666664, "is_disabled": 0, "type": "electric_scooter", "lon": -76.99609116666667, "bike_id": "53c635383dfb665beffd0297ca680a1c", "fusion_lat": 0.0, "name": "53c635383dfb665beffd0297ca680a1c", "is_reserved": 0, "rental_uris": {"android": "https://dc.lft.to/lastmile_qr_scan", "ios": "https://dc.lft.to/lastmile_qr_scan"}, "fusion_lon": 0.0}, {"lat": 38.915624, "is_disabled": 0, "type": "electric_scooter", "lon": -77.03999766666666, "bike_id": "d234e7ca544bf0e7c250e92968cf3888", "fusion_lat": 0.0, "name": "d234e7ca544bf0e7c250e92968cf3888", "is_reserved": 0, "rental_uris": {"android": "https://dc.lft.to/lastmile_qr_scan", "ios": "https://dc.lft.to/lastmile_qr_scan"}, "fusion_lon": 0.0}, {"lat": 38.912669666666666, "is_disabled": 0, "type": "electric_scooter", "lon": -77.0225325, "bike_id": "4a3dd9ae3d2226fe854af356d12e645a", "fusion_lat": 0.0, "name": "4a3dd9ae3d2226fe854af356d12e645a", "is_reserved": 0, "rental_uris": {"android": "https://dc.lft.to/lastmile_qr_scan", "ios": "https://dc.lft.to/lastmile_qr_scan"}, "fusion_lon": 0.0}, {"lat": 38.88997033333333, "is_disabled": 0, "type": "electric_scooter", "lon": -76.95414433333333, "bike_id": "86d4f0dc5bcdaea05c1d945009a731ba", "fusion_lat": 0.0, "name": "86d4f0dc5bcdaea05c1d945009a731ba", "is_reserved": 0, "rental_uris": {"android": "https://dc.lft.to/lastmile_qr_scan", "ios": "https://dc.lft.to/lastmile_qr_scan"}, "fusion_lon": 0.0}, {"lat": 38.91992116666667, "is_disabled": 0, "type": "electric_scooter", "lon": -77.0321725, "bike_id": "a6f4bb20854b0c49bc2a0c40c4dc2c75", "fusion_lat": 0.0, "name": "a6f4bb20854b0c49bc2a0c40c4dc2c75", "is_reserved": 0, "rental_uris": {"android": "https://dc.lft.to/lastmile_qr_scan", "ios": "https://dc.lft.to/lastmile_qr_scan"}, "fusion_lon": 0.0}, {"lat": 38.88259133333333, "is_disabled": 0, "type": "electric_scooter", "lon": -77.00368366666666, "bike_id": "665558b0889be3913e447f3a852c14e4", "fusion_lat": 0.0, "name": "665558b0889be3913e447f3a852c14e4", "is_reserved": 0, "rental_uris": {"android": "https://dc.lft.to/lastmile_qr_scan", "ios": "https://dc.lft.to/lastmile_qr_scan"}, "fusion_lon": 0.0}, {"lat": 38.899237666666664, "is_disabled": 0, "type": "electric_scooter", "lon": -77.02782666666667, "bike_id": "563e74e8607f14399ac95972a3e28453", "fusion_lat": 0.0, "name": "563e74e8607f14399ac95972a3e28453", "is_reserved": 0, "rental_uris": {"android": "https://dc.lft.to/lastmile_qr_scan", "ios": "https://dc.lft.to/lastmile_qr_scan"}, "fusion_lon": 0.0}, {"lat": 38.883731166666664, "is_disabled": 0, "type": "electric_scooter", "lon": -76.995219, "bike_id": "1ff95513b6d6d21fe80a4350a62883a6", "fusion_lat": 0.0, "name": "1ff95513b6d6d21fe80a4350a62883a6", "is_reserved": 0, "rental_uris": {"android": "https://dc.lft.to/lastmile_qr_scan", "ios": "https://dc.lft.to/lastmile_qr_scan"}, "fusion_lon": 0.0}, {"lat": 38.853950833333336, "is_disabled": 0, "type": "electric_bike", "lon": -77.12487633333333, "bike_id": "bead4de1057faae78b6ec45195f1c9dc", "fusion_lat": 0.0, "name": "bead4de1057faae78b6ec45195f1c9dc", "is_reserved": 0, "rental_uris": {"android": "https://dc.lft.to/lastmile_qr_scan", "ios": "https://dc.lft.to/lastmile_qr_scan"}, "fusion_lon": 0.0}, {"lat": 38.850828666666665, "is_disabled": 0, "type": "electric_bike", "lon": -76.95674566666666, "bike_id": "cea9aacebf4f4f69f96dbc35e5dedd90", "fusion_lat": 0.0, "name": "cea9aacebf4f4f69f96dbc35e5dedd90", "is_reserved": 0, "rental_uris": {"android": "https://dc.lft.to/lastmile_qr_scan", "ios": "https://dc.lft.to/lastmile_qr_scan"}, "fusion_lon": 0.0}, {"lat": 38.895798666666664, "is_disabled": 0, "type": "electric_scooter", "lon": -76.981814, "bike_id": "d29ab6b76153e69ed34ea0940b580deb", "fusion_lat": 0.0, "name": "d29ab6b76153e69ed34ea0940b580deb", "is_reserved": 0, "rental_uris": {"android": "https://dc.lft.to/lastmile_qr_scan", "ios": "https://dc.lft.to/lastmile_qr_scan"}, "fusion_lon": 0.0}, {"lat": 38.899821833333334, "is_disabled": 0, "type": "electric_scooter", "lon": -77.05251566666666, "bike_id": "5c1d3f2ef8fe8833780057cbc24aff12", "fusion_lat": 0.0, "name": "5c1d3f2ef8fe8833780057cbc24aff12", "is_reserved": 0, "rental_uris": {"android": "https://dc.lft.to/lastmile_qr_scan", "ios": "https://dc.lft.to/lastmile_qr_scan"}, "fusion_lon": 0.0}, {"lat": 38.89471866666667, "is_disabled": 0, "type": "electric_scooter", "lon": -77.02681866666667, "bike_id": "d9277caf5f7248ce7b73627ae97063a0", "fusion_lat": 0.0, "name": "d9277caf5f7248ce7b73627ae97063a0", "is_reserved": 0, "rental_uris": {"android": "https://dc.lft.to/lastmile_qr_scan", "ios": "https://dc.lft.to/lastmile_qr_scan"}, "fusion_lon": 0.0}, {"lat": 38.89987966666666, "is_disabled": 0, "type": "electric_scooter", "lon": -77.02658766666667, "bike_id": "1f4225f43c57bd0b142fe13775c127f3", "fusion_lat": 0.0, "name": "1f4225f43c57bd0b142fe13775c127f3", "is_reserved": 0, "rental_uris": {"android": "https://dc.lft.to/lastmile_qr_scan", "ios": "https://dc.lft.to/lastmile_qr_scan"}, "fusion_lon": 0.0}, {"lat": 38.917646500000004, "is_disabled": 0, "type": "electric_scooter", "lon": -77.03189383333333, "bike_id": "8c4a2df4020277dbaa777e7c1d433c7a", "fusion_lat": 0.0, "name": "8c4a2df4020277dbaa777e7c1d433c7a", "is_reserved": 0, "rental_uris": {"android": "https://dc.lft.to/lastmile_qr_scan", "ios": "https://dc.lft.to/lastmile_qr_scan"}, "fusion_lon": 0.0}, {"lat": 38.894539333333334, "is_disabled": 0, "type": "electric_scooter", "lon": -77.02386766666666, "bike_id": "8567d98a4d6714a96b8d782eecb54dce", "fusion_lat": 0.0, "name": "8567d98a4d6714a96b8d782eecb54dce", "is_reserved": 0, "rental_uris": {"android": "https://dc.lft.to/lastmile_qr_scan", "ios": "https://dc.lft.to/lastmile_qr_scan"}, "fusion_lon": 0.0}, {"lat": 38.9253705, "is_disabled": 0, "type": "electric_scooter", "lon": -77.04142166666666, "bike_id": "8c55280b50a70cb5ee0ea65375a8e50f", "fusion_lat": 0.0, "name": "8c55280b50a70cb5ee0ea65375a8e50f", "is_reserved": 0, "rental_uris": {"android": "https://dc.lft.to/lastmile_qr_scan", "ios": "https://dc.lft.to/lastmile_qr_scan"}, "fusion_lon": 0.0}, {"lat": 38.90070766666667, "is_disabled": 0, "type": "electric_scooter", "lon": -77.00213333333333, "bike_id": "91f1a10fe780ac609068bfe97b368392", "fusion_lat": 0.0, "name": "91f1a10fe780ac609068bfe97b368392", "is_reserved": 0, "rental_uris": {"android": "https://dc.lft.to/lastmile_qr_scan", "ios": "https://dc.lft.to/lastmile_qr_scan"}, "fusion_lon": 0.0}, {"lat": 38.922702, "is_disabled": 0, "type": "electric_scooter", "lon": -77.04473533333334, "bike_id": "38ee9bdd1744b5451d55a01131f8cd10", "fusion_lat": 0.0, "name": "38ee9bdd1744b5451d55a01131f8cd10", "is_reserved": 0, "rental_uris": {"android": "https://dc.lft.to/lastmile_qr_scan", "ios": "https://dc.lft.to/lastmile_qr_scan"}, "fusion_lon": 0.0}, {"lat": 38.900080833333334, "is_disabled": 0, "type": "electric_scooter", "lon": -77.04659883333333, "bike_id": "5bcb6cd153caa4fc8a050964c2691f3d", "fusion_lat": 0.0, "name": "5bcb6cd153caa4fc8a050964c2691f3d", "is_reserved": 0, "rental_uris": {"android": "https://dc.lft.to/lastmile_qr_scan", "ios": "https://dc.lft.to/lastmile_qr_scan"}, "fusion_lon": 0.0}, {"lat": 38.92360883333333, "is_disabled": 0, "type": "electric_scooter", "lon": -77.05056033333334, "bike_id": "7d60ab2fe31cc40c9ea7deee3f101c92", "fusion_lat": 0.0, "name": "7d60ab2fe31cc40c9ea7deee3f101c92", "is_reserved": 0, "rental_uris": {"android": "https://dc.lft.to/lastmile_qr_scan", "ios": "https://dc.lft.to/lastmile_qr_scan"}, "fusion_lon": 0.0}, {"lat": 38.89449533333333, "is_disabled": 0, "type": "electric_bike", "lon": -77.15826316666667, "bike_id": "de4219886e05e656961e3f6c3d289a4e", "fusion_lat": 0.0, "name": "de4219886e05e656961e3f6c3d289a4e", "is_reserved": 0, "rental_uris": {"android": "https://dc.lft.to/lastmile_qr_scan", "ios": "https://dc.lft.to/lastmile_qr_scan"}, "fusion_lon": 0.0}, {"lat": 38.90122, "is_disabled": 0, "type": "electric_scooter", "lon": -77.03093783333334, "bike_id": "bbb72d2bd98abfe7873dbf0f071fb4e6", "fusion_lat": 0.0, "name": "bbb72d2bd98abfe7873dbf0f071fb4e6", "is_reserved": 0, "rental_uris": {"android": "https://dc.lft.to/lastmile_qr_scan", "ios": "https://dc.lft.to/lastmile_qr_scan"}, "fusion_lon": 0.0}, {"lat": 38.85802416666667, "is_disabled": 0, "type": "electric_scooter", "lon": -76.98720433333334, "bike_id": "9258c37faf31826ad6b52a933481ec2b", "fusion_lat": 0.0, "name": "9258c37faf31826ad6b52a933481ec2b", "is_reserved": 0, "rental_uris": {"android": "https://dc.lft.to/lastmile_qr_scan", "ios": "https://dc.lft.to/lastmile_qr_scan"}, "fusion_lon": 0.0}, {"lat": 38.906544333333336, "is_disabled": 0, "type": "electric_scooter", "lon": -77.07433916666666, "bike_id": "af815bee8621f355ead0405ccc546989", "fusion_lat": 0.0, "name": "af815bee8621f355ead0405ccc546989", "is_reserved": 0, "rental_uris": {"android": "https://dc.lft.to/lastmile_qr_scan", "ios": "https://dc.lft.to/lastmile_qr_scan"}, "fusion_lon": 0.0}, {"lat": 38.923854, "is_disabled": 0, "type": "electric_scooter", "lon": -77.0354645, "bike_id": "f945666259dcf7fb8881656919123c83", "fusion_lat": 0.0, "name": "f945666259dcf7fb8881656919123c83", "is_reserved": 0, "rental_uris": {"android": "https://dc.lft.to/lastmile_qr_scan", "ios": "https://dc.lft.to/lastmile_qr_scan"}, "fusion_lon": 0.0}, {"lat": 38.921543166666666, "is_disabled": 0, "type": "electric_scooter", "lon": -77.0351675, "bike_id": "5cd6b7f7a019ef7ddbb763696850cfdd", "fusion_lat": 0.0, "name": "5cd6b7f7a019ef7ddbb763696850cfdd", "is_reserved": 0, "rental_uris": {"android": "https://dc.lft.to/lastmile_qr_scan", "ios": "https://dc.lft.to/lastmile_qr_scan"}, "fusion_lon": 0.0}, {"lat": 38.90107833333333, "is_disabled": 0, "type": "electric_scooter", "lon": -77.049849, "bike_id": "7db75a1cd4fe7c77d62988f7a5007e77", "fusion_lat": 0.0, "name": "7db75a1cd4fe7c77d62988f7a5007e77", "is_reserved": 0, "rental_uris": {"android": "https://dc.lft.to/lastmile_qr_scan", "ios": "https://dc.lft.to/lastmile_qr_scan"}, "fusion_lon": 0.0}, {"lat": 38.911936, "is_disabled": 0, "type": "electric_scooter", "lon": -77.0366375, "bike_id": "8c6f54bd836b27b4583fba756dba788a", "fusion_lat": 0.0, "name": "8c6f54bd836b27b4583fba756dba788a", "is_reserved": 0, "rental_uris": {"android": "https://dc.lft.to/lastmile_qr_scan", "ios": "https://dc.lft.to/lastmile_qr_scan"}, "fusion_lon": 0.0}, {"lat": 38.827806333333335, "is_disabled": 0, "type": "electric_bike", "lon": -77.00913666666666, "bike_id": "f26b0942da839bc15f43a646a7c819e7", "fusion_lat": 0.0, "name": "f26b0942da839bc15f43a646a7c819e7", "is_reserved": 0, "rental_uris": {"android": "https://dc.lft.to/lastmile_qr_scan", "ios": "https://dc.lft.to/lastmile_qr_scan"}, "fusion_lon": 0.0}, {"lat": 38.907823666666665, "is_disabled": 0, "type": "electric_scooter", "lon": -77.03851883333333, "bike_id": "433775c685841a3c63acdc0ccf1d70cd", "fusion_lat": 0.0, "name": "433775c685841a3c63acdc0ccf1d70cd", "is_reserved": 0, "rental_uris": {"android": "https://dc.lft.to/lastmile_qr_scan", "ios": "https://dc.lft.to/lastmile_qr_scan"}, "fusion_lon": 0.0}, {"lat": 38.9374135, "is_disabled": 0, "type": "electric_scooter", "lon": -77.03630633333333, "bike_id": "42d3fc10be40fef18a5cc810f0889f12", "fusion_lat": 0.0, "name": "42d3fc10be40fef18a5cc810f0889f12", "is_reserved": 0, "rental_uris": {"android": "https://dc.lft.to/lastmile_qr_scan", "ios": "https://dc.lft.to/lastmile_qr_scan"}, "fusion_lon": 0.0}, {"lat": 38.918059166666666, "is_disabled": 0, "type": "electric_scooter", "lon": -77.040213, "bike_id": "d90c0a60c621be30fd640044d83fade9", "fusion_lat": 0.0, "name": "d90c0a60c621be30fd640044d83fade9", "is_reserved": 0, "rental_uris": {"android": "https://dc.lft.to/lastmile_qr_scan", "ios": "https://dc.lft.to/lastmile_qr_scan"}, "fusion_lon": 0.0}, {"lat": 38.84424516666667, "is_disabled": 0, "type": "electric_scooter", "lon": -76.9978055, "bike_id": "a441ff58ed4f109667a3ea9bb676b8ff", "fusion_lat": 0.0, "name": "a441ff58ed4f109667a3ea9bb676b8ff", "is_reserved": 0, "rental_uris": {"android": "https://dc.lft.to/lastmile_qr_scan", "ios": "https://dc.lft.to/lastmile_qr_scan"}, "fusion_lon": 0.0}, {"lat": 38.98649666666667, "is_disabled": 0, "type": "electric_bike", "lon": -77.056332, "bike_id": "1caf80cb566c258a9de1614cd01daedb", "fusion_lat": 0.0, "name": "1caf80cb566c258a9de1614cd01daedb", "is_reserved": 0, "rental_uris": {"android": "https://dc.lft.to/lastmile_qr_scan", "ios": "https://dc.lft.to/lastmile_qr_scan"}, "fusion_lon": 0.0}, {"lat": 38.917289333333336, "is_disabled": 0, "type": "electric_scooter", "lon": -77.032139, "bike_id": "20e4c2871db4a02fe3362eb7268b149a", "fusion_lat": 0.0, "name": "20e4c2871db4a02fe3362eb7268b149a", "is_reserved": 0, "rental_uris": {"android": "https://dc.lft.to/lastmile_qr_scan", "ios": "https://dc.lft.to/lastmile_qr_scan"}, "fusion_lon": 0.0}, {"lat": 38.92193816666666, "is_disabled": 0, "type": "electric_scooter", "lon": -77.03973916666666, "bike_id": "76ee989a799f898c5b1894df10544902", "fusion_lat": 0.0, "name": "76ee989a799f898c5b1894df10544902", "is_reserved": 0, "rental_uris": {"android": "https://dc.lft.to/lastmile_qr_scan", "ios": "https://dc.lft.to/lastmile_qr_scan"}, "fusion_lon": 0.0}, {"lat": 38.906309666666665, "is_disabled": 0, "type": "electric_scooter", "lon": -77.062881, "bike_id": "8b685fe493f83c5a3cfb4bd8e8e8a51c", "fusion_lat": 0.0, "name": "8b685fe493f83c5a3cfb4bd8e8e8a51c", "is_reserved": 0, "rental_uris": {"android": "https://dc.lft.to/lastmile_qr_scan", "ios": "https://dc.lft.to/lastmile_qr_scan"}, "fusion_lon": 0.0}, {"lat": 38.91469033333333, "is_disabled": 0, "type": "electric_scooter", "lon": -77.00354583333333, "bike_id": "701f67a3d0e938f9529feca826c6ae88", "fusion_lat": 0.0, "name": "701f67a3d0e938f9529feca826c6ae88", "is_reserved": 0, "rental_uris": {"android": "https://dc.lft.to/lastmile_qr_scan", "ios": "https://dc.lft.to/lastmile_qr_scan"}, "fusion_lon": 0.0}, {"lat": 38.90574516666667, "is_disabled": 0, "type": "electric_scooter", "lon": -77.043381, "bike_id": "50ac4561b9ec74f4feb2558cb6707b27", "fusion_lat": 0.0, "name": "50ac4561b9ec74f4feb2558cb6707b27", "is_reserved": 0, "rental_uris": {"android": "https://dc.lft.to/lastmile_qr_scan", "ios": "https://dc.lft.to/lastmile_qr_scan"}, "fusion_lon": 0.0}, {"lat": 38.90769683333333, "is_disabled": 0, "type": "electric_scooter", "lon": -77.03861533333334, "bike_id": "f3a792ebbc0b3ef982ca7217e93ca8eb", "fusion_lat": 0.0, "name": "f3a792ebbc0b3ef982ca7217e93ca8eb", "is_reserved": 0, "rental_uris": {"android": "https://dc.lft.to/lastmile_qr_scan", "ios": "https://dc.lft.to/lastmile_qr_scan"}, "fusion_lon": 0.0}, {"lat": 38.93188383333333, "is_disabled": 0, "type": "electric_scooter", "lon": -77.02832266666667, "bike_id": "ee931e05c3d40222d68eb287a11171b6", "fusion_lat": 0.0, "name": "ee931e05c3d40222d68eb287a11171b6", "is_reserved": 0, "rental_uris": {"android": "https://dc.lft.to/lastmile_qr_scan", "ios": "https://dc.lft.to/lastmile_qr_scan"}, "fusion_lon": 0.0}, {"lat": 38.90560416666667, "is_disabled": 0, "type": "electric_scooter", "lon": -77.00598033333333, "bike_id": "a4c6a8bf3a67578f13f40ba1bafb6633", "fusion_lat": 0.0, "name": "a4c6a8bf3a67578f13f40ba1bafb6633", "is_reserved": 0, "rental_uris": {"android": "https://dc.lft.to/lastmile_qr_scan", "ios": "https://dc.lft.to/lastmile_qr_scan"}, "fusion_lon": 0.0}, {"lat": 38.904255, "is_disabled": 0, "type": "electric_scooter", "lon": -77.04653433333333, "bike_id": "c4cc525f125cdd478a91c490f8530635", "fusion_lat": 0.0, "name": "c4cc525f125cdd478a91c490f8530635", "is_reserved": 0, "rental_uris": {"android": "https://dc.lft.to/lastmile_qr_scan", "ios": "https://dc.lft.to/lastmile_qr_scan"}, "fusion_lon": 0.0}, {"lat": 38.921814833333336, "is_disabled": 0, "type": "electric_scooter", "lon": -77.04225866666667, "bike_id": "44593333b6d9bc1712254bd3b1992eef", "fusion_lat": 0.0, "name": "44593333b6d9bc1712254bd3b1992eef", "is_reserved": 0, "rental_uris": {"android": "https://dc.lft.to/lastmile_qr_scan", "ios": "https://dc.lft.to/lastmile_qr_scan"}, "fusion_lon": 0.0}, {"lat": 38.916975666666666, "is_disabled": 0, "type": "electric_scooter", "lon": -77.032445, "bike_id": "a500b1186b4b9da257374a6200d7b631", "fusion_lat": 0.0, "name": "a500b1186b4b9da257374a6200d7b631", "is_reserved": 0, "rental_uris": {"android": "https://dc.lft.to/lastmile_qr_scan", "ios": "https://dc.lft.to/lastmile_qr_scan"}, "fusion_lon": 0.0}, {"lat": 38.966221166666664, "is_disabled": 0, "type": "electric_bike", "lon": -77.034268, "bike_id": "9c30a4b3ac84ee147d06e5ad38a3118e", "fusion_lat": 0.0, "name": "9c30a4b3ac84ee147d06e5ad38a3118e", "is_reserved": 0, "rental_uris": {"android": "https://dc.lft.to/lastmile_qr_scan", "ios": "https://dc.lft.to/lastmile_qr_scan"}, "fusion_lon": 0.0}, {"lat": 38.92469366666667, "is_disabled": 0, "type": "electric_scooter", "lon": -77.05237316666667, "bike_id": "df80ef756fc322656b7449d837807d35", "fusion_lat": 0.0, "name": "df80ef756fc322656b7449d837807d35", "is_reserved": 0, "rental_uris": {"android": "https://dc.lft.to/lastmile_qr_scan", "ios": "https://dc.lft.to/lastmile_qr_scan"}, "fusion_lon": 0.0}, {"lat": 38.9103945, "is_disabled": 0, "type": "electric_scooter", "lon": -77.031999, "bike_id": "dd127285fa84ad00e0a52fa5c8817b73", "fusion_lat": 0.0, "name": "dd127285fa84ad00e0a52fa5c8817b73", "is_reserved": 0, "rental_uris": {"android": "https://dc.lft.to/lastmile_qr_scan", "ios": "https://dc.lft.to/lastmile_qr_scan"}, "fusion_lon": 0.0}, {"lat": 38.884883, "is_disabled": 0, "type": "electric_scooter", "lon": -77.00705516666666, "bike_id": "4e85bc6f382c4b59e5525d5a94c068dd", "fusion_lat": 0.0, "name": "4e85bc6f382c4b59e5525d5a94c068dd", "is_reserved": 0, "rental_uris": {"android": "https://dc.lft.to/lastmile_qr_scan", "ios": "https://dc.lft.to/lastmile_qr_scan"}, "fusion_lon": 0.0}, {"lat": 38.90949466666667, "is_disabled": 0, "type": "electric_scooter", "lon": -77.04492066666667, "bike_id": "067fe26850667884327d8f5905eaca31", "fusion_lat": 0.0, "name": "067fe26850667884327d8f5905eaca31", "is_reserved": 0, "rental_uris": {"android": "https://dc.lft.to/lastmile_qr_scan", "ios": "https://dc.lft.to/lastmile_qr_scan"}, "fusion_lon": 0.0}, {"lat": 38.8429135, "is_disabled": 0, "type": "electric_scooter", "lon": -76.99951916666667, "bike_id": "fd19fb30d493e44d57deb1ca0a85ce9b", "fusion_lat": 0.0, "name": "fd19fb30d493e44d57deb1ca0a85ce9b", "is_reserved": 0, "rental_uris": {"android": "https://dc.lft.to/lastmile_qr_scan", "ios": "https://dc.lft.to/lastmile_qr_scan"}, "fusion_lon": 0.0}, {"lat": 38.8813615, "is_disabled": 0, "type": "electric_scooter", "lon": -77.005846, "bike_id": "63764974fa33ff76404338b0e3faedf8", "fusion_lat": 0.0, "name": "63764974fa33ff76404338b0e3faedf8", "is_reserved": 0, "rental_uris": {"android": "https://dc.lft.to/lastmile_qr_scan", "ios": "https://dc.lft.to/lastmile_qr_scan"}, "fusion_lon": 0.0}, {"lat": 38.899981833333335, "is_disabled": 0, "type": "electric_scooter", "lon": -76.99855933333333, "bike_id": "52ee7d9fd63dc54f321825942a3a26d4", "fusion_lat": 0.0, "name": "52ee7d9fd63dc54f321825942a3a26d4", "is_reserved": 0, "rental_uris": {"android": "https://dc.lft.to/lastmile_qr_scan", "ios": "https://dc.lft.to/lastmile_qr_scan"}, "fusion_lon": 0.0}, {"lat": 38.896343333333334, "is_disabled": 0, "type": "electric_scooter", "lon": -77.0284925, "bike_id": "327ac85a373ebac2e1e1d3e768315023", "fusion_lat": 0.0, "name": "327ac85a373ebac2e1e1d3e768315023", "is_reserved": 0, "rental_uris": {"android": "https://dc.lft.to/lastmile_qr_scan", "ios": "https://dc.lft.to/lastmile_qr_scan"}, "fusion_lon": 0.0}, {"lat": 38.883667333333335, "is_disabled": 0, "type": "electric_scooter", "lon": -76.9951365, "bike_id": "550f54988cb63dcc6b44f2523b8da709", "fusion_lat": 0.0, "name": "550f54988cb63dcc6b44f2523b8da709", "is_reserved": 0, "rental_uris": {"android": "https://dc.lft.to/lastmile_qr_scan", "ios": "https://dc.lft.to/lastmile_qr_scan"}, "fusion_lon": 0.0}, {"lat": 38.88108283333333, "is_disabled": 0, "type": "electric_scooter", "lon": -77.01664483333333, "bike_id": "d73d0125ea3377b6040aabbcc31555d5", "fusion_lat": 0.0, "name": "d73d0125ea3377b6040aabbcc31555d5", "is_reserved": 0, "rental_uris": {"android": "https://dc.lft.to/lastmile_qr_scan", "ios": "https://dc.lft.to/lastmile_qr_scan"}, "fusion_lon": 0.0}, {"lat": 38.911223666666665, "is_disabled": 0, "type": "electric_scooter", "lon": -77.03846883333334, "bike_id": "5d7e8685a91871fc967e507c81824ac8", "fusion_lat": 0.0, "name": "5d7e8685a91871fc967e507c81824ac8", "is_reserved": 0, "rental_uris": {"android": "https://dc.lft.to/lastmile_qr_scan", "ios": "https://dc.lft.to/lastmile_qr_scan"}, "fusion_lon": 0.0}, {"lat": 38.890086333333336, "is_disabled": 0, "type": "electric_scooter", "lon": -76.93746066666667, "bike_id": "3b4ee49aa7711a67387ba973bf90c538", "fusion_lat": 0.0, "name": "3b4ee49aa7711a67387ba973bf90c538", "is_reserved": 0, "rental_uris": {"android": "https://dc.lft.to/lastmile_qr_scan", "ios": "https://dc.lft.to/lastmile_qr_scan"}, "fusion_lon": 0.0}, {"lat": 38.92447033333333, "is_disabled": 0, "type": "electric_scooter", "lon": -77.04024433333333, "bike_id": "fee0313fc3bf2a630198612d5cfc119f", "fusion_lat": 0.0, "name": "fee0313fc3bf2a630198612d5cfc119f", "is_reserved": 0, "rental_uris": {"android": "https://dc.lft.to/lastmile_qr_scan", "ios": "https://dc.lft.to/lastmile_qr_scan"}, "fusion_lon": 0.0}, {"lat": 38.8714905, "is_disabled": 0, "type": "electric_bike", "lon": -76.93651916666667, "bike_id": "627007f82059defa9de20032955acee7", "fusion_lat": 0.0, "name": "627007f82059defa9de20032955acee7", "is_reserved": 0, "rental_uris": {"android": "https://dc.lft.to/lastmile_qr_scan", "ios": "https://dc.lft.to/lastmile_qr_scan"}, "fusion_lon": 0.0}, {"lat": 38.894722333333334, "is_disabled": 0, "type": "electric_scooter", "lon": -77.00990383333334, "bike_id": "466d6e74b2211ddc62a1ff19a3a21745", "fusion_lat": 0.0, "name": "466d6e74b2211ddc62a1ff19a3a21745", "is_reserved": 0, "rental_uris": {"android": "https://dc.lft.to/lastmile_qr_scan", "ios": "https://dc.lft.to/lastmile_qr_scan"}, "fusion_lon": 0.0}, {"lat": 38.903061666666666, "is_disabled": 0, "type": "electric_scooter", "lon": -77.0516505, "bike_id": "ca6f75c37ce1e6094aa23b4bc28298f9", "fusion_lat": 0.0, "name": "ca6f75c37ce1e6094aa23b4bc28298f9", "is_reserved": 0, "rental_uris": {"android": "https://dc.lft.to/lastmile_qr_scan", "ios": "https://dc.lft.to/lastmile_qr_scan"}, "fusion_lon": 0.0}, {"lat": 38.892204166666666, "is_disabled": 0, "type": "electric_scooter", "lon": -77.0420175, "bike_id": "66e06c1c208ebac663c4feae1f4e4bbf", "fusion_lat": 0.0, "name": "66e06c1c208ebac663c4feae1f4e4bbf", "is_reserved": 0, "rental_uris": {"android": "https://dc.lft.to/lastmile_qr_scan", "ios": "https://dc.lft.to/lastmile_qr_scan"}, "fusion_lon": 0.0}, {"lat": 38.92166666666667, "is_disabled": 0, "type": "electric_scooter", "lon": -77.04024166666666, "bike_id": "7b2f0c5e61e8e45fd17e9f4e50727b13", "fusion_lat": 0.0, "name": "7b2f0c5e61e8e45fd17e9f4e50727b13", "is_reserved": 0, "rental_uris": {"android": "https://dc.lft.to/lastmile_qr_scan", "ios": "https://dc.lft.to/lastmile_qr_scan"}, "fusion_lon": 0.0}, {"lat": 38.929693666666665, "is_disabled": 0, "type": "electric_scooter", "lon": -77.02927266666667, "bike_id": "3b307c4227ec950904a50fdf308b0db2", "fusion_lat": 0.0, "name": "3b307c4227ec950904a50fdf308b0db2", "is_reserved": 0, "rental_uris": {"android": "https://dc.lft.to/lastmile_qr_scan", "ios": "https://dc.lft.to/lastmile_qr_scan"}, "fusion_lon": 0.0}, {"lat": 38.9230505, "is_disabled": 0, "type": "electric_scooter", "lon": -77.04211733333334, "bike_id": "5162f3aad5dbef4725b001af2e680bda", "fusion_lat": 0.0, "name": "5162f3aad5dbef4725b001af2e680bda", "is_reserved": 0, "rental_uris": {"android": "https://dc.lft.to/lastmile_qr_scan", "ios": "https://dc.lft.to/lastmile_qr_scan"}, "fusion_lon": 0.0}, {"lat": 38.89222866666667, "is_disabled": 0, "type": "electric_scooter", "lon": -77.032238, "bike_id": "007587ff968d8a20090ff6a2cd03bca0", "fusion_lat": 0.0, "name": "007587ff968d8a20090ff6a2cd03bca0", "is_reserved": 0, "rental_uris": {"android": "https://dc.lft.to/lastmile_qr_scan", "ios": "https://dc.lft.to/lastmile_qr_scan"}, "fusion_lon": 0.0}, {"lat": 38.863631, "is_disabled": 0, "type": "electric_scooter", "lon": -76.99037933333334, "bike_id": "99e0e978e7d33ec65dd8dcbfe014ae62", "fusion_lat": 0.0, "name": "99e0e978e7d33ec65dd8dcbfe014ae62", "is_reserved": 0, "rental_uris": {"android": "https://dc.lft.to/lastmile_qr_scan", "ios": "https://dc.lft.to/lastmile_qr_scan"}, "fusion_lon": 0.0}, {"lat": 38.89954216666667, "is_disabled": 0, "type": "electric_scooter", "lon": -77.022872, "bike_id": "46631cc6a5e5e6ae5c335924ef1b1c91", "fusion_lat": 0.0, "name": "46631cc6a5e5e6ae5c335924ef1b1c91", "is_reserved": 0, "rental_uris": {"android": "https://dc.lft.to/lastmile_qr_scan", "ios": "https://dc.lft.to/lastmile_qr_scan"}, "fusion_lon": 0.0}, {"lat": 38.91425916666667, "is_disabled": 0, "type": "electric_scooter", "lon": -77.03189633333334, "bike_id": "8d71dcb50e5197875baaff05eeba2e29", "fusion_lat": 0.0, "name": "8d71dcb50e5197875baaff05eeba2e29", "is_reserved": 0, "rental_uris": {"android": "https://dc.lft.to/lastmile_qr_scan", "ios": "https://dc.lft.to/lastmile_qr_scan"}, "fusion_lon": 0.0}, {"lat": 38.935796, "is_disabled": 0, "type": "electric_bike", "lon": -77.10684733333333, "bike_id": "34f7d29e575619dbb4116a8f933e9976", "fusion_lat": 0.0, "name": "34f7d29e575619dbb4116a8f933e9976", "is_reserved": 0, "rental_uris": {"android": "https://dc.lft.to/lastmile_qr_scan", "ios": "https://dc.lft.to/lastmile_qr_scan"}, "fusion_lon": 0.0}, {"lat": 38.894844166666665, "is_disabled": 0, "type": "electric_scooter", "lon": -76.99507033333333, "bike_id": "d2f02d87a6928b011f38199bab25ef46", "fusion_lat": 0.0, "name": "d2f02d87a6928b011f38199bab25ef46", "is_reserved": 0, "rental_uris": {"android": "https://dc.lft.to/lastmile_qr_scan", "ios": "https://dc.lft.to/lastmile_qr_scan"}, "fusion_lon": 0.0}, {"lat": 38.89221916666666, "is_disabled": 0, "type": "electric_scooter", "lon": -77.04512883333334, "bike_id": "4e03b877efd493260b7dde2484b62a36", "fusion_lat": 0.0, "name": "4e03b877efd493260b7dde2484b62a36", "is_reserved": 0, "rental_uris": {"android": "https://dc.lft.to/lastmile_qr_scan", "ios": "https://dc.lft.to/lastmile_qr_scan"}, "fusion_lon": 0.0}, {"lat": 38.9174395, "is_disabled": 0, "type": "electric_scooter", "lon": -77.03191883333334, "bike_id": "4af2ebd2160e3700212cc31cfa94e54f", "fusion_lat": 0.0, "name": "4af2ebd2160e3700212cc31cfa94e54f", "is_reserved": 0, "rental_uris": {"android": "https://dc.lft.to/lastmile_qr_scan", "ios": "https://dc.lft.to/lastmile_qr_scan"}, "fusion_lon": 0.0}, {"lat": 38.909441666666666, "is_disabled": 0, "type": "electric_scooter", "lon": -77.04671433333333, "bike_id": "8d0a9dda0d2d994ac96cab930b7ce836", "fusion_lat": 0.0, "name": "8d0a9dda0d2d994ac96cab930b7ce836", "is_reserved": 0, "rental_uris": {"android": "https://dc.lft.to/lastmile_qr_scan", "ios": "https://dc.lft.to/lastmile_qr_scan"}, "fusion_lon": 0.0}, {"lat": 38.866577, "is_disabled": 0, "type": "electric_scooter", "lon": -76.9888615, "bike_id": "7922c99a39298cac21f43c48aeae91d7", "fusion_lat": 0.0, "name": "7922c99a39298cac21f43c48aeae91d7", "is_reserved": 0, "rental_uris": {"android": "https://dc.lft.to/lastmile_qr_scan", "ios": "https://dc.lft.to/lastmile_qr_scan"}, "fusion_lon": 0.0}, {"lat": 38.90326016666667, "is_disabled": 0, "type": "electric_scooter", "lon": -76.976028, "bike_id": "ce8a5d97a0ccb2c5ca51ecdf6d22f86e", "fusion_lat": 0.0, "name": "ce8a5d97a0ccb2c5ca51ecdf6d22f86e", "is_reserved": 0, "rental_uris": {"android": "https://dc.lft.to/lastmile_qr_scan", "ios": "https://dc.lft.to/lastmile_qr_scan"}, "fusion_lon": 0.0}, {"lat": 38.9057625, "is_disabled": 0, "type": "electric_scooter", "lon": -77.02689183333334, "bike_id": "37a0e554dfcec37c0772ba6241ed30b0", "fusion_lat": 0.0, "name": "37a0e554dfcec37c0772ba6241ed30b0", "is_reserved": 0, "rental_uris": {"android": "https://dc.lft.to/lastmile_qr_scan", "ios": "https://dc.lft.to/lastmile_qr_scan"}, "fusion_lon": 0.0}, {"lat": 38.92253083333333, "is_disabled": 0, "type": "electric_scooter", "lon": -77.01953233333333, "bike_id": "60de6f7e33da6a5b1b20720695f54535", "fusion_lat": 0.0, "name": "60de6f7e33da6a5b1b20720695f54535", "is_reserved": 0, "rental_uris": {"android": "https://dc.lft.to/lastmile_qr_scan", "ios": "https://dc.lft.to/lastmile_qr_scan"}, "fusion_lon": 0.0}, {"lat": 38.925703666666664, "is_disabled": 0, "type": "electric_scooter", "lon": -77.057794, "bike_id": "48224983f560311bdd72bb56b3f733ce", "fusion_lat": 0.0, "name": "48224983f560311bdd72bb56b3f733ce", "is_reserved": 0, "rental_uris": {"android": "https://dc.lft.to/lastmile_qr_scan", "ios": "https://dc.lft.to/lastmile_qr_scan"}, "fusion_lon": 0.0}, {"lat": 38.903691, "is_disabled": 0, "type": "electric_scooter", "lon": -77.04509933333334, "bike_id": "4b7f2b8b0771b084d44297bc70fb5388", "fusion_lat": 0.0, "name": "4b7f2b8b0771b084d44297bc70fb5388", "is_reserved": 0, "rental_uris": {"android": "https://dc.lft.to/lastmile_qr_scan", "ios": "https://dc.lft.to/lastmile_qr_scan"}, "fusion_lon": 0.0}, {"lat": 38.91554166666667, "is_disabled": 0, "type": "electric_scooter", "lon": -77.03168583333333, "bike_id": "8a7ac8f320c17d1f79fc2f460b2eed4f", "fusion_lat": 0.0, "name": "8a7ac8f320c17d1f79fc2f460b2eed4f", "is_reserved": 0, "rental_uris": {"android": "https://dc.lft.to/lastmile_qr_scan", "ios": "https://dc.lft.to/lastmile_qr_scan"}, "fusion_lon": 0.0}, {"lat": 38.907688666666665, "is_disabled": 0, "type": "electric_scooter", "lon": -77.07038116666666, "bike_id": "dc2ca37eeba9f0ece9c0cfaaa1e9a06a", "fusion_lat": 0.0, "name": "dc2ca37eeba9f0ece9c0cfaaa1e9a06a", "is_reserved": 0, "rental_uris": {"android": "https://dc.lft.to/lastmile_qr_scan", "ios": "https://dc.lft.to/lastmile_qr_scan"}, "fusion_lon": 0.0}, {"lat": 38.806840333333334, "is_disabled": 0, "type": "electric_bike", "lon": -77.0812165, "bike_id": "e7240878625cd2756e69402f930abf9e", "fusion_lat": 0.0, "name": "e7240878625cd2756e69402f930abf9e", "is_reserved": 0, "rental_uris": {"android": "https://dc.lft.to/lastmile_qr_scan", "ios": "https://dc.lft.to/lastmile_qr_scan"}, "fusion_lon": 0.0}, {"lat": 38.92161216666667, "is_disabled": 0, "type": "electric_scooter", "lon": -77.03265583333334, "bike_id": "4e33a5f37b3241cd2662f12fc3655b20", "fusion_lat": 0.0, "name": "4e33a5f37b3241cd2662f12fc3655b20", "is_reserved": 0, "rental_uris": {"android": "https://dc.lft.to/lastmile_qr_scan", "ios": "https://dc.lft.to/lastmile_qr_scan"}, "fusion_lon": 0.0}, {"lat": 38.90733316666667, "is_disabled": 0, "type": "electric_scooter", "lon": -76.935495, "bike_id": "0aeccb2f1a3ac17266bb8b4e7d7ede34", "fusion_lat": 0.0, "name": "0aeccb2f1a3ac17266bb8b4e7d7ede34", "is_reserved": 0, "rental_uris": {"android": "https://dc.lft.to/lastmile_qr_scan", "ios": "https://dc.lft.to/lastmile_qr_scan"}, "fusion_lon": 0.0}, {"lat": 38.905615166666664, "is_disabled": 0, "type": "electric_scooter", "lon": -77.0057545, "bike_id": "9d5b9258735baa1ddfbb5adaf881ff8e", "fusion_lat": 0.0, "name": "9d5b9258735baa1ddfbb5adaf881ff8e", "is_reserved": 0, "rental_uris": {"android": "https://dc.lft.to/lastmile_qr_scan", "ios": "https://dc.lft.to/lastmile_qr_scan"}, "fusion_lon": 0.0}, {"lat": 38.89211816666667, "is_disabled": 0, "type": "electric_scooter", "lon": -76.99580633333333, "bike_id": "b37d29960d88b191bc88d05c8a2c2acd", "fusion_lat": 0.0, "name": "b37d29960d88b191bc88d05c8a2c2acd", "is_reserved": 0, "rental_uris": {"android": "https://dc.lft.to/lastmile_qr_scan", "ios": "https://dc.lft.to/lastmile_qr_scan"}, "fusion_lon": 0.0}, {"lat": 38.913439, "is_disabled": 0, "type": "electric_scooter", "lon": -77.04352033333333, "bike_id": "a119b79a921787e60f3998dc87133538", "fusion_lat": 0.0, "name": "a119b79a921787e60f3998dc87133538", "is_reserved": 0, "rental_uris": {"android": "https://dc.lft.to/lastmile_qr_scan", "ios": "https://dc.lft.to/lastmile_qr_scan"}, "fusion_lon": 0.0}, {"lat": 38.90253366666666, "is_disabled": 0, "type": "electric_scooter", "lon": -77.04618316666667, "bike_id": "366a86d7a721b678973f22c386ff6a8f", "fusion_lat": 0.0, "name": "366a86d7a721b678973f22c386ff6a8f", "is_reserved": 0, "rental_uris": {"android": "https://dc.lft.to/lastmile_qr_scan", "ios": "https://dc.lft.to/lastmile_qr_scan"}, "fusion_lon": 0.0}, {"lat": 38.93111066666667, "is_disabled": 0, "type": "electric_scooter", "lon": -77.03839016666667, "bike_id": "64cca801fef246a0cadd3ad9543c699d", "fusion_lat": 0.0, "name": "64cca801fef246a0cadd3ad9543c699d", "is_reserved": 0, "rental_uris": {"android": "https://dc.lft.to/lastmile_qr_scan", "ios": "https://dc.lft.to/lastmile_qr_scan"}, "fusion_lon": 0.0}, {"lat": 39.0293125, "is_disabled": 0, "type": "electric_bike", "lon": -77.0493015, "bike_id": "0c8fdb891ad0334dd857c3a3c1b58a16", "fusion_lat": 0.0, "name": "0c8fdb891ad0334dd857c3a3c1b58a16", "is_reserved": 0, "rental_uris": {"android": "https://dc.lft.to/lastmile_qr_scan", "ios": "https://dc.lft.to/lastmile_qr_scan"}, "fusion_lon": 0.0}, {"lat": 38.915495166666666, "is_disabled": 0, "type": "electric_scooter", "lon": -77.04189683333334, "bike_id": "f6f7e1bfa7f416a2da16ad36fe617733", "fusion_lat": 0.0, "name": "f6f7e1bfa7f416a2da16ad36fe617733", "is_reserved": 0, "rental_uris": {"android": "https://dc.lft.to/lastmile_qr_scan", "ios": "https://dc.lft.to/lastmile_qr_scan"}, "fusion_lon": 0.0}, {"lat": 38.88488483333333, "is_disabled": 0, "type": "electric_scooter", "lon": -77.0071535, "bike_id": "8a57647481910fec5fd46cc7c1010b0e", "fusion_lat": 0.0, "name": "8a57647481910fec5fd46cc7c1010b0e", "is_reserved": 0, "rental_uris": {"android": "https://dc.lft.to/lastmile_qr_scan", "ios": "https://dc.lft.to/lastmile_qr_scan"}, "fusion_lon": 0.0}, {"lat": 38.9117625, "is_disabled": 0, "type": "electric_scooter", "lon": -77.04848916666667, "bike_id": "57b199ec18dbad1fc40b2525ee425470", "fusion_lat": 0.0, "name": "57b199ec18dbad1fc40b2525ee425470", "is_reserved": 0, "rental_uris": {"android": "https://dc.lft.to/lastmile_qr_scan", "ios": "https://dc.lft.to/lastmile_qr_scan"}, "fusion_lon": 0.0}, {"lat": 38.89221083333333, "is_disabled": 0, "type": "electric_scooter", "lon": -77.0487875, "bike_id": "565c6c15cd2daf0c85bc02f2c0d58525", "fusion_lat": 0.0, "name": "565c6c15cd2daf0c85bc02f2c0d58525", "is_reserved": 0, "rental_uris": {"android": "https://dc.lft.to/lastmile_qr_scan", "ios": "https://dc.lft.to/lastmile_qr_scan"}, "fusion_lon": 0.0}, {"lat": 38.8594075, "is_disabled": 0, "type": "electric_bike", "lon": -77.086105, "bike_id": "33ded54cd8e21f210b3d3da8a316cc17", "fusion_lat": 0.0, "name": "33ded54cd8e21f210b3d3da8a316cc17", "is_reserved": 0, "rental_uris": {"android": "https://dc.lft.to/lastmile_qr_scan", "ios": "https://dc.lft.to/lastmile_qr_scan"}, "fusion_lon": 0.0}, {"lat": 38.93323433333333, "is_disabled": 0, "type": "electric_scooter", "lon": -77.0437855, "bike_id": "92e6b89c72a06852949fe85e6b704744", "fusion_lat": 0.0, "name": "92e6b89c72a06852949fe85e6b704744", "is_reserved": 0, "rental_uris": {"android": "https://dc.lft.to/lastmile_qr_scan", "ios": "https://dc.lft.to/lastmile_qr_scan"}, "fusion_lon": 0.0}, {"lat": 38.90219583333333, "is_disabled": 0, "type": "electric_scooter", "lon": -77.060552, "bike_id": "8bf1fbda0dfe0bca81f2d942352c23b5", "fusion_lat": 0.0, "name": "8bf1fbda0dfe0bca81f2d942352c23b5", "is_reserved": 0, "rental_uris": {"android": "https://dc.lft.to/lastmile_qr_scan", "ios": "https://dc.lft.to/lastmile_qr_scan"}, "fusion_lon": 0.0}, {"lat": 38.92486516666666, "is_disabled": 0, "type": "electric_scooter", "lon": -77.0575685, "bike_id": "087b48bd6b8de57e0b19d0b1e433f9f3", "fusion_lat": 0.0, "name": "087b48bd6b8de57e0b19d0b1e433f9f3", "is_reserved": 0, "rental_uris": {"android": "https://dc.lft.to/lastmile_qr_scan", "ios": "https://dc.lft.to/lastmile_qr_scan"}, "fusion_lon": 0.0}, {"lat": 38.919517166666665, "is_disabled": 0, "type": "electric_scooter", "lon": -76.98081416666666, "bike_id": "c5cc4f83238304a131b5f0b8ccf8f3f1", "fusion_lat": 0.0, "name": "c5cc4f83238304a131b5f0b8ccf8f3f1", "is_reserved": 0, "rental_uris": {"android": "https://dc.lft.to/lastmile_qr_scan", "ios": "https://dc.lft.to/lastmile_qr_scan"}, "fusion_lon": 0.0}, {"lat": 38.885248833333335, "is_disabled": 0, "type": "electric_scooter", "lon": -77.0113325, "bike_id": "5bcc3f0eb89b6d75a4b71bfe857c4208", "fusion_lat": 0.0, "name": "5bcc3f0eb89b6d75a4b71bfe857c4208", "is_reserved": 0, "rental_uris": {"android": "https://dc.lft.to/lastmile_qr_scan", "ios": "https://dc.lft.to/lastmile_qr_scan"}, "fusion_lon": 0.0}, {"lat": 38.93602516666667, "is_disabled": 0, "type": "electric_scooter", "lon": -77.05858933333333, "bike_id": "3f48b7ee208daa02e69e12e545e467ed", "fusion_lat": 0.0, "name": "3f48b7ee208daa02e69e12e545e467ed", "is_reserved": 0, "rental_uris": {"android": "https://dc.lft.to/lastmile_qr_scan", "ios": "https://dc.lft.to/lastmile_qr_scan"}, "fusion_lon": 0.0}, {"lat": 38.90773133333333, "is_disabled": 0, "type": "electric_scooter", "lon": -77.00367183333333, "bike_id": "9ef1811c3ec5b548e2c549a6f31a33d1", "fusion_lat": 0.0, "name": "9ef1811c3ec5b548e2c549a6f31a33d1", "is_reserved": 0, "rental_uris": {"android": "https://dc.lft.to/lastmile_qr_scan", "ios": "https://dc.lft.to/lastmile_qr_scan"}, "fusion_lon": 0.0}, {"lat": 38.9315425, "is_disabled": 0, "type": "electric_scooter", "lon": -77.038369, "bike_id": "29abc7e44ceae2f44892d4ef6a34eb60", "fusion_lat": 0.0, "name": "29abc7e44ceae2f44892d4ef6a34eb60", "is_reserved": 0, "rental_uris": {"android": "https://dc.lft.to/lastmile_qr_scan", "ios": "https://dc.lft.to/lastmile_qr_scan"}, "fusion_lon": 0.0}, {"lat": 38.8997245, "is_disabled": 0, "type": "electric_scooter", "lon": -77.03083083333334, "bike_id": "53333d4971ba47f4aa80c5d04260933b", "fusion_lat": 0.0, "name": "53333d4971ba47f4aa80c5d04260933b", "is_reserved": 0, "rental_uris": {"android": "https://dc.lft.to/lastmile_qr_scan", "ios": "https://dc.lft.to/lastmile_qr_scan"}, "fusion_lon": 0.0}, {"lat": 38.9219545, "is_disabled": 0, "type": "electric_scooter", "lon": -77.042536, "bike_id": "5f4a6b3c185fe34ebf6875a3a3f37ce8", "fusion_lat": 0.0, "name": "5f4a6b3c185fe34ebf6875a3a3f37ce8", "is_reserved": 0, "rental_uris": {"android": "https://dc.lft.to/lastmile_qr_scan", "ios": "https://dc.lft.to/lastmile_qr_scan"}, "fusion_lon": 0.0}, {"lat": 38.903703666666665, "is_disabled": 0, "type": "electric_scooter", "lon": -77.02000966666667, "bike_id": "ed0ed34c82c02fb388b7fdb3fb3e6aff", "fusion_lat": 0.0, "name": "ed0ed34c82c02fb388b7fdb3fb3e6aff", "is_reserved": 0, "rental_uris": {"android": "https://dc.lft.to/lastmile_qr_scan", "ios": "https://dc.lft.to/lastmile_qr_scan"}, "fusion_lon": 0.0}, {"lat": 38.96604816666667, "is_disabled": 0, "type": "electric_scooter", "lon": -77.02053883333333, "bike_id": "567d13dc2375501a161a46d0e6dadfe6", "fusion_lat": 0.0, "name": "567d13dc2375501a161a46d0e6dadfe6", "is_reserved": 0, "rental_uris": {"android": "https://dc.lft.to/lastmile_qr_scan", "ios": "https://dc.lft.to/lastmile_qr_scan"}, "fusion_lon": 0.0}, {"lat": 38.9014855, "is_disabled": 0, "type": "electric_scooter", "lon": -77.03269, "bike_id": "a5fc468f579363b2197cb2060d069ad0", "fusion_lat": 0.0, "name": "a5fc468f579363b2197cb2060d069ad0", "is_reserved": 0, "rental_uris": {"android": "https://dc.lft.to/lastmile_qr_scan", "ios": "https://dc.lft.to/lastmile_qr_scan"}, "fusion_lon": 0.0}, {"lat": 38.915636, "is_disabled": 0, "type": "electric_scooter", "lon": -77.03148383333334, "bike_id": "c2434d551c03d46b7c759df4c1637416", "fusion_lat": 0.0, "name": "c2434d551c03d46b7c759df4c1637416", "is_reserved": 0, "rental_uris": {"android": "https://dc.lft.to/lastmile_qr_scan", "ios": "https://dc.lft.to/lastmile_qr_scan"}, "fusion_lon": 0.0}, {"lat": 38.920769666666665, "is_disabled": 0, "type": "electric_scooter", "lon": -77.02547366666667, "bike_id": "d097fad2aeceadb95bbba5151e3f6f50", "fusion_lat": 0.0, "name": "d097fad2aeceadb95bbba5151e3f6f50", "is_reserved": 0, "rental_uris": {"android": "https://dc.lft.to/lastmile_qr_scan", "ios": "https://dc.lft.to/lastmile_qr_scan"}, "fusion_lon": 0.0}, {"lat": 38.8961695, "is_disabled": 0, "type": "electric_scooter", "lon": -77.03173366666667, "bike_id": "770e564530ed11d252e853b7e8c282c8", "fusion_lat": 0.0, "name": "770e564530ed11d252e853b7e8c282c8", "is_reserved": 0, "rental_uris": {"android": "https://dc.lft.to/lastmile_qr_scan", "ios": "https://dc.lft.to/lastmile_qr_scan"}, "fusion_lon": 0.0}, {"lat": 38.91628933333333, "is_disabled": 0, "type": "electric_scooter", "lon": -77.04785016666666, "bike_id": "555f32ba9105f1b57cb2f6fd870710fa", "fusion_lat": 0.0, "name": "555f32ba9105f1b57cb2f6fd870710fa", "is_reserved": 0, "rental_uris": {"android": "https://dc.lft.to/lastmile_qr_scan", "ios": "https://dc.lft.to/lastmile_qr_scan"}, "fusion_lon": 0.0}, {"lat": 38.93075366666667, "is_disabled": 0, "type": "electric_scooter", "lon": -77.03736133333334, "bike_id": "4a68d7685b3fc34b020e3742442a99c1", "fusion_lat": 0.0, "name": "4a68d7685b3fc34b020e3742442a99c1", "is_reserved": 0, "rental_uris": {"android": "https://dc.lft.to/lastmile_qr_scan", "ios": "https://dc.lft.to/lastmile_qr_scan"}, "fusion_lon": 0.0}, {"lat": 38.908935166666666, "is_disabled": 0, "type": "electric_scooter", "lon": -77.03150166666667, "bike_id": "5f9102a3c18202878fa2a5a1c2326a7d", "fusion_lat": 0.0, "name": "5f9102a3c18202878fa2a5a1c2326a7d", "is_reserved": 0, "rental_uris": {"android": "https://dc.lft.to/lastmile_qr_scan", "ios": "https://dc.lft.to/lastmile_qr_scan"}, "fusion_lon": 0.0}, {"lat": 38.932506833333335, "is_disabled": 0, "type": "electric_scooter", "lon": -77.03276766666667, "bike_id": "0cd4dab8e92aed930be9060d34dc617c", "fusion_lat": 0.0, "name": "0cd4dab8e92aed930be9060d34dc617c", "is_reserved": 0, "rental_uris": {"android": "https://dc.lft.to/lastmile_qr_scan", "ios": "https://dc.lft.to/lastmile_qr_scan"}, "fusion_lon": 0.0}, {"lat": 38.91817266666666, "is_disabled": 0, "type": "electric_scooter", "lon": -77.031841, "bike_id": "77447b1e90dc83a127069497d7cc21d4", "fusion_lat": 0.0, "name": "77447b1e90dc83a127069497d7cc21d4", "is_reserved": 0, "rental_uris": {"android": "https://dc.lft.to/lastmile_qr_scan", "ios": "https://dc.lft.to/lastmile_qr_scan"}, "fusion_lon": 0.0}, {"lat": 38.91417716666667, "is_disabled": 0, "type": "electric_scooter", "lon": -77.03174483333333, "bike_id": "592a2b8cbe517ee7680befcd108fe09a", "fusion_lat": 0.0, "name": "592a2b8cbe517ee7680befcd108fe09a", "is_reserved": 0, "rental_uris": {"android": "https://dc.lft.to/lastmile_qr_scan", "ios": "https://dc.lft.to/lastmile_qr_scan"}, "fusion_lon": 0.0}, {"lat": 38.87718566666667, "is_disabled": 0, "type": "electric_scooter", "lon": -77.017599, "bike_id": "20e5710c94f01ebc3af4b8fbb73b4f59", "fusion_lat": 0.0, "name": "20e5710c94f01ebc3af4b8fbb73b4f59", "is_reserved": 0, "rental_uris": {"android": "https://dc.lft.to/lastmile_qr_scan", "ios": "https://dc.lft.to/lastmile_qr_scan"}, "fusion_lon": 0.0}, {"lat": 38.8935035, "is_disabled": 0, "type": "electric_scooter", "lon": -77.041441, "bike_id": "a7af04ea3d31e743608e7691ad1246ad", "fusion_lat": 0.0, "name": "a7af04ea3d31e743608e7691ad1246ad", "is_reserved": 0, "rental_uris": {"android": "https://dc.lft.to/lastmile_qr_scan", "ios": "https://dc.lft.to/lastmile_qr_scan"}, "fusion_lon": 0.0}, {"lat": 38.9112345, "is_disabled": 0, "type": "electric_scooter", "lon": -77.03845666666666, "bike_id": "12eb3cd88eb9aefb780d9ac776d69c5d", "fusion_lat": 0.0, "name": "12eb3cd88eb9aefb780d9ac776d69c5d", "is_reserved": 0, "rental_uris": {"android": "https://dc.lft.to/lastmile_qr_scan", "ios": "https://dc.lft.to/lastmile_qr_scan"}, "fusion_lon": 0.0}, {"lat": 38.88466916666667, "is_disabled": 0, "type": "electric_scooter", "lon": -77.0259, "bike_id": "2bbce9bd1f887ca2d4b32678c118e2b1", "fusion_lat": 0.0, "name": "2bbce9bd1f887ca2d4b32678c118e2b1", "is_reserved": 0, "rental_uris": {"android": "https://dc.lft.to/lastmile_qr_scan", "ios": "https://dc.lft.to/lastmile_qr_scan"}, "fusion_lon": 0.0}, {"lat": 38.91790683333333, "is_disabled": 0, "type": "electric_scooter", "lon": -77.04040616666667, "bike_id": "2f7d567c754da26cf4a18e9bed8f2353", "fusion_lat": 0.0, "name": "2f7d567c754da26cf4a18e9bed8f2353", "is_reserved": 0, "rental_uris": {"android": "https://dc.lft.to/lastmile_qr_scan", "ios": "https://dc.lft.to/lastmile_qr_scan"}, "fusion_lon": 0.0}, {"lat": 38.90037683333333, "is_disabled": 0, "type": "electric_scooter", "lon": -76.99386616666666, "bike_id": "902b651b41beb94fa622774276c0c761", "fusion_lat": 0.0, "name": "902b651b41beb94fa622774276c0c761", "is_reserved": 0, "rental_uris": {"android": "https://dc.lft.to/lastmile_qr_scan", "ios": "https://dc.lft.to/lastmile_qr_scan"}, "fusion_lon": 0.0}, {"lat": 38.937076, "is_disabled": 0, "type": "electric_scooter", "lon": -77.03644366666667, "bike_id": "6e3ca0aa03c9be9578edcd6ee8f6adf8", "fusion_lat": 0.0, "name": "6e3ca0aa03c9be9578edcd6ee8f6adf8", "is_reserved": 0, "rental_uris": {"android": "https://dc.lft.to/lastmile_qr_scan", "ios": "https://dc.lft.to/lastmile_qr_scan"}, "fusion_lon": 0.0}, {"lat": 38.917813333333335, "is_disabled": 0, "type": "electric_scooter", "lon": -77.0230205, "bike_id": "199a9242c80a3bb16cc0de1b6e4789e3", "fusion_lat": 0.0, "name": "199a9242c80a3bb16cc0de1b6e4789e3", "is_reserved": 0, "rental_uris": {"android": "https://dc.lft.to/lastmile_qr_scan", "ios": "https://dc.lft.to/lastmile_qr_scan"}, "fusion_lon": 0.0}, {"lat": 38.936418333333336, "is_disabled": 0, "type": "electric_scooter", "lon": -77.0249225, "bike_id": "8e1ea9f2a5ddb4aef774592fa1194e82", "fusion_lat": 0.0, "name": "8e1ea9f2a5ddb4aef774592fa1194e82", "is_reserved": 0, "rental_uris": {"android": "https://dc.lft.to/lastmile_qr_scan", "ios": "https://dc.lft.to/lastmile_qr_scan"}, "fusion_lon": 0.0}, {"lat": 38.93508766666667, "is_disabled": 0, "type": "electric_scooter", "lon": -77.03262233333334, "bike_id": "dfef14286f53ce38eb72dfa5336a2845", "fusion_lat": 0.0, "name": "dfef14286f53ce38eb72dfa5336a2845", "is_reserved": 0, "rental_uris": {"android": "https://dc.lft.to/lastmile_qr_scan", "ios": "https://dc.lft.to/lastmile_qr_scan"}, "fusion_lon": 0.0}, {"lat": 38.92527183333333, "is_disabled": 0, "type": "electric_scooter", "lon": -77.04428333333334, "bike_id": "c1a0dfb1a0441b9ac688460d1bf27d60", "fusion_lat": 0.0, "name": "c1a0dfb1a0441b9ac688460d1bf27d60", "is_reserved": 0, "rental_uris": {"android": "https://dc.lft.to/lastmile_qr_scan", "ios": "https://dc.lft.to/lastmile_qr_scan"}, "fusion_lon": 0.0}, {"lat": 38.9249595, "is_disabled": 0, "type": "electric_scooter", "lon": -77.02156716666667, "bike_id": "c46872cb4e7a8b0924ecd01cfffcbe29", "fusion_lat": 0.0, "name": "c46872cb4e7a8b0924ecd01cfffcbe29", "is_reserved": 0, "rental_uris": {"android": "https://dc.lft.to/lastmile_qr_scan", "ios": "https://dc.lft.to/lastmile_qr_scan"}, "fusion_lon": 0.0}, {"lat": 38.9373985, "is_disabled": 0, "type": "electric_scooter", "lon": -77.03625883333333, "bike_id": "b42f4547b787f6ca25022da72fdb4d16", "fusion_lat": 0.0, "name": "b42f4547b787f6ca25022da72fdb4d16", "is_reserved": 0, "rental_uris": {"android": "https://dc.lft.to/lastmile_qr_scan", "ios": "https://dc.lft.to/lastmile_qr_scan"}, "fusion_lon": 0.0}, {"lat": 38.9132585, "is_disabled": 0, "type": "electric_scooter", "lon": -77.03260516666667, "bike_id": "bc09cfdca3f91f83f521e22357057010", "fusion_lat": 0.0, "name": "bc09cfdca3f91f83f521e22357057010", "is_reserved": 0, "rental_uris": {"android": "https://dc.lft.to/lastmile_qr_scan", "ios": "https://dc.lft.to/lastmile_qr_scan"}, "fusion_lon": 0.0}, {"lat": 38.919135, "is_disabled": 0, "type": "electric_scooter", "lon": -77.048088, "bike_id": "7296aa890b43a85ac4010e052c12f62e", "fusion_lat": 0.0, "name": "7296aa890b43a85ac4010e052c12f62e", "is_reserved": 0, "rental_uris": {"android": "https://dc.lft.to/lastmile_qr_scan", "ios": "https://dc.lft.to/lastmile_qr_scan"}, "fusion_lon": 0.0}, {"lat": 38.905485666666664, "is_disabled": 0, "type": "electric_scooter", "lon": -77.05711683333334, "bike_id": "361d030d6d188ad6d8382a6c76ebadea", "fusion_lat": 0.0, "name": "361d030d6d188ad6d8382a6c76ebadea", "is_reserved": 0, "rental_uris": {"android": "https://dc.lft.to/lastmile_qr_scan", "ios": "https://dc.lft.to/lastmile_qr_scan"}, "fusion_lon": 0.0}, {"lat": 38.9059805, "is_disabled": 0, "type": "electric_scooter", "lon": -77.07005833333334, "bike_id": "19d9089db62d6ed0983da4138ef8f62e", "fusion_lat": 0.0, "name": "19d9089db62d6ed0983da4138ef8f62e", "is_reserved": 0, "rental_uris": {"android": "https://dc.lft.to/lastmile_qr_scan", "ios": "https://dc.lft.to/lastmile_qr_scan"}, "fusion_lon": 0.0}, {"lat": 38.8922205, "is_disabled": 0, "type": "electric_scooter", "lon": -77.0468855, "bike_id": "fd1bace36976b3feddf291ddb3af2fb4", "fusion_lat": 0.0, "name": "fd1bace36976b3feddf291ddb3af2fb4", "is_reserved": 0, "rental_uris": {"android": "https://dc.lft.to/lastmile_qr_scan", "ios": "https://dc.lft.to/lastmile_qr_scan"}, "fusion_lon": 0.0}, {"lat": 38.959563833333334, "is_disabled": 0, "type": "electric_bike", "lon": -77.10091766666666, "bike_id": "a808eecad5feb58c3cf2c716db6f04e4", "fusion_lat": 0.0, "name": "a808eecad5feb58c3cf2c716db6f04e4", "is_reserved": 0, "rental_uris": {"android": "https://dc.lft.to/lastmile_qr_scan", "ios": "https://dc.lft.to/lastmile_qr_scan"}, "fusion_lon": 0.0}, {"lat": 38.923338, "is_disabled": 0, "type": "electric_scooter", "lon": -77.035145, "bike_id": "23b9c43da38392469fc95124ed7255b5", "fusion_lat": 0.0, "name": "23b9c43da38392469fc95124ed7255b5", "is_reserved": 0, "rental_uris": {"android": "https://dc.lft.to/lastmile_qr_scan", "ios": "https://dc.lft.to/lastmile_qr_scan"}, "fusion_lon": 0.0}, {"lat": 38.959587666666664, "is_disabled": 0, "type": "electric_scooter", "lon": -77.0331405, "bike_id": "bab1232eb2eac3d3c714fd0fcee065d3", "fusion_lat": 0.0, "name": "bab1232eb2eac3d3c714fd0fcee065d3", "is_reserved": 0, "rental_uris": {"android": "https://dc.lft.to/lastmile_qr_scan", "ios": "https://dc.lft.to/lastmile_qr_scan"}, "fusion_lon": 0.0}, {"lat": 38.91338183333333, "is_disabled": 0, "type": "electric_scooter", "lon": -77.03172883333333, "bike_id": "29903fafc99afc11cef967d29723efb1", "fusion_lat": 0.0, "name": "29903fafc99afc11cef967d29723efb1", "is_reserved": 0, "rental_uris": {"android": "https://dc.lft.to/lastmile_qr_scan", "ios": "https://dc.lft.to/lastmile_qr_scan"}, "fusion_lon": 0.0}, {"lat": 38.90373016666667, "is_disabled": 0, "type": "electric_scooter", "lon": -76.99238783333334, "bike_id": "a99dea5f3ef6f26724b997e327220bb6", "fusion_lat": 0.0, "name": "a99dea5f3ef6f26724b997e327220bb6", "is_reserved": 0, "rental_uris": {"android": "https://dc.lft.to/lastmile_qr_scan", "ios": "https://dc.lft.to/lastmile_qr_scan"}, "fusion_lon": 0.0}, {"lat": 38.935255833333336, "is_disabled": 0, "type": "electric_scooter", "lon": -77.072979, "bike_id": "83027df863ce159c22909d6e2a0245a6", "fusion_lat": 0.0, "name": "83027df863ce159c22909d6e2a0245a6", "is_reserved": 0, "rental_uris": {"android": "https://dc.lft.to/lastmile_qr_scan", "ios": "https://dc.lft.to/lastmile_qr_scan"}, "fusion_lon": 0.0}, {"lat": 38.924131333333335, "is_disabled": 0, "type": "electric_scooter", "lon": -77.044399, "bike_id": "eb925568071f4dbd358d9e7f09eb756f", "fusion_lat": 0.0, "name": "eb925568071f4dbd358d9e7f09eb756f", "is_reserved": 0, "rental_uris": {"android": "https://dc.lft.to/lastmile_qr_scan", "ios": "https://dc.lft.to/lastmile_qr_scan"}, "fusion_lon": 0.0}, {"lat": 38.89741383333333, "is_disabled": 0, "type": "electric_scooter", "lon": -77.02397383333333, "bike_id": "051524d3b56b7f9ef624cf522e40e81d", "fusion_lat": 0.0, "name": "051524d3b56b7f9ef624cf522e40e81d", "is_reserved": 0, "rental_uris": {"android": "https://dc.lft.to/lastmile_qr_scan", "ios": "https://dc.lft.to/lastmile_qr_scan"}, "fusion_lon": 0.0}, {"lat": 38.89545583333334, "is_disabled": 0, "type": "electric_scooter", "lon": -77.00918283333333, "bike_id": "53e853de9ee9b6cb0f26c5de492f30ea", "fusion_lat": 0.0, "name": "53e853de9ee9b6cb0f26c5de492f30ea", "is_reserved": 0, "rental_uris": {"android": "https://dc.lft.to/lastmile_qr_scan", "ios": "https://dc.lft.to/lastmile_qr_scan"}, "fusion_lon": 0.0}, {"lat": 38.93538683333333, "is_disabled": 0, "type": "electric_scooter", "lon": -77.03266166666667, "bike_id": "ab457f33f95df7798a4b4c2194c21a64", "fusion_lat": 0.0, "name": "ab457f33f95df7798a4b4c2194c21a64", "is_reserved": 0, "rental_uris": {"android": "https://dc.lft.to/lastmile_qr_scan", "ios": "https://dc.lft.to/lastmile_qr_scan"}, "fusion_lon": 0.0}, {"lat": 38.90812966666667, "is_disabled": 0, "type": "electric_scooter", "lon": -77.03946716666667, "bike_id": "7ef0859c84790f9841be82a0a20a3c91", "fusion_lat": 0.0, "name": "7ef0859c84790f9841be82a0a20a3c91", "is_reserved": 0, "rental_uris": {"android": "https://dc.lft.to/lastmile_qr_scan", "ios": "https://dc.lft.to/lastmile_qr_scan"}, "fusion_lon": 0.0}, {"lat": 38.9999545, "is_disabled": 0, "type": "electric_bike", "lon": -76.9250055, "bike_id": "90d4978ea4d5b7dd9c9dbdb018e9e35e", "fusion_lat": 0.0, "name": "90d4978ea4d5b7dd9c9dbdb018e9e35e", "is_reserved": 0, "rental_uris": {"android": "https://dc.lft.to/lastmile_qr_scan", "ios": "https://dc.lft.to/lastmile_qr_scan"}, "fusion_lon": 0.0}, {"lat": 38.921364833333335, "is_disabled": 0, "type": "electric_scooter", "lon": -77.0448995, "bike_id": "a78256012780e72934a88212da6eb7cb", "fusion_lat": 0.0, "name": "a78256012780e72934a88212da6eb7cb", "is_reserved": 0, "rental_uris": {"android": "https://dc.lft.to/lastmile_qr_scan", "ios": "https://dc.lft.to/lastmile_qr_scan"}, "fusion_lon": 0.0}, {"lat": 38.916751, "is_disabled": 0, "type": "electric_scooter", "lon": -77.02714433333334, "bike_id": "a12d2dd623bd56a8a8a6af849b498f07", "fusion_lat": 0.0, "name": "a12d2dd623bd56a8a8a6af849b498f07", "is_reserved": 0, "rental_uris": {"android": "https://dc.lft.to/lastmile_qr_scan", "ios": "https://dc.lft.to/lastmile_qr_scan"}, "fusion_lon": 0.0}, {"lat": 38.8921865, "is_disabled": 0, "type": "electric_scooter", "lon": -77.03221133333334, "bike_id": "dcf131e700d7497436e1455cba88b7ae", "fusion_lat": 0.0, "name": "dcf131e700d7497436e1455cba88b7ae", "is_reserved": 0, "rental_uris": {"android": "https://dc.lft.to/lastmile_qr_scan", "ios": "https://dc.lft.to/lastmile_qr_scan"}, "fusion_lon": 0.0}, {"lat": 38.89086416666667, "is_disabled": 0, "type": "electric_scooter", "lon": -76.95260333333333, "bike_id": "54b558bd7631f962ee9f1e3f4efcf776", "fusion_lat": 0.0, "name": "54b558bd7631f962ee9f1e3f4efcf776", "is_reserved": 0, "rental_uris": {"android": "https://dc.lft.to/lastmile_qr_scan", "ios": "https://dc.lft.to/lastmile_qr_scan"}, "fusion_lon": 0.0}, {"lat": 38.90978616666666, "is_disabled": 0, "type": "electric_scooter", "lon": -77.03189583333334, "bike_id": "5a91a81df037ebcef43d3a4d83553165", "fusion_lat": 0.0, "name": "5a91a81df037ebcef43d3a4d83553165", "is_reserved": 0, "rental_uris": {"android": "https://dc.lft.to/lastmile_qr_scan", "ios": "https://dc.lft.to/lastmile_qr_scan"}, "fusion_lon": 0.0}, {"lat": 38.933585, "is_disabled": 0, "type": "electric_scooter", "lon": -77.05736966666667, "bike_id": "db7e64d86f7bf9382f48c393dad7f6e6", "fusion_lat": 0.0, "name": "db7e64d86f7bf9382f48c393dad7f6e6", "is_reserved": 0, "rental_uris": {"android": "https://dc.lft.to/lastmile_qr_scan", "ios": "https://dc.lft.to/lastmile_qr_scan"}, "fusion_lon": 0.0}, {"lat": 38.90628133333333, "is_disabled": 0, "type": "electric_scooter", "lon": -77.031559, "bike_id": "aebfbfb79f28cce8d934ca481aca53fc", "fusion_lat": 0.0, "name": "aebfbfb79f28cce8d934ca481aca53fc", "is_reserved": 0, "rental_uris": {"android": "https://dc.lft.to/lastmile_qr_scan", "ios": "https://dc.lft.to/lastmile_qr_scan"}, "fusion_lon": 0.0}, {"lat": 38.9100785, "is_disabled": 0, "type": "electric_scooter", "lon": -76.98492233333333, "bike_id": "37924931b434d06ad3a895f0143a1214", "fusion_lat": 0.0, "name": "37924931b434d06ad3a895f0143a1214", "is_reserved": 0, "rental_uris": {"android": "https://dc.lft.to/lastmile_qr_scan", "ios": "https://dc.lft.to/lastmile_qr_scan"}, "fusion_lon": 0.0}, {"lat": 38.839782666666665, "is_disabled": 0, "type": "electric_bike", "lon": -77.00567766666667, "bike_id": "aec475cb1bb6c3791e3d4811396e5b4e", "fusion_lat": 0.0, "name": "aec475cb1bb6c3791e3d4811396e5b4e", "is_reserved": 0, "rental_uris": {"android": "https://dc.lft.to/lastmile_qr_scan", "ios": "https://dc.lft.to/lastmile_qr_scan"}, "fusion_lon": 0.0}, {"lat": 38.888140666666665, "is_disabled": 0, "type": "electric_scooter", "lon": -76.933455, "bike_id": "38412131a85d5fc233e0bf2486e5bc0d", "fusion_lat": 0.0, "name": "38412131a85d5fc233e0bf2486e5bc0d", "is_reserved": 0, "rental_uris": {"android": "https://dc.lft.to/lastmile_qr_scan", "ios": "https://dc.lft.to/lastmile_qr_scan"}, "fusion_lon": 0.0}, {"lat": 38.924026833333336, "is_disabled": 0, "type": "electric_scooter", "lon": -77.05262716666667, "bike_id": "cb767cd3a3fe3790594a3970ee421d59", "fusion_lat": 0.0, "name": "cb767cd3a3fe3790594a3970ee421d59", "is_reserved": 0, "rental_uris": {"android": "https://dc.lft.to/lastmile_qr_scan", "ios": "https://dc.lft.to/lastmile_qr_scan"}, "fusion_lon": 0.0}, {"lat": 38.87668, "is_disabled": 0, "type": "electric_bike", "lon": -77.01445916666667, "bike_id": "0a8ecec41f8d24b35c765a45154d8396", "fusion_lat": 0.0, "name": "0a8ecec41f8d24b35c765a45154d8396", "is_reserved": 0, "rental_uris": {"android": "https://dc.lft.to/lastmile_qr_scan", "ios": "https://dc.lft.to/lastmile_qr_scan"}, "fusion_lon": 0.0}, {"lat": 38.906684166666665, "is_disabled": 0, "type": "electric_scooter", "lon": -77.03835066666667, "bike_id": "89807c9fbba07858c55c576b33a19478", "fusion_lat": 0.0, "name": "89807c9fbba07858c55c576b33a19478", "is_reserved": 0, "rental_uris": {"android": "https://dc.lft.to/lastmile_qr_scan", "ios": "https://dc.lft.to/lastmile_qr_scan"}, "fusion_lon": 0.0}, {"lat": 38.92032016666667, "is_disabled": 0, "type": "electric_bike", "lon": -77.03707633333333, "bike_id": "bf412d1f1cc9351a01889f71fee371e6", "fusion_lat": 0.0, "name": "bf412d1f1cc9351a01889f71fee371e6", "is_reserved": 0, "rental_uris": {"android": "https://dc.lft.to/lastmile_qr_scan", "ios": "https://dc.lft.to/lastmile_qr_scan"}, "fusion_lon": 0.0}, {"lat": 38.92039166666667, "is_disabled": 0, "type": "electric_scooter", "lon": -77.03391783333333, "bike_id": "18c43af47612f5061c25ad4819842e39", "fusion_lat": 0.0, "name": "18c43af47612f5061c25ad4819842e39", "is_reserved": 0, "rental_uris": {"android": "https://dc.lft.to/lastmile_qr_scan", "ios": "https://dc.lft.to/lastmile_qr_scan"}, "fusion_lon": 0.0}, {"lat": 38.90042066666667, "is_disabled": 0, "type": "electric_scooter", "lon": -76.99503483333334, "bike_id": "55033307306b7790cc21732520e9a9d6", "fusion_lat": 0.0, "name": "55033307306b7790cc21732520e9a9d6", "is_reserved": 0, "rental_uris": {"android": "https://dc.lft.to/lastmile_qr_scan", "ios": "https://dc.lft.to/lastmile_qr_scan"}, "fusion_lon": 0.0}, {"lat": 38.886700833333336, "is_disabled": 0, "type": "electric_scooter", "lon": -76.9903225, "bike_id": "8c778802b478212b8c42adbd6bc4e61e", "fusion_lat": 0.0, "name": "8c778802b478212b8c42adbd6bc4e61e", "is_reserved": 0, "rental_uris": {"android": "https://dc.lft.to/lastmile_qr_scan", "ios": "https://dc.lft.to/lastmile_qr_scan"}, "fusion_lon": 0.0}, {"lat": 38.890070333333334, "is_disabled": 0, "type": "electric_scooter", "lon": -76.93741383333334, "bike_id": "5ff7a6885c1355a8d6ff03f80c267524", "fusion_lat": 0.0, "name": "5ff7a6885c1355a8d6ff03f80c267524", "is_reserved": 0, "rental_uris": {"android": "https://dc.lft.to/lastmile_qr_scan", "ios": "https://dc.lft.to/lastmile_qr_scan"}, "fusion_lon": 0.0}, {"lat": 38.912644666666665, "is_disabled": 0, "type": "electric_scooter", "lon": -77.02248916666667, "bike_id": "264b66fd4b601c46beb20804a4cb959d", "fusion_lat": 0.0, "name": "264b66fd4b601c46beb20804a4cb959d", "is_reserved": 0, "rental_uris": {"android": "https://dc.lft.to/lastmile_qr_scan", "ios": "https://dc.lft.to/lastmile_qr_scan"}, "fusion_lon": 0.0}, {"lat": 38.9019105, "is_disabled": 0, "type": "electric_scooter", "lon": -77.021868, "bike_id": "6296ec2a8c34c36338b44f12ba5f2c90", "fusion_lat": 0.0, "name": "6296ec2a8c34c36338b44f12ba5f2c90", "is_reserved": 0, "rental_uris": {"android": "https://dc.lft.to/lastmile_qr_scan", "ios": "https://dc.lft.to/lastmile_qr_scan"}, "fusion_lon": 0.0}, {"lat": 39.07503633333334, "is_disabled": 0, "type": "electric_bike", "lon": -77.11905633333333, "bike_id": "85130fe00cce9443ca5930be66a5899c", "fusion_lat": 0.0, "name": "85130fe00cce9443ca5930be66a5899c", "is_reserved": 0, "rental_uris": {"android": "https://dc.lft.to/lastmile_qr_scan", "ios": "https://dc.lft.to/lastmile_qr_scan"}, "fusion_lon": 0.0}, {"lat": 38.930572166666664, "is_disabled": 0, "type": "electric_scooter", "lon": -77.03637633333334, "bike_id": "1af218b7954dc2caff81e09ed767d67f", "fusion_lat": 0.0, "name": "1af218b7954dc2caff81e09ed767d67f", "is_reserved": 0, "rental_uris": {"android": "https://dc.lft.to/lastmile_qr_scan", "ios": "https://dc.lft.to/lastmile_qr_scan"}, "fusion_lon": 0.0}, {"lat": 38.930710166666664, "is_disabled": 0, "type": "electric_scooter", "lon": -77.03728, "bike_id": "66e750473665f3e4d22073859279904a", "fusion_lat": 0.0, "name": "66e750473665f3e4d22073859279904a", "is_reserved": 0, "rental_uris": {"android": "https://dc.lft.to/lastmile_qr_scan", "ios": "https://dc.lft.to/lastmile_qr_scan"}, "fusion_lon": 0.0}, {"lat": 38.92334833333334, "is_disabled": 0, "type": "electric_scooter", "lon": -77.03616933333333, "bike_id": "07833561bd9c7dabfde14de3ca624aa9", "fusion_lat": 0.0, "name": "07833561bd9c7dabfde14de3ca624aa9", "is_reserved": 0, "rental_uris": {"android": "https://dc.lft.to/lastmile_qr_scan", "ios": "https://dc.lft.to/lastmile_qr_scan"}, "fusion_lon": 0.0}, {"lat": 38.89506683333333, "is_disabled": 0, "type": "electric_scooter", "lon": -77.02196866666667, "bike_id": "01ce715b0dd60f7c37cbad5528a2eb63", "fusion_lat": 0.0, "name": "01ce715b0dd60f7c37cbad5528a2eb63", "is_reserved": 0, "rental_uris": {"android": "https://dc.lft.to/lastmile_qr_scan", "ios": "https://dc.lft.to/lastmile_qr_scan"}, "fusion_lon": 0.0}, {"lat": 38.919627166666665, "is_disabled": 0, "type": "electric_bike", "lon": -76.972654, "bike_id": "67420c26060c78e51ef615e3c6769606", "fusion_lat": 0.0, "name": "67420c26060c78e51ef615e3c6769606", "is_reserved": 0, "rental_uris": {"android": "https://dc.lft.to/lastmile_qr_scan", "ios": "https://dc.lft.to/lastmile_qr_scan"}, "fusion_lon": 0.0}, {"lat": 38.91263883333333, "is_disabled": 0, "type": "electric_scooter", "lon": -77.03933783333333, "bike_id": "33c507baabab3d15da883b92ada0ab5a", "fusion_lat": 0.0, "name": "33c507baabab3d15da883b92ada0ab5a", "is_reserved": 0, "rental_uris": {"android": "https://dc.lft.to/lastmile_qr_scan", "ios": "https://dc.lft.to/lastmile_qr_scan"}, "fusion_lon": 0.0}, {"lat": 38.89990316666667, "is_disabled": 0, "type": "electric_scooter", "lon": -77.0067385, "bike_id": "562b943812c45eb8858043f2d24a2ed8", "fusion_lat": 0.0, "name": "562b943812c45eb8858043f2d24a2ed8", "is_reserved": 0, "rental_uris": {"android": "https://dc.lft.to/lastmile_qr_scan", "ios": "https://dc.lft.to/lastmile_qr_scan"}, "fusion_lon": 0.0}, {"lat": 38.93518233333333, "is_disabled": 0, "type": "electric_scooter", "lon": -77.03265666666667, "bike_id": "24c6fe6e18efc8a2bf0173a38a6abea1", "fusion_lat": 0.0, "name": "24c6fe6e18efc8a2bf0173a38a6abea1", "is_reserved": 0, "rental_uris": {"android": "https://dc.lft.to/lastmile_qr_scan", "ios": "https://dc.lft.to/lastmile_qr_scan"}, "fusion_lon": 0.0}, {"lat": 38.917502166666665, "is_disabled": 0, "type": "electric_scooter", "lon": -77.0317905, "bike_id": "e72ceca35b807bf6b1533cf428b5fd6d", "fusion_lat": 0.0, "name": "e72ceca35b807bf6b1533cf428b5fd6d", "is_reserved": 0, "rental_uris": {"android": "https://dc.lft.to/lastmile_qr_scan", "ios": "https://dc.lft.to/lastmile_qr_scan"}, "fusion_lon": 0.0}, {"lat": 38.90727733333333, "is_disabled": 0, "type": "electric_scooter", "lon": -77.03438016666666, "bike_id": "34d0fe38e36c52987f052b012af78c71", "fusion_lat": 0.0, "name": "34d0fe38e36c52987f052b012af78c71", "is_reserved": 0, "rental_uris": {"android": "https://dc.lft.to/lastmile_qr_scan", "ios": "https://dc.lft.to/lastmile_qr_scan"}, "fusion_lon": 0.0}, {"lat": 38.9366935, "is_disabled": 0, "type": "electric_bike", "lon": -76.95203216666667, "bike_id": "e2b64f2e712265ad6ae6cc96d2a8b4f3", "fusion_lat": 0.0, "name": "e2b64f2e712265ad6ae6cc96d2a8b4f3", "is_reserved": 0, "rental_uris": {"android": "https://dc.lft.to/lastmile_qr_scan", "ios": "https://dc.lft.to/lastmile_qr_scan"}, "fusion_lon": 0.0}, {"lat": 38.93012266666667, "is_disabled": 0, "type": "electric_bike", "lon": -77.21649033333334, "bike_id": "c8a7e1b000b474e53baa5ee916ff1b89", "fusion_lat": 0.0, "name": "c8a7e1b000b474e53baa5ee916ff1b89", "is_reserved": 0, "rental_uris": {"android": "https://dc.lft.to/lastmile_qr_scan", "ios": "https://dc.lft.to/lastmile_qr_scan"}, "fusion_lon": 0.0}, {"lat": 38.936945, "is_disabled": 0, "type": "electric_scooter", "lon": -77.02406533333334, "bike_id": "ece7dd4fe9709eb266bbe86d73ed8e45", "fusion_lat": 0.0, "name": "ece7dd4fe9709eb266bbe86d73ed8e45", "is_reserved": 0, "rental_uris": {"android": "https://dc.lft.to/lastmile_qr_scan", "ios": "https://dc.lft.to/lastmile_qr_scan"}, "fusion_lon": 0.0}, {"lat": 38.9942345, "is_disabled": 0, "type": "electric_bike", "lon": -77.02646966666667, "bike_id": "bb4e2fa7afba2662679a11f75c4bb82d", "fusion_lat": 0.0, "name": "bb4e2fa7afba2662679a11f75c4bb82d", "is_reserved": 0, "rental_uris": {"android": "https://dc.lft.to/lastmile_qr_scan", "ios": "https://dc.lft.to/lastmile_qr_scan"}, "fusion_lon": 0.0}, {"lat": 38.90217, "is_disabled": 0, "type": "electric_scooter", "lon": -76.94590033333333, "bike_id": "003070fff26f77e6211b0832cc0e21f8", "fusion_lat": 0.0, "name": "003070fff26f77e6211b0832cc0e21f8", "is_reserved": 0, "rental_uris": {"android": "https://dc.lft.to/lastmile_qr_scan", "ios": "https://dc.lft.to/lastmile_qr_scan"}, "fusion_lon": 0.0}, {"lat": 38.89927616666667, "is_disabled": 0, "type": "electric_scooter", "lon": -77.04141433333334, "bike_id": "dcb992101a5e7d12af609515af2f6b17", "fusion_lat": 0.0, "name": "dcb992101a5e7d12af609515af2f6b17", "is_reserved": 0, "rental_uris": {"android": "https://dc.lft.to/lastmile_qr_scan", "ios": "https://dc.lft.to/lastmile_qr_scan"}, "fusion_lon": 0.0}, {"lat": 39.004719333333334, "is_disabled": 0, "type": "electric_bike", "lon": -76.90133733333333, "bike_id": "480facd719dc2e72ba27e98a3a90b5e5", "fusion_lat": 0.0, "name": "480facd719dc2e72ba27e98a3a90b5e5", "is_reserved": 0, "rental_uris": {"android": "https://dc.lft.to/lastmile_qr_scan", "ios": "https://dc.lft.to/lastmile_qr_scan"}, "fusion_lon": 0.0}, {"lat": 38.930203666666664, "is_disabled": 0, "type": "electric_scooter", "lon": -77.0444955, "bike_id": "da340a1d25a3d8cebd74ba8f7c33f854", "fusion_lat": 0.0, "name": "da340a1d25a3d8cebd74ba8f7c33f854", "is_reserved": 0, "rental_uris": {"android": "https://dc.lft.to/lastmile_qr_scan", "ios": "https://dc.lft.to/lastmile_qr_scan"}, "fusion_lon": 0.0}, {"lat": 38.924971666666664, "is_disabled": 0, "type": "electric_scooter", "lon": -77.05227166666667, "bike_id": "bfd5c9c384055ba850835390e26ee937", "fusion_lat": 0.0, "name": "bfd5c9c384055ba850835390e26ee937", "is_reserved": 0, "rental_uris": {"android": "https://dc.lft.to/lastmile_qr_scan", "ios": "https://dc.lft.to/lastmile_qr_scan"}, "fusion_lon": 0.0}, {"lat": 38.904135333333336, "is_disabled": 0, "type": "electric_scooter", "lon": -77.02582466666667, "bike_id": "cb8aec053e41004ed4c63107c6eb318a", "fusion_lat": 0.0, "name": "cb8aec053e41004ed4c63107c6eb318a", "is_reserved": 0, "rental_uris": {"android": "https://dc.lft.to/lastmile_qr_scan", "ios": "https://dc.lft.to/lastmile_qr_scan"}, "fusion_lon": 0.0}, {"lat": 38.9239335, "is_disabled": 0, "type": "electric_scooter", "lon": -77.03227666666666, "bike_id": "bde9e986c3152a406a89975a911f2a69", "fusion_lat": 0.0, "name": "bde9e986c3152a406a89975a911f2a69", "is_reserved": 0, "rental_uris": {"android": "https://dc.lft.to/lastmile_qr_scan", "ios": "https://dc.lft.to/lastmile_qr_scan"}, "fusion_lon": 0.0}, {"lat": 38.92234933333334, "is_disabled": 0, "type": "electric_scooter", "lon": -77.02851016666666, "bike_id": "af59bfd4e39444a8b048e605cb2c9a1d", "fusion_lat": 0.0, "name": "af59bfd4e39444a8b048e605cb2c9a1d", "is_reserved": 0, "rental_uris": {"android": "https://dc.lft.to/lastmile_qr_scan", "ios": "https://dc.lft.to/lastmile_qr_scan"}, "fusion_lon": 0.0}, {"lat": 38.90068, "is_disabled": 0, "type": "electric_scooter", "lon": -77.043217, "bike_id": "233e26e2b669fd6c9ed04605c1e73203", "fusion_lat": 0.0, "name": "233e26e2b669fd6c9ed04605c1e73203", "is_reserved": 0, "rental_uris": {"android": "https://dc.lft.to/lastmile_qr_scan", "ios": "https://dc.lft.to/lastmile_qr_scan"}, "fusion_lon": 0.0}, {"lat": 38.828729333333335, "is_disabled": 0, "type": "electric_bike", "lon": -77.11222883333333, "bike_id": "aa03e02177eab6081936ed23a2cfadcf", "fusion_lat": 0.0, "name": "aa03e02177eab6081936ed23a2cfadcf", "is_reserved": 0, "rental_uris": {"android": "https://dc.lft.to/lastmile_qr_scan", "ios": "https://dc.lft.to/lastmile_qr_scan"}, "fusion_lon": 0.0}, {"lat": 38.89221833333333, "is_disabled": 0, "type": "electric_scooter", "lon": -77.03161816666666, "bike_id": "8836c331df915abe93eb79852216be63", "fusion_lat": 0.0, "name": "8836c331df915abe93eb79852216be63", "is_reserved": 0, "rental_uris": {"android": "https://dc.lft.to/lastmile_qr_scan", "ios": "https://dc.lft.to/lastmile_qr_scan"}, "fusion_lon": 0.0}, {"lat": 38.89883233333333, "is_disabled": 0, "type": "electric_scooter", "lon": -76.93177133333333, "bike_id": "990f196d4c7d4c029831a1148823c0ef", "fusion_lat": 0.0, "name": "990f196d4c7d4c029831a1148823c0ef", "is_reserved": 0, "rental_uris": {"android": "https://dc.lft.to/lastmile_qr_scan", "ios": "https://dc.lft.to/lastmile_qr_scan"}, "fusion_lon": 0.0}, {"lat": 38.9098855, "is_disabled": 0, "type": "electric_scooter", "lon": -76.997402, "bike_id": "58b77ced4793efd0fae4b61e29cd1557", "fusion_lat": 0.0, "name": "58b77ced4793efd0fae4b61e29cd1557", "is_reserved": 0, "rental_uris": {"android": "https://dc.lft.to/lastmile_qr_scan", "ios": "https://dc.lft.to/lastmile_qr_scan"}, "fusion_lon": 0.0}, {"lat": 38.920527, "is_disabled": 0, "type": "electric_scooter", "lon": -77.0380045, "bike_id": "589b07776aa57876de5c4e4c99a1f673", "fusion_lat": 0.0, "name": "589b07776aa57876de5c4e4c99a1f673", "is_reserved": 0, "rental_uris": {"android": "https://dc.lft.to/lastmile_qr_scan", "ios": "https://dc.lft.to/lastmile_qr_scan"}, "fusion_lon": 0.0}, {"lat": 38.93356933333333, "is_disabled": 0, "type": "electric_bike", "lon": -77.0996235, "bike_id": "fb6577bcc09229cf58160b1ae48abac6", "fusion_lat": 0.0, "name": "fb6577bcc09229cf58160b1ae48abac6", "is_reserved": 0, "rental_uris": {"android": "https://dc.lft.to/lastmile_qr_scan", "ios": "https://dc.lft.to/lastmile_qr_scan"}, "fusion_lon": 0.0}, {"lat": 38.908133666666664, "is_disabled": 0, "type": "electric_scooter", "lon": -77.04334616666667, "bike_id": "452dcd02eba00924850a400b60e5ccbe", "fusion_lat": 0.0, "name": "452dcd02eba00924850a400b60e5ccbe", "is_reserved": 0, "rental_uris": {"android": "https://dc.lft.to/lastmile_qr_scan", "ios": "https://dc.lft.to/lastmile_qr_scan"}, "fusion_lon": 0.0}, {"lat": 38.91484, "is_disabled": 0, "type": "electric_scooter", "lon": -77.032208, "bike_id": "ae59d8091e74199d1b3c8577998faedb", "fusion_lat": 0.0, "name": "ae59d8091e74199d1b3c8577998faedb", "is_reserved": 0, "rental_uris": {"android": "https://dc.lft.to/lastmile_qr_scan", "ios": "https://dc.lft.to/lastmile_qr_scan"}, "fusion_lon": 0.0}, {"lat": 38.931969333333335, "is_disabled": 0, "type": "electric_scooter", "lon": -77.028387, "bike_id": "7a7a1c82df1db71f9ebfeb9255d171cd", "fusion_lat": 0.0, "name": "7a7a1c82df1db71f9ebfeb9255d171cd", "is_reserved": 0, "rental_uris": {"android": "https://dc.lft.to/lastmile_qr_scan", "ios": "https://dc.lft.to/lastmile_qr_scan"}, "fusion_lon": 0.0}, {"lat": 38.90235233333333, "is_disabled": 0, "type": "electric_scooter", "lon": -77.0269485, "bike_id": "a333fc9e052ec8d48492daea259356e2", "fusion_lat": 0.0, "name": "a333fc9e052ec8d48492daea259356e2", "is_reserved": 0, "rental_uris": {"android": "https://dc.lft.to/lastmile_qr_scan", "ios": "https://dc.lft.to/lastmile_qr_scan"}, "fusion_lon": 0.0}, {"lat": 38.902846833333335, "is_disabled": 0, "type": "electric_scooter", "lon": -77.03671433333334, "bike_id": "df7d54c8eb10e4dee1d06d3b7b9f7ab4", "fusion_lat": 0.0, "name": "df7d54c8eb10e4dee1d06d3b7b9f7ab4", "is_reserved": 0, "rental_uris": {"android": "https://dc.lft.to/lastmile_qr_scan", "ios": "https://dc.lft.to/lastmile_qr_scan"}, "fusion_lon": 0.0}, {"lat": 38.928573666666665, "is_disabled": 0, "type": "electric_scooter", "lon": -77.0333605, "bike_id": "0f0d018fb0ff589be217f2842812d437", "fusion_lat": 0.0, "name": "0f0d018fb0ff589be217f2842812d437", "is_reserved": 0, "rental_uris": {"android": "https://dc.lft.to/lastmile_qr_scan", "ios": "https://dc.lft.to/lastmile_qr_scan"}, "fusion_lon": 0.0}, {"lat": 38.901576666666664, "is_disabled": 0, "type": "electric_scooter", "lon": -77.039476, "bike_id": "b3bc52e77584cd8028e1241ccf00dacc", "fusion_lat": 0.0, "name": "b3bc52e77584cd8028e1241ccf00dacc", "is_reserved": 0, "rental_uris": {"android": "https://dc.lft.to/lastmile_qr_scan", "ios": "https://dc.lft.to/lastmile_qr_scan"}, "fusion_lon": 0.0}, {"lat": 38.91562783333333, "is_disabled": 0, "type": "electric_scooter", "lon": -77.031482, "bike_id": "e40401a85e7ef3f6fcd985739dc38bb3", "fusion_lat": 0.0, "name": "e40401a85e7ef3f6fcd985739dc38bb3", "is_reserved": 0, "rental_uris": {"android": "https://dc.lft.to/lastmile_qr_scan", "ios": "https://dc.lft.to/lastmile_qr_scan"}, "fusion_lon": 0.0}, {"lat": 38.914188333333335, "is_disabled": 0, "type": "electric_scooter", "lon": -77.03183316666667, "bike_id": "86e53d0042aa6cca3f74607e9ee1a475", "fusion_lat": 0.0, "name": "86e53d0042aa6cca3f74607e9ee1a475", "is_reserved": 0, "rental_uris": {"android": "https://dc.lft.to/lastmile_qr_scan", "ios": "https://dc.lft.to/lastmile_qr_scan"}, "fusion_lon": 0.0}, {"lat": 38.92323, "is_disabled": 0, "type": "electric_scooter", "lon": -77.03552933333333, "bike_id": "2dc6dcc7c7913e36e36fb0cd2f072459", "fusion_lat": 0.0, "name": "2dc6dcc7c7913e36e36fb0cd2f072459", "is_reserved": 0, "rental_uris": {"android": "https://dc.lft.to/lastmile_qr_scan", "ios": "https://dc.lft.to/lastmile_qr_scan"}, "fusion_lon": 0.0}, {"lat": 38.9109605, "is_disabled": 0, "type": "electric_scooter", "lon": -77.0318575, "bike_id": "7f75618eeae66e1cf563b2451f5325f0", "fusion_lat": 0.0, "name": "7f75618eeae66e1cf563b2451f5325f0", "is_reserved": 0, "rental_uris": {"android": "https://dc.lft.to/lastmile_qr_scan", "ios": "https://dc.lft.to/lastmile_qr_scan"}, "fusion_lon": 0.0}, {"lat": 38.895816333333336, "is_disabled": 0, "type": "electric_bike", "lon": -77.12695516666666, "bike_id": "5028be28f71216f4022258ce19b73f39", "fusion_lat": 0.0, "name": "5028be28f71216f4022258ce19b73f39", "is_reserved": 0, "rental_uris": {"android": "https://dc.lft.to/lastmile_qr_scan", "ios": "https://dc.lft.to/lastmile_qr_scan"}, "fusion_lon": 0.0}, {"lat": 38.92484416666667, "is_disabled": 0, "type": "electric_bike", "lon": -76.99026716666667, "bike_id": "83c718d19c4eb084faba596a3532470b", "fusion_lat": 0.0, "name": "83c718d19c4eb084faba596a3532470b", "is_reserved": 0, "rental_uris": {"android": "https://dc.lft.to/lastmile_qr_scan", "ios": "https://dc.lft.to/lastmile_qr_scan"}, "fusion_lon": 0.0}, {"lat": 38.90672883333333, "is_disabled": 0, "type": "electric_scooter", "lon": -77.02692483333334, "bike_id": "5c90a6082adb5b3ef767bf26f4f98070", "fusion_lat": 0.0, "name": "5c90a6082adb5b3ef767bf26f4f98070", "is_reserved": 0, "rental_uris": {"android": "https://dc.lft.to/lastmile_qr_scan", "ios": "https://dc.lft.to/lastmile_qr_scan"}, "fusion_lon": 0.0}, {"lat": 38.91008083333333, "is_disabled": 0, "type": "electric_scooter", "lon": -77.04424683333333, "bike_id": "795bb57c6c80d0e802c412554060144e", "fusion_lat": 0.0, "name": "795bb57c6c80d0e802c412554060144e", "is_reserved": 0, "rental_uris": {"android": "https://dc.lft.to/lastmile_qr_scan", "ios": "https://dc.lft.to/lastmile_qr_scan"}, "fusion_lon": 0.0}, {"lat": 39.08855116666667, "is_disabled": 0, "type": "electric_bike", "lon": -77.17844533333333, "bike_id": "7fa9a0a87d440df64946cbb859a55cca", "fusion_lat": 0.0, "name": "7fa9a0a87d440df64946cbb859a55cca", "is_reserved": 0, "rental_uris": {"android": "https://dc.lft.to/lastmile_qr_scan", "ios": "https://dc.lft.to/lastmile_qr_scan"}, "fusion_lon": 0.0}, {"lat": 38.928533333333334, "is_disabled": 0, "type": "electric_bike", "lon": -77.222177, "bike_id": "e869656030e8d2b16c405211b025c943", "fusion_lat": 0.0, "name": "e869656030e8d2b16c405211b025c943", "is_reserved": 0, "rental_uris": {"android": "https://dc.lft.to/lastmile_qr_scan", "ios": "https://dc.lft.to/lastmile_qr_scan"}, "fusion_lon": 0.0}, {"lat": 38.90366483333333, "is_disabled": 0, "type": "electric_scooter", "lon": -77.03593966666666, "bike_id": "ad3162be1503292642d5e666df065ccf", "fusion_lat": 0.0, "name": "ad3162be1503292642d5e666df065ccf", "is_reserved": 0, "rental_uris": {"android": "https://dc.lft.to/lastmile_qr_scan", "ios": "https://dc.lft.to/lastmile_qr_scan"}, "fusion_lon": 0.0}, {"lat": 38.87230383333333, "is_disabled": 0, "type": "electric_bike", "lon": -77.012128, "bike_id": "9a3207c2b3a0009b97e8edf5a7cf5206", "fusion_lat": 0.0, "name": "9a3207c2b3a0009b97e8edf5a7cf5206", "is_reserved": 0, "rental_uris": {"android": "https://dc.lft.to/lastmile_qr_scan", "ios": "https://dc.lft.to/lastmile_qr_scan"}, "fusion_lon": 0.0}, {"lat": 38.89882466666667, "is_disabled": 0, "type": "electric_scooter", "lon": -76.93180583333333, "bike_id": "c2ff4bec234838f7558c97f5509b06e4", "fusion_lat": 0.0, "name": "c2ff4bec234838f7558c97f5509b06e4", "is_reserved": 0, "rental_uris": {"android": "https://dc.lft.to/lastmile_qr_scan", "ios": "https://dc.lft.to/lastmile_qr_scan"}, "fusion_lon": 0.0}, {"lat": 38.892212, "is_disabled": 0, "type": "electric_scooter", "lon": -77.04859133333333, "bike_id": "e27cc28db069393b10273fb510dbc7bb", "fusion_lat": 0.0, "name": "e27cc28db069393b10273fb510dbc7bb", "is_reserved": 0, "rental_uris": {"android": "https://dc.lft.to/lastmile_qr_scan", "ios": "https://dc.lft.to/lastmile_qr_scan"}, "fusion_lon": 0.0}, {"lat": 38.87140516666667, "is_disabled": 0, "type": "electric_bike", "lon": -76.93706283333333, "bike_id": "39e532cc6529e4df9c3cbf021ce88ac2", "fusion_lat": 0.0, "name": "39e532cc6529e4df9c3cbf021ce88ac2", "is_reserved": 0, "rental_uris": {"android": "https://dc.lft.to/lastmile_qr_scan", "ios": "https://dc.lft.to/lastmile_qr_scan"}, "fusion_lon": 0.0}, {"lat": 38.904786333333334, "is_disabled": 0, "type": "electric_scooter", "lon": -77.06126583333334, "bike_id": "ec568246e64dcc86d489d078b074259b", "fusion_lat": 0.0, "name": "ec568246e64dcc86d489d078b074259b", "is_reserved": 0, "rental_uris": {"android": "https://dc.lft.to/lastmile_qr_scan", "ios": "https://dc.lft.to/lastmile_qr_scan"}, "fusion_lon": 0.0}, {"lat": 38.93739016666667, "is_disabled": 0, "type": "electric_scooter", "lon": -77.03628833333333, "bike_id": "cef53d482d40321ed30d13540368c701", "fusion_lat": 0.0, "name": "cef53d482d40321ed30d13540368c701", "is_reserved": 0, "rental_uris": {"android": "https://dc.lft.to/lastmile_qr_scan", "ios": "https://dc.lft.to/lastmile_qr_scan"}, "fusion_lon": 0.0}, {"lat": 38.89221216666667, "is_disabled": 0, "type": "electric_scooter", "lon": -77.031655, "bike_id": "1d725c025abcfdee6fefe19ab787613f", "fusion_lat": 0.0, "name": "1d725c025abcfdee6fefe19ab787613f", "is_reserved": 0, "rental_uris": {"android": "https://dc.lft.to/lastmile_qr_scan", "ios": "https://dc.lft.to/lastmile_qr_scan"}, "fusion_lon": 0.0}, {"lat": 38.86833016666667, "is_disabled": 0, "type": "electric_scooter", "lon": -76.977408, "bike_id": "23b74fca08e174b6e17bae638767c391", "fusion_lat": 0.0, "name": "23b74fca08e174b6e17bae638767c391", "is_reserved": 0, "rental_uris": {"android": "https://dc.lft.to/lastmile_qr_scan", "ios": "https://dc.lft.to/lastmile_qr_scan"}, "fusion_lon": 0.0},