{"data": {"bikes": [{"lon": -77.0225545, "bike_id": "27a029389d0a63e433b5327a51424907", "lat": 38.925275166666665, "fusion_lon": 0.0, "fusion_lat": 0.0, "type": "electric_scooter", "name": "27a029389d0a63e433b5327a51424907", "is_disabled": 0, "rental_uris": {"ios": "https://dc.lft.to/lastmile_qr_scan", "android": "https://dc.lft.to/lastmile_qr_scan"}, "is_reserved": 0}, {"lon": -77.02768883333333, "bike_id": "e210de8837c2132f27cb4feec621d332", "lat": 38.95425516666667, "fusion_lon": 0.0, "fusion_lat": 0.0, "type": "electric_scooter", "name": "e210de8837c2132f27cb4feec621d332", "is_disabled": 0, "rental_uris": {"ios": "https://dc.lft.to/lastmile_qr_scan", "android": "https://dc.lft.to/lastmile_qr_scan"}, "is_reserved": 0}, {"lon": -77.05046416666667, "bike_id": "fbe4b5ccbe461a281be0c8dd49c178a8", "lat": 38.92384116666667, "fusion_lon": 0.0, "fusion_lat": 0.0, "type": "electric_scooter", "name": "fbe4b5ccbe461a281be0c8dd49c178a8", "is_disabled": 0, "rental_uris": {"ios": "https://dc.lft.to/lastmile_qr_scan", "android": "https://dc.lft.to/lastmile_qr_scan"}, "is_reserved": 0}, {"lon": -77.03208466666666, "bike_id": "d227fb5ba4ef8f3e0d73d8f7e3082b3e", "lat": 38.91500966666667, "fusion_lon": 0.0, "fusion_lat": 0.0, "type": "electric_scooter", "name": "d227fb5ba4ef8f3e0d73d8f7e3082b3e", "is_disabled": 0, "rental_uris": {"ios": "https://dc.lft.to/lastmile_qr_scan", "android": "https://dc.lft.to/lastmile_qr_scan"}, "is_reserved": 0}, {"lon": -77.02129366666666, "bike_id": "d5dc91cd318213dc65b6313ca590c9ba", "lat": 38.924802, "fusion_lon": 0.0, "fusion_lat": 0.0, "type": "electric_scooter", "name": "d5dc91cd318213dc65b6313ca590c9ba", "is_disabled": 0, "rental_uris": {"ios": "https://dc.lft.to/lastmile_qr_scan", "android": "https://dc.lft.to/lastmile_qr_scan"}, "is_reserved": 0}, {"lon": -77.13239483333334, "bike_id": "d389244d7bd91bed2fb2ab0173366e3f", "lat": 38.8057705, "fusion_lon": 0.0, "fusion_lat": 0.0, "type": "electric_bike", "name": "d389244d7bd91bed2fb2ab0173366e3f", "is_disabled": 0, "rental_uris": {"ios": "https://dc.lft.to/lastmile_qr_scan", "android": "https://dc.lft.to/lastmile_qr_scan"}, "is_reserved": 0}, {"lon": -77.02011933333333, "bike_id": "98e03ff84fbddc05b4224ca1a0b5cae2", "lat": 38.897532, "fusion_lon": 0.0, "fusion_lat": 0.0, "type": "electric_scooter", "name": "98e03ff84fbddc05b4224ca1a0b5cae2", "is_disabled": 0, "rental_uris": {"ios": "https://dc.lft.to/lastmile_qr_scan", "android": "https://dc.lft.to/lastmile_qr_scan"}, "is_reserved": 0}, {"lon": -77.05352783333333, "bike_id": "b4110c85ac48df1bc1c4804451a98869", "lat": 38.92346366666666, "fusion_lon": 0.0, "fusion_lat": 0.0, "type": "electric_scooter", "name": "b4110c85ac48df1bc1c4804451a98869", "is_disabled": 0, "rental_uris": {"ios": "https://dc.lft.to/lastmile_qr_scan", "android": "https://dc.lft.to/lastmile_qr_scan"}, "is_reserved": 0}, {"lon": -76.98691816666667, "bike_id": "13d375f22b277663d6f25399a581ddd9", "lat": 38.8626515, "fusion_lon": 0.0, "fusion_lat": 0.0, "type": "electric_scooter", "name": "13d375f22b277663d6f25399a581ddd9", "is_disabled": 0, "rental_uris": {"ios": "https://dc.lft.to/lastmile_qr_scan", "android": "https://dc.lft.to/lastmile_qr_scan"}, "is_reserved": 0}, {"lon": -77.02975366666666, "bike_id": "32321bec4a8079f1a02765e38bf75da4", "lat": 38.8983125, "fusion_lon": 0.0, "fusion_lat": 0.0, "type": "electric_scooter", "name": "32321bec4a8079f1a02765e38bf75da4", "is_disabled": 0, "rental_uris": {"ios": "https://dc.lft.to/lastmile_qr_scan", "android": "https://dc.lft.to/lastmile_qr_scan"}, "is_reserved": 0}, {"lon": -77.02668783333333, "bike_id": "b45a7af88216f370f2aa13c376ae3bef", "lat": 38.907319333333334, "fusion_lon": 0.0, "fusion_lat": 0.0, "type": "electric_scooter", "name": "b45a7af88216f370f2aa13c376ae3bef", "is_disabled": 0, "rental_uris": {"ios": "https://dc.lft.to/lastmile_qr_scan", "android": "https://dc.lft.to/lastmile_qr_scan"}, "is_reserved": 0}, {"lon": -77.000181, "bike_id": "911308e0f0bede03789540ced4c2fbfd", "lat": 38.9077135, "fusion_lon": 0.0, "fusion_lat": 0.0, "type": "electric_scooter", "name": "911308e0f0bede03789540ced4c2fbfd", "is_disabled": 0, "rental_uris": {"ios": "https://dc.lft.to/lastmile_qr_scan", "android": "https://dc.lft.to/lastmile_qr_scan"}, "is_reserved": 0}, {"lon": -77.0231375, "bike_id": "853f43b78ad79853bd8181705dcb39a8", "lat": 38.9177795, "fusion_lon": 0.0, "fusion_lat": 0.0, "type": "electric_scooter", "name": "853f43b78ad79853bd8181705dcb39a8", "is_disabled": 0, "rental_uris": {"ios": "https://dc.lft.to/lastmile_qr_scan", "android": "https://dc.lft.to/lastmile_qr_scan"}, "is_reserved": 0}, {"lon": -76.99977716666666, "bike_id": "ba622c15fc62f2ca43d7173d6d1982f6", "lat": 38.908382333333336, "fusion_lon": 0.0, "fusion_lat": 0.0, "type": "electric_scooter", "name": "ba622c15fc62f2ca43d7173d6d1982f6", "is_disabled": 0, "rental_uris": {"ios": "https://dc.lft.to/lastmile_qr_scan", "android": "https://dc.lft.to/lastmile_qr_scan"}, "is_reserved": 0}, {"lon": -76.98287283333333, "bike_id": "4932d5840b85dc97acdeeebc43493aaf", "lat": 38.900486666666666, "fusion_lon": 0.0, "fusion_lat": 0.0, "type": "electric_scooter", "name": "4932d5840b85dc97acdeeebc43493aaf", "is_disabled": 0, "rental_uris": {"ios": "https://dc.lft.to/lastmile_qr_scan", "android": "https://dc.lft.to/lastmile_qr_scan"}, "is_reserved": 0}, {"lon": -77.02966883333333, "bike_id": "3008b4a4e9c65499b58d7853b5ac831e", "lat": 38.900007333333335, "fusion_lon": 0.0, "fusion_lat": 0.0, "type": "electric_scooter", "name": "3008b4a4e9c65499b58d7853b5ac831e", "is_disabled": 0, "rental_uris": {"ios": "https://dc.lft.to/lastmile_qr_scan", "android": "https://dc.lft.to/lastmile_qr_scan"}, "is_reserved": 0}, {"lon": -77.05854, "bike_id": "09627e21e6b87fc041d16f527244beed", "lat": 38.935892, "fusion_lon": 0.0, "fusion_lat": 0.0, "type": "electric_scooter", "name": "09627e21e6b87fc041d16f527244beed", "is_disabled": 0, "rental_uris": {"ios": "https://dc.lft.to/lastmile_qr_scan", "android": "https://dc.lft.to/lastmile_qr_scan"}, "is_reserved": 0}, {"lon": -76.9274505, "bike_id": "24b4b4d219083200a45f991ce0add06a", "lat": 38.88964583333333, "fusion_lon": 0.0, "fusion_lat": 0.0, "type": "electric_scooter", "name": "24b4b4d219083200a45f991ce0add06a", "is_disabled": 0, "rental_uris": {"ios": "https://dc.lft.to/lastmile_qr_scan", "android": "https://dc.lft.to/lastmile_qr_scan"}, "is_reserved": 0}, {"lon": -77.01901166666667, "bike_id": "9ed2ed5b5780ee3fa53cfc3dfcc5e686", "lat": 38.90361516666667, "fusion_lon": 0.0, "fusion_lat": 0.0, "type": "electric_scooter", "name": "9ed2ed5b5780ee3fa53cfc3dfcc5e686", "is_disabled": 0, "rental_uris": {"ios": "https://dc.lft.to/lastmile_qr_scan", "android": "https://dc.lft.to/lastmile_qr_scan"}, "is_reserved": 0}, {"lon": -77.04247233333334, "bike_id": "8653ca165b988017819dcee11f8f6ad6", "lat": 38.92540533333333, "fusion_lon": 0.0, "fusion_lat": 0.0, "type": "electric_scooter", "name": "8653ca165b988017819dcee11f8f6ad6", "is_disabled": 0, "rental_uris": {"ios": "https://dc.lft.to/lastmile_qr_scan", "android": "https://dc.lft.to/lastmile_qr_scan"}, "is_reserved": 0}, {"lon": -76.93356316666667, "bike_id": "6a79da8f0ce71d6f291cfa138a475561", "lat": 38.89902416666666, "fusion_lon": 0.0, "fusion_lat": 0.0, "type": "electric_scooter", "name": "6a79da8f0ce71d6f291cfa138a475561", "is_disabled": 0, "rental_uris": {"ios": "https://dc.lft.to/lastmile_qr_scan", "android": "https://dc.lft.to/lastmile_qr_scan"}, "is_reserved": 0}, {"lon": -77.02088466666666, "bike_id": "41abe9007bae3353493020d7ac3310ba", "lat": 38.927193833333334, "fusion_lon": 0.0, "fusion_lat": 0.0, "type": "electric_bike", "name": "41abe9007bae3353493020d7ac3310ba", "is_disabled": 0, "rental_uris": {"ios": "https://dc.lft.to/lastmile_qr_scan", "android": "https://dc.lft.to/lastmile_qr_scan"}, "is_reserved": 0}, {"lon": -76.98556033333334, "bike_id": "773a2b9f53c18449459807d74df888fb", "lat": 38.92003916666667, "fusion_lon": 0.0, "fusion_lat": 0.0, "type": "electric_scooter", "name": "773a2b9f53c18449459807d74df888fb", "is_disabled": 0, "rental_uris": {"ios": "https://dc.lft.to/lastmile_qr_scan", "android": "https://dc.lft.to/lastmile_qr_scan"}, "is_reserved": 0}, {"lon": -77.04460183333333, "bike_id": "4a0397bb1a657ab13dbe64cbdd7d99f8", "lat": 38.9158575, "fusion_lon": 0.0, "fusion_lat": 0.0, "type": "electric_scooter", "name": "4a0397bb1a657ab13dbe64cbdd7d99f8", "is_disabled": 0, "rental_uris": {"ios": "https://dc.lft.to/lastmile_qr_scan", "android": "https://dc.lft.to/lastmile_qr_scan"}, "is_reserved": 0}, {"lon": -77.08329033333334, "bike_id": "a152933b0b791f3935eacad5890bc96a", "lat": 38.92985483333333, "fusion_lon": 0.0, "fusion_lat": 0.0, "type": "electric_scooter", "name": "a152933b0b791f3935eacad5890bc96a", "is_disabled": 0, "rental_uris": {"ios": "https://dc.lft.to/lastmile_qr_scan", "android": "https://dc.lft.to/lastmile_qr_scan"}, "is_reserved": 0}, {"lon": -77.029581, "bike_id": "053fd216292c27ff2e025b9fe7571a1a", "lat": 38.922677666666665, "fusion_lon": 0.0, "fusion_lat": 0.0, "type": "electric_scooter", "name": "053fd216292c27ff2e025b9fe7571a1a", "is_disabled": 0, "rental_uris": {"ios": "https://dc.lft.to/lastmile_qr_scan", "android": "https://dc.lft.to/lastmile_qr_scan"}, "is_reserved": 0}, {"lon": -77.00660216666667, "bike_id": "f63d81ea380ecc29501bf9d92d6970fb", "lat": 38.8763775, "fusion_lon": 0.0, "fusion_lat": 0.0, "type": "electric_scooter", "name": "f63d81ea380ecc29501bf9d92d6970fb", "is_disabled": 0, "rental_uris": {"ios": "https://dc.lft.to/lastmile_qr_scan", "android": "https://dc.lft.to/lastmile_qr_scan"}, "is_reserved": 0}, {"lon": -77.033005, "bike_id": "8d30bf2bd4e04f4a5d0fa4f571f38384", "lat": 38.909567333333335, "fusion_lon": 0.0, "fusion_lat": 0.0, "type": "electric_scooter", "name": "8d30bf2bd4e04f4a5d0fa4f571f38384", "is_disabled": 0, "rental_uris": {"ios": "https://dc.lft.to/lastmile_qr_scan", "android": "https://dc.lft.to/lastmile_qr_scan"}, "is_reserved": 0}, {"lon": -77.02598566666667, "bike_id": "a99868bee073b5cef59704ad43fb7f18", "lat": 38.982812, "fusion_lon": 0.0, "fusion_lat": 0.0, "type": "electric_bike", "name": "a99868bee073b5cef59704ad43fb7f18", "is_disabled": 0, "rental_uris": {"ios": "https://dc.lft.to/lastmile_qr_scan", "android": "https://dc.lft.to/lastmile_qr_scan"}, "is_reserved": 0}, {"lon": -77.08600116666666, "bike_id": "59c3ed6ba45fbfdefe3908bd02cf00f0", "lat": 38.961679833333335, "fusion_lon": 0.0, "fusion_lat": 0.0, "type": "electric_bike", "name": "59c3ed6ba45fbfdefe3908bd02cf00f0", "is_disabled": 0, "rental_uris": {"ios": "https://dc.lft.to/lastmile_qr_scan", "android": "https://dc.lft.to/lastmile_qr_scan"}, "is_reserved": 0}, {"lon": -77.0440725, "bike_id": "1cb9b52aac7d9e819851571d9e2f2b18", "lat": 38.924513166666664, "fusion_lon": 0.0, "fusion_lat": 0.0, "type": "electric_scooter", "name": "1cb9b52aac7d9e819851571d9e2f2b18", "is_disabled": 0, "rental_uris": {"ios": "https://dc.lft.to/lastmile_qr_scan", "android": "https://dc.lft.to/lastmile_qr_scan"}, "is_reserved": 0}, {"lon": -77.0229725, "bike_id": "79956423d00c12a1f30fcbbc22c6386d", "lat": 38.91418183333333, "fusion_lon": 0.0, "fusion_lat": 0.0, "type": "electric_scooter", "name": "79956423d00c12a1f30fcbbc22c6386d", "is_disabled": 0, "rental_uris": {"ios": "https://dc.lft.to/lastmile_qr_scan", "android": "https://dc.lft.to/lastmile_qr_scan"}, "is_reserved": 0}, {"lon": -77.0333375, "bike_id": "58a4068a7dfbf2fd2babbe4b7630f6da", "lat": 38.928724833333334, "fusion_lon": 0.0, "fusion_lat": 0.0, "type": "electric_scooter", "name": "58a4068a7dfbf2fd2babbe4b7630f6da", "is_disabled": 0, "rental_uris": {"ios": "https://dc.lft.to/lastmile_qr_scan", "android": "https://dc.lft.to/lastmile_qr_scan"}, "is_reserved": 0}, {"lon": -76.98927516666667, "bike_id": "0af71ec667f283999a095cf5511885fa", "lat": 38.858088333333335, "fusion_lon": 0.0, "fusion_lat": 0.0, "type": "electric_scooter", "name": "0af71ec667f283999a095cf5511885fa", "is_disabled": 0, "rental_uris": {"ios": "https://dc.lft.to/lastmile_qr_scan", "android": "https://dc.lft.to/lastmile_qr_scan"}, "is_reserved": 0}, {"lon": -77.024475, "bike_id": "5c86b1fa90739407bdfb7f8b836f3a87", "lat": 38.9072315, "fusion_lon": 0.0, "fusion_lat": 0.0, "type": "electric_scooter", "name": "5c86b1fa90739407bdfb7f8b836f3a87", "is_disabled": 0, "rental_uris": {"ios": "https://dc.lft.to/lastmile_qr_scan", "android": "https://dc.lft.to/lastmile_qr_scan"}, "is_reserved": 0}, {"lon": -76.99842583333333, "bike_id": "4a53334b34e27fd4f3f4fd32e561fbf9", "lat": 38.900393, "fusion_lon": 0.0, "fusion_lat": 0.0, "type": "electric_scooter", "name": "4a53334b34e27fd4f3f4fd32e561fbf9", "is_disabled": 0, "rental_uris": {"ios": "https://dc.lft.to/lastmile_qr_scan", "android": "https://dc.lft.to/lastmile_qr_scan"}, "is_reserved": 0}, {"lon": -77.04193983333333, "bike_id": "e11f70d9348dc7b5d401c7dc8ace1952", "lat": 38.90684783333333, "fusion_lon": 0.0, "fusion_lat": 0.0, "type": "electric_scooter", "name": "e11f70d9348dc7b5d401c7dc8ace1952", "is_disabled": 0, "rental_uris": {"ios": "https://dc.lft.to/lastmile_qr_scan", "android": "https://dc.lft.to/lastmile_qr_scan"}, "is_reserved": 0}, {"lon": -76.98836733333333, "bike_id": "26c715e31b0e265725bd00e1c5823654", "lat": 38.89049216666667, "fusion_lon": 0.0, "fusion_lat": 0.0, "type": "electric_bike", "name": "26c715e31b0e265725bd00e1c5823654", "is_disabled": 0, "rental_uris": {"ios": "https://dc.lft.to/lastmile_qr_scan", "android": "https://dc.lft.to/lastmile_qr_scan"}, "is_reserved": 0}, {"lon": -76.979693, "bike_id": "139ffcf7dd795d92a3a3335f1ef83dd6", "lat": 38.95374183333333, "fusion_lon": 0.0, "fusion_lat": 0.0, "type": "electric_bike", "name": "139ffcf7dd795d92a3a3335f1ef83dd6", "is_disabled": 0, "rental_uris": {"ios": "https://dc.lft.to/lastmile_qr_scan", "android": "https://dc.lft.to/lastmile_qr_scan"}, "is_reserved": 0}, {"lon": -77.02233683333333, "bike_id": "b7acf6a471f476b93e0a7f877bf60ed5", "lat": 38.92616233333333, "fusion_lon": 0.0, "fusion_lat": 0.0, "type": "electric_scooter", "name": "b7acf6a471f476b93e0a7f877bf60ed5", "is_disabled": 0, "rental_uris": {"ios": "https://dc.lft.to/lastmile_qr_scan", "android": "https://dc.lft.to/lastmile_qr_scan"}, "is_reserved": 0}, {"lon": -77.0793035, "bike_id": "e35e41ec8e4170ae00a781ac254bdc16", "lat": 38.948132666666666, "fusion_lon": 0.0, "fusion_lat": 0.0, "type": "electric_scooter", "name": "e35e41ec8e4170ae00a781ac254bdc16", "is_disabled": 0, "rental_uris": {"ios": "https://dc.lft.to/lastmile_qr_scan", "android": "https://dc.lft.to/lastmile_qr_scan"}, "is_reserved": 0}, {"lon": -77.0439315, "bike_id": "827dac75d8875585eae941f0e6133f6d", "lat": 39.047194, "fusion_lon": 0.0, "fusion_lat": 0.0, "type": "electric_bike", "name": "827dac75d8875585eae941f0e6133f6d", "is_disabled": 0, "rental_uris": {"ios": "https://dc.lft.to/lastmile_qr_scan", "android": "https://dc.lft.to/lastmile_qr_scan"}, "is_reserved": 0}, {"lon": -77.04541266666666, "bike_id": "7cb0e6e23ae24515b76b4e0e2a5e4d2d", "lat": 38.91330816666667, "fusion_lon": 0.0, "fusion_lat": 0.0, "type": "electric_scooter", "name": "7cb0e6e23ae24515b76b4e0e2a5e4d2d", "is_disabled": 0, "rental_uris": {"ios": "https://dc.lft.to/lastmile_qr_scan", "android": "https://dc.lft.to/lastmile_qr_scan"}, "is_reserved": 0}, {"lon": -77.0259725, "bike_id": "82d505cc24c055aaed80303772ac855e", "lat": 38.90252066666667, "fusion_lon": 0.0, "fusion_lat": 0.0, "type": "electric_scooter", "name": "82d505cc24c055aaed80303772ac855e", "is_disabled": 0, "rental_uris": {"ios": "https://dc.lft.to/lastmile_qr_scan", "android": "https://dc.lft.to/lastmile_qr_scan"}, "is_reserved": 0}, {"lon": -77.04731216666667, "bike_id": "93cfe509ab5c12973581a5d69510bfdb", "lat": 38.909808, "fusion_lon": 0.0, "fusion_lat": 0.0, "type": "electric_scooter", "name": "93cfe509ab5c12973581a5d69510bfdb", "is_disabled": 0, "rental_uris": {"ios": "https://dc.lft.to/lastmile_qr_scan", "android": "https://dc.lft.to/lastmile_qr_scan"}, "is_reserved": 0}, {"lon": -77.05957583333333, "bike_id": "c6e2953310b4b9c534c476ae481e5e16", "lat": 38.901021666666665, "fusion_lon": 0.0, "fusion_lat": 0.0, "type": "electric_scooter", "name": "c6e2953310b4b9c534c476ae481e5e16", "is_disabled": 0, "rental_uris": {"ios": "https://dc.lft.to/lastmile_qr_scan", "android": "https://dc.lft.to/lastmile_qr_scan"}, "is_reserved": 0}, {"lon": -77.03284683333334, "bike_id": "f6a5d6421631d1e2d66efa32c4d21c41", "lat": 38.93454933333334, "fusion_lon": 0.0, "fusion_lat": 0.0, "type": "electric_scooter", "name": "f6a5d6421631d1e2d66efa32c4d21c41", "is_disabled": 0, "rental_uris": {"ios": "https://dc.lft.to/lastmile_qr_scan", "android": "https://dc.lft.to/lastmile_qr_scan"}, "is_reserved": 0}, {"lon": -77.01889083333333, "bike_id": "3d141cbaff3e5635fdebe643220fe1d4", "lat": 38.91488966666667, "fusion_lon": 0.0, "fusion_lat": 0.0, "type": "electric_scooter", "name": "3d141cbaff3e5635fdebe643220fe1d4", "is_disabled": 0, "rental_uris": {"ios": "https://dc.lft.to/lastmile_qr_scan", "android": "https://dc.lft.to/lastmile_qr_scan"}, "is_reserved": 0}, {"lon": -77.03060666666667, "bike_id": "a943b932625f36e1d14079b2d6d2c0c2", "lat": 38.909699, "fusion_lon": 0.0, "fusion_lat": 0.0, "type": "electric_scooter", "name": "a943b932625f36e1d14079b2d6d2c0c2", "is_disabled": 0, "rental_uris": {"ios": "https://dc.lft.to/lastmile_qr_scan", "android": "https://dc.lft.to/lastmile_qr_scan"}, "is_reserved": 0}, {"lon": -77.06114816666667, "bike_id": "77d16a326e04cb5096df2f99985ebe8b", "lat": 38.90439, "fusion_lon": 0.0, "fusion_lat": 0.0, "type": "electric_scooter", "name": "77d16a326e04cb5096df2f99985ebe8b", "is_disabled": 0, "rental_uris": {"ios": "https://dc.lft.to/lastmile_qr_scan", "android": "https://dc.lft.to/lastmile_qr_scan"}, "is_reserved": 0}, {"lon": -76.997714, "bike_id": "77c3738ecae3fe825b249434243cac83", "lat": 38.9244815, "fusion_lon": 0.0, "fusion_lat": 0.0, "type": "electric_scooter", "name": "77c3738ecae3fe825b249434243cac83", "is_disabled": 0, "rental_uris": {"ios": "https://dc.lft.to/lastmile_qr_scan", "android": "https://dc.lft.to/lastmile_qr_scan"}, "is_reserved": 0}, {"lon": -77.04870416666667, "bike_id": "0e22b240b8b32f6707145d6665c46ea0", "lat": 38.89225316666667, "fusion_lon": 0.0, "fusion_lat": 0.0, "type": "electric_scooter", "name": "0e22b240b8b32f6707145d6665c46ea0", "is_disabled": 0, "rental_uris": {"ios": "https://dc.lft.to/lastmile_qr_scan", "android": "https://dc.lft.to/lastmile_qr_scan"}, "is_reserved": 0}, {"lon": -76.99899833333333, "bike_id": "4e111c521c9d567d3ca1fca458dfed32", "lat": 38.90013483333333, "fusion_lon": 0.0, "fusion_lat": 0.0, "type": "electric_scooter", "name": "4e111c521c9d567d3ca1fca458dfed32", "is_disabled": 0, "rental_uris": {"ios": "https://dc.lft.to/lastmile_qr_scan", "android": "https://dc.lft.to/lastmile_qr_scan"}, "is_reserved": 0}, {"lon": -77.03070466666667, "bike_id": "1cb487102a53dea17e5341b3951387af", "lat": 38.8858425, "fusion_lon": 0.0, "fusion_lat": 0.0, "type": "electric_scooter", "name": "1cb487102a53dea17e5341b3951387af", "is_disabled": 0, "rental_uris": {"ios": "https://dc.lft.to/lastmile_qr_scan", "android": "https://dc.lft.to/lastmile_qr_scan"}, "is_reserved": 0}, {"lon": -77.0299245, "bike_id": "51275339f104c6faa7d1f9d14eb0a9cf", "lat": 38.974419166666664, "fusion_lon": 0.0, "fusion_lat": 0.0, "type": "electric_bike", "name": "51275339f104c6faa7d1f9d14eb0a9cf", "is_disabled": 0, "rental_uris": {"ios": "https://dc.lft.to/lastmile_qr_scan", "android": "https://dc.lft.to/lastmile_qr_scan"}, "is_reserved": 0}, {"lon": -77.02007216666667, "bike_id": "b87865ce26d49866c30bbc51d642e2d7", "lat": 38.90406333333333, "fusion_lon": 0.0, "fusion_lat": 0.0, "type": "electric_scooter", "name": "b87865ce26d49866c30bbc51d642e2d7", "is_disabled": 0, "rental_uris": {"ios": "https://dc.lft.to/lastmile_qr_scan", "android": "https://dc.lft.to/lastmile_qr_scan"}, "is_reserved": 0}, {"lon": -77.0326375, "bike_id": "8673cdeea0e6af8457f3a987bf05996d", "lat": 38.93889816666667, "fusion_lon": 0.0, "fusion_lat": 0.0, "type": "electric_scooter", "name": "8673cdeea0e6af8457f3a987bf05996d", "is_disabled": 0, "rental_uris": {"ios": "https://dc.lft.to/lastmile_qr_scan", "android": "https://dc.lft.to/lastmile_qr_scan"}, "is_reserved": 0}, {"lon": -77.00343983333333, "bike_id": "898289275fd45b0507245de3d2087037", "lat": 38.8952455, "fusion_lon": 0.0, "fusion_lat": 0.0, "type": "electric_scooter", "name": "898289275fd45b0507245de3d2087037", "is_disabled": 0, "rental_uris": {"ios": "https://dc.lft.to/lastmile_qr_scan", "android": "https://dc.lft.to/lastmile_qr_scan"}, "is_reserved": 0}, {"lon": -76.99755066666667, "bike_id": "328f204d7fd9c28056fc346e4d0a7df7", "lat": 38.861629, "fusion_lon": 0.0, "fusion_lat": 0.0, "type": "electric_bike", "name": "328f204d7fd9c28056fc346e4d0a7df7", "is_disabled": 0, "rental_uris": {"ios": "https://dc.lft.to/lastmile_qr_scan", "android": "https://dc.lft.to/lastmile_qr_scan"}, "is_reserved": 0}, {"lon": -77.044774, "bike_id": "7ce892885deab7aa7afc2e01a40c2101", "lat": 38.911198, "fusion_lon": 0.0, "fusion_lat": 0.0, "type": "electric_scooter", "name": "7ce892885deab7aa7afc2e01a40c2101", "is_disabled": 0, "rental_uris": {"ios": "https://dc.lft.to/lastmile_qr_scan", "android": "https://dc.lft.to/lastmile_qr_scan"}, "is_reserved": 0}, {"lon": -77.02466283333334, "bike_id": "8de4b9fc2452651533fc5788f2e477b9", "lat": 38.91931783333333, "fusion_lon": 0.0, "fusion_lat": 0.0, "type": "electric_scooter", "name": "8de4b9fc2452651533fc5788f2e477b9", "is_disabled": 0, "rental_uris": {"ios": "https://dc.lft.to/lastmile_qr_scan", "android": "https://dc.lft.to/lastmile_qr_scan"}, "is_reserved": 0}, {"lon": -77.02200766666667, "bike_id": "8317ebd230eb4b8f343df93987ee49e2", "lat": 38.89879283333333, "fusion_lon": 0.0, "fusion_lat": 0.0, "type": "electric_scooter", "name": "8317ebd230eb4b8f343df93987ee49e2", "is_disabled": 0, "rental_uris": {"ios": "https://dc.lft.to/lastmile_qr_scan", "android": "https://dc.lft.to/lastmile_qr_scan"}, "is_reserved": 0}, {"lon": -77.023015, "bike_id": "3e58debbde4b25bab02cfccf4d78c0f0", "lat": 38.9089425, "fusion_lon": 0.0, "fusion_lat": 0.0, "type": "electric_scooter", "name": "3e58debbde4b25bab02cfccf4d78c0f0", "is_disabled": 0, "rental_uris": {"ios": "https://dc.lft.to/lastmile_qr_scan", "android": "https://dc.lft.to/lastmile_qr_scan"}, "is_reserved": 0}, {"lon": -76.92763166666667, "bike_id": "5e8d9b84fd7749114a04a8253a1a79e0", "lat": 38.88059833333333, "fusion_lon": 0.0, "fusion_lat": 0.0, "type": "electric_scooter", "name": "5e8d9b84fd7749114a04a8253a1a79e0", "is_disabled": 0, "rental_uris": {"ios": "https://dc.lft.to/lastmile_qr_scan", "android": "https://dc.lft.to/lastmile_qr_scan"}, "is_reserved": 0}, {"lon": -76.99080483333333, "bike_id": "4181b7b08a205fa698033034faf8f659", "lat": 38.842911, "fusion_lon": 0.0, "fusion_lat": 0.0, "type": "electric_scooter", "name": "4181b7b08a205fa698033034faf8f659", "is_disabled": 0, "rental_uris": {"ios": "https://dc.lft.to/lastmile_qr_scan", "android": "https://dc.lft.to/lastmile_qr_scan"}, "is_reserved": 0}, {"lon": -77.05281683333334, "bike_id": "793a5c4281091eb1e192b45280a1dfb5", "lat": 38.91016883333333, "fusion_lon": 0.0, "fusion_lat": 0.0, "type": "electric_scooter", "name": "793a5c4281091eb1e192b45280a1dfb5", "is_disabled": 0, "rental_uris": {"ios": "https://dc.lft.to/lastmile_qr_scan", "android": "https://dc.lft.to/lastmile_qr_scan"}, "is_reserved": 0}, {"lon": -77.04175383333333, "bike_id": "ed6db8f079b06f7c188343d20641f769", "lat": 38.91703966666667, "fusion_lon": 0.0, "fusion_lat": 0.0, "type": "electric_scooter", "name": "ed6db8f079b06f7c188343d20641f769", "is_disabled": 0, "rental_uris": {"ios": "https://dc.lft.to/lastmile_qr_scan", "android": "https://dc.lft.to/lastmile_qr_scan"}, "is_reserved": 0}, {"lon": -77.02118283333333, "bike_id": "e1305b7b44c4429c48f0848185c539e9", "lat": 38.92474683333333, "fusion_lon": 0.0, "fusion_lat": 0.0, "type": "electric_scooter", "name": "e1305b7b44c4429c48f0848185c539e9", "is_disabled": 0, "rental_uris": {"ios": "https://dc.lft.to/lastmile_qr_scan", "android": "https://dc.lft.to/lastmile_qr_scan"}, "is_reserved": 0}, {"lon": -77.02417, "bike_id": "f65609ab25d0ada14be4853961b97fba", "lat": 38.9097185, "fusion_lon": 0.0, "fusion_lat": 0.0, "type": "electric_scooter", "name": "f65609ab25d0ada14be4853961b97fba", "is_disabled": 0, "rental_uris": {"ios": "https://dc.lft.to/lastmile_qr_scan", "android": "https://dc.lft.to/lastmile_qr_scan"}, "is_reserved": 0}, {"lon": -77.00215433333334, "bike_id": "c9d4987fd3e1ada358679e74fce6ab58", "lat": 38.8972505, "fusion_lon": 0.0, "fusion_lat": 0.0, "type": "electric_scooter", "name": "c9d4987fd3e1ada358679e74fce6ab58", "is_disabled": 0, "rental_uris": {"ios": "https://dc.lft.to/lastmile_qr_scan", "android": "https://dc.lft.to/lastmile_qr_scan"}, "is_reserved": 0}, {"lon": -77.023969, "bike_id": "591a71777e38285d0b30d738f06df24d", "lat": 38.95713683333334, "fusion_lon": 0.0, "fusion_lat": 0.0, "type": "electric_scooter", "name": "591a71777e38285d0b30d738f06df24d", "is_disabled": 0, "rental_uris": {"ios": "https://dc.lft.to/lastmile_qr_scan", "android": "https://dc.lft.to/lastmile_qr_scan"}, "is_reserved": 0}, {"lon": -77.050352, "bike_id": "75cbdeef4a9c91a3db7c3e376935a127", "lat": 38.923765, "fusion_lon": 0.0, "fusion_lat": 0.0, "type": "electric_scooter", "name": "75cbdeef4a9c91a3db7c3e376935a127", "is_disabled": 0, "rental_uris": {"ios": "https://dc.lft.to/lastmile_qr_scan", "android": "https://dc.lft.to/lastmile_qr_scan"}, "is_reserved": 0}, {"lon": -77.03322966666667, "bike_id": "8c03619d307ded7e7e907e7fdf314e86", "lat": 38.90125366666667, "fusion_lon": 0.0, "fusion_lat": 0.0, "type": "electric_scooter", "name": "8c03619d307ded7e7e907e7fdf314e86", "is_disabled": 0, "rental_uris": {"ios": "https://dc.lft.to/lastmile_qr_scan", "android": "https://dc.lft.to/lastmile_qr_scan"}, "is_reserved": 0}, {"lon": -77.0078225, "bike_id": "b2b58a049a95653da9b5a37b09a7bd5f", "lat": 38.90653016666667, "fusion_lon": 0.0, "fusion_lat": 0.0, "type": "electric_scooter", "name": "b2b58a049a95653da9b5a37b09a7bd5f", "is_disabled": 0, "rental_uris": {"ios": "https://dc.lft.to/lastmile_qr_scan", "android": "https://dc.lft.to/lastmile_qr_scan"}, "is_reserved": 0}, {"lon": -77.10332833333334, "bike_id": "d7ac1a138aaf8a99a7ef7fc3e056396b", "lat": 38.8741945, "fusion_lon": 0.0, "fusion_lat": 0.0, "type": "electric_bike", "name": "d7ac1a138aaf8a99a7ef7fc3e056396b", "is_disabled": 0, "rental_uris": {"ios": "https://dc.lft.to/lastmile_qr_scan", "android": "https://dc.lft.to/lastmile_qr_scan"}, "is_reserved": 0}, {"lon": -77.0348535, "bike_id": "1f63b01be9e65cabb663f1f93c37f5ce", "lat": 38.924785, "fusion_lon": 0.0, "fusion_lat": 0.0, "type": "electric_scooter", "name": "1f63b01be9e65cabb663f1f93c37f5ce", "is_disabled": 0, "rental_uris": {"ios": "https://dc.lft.to/lastmile_qr_scan", "android": "https://dc.lft.to/lastmile_qr_scan"}, "is_reserved": 0}, {"lon": -77.02292583333333, "bike_id": "c24b0eaee0b65048f56ac413d16db0c4", "lat": 38.94475466666667, "fusion_lon": 0.0, "fusion_lat": 0.0, "type": "electric_bike", "name": "c24b0eaee0b65048f56ac413d16db0c4", "is_disabled": 0, "rental_uris": {"ios": "https://dc.lft.to/lastmile_qr_scan", "android": "https://dc.lft.to/lastmile_qr_scan"}, "is_reserved": 0}, {"lon": -76.9465425, "bike_id": "698d79321174f4876f26fd1d085da78c", "lat": 38.89825783333333, "fusion_lon": 0.0, "fusion_lat": 0.0, "type": "electric_scooter", "name": "698d79321174f4876f26fd1d085da78c", "is_disabled": 0, "rental_uris": {"ios": "https://dc.lft.to/lastmile_qr_scan", "android": "https://dc.lft.to/lastmile_qr_scan"}, "is_reserved": 0}, {"lon": -77.03442366666667, "bike_id": "e86a8a96b4e009dd90d0a0285bbf4598", "lat": 38.90576383333333, "fusion_lon": 0.0, "fusion_lat": 0.0, "type": "electric_scooter", "name": "e86a8a96b4e009dd90d0a0285bbf4598", "is_disabled": 0, "rental_uris": {"ios": "https://dc.lft.to/lastmile_qr_scan", "android": "https://dc.lft.to/lastmile_qr_scan"}, "is_reserved": 0}, {"lon": -77.0108685, "bike_id": "ce3b9ba38c956898e66d2d08233edf20", "lat": 38.899985, "fusion_lon": 0.0, "fusion_lat": 0.0, "type": "electric_scooter", "name": "ce3b9ba38c956898e66d2d08233edf20", "is_disabled": 0, "rental_uris": {"ios": "https://dc.lft.to/lastmile_qr_scan", "android": "https://dc.lft.to/lastmile_qr_scan"}, "is_reserved": 0}, {"lon": -77.0417425, "bike_id": "f36519ff09b94efb236e31095c79ba9e", "lat": 38.90713733333333, "fusion_lon": 0.0, "fusion_lat": 0.0, "type": "electric_scooter", "name": "f36519ff09b94efb236e31095c79ba9e", "is_disabled": 0, "rental_uris": {"ios": "https://dc.lft.to/lastmile_qr_scan", "android": "https://dc.lft.to/lastmile_qr_scan"}, "is_reserved": 0}, {"lon": -77.139332, "bike_id": "011ffc5d408e0213a2fdec356800a617", "lat": 38.873054, "fusion_lon": 0.0, "fusion_lat": 0.0, "type": "electric_bike", "name": "011ffc5d408e0213a2fdec356800a617", "is_disabled": 0, "rental_uris": {"ios": "https://dc.lft.to/lastmile_qr_scan", "android": "https://dc.lft.to/lastmile_qr_scan"}, "is_reserved": 0}, {"lon": -77.01845966666667, "bike_id": "7f41f78e0c02d4df1d6534411924cad8", "lat": 38.90250266666666, "fusion_lon": 0.0, "fusion_lat": 0.0, "type": "electric_scooter", "name": "7f41f78e0c02d4df1d6534411924cad8", "is_disabled": 0, "rental_uris": {"ios": "https://dc.lft.to/lastmile_qr_scan", "android": "https://dc.lft.to/lastmile_qr_scan"}, "is_reserved": 0}, {"lon": -77.021683, "bike_id": "e76164980489aec1fbe6705b335a76c2", "lat": 38.926155666666666, "fusion_lon": 0.0, "fusion_lat": 0.0, "type": "electric_scooter", "name": "e76164980489aec1fbe6705b335a76c2", "is_disabled": 0, "rental_uris": {"ios": "https://dc.lft.to/lastmile_qr_scan", "android": "https://dc.lft.to/lastmile_qr_scan"}, "is_reserved": 0}, {"lon": -76.99903383333333, "bike_id": "5785c03c02e6937be0621ee1c38a13cd", "lat": 38.948194, "fusion_lon": 0.0, "fusion_lat": 0.0, "type": "electric_scooter", "name": "5785c03c02e6937be0621ee1c38a13cd", "is_disabled": 0, "rental_uris": {"ios": "https://dc.lft.to/lastmile_qr_scan", "android": "https://dc.lft.to/lastmile_qr_scan"}, "is_reserved": 0}, {"lon": -76.97211133333333, "bike_id": "8b100cafd3527c1515989b8a9180e8f9", "lat": 38.8929275, "fusion_lon": 0.0, "fusion_lat": 0.0, "type": "electric_bike", "name": "8b100cafd3527c1515989b8a9180e8f9", "is_disabled": 0, "rental_uris": {"ios": "https://dc.lft.to/lastmile_qr_scan", "android": "https://dc.lft.to/lastmile_qr_scan"}, "is_reserved": 0}, {"lon": -77.0424435, "bike_id": "64e4e238af0452831964f8906b8c8fad", "lat": 38.9218805, "fusion_lon": 0.0, "fusion_lat": 0.0, "type": "electric_scooter", "name": "64e4e238af0452831964f8906b8c8fad", "is_disabled": 0, "rental_uris": {"ios": "https://dc.lft.to/lastmile_qr_scan", "android": "https://dc.lft.to/lastmile_qr_scan"}, "is_reserved": 0}, {"lon": -76.9822735, "bike_id": "64e9f9aaf8d222434b811c91045dd830", "lat": 38.864731166666665, "fusion_lon": 0.0, "fusion_lat": 0.0, "type": "electric_scooter", "name": "64e9f9aaf8d222434b811c91045dd830", "is_disabled": 0, "rental_uris": {"ios": "https://dc.lft.to/lastmile_qr_scan", "android": "https://dc.lft.to/lastmile_qr_scan"}, "is_reserved": 0}, {"lon": -77.05578483333333, "bike_id": "ca38d78efe8b5e99672244f9b5fc29a3", "lat": 38.8973335, "fusion_lon": 0.0, "fusion_lat": 0.0, "type": "electric_scooter", "name": "ca38d78efe8b5e99672244f9b5fc29a3", "is_disabled": 0, "rental_uris": {"ios": "https://dc.lft.to/lastmile_qr_scan", "android": "https://dc.lft.to/lastmile_qr_scan"}, "is_reserved": 0}, {"lon": -77.04612216666666, "bike_id": "dc003e9ce14b2c45ae8e68bb44b9c11a", "lat": 38.91530816666667, "fusion_lon": 0.0, "fusion_lat": 0.0, "type": "electric_scooter", "name": "dc003e9ce14b2c45ae8e68bb44b9c11a", "is_disabled": 0, "rental_uris": {"ios": "https://dc.lft.to/lastmile_qr_scan", "android": "https://dc.lft.to/lastmile_qr_scan"}, "is_reserved": 0}, {"lon": -77.0295535, "bike_id": "1863c63b97afce8e73b960bfe59e0655", "lat": 38.9177045, "fusion_lon": 0.0, "fusion_lat": 0.0, "type": "electric_scooter", "name": "1863c63b97afce8e73b960bfe59e0655", "is_disabled": 0, "rental_uris": {"ios": "https://dc.lft.to/lastmile_qr_scan", "android": "https://dc.lft.to/lastmile_qr_scan"}, "is_reserved": 0}, {"lon": -77.00680733333333, "bike_id": "4714b7101b87bcbac42daa4b49c3e4a3", "lat": 38.900115666666665, "fusion_lon": 0.0, "fusion_lat": 0.0, "type": "electric_scooter", "name": "4714b7101b87bcbac42daa4b49c3e4a3", "is_disabled": 0, "rental_uris": {"ios": "https://dc.lft.to/lastmile_qr_scan", "android": "https://dc.lft.to/lastmile_qr_scan"}, "is_reserved": 0}, {"lon": -77.03373333333333, "bike_id": "f1776b29bd85a8c03a70eb9923d9e47a", "lat": 38.9080285, "fusion_lon": 0.0, "fusion_lat": 0.0, "type": "electric_scooter", "name": "f1776b29bd85a8c03a70eb9923d9e47a", "is_disabled": 0, "rental_uris": {"ios": "https://dc.lft.to/lastmile_qr_scan", "android": "https://dc.lft.to/lastmile_qr_scan"}, "is_reserved": 0}, {"lon": -77.02150583333334, "bike_id": "47878b3da5ccd8c0dd7df4f4f15fd80e", "lat": 38.87919016666667, "fusion_lon": 0.0, "fusion_lat": 0.0, "type": "electric_scooter", "name": "47878b3da5ccd8c0dd7df4f4f15fd80e", "is_disabled": 0, "rental_uris": {"ios": "https://dc.lft.to/lastmile_qr_scan", "android": "https://dc.lft.to/lastmile_qr_scan"}, "is_reserved": 0}, {"lon": -77.02187416666666, "bike_id": "bffb3dfd24d8b44442422fac67b53fdc", "lat": 38.90089866666667, "fusion_lon": 0.0, "fusion_lat": 0.0, "type": "electric_scooter", "name": "bffb3dfd24d8b44442422fac67b53fdc", "is_disabled": 0, "rental_uris": {"ios": "https://dc.lft.to/lastmile_qr_scan", "android": "https://dc.lft.to/lastmile_qr_scan"}, "is_reserved": 0}, {"lon": -77.11595016666666, "bike_id": "7210a3707f1a57762d6c688be75133c6", "lat": 39.074969833333334, "fusion_lon": 0.0, "fusion_lat": 0.0, "type": "electric_bike", "name": "7210a3707f1a57762d6c688be75133c6", "is_disabled": 0, "rental_uris": {"ios": "https://dc.lft.to/lastmile_qr_scan", "android": "https://dc.lft.to/lastmile_qr_scan"}, "is_reserved": 0}, {"lon": -77.02163766666666, "bike_id": "135e59129496f4c833914a9a2e037b9e", "lat": 38.924884666666664, "fusion_lon": 0.0, "fusion_lat": 0.0, "type": "electric_scooter", "name": "135e59129496f4c833914a9a2e037b9e", "is_disabled": 0, "rental_uris": {"ios": "https://dc.lft.to/lastmile_qr_scan", "android": "https://dc.lft.to/lastmile_qr_scan"}, "is_reserved": 0}, {"lon": -77.01540283333334, "bike_id": "611921d9de1e10b4379ae4facaf6f023", "lat": 38.92807716666667, "fusion_lon": 0.0, "fusion_lat": 0.0, "type": "electric_scooter", "name": "611921d9de1e10b4379ae4facaf6f023", "is_disabled": 0, "rental_uris": {"ios": "https://dc.lft.to/lastmile_qr_scan", "android": "https://dc.lft.to/lastmile_qr_scan"}, "is_reserved": 0}, {"lon": -77.02366633333334, "bike_id": "f5d2c956568a62ae0517982c10cf46ab", "lat": 38.89978883333333, "fusion_lon": 0.0, "fusion_lat": 0.0, "type": "electric_scooter", "name": "f5d2c956568a62ae0517982c10cf46ab", "is_disabled": 0, "rental_uris": {"ios": "https://dc.lft.to/lastmile_qr_scan", "android": "https://dc.lft.to/lastmile_qr_scan"}, "is_reserved": 0}, {"lon": -77.00073983333333, "bike_id": "298d5b50ca6d1c9bae240016c6d07324", "lat": 38.917323333333336, "fusion_lon": 0.0, "fusion_lat": 0.0, "type": "electric_scooter", "name": "298d5b50ca6d1c9bae240016c6d07324", "is_disabled": 0, "rental_uris": {"ios": "https://dc.lft.to/lastmile_qr_scan", "android": "https://dc.lft.to/lastmile_qr_scan"}, "is_reserved": 0}, {"lon": -77.0504555, "bike_id": "4fc5b5c2256e03c6210305e416acbff5", "lat": 38.92379116666667, "fusion_lon": 0.0, "fusion_lat": 0.0, "type": "electric_scooter", "name": "4fc5b5c2256e03c6210305e416acbff5", "is_disabled": 0, "rental_uris": {"ios": "https://dc.lft.to/lastmile_qr_scan", "android": "https://dc.lft.to/lastmile_qr_scan"}, "is_reserved": 0}, {"lon": -77.03000866666666, "bike_id": "0f53c8f83c315662ac147edbdee4fbfb", "lat": 38.902490666666665, "fusion_lon": 0.0, "fusion_lat": 0.0, "type": "electric_scooter", "name": "0f53c8f83c315662ac147edbdee4fbfb", "is_disabled": 0, "rental_uris": {"ios": "https://dc.lft.to/lastmile_qr_scan", "android": "https://dc.lft.to/lastmile_qr_scan"}, "is_reserved": 0}, {"lon": -77.03802516666667, "bike_id": "32498dbca8700bcc0a825242b4683a23", "lat": 38.92060933333333, "fusion_lon": 0.0, "fusion_lat": 0.0, "type": "electric_scooter", "name": "32498dbca8700bcc0a825242b4683a23", "is_disabled": 0, "rental_uris": {"ios": "https://dc.lft.to/lastmile_qr_scan", "android": "https://dc.lft.to/lastmile_qr_scan"}, "is_reserved": 0}, {"lon": -76.935431, "bike_id": "898c11b83c9d33a1e2ddc994669158f7", "lat": 38.955534166666666, "fusion_lon": 0.0, "fusion_lat": 0.0, "type": "electric_bike", "name": "898c11b83c9d33a1e2ddc994669158f7", "is_disabled": 0, "rental_uris": {"ios": "https://dc.lft.to/lastmile_qr_scan", "android": "https://dc.lft.to/lastmile_qr_scan"}, "is_reserved": 0}, {"lon": -76.98537083333333, "bike_id": "35a39771219b41bcc3802bfb7aea6599", "lat": 38.866560166666666, "fusion_lon": 0.0, "fusion_lat": 0.0, "type": "electric_scooter", "name": "35a39771219b41bcc3802bfb7aea6599", "is_disabled": 0, "rental_uris": {"ios": "https://dc.lft.to/lastmile_qr_scan", "android": "https://dc.lft.to/lastmile_qr_scan"}, "is_reserved": 0}, {"lon": -77.0448065, "bike_id": "e3712e51de096ecf1293ee055baedba3", "lat": 38.9147345, "fusion_lon": 0.0, "fusion_lat": 0.0, "type": "electric_scooter", "name": "e3712e51de096ecf1293ee055baedba3", "is_disabled": 0, "rental_uris": {"ios": "https://dc.lft.to/lastmile_qr_scan", "android": "https://dc.lft.to/lastmile_qr_scan"}, "is_reserved": 0}, {"lon": -76.98561, "bike_id": "0f0445434ab6e93b669a7a6935ebb009", "lat": 38.910345, "fusion_lon": 0.0, "fusion_lat": 0.0, "type": "electric_scooter", "name": "0f0445434ab6e93b669a7a6935ebb009", "is_disabled": 0, "rental_uris": {"ios": "https://dc.lft.to/lastmile_qr_scan", "android": "https://dc.lft.to/lastmile_qr_scan"}, "is_reserved": 0}, {"lon": -77.01639533333334, "bike_id": "c8cca6ce19b7ad387a97366a5b08a3ae", "lat": 38.872616, "fusion_lon": 0.0, "fusion_lat": 0.0, "type": "electric_scooter", "name": "c8cca6ce19b7ad387a97366a5b08a3ae", "is_disabled": 0, "rental_uris": {"ios": "https://dc.lft.to/lastmile_qr_scan", "android": "https://dc.lft.to/lastmile_qr_scan"}, "is_reserved": 0}, {"lon": -77.002146, "bike_id": "143b864efe02bdd5f89b886197ea9170", "lat": 38.89541633333333, "fusion_lon": 0.0, "fusion_lat": 0.0, "type": "electric_scooter", "name": "143b864efe02bdd5f89b886197ea9170", "is_disabled": 0, "rental_uris": {"ios": "https://dc.lft.to/lastmile_qr_scan", "android": "https://dc.lft.to/lastmile_qr_scan"}, "is_reserved": 0}, {"lon": -77.02209433333333, "bike_id": "c3de9d388b6a5ec6976b1e59db7d5fc7", "lat": 38.913067, "fusion_lon": 0.0, "fusion_lat": 0.0, "type": "electric_scooter", "name": "c3de9d388b6a5ec6976b1e59db7d5fc7", "is_disabled": 0, "rental_uris": {"ios": "https://dc.lft.to/lastmile_qr_scan", "android": "https://dc.lft.to/lastmile_qr_scan"}, "is_reserved": 0}, {"lon": -77.00297316666666, "bike_id": "a4e3f2d395ee3d8cbf4c6cf92c19be2b", "lat": 38.894937666666664, "fusion_lon": 0.0, "fusion_lat": 0.0, "type": "electric_scooter", "name": "a4e3f2d395ee3d8cbf4c6cf92c19be2b", "is_disabled": 0, "rental_uris": {"ios": "https://dc.lft.to/lastmile_qr_scan", "android": "https://dc.lft.to/lastmile_qr_scan"}, "is_reserved": 0}, {"lon": -77.005407, "bike_id": "fa10f00ddf8f901ffade6962788c1e88", "lat": 38.92979533333333, "fusion_lon": 0.0, "fusion_lat": 0.0, "type": "electric_scooter", "name": "fa10f00ddf8f901ffade6962788c1e88", "is_disabled": 0, "rental_uris": {"ios": "https://dc.lft.to/lastmile_qr_scan", "android": "https://dc.lft.to/lastmile_qr_scan"}, "is_reserved": 0}, {"lon": -76.98693983333334, "bike_id": "6927290f2f2fa2e79646cd56e2ef5461", "lat": 38.862585, "fusion_lon": 0.0, "fusion_lat": 0.0, "type": "electric_scooter", "name": "6927290f2f2fa2e79646cd56e2ef5461", "is_disabled": 0, "rental_uris": {"ios": "https://dc.lft.to/lastmile_qr_scan", "android": "https://dc.lft.to/lastmile_qr_scan"}, "is_reserved": 0}, {"lon": -76.99504883333333, "bike_id": "1e1a11998033e8f64f41a6cdb4ed69ea", "lat": 38.922686666666664, "fusion_lon": 0.0, "fusion_lat": 0.0, "type": "electric_scooter", "name": "1e1a11998033e8f64f41a6cdb4ed69ea", "is_disabled": 0, "rental_uris": {"ios": "https://dc.lft.to/lastmile_qr_scan", "android": "https://dc.lft.to/lastmile_qr_scan"}, "is_reserved": 0}, {"lon": -77.059534, "bike_id": "2ffa6ac0e14cb9c0bf935f3547a76e08", "lat": 38.90105716666667, "fusion_lon": 0.0, "fusion_lat": 0.0, "type": "electric_scooter", "name": "2ffa6ac0e14cb9c0bf935f3547a76e08", "is_disabled": 0, "rental_uris": {"ios": "https://dc.lft.to/lastmile_qr_scan", "android": "https://dc.lft.to/lastmile_qr_scan"}, "is_reserved": 0}, {"lon": -77.04652316666666, "bike_id": "1169e2d9c72f3aaa51c485efe43fe09e", "lat": 38.909741833333335, "fusion_lon": 0.0, "fusion_lat": 0.0, "type": "electric_scooter", "name": "1169e2d9c72f3aaa51c485efe43fe09e", "is_disabled": 0, "rental_uris": {"ios": "https://dc.lft.to/lastmile_qr_scan", "android": "https://dc.lft.to/lastmile_qr_scan"}, "is_reserved": 0}, {"lon": -77.0009145, "bike_id": "ec66f70ca2238b5056ef5d03a0f37f28", "lat": 38.900144166666664, "fusion_lon": 0.0, "fusion_lat": 0.0, "type": "electric_scooter", "name": "ec66f70ca2238b5056ef5d03a0f37f28", "is_disabled": 0, "rental_uris": {"ios": "https://dc.lft.to/lastmile_qr_scan", "android": "https://dc.lft.to/lastmile_qr_scan"}, "is_reserved": 0}, {"lon": -77.0075465, "bike_id": "db2806ac022bf2c80dabce2f6041ca43", "lat": 38.897340166666666, "fusion_lon": 0.0, "fusion_lat": 0.0, "type": "electric_scooter", "name": "db2806ac022bf2c80dabce2f6041ca43", "is_disabled": 0, "rental_uris": {"ios": "https://dc.lft.to/lastmile_qr_scan", "android": "https://dc.lft.to/lastmile_qr_scan"}, "is_reserved": 0}, {"lon": -77.05888283333333, "bike_id": "1bd1bb16e2fe60b398680a93f1be4516", "lat": 38.93639733333333, "fusion_lon": 0.0, "fusion_lat": 0.0, "type": "electric_scooter", "name": "1bd1bb16e2fe60b398680a93f1be4516", "is_disabled": 0, "rental_uris": {"ios": "https://dc.lft.to/lastmile_qr_scan", "android": "https://dc.lft.to/lastmile_qr_scan"}, "is_reserved": 0}, {"lon": -77.02826716666667, "bike_id": "817e7f0659b2ebfd27765eb9d2d9b606", "lat": 38.88739533333333, "fusion_lon": 0.0, "fusion_lat": 0.0, "type": "electric_scooter", "name": "817e7f0659b2ebfd27765eb9d2d9b606", "is_disabled": 0, "rental_uris": {"ios": "https://dc.lft.to/lastmile_qr_scan", "android": "https://dc.lft.to/lastmile_qr_scan"}, "is_reserved": 0}, {"lon": -77.02542566666666, "bike_id": "4fb014374e56bde043a9c55c6e8f24c1", "lat": 38.91481, "fusion_lon": 0.0, "fusion_lat": 0.0, "type": "electric_scooter", "name": "4fb014374e56bde043a9c55c6e8f24c1", "is_disabled": 0, "rental_uris": {"ios": "https://dc.lft.to/lastmile_qr_scan", "android": "https://dc.lft.to/lastmile_qr_scan"}, "is_reserved": 0}, {"lon": -77.18565483333333, "bike_id": "f8e6511ce64b0bc7eaab68d41b8dadae", "lat": 39.09978133333333, "fusion_lon": 0.0, "fusion_lat": 0.0, "type": "electric_bike", "name": "f8e6511ce64b0bc7eaab68d41b8dadae", "is_disabled": 0, "rental_uris": {"ios": "https://dc.lft.to/lastmile_qr_scan", "android": "https://dc.lft.to/lastmile_qr_scan"}, "is_reserved": 0}, {"lon": -77.0318525, "bike_id": "6f7aa252cdc7a398796bce1da04e1b53", "lat": 38.915395333333336, "fusion_lon": 0.0, "fusion_lat": 0.0, "type": "electric_scooter", "name": "6f7aa252cdc7a398796bce1da04e1b53", "is_disabled": 0, "rental_uris": {"ios": "https://dc.lft.to/lastmile_qr_scan", "android": "https://dc.lft.to/lastmile_qr_scan"}, "is_reserved": 0}, {"lon": -77.031724, "bike_id": "f24f5f2df7fc20d1b4f52616e3c57088", "lat": 38.93598, "fusion_lon": 0.0, "fusion_lat": 0.0, "type": "electric_scooter", "name": "f24f5f2df7fc20d1b4f52616e3c57088", "is_disabled": 0, "rental_uris": {"ios": "https://dc.lft.to/lastmile_qr_scan", "android": "https://dc.lft.to/lastmile_qr_scan"}, "is_reserved": 0}, {"lon": -77.02414383333333, "bike_id": "00279384b65ba262540fdf4f9fb405ca", "lat": 38.9205785, "fusion_lon": 0.0, "fusion_lat": 0.0, "type": "electric_scooter", "name": "00279384b65ba262540fdf4f9fb405ca", "is_disabled": 0, "rental_uris": {"ios": "https://dc.lft.to/lastmile_qr_scan", "android": "https://dc.lft.to/lastmile_qr_scan"}, "is_reserved": 0}, {"lon": -77.07600416666666, "bike_id": "be197a9d31357e3bf77c91e6b6c389b0", "lat": 38.9121625, "fusion_lon": 0.0, "fusion_lat": 0.0, "type": "electric_scooter", "name": "be197a9d31357e3bf77c91e6b6c389b0", "is_disabled": 0, "rental_uris": {"ios": "https://dc.lft.to/lastmile_qr_scan", "android": "https://dc.lft.to/lastmile_qr_scan"}, "is_reserved": 0}, {"lon": -77.0187955, "bike_id": "50fbe5794474d3761f48a6c32daecc4f", "lat": 38.91418216666667, "fusion_lon": 0.0, "fusion_lat": 0.0, "type": "electric_scooter", "name": "50fbe5794474d3761f48a6c32daecc4f", "is_disabled": 0, "rental_uris": {"ios": "https://dc.lft.to/lastmile_qr_scan", "android": "https://dc.lft.to/lastmile_qr_scan"}, "is_reserved": 0}, {"lon": -77.03127966666666, "bike_id": "8d87abf6e0d0c80feb7076e02257123b", "lat": 38.918093999999996, "fusion_lon": 0.0, "fusion_lat": 0.0, "type": "electric_scooter", "name": "8d87abf6e0d0c80feb7076e02257123b", "is_disabled": 0, "rental_uris": {"ios": "https://dc.lft.to/lastmile_qr_scan", "android": "https://dc.lft.to/lastmile_qr_scan"}, "is_reserved": 0}, {"lon": -77.0047445, "bike_id": "b1a364ac5f1db08cc67b469e1e0ec505", "lat": 38.87761, "fusion_lon": 0.0, "fusion_lat": 0.0, "type": "electric_scooter", "name": "b1a364ac5f1db08cc67b469e1e0ec505", "is_disabled": 0, "rental_uris": {"ios": "https://dc.lft.to/lastmile_qr_scan", "android": "https://dc.lft.to/lastmile_qr_scan"}, "is_reserved": 0}, {"lon": -76.9774565, "bike_id": "9f8bb9b9fd5c684fece43bcb8e736ce7", "lat": 38.864895, "fusion_lon": 0.0, "fusion_lat": 0.0, "type": "electric_bike", "name": "9f8bb9b9fd5c684fece43bcb8e736ce7", "is_disabled": 0, "rental_uris": {"ios": "https://dc.lft.to/lastmile_qr_scan", "android": "https://dc.lft.to/lastmile_qr_scan"}, "is_reserved": 0}, {"lon": -76.97330416666667, "bike_id": "b897d44bffd7d8d9de380a5efbd32859", "lat": 38.865723833333334, "fusion_lon": 0.0, "fusion_lat": 0.0, "type": "electric_scooter", "name": "b897d44bffd7d8d9de380a5efbd32859", "is_disabled": 0, "rental_uris": {"ios": "https://dc.lft.to/lastmile_qr_scan", "android": "https://dc.lft.to/lastmile_qr_scan"}, "is_reserved": 0}, {"lon": -77.04458566666666, "bike_id": "313e0c8a5ac97f108b97032687e4074d", "lat": 38.9158575, "fusion_lon": 0.0, "fusion_lat": 0.0, "type": "electric_scooter", "name": "313e0c8a5ac97f108b97032687e4074d", "is_disabled": 0, "rental_uris": {"ios": "https://dc.lft.to/lastmile_qr_scan", "android": "https://dc.lft.to/lastmile_qr_scan"}, "is_reserved": 0}, {"lon": -77.01585533333333, "bike_id": "6be1fd3e789d5c058178f3e7fc7e8d25", "lat": 38.886141, "fusion_lon": 0.0, "fusion_lat": 0.0, "type": "electric_scooter", "name": "6be1fd3e789d5c058178f3e7fc7e8d25", "is_disabled": 0, "rental_uris": {"ios": "https://dc.lft.to/lastmile_qr_scan", "android": "https://dc.lft.to/lastmile_qr_scan"}, "is_reserved": 0}, {"lon": -77.02693566666666, "bike_id": "54ba53d07504a15d2b8b4d64442426e4", "lat": 38.924031666666664, "fusion_lon": 0.0, "fusion_lat": 0.0, "type": "electric_scooter", "name": "54ba53d07504a15d2b8b4d64442426e4", "is_disabled": 0, "rental_uris": {"ios": "https://dc.lft.to/lastmile_qr_scan", "android": "https://dc.lft.to/lastmile_qr_scan"}, "is_reserved": 0}, {"lon": -77.02385433333333, "bike_id": "3547e96974066a29a0454d52572a6435", "lat": 38.911474, "fusion_lon": 0.0, "fusion_lat": 0.0, "type": "electric_scooter", "name": "3547e96974066a29a0454d52572a6435", "is_disabled": 0, "rental_uris": {"ios": "https://dc.lft.to/lastmile_qr_scan", "android": "https://dc.lft.to/lastmile_qr_scan"}, "is_reserved": 0}, {"lon": -77.0278905, "bike_id": "053f0fe487b904d7c4c9b0f195ae6960", "lat": 38.94193766666667, "fusion_lon": 0.0, "fusion_lat": 0.0, "type": "electric_scooter", "name": "053f0fe487b904d7c4c9b0f195ae6960", "is_disabled": 0, "rental_uris": {"ios": "https://dc.lft.to/lastmile_qr_scan", "android": "https://dc.lft.to/lastmile_qr_scan"}, "is_reserved": 0}, {"lon": -77.04689383333333, "bike_id": "b5853fbc623a4aa6c883bc2fed1b0352", "lat": 39.02397716666667, "fusion_lon": 0.0, "fusion_lat": 0.0, "type": "electric_bike", "name": "b5853fbc623a4aa6c883bc2fed1b0352", "is_disabled": 0, "rental_uris": {"ios": "https://dc.lft.to/lastmile_qr_scan", "android": "https://dc.lft.to/lastmile_qr_scan"}, "is_reserved": 0}, {"lon": -77.11142033333333, "bike_id": "4b86d86b24c60c0839b5d519eb0e9c59", "lat": 38.85526083333333, "fusion_lon": 0.0, "fusion_lat": 0.0, "type": "electric_bike", "name": "4b86d86b24c60c0839b5d519eb0e9c59", "is_disabled": 0, "rental_uris": {"ios": "https://dc.lft.to/lastmile_qr_scan", "android": "https://dc.lft.to/lastmile_qr_scan"}, "is_reserved": 0}, {"lon": -77.16631216666667, "bike_id": "591f61cb4848ae3baf1035e4486e82a9", "lat": 38.888353333333335, "fusion_lon": 0.0, "fusion_lat": 0.0, "type": "electric_bike", "name": "591f61cb4848ae3baf1035e4486e82a9", "is_disabled": 0, "rental_uris": {"ios": "https://dc.lft.to/lastmile_qr_scan", "android": "https://dc.lft.to/lastmile_qr_scan"}, "is_reserved": 0}, {"lon": -76.9823465, "bike_id": "ece9342bc654692f4080d760c091860d", "lat": 38.886487, "fusion_lon": 0.0, "fusion_lat": 0.0, "type": "electric_scooter", "name": "ece9342bc654692f4080d760c091860d", "is_disabled": 0, "rental_uris": {"ios": "https://dc.lft.to/lastmile_qr_scan", "android": "https://dc.lft.to/lastmile_qr_scan"}, "is_reserved": 0}, {"lon": -77.01223833333333, "bike_id": "6b1c00084c1339fb3cfc1dc6474eb240", "lat": 38.87186583333333, "fusion_lon": 0.0, "fusion_lat": 0.0, "type": "electric_scooter", "name": "6b1c00084c1339fb3cfc1dc6474eb240", "is_disabled": 0, "rental_uris": {"ios": "https://dc.lft.to/lastmile_qr_scan", "android": "https://dc.lft.to/lastmile_qr_scan"}, "is_reserved": 0}, {"lon": -77.00071916666667, "bike_id": "1d431d1ee03f7500599baef4ea0ceff1", "lat": 38.876673, "fusion_lon": 0.0, "fusion_lat": 0.0, "type": "electric_scooter", "name": "1d431d1ee03f7500599baef4ea0ceff1", "is_disabled": 0, "rental_uris": {"ios": "https://dc.lft.to/lastmile_qr_scan", "android": "https://dc.lft.to/lastmile_qr_scan"}, "is_reserved": 0}, {"lon": -77.02209083333334, "bike_id": "8f9da5bbc182576bc402fb07ed496123", "lat": 38.89394466666667, "fusion_lon": 0.0, "fusion_lat": 0.0, "type": "electric_scooter", "name": "8f9da5bbc182576bc402fb07ed496123", "is_disabled": 0, "rental_uris": {"ios": "https://dc.lft.to/lastmile_qr_scan", "android": "https://dc.lft.to/lastmile_qr_scan"}, "is_reserved": 0}, {"lon": -77.03487566666666, "bike_id": "54694847b7836a2eadfc8caa3dd16233", "lat": 38.924813666666665, "fusion_lon": 0.0, "fusion_lat": 0.0, "type": "electric_scooter", "name": "54694847b7836a2eadfc8caa3dd16233", "is_disabled": 0, "rental_uris": {"ios": "https://dc.lft.to/lastmile_qr_scan", "android": "https://dc.lft.to/lastmile_qr_scan"}, "is_reserved": 0}, {"lon": -77.05652433333333, "bike_id": "64ab54fece48efa752c91d3bbffdd249", "lat": 38.921309, "fusion_lon": 0.0, "fusion_lat": 0.0, "type": "electric_scooter", "name": "64ab54fece48efa752c91d3bbffdd249", "is_disabled": 0, "rental_uris": {"ios": "https://dc.lft.to/lastmile_qr_scan", "android": "https://dc.lft.to/lastmile_qr_scan"}, "is_reserved": 0}, {"lon": -77.02596766666667, "bike_id": "90a7e4c9cad41fb6a021f25cce07a232", "lat": 38.91720816666667, "fusion_lon": 0.0, "fusion_lat": 0.0, "type": "electric_scooter", "name": "90a7e4c9cad41fb6a021f25cce07a232", "is_disabled": 0, "rental_uris": {"ios": "https://dc.lft.to/lastmile_qr_scan", "android": "https://dc.lft.to/lastmile_qr_scan"}, "is_reserved": 0}, {"lon": -77.052669, "bike_id": "609b6364a0db273e85457162b362989d", "lat": 38.927375, "fusion_lon": 0.0, "fusion_lat": 0.0, "type": "electric_scooter", "name": "609b6364a0db273e85457162b362989d", "is_disabled": 0, "rental_uris": {"ios": "https://dc.lft.to/lastmile_qr_scan", "android": "https://dc.lft.to/lastmile_qr_scan"}, "is_reserved": 0}, {"lon": -77.02628983333334, "bike_id": "a878ae98f988ec357a63054ab82ddb7a", "lat": 38.881145, "fusion_lon": 0.0, "fusion_lat": 0.0, "type": "electric_scooter", "name": "a878ae98f988ec357a63054ab82ddb7a", "is_disabled": 0, "rental_uris": {"ios": "https://dc.lft.to/lastmile_qr_scan", "android": "https://dc.lft.to/lastmile_qr_scan"}, "is_reserved": 0}, {"lon": -77.00082733333333, "bike_id": "227c01baaabffc6233e354294906a2ed", "lat": 38.874583333333334, "fusion_lon": 0.0, "fusion_lat": 0.0, "type": "electric_scooter", "name": "227c01baaabffc6233e354294906a2ed", "is_disabled": 0, "rental_uris": {"ios": "https://dc.lft.to/lastmile_qr_scan", "android": "https://dc.lft.to/lastmile_qr_scan"}, "is_reserved": 0}, {"lon": -77.04871883333334, "bike_id": "2573a848df0241db41e07ffb6c61701f", "lat": 38.892253, "fusion_lon": 0.0, "fusion_lat": 0.0, "type": "electric_scooter", "name": "2573a848df0241db41e07ffb6c61701f", "is_disabled": 0, "rental_uris": {"ios": "https://dc.lft.to/lastmile_qr_scan", "android": "https://dc.lft.to/lastmile_qr_scan"}, "is_reserved": 0}, {"lon": -77.01465183333333, "bike_id": "93882ca559dca0b40a7b570f98851f88", "lat": 38.92708433333333, "fusion_lon": 0.0, "fusion_lat": 0.0, "type": "electric_scooter", "name": "93882ca559dca0b40a7b570f98851f88", "is_disabled": 0, "rental_uris": {"ios": "https://dc.lft.to/lastmile_qr_scan", "android": "https://dc.lft.to/lastmile_qr_scan"}, "is_reserved": 0}, {"lon": -77.02000833333334, "bike_id": "339653fbf3fe70759c80c905248ada7c", "lat": 38.96632183333333, "fusion_lon": 0.0, "fusion_lat": 0.0, "type": "electric_scooter", "name": "339653fbf3fe70759c80c905248ada7c", "is_disabled": 0, "rental_uris": {"ios": "https://dc.lft.to/lastmile_qr_scan", "android": "https://dc.lft.to/lastmile_qr_scan"}, "is_reserved": 0}, {"lon": -77.02726833333334, "bike_id": "e8ee584f625f8806d1b991f3c8f3d4e9", "lat": 38.90084133333333, "fusion_lon": 0.0, "fusion_lat": 0.0, "type": "electric_scooter", "name": "e8ee584f625f8806d1b991f3c8f3d4e9", "is_disabled": 0, "rental_uris": {"ios": "https://dc.lft.to/lastmile_qr_scan", "android": "https://dc.lft.to/lastmile_qr_scan"}, "is_reserved": 0}, {"lon": -76.97914916666667, "bike_id": "7492419669f12e9c4f7933a9c8dec6fe", "lat": 38.863491833333335, "fusion_lon": 0.0, "fusion_lat": 0.0, "type": "electric_scooter", "name": "7492419669f12e9c4f7933a9c8dec6fe", "is_disabled": 0, "rental_uris": {"ios": "https://dc.lft.to/lastmile_qr_scan", "android": "https://dc.lft.to/lastmile_qr_scan"}, "is_reserved": 0}, {"lon": -77.02244633333333, "bike_id": "077dbbcd308763862aefca049efb4ab4", "lat": 38.87820983333334, "fusion_lon": 0.0, "fusion_lat": 0.0, "type": "electric_scooter", "name": "077dbbcd308763862aefca049efb4ab4", "is_disabled": 0, "rental_uris": {"ios": "https://dc.lft.to/lastmile_qr_scan", "android": "https://dc.lft.to/lastmile_qr_scan"}, "is_reserved": 0}, {"lon": -77.00561816666666, "bike_id": "ad394a063610a84839fd5863790a1a05", "lat": 38.900445833333336, "fusion_lon": 0.0, "fusion_lat": 0.0, "type": "electric_scooter", "name": "ad394a063610a84839fd5863790a1a05", "is_disabled": 0, "rental_uris": {"ios": "https://dc.lft.to/lastmile_qr_scan", "android": "https://dc.lft.to/lastmile_qr_scan"}, "is_reserved": 0}, {"lon": -77.01953516666667, "bike_id": "a4bdbdf92a649dd5fb4dea115f8c056a", "lat": 38.900990666666665, "fusion_lon": 0.0, "fusion_lat": 0.0, "type": "electric_scooter", "name": "a4bdbdf92a649dd5fb4dea115f8c056a", "is_disabled": 0, "rental_uris": {"ios": "https://dc.lft.to/lastmile_qr_scan", "android": "https://dc.lft.to/lastmile_qr_scan"}, "is_reserved": 0}, {"lon": -77.028079, "bike_id": "71b1e60934d7527ea4f4734e517a8619", "lat": 38.881725333333335, "fusion_lon": 0.0, "fusion_lat": 0.0, "type": "electric_scooter", "name": "71b1e60934d7527ea4f4734e517a8619", "is_disabled": 0, "rental_uris": {"ios": "https://dc.lft.to/lastmile_qr_scan", "android": "https://dc.lft.to/lastmile_qr_scan"}, "is_reserved": 0}, {"lon": -76.9945685, "bike_id": "2798af6ac11b02cb1c77b07c47a0c867", "lat": 38.86218783333333, "fusion_lon": 0.0, "fusion_lat": 0.0, "type": "electric_scooter", "name": "2798af6ac11b02cb1c77b07c47a0c867", "is_disabled": 0, "rental_uris": {"ios": "https://dc.lft.to/lastmile_qr_scan", "android": "https://dc.lft.to/lastmile_qr_scan"}, "is_reserved": 0}, {"lon": -76.99725583333333, "bike_id": "79dbd31f95ab8dda8feeabdb0f9fc327", "lat": 38.90042166666667, "fusion_lon": 0.0, "fusion_lat": 0.0, "type": "electric_scooter", "name": "79dbd31f95ab8dda8feeabdb0f9fc327", "is_disabled": 0, "rental_uris": {"ios": "https://dc.lft.to/lastmile_qr_scan", "android": "https://dc.lft.to/lastmile_qr_scan"}, "is_reserved": 0}, {"lon": -77.04204033333333, "bike_id": "5c65ceee7b421160efed30ff160726a7", "lat": 38.9231235, "fusion_lon": 0.0, "fusion_lat": 0.0, "type": "electric_scooter", "name": "5c65ceee7b421160efed30ff160726a7", "is_disabled": 0, "rental_uris": {"ios": "https://dc.lft.to/lastmile_qr_scan", "android": "https://dc.lft.to/lastmile_qr_scan"}, "is_reserved": 0}, {"lon": -77.02762783333333, "bike_id": "503e69db9fdd0d6f7eb0dab8f26b6e00", "lat": 38.95427166666666, "fusion_lon": 0.0, "fusion_lat": 0.0, "type": "electric_scooter", "name": "503e69db9fdd0d6f7eb0dab8f26b6e00", "is_disabled": 0, "rental_uris": {"ios": "https://dc.lft.to/lastmile_qr_scan", "android": "https://dc.lft.to/lastmile_qr_scan"}, "is_reserved": 0}, {"lon": -77.07419916666667, "bike_id": "aa6989f2c0ab009cf3daeeaa8c8caca8", "lat": 38.92886383333333, "fusion_lon": 0.0, "fusion_lat": 0.0, "type": "electric_scooter", "name": "aa6989f2c0ab009cf3daeeaa8c8caca8", "is_disabled": 0, "rental_uris": {"ios": "https://dc.lft.to/lastmile_qr_scan", "android": "https://dc.lft.to/lastmile_qr_scan"}, "is_reserved": 0}, {"lon": -76.98915683333334, "bike_id": "ce8b9c52490a451016743aa464777cbc", "lat": 38.864908166666666, "fusion_lon": 0.0, "fusion_lat": 0.0, "type": "electric_scooter", "name": "ce8b9c52490a451016743aa464777cbc", "is_disabled": 0, "rental_uris": {"ios": "https://dc.lft.to/lastmile_qr_scan", "android": "https://dc.lft.to/lastmile_qr_scan"}, "is_reserved": 0}, {"lon": -77.022735, "bike_id": "4691ed5320e2805e6d53a84a2891e16f", "lat": 38.916229, "fusion_lon": 0.0, "fusion_lat": 0.0, "type": "electric_scooter", "name": "4691ed5320e2805e6d53a84a2891e16f", "is_disabled": 0, "rental_uris": {"ios": "https://dc.lft.to/lastmile_qr_scan", "android": "https://dc.lft.to/lastmile_qr_scan"}, "is_reserved": 0}, {"lon": -76.94595066666666, "bike_id": "28d16d6fdaa237dc20d231cdce3046e1", "lat": 38.90147, "fusion_lon": 0.0, "fusion_lat": 0.0, "type": "electric_scooter", "name": "28d16d6fdaa237dc20d231cdce3046e1", "is_disabled": 0, "rental_uris": {"ios": "https://dc.lft.to/lastmile_qr_scan", "android": "https://dc.lft.to/lastmile_qr_scan"}, "is_reserved": 0}, {"lon": -77.05525366666667, "bike_id": "e1dc7c472c71345bca1ae9d9086995a3", "lat": 38.897285833333335, "fusion_lon": 0.0, "fusion_lat": 0.0, "type": "electric_scooter", "name": "e1dc7c472c71345bca1ae9d9086995a3", "is_disabled": 0, "rental_uris": {"ios": "https://dc.lft.to/lastmile_qr_scan", "android": "https://dc.lft.to/lastmile_qr_scan"}, "is_reserved": 0}, {"lon": -77.04006883333334, "bike_id": "19a506db8f85780f7e84789616a92d0f", "lat": 38.93435016666667, "fusion_lon": 0.0, "fusion_lat": 0.0, "type": "electric_scooter", "name": "19a506db8f85780f7e84789616a92d0f", "is_disabled": 0, "rental_uris": {"ios": "https://dc.lft.to/lastmile_qr_scan", "android": "https://dc.lft.to/lastmile_qr_scan"}, "is_reserved": 0}, {"lon": -77.01864316666666, "bike_id": "e87f04ed17560f3bf4a7b56b86616248", "lat": 38.914927, "fusion_lon": 0.0, "fusion_lat": 0.0, "type": "electric_scooter", "name": "e87f04ed17560f3bf4a7b56b86616248", "is_disabled": 0, "rental_uris": {"ios": "https://dc.lft.to/lastmile_qr_scan", "android": "https://dc.lft.to/lastmile_qr_scan"}, "is_reserved": 0}, {"lon": -76.934848, "bike_id": "8d40144e98d7d8b5c4792882d89053ad", "lat": 38.9058305, "fusion_lon": 0.0, "fusion_lat": 0.0, "type": "electric_scooter", "name": "8d40144e98d7d8b5c4792882d89053ad", "is_disabled": 0, "rental_uris": {"ios": "https://dc.lft.to/lastmile_qr_scan", "android": "https://dc.lft.to/lastmile_qr_scan"}, "is_reserved": 0}, {"lon": -77.02811883333334, "bike_id": "02137e78874e46d83357c385299f2e2d", "lat": 38.93081333333333, "fusion_lon": 0.0, "fusion_lat": 0.0, "type": "electric_scooter", "name": "02137e78874e46d83357c385299f2e2d", "is_disabled": 0, "rental_uris": {"ios": "https://dc.lft.to/lastmile_qr_scan", "android": "https://dc.lft.to/lastmile_qr_scan"}, "is_reserved": 0}, {"lon": -77.030544, "bike_id": "f2493fb77a6f563f8e339cba890e85fe", "lat": 38.92376466666666, "fusion_lon": 0.0, "fusion_lat": 0.0, "type": "electric_scooter", "name": "f2493fb77a6f563f8e339cba890e85fe", "is_disabled": 0, "rental_uris": {"ios": "https://dc.lft.to/lastmile_qr_scan", "android": "https://dc.lft.to/lastmile_qr_scan"}, "is_reserved": 0}, {"lon": -76.98014866666666, "bike_id": "b3447e15fb6dc77cd4d78dcc8587d619", "lat": 38.900842, "fusion_lon": 0.0, "fusion_lat": 0.0, "type": "electric_scooter", "name": "b3447e15fb6dc77cd4d78dcc8587d619", "is_disabled": 0, "rental_uris": {"ios": "https://dc.lft.to/lastmile_qr_scan", "android": "https://dc.lft.to/lastmile_qr_scan"}, "is_reserved": 0}, {"lon": -77.02823466666666, "bike_id": "805cac8b549e27298af7701b9455aeaf", "lat": 38.90241066666667, "fusion_lon": 0.0, "fusion_lat": 0.0, "type": "electric_scooter", "name": "805cac8b549e27298af7701b9455aeaf", "is_disabled": 0, "rental_uris": {"ios": "https://dc.lft.to/lastmile_qr_scan", "android": "https://dc.lft.to/lastmile_qr_scan"}, "is_reserved": 0}, {"lon": -77.02610683333333, "bike_id": "a4f67e690c27fbbf95dc315e4f43f718", "lat": 38.89840483333333, "fusion_lon": 0.0, "fusion_lat": 0.0, "type": "electric_scooter", "name": "a4f67e690c27fbbf95dc315e4f43f718", "is_disabled": 0, "rental_uris": {"ios": "https://dc.lft.to/lastmile_qr_scan", "android": "https://dc.lft.to/lastmile_qr_scan"}, "is_reserved": 0}, {"lon": -77.02300433333333, "bike_id": "a201dfafb2d0e0af737bd138f85d05ba", "lat": 38.928393166666666, "fusion_lon": 0.0, "fusion_lat": 0.0, "type": "electric_scooter", "name": "a201dfafb2d0e0af737bd138f85d05ba", "is_disabled": 0, "rental_uris": {"ios": "https://dc.lft.to/lastmile_qr_scan", "android": "https://dc.lft.to/lastmile_qr_scan"}, "is_reserved": 0}, {"lon": -77.04466983333333, "bike_id": "fe4b2bffb998297c1d79ee8c93d411d7", "lat": 38.915256166666666, "fusion_lon": 0.0, "fusion_lat": 0.0, "type": "electric_scooter", "name": "fe4b2bffb998297c1d79ee8c93d411d7", "is_disabled": 0, "rental_uris": {"ios": "https://dc.lft.to/lastmile_qr_scan", "android": "https://dc.lft.to/lastmile_qr_scan"}, "is_reserved": 0}, {"lon": -76.990279, "bike_id": "75a1c58b58af6a3cdb27af80af645367", "lat": 38.864355333333336, "fusion_lon": 0.0, "fusion_lat": 0.0, "type": "electric_scooter", "name": "75a1c58b58af6a3cdb27af80af645367", "is_disabled": 0, "rental_uris": {"ios": "https://dc.lft.to/lastmile_qr_scan", "android": "https://dc.lft.to/lastmile_qr_scan"}, "is_reserved": 0}, {"lon": -76.98064966666666, "bike_id": "4bd3924915fc65e622a7c07c7d93808f", "lat": 38.8849495, "fusion_lon": 0.0, "fusion_lat": 0.0, "type": "electric_scooter", "name": "4bd3924915fc65e622a7c07c7d93808f", "is_disabled": 0, "rental_uris": {"ios": "https://dc.lft.to/lastmile_qr_scan", "android": "https://dc.lft.to/lastmile_qr_scan"}, "is_reserved": 0}, {"lon": -77.0256235, "bike_id": "bf9cb16a41a5b5ed3cbbe175ba81dc1b", "lat": 38.90718833333333, "fusion_lon": 0.0, "fusion_lat": 0.0, "type": "electric_scooter", "name": "bf9cb16a41a5b5ed3cbbe175ba81dc1b", "is_disabled": 0, "rental_uris": {"ios": "https://dc.lft.to/lastmile_qr_scan", "android": "https://dc.lft.to/lastmile_qr_scan"}, "is_reserved": 0}, {"lon": -76.97396283333333, "bike_id": "6ed46d178baaaeaeed0b877a01904097", "lat": 38.902993333333335, "fusion_lon": 0.0, "fusion_lat": 0.0, "type": "electric_scooter", "name": "6ed46d178baaaeaeed0b877a01904097", "is_disabled": 0, "rental_uris": {"ios": "https://dc.lft.to/lastmile_qr_scan", "android": "https://dc.lft.to/lastmile_qr_scan"}, "is_reserved": 0}, {"lon": -77.02468316666666, "bike_id": "f2b56fef2089893893f0ab3d3ffa0745", "lat": 38.93713266666666, "fusion_lon": 0.0, "fusion_lat": 0.0, "type": "electric_scooter", "name": "f2b56fef2089893893f0ab3d3ffa0745", "is_disabled": 0, "rental_uris": {"ios": "https://dc.lft.to/lastmile_qr_scan", "android": "https://dc.lft.to/lastmile_qr_scan"}, "is_reserved": 0}, {"lon": -77.09048033333333, "bike_id": "5468a08b5389d8b3286cc7e40ff6b474", "lat": 38.8497375, "fusion_lon": 0.0, "fusion_lat": 0.0, "type": "electric_bike", "name": "5468a08b5389d8b3286cc7e40ff6b474", "is_disabled": 0, "rental_uris": {"ios": "https://dc.lft.to/lastmile_qr_scan", "android": "https://dc.lft.to/lastmile_qr_scan"}, "is_reserved": 0}, {"lon": -77.039358, "bike_id": "339e4bdc133c466b0c338e016a70e2f4", "lat": 38.91567716666667, "fusion_lon": 0.0, "fusion_lat": 0.0, "type": "electric_scooter", "name": "339e4bdc133c466b0c338e016a70e2f4", "is_disabled": 0, "rental_uris": {"ios": "https://dc.lft.to/lastmile_qr_scan", "android": "https://dc.lft.to/lastmile_qr_scan"}, "is_reserved": 0}, {"lon": -77.01818266666666, "bike_id": "15c2959680ddaf3c9c839444fbb49de6", "lat": 38.9304635, "fusion_lon": 0.0, "fusion_lat": 0.0, "type": "electric_scooter", "name": "15c2959680ddaf3c9c839444fbb49de6", "is_disabled": 0, "rental_uris": {"ios": "https://dc.lft.to/lastmile_qr_scan", "android": "https://dc.lft.to/lastmile_qr_scan"}, "is_reserved": 0}, {"lon": -77.0428045, "bike_id": "dc8b1667755886020a9fbc21f8b1193e", "lat": 38.905516666666664, "fusion_lon": 0.0, "fusion_lat": 0.0, "type": "electric_scooter", "name": "dc8b1667755886020a9fbc21f8b1193e", "is_disabled": 0, "rental_uris": {"ios": "https://dc.lft.to/lastmile_qr_scan", "android": "https://dc.lft.to/lastmile_qr_scan"}, "is_reserved": 0}, {"lon": -77.00299533333333, "bike_id": "13f8e1961b790daed2ce6b6f1a9b8c3c", "lat": 38.90911216666667, "fusion_lon": 0.0, "fusion_lat": 0.0, "type": "electric_scooter", "name": "13f8e1961b790daed2ce6b6f1a9b8c3c", "is_disabled": 0, "rental_uris": {"ios": "https://dc.lft.to/lastmile_qr_scan", "android": "https://dc.lft.to/lastmile_qr_scan"}, "is_reserved": 0}, {"lon": -76.95657116666666, "bike_id": "2f305a37449e890ec362452e6145b3b9", "lat": 38.89555883333333, "fusion_lon": 0.0, "fusion_lat": 0.0, "type": "electric_scooter", "name": "2f305a37449e890ec362452e6145b3b9", "is_disabled": 0, "rental_uris": {"ios": "https://dc.lft.to/lastmile_qr_scan", "android": "https://dc.lft.to/lastmile_qr_scan"}, "is_reserved": 0}, {"lon": -77.05935083333334, "bike_id": "431e40cf521e684b37d5d96e5111597a", "lat": 38.91190916666667, "fusion_lon": 0.0, "fusion_lat": 0.0, "type": "electric_bike", "name": "431e40cf521e684b37d5d96e5111597a", "is_disabled": 0, "rental_uris": {"ios": "https://dc.lft.to/lastmile_qr_scan", "android": "https://dc.lft.to/lastmile_qr_scan"}, "is_reserved": 0}, {"lon": -77.02258183333333, "bike_id": "7d9511a8ea222f0756d555b77915cd52", "lat": 38.878924, "fusion_lon": 0.0, "fusion_lat": 0.0, "type": "electric_scooter", "name": "7d9511a8ea222f0756d555b77915cd52", "is_disabled": 0, "rental_uris": {"ios": "https://dc.lft.to/lastmile_qr_scan", "android": "https://dc.lft.to/lastmile_qr_scan"}, "is_reserved": 0}, {"lon": -77.026143, "bike_id": "3a24d9223292fa9ca594eedd9c694c46", "lat": 38.90267816666667, "fusion_lon": 0.0, "fusion_lat": 0.0, "type": "electric_scooter", "name": "3a24d9223292fa9ca594eedd9c694c46", "is_disabled": 0, "rental_uris": {"ios": "https://dc.lft.to/lastmile_qr_scan", "android": "https://dc.lft.to/lastmile_qr_scan"}, "is_reserved": 0}, {"lon": -77.04220133333334, "bike_id": "f930495e0a2d0a422d61ba0ff0f3965a", "lat": 38.9231515, "fusion_lon": 0.0, "fusion_lat": 0.0, "type": "electric_scooter", "name": "f930495e0a2d0a422d61ba0ff0f3965a", "is_disabled": 0, "rental_uris": {"ios": "https://dc.lft.to/lastmile_qr_scan", "android": "https://dc.lft.to/lastmile_qr_scan"}, "is_reserved": 0}, {"lon": -77.17841183333333, "bike_id": "5d4fa4208588405977e05a8428a8ca05", "lat": 39.088620666666664, "fusion_lon": 0.0, "fusion_lat": 0.0, "type": "electric_bike", "name": "5d4fa4208588405977e05a8428a8ca05", "is_disabled": 0, "rental_uris": {"ios": "https://dc.lft.to/lastmile_qr_scan", "android": "https://dc.lft.to/lastmile_qr_scan"}, "is_reserved": 0}, {"lon": -76.99167466666667, "bike_id": "868334e5402118773338179001e5627b", "lat": 38.909701166666665, "fusion_lon": 0.0, "fusion_lat": 0.0, "type": "electric_scooter", "name": "868334e5402118773338179001e5627b", "is_disabled": 0, "rental_uris": {"ios": "https://dc.lft.to/lastmile_qr_scan", "android": "https://dc.lft.to/lastmile_qr_scan"}, "is_reserved": 0}, {"lon": -76.99628433333334, "bike_id": "021792018c303aed754cf76ed50ef7ef", "lat": 38.900287166666665, "fusion_lon": 0.0, "fusion_lat": 0.0, "type": "electric_scooter", "name": "021792018c303aed754cf76ed50ef7ef", "is_disabled": 0, "rental_uris": {"ios": "https://dc.lft.to/lastmile_qr_scan", "android": "https://dc.lft.to/lastmile_qr_scan"}, "is_reserved": 0}, {"lon": -77.03286766666666, "bike_id": "72badec1f4b681e0b3886811e242223d", "lat": 38.936475, "fusion_lon": 0.0, "fusion_lat": 0.0, "type": "electric_scooter", "name": "72badec1f4b681e0b3886811e242223d", "is_disabled": 0, "rental_uris": {"ios": "https://dc.lft.to/lastmile_qr_scan", "android": "https://dc.lft.to/lastmile_qr_scan"}, "is_reserved": 0}, {"lon": -77.05178833333333, "bike_id": "e2ae3fbcc6ccfb8ae416d7420deb0bba", "lat": 38.84290983333333, "fusion_lon": 0.0, "fusion_lat": 0.0, "type": "electric_bike", "name": "e2ae3fbcc6ccfb8ae416d7420deb0bba", "is_disabled": 0, "rental_uris": {"ios": "https://dc.lft.to/lastmile_qr_scan", "android": "https://dc.lft.to/lastmile_qr_scan"}, "is_reserved": 0}, {"lon": -76.93136, "bike_id": "6dde7c29955a223af035dd2c7541545d", "lat": 38.87615866666667, "fusion_lon": 0.0, "fusion_lat": 0.0, "type": "electric_scooter", "name": "6dde7c29955a223af035dd2c7541545d", "is_disabled": 0, "rental_uris": {"ios": "https://dc.lft.to/lastmile_qr_scan", "android": "https://dc.lft.to/lastmile_qr_scan"}, "is_reserved": 0}, {"lon": -77.02115866666666, "bike_id": "6e1ddedb9920f0bae5b485f50b3710aa", "lat": 38.924626, "fusion_lon": 0.0, "fusion_lat": 0.0, "type": "electric_scooter", "name": "6e1ddedb9920f0bae5b485f50b3710aa", "is_disabled": 0, "rental_uris": {"ios": "https://dc.lft.to/lastmile_qr_scan", "android": "https://dc.lft.to/lastmile_qr_scan"}, "is_reserved": 0}, {"lon": -77.0058525, "bike_id": "56a44164223ddcab478ed6e25c4e4def", "lat": 38.871878333333335, "fusion_lon": 0.0, "fusion_lat": 0.0, "type": "electric_scooter", "name": "56a44164223ddcab478ed6e25c4e4def", "is_disabled": 0, "rental_uris": {"ios": "https://dc.lft.to/lastmile_qr_scan", "android": "https://dc.lft.to/lastmile_qr_scan"}, "is_reserved": 0}, {"lon": -77.08734283333334, "bike_id": "5492961262bc2ef834aba604262d0086", "lat": 38.8915015, "fusion_lon": 0.0, "fusion_lat": 0.0, "type": "electric_bike", "name": "5492961262bc2ef834aba604262d0086", "is_disabled": 0, "rental_uris": {"ios": "https://dc.lft.to/lastmile_qr_scan", "android": "https://dc.lft.to/lastmile_qr_scan"}, "is_reserved": 0}, {"lon": -77.018618, "bike_id": "074536a0bd598b695f9fb8994cf35975", "lat": 38.91491666666667, "fusion_lon": 0.0, "fusion_lat": 0.0, "type": "electric_scooter", "name": "074536a0bd598b695f9fb8994cf35975", "is_disabled": 0, "rental_uris": {"ios": "https://dc.lft.to/lastmile_qr_scan", "android": "https://dc.lft.to/lastmile_qr_scan"}, "is_reserved": 0}, {"lon": -77.02607783333333, "bike_id": "feedefb56b367a0ccb2a10376b792652", "lat": 38.89614233333333, "fusion_lon": 0.0, "fusion_lat": 0.0, "type": "electric_scooter", "name": "feedefb56b367a0ccb2a10376b792652", "is_disabled": 0, "rental_uris": {"ios": "https://dc.lft.to/lastmile_qr_scan", "android": "https://dc.lft.to/lastmile_qr_scan"}, "is_reserved": 0}, {"lon": -77.03920916666667, "bike_id": "dbc4dff49194dfb280543c6f0f3a1a01", "lat": 38.92319366666667, "fusion_lon": 0.0, "fusion_lat": 0.0, "type": "electric_scooter", "name": "dbc4dff49194dfb280543c6f0f3a1a01", "is_disabled": 0, "rental_uris": {"ios": "https://dc.lft.to/lastmile_qr_scan", "android": "https://dc.lft.to/lastmile_qr_scan"}, "is_reserved": 0}, {"lon": -77.0416735, "bike_id": "cc8f46333507345161822c8f0e695ae6", "lat": 38.9138795, "fusion_lon": 0.0, "fusion_lat": 0.0, "type": "electric_scooter", "name": "cc8f46333507345161822c8f0e695ae6", "is_disabled": 0, "rental_uris": {"ios": "https://dc.lft.to/lastmile_qr_scan", "android": "https://dc.lft.to/lastmile_qr_scan"}, "is_reserved": 0}, {"lon": -77.0164785, "bike_id": "e58aa1440a81124d8720f07023e32a89", "lat": 38.9289845, "fusion_lon": 0.0, "fusion_lat": 0.0, "type": "electric_scooter", "name": "e58aa1440a81124d8720f07023e32a89", "is_disabled": 0, "rental_uris": {"ios": "https://dc.lft.to/lastmile_qr_scan", "android": "https://dc.lft.to/lastmile_qr_scan"}, "is_reserved": 0}, {"lon": -76.99548516666667, "bike_id": "b9181e3e5887781c43872f52c0486176", "lat": 38.926726333333335, "fusion_lon": 0.0, "fusion_lat": 0.0, "type": "electric_scooter", "name": "b9181e3e5887781c43872f52c0486176", "is_disabled": 0, "rental_uris": {"ios": "https://dc.lft.to/lastmile_qr_scan", "android": "https://dc.lft.to/lastmile_qr_scan"}, "is_reserved": 0}, {"lon": -77.039487, "bike_id": "ee9a6197d31116be8063b11726cb6c67", "lat": 38.913827166666664, "fusion_lon": 0.0, "fusion_lat": 0.0, "type": "electric_scooter", "name": "ee9a6197d31116be8063b11726cb6c67", "is_disabled": 0, "rental_uris": {"ios": "https://dc.lft.to/lastmile_qr_scan", "android": "https://dc.lft.to/lastmile_qr_scan"}, "is_reserved": 0}, {"lon": -76.995467, "bike_id": "6a9703a8827f1dc2c97666e9ebe1d9b2", "lat": 38.86259016666666, "fusion_lon": 0.0, "fusion_lat": 0.0, "type": "electric_scooter", "name": "6a9703a8827f1dc2c97666e9ebe1d9b2", "is_disabled": 0, "rental_uris": {"ios": "https://dc.lft.to/lastmile_qr_scan", "android": "https://dc.lft.to/lastmile_qr_scan"}, "is_reserved": 0}, {"lon": -77.026735, "bike_id": "906c99dcc29ca01a8e51989af696974e", "lat": 38.8980535, "fusion_lon": 0.0, "fusion_lat": 0.0, "type": "electric_scooter", "name": "906c99dcc29ca01a8e51989af696974e", "is_disabled": 0, "rental_uris": {"ios": "https://dc.lft.to/lastmile_qr_scan", "android": "https://dc.lft.to/lastmile_qr_scan"}, "is_reserved": 0}, {"lon": -77.02126683333333, "bike_id": "ec70116fad4ff4a031f382529690ef79", "lat": 38.916063333333334, "fusion_lon": 0.0, "fusion_lat": 0.0, "type": "electric_scooter", "name": "ec70116fad4ff4a031f382529690ef79", "is_disabled": 0, "rental_uris": {"ios": "https://dc.lft.to/lastmile_qr_scan", "android": "https://dc.lft.to/lastmile_qr_scan"}, "is_reserved": 0}, {"lon": -77.03290066666666, "bike_id": "0f8e41031958a4e026b1e722691a1622", "lat": 38.934541833333334, "fusion_lon": 0.0, "fusion_lat": 0.0, "type": "electric_scooter", "name": "0f8e41031958a4e026b1e722691a1622", "is_disabled": 0, "rental_uris": {"ios": "https://dc.lft.to/lastmile_qr_scan", "android": "https://dc.lft.to/lastmile_qr_scan"}, "is_reserved": 0}, {"lon": -77.009173, "bike_id": "f0c8ac6561a12cd47759488b00d94ac3", "lat": 38.896094166666664, "fusion_lon": 0.0, "fusion_lat": 0.0, "type": "electric_scooter", "name": "f0c8ac6561a12cd47759488b00d94ac3", "is_disabled": 0, "rental_uris": {"ios": "https://dc.lft.to/lastmile_qr_scan", "android": "https://dc.lft.to/lastmile_qr_scan"}, "is_reserved": 0}, {"lon": -77.04765983333333, "bike_id": "d8b1b3ac0096ea611a3bb5c1432bb6f1", "lat": 38.8961025, "fusion_lon": 0.0, "fusion_lat": 0.0, "type": "electric_scooter", "name": "d8b1b3ac0096ea611a3bb5c1432bb6f1", "is_disabled": 0, "rental_uris": {"ios": "https://dc.lft.to/lastmile_qr_scan", "android": "https://dc.lft.to/lastmile_qr_scan"}, "is_reserved": 0}, {"lon": -77.04654916666667, "bike_id": "f86a407c3467e76c60596098c2341f2d", "lat": 38.9097405, "fusion_lon": 0.0, "fusion_lat": 0.0, "type": "electric_scooter", "name": "f86a407c3467e76c60596098c2341f2d", "is_disabled": 0, "rental_uris": {"ios": "https://dc.lft.to/lastmile_qr_scan", "android": "https://dc.lft.to/lastmile_qr_scan"}, "is_reserved": 0}, {"lon": -77.03173933333333, "bike_id": "fb37ec5c85a12530b5afb5baae8f6b6a", "lat": 38.915568666666665, "fusion_lon": 0.0, "fusion_lat": 0.0, "type": "electric_scooter", "name": "fb37ec5c85a12530b5afb5baae8f6b6a", "is_disabled": 0, "rental_uris": {"ios": "https://dc.lft.to/lastmile_qr_scan", "android": "https://dc.lft.to/lastmile_qr_scan"}, "is_reserved": 0}, {"lon": -77.03316633333333, "bike_id": "1e0962d8fac3d7dd12a0ee3eee7815ab", "lat": 38.92896733333333, "fusion_lon": 0.0, "fusion_lat": 0.0, "type": "electric_scooter", "name": "1e0962d8fac3d7dd12a0ee3eee7815ab", "is_disabled": 0, "rental_uris": {"ios": "https://dc.lft.to/lastmile_qr_scan", "android": "https://dc.lft.to/lastmile_qr_scan"}, "is_reserved": 0}, {"lon": -77.0460265, "bike_id": "1102d4da8aed4d4204b00874b3427954", "lat": 38.9077215, "fusion_lon": 0.0, "fusion_lat": 0.0, "type": "electric_scooter", "name": "1102d4da8aed4d4204b00874b3427954", "is_disabled": 0, "rental_uris": {"ios": "https://dc.lft.to/lastmile_qr_scan", "android": "https://dc.lft.to/lastmile_qr_scan"}, "is_reserved": 0}, {"lon": -76.95478333333334, "bike_id": "13e5809f166398da696d253fa074ec45", "lat": 38.88656366666667, "fusion_lon": 0.0, "fusion_lat": 0.0, "type": "electric_scooter", "name": "13e5809f166398da696d253fa074ec45", "is_disabled": 0, "rental_uris": {"ios": "https://dc.lft.to/lastmile_qr_scan", "android": "https://dc.lft.to/lastmile_qr_scan"}, "is_reserved": 0}, {"lon": -76.98663016666667, "bike_id": "b99cbe99c2761b38deb3c8dbc418401d", "lat": 38.867321, "fusion_lon": 0.0, "fusion_lat": 0.0, "type": "electric_scooter", "name": "b99cbe99c2761b38deb3c8dbc418401d", "is_disabled": 0, "rental_uris": {"ios": "https://dc.lft.to/lastmile_qr_scan", "android": "https://dc.lft.to/lastmile_qr_scan"}, "is_reserved": 0}, {"lon": -77.0385815, "bike_id": "3f7fb1f1096a0d3a235c4677d049e7e2", "lat": 38.93131866666667, "fusion_lon": 0.0, "fusion_lat": 0.0, "type": "electric_scooter", "name": "3f7fb1f1096a0d3a235c4677d049e7e2", "is_disabled": 0, "rental_uris": {"ios": "https://dc.lft.to/lastmile_qr_scan", "android": "https://dc.lft.to/lastmile_qr_scan"}, "is_reserved": 0}, {"lon": -77.02416833333334, "bike_id": "de3b29dcecfed2a20e4b17d052ae49b1", "lat": 38.909704833333336, "fusion_lon": 0.0, "fusion_lat": 0.0, "type": "electric_scooter", "name": "de3b29dcecfed2a20e4b17d052ae49b1", "is_disabled": 0, "rental_uris": {"ios": "https://dc.lft.to/lastmile_qr_scan", "android": "https://dc.lft.to/lastmile_qr_scan"}, "is_reserved": 0}, {"lon": -77.02734233333334, "bike_id": "43170c2884d10f0030c3dbf3d305da28", "lat": 38.881607333333335, "fusion_lon": 0.0, "fusion_lat": 0.0, "type": "electric_scooter", "name": "43170c2884d10f0030c3dbf3d305da28", "is_disabled": 0, "rental_uris": {"ios": "https://dc.lft.to/lastmile_qr_scan", "android": "https://dc.lft.to/lastmile_qr_scan"}, "is_reserved": 0}, {"lon": -77.18741016666667, "bike_id": "cffd4694ff2c347a526b7ebd2ac21378", "lat": 38.8935365, "fusion_lon": 0.0, "fusion_lat": 0.0, "type": "electric_bike", "name": "cffd4694ff2c347a526b7ebd2ac21378", "is_disabled": 0, "rental_uris": {"ios": "https://dc.lft.to/lastmile_qr_scan", "android": "https://dc.lft.to/lastmile_qr_scan"}, "is_reserved": 0}, {"lon": -77.02226766666666, "bike_id": "d05db87653fc9c4c8d5fc1de3b5270a7", "lat": 38.9350985, "fusion_lon": 0.0, "fusion_lat": 0.0, "type": "electric_bike", "name": "d05db87653fc9c4c8d5fc1de3b5270a7", "is_disabled": 0, "rental_uris": {"ios": "https://dc.lft.to/lastmile_qr_scan", "android": "https://dc.lft.to/lastmile_qr_scan"}, "is_reserved": 0}, {"lon": -77.03409466666666, "bike_id": "65f4406cb01fd2270d38932928c23387", "lat": 38.9224915, "fusion_lon": 0.0, "fusion_lat": 0.0, "type": "electric_scooter", "name": "65f4406cb01fd2270d38932928c23387", "is_disabled": 0, "rental_uris": {"ios": "https://dc.lft.to/lastmile_qr_scan", "android": "https://dc.lft.to/lastmile_qr_scan"}, "is_reserved": 0}, {"lon": -77.08459533333334, "bike_id": "e566de394bed207f7ffa68cb2da65260", "lat": 38.848196, "fusion_lon": 0.0, "fusion_lat": 0.0, "type": "electric_bike", "name": "e566de394bed207f7ffa68cb2da65260", "is_disabled": 0, "rental_uris": {"ios": "https://dc.lft.to/lastmile_qr_scan", "android": "https://dc.lft.to/lastmile_qr_scan"}, "is_reserved": 0}, {"lon": -77.028117, "bike_id": "4caf9f3190f19f266903f76efcc2d7f9", "lat": 38.932991333333334, "fusion_lon": 0.0, "fusion_lat": 0.0, "type": "electric_scooter", "name": "4caf9f3190f19f266903f76efcc2d7f9", "is_disabled": 0, "rental_uris": {"ios": "https://dc.lft.to/lastmile_qr_scan", "android": "https://dc.lft.to/lastmile_qr_scan"}, "is_reserved": 0}, {"lon": -77.05442916666667, "bike_id": "e48e60312a110c9f9d9fc2affc0ddb98", "lat": 38.896044, "fusion_lon": 0.0, "fusion_lat": 0.0, "type": "electric_scooter", "name": "e48e60312a110c9f9d9fc2affc0ddb98", "is_disabled": 0, "rental_uris": {"ios": "https://dc.lft.to/lastmile_qr_scan", "android": "https://dc.lft.to/lastmile_qr_scan"}, "is_reserved": 0}, {"lon": -77.02153233333334, "bike_id": "e10c39fc225fce11ea20328f074968f6", "lat": 38.912664, "fusion_lon": 0.0, "fusion_lat": 0.0, "type": "electric_scooter", "name": "e10c39fc225fce11ea20328f074968f6", "is_disabled": 0, "rental_uris": {"ios": "https://dc.lft.to/lastmile_qr_scan", "android": "https://dc.lft.to/lastmile_qr_scan"}, "is_reserved": 0}, {"lon": -77.03246133333333, "bike_id": "f63c11154b999c9034b463622edee330", "lat": 38.93772416666667, "fusion_lon": 0.0, "fusion_lat": 0.0, "type": "electric_scooter", "name": "f63c11154b999c9034b463622edee330", "is_disabled": 0, "rental_uris": {"ios": "https://dc.lft.to/lastmile_qr_scan", "android": "https://dc.lft.to/lastmile_qr_scan"}, "is_reserved": 0}, {"lon": -77.055313, "bike_id": "cda8b49665732c118c640cb8af5913d2", "lat": 38.93433516666666, "fusion_lon": 0.0, "fusion_lat": 0.0, "type": "electric_scooter", "name": "cda8b49665732c118c640cb8af5913d2", "is_disabled": 0, "rental_uris": {"ios": "https://dc.lft.to/lastmile_qr_scan", "android": "https://dc.lft.to/lastmile_qr_scan"}, "is_reserved": 0}, {"lon": -77.01343083333333, "bike_id": "d3c97adbbe6664ee01ac13baeb00bc19", "lat": 38.879245833333336, "fusion_lon": 0.0, "fusion_lat": 0.0, "type": "electric_scooter", "name": "d3c97adbbe6664ee01ac13baeb00bc19", "is_disabled": 0, "rental_uris": {"ios": "https://dc.lft.to/lastmile_qr_scan", "android": "https://dc.lft.to/lastmile_qr_scan"}, "is_reserved": 0}, {"lon": -77.02949033333333, "bike_id": "52738c09dccfbc2e4e6fc5021a8390f2", "lat": 38.9168595, "fusion_lon": 0.0, "fusion_lat": 0.0, "type": "electric_scooter", "name": "52738c09dccfbc2e4e6fc5021a8390f2", "is_disabled": 0, "rental_uris": {"ios": "https://dc.lft.to/lastmile_qr_scan", "android": "https://dc.lft.to/lastmile_qr_scan"}, "is_reserved": 0}, {"lon": -77.03661583333333, "bike_id": "d908c3dc7e494b69d39fe426ac14b9e0", "lat": 38.92119433333333, "fusion_lon": 0.0, "fusion_lat": 0.0, "type": "electric_scooter", "name": "d908c3dc7e494b69d39fe426ac14b9e0", "is_disabled": 0, "rental_uris": {"ios": "https://dc.lft.to/lastmile_qr_scan", "android": "https://dc.lft.to/lastmile_qr_scan"}, "is_reserved": 0}, {"lon": -76.97604616666666, "bike_id": "bef9267434116b8c6f45f05c597b860d", "lat": 38.8975255, "fusion_lon": 0.0, "fusion_lat": 0.0, "type": "electric_scooter", "name": "bef9267434116b8c6f45f05c597b860d", "is_disabled": 0, "rental_uris": {"ios": "https://dc.lft.to/lastmile_qr_scan", "android": "https://dc.lft.to/lastmile_qr_scan"}, "is_reserved": 0}, {"lon": -77.03249616666666, "bike_id": "57c0236ed12e52169b620080350b571a", "lat": 38.927747833333335, "fusion_lon": 0.0, "fusion_lat": 0.0, "type": "electric_scooter", "name": "57c0236ed12e52169b620080350b571a", "is_disabled": 0, "rental_uris": {"ios": "https://dc.lft.to/lastmile_qr_scan", "android": "https://dc.lft.to/lastmile_qr_scan"}, "is_reserved": 0}, {"lon": -77.005401, "bike_id": "771edad8beb75d14883fdf20ef820b57", "lat": 38.87546483333333, "fusion_lon": 0.0, "fusion_lat": 0.0, "type": "electric_scooter", "name": "771edad8beb75d14883fdf20ef820b57", "is_disabled": 0, "rental_uris": {"ios": "https://dc.lft.to/lastmile_qr_scan", "android": "https://dc.lft.to/lastmile_qr_scan"}, "is_reserved": 0}, {"lon": -77.02519466666666, "bike_id": "5f6227bed3383770a827bb29970dd83c", "lat": 38.9420845, "fusion_lon": 0.0, "fusion_lat": 0.0, "type": "electric_scooter", "name": "5f6227bed3383770a827bb29970dd83c", "is_disabled": 0, "rental_uris": {"ios": "https://dc.lft.to/lastmile_qr_scan", "android": "https://dc.lft.to/lastmile_qr_scan"}, "is_reserved": 0}, {"lon": -76.98358933333333, "bike_id": "ce33daebadfb052b2b5afa6fc5885c95", "lat": 38.88746733333333, "fusion_lon": 0.0, "fusion_lat": 0.0, "type": "electric_scooter", "name": "ce33daebadfb052b2b5afa6fc5885c95", "is_disabled": 0, "rental_uris": {"ios": "https://dc.lft.to/lastmile_qr_scan", "android": "https://dc.lft.to/lastmile_qr_scan"}, "is_reserved": 0}, {"lon": -77.01989983333333, "bike_id": "c4531cced208fc254f06df0f19e051e4", "lat": 38.895676, "fusion_lon": 0.0, "fusion_lat": 0.0, "type": "electric_scooter", "name": "c4531cced208fc254f06df0f19e051e4", "is_disabled": 0, "rental_uris": {"ios": "https://dc.lft.to/lastmile_qr_scan", "android": "https://dc.lft.to/lastmile_qr_scan"}, "is_reserved": 0}, {"lon": -76.99510683333334, "bike_id": "81bef8ed64e80a2fb1fe600c33c8fd19", "lat": 38.89767783333333, "fusion_lon": 0.0, "fusion_lat": 0.0, "type": "electric_scooter", "name": "81bef8ed64e80a2fb1fe600c33c8fd19", "is_disabled": 0, "rental_uris": {"ios": "https://dc.lft.to/lastmile_qr_scan", "android": "https://dc.lft.to/lastmile_qr_scan"}, "is_reserved": 0}, {"lon": -77.00205916666667, "bike_id": "bb7656e78c5fc000373db471e36b6d30", "lat": 38.900537, "fusion_lon": 0.0, "fusion_lat": 0.0, "type": "electric_scooter", "name": "bb7656e78c5fc000373db471e36b6d30", "is_disabled": 0, "rental_uris": {"ios": "https://dc.lft.to/lastmile_qr_scan", "android": "https://dc.lft.to/lastmile_qr_scan"}, "is_reserved": 0}, {"lon": -77.01142316666666, "bike_id": "208518e3fbda8f378a51b62fe76bd324", "lat": 38.8697235, "fusion_lon": 0.0, "fusion_lat": 0.0, "type": "electric_scooter", "name": "208518e3fbda8f378a51b62fe76bd324", "is_disabled": 0, "rental_uris": {"ios": "https://dc.lft.to/lastmile_qr_scan", "android": "https://dc.lft.to/lastmile_qr_scan"}, "is_reserved": 0}, {"lon": -77.0481915, "bike_id": "424590decd22f45689643c57752c5d6f", "lat": 38.9104315, "fusion_lon": 0.0, "fusion_lat": 0.0, "type": "electric_scooter", "name": "424590decd22f45689643c57752c5d6f", "is_disabled": 0, "rental_uris": {"ios": "https://dc.lft.to/lastmile_qr_scan", "android": "https://dc.lft.to/lastmile_qr_scan"}, "is_reserved": 0}, {"lon": -76.98335866666666, "bike_id": "e4dfe697a3f4b6695db5ec5685ca2a6f", "lat": 38.89546833333333, "fusion_lon": 0.0, "fusion_lat": 0.0, "type": "electric_scooter", "name": "e4dfe697a3f4b6695db5ec5685ca2a6f", "is_disabled": 0, "rental_uris": {"ios": "https://dc.lft.to/lastmile_qr_scan", "android": "https://dc.lft.to/lastmile_qr_scan"}, "is_reserved": 0}, {"lon": -76.99705066666667, "bike_id": "6151964b33f963586297316686b217a0", "lat": 38.844319166666665, "fusion_lon": 0.0, "fusion_lat": 0.0, "type": "electric_scooter", "name": "6151964b33f963586297316686b217a0", "is_disabled": 0, "rental_uris": {"ios": "https://dc.lft.to/lastmile_qr_scan", "android": "https://dc.lft.to/lastmile_qr_scan"}, "is_reserved": 0}, {"lon": -77.06023633333334, "bike_id": "056ad6d050751f4f78a4cdbc590e1c4d", "lat": 38.903119833333335, "fusion_lon": 0.0, "fusion_lat": 0.0, "type": "electric_scooter", "name": "056ad6d050751f4f78a4cdbc590e1c4d", "is_disabled": 0, "rental_uris": {"ios": "https://dc.lft.to/lastmile_qr_scan", "android": "https://dc.lft.to/lastmile_qr_scan"}, "is_reserved": 0}, {"lon": -77.00926866666667, "bike_id": "ebdbef3fb0c728177aca8c842c6cc7b3", "lat": 38.8960445, "fusion_lon": 0.0, "fusion_lat": 0.0, "type": "electric_scooter", "name": "ebdbef3fb0c728177aca8c842c6cc7b3", "is_disabled": 0, "rental_uris": {"ios": "https://dc.lft.to/lastmile_qr_scan", "android": "https://dc.lft.to/lastmile_qr_scan"}, "is_reserved": 0}, {"lon": -77.07610016666666, "bike_id": "d7ba2263ef7e9c13309a0fb0b2d6bc2b", "lat": 38.92056783333334, "fusion_lon": 0.0, "fusion_lat": 0.0, "type": "electric_scooter", "name": "d7ba2263ef7e9c13309a0fb0b2d6bc2b", "is_disabled": 0, "rental_uris": {"ios": "https://dc.lft.to/lastmile_qr_scan", "android": "https://dc.lft.to/lastmile_qr_scan"}, "is_reserved": 0}, {"lon": -76.99667483333333, "bike_id": "e84eb68b72f5eb7961fdc9f5d353ece9", "lat": 38.92444533333333, "fusion_lon": 0.0, "fusion_lat": 0.0, "type": "electric_bike", "name": "e84eb68b72f5eb7961fdc9f5d353ece9", "is_disabled": 0, "rental_uris": {"ios": "https://dc.lft.to/lastmile_qr_scan", "android": "https://dc.lft.to/lastmile_qr_scan"}, "is_reserved": 0}, {"lon": -77.06321916666667, "bike_id": "37ab3a539f38574ac7c87334a7fe5bfe", "lat": 38.907592, "fusion_lon": 0.0, "fusion_lat": 0.0, "type": "electric_scooter", "name": "37ab3a539f38574ac7c87334a7fe5bfe", "is_disabled": 0, "rental_uris": {"ios": "https://dc.lft.to/lastmile_qr_scan", "android": "https://dc.lft.to/lastmile_qr_scan"}, "is_reserved": 0}, {"lon": -77.02750166666667, "bike_id": "3a3c4575900589ab46fe84df354f693e", "lat": 38.900004833333334, "fusion_lon": 0.0, "fusion_lat": 0.0, "type": "electric_scooter", "name": "3a3c4575900589ab46fe84df354f693e", "is_disabled": 0, "rental_uris": {"ios": "https://dc.lft.to/lastmile_qr_scan", "android": "https://dc.lft.to/lastmile_qr_scan"}, "is_reserved": 0}, {"lon": -77.0036705, "bike_id": "2f07eb8e714159bf6f36e8c5206832af", "lat": 38.915549166666665, "fusion_lon": 0.0, "fusion_lat": 0.0, "type": "electric_scooter", "name": "2f07eb8e714159bf6f36e8c5206832af", "is_disabled": 0, "rental_uris": {"ios": "https://dc.lft.to/lastmile_qr_scan", "android": "https://dc.lft.to/lastmile_qr_scan"}, "is_reserved": 0}, {"lon": -77.0433885, "bike_id": "05e9eaf2eb597044473525c5140ee75c", "lat": 38.92221133333334, "fusion_lon": 0.0, "fusion_lat": 0.0, "type": "electric_scooter", "name": "05e9eaf2eb597044473525c5140ee75c", "is_disabled": 0, "rental_uris": {"ios": "https://dc.lft.to/lastmile_qr_scan", "android": "https://dc.lft.to/lastmile_qr_scan"}, "is_reserved": 0}, {"lon": -77.05249483333333, "bike_id": "ffa756b2b1843c8a5d1db5ec00390ec1", "lat": 38.899949, "fusion_lon": 0.0, "fusion_lat": 0.0, "type": "electric_scooter", "name": "ffa756b2b1843c8a5d1db5ec00390ec1", "is_disabled": 0, "rental_uris": {"ios": "https://dc.lft.to/lastmile_qr_scan", "android": "https://dc.lft.to/lastmile_qr_scan"}, "is_reserved": 0}, {"lon": -77.0095065, "bike_id": "e0681b742b8add5252392c17bd7b6843", "lat": 38.897361833333335, "fusion_lon": 0.0, "fusion_lat": 0.0, "type": "electric_scooter", "name": "e0681b742b8add5252392c17bd7b6843", "is_disabled": 0, "rental_uris": {"ios": "https://dc.lft.to/lastmile_qr_scan", "android": "https://dc.lft.to/lastmile_qr_scan"}, "is_reserved": 0}, {"lon": -77.06529983333333, "bike_id": "c517dd00283df10d9f9e9973defc9614", "lat": 38.947415166666666, "fusion_lon": 0.0, "fusion_lat": 0.0, "type": "electric_scooter", "name": "c517dd00283df10d9f9e9973defc9614", "is_disabled": 0, "rental_uris": {"ios": "https://dc.lft.to/lastmile_qr_scan", "android": "https://dc.lft.to/lastmile_qr_scan"}, "is_reserved": 0}, {"lon": -77.002868, "bike_id": "beb500f7332b73ec4b5d607819284018", "lat": 38.95704883333333, "fusion_lon": 0.0, "fusion_lat": 0.0, "type": "electric_bike", "name": "beb500f7332b73ec4b5d607819284018", "is_disabled": 0, "rental_uris": {"ios": "https://dc.lft.to/lastmile_qr_scan", "android": "https://dc.lft.to/lastmile_qr_scan"}, "is_reserved": 0}, {"lon": -76.99523183333334, "bike_id": "6382969709cec6c0612f62103b5a10c1", "lat": 38.87761016666666, "fusion_lon": 0.0, "fusion_lat": 0.0, "type": "electric_scooter", "name": "6382969709cec6c0612f62103b5a10c1", "is_disabled": 0, "rental_uris": {"ios": "https://dc.lft.to/lastmile_qr_scan", "android": "https://dc.lft.to/lastmile_qr_scan"}, "is_reserved": 0}, {"lon": -77.03398533333333, "bike_id": "4b5db4f4d33241187217fbc15a98b787", "lat": 38.96034916666667, "fusion_lon": 0.0, "fusion_lat": 0.0, "type": "electric_bike", "name": "4b5db4f4d33241187217fbc15a98b787", "is_disabled": 0, "rental_uris": {"ios": "https://dc.lft.to/lastmile_qr_scan", "android": "https://dc.lft.to/lastmile_qr_scan"}, "is_reserved": 0}, {"lon": -77.02521633333333, "bike_id": "9a811b1e1f661439c7c75e407e5f9823", "lat": 38.91684516666667, "fusion_lon": 0.0, "fusion_lat": 0.0, "type": "electric_scooter", "name": "9a811b1e1f661439c7c75e407e5f9823", "is_disabled": 0, "rental_uris": {"ios": "https://dc.lft.to/lastmile_qr_scan", "android": "https://dc.lft.to/lastmile_qr_scan"}, "is_reserved": 0}, {"lon": -77.0090865, "bike_id": "ebe2a6775a5aae174e4ba27a6defed07", "lat": 38.8955025, "fusion_lon": 0.0, "fusion_lat": 0.0, "type": "electric_scooter", "name": "ebe2a6775a5aae174e4ba27a6defed07", "is_disabled": 0, "rental_uris": {"ios": "https://dc.lft.to/lastmile_qr_scan", "android": "https://dc.lft.to/lastmile_qr_scan"}, "is_reserved": 0}, {"lon": -76.9978255, "bike_id": "894d26b95d98067f62e216d76acdeb40", "lat": 38.84430116666667, "fusion_lon": 0.0, "fusion_lat": 0.0, "type": "electric_scooter", "name": "894d26b95d98067f62e216d76acdeb40", "is_disabled": 0, "rental_uris": {"ios": "https://dc.lft.to/lastmile_qr_scan", "android": "https://dc.lft.to/lastmile_qr_scan"}, "is_reserved": 0}, {"lon": -76.9988975, "bike_id": "63c31f7682eb4e7f4e1cf9f247637dd8", "lat": 38.92057766666667, "fusion_lon": 0.0, "fusion_lat": 0.0, "type": "electric_scooter", "name": "63c31f7682eb4e7f4e1cf9f247637dd8", "is_disabled": 0, "rental_uris": {"ios": "https://dc.lft.to/lastmile_qr_scan", "android": "https://dc.lft.to/lastmile_qr_scan"}, "is_reserved": 0}, {"lon": -77.0415375, "bike_id": "9f84a5f2652261d41637fcfbe675a50f", "lat": 38.9175295, "fusion_lon": 0.0, "fusion_lat": 0.0, "type": "electric_scooter", "name": "9f84a5f2652261d41637fcfbe675a50f", "is_disabled": 0, "rental_uris": {"ios": "https://dc.lft.to/lastmile_qr_scan", "android": "https://dc.lft.to/lastmile_qr_scan"}, "is_reserved": 0}, {"lon": -77.09167233333334, "bike_id": "d0f0f0f74e235519cc60da7706bf40bc", "lat": 38.94559616666667, "fusion_lon": 0.0, "fusion_lat": 0.0, "type": "electric_scooter", "name": "d0f0f0f74e235519cc60da7706bf40bc", "is_disabled": 0, "rental_uris": {"ios": "https://dc.lft.to/lastmile_qr_scan", "android": "https://dc.lft.to/lastmile_qr_scan"}, "is_reserved": 0}, {"lon": -77.02408933333334, "bike_id": "d5247f2da1d8f57c7c5b984d016729c1", "lat": 38.90688266666667, "fusion_lon": 0.0, "fusion_lat": 0.0, "type": "electric_scooter", "name": "d5247f2da1d8f57c7c5b984d016729c1", "is_disabled": 0, "rental_uris": {"ios": "https://dc.lft.to/lastmile_qr_scan", "android": "https://dc.lft.to/lastmile_qr_scan"}, "is_reserved": 0}, {"lon": -76.94426416666667, "bike_id": "fd8b9882e2f02c67bf6c85dc00097d19", "lat": 38.966218, "fusion_lon": 0.0, "fusion_lat": 0.0, "type": "electric_bike", "name": "fd8b9882e2f02c67bf6c85dc00097d19", "is_disabled": 0, "rental_uris": {"ios": "https://dc.lft.to/lastmile_qr_scan", "android": "https://dc.lft.to/lastmile_qr_scan"}, "is_reserved": 0}, {"lon": -76.98840083333333, "bike_id": "4bd8ba2e5c4f1074408320205bfd1ccf", "lat": 38.8428165, "fusion_lon": 0.0, "fusion_lat": 0.0, "type": "electric_bike", "name": "4bd8ba2e5c4f1074408320205bfd1ccf", "is_disabled": 0, "rental_uris": {"ios": "https://dc.lft.to/lastmile_qr_scan", "android": "https://dc.lft.to/lastmile_qr_scan"}, "is_reserved": 0}, {"lon": -77.038233, "bike_id": "898fad4272a26cf6486a2655a6fd1287", "lat": 38.910411333333336, "fusion_lon": 0.0, "fusion_lat": 0.0, "type": "electric_scooter", "name": "898fad4272a26cf6486a2655a6fd1287", "is_disabled": 0, "rental_uris": {"ios": "https://dc.lft.to/lastmile_qr_scan", "android": "https://dc.lft.to/lastmile_qr_scan"}, "is_reserved": 0}, {"lon": -77.0280745, "bike_id": "4223c8890f88a187f445cc0dca8cc372", "lat": 38.928723, "fusion_lon": 0.0, "fusion_lat": 0.0, "type": "electric_scooter", "name": "4223c8890f88a187f445cc0dca8cc372", "is_disabled": 0, "rental_uris": {"ios": "https://dc.lft.to/lastmile_qr_scan", "android": "https://dc.lft.to/lastmile_qr_scan"}, "is_reserved": 0}, {"lon": -77.05888633333333, "bike_id": "a62ee9b0d3feabb03d1b927ee71dce24", "lat": 38.93637916666667, "fusion_lon": 0.0, "fusion_lat": 0.0, "type": "electric_scooter", "name": "a62ee9b0d3feabb03d1b927ee71dce24", "is_disabled": 0, "rental_uris": {"ios": "https://dc.lft.to/lastmile_qr_scan", "android": "https://dc.lft.to/lastmile_qr_scan"}, "is_reserved": 0}, {"lon": -76.99426383333333, "bike_id": "3ca85c11c4da85c269661892bb444db0", "lat": 38.836039666666665, "fusion_lon": 0.0, "fusion_lat": 0.0, "type": "electric_scooter", "name": "3ca85c11c4da85c269661892bb444db0", "is_disabled": 0, "rental_uris": {"ios": "https://dc.lft.to/lastmile_qr_scan", "android": "https://dc.lft.to/lastmile_qr_scan"}, "is_reserved": 0}, {"lon": -76.942115, "bike_id": "e31a7a9cd5064022c96f95d9804f70bb", "lat": 38.893164166666665, "fusion_lon": 0.0, "fusion_lat": 0.0, "type": "electric_bike", "name": "e31a7a9cd5064022c96f95d9804f70bb", "is_disabled": 0, "rental_uris": {"ios": "https://dc.lft.to/lastmile_qr_scan", "android": "https://dc.lft.to/lastmile_qr_scan"}, "is_reserved": 0}, {"lon": -77.034891, "bike_id": "b19eb1ac395b562e9a7aac3d2948fe71", "lat": 38.93268666666667, "fusion_lon": 0.0, "fusion_lat": 0.0, "type": "electric_scooter", "name": "b19eb1ac395b562e9a7aac3d2948fe71", "is_disabled": 0, "rental_uris": {"ios": "https://dc.lft.to/lastmile_qr_scan", "android": "https://dc.lft.to/lastmile_qr_scan"}, "is_reserved": 0}, {"lon": -76.99509683333333, "bike_id": "772dcebf19ef23b4604a24af519ebd18", "lat": 38.88350533333333, "fusion_lon": 0.0, "fusion_lat": 0.0, "type": "electric_scooter", "name": "772dcebf19ef23b4604a24af519ebd18", "is_disabled": 0, "rental_uris": {"ios": "https://dc.lft.to/lastmile_qr_scan", "android": "https://dc.lft.to/lastmile_qr_scan"}, "is_reserved": 0}, {"lon": -77.02549716666667, "bike_id": "a4dcd6dcc04a0836b5f46d564448b906", "lat": 38.94148333333333, "fusion_lon": 0.0, "fusion_lat": 0.0, "type": "electric_scooter", "name": "a4dcd6dcc04a0836b5f46d564448b906", "is_disabled": 0, "rental_uris": {"ios": "https://dc.lft.to/lastmile_qr_scan", "android": "https://dc.lft.to/lastmile_qr_scan"}, "is_reserved": 0}, {"lon": -77.1016045, "bike_id": "17922fa8b0beedad85e8a19d51f510ce", "lat": 38.92528866666667, "fusion_lon": 0.0, "fusion_lat": 0.0, "type": "electric_scooter", "name": "17922fa8b0beedad85e8a19d51f510ce", "is_disabled": 0, "rental_uris": {"ios": "https://dc.lft.to/lastmile_qr_scan", "android": "https://dc.lft.to/lastmile_qr_scan"}, "is_reserved": 0}, {"lon": -77.0418105, "bike_id": "29044b8ea7e4541246a47fb975566c07", "lat": 38.9177265, "fusion_lon": 0.0, "fusion_lat": 0.0, "type": "electric_scooter", "name": "29044b8ea7e4541246a47fb975566c07", "is_disabled": 0, "rental_uris": {"ios": "https://dc.lft.to/lastmile_qr_scan", "android": "https://dc.lft.to/lastmile_qr_scan"}, "is_reserved": 0}, {"lon": -77.04537933333333, "bike_id": "de55b1c9bdd713127e9b59861bbf1625", "lat": 38.9133035, "fusion_lon": 0.0, "fusion_lat": 0.0, "type": "electric_scooter", "name": "de55b1c9bdd713127e9b59861bbf1625", "is_disabled": 0, "rental_uris": {"ios": "https://dc.lft.to/lastmile_qr_scan", "android": "https://dc.lft.to/lastmile_qr_scan"}, "is_reserved": 0}, {"lon": -77.02215116666666, "bike_id": "a8428de4c581290d866ab781f4eb1341", "lat": 38.95107083333333, "fusion_lon": 0.0, "fusion_lat": 0.0, "type": "electric_scooter", "name": "a8428de4c581290d866ab781f4eb1341", "is_disabled": 0, "rental_uris": {"ios": "https://dc.lft.to/lastmile_qr_scan", "android": "https://dc.lft.to/lastmile_qr_scan"}, "is_reserved": 0},