{"data": {"bikes": [{"is_disabled": 0, "is_reserved": 0, "fusion_lat": 0.0, "lat": 38.90254433333333, "fusion_lon": 0.0, "rental_uris": {"ios": "https://dc.lft.to/lastmile_qr_scan", "android": "https://dc.lft.to/lastmile_qr_scan"}, "lon": -77.0265265, "bike_id": "1af94af084d9be6a5036a1a7a71cdffa", "type": "electric_scooter", "name": "1af94af084d9be6a5036a1a7a71cdffa"}, {"is_disabled": 0, "is_reserved": 0, "fusion_lat": 0.0, "lat": 38.90727416666667, "fusion_lon": 0.0, "rental_uris": {"ios": "https://dc.lft.to/lastmile_qr_scan", "android": "https://dc.lft.to/lastmile_qr_scan"}, "lon": -77.009533, "bike_id": "c86d0bbacbabc54252f17a331682b3e9", "type": "electric_scooter", "name": "c86d0bbacbabc54252f17a331682b3e9"}, {"is_disabled": 0, "is_reserved": 0, "fusion_lat": 0.0, "lat": 38.89597083333334, "fusion_lon": 0.0, "rental_uris": {"ios": "https://dc.lft.to/lastmile_qr_scan", "android": "https://dc.lft.to/lastmile_qr_scan"}, "lon": -77.02662216666667, "bike_id": "b86c331de650f01f57c2c8441a3cfed9", "type": "electric_scooter", "name": "b86c331de650f01f57c2c8441a3cfed9"}, {"is_disabled": 0, "is_reserved": 0, "fusion_lat": 0.0, "lat": 38.91350933333333, "fusion_lon": 0.0, "rental_uris": {"ios": "https://dc.lft.to/lastmile_qr_scan", "android": "https://dc.lft.to/lastmile_qr_scan"}, "lon": -76.971399, "bike_id": "6f6160524570c582752aba6a64c71c04", "type": "electric_scooter", "name": "6f6160524570c582752aba6a64c71c04"}, {"is_disabled": 0, "is_reserved": 0, "fusion_lat": 0.0, "lat": 38.92507766666667, "fusion_lon": 0.0, "rental_uris": {"ios": "https://dc.lft.to/lastmile_qr_scan", "android": "https://dc.lft.to/lastmile_qr_scan"}, "lon": -77.023609, "bike_id": "5a537e3b9620604796da60956e457d9b", "type": "electric_scooter", "name": "5a537e3b9620604796da60956e457d9b"}, {"is_disabled": 0, "is_reserved": 0, "fusion_lat": 0.0, "lat": 38.917086166666664, "fusion_lon": 0.0, "rental_uris": {"ios": "https://dc.lft.to/lastmile_qr_scan", "android": "https://dc.lft.to/lastmile_qr_scan"}, "lon": -77.032115, "bike_id": "ec86b2a4fad12427021ec364836a8dcf", "type": "electric_scooter", "name": "ec86b2a4fad12427021ec364836a8dcf"}, {"is_disabled": 0, "is_reserved": 0, "fusion_lat": 0.0, "lat": 38.936810333333334, "fusion_lon": 0.0, "rental_uris": {"ios": "https://dc.lft.to/lastmile_qr_scan", "android": "https://dc.lft.to/lastmile_qr_scan"}, "lon": -77.05846533333333, "bike_id": "02ffdd674f4104b9a28d899565864aed", "type": "electric_scooter", "name": "02ffdd674f4104b9a28d899565864aed"}, {"is_disabled": 0, "is_reserved": 0, "fusion_lat": 0.0, "lat": 38.91717583333333, "fusion_lon": 0.0, "rental_uris": {"ios": "https://dc.lft.to/lastmile_qr_scan", "android": "https://dc.lft.to/lastmile_qr_scan"}, "lon": -77.03860716666667, "bike_id": "e6ef2e1e9be0b34a3dc3964a39228bcf", "type": "electric_scooter", "name": "e6ef2e1e9be0b34a3dc3964a39228bcf"}, {"is_disabled": 0, "is_reserved": 0, "fusion_lat": 0.0, "lat": 38.91030933333333, "fusion_lon": 0.0, "rental_uris": {"ios": "https://dc.lft.to/lastmile_qr_scan", "android": "https://dc.lft.to/lastmile_qr_scan"}, "lon": -76.9233375, "bike_id": "b19dc9316a1fe928c941e6d1384cc89a", "type": "electric_bike", "name": "b19dc9316a1fe928c941e6d1384cc89a"}, {"is_disabled": 0, "is_reserved": 0, "fusion_lat": 0.0, "lat": 38.90593283333333, "fusion_lon": 0.0, "rental_uris": {"ios": "https://dc.lft.to/lastmile_qr_scan", "android": "https://dc.lft.to/lastmile_qr_scan"}, "lon": -77.06529216666667, "bike_id": "3191558802fa10112a34a457f9a6cc8d", "type": "electric_scooter", "name": "3191558802fa10112a34a457f9a6cc8d"}, {"is_disabled": 0, "is_reserved": 0, "fusion_lat": 0.0, "lat": 38.9226675, "fusion_lon": 0.0, "rental_uris": {"ios": "https://dc.lft.to/lastmile_qr_scan", "android": "https://dc.lft.to/lastmile_qr_scan"}, "lon": -77.03639033333333, "bike_id": "0dea39e02b8862aef7ad3c23d9da49be", "type": "electric_scooter", "name": "0dea39e02b8862aef7ad3c23d9da49be"}, {"is_disabled": 0, "is_reserved": 0, "fusion_lat": 0.0, "lat": 38.86554683333333, "fusion_lon": 0.0, "rental_uris": {"ios": "https://dc.lft.to/lastmile_qr_scan", "android": "https://dc.lft.to/lastmile_qr_scan"}, "lon": -76.97475683333333, "bike_id": "2bf785868e12c39db4a2b7564d3f02a1", "type": "electric_bike", "name": "2bf785868e12c39db4a2b7564d3f02a1"}, {"is_disabled": 0, "is_reserved": 0, "fusion_lat": 0.0, "lat": 38.8731165, "fusion_lon": 0.0, "rental_uris": {"ios": "https://dc.lft.to/lastmile_qr_scan", "android": "https://dc.lft.to/lastmile_qr_scan"}, "lon": -77.01073933333333, "bike_id": "992e4fc3849a0a8827bcfb01d1074b28", "type": "electric_scooter", "name": "992e4fc3849a0a8827bcfb01d1074b28"}, {"is_disabled": 0, "is_reserved": 0, "fusion_lat": 0.0, "lat": 38.900764, "fusion_lon": 0.0, "rental_uris": {"ios": "https://dc.lft.to/lastmile_qr_scan", "android": "https://dc.lft.to/lastmile_qr_scan"}, "lon": -77.03836383333334, "bike_id": "561484edec27ab436bdf049f83f42bfb", "type": "electric_scooter", "name": "561484edec27ab436bdf049f83f42bfb"}, {"is_disabled": 0, "is_reserved": 0, "fusion_lat": 0.0, "lat": 38.82428383333333, "fusion_lon": 0.0, "rental_uris": {"ios": "https://dc.lft.to/lastmile_qr_scan", "android": "https://dc.lft.to/lastmile_qr_scan"}, "lon": -77.12044116666667, "bike_id": "9e6742f2aa50bd5c74156f40d115a628", "type": "electric_bike", "name": "9e6742f2aa50bd5c74156f40d115a628"}, {"is_disabled": 0, "is_reserved": 0, "fusion_lat": 0.0, "lat": 38.897357166666666, "fusion_lon": 0.0, "rental_uris": {"ios": "https://dc.lft.to/lastmile_qr_scan", "android": "https://dc.lft.to/lastmile_qr_scan"}, "lon": -77.02729233333334, "bike_id": "942007ef7c3466f2d08f68d0cf606a65", "type": "electric_scooter", "name": "942007ef7c3466f2d08f68d0cf606a65"}, {"is_disabled": 0, "is_reserved": 0, "fusion_lat": 0.0, "lat": 38.856415, "fusion_lon": 0.0, "rental_uris": {"ios": "https://dc.lft.to/lastmile_qr_scan", "android": "https://dc.lft.to/lastmile_qr_scan"}, "lon": -77.0683325, "bike_id": "3cf2f4e3f4e5fe813c936c023787ed74", "type": "electric_bike", "name": "3cf2f4e3f4e5fe813c936c023787ed74"}, {"is_disabled": 0, "is_reserved": 0, "fusion_lat": 0.0, "lat": 38.88221016666667, "fusion_lon": 0.0, "rental_uris": {"ios": "https://dc.lft.to/lastmile_qr_scan", "android": "https://dc.lft.to/lastmile_qr_scan"}, "lon": -76.99733316666666, "bike_id": "9481000dfcd3151482268804c8d13b0c", "type": "electric_scooter", "name": "9481000dfcd3151482268804c8d13b0c"}, {"is_disabled": 0, "is_reserved": 0, "fusion_lat": 0.0, "lat": 38.917060166666666, "fusion_lon": 0.0, "rental_uris": {"ios": "https://dc.lft.to/lastmile_qr_scan", "android": "https://dc.lft.to/lastmile_qr_scan"}, "lon": -77.0285055, "bike_id": "41c67e858b6e930c55de415c5cac51a6", "type": "electric_scooter", "name": "41c67e858b6e930c55de415c5cac51a6"}, {"is_disabled": 0, "is_reserved": 0, "fusion_lat": 0.0, "lat": 39.042355666666666, "fusion_lon": 0.0, "rental_uris": {"ios": "https://dc.lft.to/lastmile_qr_scan", "android": "https://dc.lft.to/lastmile_qr_scan"}, "lon": -76.99738216666667, "bike_id": "7b1e4b0adb6384fa49820405c2bf35f4", "type": "electric_bike", "name": "7b1e4b0adb6384fa49820405c2bf35f4"}, {"is_disabled": 0, "is_reserved": 0, "fusion_lat": 0.0, "lat": 38.908931833333334, "fusion_lon": 0.0, "rental_uris": {"ios": "https://dc.lft.to/lastmile_qr_scan", "android": "https://dc.lft.to/lastmile_qr_scan"}, "lon": -77.04662333333333, "bike_id": "22f7edd5ab57c3e7212c5620d6ec697d", "type": "electric_scooter", "name": "22f7edd5ab57c3e7212c5620d6ec697d"}, {"is_disabled": 0, "is_reserved": 0, "fusion_lat": 0.0, "lat": 38.9119275, "fusion_lon": 0.0, "rental_uris": {"ios": "https://dc.lft.to/lastmile_qr_scan", "android": "https://dc.lft.to/lastmile_qr_scan"}, "lon": -77.004423, "bike_id": "b1d675ceecff95268d6a6eeafda5690a", "type": "electric_scooter", "name": "b1d675ceecff95268d6a6eeafda5690a"}, {"is_disabled": 0, "is_reserved": 0, "fusion_lat": 0.0, "lat": 38.883745166666664, "fusion_lon": 0.0, "rental_uris": {"ios": "https://dc.lft.to/lastmile_qr_scan", "android": "https://dc.lft.to/lastmile_qr_scan"}, "lon": -76.995166, "bike_id": "ce40cd952b8fef134ed60c8878d1a2c6", "type": "electric_scooter", "name": "ce40cd952b8fef134ed60c8878d1a2c6"}, {"is_disabled": 0, "is_reserved": 0, "fusion_lat": 0.0, "lat": 38.9507115, "fusion_lon": 0.0, "rental_uris": {"ios": "https://dc.lft.to/lastmile_qr_scan", "android": "https://dc.lft.to/lastmile_qr_scan"}, "lon": -76.9960135, "bike_id": "09dd4e3f27be8cc67d209652a668a397", "type": "electric_bike", "name": "09dd4e3f27be8cc67d209652a668a397"}, {"is_disabled": 0, "is_reserved": 0, "fusion_lat": 0.0, "lat": 38.89492216666667, "fusion_lon": 0.0, "rental_uris": {"ios": "https://dc.lft.to/lastmile_qr_scan", "android": "https://dc.lft.to/lastmile_qr_scan"}, "lon": -77.002608, "bike_id": "ec9ae967a08396e1d09dcb580a673aa2", "type": "electric_scooter", "name": "ec9ae967a08396e1d09dcb580a673aa2"}, {"is_disabled": 0, "is_reserved": 0, "fusion_lat": 0.0, "lat": 38.9984945, "fusion_lon": 0.0, "rental_uris": {"ios": "https://dc.lft.to/lastmile_qr_scan", "android": "https://dc.lft.to/lastmile_qr_scan"}, "lon": -77.0024755, "bike_id": "0a6af7df8c54629e9e4833399b8b56ab", "type": "electric_bike", "name": "0a6af7df8c54629e9e4833399b8b56ab"}, {"is_disabled": 0, "is_reserved": 0, "fusion_lat": 0.0, "lat": 38.8624075, "fusion_lon": 0.0, "rental_uris": {"ios": "https://dc.lft.to/lastmile_qr_scan", "android": "https://dc.lft.to/lastmile_qr_scan"}, "lon": -76.99517433333334, "bike_id": "195c0a0f9762f26681c9c60d2e1520e8", "type": "electric_scooter", "name": "195c0a0f9762f26681c9c60d2e1520e8"}, {"is_disabled": 0, "is_reserved": 0, "fusion_lat": 0.0, "lat": 38.9127465, "fusion_lon": 0.0, "rental_uris": {"ios": "https://dc.lft.to/lastmile_qr_scan", "android": "https://dc.lft.to/lastmile_qr_scan"}, "lon": -77.04657583333334, "bike_id": "10d3e85fc31a803eabfb060ac8127bf4", "type": "electric_scooter", "name": "10d3e85fc31a803eabfb060ac8127bf4"}, {"is_disabled": 0, "is_reserved": 0, "fusion_lat": 0.0, "lat": 38.92443083333333, "fusion_lon": 0.0, "rental_uris": {"ios": "https://dc.lft.to/lastmile_qr_scan", "android": "https://dc.lft.to/lastmile_qr_scan"}, "lon": -77.0403095, "bike_id": "97330979134d371385f0d7e1f865760b", "type": "electric_scooter", "name": "97330979134d371385f0d7e1f865760b"}, {"is_disabled": 0, "is_reserved": 0, "fusion_lat": 0.0, "lat": 38.89015083333334, "fusion_lon": 0.0, "rental_uris": {"ios": "https://dc.lft.to/lastmile_qr_scan", "android": "https://dc.lft.to/lastmile_qr_scan"}, "lon": -76.93736466666667, "bike_id": "58b61a142a8aec31ef92e14369db9b9b", "type": "electric_scooter", "name": "58b61a142a8aec31ef92e14369db9b9b"}, {"is_disabled": 0, "is_reserved": 0, "fusion_lat": 0.0, "lat": 38.894255, "fusion_lon": 0.0, "rental_uris": {"ios": "https://dc.lft.to/lastmile_qr_scan", "android": "https://dc.lft.to/lastmile_qr_scan"}, "lon": -77.02131416666667, "bike_id": "ee91d4ed21b6a16129cbcdf1b4808992", "type": "electric_scooter", "name": "ee91d4ed21b6a16129cbcdf1b4808992"}, {"is_disabled": 0, "is_reserved": 0, "fusion_lat": 0.0, "lat": 38.93523916666667, "fusion_lon": 0.0, "rental_uris": {"ios": "https://dc.lft.to/lastmile_qr_scan", "android": "https://dc.lft.to/lastmile_qr_scan"}, "lon": -77.03816666666667, "bike_id": "7ae48476e930c63590cce35721fdf387", "type": "electric_scooter", "name": "7ae48476e930c63590cce35721fdf387"}, {"is_disabled": 0, "is_reserved": 0, "fusion_lat": 0.0, "lat": 38.96178533333333, "fusion_lon": 0.0, "rental_uris": {"ios": "https://dc.lft.to/lastmile_qr_scan", "android": "https://dc.lft.to/lastmile_qr_scan"}, "lon": -77.03228683333333, "bike_id": "8ec6c2713dc9fa5d86a0afae3e8e4f6e", "type": "electric_scooter", "name": "8ec6c2713dc9fa5d86a0afae3e8e4f6e"}, {"is_disabled": 0, "is_reserved": 0, "fusion_lat": 0.0, "lat": 38.943406, "fusion_lon": 0.0, "rental_uris": {"ios": "https://dc.lft.to/lastmile_qr_scan", "android": "https://dc.lft.to/lastmile_qr_scan"}, "lon": -77.0612695, "bike_id": "5dc51f3b15623a77c36148d9aec04b98", "type": "electric_scooter", "name": "5dc51f3b15623a77c36148d9aec04b98"}, {"is_disabled": 0, "is_reserved": 0, "fusion_lat": 0.0, "lat": 38.894369, "fusion_lon": 0.0, "rental_uris": {"ios": "https://dc.lft.to/lastmile_qr_scan", "android": "https://dc.lft.to/lastmile_qr_scan"}, "lon": -77.02203533333333, "bike_id": "1fd6e85dd6b2d108c7508905c5d07063", "type": "electric_scooter", "name": "1fd6e85dd6b2d108c7508905c5d07063"}, {"is_disabled": 0, "is_reserved": 0, "fusion_lat": 0.0, "lat": 38.912619666666664, "fusion_lon": 0.0, "rental_uris": {"ios": "https://dc.lft.to/lastmile_qr_scan", "android": "https://dc.lft.to/lastmile_qr_scan"}, "lon": -77.03868166666666, "bike_id": "492b78d9185ea8c2e6115a11fc9bb50e", "type": "electric_scooter", "name": "492b78d9185ea8c2e6115a11fc9bb50e"}, {"is_disabled": 0, "is_reserved": 0, "fusion_lat": 0.0, "lat": 38.949817833333334, "fusion_lon": 0.0, "rental_uris": {"ios": "https://dc.lft.to/lastmile_qr_scan", "android": "https://dc.lft.to/lastmile_qr_scan"}, "lon": -77.02447683333334, "bike_id": "df7f05ec4eed55a6737782a8b18dd8e3", "type": "electric_scooter", "name": "df7f05ec4eed55a6737782a8b18dd8e3"}, {"is_disabled": 0, "is_reserved": 0, "fusion_lat": 0.0, "lat": 38.90723083333334, "fusion_lon": 0.0, "rental_uris": {"ios": "https://dc.lft.to/lastmile_qr_scan", "android": "https://dc.lft.to/lastmile_qr_scan"}, "lon": -77.0335465, "bike_id": "9cfcea19a14f832079a6ae8f5690fe36", "type": "electric_scooter", "name": "9cfcea19a14f832079a6ae8f5690fe36"}, {"is_disabled": 0, "is_reserved": 0, "fusion_lat": 0.0, "lat": 38.93697383333333, "fusion_lon": 0.0, "rental_uris": {"ios": "https://dc.lft.to/lastmile_qr_scan", "android": "https://dc.lft.to/lastmile_qr_scan"}, "lon": -77.05688066666667, "bike_id": "8d2ac8b029008da54e61c87929f700ab", "type": "electric_scooter", "name": "8d2ac8b029008da54e61c87929f700ab"}, {"is_disabled": 0, "is_reserved": 0, "fusion_lat": 0.0, "lat": 38.89233316666667, "fusion_lon": 0.0, "rental_uris": {"ios": "https://dc.lft.to/lastmile_qr_scan", "android": "https://dc.lft.to/lastmile_qr_scan"}, "lon": -77.03188866666666, "bike_id": "2c2b83a267cfc449933916a51d914e32", "type": "electric_scooter", "name": "2c2b83a267cfc449933916a51d914e32"}, {"is_disabled": 0, "is_reserved": 0, "fusion_lat": 0.0, "lat": 38.87615866666667, "fusion_lon": 0.0, "rental_uris": {"ios": "https://dc.lft.to/lastmile_qr_scan", "android": "https://dc.lft.to/lastmile_qr_scan"}, "lon": -77.0080565, "bike_id": "94715bab27d10579c956d475ed335e0c", "type": "electric_scooter", "name": "94715bab27d10579c956d475ed335e0c"}, {"is_disabled": 0, "is_reserved": 0, "fusion_lat": 0.0, "lat": 38.897315666666664, "fusion_lon": 0.0, "rental_uris": {"ios": "https://dc.lft.to/lastmile_qr_scan", "android": "https://dc.lft.to/lastmile_qr_scan"}, "lon": -77.04373316666667, "bike_id": "90b570bf80d09151ed4c74c5085cdd3c", "type": "electric_scooter", "name": "90b570bf80d09151ed4c74c5085cdd3c"}, {"is_disabled": 0, "is_reserved": 0, "fusion_lat": 0.0, "lat": 38.9168315, "fusion_lon": 0.0, "rental_uris": {"ios": "https://dc.lft.to/lastmile_qr_scan", "android": "https://dc.lft.to/lastmile_qr_scan"}, "lon": -77.02972016666666, "bike_id": "18023249d18930c37af960f4ea7f9b36", "type": "electric_scooter", "name": "18023249d18930c37af960f4ea7f9b36"}, {"is_disabled": 0, "is_reserved": 0, "fusion_lat": 0.0, "lat": 38.920881333333334, "fusion_lon": 0.0, "rental_uris": {"ios": "https://dc.lft.to/lastmile_qr_scan", "android": "https://dc.lft.to/lastmile_qr_scan"}, "lon": -77.02406016666667, "bike_id": "251f5a9631a0310002d8c17631bd8564", "type": "electric_scooter", "name": "251f5a9631a0310002d8c17631bd8564"}, {"is_disabled": 0, "is_reserved": 0, "fusion_lat": 0.0, "lat": 38.8980305, "fusion_lon": 0.0, "rental_uris": {"ios": "https://dc.lft.to/lastmile_qr_scan", "android": "https://dc.lft.to/lastmile_qr_scan"}, "lon": -77.0248125, "bike_id": "b92d90864656185505f32a9e0e06839d", "type": "electric_scooter", "name": "b92d90864656185505f32a9e0e06839d"}, {"is_disabled": 0, "is_reserved": 0, "fusion_lat": 0.0, "lat": 38.91270466666667, "fusion_lon": 0.0, "rental_uris": {"ios": "https://dc.lft.to/lastmile_qr_scan", "android": "https://dc.lft.to/lastmile_qr_scan"}, "lon": -77.041703, "bike_id": "ea58588f643097997d2ad7b76bfaf1bd", "type": "electric_scooter", "name": "ea58588f643097997d2ad7b76bfaf1bd"}, {"is_disabled": 0, "is_reserved": 0, "fusion_lat": 0.0, "lat": 38.92975783333333, "fusion_lon": 0.0, "rental_uris": {"ios": "https://dc.lft.to/lastmile_qr_scan", "android": "https://dc.lft.to/lastmile_qr_scan"}, "lon": -77.03080883333334, "bike_id": "9c734c49c488062038666a3319436346", "type": "electric_scooter", "name": "9c734c49c488062038666a3319436346"}, {"is_disabled": 0, "is_reserved": 0, "fusion_lat": 0.0, "lat": 38.9248415, "fusion_lon": 0.0, "rental_uris": {"ios": "https://dc.lft.to/lastmile_qr_scan", "android": "https://dc.lft.to/lastmile_qr_scan"}, "lon": -77.02790566666667, "bike_id": "5fda183fedb64ab64feeba1e269e0287", "type": "electric_bike", "name": "5fda183fedb64ab64feeba1e269e0287"}, {"is_disabled": 0, "is_reserved": 0, "fusion_lat": 0.0, "lat": 38.8785875, "fusion_lon": 0.0, "rental_uris": {"ios": "https://dc.lft.to/lastmile_qr_scan", "android": "https://dc.lft.to/lastmile_qr_scan"}, "lon": -77.01766616666667, "bike_id": "c69622e4332185adbd75da19b8290630", "type": "electric_scooter", "name": "c69622e4332185adbd75da19b8290630"}, {"is_disabled": 0, "is_reserved": 0, "fusion_lat": 0.0, "lat": 38.927482833333336, "fusion_lon": 0.0, "rental_uris": {"ios": "https://dc.lft.to/lastmile_qr_scan", "android": "https://dc.lft.to/lastmile_qr_scan"}, "lon": -77.033049, "bike_id": "52c90e067863ab9f7d2bae3d1df6434b", "type": "electric_scooter", "name": "52c90e067863ab9f7d2bae3d1df6434b"}, {"is_disabled": 0, "is_reserved": 0, "fusion_lat": 0.0, "lat": 38.908440666666664, "fusion_lon": 0.0, "rental_uris": {"ios": "https://dc.lft.to/lastmile_qr_scan", "android": "https://dc.lft.to/lastmile_qr_scan"}, "lon": -76.9344395, "bike_id": "d327c0ce19df999db4462286d700a18f", "type": "electric_scooter", "name": "d327c0ce19df999db4462286d700a18f"}, {"is_disabled": 0, "is_reserved": 0, "fusion_lat": 0.0, "lat": 38.944941666666665, "fusion_lon": 0.0, "rental_uris": {"ios": "https://dc.lft.to/lastmile_qr_scan", "android": "https://dc.lft.to/lastmile_qr_scan"}, "lon": -77.00736716666667, "bike_id": "9bc90658312dbb6b8dc7e18ae378e6ee", "type": "electric_bike", "name": "9bc90658312dbb6b8dc7e18ae378e6ee"}, {"is_disabled": 0, "is_reserved": 0, "fusion_lat": 0.0, "lat": 38.967946, "fusion_lon": 0.0, "rental_uris": {"ios": "https://dc.lft.to/lastmile_qr_scan", "android": "https://dc.lft.to/lastmile_qr_scan"}, "lon": -77.02427566666667, "bike_id": "75a61b904e88540a28dd1dfc26bb1eca", "type": "electric_scooter", "name": "75a61b904e88540a28dd1dfc26bb1eca"}, {"is_disabled": 0, "is_reserved": 0, "fusion_lat": 0.0, "lat": 38.920551333333336, "fusion_lon": 0.0, "rental_uris": {"ios": "https://dc.lft.to/lastmile_qr_scan", "android": "https://dc.lft.to/lastmile_qr_scan"}, "lon": -77.04188133333334, "bike_id": "0c5c755682cf2f2bd2160360c2be2ab7", "type": "electric_scooter", "name": "0c5c755682cf2f2bd2160360c2be2ab7"}, {"is_disabled": 0, "is_reserved": 0, "fusion_lat": 0.0, "lat": 38.89376266666667, "fusion_lon": 0.0, "rental_uris": {"ios": "https://dc.lft.to/lastmile_qr_scan", "android": "https://dc.lft.to/lastmile_qr_scan"}, "lon": -77.0220095, "bike_id": "b88b7b6eddc03fb75cbfa44b53bb17a2", "type": "electric_scooter", "name": "b88b7b6eddc03fb75cbfa44b53bb17a2"}, {"is_disabled": 0, "is_reserved": 0, "fusion_lat": 0.0, "lat": 38.927517, "fusion_lon": 0.0, "rental_uris": {"ios": "https://dc.lft.to/lastmile_qr_scan", "android": "https://dc.lft.to/lastmile_qr_scan"}, "lon": -77.0330775, "bike_id": "49132e8bd153eaeb58f6193ef5163831", "type": "electric_scooter", "name": "49132e8bd153eaeb58f6193ef5163831"}, {"is_disabled": 0, "is_reserved": 0, "fusion_lat": 0.0, "lat": 38.90275366666667, "fusion_lon": 0.0, "rental_uris": {"ios": "https://dc.lft.to/lastmile_qr_scan", "android": "https://dc.lft.to/lastmile_qr_scan"}, "lon": -77.01552816666667, "bike_id": "78609eb3295b4ab7a729f52b808cc67a", "type": "electric_scooter", "name": "78609eb3295b4ab7a729f52b808cc67a"}, {"is_disabled": 0, "is_reserved": 0, "fusion_lat": 0.0, "lat": 38.91907883333333, "fusion_lon": 0.0, "rental_uris": {"ios": "https://dc.lft.to/lastmile_qr_scan", "android": "https://dc.lft.to/lastmile_qr_scan"}, "lon": -77.04464316666666, "bike_id": "bc92cee53ad7080f0214f9cb05eb2bb9", "type": "electric_scooter", "name": "bc92cee53ad7080f0214f9cb05eb2bb9"}, {"is_disabled": 0, "is_reserved": 0, "fusion_lat": 0.0, "lat": 38.8988125, "fusion_lon": 0.0, "rental_uris": {"ios": "https://dc.lft.to/lastmile_qr_scan", "android": "https://dc.lft.to/lastmile_qr_scan"}, "lon": -77.03959883333333, "bike_id": "842c66dbac070e7d20a55aecbe368b87", "type": "electric_scooter", "name": "842c66dbac070e7d20a55aecbe368b87"}, {"is_disabled": 0, "is_reserved": 0, "fusion_lat": 0.0, "lat": 38.900807666666665, "fusion_lon": 0.0, "rental_uris": {"ios": "https://dc.lft.to/lastmile_qr_scan", "android": "https://dc.lft.to/lastmile_qr_scan"}, "lon": -77.04696133333333, "bike_id": "f23352c14f0285b5f8b2bdab19864c38", "type": "electric_scooter", "name": "f23352c14f0285b5f8b2bdab19864c38"}, {"is_disabled": 0, "is_reserved": 0, "fusion_lat": 0.0, "lat": 38.9240795, "fusion_lon": 0.0, "rental_uris": {"ios": "https://dc.lft.to/lastmile_qr_scan", "android": "https://dc.lft.to/lastmile_qr_scan"}, "lon": -77.027052, "bike_id": "153752e123a56f11a6753e509b3ea2b3", "type": "electric_scooter", "name": "153752e123a56f11a6753e509b3ea2b3"}, {"is_disabled": 0, "is_reserved": 0, "fusion_lat": 0.0, "lat": 38.8583925, "fusion_lon": 0.0, "rental_uris": {"ios": "https://dc.lft.to/lastmile_qr_scan", "android": "https://dc.lft.to/lastmile_qr_scan"}, "lon": -76.98817816666667, "bike_id": "25efb6d722c8e3e8abc1d232d07bca2e", "type": "electric_scooter", "name": "25efb6d722c8e3e8abc1d232d07bca2e"}, {"is_disabled": 0, "is_reserved": 0, "fusion_lat": 0.0, "lat": 38.900272666666666, "fusion_lon": 0.0, "rental_uris": {"ios": "https://dc.lft.to/lastmile_qr_scan", "android": "https://dc.lft.to/lastmile_qr_scan"}, "lon": -76.9983635, "bike_id": "e15cb9e15821e3b66a7d9b96f2d11e5f", "type": "electric_scooter", "name": "e15cb9e15821e3b66a7d9b96f2d11e5f"}, {"is_disabled": 0, "is_reserved": 0, "fusion_lat": 0.0, "lat": 38.857965166666666, "fusion_lon": 0.0, "rental_uris": {"ios": "https://dc.lft.to/lastmile_qr_scan", "android": "https://dc.lft.to/lastmile_qr_scan"}, "lon": -76.987586, "bike_id": "c4aa23d411e887a0fb54fcc7107595be", "type": "electric_bike", "name": "c4aa23d411e887a0fb54fcc7107595be"}, {"is_disabled": 0, "is_reserved": 0, "fusion_lat": 0.0, "lat": 38.92317833333333, "fusion_lon": 0.0, "rental_uris": {"ios": "https://dc.lft.to/lastmile_qr_scan", "android": "https://dc.lft.to/lastmile_qr_scan"}, "lon": -77.02801916666667, "bike_id": "26e03f38e20d66b74db27ecf3c4c2b62", "type": "electric_scooter", "name": "26e03f38e20d66b74db27ecf3c4c2b62"}, {"is_disabled": 0, "is_reserved": 0, "fusion_lat": 0.0, "lat": 38.897308333333335, "fusion_lon": 0.0, "rental_uris": {"ios": "https://dc.lft.to/lastmile_qr_scan", "android": "https://dc.lft.to/lastmile_qr_scan"}, "lon": -77.02729783333334, "bike_id": "4ef76e351b936314bfbbb6a0b44dc04d", "type": "electric_scooter", "name": "4ef76e351b936314bfbbb6a0b44dc04d"}, {"is_disabled": 0, "is_reserved": 0, "fusion_lat": 0.0, "lat": 38.91404983333334, "fusion_lon": 0.0, "rental_uris": {"ios": "https://dc.lft.to/lastmile_qr_scan", "android": "https://dc.lft.to/lastmile_qr_scan"}, "lon": -77.04579166666667, "bike_id": "e35654ee306ced4b43aaca2d5c6ec70a", "type": "electric_scooter", "name": "e35654ee306ced4b43aaca2d5c6ec70a"}, {"is_disabled": 0, "is_reserved": 0, "fusion_lat": 0.0, "lat": 38.842906, "fusion_lon": 0.0, "rental_uris": {"ios": "https://dc.lft.to/lastmile_qr_scan", "android": "https://dc.lft.to/lastmile_qr_scan"}, "lon": -77.06378066666667, "bike_id": "30a1a53bbb9e0832c08a93111a4ba740", "type": "electric_bike", "name": "30a1a53bbb9e0832c08a93111a4ba740"}, {"is_disabled": 0, "is_reserved": 0, "fusion_lat": 0.0, "lat": 38.9509035, "fusion_lon": 0.0, "rental_uris": {"ios": "https://dc.lft.to/lastmile_qr_scan", "android": "https://dc.lft.to/lastmile_qr_scan"}, "lon": -77.01253116666666, "bike_id": "65151f67bdea29c12b00761c16219820", "type": "electric_bike", "name": "65151f67bdea29c12b00761c16219820"}, {"is_disabled": 0, "is_reserved": 0, "fusion_lat": 0.0, "lat": 38.95250583333333, "fusion_lon": 0.0, "rental_uris": {"ios": "https://dc.lft.to/lastmile_qr_scan", "android": "https://dc.lft.to/lastmile_qr_scan"}, "lon": -77.09622816666666, "bike_id": "218a32eb058131bfca379818a177a5d5", "type": "electric_bike", "name": "218a32eb058131bfca379818a177a5d5"}, {"is_disabled": 0, "is_reserved": 0, "fusion_lat": 0.0, "lat": 38.987154, "fusion_lon": 0.0, "rental_uris": {"ios": "https://dc.lft.to/lastmile_qr_scan", "android": "https://dc.lft.to/lastmile_qr_scan"}, "lon": -77.03763966666666, "bike_id": "965ef604917b62822f4c034464566a20", "type": "electric_bike", "name": "965ef604917b62822f4c034464566a20"}, {"is_disabled": 0, "is_reserved": 0, "fusion_lat": 0.0, "lat": 38.975893, "fusion_lon": 0.0, "rental_uris": {"ios": "https://dc.lft.to/lastmile_qr_scan", "android": "https://dc.lft.to/lastmile_qr_scan"}, "lon": -77.01869116666667, "bike_id": "85206647b37bdfded292cb2453a41be6", "type": "electric_scooter", "name": "85206647b37bdfded292cb2453a41be6"}, {"is_disabled": 0, "is_reserved": 0, "fusion_lat": 0.0, "lat": 38.9156435, "fusion_lon": 0.0, "rental_uris": {"ios": "https://dc.lft.to/lastmile_qr_scan", "android": "https://dc.lft.to/lastmile_qr_scan"}, "lon": -77.03637066666667, "bike_id": "020a748fd994c3d67eccfde7ec884d82", "type": "electric_scooter", "name": "020a748fd994c3d67eccfde7ec884d82"}, {"is_disabled": 0, "is_reserved": 0, "fusion_lat": 0.0, "lat": 38.897419666666664, "fusion_lon": 0.0, "rental_uris": {"ios": "https://dc.lft.to/lastmile_qr_scan", "android": "https://dc.lft.to/lastmile_qr_scan"}, "lon": -77.04548166666666, "bike_id": "7003afaf112005cbc0be759d2481cb5a", "type": "electric_scooter", "name": "7003afaf112005cbc0be759d2481cb5a"}, {"is_disabled": 0, "is_reserved": 0, "fusion_lat": 0.0, "lat": 38.92823966666667, "fusion_lon": 0.0, "rental_uris": {"ios": "https://dc.lft.to/lastmile_qr_scan", "android": "https://dc.lft.to/lastmile_qr_scan"}, "lon": -77.02257016666667, "bike_id": "3e0c2a11968d38cd7287d157fbd04415", "type": "electric_scooter", "name": "3e0c2a11968d38cd7287d157fbd04415"}, {"is_disabled": 0, "is_reserved": 0, "fusion_lat": 0.0, "lat": 38.918311333333335, "fusion_lon": 0.0, "rental_uris": {"ios": "https://dc.lft.to/lastmile_qr_scan", "android": "https://dc.lft.to/lastmile_qr_scan"}, "lon": -77.05312933333333, "bike_id": "0458eb241faea84ef6b7d1dc85a35658", "type": "electric_scooter", "name": "0458eb241faea84ef6b7d1dc85a35658"}, {"is_disabled": 0, "is_reserved": 0, "fusion_lat": 0.0, "lat": 38.907656833333334, "fusion_lon": 0.0, "rental_uris": {"ios": "https://dc.lft.to/lastmile_qr_scan", "android": "https://dc.lft.to/lastmile_qr_scan"}, "lon": -77.04251216666667, "bike_id": "8c4d1424a01081eaf6c771294a0cd948", "type": "electric_scooter", "name": "8c4d1424a01081eaf6c771294a0cd948"}, {"is_disabled": 0, "is_reserved": 0, "fusion_lat": 0.0, "lat": 38.934672166666665, "fusion_lon": 0.0, "rental_uris": {"ios": "https://dc.lft.to/lastmile_qr_scan", "android": "https://dc.lft.to/lastmile_qr_scan"}, "lon": -77.02396583333334, "bike_id": "b508d71f2309869545ceef23fe6da9f7", "type": "electric_scooter", "name": "b508d71f2309869545ceef23fe6da9f7"}, {"is_disabled": 0, "is_reserved": 0, "fusion_lat": 0.0, "lat": 38.84096133333333, "fusion_lon": 0.0, "rental_uris": {"ios": "https://dc.lft.to/lastmile_qr_scan", "android": "https://dc.lft.to/lastmile_qr_scan"}, "lon": -76.98710316666667, "bike_id": "072df70e847d789463b1add6813b0f85", "type": "electric_bike", "name": "072df70e847d789463b1add6813b0f85"}, {"is_disabled": 0, "is_reserved": 0, "fusion_lat": 0.0, "lat": 38.892327333333334, "fusion_lon": 0.0, "rental_uris": {"ios": "https://dc.lft.to/lastmile_qr_scan", "android": "https://dc.lft.to/lastmile_qr_scan"}, "lon": -77.03185716666667, "bike_id": "54a72e92521bda4d73d1b64ae7ace079", "type": "electric_scooter", "name": "54a72e92521bda4d73d1b64ae7ace079"}, {"is_disabled": 0, "is_reserved": 0, "fusion_lat": 0.0, "lat": 38.9304345, "fusion_lon": 0.0, "rental_uris": {"ios": "https://dc.lft.to/lastmile_qr_scan", "android": "https://dc.lft.to/lastmile_qr_scan"}, "lon": -77.05566883333333, "bike_id": "5bac19b45cec778354f16b978eb32c98", "type": "electric_scooter", "name": "5bac19b45cec778354f16b978eb32c98"}, {"is_disabled": 0, "is_reserved": 0, "fusion_lat": 0.0, "lat": 38.910559666666664, "fusion_lon": 0.0, "rental_uris": {"ios": "https://dc.lft.to/lastmile_qr_scan", "android": "https://dc.lft.to/lastmile_qr_scan"}, "lon": -77.04353316666666, "bike_id": "71361d5df6617046377d99b88654a2c4", "type": "electric_scooter", "name": "71361d5df6617046377d99b88654a2c4"}, {"is_disabled": 0, "is_reserved": 0, "fusion_lat": 0.0, "lat": 38.87651283333334, "fusion_lon": 0.0, "rental_uris": {"ios": "https://dc.lft.to/lastmile_qr_scan", "android": "https://dc.lft.to/lastmile_qr_scan"}, "lon": -77.00612216666667, "bike_id": "c7da5354d0e760ba1ed2ae27d14b0397", "type": "electric_scooter", "name": "c7da5354d0e760ba1ed2ae27d14b0397"}, {"is_disabled": 0, "is_reserved": 0, "fusion_lat": 0.0, "lat": 38.8923445, "fusion_lon": 0.0, "rental_uris": {"ios": "https://dc.lft.to/lastmile_qr_scan", "android": "https://dc.lft.to/lastmile_qr_scan"}, "lon": -77.02805833333333, "bike_id": "fbc0bc0f9a3acbcdd8bca6f52cd85afc", "type": "electric_scooter", "name": "fbc0bc0f9a3acbcdd8bca6f52cd85afc"}, {"is_disabled": 0, "is_reserved": 0, "fusion_lat": 0.0, "lat": 38.89935633333333, "fusion_lon": 0.0, "rental_uris": {"ios": "https://dc.lft.to/lastmile_qr_scan", "android": "https://dc.lft.to/lastmile_qr_scan"}, "lon": -76.93760116666667, "bike_id": "55ea6a4c63000cc61e337c6f26448e9f", "type": "electric_scooter", "name": "55ea6a4c63000cc61e337c6f26448e9f"}, {"is_disabled": 0, "is_reserved": 0, "fusion_lat": 0.0, "lat": 38.89912733333333, "fusion_lon": 0.0, "rental_uris": {"ios": "https://dc.lft.to/lastmile_qr_scan", "android": "https://dc.lft.to/lastmile_qr_scan"}, "lon": -76.980419, "bike_id": "b5f505afe5045de390fafdfed7b33782", "type": "electric_scooter", "name": "b5f505afe5045de390fafdfed7b33782"}, {"is_disabled": 0, "is_reserved": 0, "fusion_lat": 0.0, "lat": 38.901839, "fusion_lon": 0.0, "rental_uris": {"ios": "https://dc.lft.to/lastmile_qr_scan", "android": "https://dc.lft.to/lastmile_qr_scan"}, "lon": -76.97671916666667, "bike_id": "2516586bc33c3b113deb16ece7822f74", "type": "electric_scooter", "name": "2516586bc33c3b113deb16ece7822f74"}, {"is_disabled": 0, "is_reserved": 0, "fusion_lat": 0.0, "lat": 38.89013166666667, "fusion_lon": 0.0, "rental_uris": {"ios": "https://dc.lft.to/lastmile_qr_scan", "android": "https://dc.lft.to/lastmile_qr_scan"}, "lon": -76.93734083333334, "bike_id": "e0a2611562195c4c40413d1e40bae65c", "type": "electric_scooter", "name": "e0a2611562195c4c40413d1e40bae65c"}, {"is_disabled": 0, "is_reserved": 0, "fusion_lat": 0.0, "lat": 38.916014, "fusion_lon": 0.0, "rental_uris": {"ios": "https://dc.lft.to/lastmile_qr_scan", "android": "https://dc.lft.to/lastmile_qr_scan"}, "lon": -77.01583983333333, "bike_id": "2fae155d588a7e9670c8542968ff44c2", "type": "electric_scooter", "name": "2fae155d588a7e9670c8542968ff44c2"}, {"is_disabled": 0, "is_reserved": 0, "fusion_lat": 0.0, "lat": 38.903499, "fusion_lon": 0.0, "rental_uris": {"ios": "https://dc.lft.to/lastmile_qr_scan", "android": "https://dc.lft.to/lastmile_qr_scan"}, "lon": -77.021299, "bike_id": "2377525271cb6a47ce25d1272c6d3361", "type": "electric_scooter", "name": "2377525271cb6a47ce25d1272c6d3361"}, {"is_disabled": 0, "is_reserved": 0, "fusion_lat": 0.0, "lat": 38.95593516666667, "fusion_lon": 0.0, "rental_uris": {"ios": "https://dc.lft.to/lastmile_qr_scan", "android": "https://dc.lft.to/lastmile_qr_scan"}, "lon": -77.01008716666666, "bike_id": "5ca5f5db652422b6f30ccd3d80163f8a", "type": "electric_bike", "name": "5ca5f5db652422b6f30ccd3d80163f8a"}, {"is_disabled": 0, "is_reserved": 0, "fusion_lat": 0.0, "lat": 38.89622466666667, "fusion_lon": 0.0, "rental_uris": {"ios": "https://dc.lft.to/lastmile_qr_scan", "android": "https://dc.lft.to/lastmile_qr_scan"}, "lon": -77.04322216666667, "bike_id": "23826d3f35de8aee6e78e286447cf3bf", "type": "electric_scooter", "name": "23826d3f35de8aee6e78e286447cf3bf"}, {"is_disabled": 0, "is_reserved": 0, "fusion_lat": 0.0, "lat": 38.88005966666667, "fusion_lon": 0.0, "rental_uris": {"ios": "https://dc.lft.to/lastmile_qr_scan", "android": "https://dc.lft.to/lastmile_qr_scan"}, "lon": -76.99835216666666, "bike_id": "ddbe6614d9fa54da00c3fe6157e5f92e", "type": "electric_scooter", "name": "ddbe6614d9fa54da00c3fe6157e5f92e"}, {"is_disabled": 0, "is_reserved": 0, "fusion_lat": 0.0, "lat": 38.910379, "fusion_lon": 0.0, "rental_uris": {"ios": "https://dc.lft.to/lastmile_qr_scan", "android": "https://dc.lft.to/lastmile_qr_scan"}, "lon": -76.93835116666666, "bike_id": "1188851f2a85f03195d99014dfd575fd", "type": "electric_scooter", "name": "1188851f2a85f03195d99014dfd575fd"}, {"is_disabled": 0, "is_reserved": 0, "fusion_lat": 0.0, "lat": 38.911124, "fusion_lon": 0.0, "rental_uris": {"ios": "https://dc.lft.to/lastmile_qr_scan", "android": "https://dc.lft.to/lastmile_qr_scan"}, "lon": -77.02235366666666, "bike_id": "86926e5aceee07ff869e8b83da136f06", "type": "electric_scooter", "name": "86926e5aceee07ff869e8b83da136f06"}, {"is_disabled": 0, "is_reserved": 0, "fusion_lat": 0.0, "lat": 38.955901, "fusion_lon": 0.0, "rental_uris": {"ios": "https://dc.lft.to/lastmile_qr_scan", "android": "https://dc.lft.to/lastmile_qr_scan"}, "lon": -77.02809383333333, "bike_id": "1dd4f2f557acc598c0b7b2d89efe45c2", "type": "electric_scooter", "name": "1dd4f2f557acc598c0b7b2d89efe45c2"}, {"is_disabled": 0, "is_reserved": 0, "fusion_lat": 0.0, "lat": 38.90975383333333, "fusion_lon": 0.0, "rental_uris": {"ios": "https://dc.lft.to/lastmile_qr_scan", "android": "https://dc.lft.to/lastmile_qr_scan"}, "lon": -77.01444183333334, "bike_id": "c72acc3e2ac997c8a0be961ebe2329cd", "type": "electric_scooter", "name": "c72acc3e2ac997c8a0be961ebe2329cd"}, {"is_disabled": 0, "is_reserved": 0, "fusion_lat": 0.0, "lat": 38.902520333333335, "fusion_lon": 0.0, "rental_uris": {"ios": "https://dc.lft.to/lastmile_qr_scan", "android": "https://dc.lft.to/lastmile_qr_scan"}, "lon": -77.02173316666666, "bike_id": "4bab33de98477a9e80d57c9145f47b1b", "type": "electric_scooter", "name": "4bab33de98477a9e80d57c9145f47b1b"}, {"is_disabled": 0, "is_reserved": 0, "fusion_lat": 0.0, "lat": 38.91560916666667, "fusion_lon": 0.0, "rental_uris": {"ios": "https://dc.lft.to/lastmile_qr_scan", "android": "https://dc.lft.to/lastmile_qr_scan"}, "lon": -77.03179733333333, "bike_id": "9eca6ea9081a95d24166a93221508a31", "type": "electric_scooter", "name": "9eca6ea9081a95d24166a93221508a31"}, {"is_disabled": 0, "is_reserved": 0, "fusion_lat": 0.0, "lat": 38.9225905, "fusion_lon": 0.0, "rental_uris": {"ios": "https://dc.lft.to/lastmile_qr_scan", "android": "https://dc.lft.to/lastmile_qr_scan"}, "lon": -77.01946716666667, "bike_id": "aa6840861fd95f6bc613f3ad84bd1ef7", "type": "electric_scooter", "name": "aa6840861fd95f6bc613f3ad84bd1ef7"}, {"is_disabled": 0, "is_reserved": 0, "fusion_lat": 0.0, "lat": 38.9055, "fusion_lon": 0.0, "rental_uris": {"ios": "https://dc.lft.to/lastmile_qr_scan", "android": "https://dc.lft.to/lastmile_qr_scan"}, "lon": -77.06272533333333, "bike_id": "eb33f1e3d976cdd6a76549aad2bd4f97", "type": "electric_scooter", "name": "eb33f1e3d976cdd6a76549aad2bd4f97"}, {"is_disabled": 0, "is_reserved": 0, "fusion_lat": 0.0, "lat": 38.900637833333334, "fusion_lon": 0.0, "rental_uris": {"ios": "https://dc.lft.to/lastmile_qr_scan", "android": "https://dc.lft.to/lastmile_qr_scan"}, "lon": -76.94981883333334, "bike_id": "ee56a04afab823bbeb6062cb6dfaf752", "type": "electric_scooter", "name": "ee56a04afab823bbeb6062cb6dfaf752"}, {"is_disabled": 0, "is_reserved": 0, "fusion_lat": 0.0, "lat": 38.915465833333336, "fusion_lon": 0.0, "rental_uris": {"ios": "https://dc.lft.to/lastmile_qr_scan", "android": "https://dc.lft.to/lastmile_qr_scan"}, "lon": -77.00754766666667, "bike_id": "74ec68186352e115052e18dbe144c758", "type": "electric_scooter", "name": "74ec68186352e115052e18dbe144c758"}, {"is_disabled": 0, "is_reserved": 0, "fusion_lat": 0.0, "lat": 38.95248133333333, "fusion_lon": 0.0, "rental_uris": {"ios": "https://dc.lft.to/lastmile_qr_scan", "android": "https://dc.lft.to/lastmile_qr_scan"}, "lon": -76.98244033333333, "bike_id": "16c77cea6d2d1aac55cd1cdeb58b97d9", "type": "electric_bike", "name": "16c77cea6d2d1aac55cd1cdeb58b97d9"}, {"is_disabled": 0, "is_reserved": 0, "fusion_lat": 0.0, "lat": 38.902473666666666, "fusion_lon": 0.0, "rental_uris": {"ios": "https://dc.lft.to/lastmile_qr_scan", "android": "https://dc.lft.to/lastmile_qr_scan"}, "lon": -77.03484016666667, "bike_id": "2c7a71cd8f23ad352bffd70f797dc87c", "type": "electric_scooter", "name": "2c7a71cd8f23ad352bffd70f797dc87c"}, {"is_disabled": 0, "is_reserved": 0, "fusion_lat": 0.0, "lat": 38.921344500000004, "fusion_lon": 0.0, "rental_uris": {"ios": "https://dc.lft.to/lastmile_qr_scan", "android": "https://dc.lft.to/lastmile_qr_scan"}, "lon": -76.99404183333333, "bike_id": "45a076dfd5109e323672da96c2034cf3", "type": "electric_scooter", "name": "45a076dfd5109e323672da96c2034cf3"}, {"is_disabled": 0, "is_reserved": 0, "fusion_lat": 0.0, "lat": 38.885633166666665, "fusion_lon": 0.0, "rental_uris": {"ios": "https://dc.lft.to/lastmile_qr_scan", "android": "https://dc.lft.to/lastmile_qr_scan"}, "lon": -77.011785, "bike_id": "53cc29a83b1ce937193b71d37df82e7d", "type": "electric_scooter", "name": "53cc29a83b1ce937193b71d37df82e7d"}, {"is_disabled": 0, "is_reserved": 0, "fusion_lat": 0.0, "lat": 38.890940666666665, "fusion_lon": 0.0, "rental_uris": {"ios": "https://dc.lft.to/lastmile_qr_scan", "android": "https://dc.lft.to/lastmile_qr_scan"}, "lon": -77.003025, "bike_id": "ef4b6797e3529077aa4567a5c1912909", "type": "electric_bike", "name": "ef4b6797e3529077aa4567a5c1912909"}, {"is_disabled": 0, "is_reserved": 0, "fusion_lat": 0.0, "lat": 38.92503833333333, "fusion_lon": 0.0, "rental_uris": {"ios": "https://dc.lft.to/lastmile_qr_scan", "android": "https://dc.lft.to/lastmile_qr_scan"}, "lon": -77.024455, "bike_id": "2e86ba6e3ae1a44dc9e8ca71adb69551", "type": "electric_scooter", "name": "2e86ba6e3ae1a44dc9e8ca71adb69551"}, {"is_disabled": 0, "is_reserved": 0, "fusion_lat": 0.0, "lat": 38.923638833333335, "fusion_lon": 0.0, "rental_uris": {"ios": "https://dc.lft.to/lastmile_qr_scan", "android": "https://dc.lft.to/lastmile_qr_scan"}, "lon": -77.051319, "bike_id": "ecb01c178e64780328d8f58938a6285e", "type": "electric_scooter", "name": "ecb01c178e64780328d8f58938a6285e"}, {"is_disabled": 0, "is_reserved": 0, "fusion_lat": 0.0, "lat": 38.930534, "fusion_lon": 0.0, "rental_uris": {"ios": "https://dc.lft.to/lastmile_qr_scan", "android": "https://dc.lft.to/lastmile_qr_scan"}, "lon": -77.03943066666666, "bike_id": "1f9e83e0282491bc83db5a3afba8310c", "type": "electric_scooter", "name": "1f9e83e0282491bc83db5a3afba8310c"}, {"is_disabled": 0, "is_reserved": 0, "fusion_lat": 0.0, "lat": 38.89360416666667, "fusion_lon": 0.0, "rental_uris": {"ios": "https://dc.lft.to/lastmile_qr_scan", "android": "https://dc.lft.to/lastmile_qr_scan"}, "lon": -77.042923, "bike_id": "0d009718d39be1137f344d5ea65a3ff8", "type": "electric_scooter", "name": "0d009718d39be1137f344d5ea65a3ff8"}, {"is_disabled": 0, "is_reserved": 0, "fusion_lat": 0.0, "lat": 38.926136166666666, "fusion_lon": 0.0, "rental_uris": {"ios": "https://dc.lft.to/lastmile_qr_scan", "android": "https://dc.lft.to/lastmile_qr_scan"}, "lon": -77.00651166666667, "bike_id": "1b0896931a9900b314e5e8f6bd27a1b8", "type": "electric_scooter", "name": "1b0896931a9900b314e5e8f6bd27a1b8"}, {"is_disabled": 0, "is_reserved": 0, "fusion_lat": 0.0, "lat": 38.95290166666667, "fusion_lon": 0.0, "rental_uris": {"ios": "https://dc.lft.to/lastmile_qr_scan", "android": "https://dc.lft.to/lastmile_qr_scan"}, "lon": -76.97087133333333, "bike_id": "b002c4e76b7377257d73143c1ddfdb74", "type": "electric_bike", "name": "b002c4e76b7377257d73143c1ddfdb74"}, {"is_disabled": 0, "is_reserved": 0, "fusion_lat": 0.0, "lat": 38.876488, "fusion_lon": 0.0, "rental_uris": {"ios": "https://dc.lft.to/lastmile_qr_scan", "android": "https://dc.lft.to/lastmile_qr_scan"}, "lon": -77.000906, "bike_id": "e38f5e4cd2808f6ad040f415e6a00ad1", "type": "electric_scooter", "name": "e38f5e4cd2808f6ad040f415e6a00ad1"}, {"is_disabled": 0, "is_reserved": 0, "fusion_lat": 0.0, "lat": 38.95108316666666, "fusion_lon": 0.0, "rental_uris": {"ios": "https://dc.lft.to/lastmile_qr_scan", "android": "https://dc.lft.to/lastmile_qr_scan"}, "lon": -77.0188695, "bike_id": "79467ffd448b1b7d45bc079bbeea2297", "type": "electric_scooter", "name": "79467ffd448b1b7d45bc079bbeea2297"}, {"is_disabled": 0, "is_reserved": 0, "fusion_lat": 0.0, "lat": 38.92141516666667, "fusion_lon": 0.0, "rental_uris": {"ios": "https://dc.lft.to/lastmile_qr_scan", "android": "https://dc.lft.to/lastmile_qr_scan"}, "lon": -77.03646, "bike_id": "2614f133f4c6b2c483bdaa21b76e4d62", "type": "electric_scooter", "name": "2614f133f4c6b2c483bdaa21b76e4d62"}, {"is_disabled": 0, "is_reserved": 0, "fusion_lat": 0.0, "lat": 38.93590116666667, "fusion_lon": 0.0, "rental_uris": {"ios": "https://dc.lft.to/lastmile_qr_scan", "android": "https://dc.lft.to/lastmile_qr_scan"}, "lon": -77.05624733333333, "bike_id": "7760ca4753c2bfe3673056c38225e682", "type": "electric_scooter", "name": "7760ca4753c2bfe3673056c38225e682"}, {"is_disabled": 0, "is_reserved": 0, "fusion_lat": 0.0, "lat": 38.905371, "fusion_lon": 0.0, "rental_uris": {"ios": "https://dc.lft.to/lastmile_qr_scan", "android": "https://dc.lft.to/lastmile_qr_scan"}, "lon": -77.02706483333333, "bike_id": "5215f9047496ff6f8d95f5f033fd0b37", "type": "electric_scooter", "name": "5215f9047496ff6f8d95f5f033fd0b37"}, {"is_disabled": 0, "is_reserved": 0, "fusion_lat": 0.0, "lat": 38.93061066666667, "fusion_lon": 0.0, "rental_uris": {"ios": "https://dc.lft.to/lastmile_qr_scan", "android": "https://dc.lft.to/lastmile_qr_scan"}, "lon": -77.02322433333333, "bike_id": "b8a1c0416d89ae153261ac568f3afa72", "type": "electric_scooter", "name": "b8a1c0416d89ae153261ac568f3afa72"}, {"is_disabled": 0, "is_reserved": 0, "fusion_lat": 0.0, "lat": 38.982141666666664, "fusion_lon": 0.0, "rental_uris": {"ios": "https://dc.lft.to/lastmile_qr_scan", "android": "https://dc.lft.to/lastmile_qr_scan"}, "lon": -76.978157, "bike_id": "1163f13ad1d0679290668997cd555771", "type": "electric_bike", "name": "1163f13ad1d0679290668997cd555771"}, {"is_disabled": 0, "is_reserved": 0, "fusion_lat": 0.0, "lat": 38.927807666666666, "fusion_lon": 0.0, "rental_uris": {"ios": "https://dc.lft.to/lastmile_qr_scan", "android": "https://dc.lft.to/lastmile_qr_scan"}, "lon": -77.05259866666667, "bike_id": "3034f9366573476b9b58fa12ea9b4670", "type": "electric_scooter", "name": "3034f9366573476b9b58fa12ea9b4670"}, {"is_disabled": 0, "is_reserved": 0, "fusion_lat": 0.0, "lat": 38.878372666666664, "fusion_lon": 0.0, "rental_uris": {"ios": "https://dc.lft.to/lastmile_qr_scan", "android": "https://dc.lft.to/lastmile_qr_scan"}, "lon": -76.98603983333334, "bike_id": "aa7da7433a7663e116252a62c3477fc9", "type": "electric_scooter", "name": "aa7da7433a7663e116252a62c3477fc9"}, {"is_disabled": 0, "is_reserved": 0, "fusion_lat": 0.0, "lat": 38.89226416666666, "fusion_lon": 0.0, "rental_uris": {"ios": "https://dc.lft.to/lastmile_qr_scan", "android": "https://dc.lft.to/lastmile_qr_scan"}, "lon": -77.05006183333333, "bike_id": "8a50b84f8024d0f8013421e1b16d8b11", "type": "electric_scooter", "name": "8a50b84f8024d0f8013421e1b16d8b11"}, {"is_disabled": 0, "is_reserved": 0, "fusion_lat": 0.0, "lat": 38.90447483333333, "fusion_lon": 0.0, "rental_uris": {"ios": "https://dc.lft.to/lastmile_qr_scan", "android": "https://dc.lft.to/lastmile_qr_scan"}, "lon": -76.97306333333333, "bike_id": "ce58265944527636182a1eff6d7a02ad", "type": "electric_scooter", "name": "ce58265944527636182a1eff6d7a02ad"}, {"is_disabled": 0, "is_reserved": 0, "fusion_lat": 0.0, "lat": 38.8427455, "fusion_lon": 0.0, "rental_uris": {"ios": "https://dc.lft.to/lastmile_qr_scan", "android": "https://dc.lft.to/lastmile_qr_scan"}, "lon": -76.98837266666666, "bike_id": "c9531542cae359a9f5d283ba3f6fcb1d", "type": "electric_scooter", "name": "c9531542cae359a9f5d283ba3f6fcb1d"}, {"is_disabled": 0, "is_reserved": 0, "fusion_lat": 0.0, "lat": 38.899562333333336, "fusion_lon": 0.0, "rental_uris": {"ios": "https://dc.lft.to/lastmile_qr_scan", "android": "https://dc.lft.to/lastmile_qr_scan"}, "lon": -77.01618966666666, "bike_id": "3c0ebc7c02ca9aced0c17a4d555b73d3", "type": "electric_scooter", "name": "3c0ebc7c02ca9aced0c17a4d555b73d3"}, {"is_disabled": 0, "is_reserved": 0, "fusion_lat": 0.0, "lat": 38.89668566666667, "fusion_lon": 0.0, "rental_uris": {"ios": "https://dc.lft.to/lastmile_qr_scan", "android": "https://dc.lft.to/lastmile_qr_scan"}, "lon": -77.03218416666667, "bike_id": "84482309dc647ec5a41a3035dbe3b800", "type": "electric_scooter", "name": "84482309dc647ec5a41a3035dbe3b800"}, {"is_disabled": 0, "is_reserved": 0, "fusion_lat": 0.0, "lat": 38.87917266666667, "fusion_lon": 0.0, "rental_uris": {"ios": "https://dc.lft.to/lastmile_qr_scan", "android": "https://dc.lft.to/lastmile_qr_scan"}, "lon": -76.99507116666666, "bike_id": "4c42f995f62cb61555296fbddc66d30c", "type": "electric_scooter", "name": "4c42f995f62cb61555296fbddc66d30c"}, {"is_disabled": 0, "is_reserved": 0, "fusion_lat": 0.0, "lat": 38.9297935, "fusion_lon": 0.0, "rental_uris": {"ios": "https://dc.lft.to/lastmile_qr_scan", "android": "https://dc.lft.to/lastmile_qr_scan"}, "lon": -77.0318075, "bike_id": "e3735aadc457e827dc4bc7e3643ee059", "type": "electric_scooter", "name": "e3735aadc457e827dc4bc7e3643ee059"}, {"is_disabled": 0, "is_reserved": 0, "fusion_lat": 0.0, "lat": 38.96357483333333, "fusion_lon": 0.0, "rental_uris": {"ios": "https://dc.lft.to/lastmile_qr_scan", "android": "https://dc.lft.to/lastmile_qr_scan"}, "lon": -77.03442316666667, "bike_id": "fe7e5c1e6c78700eb38cfca0d20b7fdb", "type": "electric_scooter", "name": "fe7e5c1e6c78700eb38cfca0d20b7fdb"}, {"is_disabled": 0, "is_reserved": 0, "fusion_lat": 0.0, "lat": 38.9387125, "fusion_lon": 0.0, "rental_uris": {"ios": "https://dc.lft.to/lastmile_qr_scan", "android": "https://dc.lft.to/lastmile_qr_scan"}, "lon": -77.06017233333333, "bike_id": "e55842aa9bef7c90acb4b5e0b830fce6", "type": "electric_scooter", "name": "e55842aa9bef7c90acb4b5e0b830fce6"}, {"is_disabled": 0, "is_reserved": 0, "fusion_lat": 0.0, "lat": 38.9306195, "fusion_lon": 0.0, "rental_uris": {"ios": "https://dc.lft.to/lastmile_qr_scan", "android": "https://dc.lft.to/lastmile_qr_scan"}, "lon": -77.04215583333334, "bike_id": "9df19f69a6a000e0011e5afa410108cc", "type": "electric_scooter", "name": "9df19f69a6a000e0011e5afa410108cc"}, {"is_disabled": 0, "is_reserved": 0, "fusion_lat": 0.0, "lat": 38.950968333333336, "fusion_lon": 0.0, "rental_uris": {"ios": "https://dc.lft.to/lastmile_qr_scan", "android": "https://dc.lft.to/lastmile_qr_scan"}, "lon": -77.01909283333333, "bike_id": "e26f1f1c8d349fe2f9f9fd40b4609001", "type": "electric_scooter", "name": "e26f1f1c8d349fe2f9f9fd40b4609001"}, {"is_disabled": 0, "is_reserved": 0, "fusion_lat": 0.0, "lat": 38.94176616666667, "fusion_lon": 0.0, "rental_uris": {"ios": "https://dc.lft.to/lastmile_qr_scan", "android": "https://dc.lft.to/lastmile_qr_scan"}, "lon": -77.02501883333333, "bike_id": "bce882b8b0860eecdde7923918a037c1", "type": "electric_scooter", "name": "bce882b8b0860eecdde7923918a037c1"}, {"is_disabled": 0, "is_reserved": 0, "fusion_lat": 0.0, "lat": 38.94620533333333, "fusion_lon": 0.0, "rental_uris": {"ios": "https://dc.lft.to/lastmile_qr_scan", "android": "https://dc.lft.to/lastmile_qr_scan"}, "lon": -77.02128616666667, "bike_id": "b5e7be66ac194813263c76098b955b52", "type": "electric_scooter", "name": "b5e7be66ac194813263c76098b955b52"}, {"is_disabled": 0, "is_reserved": 0, "fusion_lat": 0.0, "lat": 38.89748516666667, "fusion_lon": 0.0, "rental_uris": {"ios": "https://dc.lft.to/lastmile_qr_scan", "android": "https://dc.lft.to/lastmile_qr_scan"}, "lon": -77.04805733333333, "bike_id": "2f52ce0f5fd4cea0f1bd420da2423a0f", "type": "electric_scooter", "name": "2f52ce0f5fd4cea0f1bd420da2423a0f"}, {"is_disabled": 0, "is_reserved": 0, "fusion_lat": 0.0, "lat": 38.91924516666667, "fusion_lon": 0.0, "rental_uris": {"ios": "https://dc.lft.to/lastmile_qr_scan", "android": "https://dc.lft.to/lastmile_qr_scan"}, "lon": -77.0097515, "bike_id": "ead474c73c08709f53fa8a65816f5300", "type": "electric_scooter", "name": "ead474c73c08709f53fa8a65816f5300"}, {"is_disabled": 0, "is_reserved": 0, "fusion_lat": 0.0, "lat": 38.9404015, "fusion_lon": 0.0, "rental_uris": {"ios": "https://dc.lft.to/lastmile_qr_scan", "android": "https://dc.lft.to/lastmile_qr_scan"}, "lon": -77.0353675, "bike_id": "65c2b36cc07d5c1fd5ccc0ef1dad2792", "type": "electric_scooter", "name": "65c2b36cc07d5c1fd5ccc0ef1dad2792"}, {"is_disabled": 0, "is_reserved": 0, "fusion_lat": 0.0, "lat": 38.9101925, "fusion_lon": 0.0, "rental_uris": {"ios": "https://dc.lft.to/lastmile_qr_scan", "android": "https://dc.lft.to/lastmile_qr_scan"}, "lon": -77.04395416666667, "bike_id": "cadc312a0b187864d8ee44bddfd9b0fe", "type": "electric_scooter", "name": "cadc312a0b187864d8ee44bddfd9b0fe"}, {"is_disabled": 0, "is_reserved": 0, "fusion_lat": 0.0, "lat": 38.916361333333334, "fusion_lon": 0.0, "rental_uris": {"ios": "https://dc.lft.to/lastmile_qr_scan", "android": "https://dc.lft.to/lastmile_qr_scan"}, "lon": -77.04119366666667, "bike_id": "5ab2f8d7a630134254a47c370156643a", "type": "electric_scooter", "name": "5ab2f8d7a630134254a47c370156643a"}, {"is_disabled": 0, "is_reserved": 0, "fusion_lat": 0.0, "lat": 38.915460833333334, "fusion_lon": 0.0, "rental_uris": {"ios": "https://dc.lft.to/lastmile_qr_scan", "android": "https://dc.lft.to/lastmile_qr_scan"}, "lon": -77.04612433333334, "bike_id": "358566ba08b0f65b492318946d40eaf4", "type": "electric_scooter", "name": "358566ba08b0f65b492318946d40eaf4"}, {"is_disabled": 0, "is_reserved": 0, "fusion_lat": 0.0, "lat": 38.920951, "fusion_lon": 0.0, "rental_uris": {"ios": "https://dc.lft.to/lastmile_qr_scan", "android": "https://dc.lft.to/lastmile_qr_scan"}, "lon": -77.02321116666667, "bike_id": "112484433b6c6f89a968040b0bf9cc86", "type": "electric_scooter", "name": "112484433b6c6f89a968040b0bf9cc86"}, {"is_disabled": 0, "is_reserved": 0, "fusion_lat": 0.0, "lat": 38.89220733333333, "fusion_lon": 0.0, "rental_uris": {"ios": "https://dc.lft.to/lastmile_qr_scan", "android": "https://dc.lft.to/lastmile_qr_scan"}, "lon": -77.04366483333334, "bike_id": "2d7506e9817e637df08c16dbddad8a15", "type": "electric_scooter", "name": "2d7506e9817e637df08c16dbddad8a15"}, {"is_disabled": 0, "is_reserved": 0, "fusion_lat": 0.0, "lat": 38.915619666666665, "fusion_lon": 0.0, "rental_uris": {"ios": "https://dc.lft.to/lastmile_qr_scan", "android": "https://dc.lft.to/lastmile_qr_scan"}, "lon": -77.02141466666667, "bike_id": "47d9fa373e4e966e6452d7996548c3bf", "type": "electric_scooter", "name": "47d9fa373e4e966e6452d7996548c3bf"}, {"is_disabled": 0, "is_reserved": 0, "fusion_lat": 0.0, "lat": 38.92146266666666, "fusion_lon": 0.0, "rental_uris": {"ios": "https://dc.lft.to/lastmile_qr_scan", "android": "https://dc.lft.to/lastmile_qr_scan"}, "lon": -77.03506566666667, "bike_id": "6529bebcfa20b013ae298c88aebf2178", "type": "electric_scooter", "name": "6529bebcfa20b013ae298c88aebf2178"}, {"is_disabled": 0, "is_reserved": 0, "fusion_lat": 0.0, "lat": 38.827608, "fusion_lon": 0.0, "rental_uris": {"ios": "https://dc.lft.to/lastmile_qr_scan", "android": "https://dc.lft.to/lastmile_qr_scan"}, "lon": -77.05029216666667, "bike_id": "19c591d90bf64c648d7db4fa0b6352a1", "type": "electric_bike", "name": "19c591d90bf64c648d7db4fa0b6352a1"}, {"is_disabled": 0, "is_reserved": 0, "fusion_lat": 0.0, "lat": 38.86259366666667, "fusion_lon": 0.0, "rental_uris": {"ios": "https://dc.lft.to/lastmile_qr_scan", "android": "https://dc.lft.to/lastmile_qr_scan"}, "lon": -76.98350183333334, "bike_id": "53e2dc2be2a0de587f36944ea7964069", "type": "electric_bike", "name": "53e2dc2be2a0de587f36944ea7964069"}, {"is_disabled": 0, "is_reserved": 0, "fusion_lat": 0.0, "lat": 38.898317666666664, "fusion_lon": 0.0, "rental_uris": {"ios": "https://dc.lft.to/lastmile_qr_scan", "android": "https://dc.lft.to/lastmile_qr_scan"}, "lon": -76.94634116666667, "bike_id": "78039cbd3660113e84bb53d2f125e3d8", "type": "electric_scooter", "name": "78039cbd3660113e84bb53d2f125e3d8"}, {"is_disabled": 0, "is_reserved": 0, "fusion_lat": 0.0, "lat": 38.893007, "fusion_lon": 0.0, "rental_uris": {"ios": "https://dc.lft.to/lastmile_qr_scan", "android": "https://dc.lft.to/lastmile_qr_scan"}, "lon": -76.99958816666667, "bike_id": "4f409546637d868296ec7dfc186ebc00", "type": "electric_scooter", "name": "4f409546637d868296ec7dfc186ebc00"}, {"is_disabled": 0, "is_reserved": 0, "fusion_lat": 0.0, "lat": 38.89674266666667, "fusion_lon": 0.0, "rental_uris": {"ios": "https://dc.lft.to/lastmile_qr_scan", "android": "https://dc.lft.to/lastmile_qr_scan"}, "lon": -77.05157166666666, "bike_id": "8de11f6b3bba78b5e2f0ecdbaa570d99", "type": "electric_scooter", "name": "8de11f6b3bba78b5e2f0ecdbaa570d99"}, {"is_disabled": 0, "is_reserved": 0, "fusion_lat": 0.0, "lat": 38.920249, "fusion_lon": 0.0, "rental_uris": {"ios": "https://dc.lft.to/lastmile_qr_scan", "android": "https://dc.lft.to/lastmile_qr_scan"}, "lon": -77.03122383333333, "bike_id": "67c286ca9ed729383f3c0dedd186746f", "type": "electric_scooter", "name": "67c286ca9ed729383f3c0dedd186746f"}, {"is_disabled": 0, "is_reserved": 0, "fusion_lat": 0.0, "lat": 38.90721633333333, "fusion_lon": 0.0, "rental_uris": {"ios": "https://dc.lft.to/lastmile_qr_scan", "android": "https://dc.lft.to/lastmile_qr_scan"}, "lon": -77.000663, "bike_id": "f0eba6c01a21d7ef55f1ca8a063e6c54", "type": "electric_scooter", "name": "f0eba6c01a21d7ef55f1ca8a063e6c54"}, {"is_disabled": 0, "is_reserved": 0, "fusion_lat": 0.0, "lat": 38.89737683333333, "fusion_lon": 0.0, "rental_uris": {"ios": "https://dc.lft.to/lastmile_qr_scan", "android": "https://dc.lft.to/lastmile_qr_scan"}, "lon": -77.027293, "bike_id": "3419c12a61b0b5e6a7966ee1cb9bd586", "type": "electric_scooter", "name": "3419c12a61b0b5e6a7966ee1cb9bd586"}, {"is_disabled": 0, "is_reserved": 0, "fusion_lat": 0.0, "lat": 38.917322, "fusion_lon": 0.0, "rental_uris": {"ios": "https://dc.lft.to/lastmile_qr_scan", "android": "https://dc.lft.to/lastmile_qr_scan"}, "lon": -77.0363485, "bike_id": "db0fd456460e741c0db196d85360ffe4", "type": "electric_scooter", "name": "db0fd456460e741c0db196d85360ffe4"}, {"is_disabled": 0, "is_reserved": 0, "fusion_lat": 0.0, "lat": 38.93871766666667, "fusion_lon": 0.0, "rental_uris": {"ios": "https://dc.lft.to/lastmile_qr_scan", "android": "https://dc.lft.to/lastmile_qr_scan"}, "lon": -77.03043066666666, "bike_id": "112144f3af37edfe63c8ad0c15bfbfc6", "type": "electric_scooter", "name": "112144f3af37edfe63c8ad0c15bfbfc6"}, {"is_disabled": 0, "is_reserved": 0, "fusion_lat": 0.0, "lat": 38.919878833333335, "fusion_lon": 0.0, "rental_uris": {"ios": "https://dc.lft.to/lastmile_qr_scan", "android": "https://dc.lft.to/lastmile_qr_scan"}, "lon": -77.03247516666667, "bike_id": "c96cfce9c4e84a89cdab56009fc84ea7", "type": "electric_scooter", "name": "c96cfce9c4e84a89cdab56009fc84ea7"}, {"is_disabled": 0, "is_reserved": 0, "fusion_lat": 0.0, "lat": 38.90520733333334, "fusion_lon": 0.0, "rental_uris": {"ios": "https://dc.lft.to/lastmile_qr_scan", "android": "https://dc.lft.to/lastmile_qr_scan"}, "lon": -77.01709766666667, "bike_id": "4892ba9574ade510d98acf8439e34ef6", "type": "electric_scooter", "name": "4892ba9574ade510d98acf8439e34ef6"}, {"is_disabled": 0, "is_reserved": 0, "fusion_lat": 0.0, "lat": 38.91182883333333, "fusion_lon": 0.0, "rental_uris": {"ios": "https://dc.lft.to/lastmile_qr_scan", "android": "https://dc.lft.to/lastmile_qr_scan"}, "lon": -77.00215466666667, "bike_id": "90ae9b43070319ee5037283cee97292c", "type": "electric_scooter", "name": "90ae9b43070319ee5037283cee97292c"}, {"is_disabled": 0, "is_reserved": 0, "fusion_lat": 0.0, "lat": 38.91986083333333, "fusion_lon": 0.0, "rental_uris": {"ios": "https://dc.lft.to/lastmile_qr_scan", "android": "https://dc.lft.to/lastmile_qr_scan"}, "lon": -77.03246616666667, "bike_id": "edd1bf2a494d476a8f0c96b26c0b708f", "type": "electric_scooter", "name": "edd1bf2a494d476a8f0c96b26c0b708f"}, {"is_disabled": 0, "is_reserved": 0, "fusion_lat": 0.0, "lat": 38.870732333333336, "fusion_lon": 0.0, "rental_uris": {"ios": "https://dc.lft.to/lastmile_qr_scan", "android": "https://dc.lft.to/lastmile_qr_scan"}, "lon": -76.97938783333333, "bike_id": "a99a9e37a7f355d84735d4f4676e2216", "type": "electric_scooter", "name": "a99a9e37a7f355d84735d4f4676e2216"}, {"is_disabled": 0, "is_reserved": 0, "fusion_lat": 0.0, "lat": 38.9169445, "fusion_lon": 0.0, "rental_uris": {"ios": "https://dc.lft.to/lastmile_qr_scan", "android": "https://dc.lft.to/lastmile_qr_scan"}, "lon": -77.03772616666667, "bike_id": "b2e837b845eb2bff341a8f537ca589ac", "type": "electric_scooter", "name": "b2e837b845eb2bff341a8f537ca589ac"}, {"is_disabled": 0, "is_reserved": 0, "fusion_lat": 0.0, "lat": 38.904257333333334, "fusion_lon": 0.0, "rental_uris": {"ios": "https://dc.lft.to/lastmile_qr_scan", "android": "https://dc.lft.to/lastmile_qr_scan"}, "lon": -77.06118633333334, "bike_id": "bc8041c3ffc472d24ec2ca7f47bae02c", "type": "electric_scooter", "name": "bc8041c3ffc472d24ec2ca7f47bae02c"}, {"is_disabled": 0, "is_reserved": 0, "fusion_lat": 0.0, "lat": 38.944500166666664, "fusion_lon": 0.0, "rental_uris": {"ios": "https://dc.lft.to/lastmile_qr_scan", "android": "https://dc.lft.to/lastmile_qr_scan"}, "lon": -77.03280383333333, "bike_id": "5f5e45a9a0fa4553c7010f965d30bfbd", "type": "electric_scooter", "name": "5f5e45a9a0fa4553c7010f965d30bfbd"}, {"is_disabled": 0, "is_reserved": 0, "fusion_lat": 0.0, "lat": 38.90352566666667, "fusion_lon": 0.0, "rental_uris": {"ios": "https://dc.lft.to/lastmile_qr_scan", "android": "https://dc.lft.to/lastmile_qr_scan"}, "lon": -77.04824883333333, "bike_id": "90a87e361999e4cf164e3734d8dcc009", "type": "electric_scooter", "name": "90a87e361999e4cf164e3734d8dcc009"}, {"is_disabled": 0, "is_reserved": 0, "fusion_lat": 0.0, "lat": 38.956165666666664, "fusion_lon": 0.0, "rental_uris": {"ios": "https://dc.lft.to/lastmile_qr_scan", "android": "https://dc.lft.to/lastmile_qr_scan"}, "lon": -77.03309533333334, "bike_id": "db09348fdb12d254f132569fccc7c5bd", "type": "electric_scooter", "name": "db09348fdb12d254f132569fccc7c5bd"}, {"is_disabled": 0, "is_reserved": 0, "fusion_lat": 0.0, "lat": 38.919569333333335, "fusion_lon": 0.0, "rental_uris": {"ios": "https://dc.lft.to/lastmile_qr_scan", "android": "https://dc.lft.to/lastmile_qr_scan"}, "lon": -77.0231345, "bike_id": "93e149911358c1571985cb947047b197", "type": "electric_scooter", "name": "93e149911358c1571985cb947047b197"}, {"is_disabled": 0, "is_reserved": 0, "fusion_lat": 0.0, "lat": 38.930878, "fusion_lon": 0.0, "rental_uris": {"ios": "https://dc.lft.to/lastmile_qr_scan", "android": "https://dc.lft.to/lastmile_qr_scan"}, "lon": -77.028083, "bike_id": "b631af2105b54796d9f7b306e1b4771c", "type": "electric_scooter", "name": "b631af2105b54796d9f7b306e1b4771c"}, {"is_disabled": 0, "is_reserved": 0, "fusion_lat": 0.0, "lat": 38.903972833333334, "fusion_lon": 0.0, "rental_uris": {"ios": "https://dc.lft.to/lastmile_qr_scan", "android": "https://dc.lft.to/lastmile_qr_scan"}, "lon": -77.06296916666666, "bike_id": "64aeee423fb914c3ac6de47e83aa7969", "type": "electric_scooter", "name": "64aeee423fb914c3ac6de47e83aa7969"}, {"is_disabled": 0, "is_reserved": 0, "fusion_lat": 0.0, "lat": 38.90650633333333, "fusion_lon": 0.0, "rental_uris": {"ios": "https://dc.lft.to/lastmile_qr_scan", "android": "https://dc.lft.to/lastmile_qr_scan"}, "lon": -76.97939783333334, "bike_id": "4d64f1a6fd3c7ac641ecc87897a5f080", "type": "electric_scooter", "name": "4d64f1a6fd3c7ac641ecc87897a5f080"}, {"is_disabled": 0, "is_reserved": 0, "fusion_lat": 0.0, "lat": 38.905292333333335, "fusion_lon": 0.0, "rental_uris": {"ios": "https://dc.lft.to/lastmile_qr_scan", "android": "https://dc.lft.to/lastmile_qr_scan"}, "lon": -77.05822233333333, "bike_id": "d778198b5dda1587adeae2dcaf4fc7f0", "type": "electric_scooter", "name": "d778198b5dda1587adeae2dcaf4fc7f0"}, {"is_disabled": 0, "is_reserved": 0, "fusion_lat": 0.0, "lat": 38.90510883333334, "fusion_lon": 0.0, "rental_uris": {"ios": "https://dc.lft.to/lastmile_qr_scan", "android": "https://dc.lft.to/lastmile_qr_scan"}, "lon": -77.009115, "bike_id": "07981f00251420c22e43ef4acfcd2571", "type": "electric_scooter", "name": "07981f00251420c22e43ef4acfcd2571"}, {"is_disabled": 0, "is_reserved": 0, "fusion_lat": 0.0, "lat": 38.9288075, "fusion_lon": 0.0, "rental_uris": {"ios": "https://dc.lft.to/lastmile_qr_scan", "android": "https://dc.lft.to/lastmile_qr_scan"}, "lon": -77.03994933333334, "bike_id": "d35610210b5b1976f43661782acf7e76", "type": "electric_scooter", "name": "d35610210b5b1976f43661782acf7e76"}, {"is_disabled": 0, "is_reserved": 0, "fusion_lat": 0.0, "lat": 38.894326, "fusion_lon": 0.0, "rental_uris": {"ios": "https://dc.lft.to/lastmile_qr_scan", "android": "https://dc.lft.to/lastmile_qr_scan"}, "lon": -77.02410733333333, "bike_id": "8e3184ecb1c1d79bb24172fdd72a13f3", "type": "electric_scooter", "name": "8e3184ecb1c1d79bb24172fdd72a13f3"}, {"is_disabled": 0, "is_reserved": 0, "fusion_lat": 0.0, "lat": 38.90060533333333, "fusion_lon": 0.0, "rental_uris": {"ios": "https://dc.lft.to/lastmile_qr_scan", "android": "https://dc.lft.to/lastmile_qr_scan"}, "lon": -76.9869415, "bike_id": "fd18414fb26bba3f7f70bf10f342573c", "type": "electric_scooter", "name": "fd18414fb26bba3f7f70bf10f342573c"}, {"is_disabled": 0, "is_reserved": 0, "fusion_lat": 0.0, "lat": 38.90526216666667, "fusion_lon": 0.0, "rental_uris": {"ios": "https://dc.lft.to/lastmile_qr_scan", "android": "https://dc.lft.to/lastmile_qr_scan"}, "lon": -77.0417345, "bike_id": "8aa6ff696c320035d6475dc8387f9038", "type": "electric_scooter", "name": "8aa6ff696c320035d6475dc8387f9038"}, {"is_disabled": 0, "is_reserved": 0, "fusion_lat": 0.0, "lat": 38.913584166666666, "fusion_lon": 0.0, "rental_uris": {"ios": "https://dc.lft.to/lastmile_qr_scan", "android": "https://dc.lft.to/lastmile_qr_scan"}, "lon": -77.046617, "bike_id": "77cbd0e291d1130a663c55cc2b0e6614", "type": "electric_scooter", "name": "77cbd0e291d1130a663c55cc2b0e6614"}, {"is_disabled": 0, "is_reserved": 0, "fusion_lat": 0.0, "lat": 38.898997333333334, "fusion_lon": 0.0, "rental_uris": {"ios": "https://dc.lft.to/lastmile_qr_scan", "android": "https://dc.lft.to/lastmile_qr_scan"}, "lon": -77.03195633333333, "bike_id": "fa2f20ac733546cfd46fc83fd3f36285", "type": "electric_scooter", "name": "fa2f20ac733546cfd46fc83fd3f36285"}, {"is_disabled": 0, "is_reserved": 0, "fusion_lat": 0.0, "lat": 38.912234, "fusion_lon": 0.0, "rental_uris": {"ios": "https://dc.lft.to/lastmile_qr_scan", "android": "https://dc.lft.to/lastmile_qr_scan"}, "lon": -77.0066175, "bike_id": "77e86ab237955f305761912ef1791c70", "type": "electric_scooter", "name": "77e86ab237955f305761912ef1791c70"}, {"is_disabled": 0, "is_reserved": 0, "fusion_lat": 0.0, "lat": 38.8617845, "fusion_lon": 0.0, "rental_uris": {"ios": "https://dc.lft.to/lastmile_qr_scan", "android": "https://dc.lft.to/lastmile_qr_scan"}, "lon": -77.088199, "bike_id": "dd3be8bea2590aa8c8d55786acd7b41e", "type": "electric_bike", "name": "dd3be8bea2590aa8c8d55786acd7b41e"}, {"is_disabled": 0, "is_reserved": 0, "fusion_lat": 0.0, "lat": 38.92441983333333, "fusion_lon": 0.0, "rental_uris": {"ios": "https://dc.lft.to/lastmile_qr_scan", "android": "https://dc.lft.to/lastmile_qr_scan"}, "lon": -77.04032133333334, "bike_id": "438639a4d3b96cb2717e6504d56225ec", "type": "electric_scooter", "name": "438639a4d3b96cb2717e6504d56225ec"}, {"is_disabled": 0, "is_reserved": 0, "fusion_lat": 0.0, "lat": 38.927855, "fusion_lon": 0.0, "rental_uris": {"ios": "https://dc.lft.to/lastmile_qr_scan", "android": "https://dc.lft.to/lastmile_qr_scan"}, "lon": -77.052587, "bike_id": "d8ad3b391276f296db6e8557b6ba6a0c", "type": "electric_scooter", "name": "d8ad3b391276f296db6e8557b6ba6a0c"}, {"is_disabled": 0, "is_reserved": 0, "fusion_lat": 0.0, "lat": 38.941026666666666, "fusion_lon": 0.0, "rental_uris": {"ios": "https://dc.lft.to/lastmile_qr_scan", "android": "https://dc.lft.to/lastmile_qr_scan"}, "lon": -76.95625383333334, "bike_id": "25543d9af1e6fe0e0661bc5c18228e64", "type": "electric_bike", "name": "25543d9af1e6fe0e0661bc5c18228e64"}, {"is_disabled": 0, "is_reserved": 0, "fusion_lat": 0.0, "lat": 38.94285683333333, "fusion_lon": 0.0, "rental_uris": {"ios": "https://dc.lft.to/lastmile_qr_scan", "android": "https://dc.lft.to/lastmile_qr_scan"}, "lon": -77.07716883333333, "bike_id": "d9d386ee3ea5b3bedee4c163f81ea982", "type": "electric_scooter", "name": "d9d386ee3ea5b3bedee4c163f81ea982"}, {"is_disabled": 0, "is_reserved": 0, "fusion_lat": 0.0, "lat": 38.911178166666666, "fusion_lon": 0.0, "rental_uris": {"ios": "https://dc.lft.to/lastmile_qr_scan", "android": "https://dc.lft.to/lastmile_qr_scan"}, "lon": -77.03828183333333, "bike_id": "01ef810b7e8fb4fdf02f1f779f84599d", "type": "electric_scooter", "name": "01ef810b7e8fb4fdf02f1f779f84599d"}, {"is_disabled": 0, "is_reserved": 0, "fusion_lat": 0.0, "lat": 38.88662983333333, "fusion_lon": 0.0, "rental_uris": {"ios": "https://dc.lft.to/lastmile_qr_scan", "android": "https://dc.lft.to/lastmile_qr_scan"}, "lon": -77.162353, "bike_id": "e084e1f06dab72e02cc1c2c640541430", "type": "electric_bike", "name": "e084e1f06dab72e02cc1c2c640541430"}, {"is_disabled": 0, "is_reserved": 0, "fusion_lat": 0.0, "lat": 38.9077345, "fusion_lon": 0.0, "rental_uris": {"ios": "https://dc.lft.to/lastmile_qr_scan", "android": "https://dc.lft.to/lastmile_qr_scan"}, "lon": -77.03543116666667, "bike_id": "f32a0e86cc5f770b5db9b53e1fd88814", "type": "electric_scooter", "name": "f32a0e86cc5f770b5db9b53e1fd88814"}, {"is_disabled": 0, "is_reserved": 0, "fusion_lat": 0.0, "lat": 38.90645633333333, "fusion_lon": 0.0, "rental_uris": {"ios": "https://dc.lft.to/lastmile_qr_scan", "android": "https://dc.lft.to/lastmile_qr_scan"}, "lon": -77.05319583333333, "bike_id": "cd3719ac802331ad5a5fe44bf8e29d98", "type": "electric_scooter", "name": "cd3719ac802331ad5a5fe44bf8e29d98"}, {"is_disabled": 0, "is_reserved": 0, "fusion_lat": 0.0, "lat": 38.89969833333333, "fusion_lon": 0.0, "rental_uris": {"ios": "https://dc.lft.to/lastmile_qr_scan", "android": "https://dc.lft.to/lastmile_qr_scan"}, "lon": -77.0273835, "bike_id": "6550dd336aa07f28e737c1affbd97421", "type": "electric_scooter", "name": "6550dd336aa07f28e737c1affbd97421"}, {"is_disabled": 0, "is_reserved": 0, "fusion_lat": 0.0, "lat": 38.96768616666667, "fusion_lon": 0.0, "rental_uris": {"ios": "https://dc.lft.to/lastmile_qr_scan", "android": "https://dc.lft.to/lastmile_qr_scan"}, "lon": -77.03423366666667, "bike_id": "fcfc5b4989e04eb43493d1f0493692dc", "type": "electric_scooter", "name": "fcfc5b4989e04eb43493d1f0493692dc"}, {"is_disabled": 0, "is_reserved": 0, "fusion_lat": 0.0, "lat": 38.9052735, "fusion_lon": 0.0, "rental_uris": {"ios": "https://dc.lft.to/lastmile_qr_scan", "android": "https://dc.lft.to/lastmile_qr_scan"}, "lon": -77.0271475, "bike_id": "c9341beeeedac212648c818e3d333208", "type": "electric_scooter", "name": "c9341beeeedac212648c818e3d333208"}, {"is_disabled": 0, "is_reserved": 0, "fusion_lat": 0.0, "lat": 38.9252, "fusion_lon": 0.0, "rental_uris": {"ios": "https://dc.lft.to/lastmile_qr_scan", "android": "https://dc.lft.to/lastmile_qr_scan"}, "lon": -77.02133433333333, "bike_id": "039c7744016484d442848b94375fd440", "type": "electric_scooter", "name": "039c7744016484d442848b94375fd440"}, {"is_disabled": 0, "is_reserved": 0, "fusion_lat": 0.0, "lat": 38.9216125, "fusion_lon": 0.0, "rental_uris": {"ios": "https://dc.lft.to/lastmile_qr_scan", "android": "https://dc.lft.to/lastmile_qr_scan"}, "lon": -77.033872, "bike_id": "95740ec3db6dc878a580a7bf5e45bbe7", "type": "electric_scooter", "name": "95740ec3db6dc878a580a7bf5e45bbe7"}, {"is_disabled": 0, "is_reserved": 0, "fusion_lat": 0.0, "lat": 38.896104666666666, "fusion_lon": 0.0, "rental_uris": {"ios": "https://dc.lft.to/lastmile_qr_scan", "android": "https://dc.lft.to/lastmile_qr_scan"}, "lon": -77.026649, "bike_id": "35d566bdaa16343d1be4091c189374bd", "type": "electric_scooter", "name": "35d566bdaa16343d1be4091c189374bd"}, {"is_disabled": 0, "is_reserved": 0, "fusion_lat": 0.0, "lat": 38.92222733333333, "fusion_lon": 0.0, "rental_uris": {"ios": "https://dc.lft.to/lastmile_qr_scan", "android": "https://dc.lft.to/lastmile_qr_scan"}, "lon": -77.03895466666667, "bike_id": "6ce7755b39fdb3a9b088a13c129e8896", "type": "electric_scooter", "name": "6ce7755b39fdb3a9b088a13c129e8896"}, {"is_disabled": 0, "is_reserved": 0, "fusion_lat": 0.0, "lat": 38.920494, "fusion_lon": 0.0, "rental_uris": {"ios": "https://dc.lft.to/lastmile_qr_scan", "android": "https://dc.lft.to/lastmile_qr_scan"}, "lon": -77.02361583333334, "bike_id": "5116f642a5a9348e3cc8a3fadc852789", "type": "electric_scooter", "name": "5116f642a5a9348e3cc8a3fadc852789"}, {"is_disabled": 0, "is_reserved": 0, "fusion_lat": 0.0, "lat": 38.87895683333333, "fusion_lon": 0.0, "rental_uris": {"ios": "https://dc.lft.to/lastmile_qr_scan", "android": "https://dc.lft.to/lastmile_qr_scan"}, "lon": -76.93531083333333, "bike_id": "75124fed7ed3a36ea73d073d7b0a7784", "type": "electric_scooter", "name": "75124fed7ed3a36ea73d073d7b0a7784"}, {"is_disabled": 0, "is_reserved": 0, "fusion_lat": 0.0, "lat": 38.91459966666667, "fusion_lon": 0.0, "rental_uris": {"ios": "https://dc.lft.to/lastmile_qr_scan", "android": "https://dc.lft.to/lastmile_qr_scan"}, "lon": -77.031942, "bike_id": "11dcd69eca78ef77549900c4bcbe5241", "type": "electric_scooter", "name": "11dcd69eca78ef77549900c4bcbe5241"}, {"is_disabled": 0, "is_reserved": 0, "fusion_lat": 0.0, "lat": 38.86489866666667, "fusion_lon": 0.0, "rental_uris": {"ios": "https://dc.lft.to/lastmile_qr_scan", "android": "https://dc.lft.to/lastmile_qr_scan"}, "lon": -76.96983116666667, "bike_id": "4dbbced263b19ff45abf670f1cf8fc70", "type": "electric_bike", "name": "4dbbced263b19ff45abf670f1cf8fc70"}, {"is_disabled": 0, "is_reserved": 0, "fusion_lat": 0.0, "lat": 38.8948675, "fusion_lon": 0.0, "rental_uris": {"ios": "https://dc.lft.to/lastmile_qr_scan", "android": "https://dc.lft.to/lastmile_qr_scan"}, "lon": -77.023, "bike_id": "e4da9e39485c84a7b68bbca26029948d", "type": "electric_scooter", "name": "e4da9e39485c84a7b68bbca26029948d"}, {"is_disabled": 0, "is_reserved": 0, "fusion_lat": 0.0, "lat": 38.897430166666666, "fusion_lon": 0.0, "rental_uris": {"ios": "https://dc.lft.to/lastmile_qr_scan", "android": "https://dc.lft.to/lastmile_qr_scan"}, "lon": -77.01762116666667, "bike_id": "164b8a21d8d80294280a8f2ac230f67e", "type": "electric_scooter", "name": "164b8a21d8d80294280a8f2ac230f67e"}, {"is_disabled": 0, "is_reserved": 0, "fusion_lat": 0.0, "lat": 38.914370166666664, "fusion_lon": 0.0, "rental_uris": {"ios": "https://dc.lft.to/lastmile_qr_scan", "android": "https://dc.lft.to/lastmile_qr_scan"}, "lon": -77.0280975, "bike_id": "f8484dbb937903499ebb3aef137fb49e", "type": "electric_scooter", "name": "f8484dbb937903499ebb3aef137fb49e"}, {"is_disabled": 0, "is_reserved": 0, "fusion_lat": 0.0, "lat": 38.8968355, "fusion_lon": 0.0, "rental_uris": {"ios": "https://dc.lft.to/lastmile_qr_scan", "android": "https://dc.lft.to/lastmile_qr_scan"}, "lon": -76.939073, "bike_id": "5f966e9387af2862eace0561b98fab43", "type": "electric_scooter", "name": "5f966e9387af2862eace0561b98fab43"}, {"is_disabled": 0, "is_reserved": 0, "fusion_lat": 0.0, "lat": 38.917060666666664, "fusion_lon": 0.0, "rental_uris": {"ios": "https://dc.lft.to/lastmile_qr_scan", "android": "https://dc.lft.to/lastmile_qr_scan"}, "lon": -77.03489783333333, "bike_id": "b738e0c7b3fd5dd8d901f48a8c3680f4", "type": "electric_scooter", "name": "b738e0c7b3fd5dd8d901f48a8c3680f4"}, {"is_disabled": 0, "is_reserved": 0, "fusion_lat": 0.0, "lat": 38.91439733333333, "fusion_lon": 0.0, "rental_uris": {"ios": "https://dc.lft.to/lastmile_qr_scan", "android": "https://dc.lft.to/lastmile_qr_scan"}, "lon": -77.00898033333333, "bike_id": "682b225dffc1de9704bfc529df39d7d4", "type": "electric_scooter", "name": "682b225dffc1de9704bfc529df39d7d4"}, {"is_disabled": 0, "is_reserved": 0, "fusion_lat": 0.0, "lat": 38.8876395, "fusion_lon": 0.0, "rental_uris": {"ios": "https://dc.lft.to/lastmile_qr_scan", "android": "https://dc.lft.to/lastmile_qr_scan"}, "lon": -77.01463716666666, "bike_id": "1bdb160fa0d1d9d8652be5368a5345ed", "type": "electric_scooter", "name": "1bdb160fa0d1d9d8652be5368a5345ed"}, {"is_disabled": 0, "is_reserved": 0, "fusion_lat": 0.0, "lat": 38.862397666666666, "fusion_lon": 0.0, "rental_uris": {"ios": "https://dc.lft.to/lastmile_qr_scan", "android": "https://dc.lft.to/lastmile_qr_scan"}, "lon": -76.9951545, "bike_id": "7723861bbcef27e06f519c839f628ab9", "type": "electric_scooter", "name": "7723861bbcef27e06f519c839f628ab9"}, {"is_disabled": 0, "is_reserved": 0, "fusion_lat": 0.0, "lat": 38.91801783333333, "fusion_lon": 0.0, "rental_uris": {"ios": "https://dc.lft.to/lastmile_qr_scan", "android": "https://dc.lft.to/lastmile_qr_scan"}, "lon": -77.03436216666667, "bike_id": "f18372009cb0aedeffee9f938346594b", "type": "electric_scooter", "name": "f18372009cb0aedeffee9f938346594b"}, {"is_disabled": 0, "is_reserved": 0, "fusion_lat": 0.0, "lat": 38.905335, "fusion_lon": 0.0, "rental_uris": {"ios": "https://dc.lft.to/lastmile_qr_scan", "android": "https://dc.lft.to/lastmile_qr_scan"}, "lon": -77.0565735, "bike_id": "d9977a238ad13137c9e64dedd3a8eef7", "type": "electric_scooter", "name": "d9977a238ad13137c9e64dedd3a8eef7"}, {"is_disabled": 0, "is_reserved": 0, "fusion_lat": 0.0, "lat": 38.95072783333333, "fusion_lon": 0.0, "rental_uris": {"ios": "https://dc.lft.to/lastmile_qr_scan", "android": "https://dc.lft.to/lastmile_qr_scan"}, "lon": -76.99600283333334, "bike_id": "f2c402b6c3dac6e0f816cf590a699f1a", "type": "electric_bike", "name": "f2c402b6c3dac6e0f816cf590a699f1a"}, {"is_disabled": 0, "is_reserved": 0, "fusion_lat": 0.0, "lat": 38.922470833333335, "fusion_lon": 0.0, "rental_uris": {"ios": "https://dc.lft.to/lastmile_qr_scan", "android": "https://dc.lft.to/lastmile_qr_scan"}, "lon": -77.03898483333333, "bike_id": "40fb2f427b550ab101149a559da1a86e", "type": "electric_scooter", "name": "40fb2f427b550ab101149a559da1a86e"}, {"is_disabled": 0, "is_reserved": 0, "fusion_lat": 0.0, "lat": 38.9533135, "fusion_lon": 0.0, "rental_uris": {"ios": "https://dc.lft.to/lastmile_qr_scan", "android": "https://dc.lft.to/lastmile_qr_scan"}, "lon": -76.98247083333334, "bike_id": "c348d3677ea5bfade57433e09a86a13b", "type": "electric_bike", "name": "c348d3677ea5bfade57433e09a86a13b"}, {"is_disabled": 0, "is_reserved": 0, "fusion_lat": 0.0, "lat": 38.921466, "fusion_lon": 0.0, "rental_uris": {"ios": "https://dc.lft.to/lastmile_qr_scan", "android": "https://dc.lft.to/lastmile_qr_scan"}, "lon": -77.0350645, "bike_id": "92da20acc1f974d0c3e0fe74cc18bd62", "type": "electric_scooter", "name": "92da20acc1f974d0c3e0fe74cc18bd62"}, {"is_disabled": 0, "is_reserved": 0, "fusion_lat": 0.0, "lat": 38.89752933333333, "fusion_lon": 0.0, "rental_uris": {"ios": "https://dc.lft.to/lastmile_qr_scan", "android": "https://dc.lft.to/lastmile_qr_scan"}, "lon": -77.05485683333333, "bike_id": "9bdbef98a85e7a99775985049f1e423e", "type": "electric_scooter", "name": "9bdbef98a85e7a99775985049f1e423e"}, {"is_disabled": 0, "is_reserved": 0, "fusion_lat": 0.0, "lat": 38.910789, "fusion_lon": 0.0, "rental_uris": {"ios": "https://dc.lft.to/lastmile_qr_scan", "android": "https://dc.lft.to/lastmile_qr_scan"}, "lon": -77.0654715, "bike_id": "2033813c284a64e46e6307fdf62cc5cf", "type": "electric_scooter", "name": "2033813c284a64e46e6307fdf62cc5cf"}, {"is_disabled": 0, "is_reserved": 0, "fusion_lat": 0.0, "lat": 38.9182585, "fusion_lon": 0.0, "rental_uris": {"ios": "https://dc.lft.to/lastmile_qr_scan", "android": "https://dc.lft.to/lastmile_qr_scan"}, "lon": -77.02717066666666, "bike_id": "6af9ec4f59e8e6d688591012506616d8", "type": "electric_scooter", "name": "6af9ec4f59e8e6d688591012506616d8"}, {"is_disabled": 0, "is_reserved": 0, "fusion_lat": 0.0, "lat": 38.868877, "fusion_lon": 0.0, "rental_uris": {"ios": "https://dc.lft.to/lastmile_qr_scan", "android": "https://dc.lft.to/lastmile_qr_scan"}, "lon": -76.98999716666667, "bike_id": "46b05c392061379c8197aceb2b5712d0", "type": "electric_scooter", "name": "46b05c392061379c8197aceb2b5712d0"}, {"is_disabled": 0, "is_reserved": 0, "fusion_lat": 0.0, "lat": 38.88050066666667, "fusion_lon": 0.0, "rental_uris": {"ios": "https://dc.lft.to/lastmile_qr_scan", "android": "https://dc.lft.to/lastmile_qr_scan"}, "lon": -77.013277, "bike_id": "39b7e40868c04ad7f29b9d64bf4e05bc", "type": "electric_scooter", "name": "39b7e40868c04ad7f29b9d64bf4e05bc"}, {"is_disabled": 0, "is_reserved": 0, "fusion_lat": 0.0, "lat": 38.9102585, "fusion_lon": 0.0, "rental_uris": {"ios": "https://dc.lft.to/lastmile_qr_scan", "android": "https://dc.lft.to/lastmile_qr_scan"}, "lon": -77.03191466666667, "bike_id": "351344b6dfbaac7a3b1929fdcdd81b89", "type": "electric_scooter", "name": "351344b6dfbaac7a3b1929fdcdd81b89"}, {"is_disabled": 0, "is_reserved": 0, "fusion_lat": 0.0, "lat": 38.89597533333333, "fusion_lon": 0.0, "rental_uris": {"ios": "https://dc.lft.to/lastmile_qr_scan", "android": "https://dc.lft.to/lastmile_qr_scan"}, "lon": -76.98323083333334, "bike_id": "353a111413877a95592fad54968fcc5d", "type": "electric_scooter", "name": "353a111413877a95592fad54968fcc5d"}, {"is_disabled": 0, "is_reserved": 0, "fusion_lat": 0.0, "lat": 38.91571366666667, "fusion_lon": 0.0, "rental_uris": {"ios": "https://dc.lft.to/lastmile_qr_scan", "android": "https://dc.lft.to/lastmile_qr_scan"}, "lon": -77.05033483333334, "bike_id": "e35090e9ac2d76d45b6bd9b6f18a4e13", "type": "electric_scooter", "name": "e35090e9ac2d76d45b6bd9b6f18a4e13"}, {"is_disabled": 0, "is_reserved": 0, "fusion_lat": 0.0, "lat": 38.912641666666666, "fusion_lon": 0.0, "rental_uris": {"ios": "https://dc.lft.to/lastmile_qr_scan", "android": "https://dc.lft.to/lastmile_qr_scan"}, "lon": -77.0329895, "bike_id": "2ec8ef598d0efedd16a0d405a7a0631a", "type": "electric_scooter", "name": "2ec8ef598d0efedd16a0d405a7a0631a"}, {"is_disabled": 0, "is_reserved": 0, "fusion_lat": 0.0, "lat": 38.905080833333336, "fusion_lon": 0.0, "rental_uris": {"ios": "https://dc.lft.to/lastmile_qr_scan", "android": "https://dc.lft.to/lastmile_qr_scan"}, "lon": -77.06021533333333, "bike_id": "7ab4cd5344850c79257d4d399c894446", "type": "electric_scooter", "name": "7ab4cd5344850c79257d4d399c894446"}, {"is_disabled": 0, "is_reserved": 0, "fusion_lat": 0.0, "lat": 38.9059005, "fusion_lon": 0.0, "rental_uris": {"ios": "https://dc.lft.to/lastmile_qr_scan", "android": "https://dc.lft.to/lastmile_qr_scan"}, "lon": -77.01610183333334, "bike_id": "6b5e3ee0e79ee7fe7c29ece2e3161ab6", "type": "electric_scooter", "name": "6b5e3ee0e79ee7fe7c29ece2e3161ab6"}, {"is_disabled": 0, "is_reserved": 0, "fusion_lat": 0.0, "lat": 38.8841505, "fusion_lon": 0.0, "rental_uris": {"ios": "https://dc.lft.to/lastmile_qr_scan", "android": "https://dc.lft.to/lastmile_qr_scan"}, "lon": -77.02496016666667, "bike_id": "3d7c4ed6a85ca62b3d2cbd1d6f53d715", "type": "electric_scooter", "name": "3d7c4ed6a85ca62b3d2cbd1d6f53d715"}, {"is_disabled": 0, "is_reserved": 0, "fusion_lat": 0.0, "lat": 38.921384333333336, "fusion_lon": 0.0, "rental_uris": {"ios": "https://dc.lft.to/lastmile_qr_scan", "android": "https://dc.lft.to/lastmile_qr_scan"}, "lon": -77.0456245, "bike_id": "97e9567ba9dc74be2dd6feba3c203753", "type": "electric_scooter", "name": "97e9567ba9dc74be2dd6feba3c203753"}, {"is_disabled": 0, "is_reserved": 0, "fusion_lat": 0.0, "lat": 38.911419, "fusion_lon": 0.0, "rental_uris": {"ios": "https://dc.lft.to/lastmile_qr_scan", "android": "https://dc.lft.to/lastmile_qr_scan"}, "lon": -77.02194633333333, "bike_id": "34b19231fe627b562a534aeed41b4bdb", "type": "electric_scooter", "name": "34b19231fe627b562a534aeed41b4bdb"}, {"is_disabled": 0, "is_reserved": 0, "fusion_lat": 0.0, "lat": 38.9045115, "fusion_lon": 0.0, "rental_uris": {"ios": "https://dc.lft.to/lastmile_qr_scan", "android": "https://dc.lft.to/lastmile_qr_scan"}, "lon": -77.0307785, "bike_id": "dd9bf48e4f457baaccb8d504f8b3a733", "type": "electric_scooter", "name": "dd9bf48e4f457baaccb8d504f8b3a733"}, {"is_disabled": 0, "is_reserved": 0, "fusion_lat": 0.0, "lat": 38.88397783333333, "fusion_lon": 0.0, "rental_uris": {"ios": "https://dc.lft.to/lastmile_qr_scan", "android": "https://dc.lft.to/lastmile_qr_scan"}, "lon": -77.03033083333334, "bike_id": "a1d3421d5e03206612206fb74d95cb38", "type": "electric_scooter", "name": "a1d3421d5e03206612206fb74d95cb38"}, {"is_disabled": 0, "is_reserved": 0, "fusion_lat": 0.0, "lat": 38.923373833333336, "fusion_lon": 0.0, "rental_uris": {"ios": "https://dc.lft.to/lastmile_qr_scan", "android": "https://dc.lft.to/lastmile_qr_scan"}, "lon": -77.03526333333333, "bike_id": "a235017f894bee5cfbdd7327f8cad294", "type": "electric_scooter", "name": "a235017f894bee5cfbdd7327f8cad294"}, {"is_disabled": 0, "is_reserved": 0, "fusion_lat": 0.0, "lat": 38.892433, "fusion_lon": 0.0, "rental_uris": {"ios": "https://dc.lft.to/lastmile_qr_scan", "android": "https://dc.lft.to/lastmile_qr_scan"}, "lon": -77.03360033333334, "bike_id": "dba4bcde86c5954d1badfa38274c3ec1", "type": "electric_scooter", "name": "dba4bcde86c5954d1badfa38274c3ec1"}, {"is_disabled": 0, "is_reserved": 0, "fusion_lat": 0.0, "lat": 38.929119666666665, "fusion_lon": 0.0, "rental_uris": {"ios": "https://dc.lft.to/lastmile_qr_scan", "android": "https://dc.lft.to/lastmile_qr_scan"}, "lon": -77.05983483333333, "bike_id": "53ecd9acff1758d54d81f28010a48ba8", "type": "electric_scooter", "name": "53ecd9acff1758d54d81f28010a48ba8"}, {"is_disabled": 0, "is_reserved": 0, "fusion_lat": 0.0, "lat": 38.9208885, "fusion_lon": 0.0, "rental_uris": {"ios": "https://dc.lft.to/lastmile_qr_scan", "android": "https://dc.lft.to/lastmile_qr_scan"}, "lon": -77.02412516666666, "bike_id": "46bc67f5eaa94e784f9cc419f745fd42", "type": "electric_scooter", "name": "46bc67f5eaa94e784f9cc419f745fd42"}, {"is_disabled": 0, "is_reserved": 0, "fusion_lat": 0.0, "lat": 38.90606783333333, "fusion_lon": 0.0, "rental_uris": {"ios": "https://dc.lft.to/lastmile_qr_scan", "android": "https://dc.lft.to/lastmile_qr_scan"}, "lon": -77.0240035, "bike_id": "b9a80bee60a12540de52b1daf7ae69fb", "type": "electric_scooter", "name": "b9a80bee60a12540de52b1daf7ae69fb"}, {"is_disabled": 0, "is_reserved": 0, "fusion_lat": 0.0, "lat": 38.91785566666667, "fusion_lon": 0.0, "rental_uris": {"ios": "https://dc.lft.to/lastmile_qr_scan", "android": "https://dc.lft.to/lastmile_qr_scan"}, "lon": -77.031967, "bike_id": "cc0d3d3fcec1110f4f0cca80d98a54fb", "type": "electric_scooter", "name": "cc0d3d3fcec1110f4f0cca80d98a54fb"}, {"is_disabled": 0, "is_reserved": 0, "fusion_lat": 0.0, "lat": 38.8773205, "fusion_lon": 0.0, "rental_uris": {"ios": "https://dc.lft.to/lastmile_qr_scan", "android": "https://dc.lft.to/lastmile_qr_scan"}, "lon": -77.11846733333333, "bike_id": "76d3eaa68380af73eedf33a489a464ed", "type": "electric_bike", "name": "76d3eaa68380af73eedf33a489a464ed"}, {"is_disabled": 0, "is_reserved": 0, "fusion_lat": 0.0, "lat": 38.91940533333333, "fusion_lon": 0.0, "rental_uris": {"ios": "https://dc.lft.to/lastmile_qr_scan", "android": "https://dc.lft.to/lastmile_qr_scan"}, "lon": -77.02493916666667, "bike_id": "9f0e1cfadc670fff42f34c91a5e52dab", "type": "electric_scooter", "name": "9f0e1cfadc670fff42f34c91a5e52dab"}, {"is_disabled": 0, "is_reserved": 0, "fusion_lat": 0.0, "lat": 38.89619583333333, "fusion_lon": 0.0, "rental_uris": {"ios": "https://dc.lft.to/lastmile_qr_scan", "android": "https://dc.lft.to/lastmile_qr_scan"}, "lon": -76.907506, "bike_id": "1ddfdeff55dcb8b20ea1f36b84020d2f", "type": "electric_bike", "name": "1ddfdeff55dcb8b20ea1f36b84020d2f"}, {"is_disabled": 0, "is_reserved": 0, "fusion_lat": 0.0, "lat": 38.92305283333334, "fusion_lon": 0.0, "rental_uris": {"ios": "https://dc.lft.to/lastmile_qr_scan", "android": "https://dc.lft.to/lastmile_qr_scan"}, "lon": -77.02969166666666, "bike_id": "fd5557b89ec6ca5683869a1494fec6e1", "type": "electric_scooter", "name": "fd5557b89ec6ca5683869a1494fec6e1"}, {"is_disabled": 0, "is_reserved": 0, "fusion_lat": 0.0, "lat": 38.90271166666667, "fusion_lon": 0.0, "rental_uris": {"ios": "https://dc.lft.to/lastmile_qr_scan", "android": "https://dc.lft.to/lastmile_qr_scan"}, "lon": -77.03975516666667, "bike_id": "ad72859b0c64b2fcda665734562b7fd9", "type": "electric_scooter", "name": "ad72859b0c64b2fcda665734562b7fd9"}, {"is_disabled": 0, "is_reserved": 0, "fusion_lat": 0.0, "lat": 38.957556833333335, "fusion_lon": 0.0, "rental_uris": {"ios": "https://dc.lft.to/lastmile_qr_scan", "android": "https://dc.lft.to/lastmile_qr_scan"}, "lon": -77.022085, "bike_id": "ff3df56c7d2d263f45225cc7bb1407ed", "type": "electric_scooter", "name": "ff3df56c7d2d263f45225cc7bb1407ed"}, {"is_disabled": 0, "is_reserved": 0, "fusion_lat": 0.0, "lat": 38.87667966666667, "fusion_lon": 0.0, "rental_uris": {"ios": "https://dc.lft.to/lastmile_qr_scan", "android": "https://dc.lft.to/lastmile_qr_scan"}, "lon": -76.99625916666666, "bike_id": "c260b7eb31812fee060fd810b9a3758e", "type": "electric_scooter", "name": "c260b7eb31812fee060fd810b9a3758e"}, {"is_disabled": 0, "is_reserved": 0, "fusion_lat": 0.0, "lat": 38.916760333333336, "fusion_lon": 0.0, "rental_uris": {"ios": "https://dc.lft.to/lastmile_qr_scan", "android": "https://dc.lft.to/lastmile_qr_scan"}, "lon": -77.02969683333333, "bike_id": "17233d5206a84ecb33ea49a4b4fc1f17", "type": "electric_scooter", "name": "17233d5206a84ecb33ea49a4b4fc1f17"}, {"is_disabled": 0, "is_reserved": 0, "fusion_lat": 0.0, "lat": 38.885329666666664, "fusion_lon": 0.0, "rental_uris": {"ios": "https://dc.lft.to/lastmile_qr_scan", "android": "https://dc.lft.to/lastmile_qr_scan"}, "lon": -76.98055983333333, "bike_id": "8b36d80b2981a7121af40b9bc47241ea", "type": "electric_scooter", "name": "8b36d80b2981a7121af40b9bc47241ea"}, {"is_disabled": 0, "is_reserved": 0, "fusion_lat": 0.0, "lat": 38.91640666666667, "fusion_lon": 0.0, "rental_uris": {"ios": "https://dc.lft.to/lastmile_qr_scan", "android": "https://dc.lft.to/lastmile_qr_scan"}, "lon": -77.023983, "bike_id": "ba5efb3f2a02015937b0b95b57b7cf36", "type": "electric_scooter", "name": "ba5efb3f2a02015937b0b95b57b7cf36"}, {"is_disabled": 0, "is_reserved": 0, "fusion_lat": 0.0, "lat": 38.9568785, "fusion_lon": 0.0, "rental_uris": {"ios": "https://dc.lft.to/lastmile_qr_scan", "android": "https://dc.lft.to/lastmile_qr_scan"}, "lon": -77.02231216666667, "bike_id": "da0f5c8925f21c8f20dee1fba98189b1", "type": "electric_scooter", "name": "da0f5c8925f21c8f20dee1fba98189b1"}, {"is_disabled": 0, "is_reserved": 0, "fusion_lat": 0.0, "lat": 38.9265495, "fusion_lon": 0.0, "rental_uris": {"ios": "https://dc.lft.to/lastmile_qr_scan", "android": "https://dc.lft.to/lastmile_qr_scan"}, "lon": -77.02433816666667, "bike_id": "e8dde1de61a65414e441e23ccfb1e08e", "type": "electric_scooter", "name": "e8dde1de61a65414e441e23ccfb1e08e"}, {"is_disabled": 0, "is_reserved": 0, "fusion_lat": 0.0, "lat": 38.901846, "fusion_lon": 0.0, "rental_uris": {"ios": "https://dc.lft.to/lastmile_qr_scan", "android": "https://dc.lft.to/lastmile_qr_scan"}, "lon": -77.05075016666666, "bike_id": "f7302cdc8222795a291ccb86a0a865ec", "type": "electric_scooter", "name": "f7302cdc8222795a291ccb86a0a865ec"}, {"is_disabled": 0, "is_reserved": 0, "fusion_lat": 0.0, "lat": 38.92379783333333, "fusion_lon": 0.0, "rental_uris": {"ios": "https://dc.lft.to/lastmile_qr_scan", "android": "https://dc.lft.to/lastmile_qr_scan"}, "lon": -77.0268185, "bike_id": "9f11ab6c6d322eee9641ae5404487ba0", "type": "electric_scooter", "name": "9f11ab6c6d322eee9641ae5404487ba0"}, {"is_disabled": 0, "is_reserved": 0, "fusion_lat": 0.0, "lat": 38.94724333333333, "fusion_lon": 0.0, "rental_uris": {"ios": "https://dc.lft.to/lastmile_qr_scan", "android": "https://dc.lft.to/lastmile_qr_scan"}, "lon": -77.023551, "bike_id": "36a12f54faadc81a6247b181f1a1d95d", "type": "electric_scooter", "name": "36a12f54faadc81a6247b181f1a1d95d"}, {"is_disabled": 0, "is_reserved": 0, "fusion_lat": 0.0, "lat": 38.91329266666666, "fusion_lon": 0.0, "rental_uris": {"ios": "https://dc.lft.to/lastmile_qr_scan", "android": "https://dc.lft.to/lastmile_qr_scan"}, "lon": -77.03124333333334, "bike_id": "a87a66bf8f0ad723014cd18d9bac411e", "type": "electric_scooter", "name": "a87a66bf8f0ad723014cd18d9bac411e"}, {"is_disabled": 0, "is_reserved": 0, "fusion_lat": 0.0, "lat": 38.9254665, "fusion_lon": 0.0, "rental_uris": {"ios": "https://dc.lft.to/lastmile_qr_scan", "android": "https://dc.lft.to/lastmile_qr_scan"}, "lon": -77.02278566666666, "bike_id": "2447de3c63290644dfadbf137dbc92af", "type": "electric_scooter", "name": "2447de3c63290644dfadbf137dbc92af"}, {"is_disabled": 0, "is_reserved": 0, "fusion_lat": 0.0, "lat": 38.917858333333335, "fusion_lon": 0.0, "rental_uris": {"ios": "https://dc.lft.to/lastmile_qr_scan", "android": "https://dc.lft.to/lastmile_qr_scan"}, "lon": -77.02474283333333, "bike_id": "1dffb6a909f1af32c36f39984e5b7192", "type": "electric_scooter", "name": "1dffb6a909f1af32c36f39984e5b7192"}, {"is_disabled": 0, "is_reserved": 0, "fusion_lat": 0.0, "lat": 38.918175, "fusion_lon": 0.0, "rental_uris": {"ios": "https://dc.lft.to/lastmile_qr_scan", "android": "https://dc.lft.to/lastmile_qr_scan"}, "lon": -77.0252385, "bike_id": "a70d2937183638c70512684f8a998be5", "type": "electric_scooter", "name": "a70d2937183638c70512684f8a998be5"}, {"is_disabled": 0, "is_reserved": 0, "fusion_lat": 0.0, "lat": 38.917170666666664, "fusion_lon": 0.0, "rental_uris": {"ios": "https://dc.lft.to/lastmile_qr_scan", "android": "https://dc.lft.to/lastmile_qr_scan"}, "lon": -77.038615, "bike_id": "5de560488327c155a8e6f131164b5340", "type": "electric_scooter", "name": "5de560488327c155a8e6f131164b5340"}, {"is_disabled": 0, "is_reserved": 0, "fusion_lat": 0.0, "lat": 38.902265666666665, "fusion_lon": 0.0, "rental_uris": {"ios": "https://dc.lft.to/lastmile_qr_scan", "android": "https://dc.lft.to/lastmile_qr_scan"}, "lon": -77.0320965, "bike_id": "0e0688966c9ecaf2e9a33a687b975c4c", "type": "electric_scooter", "name": "0e0688966c9ecaf2e9a33a687b975c4c"}, {"is_disabled": 0, "is_reserved": 0, "fusion_lat": 0.0, "lat": 38.89251983333333, "fusion_lon": 0.0, "rental_uris": {"ios": "https://dc.lft.to/lastmile_qr_scan", "android": "https://dc.lft.to/lastmile_qr_scan"}, "lon": -77.0182825, "bike_id": "7e83e19c28eb9706ad429bddc10b757b", "type": "electric_scooter", "name": "7e83e19c28eb9706ad429bddc10b757b"}, {"is_disabled": 0, "is_reserved": 0, "fusion_lat": 0.0, "lat": 38.9370055, "fusion_lon": 0.0, "rental_uris": {"ios": "https://dc.lft.to/lastmile_qr_scan", "android": "https://dc.lft.to/lastmile_qr_scan"}, "lon": -77.0559735, "bike_id": "954c304355ad7f7a4fd433fb6ee82f1e", "type": "electric_scooter", "name": "954c304355ad7f7a4fd433fb6ee82f1e"}, {"is_disabled": 0, "is_reserved": 0, "fusion_lat": 0.0, "lat": 38.902635333333336, "fusion_lon": 0.0, "rental_uris": {"ios": "https://dc.lft.to/lastmile_qr_scan", "android": "https://dc.lft.to/lastmile_qr_scan"}, "lon": -77.03977433333333, "bike_id": "bb41ec0b43a967ab4d81e21ed741f05e", "type": "electric_scooter", "name": "bb41ec0b43a967ab4d81e21ed741f05e"}, {"is_disabled": 0, "is_reserved": 0, "fusion_lat": 0.0, "lat": 38.95307566666666, "fusion_lon": 0.0, "rental_uris": {"ios": "https://dc.lft.to/lastmile_qr_scan", "android": "https://dc.lft.to/lastmile_qr_scan"}, "lon": -77.02019533333333, "bike_id": "7ab724a182f3ba97935fbabd7b85e00a", "type": "electric_scooter", "name": "7ab724a182f3ba97935fbabd7b85e00a"}, {"is_disabled": 0, "is_reserved": 0, "fusion_lat": 0.0, "lat": 38.934641166666665, "fusion_lon": 0.0, "rental_uris": {"ios": "https://dc.lft.to/lastmile_qr_scan", "android": "https://dc.lft.to/lastmile_qr_scan"}, "lon": -77.02409133333333, "bike_id": "1395e45f71d1be1df351d8dd8d6083dc", "type": "electric_scooter", "name": "1395e45f71d1be1df351d8dd8d6083dc"}, {"is_disabled": 0, "is_reserved": 0, "fusion_lat": 0.0, "lat": 38.89957316666667, "fusion_lon": 0.0, "rental_uris": {"ios": "https://dc.lft.to/lastmile_qr_scan", "android": "https://dc.lft.to/lastmile_qr_scan"}, "lon": -77.01615483333333, "bike_id": "7464c7f75fea83b3032281fb8ca4d0f2", "type": "electric_scooter", "name": "7464c7f75fea83b3032281fb8ca4d0f2"}, {"is_disabled": 0, "is_reserved": 0, "fusion_lat": 0.0, "lat": 38.896358, "fusion_lon": 0.0, "rental_uris": {"ios": "https://dc.lft.to/lastmile_qr_scan", "android": "https://dc.lft.to/lastmile_qr_scan"}, "lon": -77.0325745, "bike_id": "0ede7c99655688ed4615b8b81a832939", "type": "electric_scooter", "name": "0ede7c99655688ed4615b8b81a832939"}, {"is_disabled": 0, "is_reserved": 0, "fusion_lat": 0.0, "lat": 38.931959, "fusion_lon": 0.0, "rental_uris": {"ios": "https://dc.lft.to/lastmile_qr_scan", "android": "https://dc.lft.to/lastmile_qr_scan"}, "lon": -77.02451516666666, "bike_id": "1e6bbc054bb03e3027ce17f98a9c48d7", "type": "electric_scooter", "name": "1e6bbc054bb03e3027ce17f98a9c48d7"}, {"is_disabled": 0, "is_reserved": 0, "fusion_lat": 0.0, "lat": 38.9207865, "fusion_lon": 0.0, "rental_uris": {"ios": "https://dc.lft.to/lastmile_qr_scan", "android": "https://dc.lft.to/lastmile_qr_scan"}, "lon": -77.00454933333333, "bike_id": "f66d26c65781a7b3dd178e68d53451ca", "type": "electric_scooter", "name": "f66d26c65781a7b3dd178e68d53451ca"}, {"is_disabled": 0, "is_reserved": 0, "fusion_lat": 0.0, "lat": 38.905297, "fusion_lon": 0.0, "rental_uris": {"ios": "https://dc.lft.to/lastmile_qr_scan", "android": "https://dc.lft.to/lastmile_qr_scan"}, "lon": -77.062446, "bike_id": "4f4f51674ff154199d85c4840c82a467", "type": "electric_scooter", "name": "4f4f51674ff154199d85c4840c82a467"}, {"is_disabled": 0, "is_reserved": 0, "fusion_lat": 0.0, "lat": 38.905472833333334, "fusion_lon": 0.0, "rental_uris": {"ios": "https://dc.lft.to/lastmile_qr_scan", "android": "https://dc.lft.to/lastmile_qr_scan"}, "lon": -77.06270866666667, "bike_id": "ec16184fd9dc8b1ad2fdace3786e8c61", "type": "electric_scooter", "name": "ec16184fd9dc8b1ad2fdace3786e8c61"}, {"is_disabled": 0, "is_reserved": 0, "fusion_lat": 0.0, "lat": 38.87995633333333, "fusion_lon": 0.0, "rental_uris": {"ios": "https://dc.lft.to/lastmile_qr_scan", "android": "https://dc.lft.to/lastmile_qr_scan"}, "lon": -77.0374045, "bike_id": "12c0853f0f983173dc542436b0027ee7", "type": "electric_scooter", "name": "12c0853f0f983173dc542436b0027ee7"}, {"is_disabled": 0, "is_reserved": 0, "fusion_lat": 0.0, "lat": 38.902201, "fusion_lon": 0.0, "rental_uris": {"ios": "https://dc.lft.to/lastmile_qr_scan", "android": "https://dc.lft.to/lastmile_qr_scan"}, "lon": -76.9317585, "bike_id": "2cb70e96bb4c1f753b2b8545152a1e23", "type": "electric_bike", "name": "2cb70e96bb4c1f753b2b8545152a1e23"}, {"is_disabled": 0, "is_reserved": 0, "fusion_lat": 0.0, "lat": 38.9241695, "fusion_lon": 0.0, "rental_uris": {"ios": "https://dc.lft.to/lastmile_qr_scan", "android": "https://dc.lft.to/lastmile_qr_scan"}, "lon": -77.021302, "bike_id": "555f525d12db88ed8527d4aae0f3dbfe", "type": "electric_scooter", "name": "555f525d12db88ed8527d4aae0f3dbfe"}, {"is_disabled": 0, "is_reserved": 0, "fusion_lat": 0.0, "lat": 38.912136333333336, "fusion_lon": 0.0, "rental_uris": {"ios": "https://dc.lft.to/lastmile_qr_scan", "android": "https://dc.lft.to/lastmile_qr_scan"}, "lon": -77.00832766666667, "bike_id": "fa980be9b995abdd2f29631c17d46fcb", "type": "electric_scooter", "name": "fa980be9b995abdd2f29631c17d46fcb"}, {"is_disabled": 0, "is_reserved": 0, "fusion_lat": 0.0, "lat": 38.92460616666666, "fusion_lon": 0.0, "rental_uris": {"ios": "https://dc.lft.to/lastmile_qr_scan", "android": "https://dc.lft.to/lastmile_qr_scan"}, "lon": -77.0574415, "bike_id": "9f36e5ff7ef2972f62e7876cdd482cb8", "type": "electric_scooter", "name": "9f36e5ff7ef2972f62e7876cdd482cb8"}, {"is_disabled": 0, "is_reserved": 0, "fusion_lat": 0.0, "lat": 38.8980005, "fusion_lon": 0.0, "rental_uris": {"ios": "https://dc.lft.to/lastmile_qr_scan", "android": "https://dc.lft.to/lastmile_qr_scan"}, "lon": -76.97163716666667, "bike_id": "726d52d53c2697183a25bfc0877e6e42", "type": "electric_scooter", "name": "726d52d53c2697183a25bfc0877e6e42"}, {"is_disabled": 0, "is_reserved": 0, "fusion_lat": 0.0, "lat": 38.83864583333333, "fusion_lon": 0.0, "rental_uris": {"ios": "https://dc.lft.to/lastmile_qr_scan", "android": "https://dc.lft.to/lastmile_qr_scan"}, "lon": -76.99695116666666, "bike_id": "c8e64f95ca9a9d8bd561ab429a1c8e2b", "type": "electric_bike", "name": "c8e64f95ca9a9d8bd561ab429a1c8e2b"}, {"is_disabled": 0, "is_reserved": 0, "fusion_lat": 0.0, "lat": 38.917108999999996, "fusion_lon": 0.0, "rental_uris": {"ios": "https://dc.lft.to/lastmile_qr_scan", "android": "https://dc.lft.to/lastmile_qr_scan"}, "lon": -77.03122316666666, "bike_id": "ee80b0070008db69a60799df1a816449", "type": "electric_scooter", "name": "ee80b0070008db69a60799df1a816449"}, {"is_disabled": 0, "is_reserved": 0, "fusion_lat": 0.0, "lat": 38.90458533333333, "fusion_lon": 0.0, "rental_uris": {"ios": "https://dc.lft.to/lastmile_qr_scan", "android": "https://dc.lft.to/lastmile_qr_scan"}, "lon": -77.04870183333334, "bike_id": "cbf45946a175824ca21cb2ce401bd304", "type": "electric_scooter", "name": "cbf45946a175824ca21cb2ce401bd304"}, {"is_disabled": 0, "is_reserved": 0, "fusion_lat": 0.0, "lat": 38.91329783333333, "fusion_lon": 0.0, "rental_uris": {"ios": "https://dc.lft.to/lastmile_qr_scan", "android": "https://dc.lft.to/lastmile_qr_scan"}, "lon": -77.03267616666666, "bike_id": "3b9d28078ffa5eb67746a6e8418a84a4", "type": "electric_scooter", "name": "3b9d28078ffa5eb67746a6e8418a84a4"}, {"is_disabled": 0, "is_reserved": 0, "fusion_lat": 0.0, "lat": 38.90522283333333, "fusion_lon": 0.0, "rental_uris": {"ios": "https://dc.lft.to/lastmile_qr_scan", "android": "https://dc.lft.to/lastmile_qr_scan"}, "lon": -77.029686, "bike_id": "946a901d2cc23f88023235a71abe61dd", "type": "electric_scooter", "name": "946a901d2cc23f88023235a71abe61dd"}, {"is_disabled": 0, "is_reserved": 0, "fusion_lat": 0.0, "lat": 38.9286605, "fusion_lon": 0.0, "rental_uris": {"ios": "https://dc.lft.to/lastmile_qr_scan", "android": "https://dc.lft.to/lastmile_qr_scan"}, "lon": -77.07891383333333, "bike_id": "859f12e7b58788fe57ec2df7271c5da7", "type": "electric_scooter", "name": "859f12e7b58788fe57ec2df7271c5da7"}, {"is_disabled": 0, "is_reserved": 0, "fusion_lat": 0.0, "lat": 38.91832766666667, "fusion_lon": 0.0, "rental_uris": {"ios": "https://dc.lft.to/lastmile_qr_scan", "android": "https://dc.lft.to/lastmile_qr_scan"}, "lon": -77.0417005, "bike_id": "3c6114b01adc519bbe3c4109f0a99283", "type": "electric_scooter", "name": "3c6114b01adc519bbe3c4109f0a99283"}, {"is_disabled": 0, "is_reserved": 0, "fusion_lat": 0.0, "lat": 38.90968133333333, "fusion_lon": 0.0, "rental_uris": {"ios": "https://dc.lft.to/lastmile_qr_scan", "android": "https://dc.lft.to/lastmile_qr_scan"}, "lon": -77.0462165, "bike_id": "e622788d57a10ee32641069cad1bc9fb", "type": "electric_scooter", "name": "e622788d57a10ee32641069cad1bc9fb"}, {"is_disabled": 0, "is_reserved": 0, "fusion_lat": 0.0, "lat": 38.87452033333334, "fusion_lon": 0.0, "rental_uris": {"ios": "https://dc.lft.to/lastmile_qr_scan", "android": "https://dc.lft.to/lastmile_qr_scan"}, "lon": -77.0090725, "bike_id": "975336380ceaa26e78ae46f6e62342ba", "type": "electric_bike", "name": "975336380ceaa26e78ae46f6e62342ba"},