{"data": {"bikes": [{"name": "aec6c0685a5792964843a8cf9cf6d734", "type": "electric_scooter", "lat": 38.911077, "is_reserved": 0, "lon": -77.00758783333333, "fusion_lon": 0.0, "is_disabled": 0, "fusion_lat": 0.0, "bike_id": "aec6c0685a5792964843a8cf9cf6d734", "rental_uris": {"ios": "https://dc.lft.to/lastmile_qr_scan", "android": "https://dc.lft.to/lastmile_qr_scan"}}, {"name": "635d902b71962775b421ca7768168a31", "type": "electric_scooter", "lat": 38.8922075, "is_reserved": 0, "lon": -77.04367766666667, "fusion_lon": 0.0, "is_disabled": 0, "fusion_lat": 0.0, "bike_id": "635d902b71962775b421ca7768168a31", "rental_uris": {"ios": "https://dc.lft.to/lastmile_qr_scan", "android": "https://dc.lft.to/lastmile_qr_scan"}}, {"name": "670167a700d84514571e1d5179b71b08", "type": "electric_scooter", "lat": 38.9126115, "is_reserved": 0, "lon": -77.031434, "fusion_lon": 0.0, "is_disabled": 0, "fusion_lat": 0.0, "bike_id": "670167a700d84514571e1d5179b71b08", "rental_uris": {"ios": "https://dc.lft.to/lastmile_qr_scan", "android": "https://dc.lft.to/lastmile_qr_scan"}}, {"name": "8baef7c3f95e946c3f05a55374e40540", "type": "electric_scooter", "lat": 38.914050333333336, "is_reserved": 0, "lon": -77.039061, "fusion_lon": 0.0, "is_disabled": 0, "fusion_lat": 0.0, "bike_id": "8baef7c3f95e946c3f05a55374e40540", "rental_uris": {"ios": "https://dc.lft.to/lastmile_qr_scan", "android": "https://dc.lft.to/lastmile_qr_scan"}}, {"name": "92b70b667a0439efd95c1c1cf69d8327", "type": "electric_scooter", "lat": 38.89535883333333, "is_reserved": 0, "lon": -77.04847333333333, "fusion_lon": 0.0, "is_disabled": 0, "fusion_lat": 0.0, "bike_id": "92b70b667a0439efd95c1c1cf69d8327", "rental_uris": {"ios": "https://dc.lft.to/lastmile_qr_scan", "android": "https://dc.lft.to/lastmile_qr_scan"}}, {"name": "a5c84a0c382297706314eec943f8408c", "type": "electric_scooter", "lat": 38.89995566666666, "is_reserved": 0, "lon": -77.05239, "fusion_lon": 0.0, "is_disabled": 0, "fusion_lat": 0.0, "bike_id": "a5c84a0c382297706314eec943f8408c", "rental_uris": {"ios": "https://dc.lft.to/lastmile_qr_scan", "android": "https://dc.lft.to/lastmile_qr_scan"}}, {"name": "490405f8181608f1214b00f1d9dbd187", "type": "electric_scooter", "lat": 38.903569, "is_reserved": 0, "lon": -77.033751, "fusion_lon": 0.0, "is_disabled": 0, "fusion_lat": 0.0, "bike_id": "490405f8181608f1214b00f1d9dbd187", "rental_uris": {"ios": "https://dc.lft.to/lastmile_qr_scan", "android": "https://dc.lft.to/lastmile_qr_scan"}}, {"name": "0d994e282a06b6f8a931fdf4e2fd4bc7", "type": "electric_scooter", "lat": 38.87551833333333, "is_reserved": 0, "lon": -76.964914, "fusion_lon": 0.0, "is_disabled": 0, "fusion_lat": 0.0, "bike_id": "0d994e282a06b6f8a931fdf4e2fd4bc7", "rental_uris": {"ios": "https://dc.lft.to/lastmile_qr_scan", "android": "https://dc.lft.to/lastmile_qr_scan"}}, {"name": "cc253019199b00e9a274520dfcbc3fc6", "type": "electric_scooter", "lat": 38.915327166666664, "is_reserved": 0, "lon": -77.04609616666667, "fusion_lon": 0.0, "is_disabled": 0, "fusion_lat": 0.0, "bike_id": "cc253019199b00e9a274520dfcbc3fc6", "rental_uris": {"ios": "https://dc.lft.to/lastmile_qr_scan", "android": "https://dc.lft.to/lastmile_qr_scan"}}, {"name": "b167efc6d3e7026abf6475a3278813f1", "type": "electric_scooter", "lat": 38.91495483333333, "is_reserved": 0, "lon": -77.01853, "fusion_lon": 0.0, "is_disabled": 0, "fusion_lat": 0.0, "bike_id": "b167efc6d3e7026abf6475a3278813f1", "rental_uris": {"ios": "https://dc.lft.to/lastmile_qr_scan", "android": "https://dc.lft.to/lastmile_qr_scan"}}, {"name": "e3e7012244b2a302c14b9d3444a801fd", "type": "electric_scooter", "lat": 38.90002233333333, "is_reserved": 0, "lon": -76.98570683333334, "fusion_lon": 0.0, "is_disabled": 0, "fusion_lat": 0.0, "bike_id": "e3e7012244b2a302c14b9d3444a801fd", "rental_uris": {"ios": "https://dc.lft.to/lastmile_qr_scan", "android": "https://dc.lft.to/lastmile_qr_scan"}}, {"name": "c9df91cea71c676fcfe90d60e381d251", "type": "electric_scooter", "lat": 38.874331833333336, "is_reserved": 0, "lon": -77.02068766666666, "fusion_lon": 0.0, "is_disabled": 0, "fusion_lat": 0.0, "bike_id": "c9df91cea71c676fcfe90d60e381d251", "rental_uris": {"ios": "https://dc.lft.to/lastmile_qr_scan", "android": "https://dc.lft.to/lastmile_qr_scan"}}, {"name": "8899990d2b2ed1b9cda7b3a879b4dcab", "type": "electric_bike", "lat": 38.92350166666667, "is_reserved": 0, "lon": -76.9925435, "fusion_lon": 0.0, "is_disabled": 0, "fusion_lat": 0.0, "bike_id": "8899990d2b2ed1b9cda7b3a879b4dcab", "rental_uris": {"ios": "https://dc.lft.to/lastmile_qr_scan", "android": "https://dc.lft.to/lastmile_qr_scan"}}, {"name": "56e21b42a2a0562346e85ac4047520d6", "type": "electric_bike", "lat": 38.90473816666667, "is_reserved": 0, "lon": -76.92953583333333, "fusion_lon": 0.0, "is_disabled": 0, "fusion_lat": 0.0, "bike_id": "56e21b42a2a0562346e85ac4047520d6", "rental_uris": {"ios": "https://dc.lft.to/lastmile_qr_scan", "android": "https://dc.lft.to/lastmile_qr_scan"}}, {"name": "54e910c8781ca73e08d52d1bdf6ea227", "type": "electric_scooter", "lat": 38.91258466666667, "is_reserved": 0, "lon": -77.0036245, "fusion_lon": 0.0, "is_disabled": 0, "fusion_lat": 0.0, "bike_id": "54e910c8781ca73e08d52d1bdf6ea227", "rental_uris": {"ios": "https://dc.lft.to/lastmile_qr_scan", "android": "https://dc.lft.to/lastmile_qr_scan"}}, {"name": "41eeb91e6a687ebbf4416013289a10c8", "type": "electric_scooter", "lat": 38.89480416666667, "is_reserved": 0, "lon": -76.94871616666667, "fusion_lon": 0.0, "is_disabled": 0, "fusion_lat": 0.0, "bike_id": "41eeb91e6a687ebbf4416013289a10c8", "rental_uris": {"ios": "https://dc.lft.to/lastmile_qr_scan", "android": "https://dc.lft.to/lastmile_qr_scan"}}, {"name": "13b18bf2f3e780715da2076ae2ea344e", "type": "electric_scooter", "lat": 38.87659333333333, "is_reserved": 0, "lon": -77.00428633333334, "fusion_lon": 0.0, "is_disabled": 0, "fusion_lat": 0.0, "bike_id": "13b18bf2f3e780715da2076ae2ea344e", "rental_uris": {"ios": "https://dc.lft.to/lastmile_qr_scan", "android": "https://dc.lft.to/lastmile_qr_scan"}}, {"name": "d4e6e2fc3486fcda5996b3568f5930d9", "type": "electric_scooter", "lat": 38.9307105, "is_reserved": 0, "lon": -77.04140866666667, "fusion_lon": 0.0, "is_disabled": 0, "fusion_lat": 0.0, "bike_id": "d4e6e2fc3486fcda5996b3568f5930d9", "rental_uris": {"ios": "https://dc.lft.to/lastmile_qr_scan", "android": "https://dc.lft.to/lastmile_qr_scan"}}, {"name": "975d84f416f2e51fba63b31e5a0ed349", "type": "electric_scooter", "lat": 38.89668533333333, "is_reserved": 0, "lon": -77.02630116666667, "fusion_lon": 0.0, "is_disabled": 0, "fusion_lat": 0.0, "bike_id": "975d84f416f2e51fba63b31e5a0ed349", "rental_uris": {"ios": "https://dc.lft.to/lastmile_qr_scan", "android": "https://dc.lft.to/lastmile_qr_scan"}}, {"name": "926a7bc18517d770a1615dfdf9692e39", "type": "electric_scooter", "lat": 38.90675866666667, "is_reserved": 0, "lon": -77.0382615, "fusion_lon": 0.0, "is_disabled": 0, "fusion_lat": 0.0, "bike_id": "926a7bc18517d770a1615dfdf9692e39", "rental_uris": {"ios": "https://dc.lft.to/lastmile_qr_scan", "android": "https://dc.lft.to/lastmile_qr_scan"}}, {"name": "9cbc84e296396e915401dac874e7e020", "type": "electric_scooter", "lat": 38.90525066666667, "is_reserved": 0, "lon": -77.05022833333334, "fusion_lon": 0.0, "is_disabled": 0, "fusion_lat": 0.0, "bike_id": "9cbc84e296396e915401dac874e7e020", "rental_uris": {"ios": "https://dc.lft.to/lastmile_qr_scan", "android": "https://dc.lft.to/lastmile_qr_scan"}}, {"name": "c50cd684e637034ea00018df007b5400", "type": "electric_bike", "lat": 38.956904, "is_reserved": 0, "lon": -77.022273, "fusion_lon": 0.0, "is_disabled": 0, "fusion_lat": 0.0, "bike_id": "c50cd684e637034ea00018df007b5400", "rental_uris": {"ios": "https://dc.lft.to/lastmile_qr_scan", "android": "https://dc.lft.to/lastmile_qr_scan"}}, {"name": "e66877ecb65cfe7104d61f7a931c16a8", "type": "electric_scooter", "lat": 38.9154915, "is_reserved": 0, "lon": -77.03857933333333, "fusion_lon": 0.0, "is_disabled": 0, "fusion_lat": 0.0, "bike_id": "e66877ecb65cfe7104d61f7a931c16a8", "rental_uris": {"ios": "https://dc.lft.to/lastmile_qr_scan", "android": "https://dc.lft.to/lastmile_qr_scan"}}, {"name": "37f757db67a31b4d77110b89c674a8b1", "type": "electric_scooter", "lat": 38.88773333333334, "is_reserved": 0, "lon": -76.93265016666666, "fusion_lon": 0.0, "is_disabled": 0, "fusion_lat": 0.0, "bike_id": "37f757db67a31b4d77110b89c674a8b1", "rental_uris": {"ios": "https://dc.lft.to/lastmile_qr_scan", "android": "https://dc.lft.to/lastmile_qr_scan"}}, {"name": "538e98748432e38779a9e550cf1eb5be", "type": "electric_scooter", "lat": 38.8982755, "is_reserved": 0, "lon": -76.946518, "fusion_lon": 0.0, "is_disabled": 0, "fusion_lat": 0.0, "bike_id": "538e98748432e38779a9e550cf1eb5be", "rental_uris": {"ios": "https://dc.lft.to/lastmile_qr_scan", "android": "https://dc.lft.to/lastmile_qr_scan"}}, {"name": "abaae0d6acfccc9d36d754cbcd067519", "type": "electric_scooter", "lat": 38.8982625, "is_reserved": 0, "lon": -76.94651566666667, "fusion_lon": 0.0, "is_disabled": 0, "fusion_lat": 0.0, "bike_id": "abaae0d6acfccc9d36d754cbcd067519", "rental_uris": {"ios": "https://dc.lft.to/lastmile_qr_scan", "android": "https://dc.lft.to/lastmile_qr_scan"}}, {"name": "b386e7503bbebf096d7f6bf6defe3ba9", "type": "electric_scooter", "lat": 38.89456583333333, "is_reserved": 0, "lon": -77.0210975, "fusion_lon": 0.0, "is_disabled": 0, "fusion_lat": 0.0, "bike_id": "b386e7503bbebf096d7f6bf6defe3ba9", "rental_uris": {"ios": "https://dc.lft.to/lastmile_qr_scan", "android": "https://dc.lft.to/lastmile_qr_scan"}}, {"name": "f39586c2d54a11bea34dd8524fb16bd0", "type": "electric_scooter", "lat": 38.922524333333335, "is_reserved": 0, "lon": -77.0347295, "fusion_lon": 0.0, "is_disabled": 0, "fusion_lat": 0.0, "bike_id": "f39586c2d54a11bea34dd8524fb16bd0", "rental_uris": {"ios": "https://dc.lft.to/lastmile_qr_scan", "android": "https://dc.lft.to/lastmile_qr_scan"}}, {"name": "c26b02c1b79e8d90dc03fd7fea8273d5", "type": "electric_scooter", "lat": 38.92966666666667, "is_reserved": 0, "lon": -77.005343, "fusion_lon": 0.0, "is_disabled": 0, "fusion_lat": 0.0, "bike_id": "c26b02c1b79e8d90dc03fd7fea8273d5", "rental_uris": {"ios": "https://dc.lft.to/lastmile_qr_scan", "android": "https://dc.lft.to/lastmile_qr_scan"}}, {"name": "abb6539b78dad1d3c1c5ce8f3579b258", "type": "electric_scooter", "lat": 38.93863366666667, "is_reserved": 0, "lon": -77.02674516666667, "fusion_lon": 0.0, "is_disabled": 0, "fusion_lat": 0.0, "bike_id": "abb6539b78dad1d3c1c5ce8f3579b258", "rental_uris": {"ios": "https://dc.lft.to/lastmile_qr_scan", "android": "https://dc.lft.to/lastmile_qr_scan"}}, {"name": "56fe7fbe1e954c3f5cf3fd550f348d80", "type": "electric_scooter", "lat": 38.9263445, "is_reserved": 0, "lon": -77.034683, "fusion_lon": 0.0, "is_disabled": 0, "fusion_lat": 0.0, "bike_id": "56fe7fbe1e954c3f5cf3fd550f348d80", "rental_uris": {"ios": "https://dc.lft.to/lastmile_qr_scan", "android": "https://dc.lft.to/lastmile_qr_scan"}}, {"name": "478f64008d6701e52f80de934c743c95", "type": "electric_scooter", "lat": 38.942078333333335, "is_reserved": 0, "lon": -77.03597416666666, "fusion_lon": 0.0, "is_disabled": 0, "fusion_lat": 0.0, "bike_id": "478f64008d6701e52f80de934c743c95", "rental_uris": {"ios": "https://dc.lft.to/lastmile_qr_scan", "android": "https://dc.lft.to/lastmile_qr_scan"}}, {"name": "cbe69fea1b87046a2e62c6e20c66f96b", "type": "electric_scooter", "lat": 38.90368633333333, "is_reserved": 0, "lon": -77.04001516666666, "fusion_lon": 0.0, "is_disabled": 0, "fusion_lat": 0.0, "bike_id": "cbe69fea1b87046a2e62c6e20c66f96b", "rental_uris": {"ios": "https://dc.lft.to/lastmile_qr_scan", "android": "https://dc.lft.to/lastmile_qr_scan"}}, {"name": "a3bfc0bfe095149f1ee625e15f54b952", "type": "electric_scooter", "lat": 38.92125883333333, "is_reserved": 0, "lon": -77.03658066666667, "fusion_lon": 0.0, "is_disabled": 0, "fusion_lat": 0.0, "bike_id": "a3bfc0bfe095149f1ee625e15f54b952", "rental_uris": {"ios": "https://dc.lft.to/lastmile_qr_scan", "android": "https://dc.lft.to/lastmile_qr_scan"}}, {"name": "d0969af19190a7239f69eeec8f2731ab", "type": "electric_scooter", "lat": 38.9028165, "is_reserved": 0, "lon": -77.01713616666666, "fusion_lon": 0.0, "is_disabled": 0, "fusion_lat": 0.0, "bike_id": "d0969af19190a7239f69eeec8f2731ab", "rental_uris": {"ios": "https://dc.lft.to/lastmile_qr_scan", "android": "https://dc.lft.to/lastmile_qr_scan"}}, {"name": "b2060f760c21bbf2783c34b173d5fc55", "type": "electric_scooter", "lat": 38.906682333333336, "is_reserved": 0, "lon": -77.03859116666666, "fusion_lon": 0.0, "is_disabled": 0, "fusion_lat": 0.0, "bike_id": "b2060f760c21bbf2783c34b173d5fc55", "rental_uris": {"ios": "https://dc.lft.to/lastmile_qr_scan", "android": "https://dc.lft.to/lastmile_qr_scan"}}, {"name": "b7dc9c0a7ebe783a9931f1e4d504d28c", "type": "electric_scooter", "lat": 38.863546666666664, "is_reserved": 0, "lon": -76.99073616666666, "fusion_lon": 0.0, "is_disabled": 0, "fusion_lat": 0.0, "bike_id": "b7dc9c0a7ebe783a9931f1e4d504d28c", "rental_uris": {"ios": "https://dc.lft.to/lastmile_qr_scan", "android": "https://dc.lft.to/lastmile_qr_scan"}}, {"name": "04d265d7cafe3476bf21e9d3873e6df1", "type": "electric_scooter", "lat": 38.892230166666664, "is_reserved": 0, "lon": -77.04870716666667, "fusion_lon": 0.0, "is_disabled": 0, "fusion_lat": 0.0, "bike_id": "04d265d7cafe3476bf21e9d3873e6df1", "rental_uris": {"ios": "https://dc.lft.to/lastmile_qr_scan", "android": "https://dc.lft.to/lastmile_qr_scan"}}, {"name": "a5668e32bd3de4d2b9821c07605f3cb2", "type": "electric_scooter", "lat": 38.92381733333333, "is_reserved": 0, "lon": -77.03130616666667, "fusion_lon": 0.0, "is_disabled": 0, "fusion_lat": 0.0, "bike_id": "a5668e32bd3de4d2b9821c07605f3cb2", "rental_uris": {"ios": "https://dc.lft.to/lastmile_qr_scan", "android": "https://dc.lft.to/lastmile_qr_scan"}}, {"name": "38c4754b07fd3017b4a1a55f56c463e2", "type": "electric_scooter", "lat": 38.900074833333335, "is_reserved": 0, "lon": -76.99820533333333, "fusion_lon": 0.0, "is_disabled": 0, "fusion_lat": 0.0, "bike_id": "38c4754b07fd3017b4a1a55f56c463e2", "rental_uris": {"ios": "https://dc.lft.to/lastmile_qr_scan", "android": "https://dc.lft.to/lastmile_qr_scan"}}, {"name": "7d081279a68590554921042f0e371dc2", "type": "electric_scooter", "lat": 38.91338016666667, "is_reserved": 0, "lon": -77.04840316666667, "fusion_lon": 0.0, "is_disabled": 0, "fusion_lat": 0.0, "bike_id": "7d081279a68590554921042f0e371dc2", "rental_uris": {"ios": "https://dc.lft.to/lastmile_qr_scan", "android": "https://dc.lft.to/lastmile_qr_scan"}}, {"name": "6ecc34bfc60a3119ff3b2725500d0ffc", "type": "electric_scooter", "lat": 38.902267333333334, "is_reserved": 0, "lon": -77.01751866666666, "fusion_lon": 0.0, "is_disabled": 0, "fusion_lat": 0.0, "bike_id": "6ecc34bfc60a3119ff3b2725500d0ffc", "rental_uris": {"ios": "https://dc.lft.to/lastmile_qr_scan", "android": "https://dc.lft.to/lastmile_qr_scan"}}, {"name": "65552b00f2175cd0eac858b308078b87", "type": "electric_bike", "lat": 38.87663633333333, "is_reserved": 0, "lon": -77.01433616666667, "fusion_lon": 0.0, "is_disabled": 0, "fusion_lat": 0.0, "bike_id": "65552b00f2175cd0eac858b308078b87", "rental_uris": {"ios": "https://dc.lft.to/lastmile_qr_scan", "android": "https://dc.lft.to/lastmile_qr_scan"}}, {"name": "699b65ecbe789a601903f58e0dd84be2", "type": "electric_scooter", "lat": 38.90108016666667, "is_reserved": 0, "lon": -77.04987866666667, "fusion_lon": 0.0, "is_disabled": 0, "fusion_lat": 0.0, "bike_id": "699b65ecbe789a601903f58e0dd84be2", "rental_uris": {"ios": "https://dc.lft.to/lastmile_qr_scan", "android": "https://dc.lft.to/lastmile_qr_scan"}}, {"name": "3a5c582c78941bac84433b26630eb87e", "type": "electric_scooter", "lat": 38.87834516666667, "is_reserved": 0, "lon": -76.98841516666667, "fusion_lon": 0.0, "is_disabled": 0, "fusion_lat": 0.0, "bike_id": "3a5c582c78941bac84433b26630eb87e", "rental_uris": {"ios": "https://dc.lft.to/lastmile_qr_scan", "android": "https://dc.lft.to/lastmile_qr_scan"}}, {"name": "4a8370ddae704b19428e121064a35e74", "type": "electric_bike", "lat": 38.935795, "is_reserved": 0, "lon": -77.02124483333333, "fusion_lon": 0.0, "is_disabled": 0, "fusion_lat": 0.0, "bike_id": "4a8370ddae704b19428e121064a35e74", "rental_uris": {"ios": "https://dc.lft.to/lastmile_qr_scan", "android": "https://dc.lft.to/lastmile_qr_scan"}}, {"name": "c51b12ac5ba10dd44c565a6f0e2fbfbb", "type": "electric_scooter", "lat": 38.92045016666667, "is_reserved": 0, "lon": -77.04173766666666, "fusion_lon": 0.0, "is_disabled": 0, "fusion_lat": 0.0, "bike_id": "c51b12ac5ba10dd44c565a6f0e2fbfbb", "rental_uris": {"ios": "https://dc.lft.to/lastmile_qr_scan", "android": "https://dc.lft.to/lastmile_qr_scan"}}, {"name": "a94aa6d4b25cc6004b49500752d0cd6f", "type": "electric_scooter", "lat": 38.8805465, "is_reserved": 0, "lon": -77.01332316666667, "fusion_lon": 0.0, "is_disabled": 0, "fusion_lat": 0.0, "bike_id": "a94aa6d4b25cc6004b49500752d0cd6f", "rental_uris": {"ios": "https://dc.lft.to/lastmile_qr_scan", "android": "https://dc.lft.to/lastmile_qr_scan"}}, {"name": "1de32388b6533da388360058e5df6e43", "type": "electric_scooter", "lat": 38.8988385, "is_reserved": 0, "lon": -76.9317705, "fusion_lon": 0.0, "is_disabled": 0, "fusion_lat": 0.0, "bike_id": "1de32388b6533da388360058e5df6e43", "rental_uris": {"ios": "https://dc.lft.to/lastmile_qr_scan", "android": "https://dc.lft.to/lastmile_qr_scan"}}, {"name": "73efc90e2d450b19d3e8e6b4f28c113f", "type": "electric_scooter", "lat": 38.895208833333335, "is_reserved": 0, "lon": -76.99147683333334, "fusion_lon": 0.0, "is_disabled": 0, "fusion_lat": 0.0, "bike_id": "73efc90e2d450b19d3e8e6b4f28c113f", "rental_uris": {"ios": "https://dc.lft.to/lastmile_qr_scan", "android": "https://dc.lft.to/lastmile_qr_scan"}}, {"name": "f79857b4b34167c5d59e9990ce97d5a3", "type": "electric_bike", "lat": 38.99911383333333, "is_reserved": 0, "lon": -77.0462235, "fusion_lon": 0.0, "is_disabled": 0, "fusion_lat": 0.0, "bike_id": "f79857b4b34167c5d59e9990ce97d5a3", "rental_uris": {"ios": "https://dc.lft.to/lastmile_qr_scan", "android": "https://dc.lft.to/lastmile_qr_scan"}}, {"name": "8248545411c36b95c7f3a0243d6d6b7d", "type": "electric_bike", "lat": 38.908613833333334, "is_reserved": 0, "lon": -76.931651, "fusion_lon": 0.0, "is_disabled": 0, "fusion_lat": 0.0, "bike_id": "8248545411c36b95c7f3a0243d6d6b7d", "rental_uris": {"ios": "https://dc.lft.to/lastmile_qr_scan", "android": "https://dc.lft.to/lastmile_qr_scan"}}, {"name": "ec973751c8546b85e31040a031da6317", "type": "electric_scooter", "lat": 38.961146, "is_reserved": 0, "lon": -77.028112, "fusion_lon": 0.0, "is_disabled": 0, "fusion_lat": 0.0, "bike_id": "ec973751c8546b85e31040a031da6317", "rental_uris": {"ios": "https://dc.lft.to/lastmile_qr_scan", "android": "https://dc.lft.to/lastmile_qr_scan"}}, {"name": "83ce07479a87ac1cf095b6f27b7448a4", "type": "electric_scooter", "lat": 38.9193735, "is_reserved": 0, "lon": -77.04491133333333, "fusion_lon": 0.0, "is_disabled": 0, "fusion_lat": 0.0, "bike_id": "83ce07479a87ac1cf095b6f27b7448a4", "rental_uris": {"ios": "https://dc.lft.to/lastmile_qr_scan", "android": "https://dc.lft.to/lastmile_qr_scan"}}, {"name": "17a5a57da9f4e3e3351fe9c6237d6c0e", "type": "electric_bike", "lat": 38.84571283333333, "is_reserved": 0, "lon": -77.09623183333333, "fusion_lon": 0.0, "is_disabled": 0, "fusion_lat": 0.0, "bike_id": "17a5a57da9f4e3e3351fe9c6237d6c0e", "rental_uris": {"ios": "https://dc.lft.to/lastmile_qr_scan", "android": "https://dc.lft.to/lastmile_qr_scan"}}, {"name": "ef36dea56d525b48068ad20a01da219b", "type": "electric_scooter", "lat": 38.913382166666665, "is_reserved": 0, "lon": -77.01626833333333, "fusion_lon": 0.0, "is_disabled": 0, "fusion_lat": 0.0, "bike_id": "ef36dea56d525b48068ad20a01da219b", "rental_uris": {"ios": "https://dc.lft.to/lastmile_qr_scan", "android": "https://dc.lft.to/lastmile_qr_scan"}}, {"name": "4d4a1725300c970df554688239423cdb", "type": "electric_scooter", "lat": 38.90687616666666, "is_reserved": 0, "lon": -77.02496916666666, "fusion_lon": 0.0, "is_disabled": 0, "fusion_lat": 0.0, "bike_id": "4d4a1725300c970df554688239423cdb", "rental_uris": {"ios": "https://dc.lft.to/lastmile_qr_scan", "android": "https://dc.lft.to/lastmile_qr_scan"}}, {"name": "260ef17023251c6c1a1d3516c92a10b5", "type": "electric_scooter", "lat": 38.902535666666665, "is_reserved": 0, "lon": -77.01760416666667, "fusion_lon": 0.0, "is_disabled": 0, "fusion_lat": 0.0, "bike_id": "260ef17023251c6c1a1d3516c92a10b5", "rental_uris": {"ios": "https://dc.lft.to/lastmile_qr_scan", "android": "https://dc.lft.to/lastmile_qr_scan"}}, {"name": "052612b89eaa1d7fd1154559d2232f2e", "type": "electric_scooter", "lat": 38.89344366666667, "is_reserved": 0, "lon": -76.993822, "fusion_lon": 0.0, "is_disabled": 0, "fusion_lat": 0.0, "bike_id": "052612b89eaa1d7fd1154559d2232f2e", "rental_uris": {"ios": "https://dc.lft.to/lastmile_qr_scan", "android": "https://dc.lft.to/lastmile_qr_scan"}}, {"name": "24741afdb8158e8cede974bb26632539", "type": "electric_scooter", "lat": 38.86368866666667, "is_reserved": 0, "lon": -77.01361416666667, "fusion_lon": 0.0, "is_disabled": 0, "fusion_lat": 0.0, "bike_id": "24741afdb8158e8cede974bb26632539", "rental_uris": {"ios": "https://dc.lft.to/lastmile_qr_scan", "android": "https://dc.lft.to/lastmile_qr_scan"}}, {"name": "bc8387fe669fdea3f18b8f0e7487b7fe", "type": "electric_scooter", "lat": 38.923041, "is_reserved": 0, "lon": -77.012106, "fusion_lon": 0.0, "is_disabled": 0, "fusion_lat": 0.0, "bike_id": "bc8387fe669fdea3f18b8f0e7487b7fe", "rental_uris": {"ios": "https://dc.lft.to/lastmile_qr_scan", "android": "https://dc.lft.to/lastmile_qr_scan"}}, {"name": "3f30402c0aab99345b927d8d9603a479", "type": "electric_scooter", "lat": 38.894565166666666, "is_reserved": 0, "lon": -77.01922633333334, "fusion_lon": 0.0, "is_disabled": 0, "fusion_lat": 0.0, "bike_id": "3f30402c0aab99345b927d8d9603a479", "rental_uris": {"ios": "https://dc.lft.to/lastmile_qr_scan", "android": "https://dc.lft.to/lastmile_qr_scan"}}, {"name": "f5bf982c6c7576a9da19f15b52a1469e", "type": "electric_bike", "lat": 38.8382825, "is_reserved": 0, "lon": -76.99681133333333, "fusion_lon": 0.0, "is_disabled": 0, "fusion_lat": 0.0, "bike_id": "f5bf982c6c7576a9da19f15b52a1469e", "rental_uris": {"ios": "https://dc.lft.to/lastmile_qr_scan", "android": "https://dc.lft.to/lastmile_qr_scan"}}, {"name": "b29921792495ffe2af71feab99a1242d", "type": "electric_scooter", "lat": 38.876300666666666, "is_reserved": 0, "lon": -76.96528416666666, "fusion_lon": 0.0, "is_disabled": 0, "fusion_lat": 0.0, "bike_id": "b29921792495ffe2af71feab99a1242d", "rental_uris": {"ios": "https://dc.lft.to/lastmile_qr_scan", "android": "https://dc.lft.to/lastmile_qr_scan"}}, {"name": "2e9745401d7e41bf5f49ab51c244f3b4", "type": "electric_scooter", "lat": 38.930883333333334, "is_reserved": 0, "lon": -77.02535333333333, "fusion_lon": 0.0, "is_disabled": 0, "fusion_lat": 0.0, "bike_id": "2e9745401d7e41bf5f49ab51c244f3b4", "rental_uris": {"ios": "https://dc.lft.to/lastmile_qr_scan", "android": "https://dc.lft.to/lastmile_qr_scan"}}, {"name": "d175112643adf37c3e73e6282a51d940", "type": "electric_scooter", "lat": 38.892277166666666, "is_reserved": 0, "lon": -77.015126, "fusion_lon": 0.0, "is_disabled": 0, "fusion_lat": 0.0, "bike_id": "d175112643adf37c3e73e6282a51d940", "rental_uris": {"ios": "https://dc.lft.to/lastmile_qr_scan", "android": "https://dc.lft.to/lastmile_qr_scan"}}, {"name": "a2261a0655d93d93639bd1af451d0b48", "type": "electric_scooter", "lat": 38.92353283333333, "is_reserved": 0, "lon": -77.05319633333333, "fusion_lon": 0.0, "is_disabled": 0, "fusion_lat": 0.0, "bike_id": "a2261a0655d93d93639bd1af451d0b48", "rental_uris": {"ios": "https://dc.lft.to/lastmile_qr_scan", "android": "https://dc.lft.to/lastmile_qr_scan"}}, {"name": "7065312c68eaaa9efc85fdf129f7bcce", "type": "electric_scooter", "lat": 38.93285266666667, "is_reserved": 0, "lon": -77.0398025, "fusion_lon": 0.0, "is_disabled": 0, "fusion_lat": 0.0, "bike_id": "7065312c68eaaa9efc85fdf129f7bcce", "rental_uris": {"ios": "https://dc.lft.to/lastmile_qr_scan", "android": "https://dc.lft.to/lastmile_qr_scan"}}, {"name": "7621ac92c58d9468fbbf83175cb965f3", "type": "electric_scooter", "lat": 38.86521166666667, "is_reserved": 0, "lon": -76.99036633333333, "fusion_lon": 0.0, "is_disabled": 0, "fusion_lat": 0.0, "bike_id": "7621ac92c58d9468fbbf83175cb965f3", "rental_uris": {"ios": "https://dc.lft.to/lastmile_qr_scan", "android": "https://dc.lft.to/lastmile_qr_scan"}}, {"name": "a5b0cb2cb885525e1b83deb3574dff7a", "type": "electric_scooter", "lat": 38.897415333333335, "is_reserved": 0, "lon": -76.938464, "fusion_lon": 0.0, "is_disabled": 0, "fusion_lat": 0.0, "bike_id": "a5b0cb2cb885525e1b83deb3574dff7a", "rental_uris": {"ios": "https://dc.lft.to/lastmile_qr_scan", "android": "https://dc.lft.to/lastmile_qr_scan"}}, {"name": "71b3205233431b294baf71c94b7b1d13", "type": "electric_scooter", "lat": 38.90841233333333, "is_reserved": 0, "lon": -77.02696983333334, "fusion_lon": 0.0, "is_disabled": 0, "fusion_lat": 0.0, "bike_id": "71b3205233431b294baf71c94b7b1d13", "rental_uris": {"ios": "https://dc.lft.to/lastmile_qr_scan", "android": "https://dc.lft.to/lastmile_qr_scan"}}, {"name": "fed1a6f630d1542c98d29edc074a36c4", "type": "electric_scooter", "lat": 38.9067165, "is_reserved": 0, "lon": -77.03812716666667, "fusion_lon": 0.0, "is_disabled": 0, "fusion_lat": 0.0, "bike_id": "fed1a6f630d1542c98d29edc074a36c4", "rental_uris": {"ios": "https://dc.lft.to/lastmile_qr_scan", "android": "https://dc.lft.to/lastmile_qr_scan"}}, {"name": "8f16e82990bcfc90aa4188d31205e1e6", "type": "electric_scooter", "lat": 38.88692966666667, "is_reserved": 0, "lon": -76.95759683333333, "fusion_lon": 0.0, "is_disabled": 0, "fusion_lat": 0.0, "bike_id": "8f16e82990bcfc90aa4188d31205e1e6", "rental_uris": {"ios": "https://dc.lft.to/lastmile_qr_scan", "android": "https://dc.lft.to/lastmile_qr_scan"}}, {"name": "d69dabd198b306d94c5ab7e9e4a0e5ee", "type": "electric_bike", "lat": 38.854364, "is_reserved": 0, "lon": -77.11705933333333, "fusion_lon": 0.0, "is_disabled": 0, "fusion_lat": 0.0, "bike_id": "d69dabd198b306d94c5ab7e9e4a0e5ee", "rental_uris": {"ios": "https://dc.lft.to/lastmile_qr_scan", "android": "https://dc.lft.to/lastmile_qr_scan"}}, {"name": "3636377d8d6193c8452110ca034f37b0", "type": "electric_scooter", "lat": 38.926864333333334, "is_reserved": 0, "lon": -77.021601, "fusion_lon": 0.0, "is_disabled": 0, "fusion_lat": 0.0, "bike_id": "3636377d8d6193c8452110ca034f37b0", "rental_uris": {"ios": "https://dc.lft.to/lastmile_qr_scan", "android": "https://dc.lft.to/lastmile_qr_scan"}}, {"name": "20ba48ff2386f4523928a0c762fd5af0", "type": "electric_scooter", "lat": 38.907257333333334, "is_reserved": 0, "lon": -77.02507416666667, "fusion_lon": 0.0, "is_disabled": 0, "fusion_lat": 0.0, "bike_id": "20ba48ff2386f4523928a0c762fd5af0", "rental_uris": {"ios": "https://dc.lft.to/lastmile_qr_scan", "android": "https://dc.lft.to/lastmile_qr_scan"}}, {"name": "f21d78a49278f4b4c5dc488b53cc6b3e", "type": "electric_scooter", "lat": 38.87890216666667, "is_reserved": 0, "lon": -77.022079, "fusion_lon": 0.0, "is_disabled": 0, "fusion_lat": 0.0, "bike_id": "f21d78a49278f4b4c5dc488b53cc6b3e", "rental_uris": {"ios": "https://dc.lft.to/lastmile_qr_scan", "android": "https://dc.lft.to/lastmile_qr_scan"}}, {"name": "0b341701ed6ee591024b5960f4c07367", "type": "electric_scooter", "lat": 38.93528366666666, "is_reserved": 0, "lon": -77.02855516666666, "fusion_lon": 0.0, "is_disabled": 0, "fusion_lat": 0.0, "bike_id": "0b341701ed6ee591024b5960f4c07367", "rental_uris": {"ios": "https://dc.lft.to/lastmile_qr_scan", "android": "https://dc.lft.to/lastmile_qr_scan"}}, {"name": "720e180c51d84a19ce86e0cf2f49efcf", "type": "electric_bike", "lat": 38.91173883333333, "is_reserved": 0, "lon": -77.01142733333333, "fusion_lon": 0.0, "is_disabled": 0, "fusion_lat": 0.0, "bike_id": "720e180c51d84a19ce86e0cf2f49efcf", "rental_uris": {"ios": "https://dc.lft.to/lastmile_qr_scan", "android": "https://dc.lft.to/lastmile_qr_scan"}}, {"name": "0a0ce6f8835c61bc013894ca9f74727d", "type": "electric_bike", "lat": 38.948908333333335, "is_reserved": 0, "lon": -77.01928266666667, "fusion_lon": 0.0, "is_disabled": 0, "fusion_lat": 0.0, "bike_id": "0a0ce6f8835c61bc013894ca9f74727d", "rental_uris": {"ios": "https://dc.lft.to/lastmile_qr_scan", "android": "https://dc.lft.to/lastmile_qr_scan"}}, {"name": "c321d74c44632164af16ad25850b191c", "type": "electric_scooter", "lat": 38.907950666666665, "is_reserved": 0, "lon": -76.99701983333334, "fusion_lon": 0.0, "is_disabled": 0, "fusion_lat": 0.0, "bike_id": "c321d74c44632164af16ad25850b191c", "rental_uris": {"ios": "https://dc.lft.to/lastmile_qr_scan", "android": "https://dc.lft.to/lastmile_qr_scan"}}, {"name": "f21310a248cc854902d57eafacbe821a", "type": "electric_scooter", "lat": 38.9106155, "is_reserved": 0, "lon": -77.03041483333334, "fusion_lon": 0.0, "is_disabled": 0, "fusion_lat": 0.0, "bike_id": "f21310a248cc854902d57eafacbe821a", "rental_uris": {"ios": "https://dc.lft.to/lastmile_qr_scan", "android": "https://dc.lft.to/lastmile_qr_scan"}}, {"name": "ada016d48989de6e360a2986a2c6d922", "type": "electric_scooter", "lat": 38.895251333333334, "is_reserved": 0, "lon": -77.01605, "fusion_lon": 0.0, "is_disabled": 0, "fusion_lat": 0.0, "bike_id": "ada016d48989de6e360a2986a2c6d922", "rental_uris": {"ios": "https://dc.lft.to/lastmile_qr_scan", "android": "https://dc.lft.to/lastmile_qr_scan"}}, {"name": "09d4fd81c4fbbff81de4568c7f9387b1", "type": "electric_scooter", "lat": 38.9350615, "is_reserved": 0, "lon": -77.02855, "fusion_lon": 0.0, "is_disabled": 0, "fusion_lat": 0.0, "bike_id": "09d4fd81c4fbbff81de4568c7f9387b1", "rental_uris": {"ios": "https://dc.lft.to/lastmile_qr_scan", "android": "https://dc.lft.to/lastmile_qr_scan"}}, {"name": "02714d90135a6951f6ac26cee0829b49", "type": "electric_scooter", "lat": 38.920715666666666, "is_reserved": 0, "lon": -77.03207866666666, "fusion_lon": 0.0, "is_disabled": 0, "fusion_lat": 0.0, "bike_id": "02714d90135a6951f6ac26cee0829b49", "rental_uris": {"ios": "https://dc.lft.to/lastmile_qr_scan", "android": "https://dc.lft.to/lastmile_qr_scan"}}, {"name": "f8c8ce7ac9033d92ed570a3210e0b9d7", "type": "electric_scooter", "lat": 38.941738, "is_reserved": 0, "lon": -77.03091516666667, "fusion_lon": 0.0, "is_disabled": 0, "fusion_lat": 0.0, "bike_id": "f8c8ce7ac9033d92ed570a3210e0b9d7", "rental_uris": {"ios": "https://dc.lft.to/lastmile_qr_scan", "android": "https://dc.lft.to/lastmile_qr_scan"}}, {"name": "0a0f5368459887a2fef944a2b8900803", "type": "electric_scooter", "lat": 38.9060345, "is_reserved": 0, "lon": -77.0132505, "fusion_lon": 0.0, "is_disabled": 0, "fusion_lat": 0.0, "bike_id": "0a0f5368459887a2fef944a2b8900803", "rental_uris": {"ios": "https://dc.lft.to/lastmile_qr_scan", "android": "https://dc.lft.to/lastmile_qr_scan"}}, {"name": "8d1c486859a35251a5be9d7900149cc9", "type": "electric_scooter", "lat": 38.90556933333333, "is_reserved": 0, "lon": -77.00603, "fusion_lon": 0.0, "is_disabled": 0, "fusion_lat": 0.0, "bike_id": "8d1c486859a35251a5be9d7900149cc9", "rental_uris": {"ios": "https://dc.lft.to/lastmile_qr_scan", "android": "https://dc.lft.to/lastmile_qr_scan"}}, {"name": "c2684888b91046b74c1689b3c8340636", "type": "electric_scooter", "lat": 38.91860783333333, "is_reserved": 0, "lon": -76.96549466666667, "fusion_lon": 0.0, "is_disabled": 0, "fusion_lat": 0.0, "bike_id": "c2684888b91046b74c1689b3c8340636", "rental_uris": {"ios": "https://dc.lft.to/lastmile_qr_scan", "android": "https://dc.lft.to/lastmile_qr_scan"}}, {"name": "d9f49a1dcf4279b180d3413846e44d7d", "type": "electric_bike", "lat": 38.955364, "is_reserved": 0, "lon": -77.02294966666666, "fusion_lon": 0.0, "is_disabled": 0, "fusion_lat": 0.0, "bike_id": "d9f49a1dcf4279b180d3413846e44d7d", "rental_uris": {"ios": "https://dc.lft.to/lastmile_qr_scan", "android": "https://dc.lft.to/lastmile_qr_scan"}}, {"name": "1909ee469c03c35adad647939b690f2c", "type": "electric_scooter", "lat": 38.9205975, "is_reserved": 0, "lon": -77.02984366666666, "fusion_lon": 0.0, "is_disabled": 0, "fusion_lat": 0.0, "bike_id": "1909ee469c03c35adad647939b690f2c", "rental_uris": {"ios": "https://dc.lft.to/lastmile_qr_scan", "android": "https://dc.lft.to/lastmile_qr_scan"}}, {"name": "3a0604c8a223b0c75ddf425750c292ef", "type": "electric_scooter", "lat": 38.926346, "is_reserved": 0, "lon": -77.0351495, "fusion_lon": 0.0, "is_disabled": 0, "fusion_lat": 0.0, "bike_id": "3a0604c8a223b0c75ddf425750c292ef", "rental_uris": {"ios": "https://dc.lft.to/lastmile_qr_scan", "android": "https://dc.lft.to/lastmile_qr_scan"}}, {"name": "678a63c5b85598e446fec4f764a71831", "type": "electric_scooter", "lat": 38.909685, "is_reserved": 0, "lon": -77.01716616666667, "fusion_lon": 0.0, "is_disabled": 0, "fusion_lat": 0.0, "bike_id": "678a63c5b85598e446fec4f764a71831", "rental_uris": {"ios": "https://dc.lft.to/lastmile_qr_scan", "android": "https://dc.lft.to/lastmile_qr_scan"}}, {"name": "dea0be62064d79f25db0850071793ff9", "type": "electric_scooter", "lat": 38.9058585, "is_reserved": 0, "lon": -77.06523666666666, "fusion_lon": 0.0, "is_disabled": 0, "fusion_lat": 0.0, "bike_id": "dea0be62064d79f25db0850071793ff9", "rental_uris": {"ios": "https://dc.lft.to/lastmile_qr_scan", "android": "https://dc.lft.to/lastmile_qr_scan"}}, {"name": "e06e8b800d5ff8b4971072e78613b1e9", "type": "electric_scooter", "lat": 38.91971566666667, "is_reserved": 0, "lon": -77.00107166666666, "fusion_lon": 0.0, "is_disabled": 0, "fusion_lat": 0.0, "bike_id": "e06e8b800d5ff8b4971072e78613b1e9", "rental_uris": {"ios": "https://dc.lft.to/lastmile_qr_scan", "android": "https://dc.lft.to/lastmile_qr_scan"}}, {"name": "cd33d1d47473e9b75b23ea4065cd5826", "type": "electric_scooter", "lat": 38.92346916666666, "is_reserved": 0, "lon": -77.01914683333334, "fusion_lon": 0.0, "is_disabled": 0, "fusion_lat": 0.0, "bike_id": "cd33d1d47473e9b75b23ea4065cd5826", "rental_uris": {"ios": "https://dc.lft.to/lastmile_qr_scan", "android": "https://dc.lft.to/lastmile_qr_scan"}}, {"name": "98d77f428201b94d4dac934007b6b4fe", "type": "electric_scooter", "lat": 38.905102666666664, "is_reserved": 0, "lon": -77.06382866666667, "fusion_lon": 0.0, "is_disabled": 0, "fusion_lat": 0.0, "bike_id": "98d77f428201b94d4dac934007b6b4fe", "rental_uris": {"ios": "https://dc.lft.to/lastmile_qr_scan", "android": "https://dc.lft.to/lastmile_qr_scan"}}, {"name": "f531763c76816ecb5c7e2d8017d3879d", "type": "electric_bike", "lat": 38.888371166666666, "is_reserved": 0, "lon": -76.99364433333334, "fusion_lon": 0.0, "is_disabled": 0, "fusion_lat": 0.0, "bike_id": "f531763c76816ecb5c7e2d8017d3879d", "rental_uris": {"ios": "https://dc.lft.to/lastmile_qr_scan", "android": "https://dc.lft.to/lastmile_qr_scan"}}, {"name": "afe7bfe25621f3366de4e8f224954c2c", "type": "electric_scooter", "lat": 38.905888, "is_reserved": 0, "lon": -77.06523816666666, "fusion_lon": 0.0, "is_disabled": 0, "fusion_lat": 0.0, "bike_id": "afe7bfe25621f3366de4e8f224954c2c", "rental_uris": {"ios": "https://dc.lft.to/lastmile_qr_scan", "android": "https://dc.lft.to/lastmile_qr_scan"}}, {"name": "b99eb0d6eb78e6f547069162429d24c8", "type": "electric_scooter", "lat": 38.90976933333334, "is_reserved": 0, "lon": -77.0112195, "fusion_lon": 0.0, "is_disabled": 0, "fusion_lat": 0.0, "bike_id": "b99eb0d6eb78e6f547069162429d24c8", "rental_uris": {"ios": "https://dc.lft.to/lastmile_qr_scan", "android": "https://dc.lft.to/lastmile_qr_scan"}}, {"name": "bb63f528b5d4754a78cb9099426d01aa", "type": "electric_scooter", "lat": 38.930427, "is_reserved": 0, "lon": -77.0280035, "fusion_lon": 0.0, "is_disabled": 0, "fusion_lat": 0.0, "bike_id": "bb63f528b5d4754a78cb9099426d01aa", "rental_uris": {"ios": "https://dc.lft.to/lastmile_qr_scan", "android": "https://dc.lft.to/lastmile_qr_scan"}}, {"name": "458b89ca46b9c0118261ff71c0621e39", "type": "electric_scooter", "lat": 38.9189375, "is_reserved": 0, "lon": -77.01617566666667, "fusion_lon": 0.0, "is_disabled": 0, "fusion_lat": 0.0, "bike_id": "458b89ca46b9c0118261ff71c0621e39", "rental_uris": {"ios": "https://dc.lft.to/lastmile_qr_scan", "android": "https://dc.lft.to/lastmile_qr_scan"}}, {"name": "cfd675482aefc42b896e5869e575e081", "type": "electric_scooter", "lat": 38.89836366666667, "is_reserved": 0, "lon": -77.027258, "fusion_lon": 0.0, "is_disabled": 0, "fusion_lat": 0.0, "bike_id": "cfd675482aefc42b896e5869e575e081", "rental_uris": {"ios": "https://dc.lft.to/lastmile_qr_scan", "android": "https://dc.lft.to/lastmile_qr_scan"}}, {"name": "2440f3fc58db02e8bf4aadbd9e7278bc", "type": "electric_scooter", "lat": 38.9388715, "is_reserved": 0, "lon": -77.02468366666666, "fusion_lon": 0.0, "is_disabled": 0, "fusion_lat": 0.0, "bike_id": "2440f3fc58db02e8bf4aadbd9e7278bc", "rental_uris": {"ios": "https://dc.lft.to/lastmile_qr_scan", "android": "https://dc.lft.to/lastmile_qr_scan"}}, {"name": "432ce566d0d595b3278d46ff086f2fc0", "type": "electric_scooter", "lat": 38.931403, "is_reserved": 0, "lon": -77.038481, "fusion_lon": 0.0, "is_disabled": 0, "fusion_lat": 0.0, "bike_id": "432ce566d0d595b3278d46ff086f2fc0", "rental_uris": {"ios": "https://dc.lft.to/lastmile_qr_scan", "android": "https://dc.lft.to/lastmile_qr_scan"}}, {"name": "d9808d789a1bd23c84db53623bb1b978", "type": "electric_scooter", "lat": 38.926303, "is_reserved": 0, "lon": -77.03802866666666, "fusion_lon": 0.0, "is_disabled": 0, "fusion_lat": 0.0, "bike_id": "d9808d789a1bd23c84db53623bb1b978", "rental_uris": {"ios": "https://dc.lft.to/lastmile_qr_scan", "android": "https://dc.lft.to/lastmile_qr_scan"}}, {"name": "d5c622c5b0f2745cdc61530aa98b668e", "type": "electric_bike", "lat": 38.97087233333333, "is_reserved": 0, "lon": -77.06967866666666, "fusion_lon": 0.0, "is_disabled": 0, "fusion_lat": 0.0, "bike_id": "d5c622c5b0f2745cdc61530aa98b668e", "rental_uris": {"ios": "https://dc.lft.to/lastmile_qr_scan", "android": "https://dc.lft.to/lastmile_qr_scan"}}, {"name": "1204a3718fd64549619e6d6e832d3b33", "type": "electric_scooter", "lat": 38.902509, "is_reserved": 0, "lon": -77.0459915, "fusion_lon": 0.0, "is_disabled": 0, "fusion_lat": 0.0, "bike_id": "1204a3718fd64549619e6d6e832d3b33", "rental_uris": {"ios": "https://dc.lft.to/lastmile_qr_scan", "android": "https://dc.lft.to/lastmile_qr_scan"}}, {"name": "ee634f34790af4fdda53fd9069f453b0", "type": "electric_scooter", "lat": 38.877112833333335, "is_reserved": 0, "lon": -76.99385116666667, "fusion_lon": 0.0, "is_disabled": 0, "fusion_lat": 0.0, "bike_id": "ee634f34790af4fdda53fd9069f453b0", "rental_uris": {"ios": "https://dc.lft.to/lastmile_qr_scan", "android": "https://dc.lft.to/lastmile_qr_scan"}}, {"name": "7ea3ae6c402aea1a0d84d31164313c9c", "type": "electric_scooter", "lat": 38.90393616666667, "is_reserved": 0, "lon": -76.9894495, "fusion_lon": 0.0, "is_disabled": 0, "fusion_lat": 0.0, "bike_id": "7ea3ae6c402aea1a0d84d31164313c9c", "rental_uris": {"ios": "https://dc.lft.to/lastmile_qr_scan", "android": "https://dc.lft.to/lastmile_qr_scan"}}, {"name": "132fac9648133d301722c2a5c0f2d85d", "type": "electric_scooter", "lat": 38.89890183333333, "is_reserved": 0, "lon": -77.03244533333333, "fusion_lon": 0.0, "is_disabled": 0, "fusion_lat": 0.0, "bike_id": "132fac9648133d301722c2a5c0f2d85d", "rental_uris": {"ios": "https://dc.lft.to/lastmile_qr_scan", "android": "https://dc.lft.to/lastmile_qr_scan"}}, {"name": "1b74a4c24bb37e8e35d1aa5d69d97b39", "type": "electric_scooter", "lat": 38.887691333333336, "is_reserved": 0, "lon": -76.92712766666666, "fusion_lon": 0.0, "is_disabled": 0, "fusion_lat": 0.0, "bike_id": "1b74a4c24bb37e8e35d1aa5d69d97b39", "rental_uris": {"ios": "https://dc.lft.to/lastmile_qr_scan", "android": "https://dc.lft.to/lastmile_qr_scan"}}, {"name": "ebadc2017043c1b9c129b263d515af82", "type": "electric_scooter", "lat": 38.90660233333333, "is_reserved": 0, "lon": -77.01160433333334, "fusion_lon": 0.0, "is_disabled": 0, "fusion_lat": 0.0, "bike_id": "ebadc2017043c1b9c129b263d515af82", "rental_uris": {"ios": "https://dc.lft.to/lastmile_qr_scan", "android": "https://dc.lft.to/lastmile_qr_scan"}}, {"name": "bc16d075b8efbbea102de41081acdccd", "type": "electric_scooter", "lat": 38.9025845, "is_reserved": 0, "lon": -77.0163185, "fusion_lon": 0.0, "is_disabled": 0, "fusion_lat": 0.0, "bike_id": "bc16d075b8efbbea102de41081acdccd", "rental_uris": {"ios": "https://dc.lft.to/lastmile_qr_scan", "android": "https://dc.lft.to/lastmile_qr_scan"}}, {"name": "26a8de63e30e58dd47fbd7fd5da20f96", "type": "electric_scooter", "lat": 38.91331533333334, "is_reserved": 0, "lon": -77.0486995, "fusion_lon": 0.0, "is_disabled": 0, "fusion_lat": 0.0, "bike_id": "26a8de63e30e58dd47fbd7fd5da20f96", "rental_uris": {"ios": "https://dc.lft.to/lastmile_qr_scan", "android": "https://dc.lft.to/lastmile_qr_scan"}}, {"name": "252c5954b3842d3daee155576e4c4682", "type": "electric_scooter", "lat": 38.9032925, "is_reserved": 0, "lon": -77.066596, "fusion_lon": 0.0, "is_disabled": 0, "fusion_lat": 0.0, "bike_id": "252c5954b3842d3daee155576e4c4682", "rental_uris": {"ios": "https://dc.lft.to/lastmile_qr_scan", "android": "https://dc.lft.to/lastmile_qr_scan"}}, {"name": "10e37b5943a7689ef8efd2655991bb39", "type": "electric_bike", "lat": 38.949022, "is_reserved": 0, "lon": -76.96377116666666, "fusion_lon": 0.0, "is_disabled": 0, "fusion_lat": 0.0, "bike_id": "10e37b5943a7689ef8efd2655991bb39", "rental_uris": {"ios": "https://dc.lft.to/lastmile_qr_scan", "android": "https://dc.lft.to/lastmile_qr_scan"}}, {"name": "1cbf6dd7988d560bf1e1d4e3f595cdf2", "type": "electric_scooter", "lat": 38.9102785, "is_reserved": 0, "lon": -77.04815566666667, "fusion_lon": 0.0, "is_disabled": 0, "fusion_lat": 0.0, "bike_id": "1cbf6dd7988d560bf1e1d4e3f595cdf2", "rental_uris": {"ios": "https://dc.lft.to/lastmile_qr_scan", "android": "https://dc.lft.to/lastmile_qr_scan"}}, {"name": "ff9bcf9a0b54747d51821c30e8d576f0", "type": "electric_scooter", "lat": 38.92641283333333, "is_reserved": 0, "lon": -77.03392866666667, "fusion_lon": 0.0, "is_disabled": 0, "fusion_lat": 0.0, "bike_id": "ff9bcf9a0b54747d51821c30e8d576f0", "rental_uris": {"ios": "https://dc.lft.to/lastmile_qr_scan", "android": "https://dc.lft.to/lastmile_qr_scan"}}, {"name": "3828a79f1d0772233b43448a65cc1897", "type": "electric_scooter", "lat": 38.856358, "is_reserved": 0, "lon": -76.97456383333333, "fusion_lon": 0.0, "is_disabled": 0, "fusion_lat": 0.0, "bike_id": "3828a79f1d0772233b43448a65cc1897", "rental_uris": {"ios": "https://dc.lft.to/lastmile_qr_scan", "android": "https://dc.lft.to/lastmile_qr_scan"}}, {"name": "8961b6a08a9650ee222e7b081dc26f40", "type": "electric_scooter", "lat": 38.8987825, "is_reserved": 0, "lon": -76.93160316666666, "fusion_lon": 0.0, "is_disabled": 0, "fusion_lat": 0.0, "bike_id": "8961b6a08a9650ee222e7b081dc26f40", "rental_uris": {"ios": "https://dc.lft.to/lastmile_qr_scan", "android": "https://dc.lft.to/lastmile_qr_scan"}}, {"name": "7a38269da4d8dcc04b189868115f9fa2", "type": "electric_scooter", "lat": 38.911042333333334, "is_reserved": 0, "lon": -77.0021575, "fusion_lon": 0.0, "is_disabled": 0, "fusion_lat": 0.0, "bike_id": "7a38269da4d8dcc04b189868115f9fa2", "rental_uris": {"ios": "https://dc.lft.to/lastmile_qr_scan", "android": "https://dc.lft.to/lastmile_qr_scan"}}, {"name": "551fbdaf47dba853db75ad66dd1386b2", "type": "electric_scooter", "lat": 38.90368516666667, "is_reserved": 0, "lon": -77.01101966666667, "fusion_lon": 0.0, "is_disabled": 0, "fusion_lat": 0.0, "bike_id": "551fbdaf47dba853db75ad66dd1386b2", "rental_uris": {"ios": "https://dc.lft.to/lastmile_qr_scan", "android": "https://dc.lft.to/lastmile_qr_scan"}}, {"name": "df840fd275188d61e1a270e6a7a17050", "type": "electric_scooter", "lat": 38.92898, "is_reserved": 0, "lon": -77.05454, "fusion_lon": 0.0, "is_disabled": 0, "fusion_lat": 0.0, "bike_id": "df840fd275188d61e1a270e6a7a17050", "rental_uris": {"ios": "https://dc.lft.to/lastmile_qr_scan", "android": "https://dc.lft.to/lastmile_qr_scan"}}, {"name": "1f1b911a7f5a5f7de111e0751928cc8c", "type": "electric_scooter", "lat": 38.9417395, "is_reserved": 0, "lon": -77.0413255, "fusion_lon": 0.0, "is_disabled": 0, "fusion_lat": 0.0, "bike_id": "1f1b911a7f5a5f7de111e0751928cc8c", "rental_uris": {"ios": "https://dc.lft.to/lastmile_qr_scan", "android": "https://dc.lft.to/lastmile_qr_scan"}}, {"name": "3514dba2ace2b2e31196450d51306235", "type": "electric_scooter", "lat": 38.92004633333333, "is_reserved": 0, "lon": -77.039668, "fusion_lon": 0.0, "is_disabled": 0, "fusion_lat": 0.0, "bike_id": "3514dba2ace2b2e31196450d51306235", "rental_uris": {"ios": "https://dc.lft.to/lastmile_qr_scan", "android": "https://dc.lft.to/lastmile_qr_scan"}}, {"name": "e27a04f784c6d4b115374eb7be7cb462", "type": "electric_scooter", "lat": 38.89533316666667, "is_reserved": 0, "lon": -77.03351816666667, "fusion_lon": 0.0, "is_disabled": 0, "fusion_lat": 0.0, "bike_id": "e27a04f784c6d4b115374eb7be7cb462", "rental_uris": {"ios": "https://dc.lft.to/lastmile_qr_scan", "android": "https://dc.lft.to/lastmile_qr_scan"}}, {"name": "36f07489a62edcb3fc2ef4ee64f72cbd", "type": "electric_scooter", "lat": 38.923421166666664, "is_reserved": 0, "lon": -77.05068033333333, "fusion_lon": 0.0, "is_disabled": 0, "fusion_lat": 0.0, "bike_id": "36f07489a62edcb3fc2ef4ee64f72cbd", "rental_uris": {"ios": "https://dc.lft.to/lastmile_qr_scan", "android": "https://dc.lft.to/lastmile_qr_scan"}}, {"name": "986b93e37fda9fb5e5194ae67e0ca88c", "type": "electric_scooter", "lat": 38.89508583333333, "is_reserved": 0, "lon": -77.003376, "fusion_lon": 0.0, "is_disabled": 0, "fusion_lat": 0.0, "bike_id": "986b93e37fda9fb5e5194ae67e0ca88c", "rental_uris": {"ios": "https://dc.lft.to/lastmile_qr_scan", "android": "https://dc.lft.to/lastmile_qr_scan"}}, {"name": "ed471e208b5c763841f717c2f5d75427", "type": "electric_scooter", "lat": 38.920716666666664, "is_reserved": 0, "lon": -77.02210983333333, "fusion_lon": 0.0, "is_disabled": 0, "fusion_lat": 0.0, "bike_id": "ed471e208b5c763841f717c2f5d75427", "rental_uris": {"ios": "https://dc.lft.to/lastmile_qr_scan", "android": "https://dc.lft.to/lastmile_qr_scan"}}, {"name": "b40cb3792cb556b410e0ba8690f6b149", "type": "electric_scooter", "lat": 38.89471233333333, "is_reserved": 0, "lon": -77.00138383333334, "fusion_lon": 0.0, "is_disabled": 0, "fusion_lat": 0.0, "bike_id": "b40cb3792cb556b410e0ba8690f6b149", "rental_uris": {"ios": "https://dc.lft.to/lastmile_qr_scan", "android": "https://dc.lft.to/lastmile_qr_scan"}}, {"name": "0f729e7dd2569a7b3cc8b3917719ef3a", "type": "electric_bike", "lat": 38.96496833333333, "is_reserved": 0, "lon": -77.06490833333334, "fusion_lon": 0.0, "is_disabled": 0, "fusion_lat": 0.0, "bike_id": "0f729e7dd2569a7b3cc8b3917719ef3a", "rental_uris": {"ios": "https://dc.lft.to/lastmile_qr_scan", "android": "https://dc.lft.to/lastmile_qr_scan"}}, {"name": "454f991d0636235868408f4d52fdcd38", "type": "electric_scooter", "lat": 38.890364166666664, "is_reserved": 0, "lon": -77.02973983333334, "fusion_lon": 0.0, "is_disabled": 0, "fusion_lat": 0.0, "bike_id": "454f991d0636235868408f4d52fdcd38", "rental_uris": {"ios": "https://dc.lft.to/lastmile_qr_scan", "android": "https://dc.lft.to/lastmile_qr_scan"}}, {"name": "75b0857a77d28bbf54dab3e01dc5c5b1", "type": "electric_scooter", "lat": 38.92090016666667, "is_reserved": 0, "lon": -77.025397, "fusion_lon": 0.0, "is_disabled": 0, "fusion_lat": 0.0, "bike_id": "75b0857a77d28bbf54dab3e01dc5c5b1", "rental_uris": {"ios": "https://dc.lft.to/lastmile_qr_scan", "android": "https://dc.lft.to/lastmile_qr_scan"}}, {"name": "3ad38b6b57b41751146bd0d372c198d5", "type": "electric_scooter", "lat": 38.91498816666667, "is_reserved": 0, "lon": -77.01223716666667, "fusion_lon": 0.0, "is_disabled": 0, "fusion_lat": 0.0, "bike_id": "3ad38b6b57b41751146bd0d372c198d5", "rental_uris": {"ios": "https://dc.lft.to/lastmile_qr_scan", "android": "https://dc.lft.to/lastmile_qr_scan"}}, {"name": "5f68dbed7606fe07644f497656d10d68", "type": "electric_scooter", "lat": 38.842933, "is_reserved": 0, "lon": -76.9994945, "fusion_lon": 0.0, "is_disabled": 0, "fusion_lat": 0.0, "bike_id": "5f68dbed7606fe07644f497656d10d68", "rental_uris": {"ios": "https://dc.lft.to/lastmile_qr_scan", "android": "https://dc.lft.to/lastmile_qr_scan"}}, {"name": "e16e18429ce1862a367db7a31ffe8474", "type": "electric_scooter", "lat": 38.91552866666667, "is_reserved": 0, "lon": -77.07272266666666, "fusion_lon": 0.0, "is_disabled": 0, "fusion_lat": 0.0, "bike_id": "e16e18429ce1862a367db7a31ffe8474", "rental_uris": {"ios": "https://dc.lft.to/lastmile_qr_scan", "android": "https://dc.lft.to/lastmile_qr_scan"}}, {"name": "ef5d307fc2f8d28c06bf3a344bb7843e", "type": "electric_scooter", "lat": 38.89737433333333, "is_reserved": 0, "lon": -76.947203, "fusion_lon": 0.0, "is_disabled": 0, "fusion_lat": 0.0, "bike_id": "ef5d307fc2f8d28c06bf3a344bb7843e", "rental_uris": {"ios": "https://dc.lft.to/lastmile_qr_scan", "android": "https://dc.lft.to/lastmile_qr_scan"}}, {"name": "1b01112da49ec5f57af56e90aa025c25", "type": "electric_scooter", "lat": 38.97477333333333, "is_reserved": 0, "lon": -77.01898966666667, "fusion_lon": 0.0, "is_disabled": 0, "fusion_lat": 0.0, "bike_id": "1b01112da49ec5f57af56e90aa025c25", "rental_uris": {"ios": "https://dc.lft.to/lastmile_qr_scan", "android": "https://dc.lft.to/lastmile_qr_scan"}}, {"name": "2dfe96b96724d1bfeef3b41b3e7aeac3", "type": "electric_scooter", "lat": 38.901264166666664, "is_reserved": 0, "lon": -77.04447933333333, "fusion_lon": 0.0, "is_disabled": 0, "fusion_lat": 0.0, "bike_id": "2dfe96b96724d1bfeef3b41b3e7aeac3", "rental_uris": {"ios": "https://dc.lft.to/lastmile_qr_scan", "android": "https://dc.lft.to/lastmile_qr_scan"}}, {"name": "337fa060437e1027142201d2a82b9f56", "type": "electric_scooter", "lat": 38.9529715, "is_reserved": 0, "lon": -77.06846366666667, "fusion_lon": 0.0, "is_disabled": 0, "fusion_lat": 0.0, "bike_id": "337fa060437e1027142201d2a82b9f56", "rental_uris": {"ios": "https://dc.lft.to/lastmile_qr_scan", "android": "https://dc.lft.to/lastmile_qr_scan"}}, {"name": "452f48d057d3354ccdf0e8e6a1495a37", "type": "electric_scooter", "lat": 38.897520666666665, "is_reserved": 0, "lon": -77.0512385, "fusion_lon": 0.0, "is_disabled": 0, "fusion_lat": 0.0, "bike_id": "452f48d057d3354ccdf0e8e6a1495a37", "rental_uris": {"ios": "https://dc.lft.to/lastmile_qr_scan", "android": "https://dc.lft.to/lastmile_qr_scan"}}, {"name": "9facd712842aa88960431298d48b888d", "type": "electric_scooter", "lat": 38.918199333333334, "is_reserved": 0, "lon": -77.03445016666667, "fusion_lon": 0.0, "is_disabled": 0, "fusion_lat": 0.0, "bike_id": "9facd712842aa88960431298d48b888d", "rental_uris": {"ios": "https://dc.lft.to/lastmile_qr_scan", "android": "https://dc.lft.to/lastmile_qr_scan"}}, {"name": "bc4c1cd5d1f0e910de83d47e381dce14", "type": "electric_scooter", "lat": 38.93297583333333, "is_reserved": 0, "lon": -77.02797333333334, "fusion_lon": 0.0, "is_disabled": 0, "fusion_lat": 0.0, "bike_id": "bc4c1cd5d1f0e910de83d47e381dce14", "rental_uris": {"ios": "https://dc.lft.to/lastmile_qr_scan", "android": "https://dc.lft.to/lastmile_qr_scan"}}, {"name": "305bad38d249638efeb8df0f20ae9193", "type": "electric_scooter", "lat": 38.90428633333333, "is_reserved": 0, "lon": -77.04007383333334, "fusion_lon": 0.0, "is_disabled": 0, "fusion_lat": 0.0, "bike_id": "305bad38d249638efeb8df0f20ae9193", "rental_uris": {"ios": "https://dc.lft.to/lastmile_qr_scan", "android": "https://dc.lft.to/lastmile_qr_scan"}}, {"name": "19525e1a52622471b3ee3ccb6c29788c", "type": "electric_scooter", "lat": 38.920321666666666, "is_reserved": 0, "lon": -77.01115733333333, "fusion_lon": 0.0, "is_disabled": 0, "fusion_lat": 0.0, "bike_id": "19525e1a52622471b3ee3ccb6c29788c", "rental_uris": {"ios": "https://dc.lft.to/lastmile_qr_scan", "android": "https://dc.lft.to/lastmile_qr_scan"}}, {"name": "fd2268cc8ae17e34588ef512c04e16d1", "type": "electric_bike", "lat": 38.8579975, "is_reserved": 0, "lon": -76.98753866666667, "fusion_lon": 0.0, "is_disabled": 0, "fusion_lat": 0.0, "bike_id": "fd2268cc8ae17e34588ef512c04e16d1", "rental_uris": {"ios": "https://dc.lft.to/lastmile_qr_scan", "android": "https://dc.lft.to/lastmile_qr_scan"}}, {"name": "a79619762a1cca7458a6a0c0af3b3b93", "type": "electric_scooter", "lat": 38.915481666666665, "is_reserved": 0, "lon": -77.03852683333334, "fusion_lon": 0.0, "is_disabled": 0, "fusion_lat": 0.0, "bike_id": "a79619762a1cca7458a6a0c0af3b3b93", "rental_uris": {"ios": "https://dc.lft.to/lastmile_qr_scan", "android": "https://dc.lft.to/lastmile_qr_scan"}}, {"name": "f25a7dcf3b538bed58c70a1cf9824959", "type": "electric_scooter", "lat": 38.93110183333334, "is_reserved": 0, "lon": -77.03843383333333, "fusion_lon": 0.0, "is_disabled": 0, "fusion_lat": 0.0, "bike_id": "f25a7dcf3b538bed58c70a1cf9824959", "rental_uris": {"ios": "https://dc.lft.to/lastmile_qr_scan", "android": "https://dc.lft.to/lastmile_qr_scan"}}, {"name": "a40e0b2796d3c592b5dfc8afbb425c2a", "type": "electric_scooter", "lat": 38.904347666666666, "is_reserved": 0, "lon": -77.02844033333334, "fusion_lon": 0.0, "is_disabled": 0, "fusion_lat": 0.0, "bike_id": "a40e0b2796d3c592b5dfc8afbb425c2a", "rental_uris": {"ios": "https://dc.lft.to/lastmile_qr_scan", "android": "https://dc.lft.to/lastmile_qr_scan"}}, {"name": "817bcf28145d45dbbf7ff9ced852bf4f", "type": "electric_scooter", "lat": 38.923639666666666, "is_reserved": 0, "lon": -77.05043783333333, "fusion_lon": 0.0, "is_disabled": 0, "fusion_lat": 0.0, "bike_id": "817bcf28145d45dbbf7ff9ced852bf4f", "rental_uris": {"ios": "https://dc.lft.to/lastmile_qr_scan", "android": "https://dc.lft.to/lastmile_qr_scan"}}, {"name": "65e9d82871345733e81848b9794628e1", "type": "electric_bike", "lat": 39.03051633333333, "is_reserved": 0, "lon": -77.0948365, "fusion_lon": 0.0, "is_disabled": 0, "fusion_lat": 0.0, "bike_id": "65e9d82871345733e81848b9794628e1", "rental_uris": {"ios": "https://dc.lft.to/lastmile_qr_scan", "android": "https://dc.lft.to/lastmile_qr_scan"}}, {"name": "104328dab6df0a59c799109f30a7cb30", "type": "electric_bike", "lat": 38.8967615, "is_reserved": 0, "lon": -77.02403666666666, "fusion_lon": 0.0, "is_disabled": 0, "fusion_lat": 0.0, "bike_id": "104328dab6df0a59c799109f30a7cb30", "rental_uris": {"ios": "https://dc.lft.to/lastmile_qr_scan", "android": "https://dc.lft.to/lastmile_qr_scan"}}, {"name": "aae9e35faba03b4d25cc986d7b9d9f92", "type": "electric_bike", "lat": 38.913565, "is_reserved": 0, "lon": -77.02875833333333, "fusion_lon": 0.0, "is_disabled": 0, "fusion_lat": 0.0, "bike_id": "aae9e35faba03b4d25cc986d7b9d9f92", "rental_uris": {"ios": "https://dc.lft.to/lastmile_qr_scan", "android": "https://dc.lft.to/lastmile_qr_scan"}}, {"name": "fec68d48775f5f1b3cc264f75c8971fa", "type": "electric_bike", "lat": 38.970643833333334, "is_reserved": 0, "lon": -76.93610233333334, "fusion_lon": 0.0, "is_disabled": 0, "fusion_lat": 0.0, "bike_id": "fec68d48775f5f1b3cc264f75c8971fa", "rental_uris": {"ios": "https://dc.lft.to/lastmile_qr_scan", "android": "https://dc.lft.to/lastmile_qr_scan"}}, {"name": "abbe634dbb5c74eaeeb7fd984d1e722c", "type": "electric_scooter", "lat": 38.918497, "is_reserved": 0, "lon": -77.06150633333333, "fusion_lon": 0.0, "is_disabled": 0, "fusion_lat": 0.0, "bike_id": "abbe634dbb5c74eaeeb7fd984d1e722c", "rental_uris": {"ios": "https://dc.lft.to/lastmile_qr_scan", "android": "https://dc.lft.to/lastmile_qr_scan"}}, {"name": "a830385b64942ad04636d59157caf231", "type": "electric_scooter", "lat": 38.905427333333336, "is_reserved": 0, "lon": -77.05190083333333, "fusion_lon": 0.0, "is_disabled": 0, "fusion_lat": 0.0, "bike_id": "a830385b64942ad04636d59157caf231", "rental_uris": {"ios": "https://dc.lft.to/lastmile_qr_scan", "android": "https://dc.lft.to/lastmile_qr_scan"}}, {"name": "555264142795432d42490eb5ffcfafeb", "type": "electric_scooter", "lat": 38.9055905, "is_reserved": 0, "lon": -77.00609866666667, "fusion_lon": 0.0, "is_disabled": 0, "fusion_lat": 0.0, "bike_id": "555264142795432d42490eb5ffcfafeb", "rental_uris": {"ios": "https://dc.lft.to/lastmile_qr_scan", "android": "https://dc.lft.to/lastmile_qr_scan"}}, {"name": "6c3146ce8c9d2575bab102f69c948ad6", "type": "electric_scooter", "lat": 38.898080666666665, "is_reserved": 0, "lon": -77.03320233333334, "fusion_lon": 0.0, "is_disabled": 0, "fusion_lat": 0.0, "bike_id": "6c3146ce8c9d2575bab102f69c948ad6", "rental_uris": {"ios": "https://dc.lft.to/lastmile_qr_scan", "android": "https://dc.lft.to/lastmile_qr_scan"}}, {"name": "3a222b2088820f6f54dbae54e2860142", "type": "electric_bike", "lat": 38.8393465, "is_reserved": 0, "lon": -77.07900433333333, "fusion_lon": 0.0, "is_disabled": 0, "fusion_lat": 0.0, "bike_id": "3a222b2088820f6f54dbae54e2860142", "rental_uris": {"ios": "https://dc.lft.to/lastmile_qr_scan", "android": "https://dc.lft.to/lastmile_qr_scan"}}, {"name": "cc1a3faf35f058a4e1607d7fcfb301fe", "type": "electric_scooter", "lat": 38.903195833333335, "is_reserved": 0, "lon": -77.0331065, "fusion_lon": 0.0, "is_disabled": 0, "fusion_lat": 0.0, "bike_id": "cc1a3faf35f058a4e1607d7fcfb301fe", "rental_uris": {"ios": "https://dc.lft.to/lastmile_qr_scan", "android": "https://dc.lft.to/lastmile_qr_scan"}}, {"name": "b5531b397793c0b89e00bab9a411b8d2", "type": "electric_scooter", "lat": 38.9323505, "is_reserved": 0, "lon": -77.03811233333333, "fusion_lon": 0.0, "is_disabled": 0, "fusion_lat": 0.0, "bike_id": "b5531b397793c0b89e00bab9a411b8d2", "rental_uris": {"ios": "https://dc.lft.to/lastmile_qr_scan", "android": "https://dc.lft.to/lastmile_qr_scan"}}, {"name": "15eb2a306bb89426cda3142422c39330", "type": "electric_bike", "lat": 38.84277316666667, "is_reserved": 0, "lon": -76.98845633333333, "fusion_lon": 0.0, "is_disabled": 0, "fusion_lat": 0.0, "bike_id": "15eb2a306bb89426cda3142422c39330", "rental_uris": {"ios": "https://dc.lft.to/lastmile_qr_scan", "android": "https://dc.lft.to/lastmile_qr_scan"}}, {"name": "036529c8266d2c5a2c3969c7b1a7bbfb", "type": "electric_scooter", "lat": 38.93982116666667, "is_reserved": 0, "lon": -77.0259345, "fusion_lon": 0.0, "is_disabled": 0, "fusion_lat": 0.0, "bike_id": "036529c8266d2c5a2c3969c7b1a7bbfb", "rental_uris": {"ios": "https://dc.lft.to/lastmile_qr_scan", "android": "https://dc.lft.to/lastmile_qr_scan"}}, {"name": "80e7497228f57c5bbfda49616ee1acc0", "type": "electric_scooter", "lat": 38.911088166666666, "is_reserved": 0, "lon": -77.03478483333333, "fusion_lon": 0.0, "is_disabled": 0, "fusion_lat": 0.0, "bike_id": "80e7497228f57c5bbfda49616ee1acc0", "rental_uris": {"ios": "https://dc.lft.to/lastmile_qr_scan", "android": "https://dc.lft.to/lastmile_qr_scan"}}, {"name": "4e200d6e679fd578f1cc9e9e2bcc68e4", "type": "electric_scooter", "lat": 38.914869333333336, "is_reserved": 0, "lon": -77.03928783333333, "fusion_lon": 0.0, "is_disabled": 0, "fusion_lat": 0.0, "bike_id": "4e200d6e679fd578f1cc9e9e2bcc68e4", "rental_uris": {"ios": "https://dc.lft.to/lastmile_qr_scan", "android": "https://dc.lft.to/lastmile_qr_scan"}}, {"name": "26ccdd3f0b63cfd86caa0c67074c167d", "type": "electric_scooter", "lat": 38.91571, "is_reserved": 0, "lon": -77.02194116666666, "fusion_lon": 0.0, "is_disabled": 0, "fusion_lat": 0.0, "bike_id": "26ccdd3f0b63cfd86caa0c67074c167d", "rental_uris": {"ios": "https://dc.lft.to/lastmile_qr_scan", "android": "https://dc.lft.to/lastmile_qr_scan"}}, {"name": "38602a9a86f8ccba9866a948da9c89fc", "type": "electric_scooter", "lat": 38.90586283333333, "is_reserved": 0, "lon": -77.01609366666666, "fusion_lon": 0.0, "is_disabled": 0, "fusion_lat": 0.0, "bike_id": "38602a9a86f8ccba9866a948da9c89fc", "rental_uris": {"ios": "https://dc.lft.to/lastmile_qr_scan", "android": "https://dc.lft.to/lastmile_qr_scan"}}, {"name": "d1dfefae1ea4cdccf5f6df58074cf359", "type": "electric_bike", "lat": 38.8804575, "is_reserved": 0, "lon": -77.0132685, "fusion_lon": 0.0, "is_disabled": 0, "fusion_lat": 0.0, "bike_id": "d1dfefae1ea4cdccf5f6df58074cf359", "rental_uris": {"ios": "https://dc.lft.to/lastmile_qr_scan", "android": "https://dc.lft.to/lastmile_qr_scan"}}, {"name": "824de1f62e75fe3a548439aae6416b2d", "type": "electric_scooter", "lat": 38.914601, "is_reserved": 0, "lon": -77.0385655, "fusion_lon": 0.0, "is_disabled": 0, "fusion_lat": 0.0, "bike_id": "824de1f62e75fe3a548439aae6416b2d", "rental_uris": {"ios": "https://dc.lft.to/lastmile_qr_scan", "android": "https://dc.lft.to/lastmile_qr_scan"}}, {"name": "5025e1f58a97ea09035abe868dbea3d2", "type": "electric_scooter", "lat": 38.8999465, "is_reserved": 0, "lon": -77.01190033333333, "fusion_lon": 0.0, "is_disabled": 0, "fusion_lat": 0.0, "bike_id": "5025e1f58a97ea09035abe868dbea3d2", "rental_uris": {"ios": "https://dc.lft.to/lastmile_qr_scan", "android": "https://dc.lft.to/lastmile_qr_scan"}}, {"name": "e471f755386e2efe6f84ae1f0da3bef3", "type": "electric_scooter", "lat": 38.9401405, "is_reserved": 0, "lon": -77.07170433333333, "fusion_lon": 0.0, "is_disabled": 0, "fusion_lat": 0.0, "bike_id": "e471f755386e2efe6f84ae1f0da3bef3", "rental_uris": {"ios": "https://dc.lft.to/lastmile_qr_scan", "android": "https://dc.lft.to/lastmile_qr_scan"}}, {"name": "ee7b8ebf2126e82179098fe25d3d8817", "type": "electric_scooter", "lat": 38.9169645, "is_reserved": 0, "lon": -77.0123035, "fusion_lon": 0.0, "is_disabled": 0, "fusion_lat": 0.0, "bike_id": "ee7b8ebf2126e82179098fe25d3d8817", "rental_uris": {"ios": "https://dc.lft.to/lastmile_qr_scan", "android": "https://dc.lft.to/lastmile_qr_scan"}}, {"name": "0f5af90164df07918954cd7992187c39", "type": "electric_scooter", "lat": 38.91916283333333, "is_reserved": 0, "lon": -77.03418916666666, "fusion_lon": 0.0, "is_disabled": 0, "fusion_lat": 0.0, "bike_id": "0f5af90164df07918954cd7992187c39", "rental_uris": {"ios": "https://dc.lft.to/lastmile_qr_scan", "android": "https://dc.lft.to/lastmile_qr_scan"}}, {"name": "bd3590878f70e891a0bea9058211b631", "type": "electric_scooter", "lat": 38.90895016666666, "is_reserved": 0, "lon": -77.031537, "fusion_lon": 0.0, "is_disabled": 0, "fusion_lat": 0.0, "bike_id": "bd3590878f70e891a0bea9058211b631", "rental_uris": {"ios": "https://dc.lft.to/lastmile_qr_scan", "android": "https://dc.lft.to/lastmile_qr_scan"}}, {"name": "bfcfb7eded18f3c38899f577e617c594", "type": "electric_scooter", "lat": 38.920160833333334, "is_reserved": 0, "lon": -77.03867066666666, "fusion_lon": 0.0, "is_disabled": 0, "fusion_lat": 0.0, "bike_id": "bfcfb7eded18f3c38899f577e617c594", "rental_uris": {"ios": "https://dc.lft.to/lastmile_qr_scan", "android": "https://dc.lft.to/lastmile_qr_scan"}}, {"name": "4b9ce33640b5a2e04fab59c6ef8752d9", "type": "electric_scooter", "lat": 38.9041105, "is_reserved": 0, "lon": -76.97328666666667, "fusion_lon": 0.0, "is_disabled": 0, "fusion_lat": 0.0, "bike_id": "4b9ce33640b5a2e04fab59c6ef8752d9", "rental_uris": {"ios": "https://dc.lft.to/lastmile_qr_scan", "android": "https://dc.lft.to/lastmile_qr_scan"}}, {"name": "ae3f8c1caec36a9d88a3ed6d698728a9", "type": "electric_bike", "lat": 38.88267883333333, "is_reserved": 0, "lon": -76.99941033333333, "fusion_lon": 0.0, "is_disabled": 0, "fusion_lat": 0.0, "bike_id": "ae3f8c1caec36a9d88a3ed6d698728a9", "rental_uris": {"ios": "https://dc.lft.to/lastmile_qr_scan", "android": "https://dc.lft.to/lastmile_qr_scan"}}, {"name": "c74d3ce7fc342b571be1a3a1b68c9832", "type": "electric_scooter", "lat": 38.922495166666664, "is_reserved": 0, "lon": -77.030853, "fusion_lon": 0.0, "is_disabled": 0, "fusion_lat": 0.0, "bike_id": "c74d3ce7fc342b571be1a3a1b68c9832", "rental_uris": {"ios": "https://dc.lft.to/lastmile_qr_scan", "android": "https://dc.lft.to/lastmile_qr_scan"}}, {"name": "f964d223494a21cf953b8d230b9d4c8d", "type": "electric_scooter", "lat": 38.885208666666664, "is_reserved": 0, "lon": -76.9771105, "fusion_lon": 0.0, "is_disabled": 0, "fusion_lat": 0.0, "bike_id": "f964d223494a21cf953b8d230b9d4c8d", "rental_uris": {"ios": "https://dc.lft.to/lastmile_qr_scan", "android": "https://dc.lft.to/lastmile_qr_scan"}}, {"name": "220966d69a5a08a0bcbbfda1e8222ae3", "type": "electric_scooter", "lat": 38.904363333333336, "is_reserved": 0, "lon": -76.984873, "fusion_lon": 0.0, "is_disabled": 0, "fusion_lat": 0.0, "bike_id": "220966d69a5a08a0bcbbfda1e8222ae3", "rental_uris": {"ios": "https://dc.lft.to/lastmile_qr_scan", "android": "https://dc.lft.to/lastmile_qr_scan"}}, {"name": "bcc127d8f68d901ac1a1a70d7575262c", "type": "electric_scooter", "lat": 38.8851415, "is_reserved": 0, "lon": -77.033415, "fusion_lon": 0.0, "is_disabled": 0, "fusion_lat": 0.0, "bike_id": "bcc127d8f68d901ac1a1a70d7575262c", "rental_uris": {"ios": "https://dc.lft.to/lastmile_qr_scan", "android": "https://dc.lft.to/lastmile_qr_scan"}}, {"name": "908c87ae63d562fbe7781bb16f7060bb", "type": "electric_scooter", "lat": 38.9098465, "is_reserved": 0, "lon": -77.02146883333333, "fusion_lon": 0.0, "is_disabled": 0, "fusion_lat": 0.0, "bike_id": "908c87ae63d562fbe7781bb16f7060bb", "rental_uris": {"ios": "https://dc.lft.to/lastmile_qr_scan", "android": "https://dc.lft.to/lastmile_qr_scan"}}, {"name": "3e8090b5c7cdb5c1794d535d73ae72b9", "type": "electric_scooter", "lat": 38.91812733333333, "is_reserved": 0, "lon": -77.02782533333334, "fusion_lon": 0.0, "is_disabled": 0, "fusion_lat": 0.0, "bike_id": "3e8090b5c7cdb5c1794d535d73ae72b9", "rental_uris": {"ios": "https://dc.lft.to/lastmile_qr_scan", "android": "https://dc.lft.to/lastmile_qr_scan"}}, {"name": "dfba9dded80c9e7dac87ba7454aa97d4", "type": "electric_scooter", "lat": 38.93173733333333, "is_reserved": 0, "lon": -77.0285105, "fusion_lon": 0.0, "is_disabled": 0, "fusion_lat": 0.0, "bike_id": "dfba9dded80c9e7dac87ba7454aa97d4", "rental_uris": {"ios": "https://dc.lft.to/lastmile_qr_scan", "android": "https://dc.lft.to/lastmile_qr_scan"}}, {"name": "481ba0d0c62250c1036109a367623e27", "type": "electric_scooter", "lat": 38.9059115, "is_reserved": 0, "lon": -77.03450266666667, "fusion_lon": 0.0, "is_disabled": 0, "fusion_lat": 0.0, "bike_id": "481ba0d0c62250c1036109a367623e27", "rental_uris": {"ios": "https://dc.lft.to/lastmile_qr_scan", "android": "https://dc.lft.to/lastmile_qr_scan"}}, {"name": "5f80d1db69cd2d7acfa0bd7720cadde2", "type": "electric_scooter", "lat": 38.92886083333333, "is_reserved": 0, "lon": -77.05460666666667, "fusion_lon": 0.0, "is_disabled": 0, "fusion_lat": 0.0, "bike_id": "5f80d1db69cd2d7acfa0bd7720cadde2", "rental_uris": {"ios": "https://dc.lft.to/lastmile_qr_scan", "android": "https://dc.lft.to/lastmile_qr_scan"}}, {"name": "51f744b482698d442730b740336678e5", "type": "electric_scooter", "lat": 38.89969883333333, "is_reserved": 0, "lon": -76.93773516666667, "fusion_lon": 0.0, "is_disabled": 0, "fusion_lat": 0.0, "bike_id": "51f744b482698d442730b740336678e5", "rental_uris": {"ios": "https://dc.lft.to/lastmile_qr_scan", "android": "https://dc.lft.to/lastmile_qr_scan"}}, {"name": "f7dbb9ef4a3e554fc1547ee81d9f8cb7", "type": "electric_scooter", "lat": 38.918725, "is_reserved": 0, "lon": -77.041992, "fusion_lon": 0.0, "is_disabled": 0, "fusion_lat": 0.0, "bike_id": "f7dbb9ef4a3e554fc1547ee81d9f8cb7", "rental_uris": {"ios": "https://dc.lft.to/lastmile_qr_scan", "android": "https://dc.lft.to/lastmile_qr_scan"}}, {"name": "90faaae357dfbb420c087a93bada2e63", "type": "electric_scooter", "lat": 38.91881033333333, "is_reserved": 0, "lon": -77.03506816666666, "fusion_lon": 0.0, "is_disabled": 0, "fusion_lat": 0.0, "bike_id": "90faaae357dfbb420c087a93bada2e63", "rental_uris": {"ios": "https://dc.lft.to/lastmile_qr_scan", "android": "https://dc.lft.to/lastmile_qr_scan"}}, {"name": "9fc9787cb1530afdd256b7a3827955fb", "type": "electric_scooter", "lat": 38.87683616666666, "is_reserved": 0, "lon": -77.00067216666666, "fusion_lon": 0.0, "is_disabled": 0, "fusion_lat": 0.0, "bike_id": "9fc9787cb1530afdd256b7a3827955fb", "rental_uris": {"ios": "https://dc.lft.to/lastmile_qr_scan", "android": "https://dc.lft.to/lastmile_qr_scan"}}, {"name": "ddcf46e7126cf3faf651d33621d60066", "type": "electric_scooter", "lat": 38.90564833333333, "is_reserved": 0, "lon": -76.9813815, "fusion_lon": 0.0, "is_disabled": 0, "fusion_lat": 0.0, "bike_id": "ddcf46e7126cf3faf651d33621d60066", "rental_uris": {"ios": "https://dc.lft.to/lastmile_qr_scan", "android": "https://dc.lft.to/lastmile_qr_scan"}}, {"name": "d220a52be3d7861b05fbaef62a58d008", "type": "electric_scooter", "lat": 38.914387833333336, "is_reserved": 0, "lon": -77.00344716666666, "fusion_lon": 0.0, "is_disabled": 0, "fusion_lat": 0.0, "bike_id": "d220a52be3d7861b05fbaef62a58d008", "rental_uris": {"ios": "https://dc.lft.to/lastmile_qr_scan", "android": "https://dc.lft.to/lastmile_qr_scan"}}, {"name": "d260823bdaff4bcf9dd18e23c55ad631", "type": "electric_scooter", "lat": 38.90022333333334, "is_reserved": 0, "lon": -76.99856016666666, "fusion_lon": 0.0, "is_disabled": 0, "fusion_lat": 0.0, "bike_id": "d260823bdaff4bcf9dd18e23c55ad631", "rental_uris": {"ios": "https://dc.lft.to/lastmile_qr_scan", "android": "https://dc.lft.to/lastmile_qr_scan"}}, {"name": "7ed255111032d10be94ae02c2a724f46", "type": "electric_scooter", "lat": 38.9427825, "is_reserved": 0, "lon": -77.02505466666666, "fusion_lon": 0.0, "is_disabled": 0, "fusion_lat": 0.0, "bike_id": "7ed255111032d10be94ae02c2a724f46", "rental_uris": {"ios": "https://dc.lft.to/lastmile_qr_scan", "android": "https://dc.lft.to/lastmile_qr_scan"}}, {"name": "de362595fb1c837f3cca8df0841805c5", "type": "electric_scooter", "lat": 38.908501333333334, "is_reserved": 0, "lon": -77.08533333333334, "fusion_lon": 0.0, "is_disabled": 0, "fusion_lat": 0.0, "bike_id": "de362595fb1c837f3cca8df0841805c5", "rental_uris": {"ios": "https://dc.lft.to/lastmile_qr_scan", "android": "https://dc.lft.to/lastmile_qr_scan"}}, {"name": "4c369d7a27b0983c8269c18663f37dde", "type": "electric_scooter", "lat": 38.90672133333333, "is_reserved": 0, "lon": -77.02708083333333, "fusion_lon": 0.0, "is_disabled": 0, "fusion_lat": 0.0, "bike_id": "4c369d7a27b0983c8269c18663f37dde", "rental_uris": {"ios": "https://dc.lft.to/lastmile_qr_scan", "android": "https://dc.lft.to/lastmile_qr_scan"}}, {"name": "e456c5b449c01b7b0a0c0db22afe9dd9", "type": "electric_scooter", "lat": 38.90988083333333, "is_reserved": 0, "lon": -77.00901133333333, "fusion_lon": 0.0, "is_disabled": 0, "fusion_lat": 0.0, "bike_id": "e456c5b449c01b7b0a0c0db22afe9dd9", "rental_uris": {"ios": "https://dc.lft.to/lastmile_qr_scan", "android": "https://dc.lft.to/lastmile_qr_scan"}}, {"name": "f0c554d5a1d844a31666470b7c872edd", "type": "electric_scooter", "lat": 38.8975745, "is_reserved": 0, "lon": -77.02918816666667, "fusion_lon": 0.0, "is_disabled": 0, "fusion_lat": 0.0, "bike_id": "f0c554d5a1d844a31666470b7c872edd", "rental_uris": {"ios": "https://dc.lft.to/lastmile_qr_scan", "android": "https://dc.lft.to/lastmile_qr_scan"}}, {"name": "e62ef4224ff97f3c6a3d66f44d203070", "type": "electric_scooter", "lat": 38.866587333333335, "is_reserved": 0, "lon": -76.9888515, "fusion_lon": 0.0, "is_disabled": 0, "fusion_lat": 0.0, "bike_id": "e62ef4224ff97f3c6a3d66f44d203070", "rental_uris": {"ios": "https://dc.lft.to/lastmile_qr_scan", "android": "https://dc.lft.to/lastmile_qr_scan"}}, {"name": "44a34630431037f32d288877c58d4986", "type": "electric_scooter", "lat": 38.9267995, "is_reserved": 0, "lon": -77.0278685, "fusion_lon": 0.0, "is_disabled": 0, "fusion_lat": 0.0, "bike_id": "44a34630431037f32d288877c58d4986", "rental_uris": {"ios": "https://dc.lft.to/lastmile_qr_scan", "android": "https://dc.lft.to/lastmile_qr_scan"}}, {"name": "840e77baaf94134304aa822c45e42fee", "type": "electric_scooter", "lat": 38.89390616666667, "is_reserved": 0, "lon": -77.02990616666666, "fusion_lon": 0.0, "is_disabled": 0, "fusion_lat": 0.0, "bike_id": "840e77baaf94134304aa822c45e42fee", "rental_uris": {"ios": "https://dc.lft.to/lastmile_qr_scan", "android": "https://dc.lft.to/lastmile_qr_scan"}}, {"name": "b367ef6b2d0a85971fb8c02943d1aee8", "type": "electric_scooter", "lat": 38.86523183333333, "is_reserved": 0, "lon": -76.9903095, "fusion_lon": 0.0, "is_disabled": 0, "fusion_lat": 0.0, "bike_id": "b367ef6b2d0a85971fb8c02943d1aee8", "rental_uris": {"ios": "https://dc.lft.to/lastmile_qr_scan", "android": "https://dc.lft.to/lastmile_qr_scan"}}, {"name": "7bd6e0427f8e5e805246b85e5eb6da5b", "type": "electric_bike", "lat": 38.952642833333336, "is_reserved": 0, "lon": -77.06984183333333, "fusion_lon": 0.0, "is_disabled": 0, "fusion_lat": 0.0, "bike_id": "7bd6e0427f8e5e805246b85e5eb6da5b", "rental_uris": {"ios": "https://dc.lft.to/lastmile_qr_scan", "android": "https://dc.lft.to/lastmile_qr_scan"}}, {"name": "08523eb45755944a0006002ff4f297ad", "type": "electric_bike", "lat": 38.86280433333334, "is_reserved": 0, "lon": -77.06377533333334, "fusion_lon": 0.0, "is_disabled": 0, "fusion_lat": 0.0, "bike_id": "08523eb45755944a0006002ff4f297ad", "rental_uris": {"ios": "https://dc.lft.to/lastmile_qr_scan", "android": "https://dc.lft.to/lastmile_qr_scan"}}, {"name": "d46d8188d485a71f63d5e083bccefa05", "type": "electric_scooter", "lat": 38.924855666666666, "is_reserved": 0, "lon": -77.0348465, "fusion_lon": 0.0, "is_disabled": 0, "fusion_lat": 0.0, "bike_id": "d46d8188d485a71f63d5e083bccefa05", "rental_uris": {"ios": "https://dc.lft.to/lastmile_qr_scan", "android": "https://dc.lft.to/lastmile_qr_scan"}}, {"name": "1fbcc8fc0d0b177271ab47a14193fc49", "type": "electric_scooter", "lat": 38.927452833333334, "is_reserved": 0, "lon": -77.03260183333333, "fusion_lon": 0.0, "is_disabled": 0, "fusion_lat": 0.0, "bike_id": "1fbcc8fc0d0b177271ab47a14193fc49", "rental_uris": {"ios": "https://dc.lft.to/lastmile_qr_scan", "android": "https://dc.lft.to/lastmile_qr_scan"}}, {"name": "54d24a3329860fb0c610106c33322225", "type": "electric_scooter", "lat": 38.88606516666667, "is_reserved": 0, "lon": -76.995131, "fusion_lon": 0.0, "is_disabled": 0, "fusion_lat": 0.0, "bike_id": "54d24a3329860fb0c610106c33322225", "rental_uris": {"ios": "https://dc.lft.to/lastmile_qr_scan", "android": "https://dc.lft.to/lastmile_qr_scan"}}, {"name": "d3f1081a7d39415f1afb4c4dcf66e060", "type": "electric_scooter", "lat": 38.92512133333334, "is_reserved": 0, "lon": -77.019337, "fusion_lon": 0.0, "is_disabled": 0, "fusion_lat": 0.0, "bike_id": "d3f1081a7d39415f1afb4c4dcf66e060", "rental_uris": {"ios": "https://dc.lft.to/lastmile_qr_scan", "android": "https://dc.lft.to/lastmile_qr_scan"}}, {"name": "823044929dff8ead5bbe41768576e7b7", "type": "electric_scooter", "lat": 38.9111145, "is_reserved": 0, "lon": -77.03833416666667, "fusion_lon": 0.0, "is_disabled": 0, "fusion_lat": 0.0, "bike_id": "823044929dff8ead5bbe41768576e7b7", "rental_uris": {"ios": "https://dc.lft.to/lastmile_qr_scan", "android": "https://dc.lft.to/lastmile_qr_scan"}}, {"name": "842f00912b00a3cbbbadd8a7cff2af3b", "type": "electric_scooter", "lat": 38.921464, "is_reserved": 0, "lon": -77.03387, "fusion_lon": 0.0, "is_disabled": 0, "fusion_lat": 0.0, "bike_id": "842f00912b00a3cbbbadd8a7cff2af3b", "rental_uris": {"ios": "https://dc.lft.to/lastmile_qr_scan", "android": "https://dc.lft.to/lastmile_qr_scan"}}, {"name": "deab6c7cda40f8e5cb8d9d7339f89dca", "type": "electric_scooter", "lat": 38.91109083333333, "is_reserved": 0, "lon": -77.01388366666667, "fusion_lon": 0.0, "is_disabled": 0, "fusion_lat": 0.0, "bike_id": "deab6c7cda40f8e5cb8d9d7339f89dca", "rental_uris": {"ios": "https://dc.lft.to/lastmile_qr_scan", "android": "https://dc.lft.to/lastmile_qr_scan"}}, {"name": "7b63f1948b7c7336455eaa66add81f97", "type": "electric_scooter", "lat": 38.86374933333333, "is_reserved": 0, "lon": -76.9906165, "fusion_lon": 0.0, "is_disabled": 0, "fusion_lat": 0.0, "bike_id": "7b63f1948b7c7336455eaa66add81f97", "rental_uris": {"ios": "https://dc.lft.to/lastmile_qr_scan", "android": "https://dc.lft.to/lastmile_qr_scan"}}, {"name": "86045a25d2a6de0a04d19a695e2f08ca", "type": "electric_scooter", "lat": 38.920035666666664, "is_reserved": 0, "lon": -77.03883233333333, "fusion_lon": 0.0, "is_disabled": 0, "fusion_lat": 0.0, "bike_id": "86045a25d2a6de0a04d19a695e2f08ca", "rental_uris": {"ios": "https://dc.lft.to/lastmile_qr_scan", "android": "https://dc.lft.to/lastmile_qr_scan"}}, {"name": "0ec665cda672a02324a60b38c8c0f435", "type": "electric_scooter", "lat": 38.906740666666664, "is_reserved": 0, "lon": -77.03827333333334, "fusion_lon": 0.0, "is_disabled": 0, "fusion_lat": 0.0, "bike_id": "0ec665cda672a02324a60b38c8c0f435", "rental_uris": {"ios": "https://dc.lft.to/lastmile_qr_scan", "android": "https://dc.lft.to/lastmile_qr_scan"}}, {"name": "e2f5952ebda170308f07e4f3598713fd", "type": "electric_scooter", "lat": 38.922629666666666, "is_reserved": 0, "lon": -77.03642516666666, "fusion_lon": 0.0, "is_disabled": 0, "fusion_lat": 0.0, "bike_id": "e2f5952ebda170308f07e4f3598713fd", "rental_uris": {"ios": "https://dc.lft.to/lastmile_qr_scan", "android": "https://dc.lft.to/lastmile_qr_scan"}}, {"name": "b3554052c643ecfe53ec723d74e01b67", "type": "electric_scooter", "lat": 38.924750833333334, "is_reserved": 0, "lon": -77.02669766666666, "fusion_lon": 0.0, "is_disabled": 0, "fusion_lat": 0.0, "bike_id": "b3554052c643ecfe53ec723d74e01b67", "rental_uris": {"ios": "https://dc.lft.to/lastmile_qr_scan", "android": "https://dc.lft.to/lastmile_qr_scan"}}, {"name": "8a2cba902d612446e0611cbe4f2156f2", "type": "electric_scooter", "lat": 38.95528083333333, "is_reserved": 0, "lon": -77.06976116666667, "fusion_lon": 0.0, "is_disabled": 0, "fusion_lat": 0.0, "bike_id": "8a2cba902d612446e0611cbe4f2156f2", "rental_uris": {"ios": "https://dc.lft.to/lastmile_qr_scan", "android": "https://dc.lft.to/lastmile_qr_scan"}}, {"name": "3eb5e4483c01d8bcaba276dc8a6241c4", "type": "electric_scooter", "lat": 38.8996795, "is_reserved": 0, "lon": -77.02936483333333, "fusion_lon": 0.0, "is_disabled": 0, "fusion_lat": 0.0, "bike_id": "3eb5e4483c01d8bcaba276dc8a6241c4", "rental_uris": {"ios": "https://dc.lft.to/lastmile_qr_scan", "android": "https://dc.lft.to/lastmile_qr_scan"}}, {"name": "06ea5ee7e5ca72b038ebd6933b243f0c", "type": "electric_scooter", "lat": 38.91955033333333, "is_reserved": 0, "lon": -77.04554733333333, "fusion_lon": 0.0, "is_disabled": 0, "fusion_lat": 0.0, "bike_id": "06ea5ee7e5ca72b038ebd6933b243f0c", "rental_uris": {"ios": "https://dc.lft.to/lastmile_qr_scan", "android": "https://dc.lft.to/lastmile_qr_scan"}}, {"name": "f0444b97c64152770551c17ad3c92f28", "type": "electric_scooter", "lat": 38.865256333333335, "is_reserved": 0, "lon": -76.99031583333333, "fusion_lon": 0.0, "is_disabled": 0, "fusion_lat": 0.0, "bike_id": "f0444b97c64152770551c17ad3c92f28", "rental_uris": {"ios": "https://dc.lft.to/lastmile_qr_scan", "android": "https://dc.lft.to/lastmile_qr_scan"}}, {"name": "3a46db8affb9f8f66c0c50d4e5d59747", "type": "electric_scooter", "lat": 38.93517383333333, "is_reserved": 0, "lon": -77.02471883333334, "fusion_lon": 0.0, "is_disabled": 0, "fusion_lat": 0.0, "bike_id": "3a46db8affb9f8f66c0c50d4e5d59747", "rental_uris": {"ios": "https://dc.lft.to/lastmile_qr_scan", "android": "https://dc.lft.to/lastmile_qr_scan"}}, {"name": "b52916aaa2e3ffe2eb821c96dd6ae937", "type": "electric_scooter", "lat": 38.9211635, "is_reserved": 0, "lon": -77.04210783333333, "fusion_lon": 0.0, "is_disabled": 0, "fusion_lat": 0.0, "bike_id": "b52916aaa2e3ffe2eb821c96dd6ae937", "rental_uris": {"ios": "https://dc.lft.to/lastmile_qr_scan", "android": "https://dc.lft.to/lastmile_qr_scan"}}, {"name": "5035b5102bf79591b945f6b5125b6461", "type": "electric_bike", "lat": 38.95881583333333, "is_reserved": 0, "lon": -77.0173615, "fusion_lon": 0.0, "is_disabled": 0, "fusion_lat": 0.0, "bike_id": "5035b5102bf79591b945f6b5125b6461", "rental_uris": {"ios": "https://dc.lft.to/lastmile_qr_scan", "android": "https://dc.lft.to/lastmile_qr_scan"}}, {"name": "309cd1292f12f030017706eac04d73a6", "type": "electric_bike", "lat": 38.80781783333333, "is_reserved": 0, "lon": -77.12954966666666, "fusion_lon": 0.0, "is_disabled": 0, "fusion_lat": 0.0, "bike_id": "309cd1292f12f030017706eac04d73a6", "rental_uris": {"ios": "https://dc.lft.to/lastmile_qr_scan", "android": "https://dc.lft.to/lastmile_qr_scan"}}, {"name": "098b6df5726e36ca76a1b29d5e1e76c2", "type": "electric_scooter", "lat": 38.916724333333335, "is_reserved": 0, "lon": -77.0232515, "fusion_lon": 0.0, "is_disabled": 0, "fusion_lat": 0.0, "bike_id": "098b6df5726e36ca76a1b29d5e1e76c2", "rental_uris": {"ios": "https://dc.lft.to/lastmile_qr_scan", "android": "https://dc.lft.to/lastmile_qr_scan"}}, {"name": "ea5bbcad4722f40ad690c0f0220d834f", "type": "electric_scooter", "lat": 38.95644683333333, "is_reserved": 0, "lon": -77.03292133333333, "fusion_lon": 0.0, "is_disabled": 0, "fusion_lat": 0.0, "bike_id": "ea5bbcad4722f40ad690c0f0220d834f", "rental_uris": {"ios": "https://dc.lft.to/lastmile_qr_scan", "android": "https://dc.lft.to/lastmile_qr_scan"}}, {"name": "e8f05748802ed56df83c7f83d520df7e", "type": "electric_scooter", "lat": 38.934554166666665, "is_reserved": 0, "lon": -77.07293766666666, "fusion_lon": 0.0, "is_disabled": 0, "fusion_lat": 0.0, "bike_id": "e8f05748802ed56df83c7f83d520df7e", "rental_uris": {"ios": "https://dc.lft.to/lastmile_qr_scan", "android": "https://dc.lft.to/lastmile_qr_scan"}}, {"name": "a87f6a8694423b8ef8cefcb9c98b4a25", "type": "electric_scooter", "lat": 38.900347, "is_reserved": 0, "lon": -76.98838283333333, "fusion_lon": 0.0, "is_disabled": 0, "fusion_lat": 0.0, "bike_id": "a87f6a8694423b8ef8cefcb9c98b4a25", "rental_uris": {"ios": "https://dc.lft.to/lastmile_qr_scan", "android": "https://dc.lft.to/lastmile_qr_scan"}}, {"name": "797ff26103287b089ac6305dea00fc9a", "type": "electric_bike", "lat": 39.0038265, "is_reserved": 0, "lon": -77.01303216666666, "fusion_lon": 0.0, "is_disabled": 0, "fusion_lat": 0.0, "bike_id": "797ff26103287b089ac6305dea00fc9a", "rental_uris": {"ios": "https://dc.lft.to/lastmile_qr_scan", "android": "https://dc.lft.to/lastmile_qr_scan"}}, {"name": "2747e280ea25d3a48de35eb7ea066bc9", "type": "electric_bike", "lat": 38.82791483333333, "is_reserved": 0, "lon": -77.00923816666666, "fusion_lon": 0.0, "is_disabled": 0, "fusion_lat": 0.0, "bike_id": "2747e280ea25d3a48de35eb7ea066bc9", "rental_uris": {"ios": "https://dc.lft.to/lastmile_qr_scan", "android": "https://dc.lft.to/lastmile_qr_scan"}}, {"name": "be348d5c6792612ca0e3095400e86276", "type": "electric_scooter", "lat": 38.90259316666667, "is_reserved": 0, "lon": -77.03833283333333, "fusion_lon": 0.0, "is_disabled": 0, "fusion_lat": 0.0, "bike_id": "be348d5c6792612ca0e3095400e86276", "rental_uris": {"ios": "https://dc.lft.to/lastmile_qr_scan", "android": "https://dc.lft.to/lastmile_qr_scan"}}, {"name": "86f8c582121f9c786523ead9fce3fb4f", "type": "electric_scooter", "lat": 38.927412333333336, "is_reserved": 0, "lon": -77.02266083333333, "fusion_lon": 0.0, "is_disabled": 0, "fusion_lat": 0.0, "bike_id": "86f8c582121f9c786523ead9fce3fb4f", "rental_uris": {"ios": "https://dc.lft.to/lastmile_qr_scan", "android": "https://dc.lft.to/lastmile_qr_scan"}}, {"name": "46d1a31be5dab1d39e263a651db4f5c1", "type": "electric_scooter", "lat": 38.89224216666667, "is_reserved": 0, "lon": -77.04336633333334, "fusion_lon": 0.0, "is_disabled": 0, "fusion_lat": 0.0, "bike_id": "46d1a31be5dab1d39e263a651db4f5c1", "rental_uris": {"ios": "https://dc.lft.to/lastmile_qr_scan", "android": "https://dc.lft.to/lastmile_qr_scan"}}, {"name": "3d6f228d126c9eb3accd1937136858b1", "type": "electric_scooter", "lat": 38.90618966666667, "is_reserved": 0, "lon": -77.07493533333333, "fusion_lon": 0.0, "is_disabled": 0, "fusion_lat": 0.0, "bike_id": "3d6f228d126c9eb3accd1937136858b1", "rental_uris": {"ios": "https://dc.lft.to/lastmile_qr_scan", "android": "https://dc.lft.to/lastmile_qr_scan"}}, {"name": "d6707601cdbc9d40f64466bb2e1fe0a2", "type": "electric_scooter", "lat": 38.866590333333335, "is_reserved": 0, "lon": -76.98886016666667, "fusion_lon": 0.0, "is_disabled": 0, "fusion_lat": 0.0, "bike_id": "d6707601cdbc9d40f64466bb2e1fe0a2", "rental_uris": {"ios": "https://dc.lft.to/lastmile_qr_scan", "android": "https://dc.lft.to/lastmile_qr_scan"}}, {"name": "b1c815beac2498aaa603dbfc17fc5f13", "type": "electric_scooter", "lat": 38.92515183333333, "is_reserved": 0, "lon": -77.00176333333333, "fusion_lon": 0.0, "is_disabled": 0, "fusion_lat": 0.0, "bike_id": "b1c815beac2498aaa603dbfc17fc5f13", "rental_uris": {"ios": "https://dc.lft.to/lastmile_qr_scan", "android": "https://dc.lft.to/lastmile_qr_scan"}}, {"name": "3b3401ab9703e9818da3c6531dfa1a8b", "type": "electric_scooter", "lat": 38.921195, "is_reserved": 0, "lon": -77.03665033333333, "fusion_lon": 0.0, "is_disabled": 0, "fusion_lat": 0.0, "bike_id": "3b3401ab9703e9818da3c6531dfa1a8b", "rental_uris": {"ios": "https://dc.lft.to/lastmile_qr_scan", "android": "https://dc.lft.to/lastmile_qr_scan"}}, {"name": "ca0734944a73651453a27155851170fe", "type": "electric_scooter", "lat": 38.88374533333333, "is_reserved": 0, "lon": -76.92374833333334, "fusion_lon": 0.0, "is_disabled": 0, "fusion_lat": 0.0, "bike_id": "ca0734944a73651453a27155851170fe", "rental_uris": {"ios": "https://dc.lft.to/lastmile_qr_scan", "android": "https://dc.lft.to/lastmile_qr_scan"}}, {"name": "40cd4534040fdfe2448445da62747aa5", "type": "electric_scooter", "lat": 38.92359716666667, "is_reserved": 0, "lon": -77.05841183333334, "fusion_lon": 0.0, "is_disabled": 0, "fusion_lat": 0.0, "bike_id": "40cd4534040fdfe2448445da62747aa5", "rental_uris": {"ios": "https://dc.lft.to/lastmile_qr_scan", "android": "https://dc.lft.to/lastmile_qr_scan"}}, {"name": "64098dc9b18fb34e1816c17c99e73b92", "type": "electric_scooter", "lat": 38.8960885, "is_reserved": 0, "lon": -77.0092635, "fusion_lon": 0.0, "is_disabled": 0, "fusion_lat": 0.0, "bike_id": "64098dc9b18fb34e1816c17c99e73b92", "rental_uris": {"ios": "https://dc.lft.to/lastmile_qr_scan", "android": "https://dc.lft.to/lastmile_qr_scan"}}, {"name": "7c7b7740fe91ceb43f16e67ba32baba5", "type": "electric_bike", "lat": 38.90863733333333, "is_reserved": 0, "lon": -77.080778, "fusion_lon": 0.0, "is_disabled": 0, "fusion_lat": 0.0, "bike_id": "7c7b7740fe91ceb43f16e67ba32baba5", "rental_uris": {"ios": "https://dc.lft.to/lastmile_qr_scan", "android": "https://dc.lft.to/lastmile_qr_scan"}}, {"name": "b46fff242605cb0eb57ad03079c553f3", "type": "electric_scooter", "lat": 38.91960383333333, "is_reserved": 0, "lon": -77.03381483333334, "fusion_lon": 0.0, "is_disabled": 0, "fusion_lat": 0.0, "bike_id": "b46fff242605cb0eb57ad03079c553f3", "rental_uris": {"ios": "https://dc.lft.to/lastmile_qr_scan", "android": "https://dc.lft.to/lastmile_qr_scan"}}, {"name": "f5027093c26c5629e7731f634606b89a", "type": "electric_scooter", "lat": 38.92519033333333, "is_reserved": 0, "lon": -77.033287, "fusion_lon": 0.0, "is_disabled": 0, "fusion_lat": 0.0, "bike_id": "f5027093c26c5629e7731f634606b89a", "rental_uris": {"ios": "https://dc.lft.to/lastmile_qr_scan", "android": "https://dc.lft.to/lastmile_qr_scan"}}, {"name": "421d3f01133450084e48c0380082182d", "type": "electric_scooter", "lat": 38.912652, "is_reserved": 0, "lon": -77.03725216666666, "fusion_lon": 0.0, "is_disabled": 0, "fusion_lat": 0.0, "bike_id": "421d3f01133450084e48c0380082182d", "rental_uris": {"ios": "https://dc.lft.to/lastmile_qr_scan", "android": "https://dc.lft.to/lastmile_qr_scan"}}, {"name": "6a384d5a66cd68889ad012475008fd5e", "type": "electric_scooter", "lat": 38.905955166666665, "is_reserved": 0, "lon": -77.04183466666667, "fusion_lon": 0.0, "is_disabled": 0, "fusion_lat": 0.0, "bike_id": "6a384d5a66cd68889ad012475008fd5e", "rental_uris": {"ios": "https://dc.lft.to/lastmile_qr_scan", "android": "https://dc.lft.to/lastmile_qr_scan"}}, {"name": "c553f45d7e900bbc03db17e55d8ecd99", "type": "electric_scooter", "lat": 38.85450433333333, "is_reserved": 0, "lon": -76.985829, "fusion_lon": 0.0, "is_disabled": 0, "fusion_lat": 0.0, "bike_id": "c553f45d7e900bbc03db17e55d8ecd99", "rental_uris": {"ios": "https://dc.lft.to/lastmile_qr_scan", "android": "https://dc.lft.to/lastmile_qr_scan"}}, {"name": "a2750b65aa4da3a3f2b56a02e0870676", "type": "electric_scooter", "lat": 38.918711, "is_reserved": 0, "lon": -77.04355, "fusion_lon": 0.0, "is_disabled": 0, "fusion_lat": 0.0, "bike_id": "a2750b65aa4da3a3f2b56a02e0870676", "rental_uris": {"ios": "https://dc.lft.to/lastmile_qr_scan", "android": "https://dc.lft.to/lastmile_qr_scan"}}, {"name": "71f6b2ee16768068aceb2783b86d6dd1", "type": "electric_scooter", "lat": 38.928806, "is_reserved": 0, "lon": -77.03756583333333, "fusion_lon": 0.0, "is_disabled": 0, "fusion_lat": 0.0, "bike_id": "71f6b2ee16768068aceb2783b86d6dd1", "rental_uris": {"ios": "https://dc.lft.to/lastmile_qr_scan", "android": "https://dc.lft.to/lastmile_qr_scan"}}, {"name": "abe338064e2e99017202244cf056558a", "type": "electric_scooter", "lat": 38.940991833333335, "is_reserved": 0, "lon": -77.021105, "fusion_lon": 0.0, "is_disabled": 0, "fusion_lat": 0.0, "bike_id": "abe338064e2e99017202244cf056558a", "rental_uris": {"ios": "https://dc.lft.to/lastmile_qr_scan", "android": "https://dc.lft.to/lastmile_qr_scan"}}, {"name": "c846e479badd5f6ace75435065e64e95", "type": "electric_scooter", "lat": 38.924881, "is_reserved": 0, "lon": -77.02843616666667, "fusion_lon": 0.0, "is_disabled": 0, "fusion_lat": 0.0, "bike_id": "c846e479badd5f6ace75435065e64e95", "rental_uris": {"ios": "https://dc.lft.to/lastmile_qr_scan", "android": "https://dc.lft.to/lastmile_qr_scan"}}, {"name": "ce8f838cc7d96329525b273c1cdae0ff", "type": "electric_scooter", "lat": 38.8784545, "is_reserved": 0, "lon": -77.01967416666666, "fusion_lon": 0.0, "is_disabled": 0, "fusion_lat": 0.0, "bike_id": "ce8f838cc7d96329525b273c1cdae0ff", "rental_uris": {"ios": "https://dc.lft.to/lastmile_qr_scan", "android": "https://dc.lft.to/lastmile_qr_scan"}}, {"name": "1fbf8a2143d9c6ae9de5860647c09b65", "type": "electric_scooter", "lat": 38.89963183333333, "is_reserved": 0, "lon": -77.031188, "fusion_lon": 0.0, "is_disabled": 0, "fusion_lat": 0.0, "bike_id": "1fbf8a2143d9c6ae9de5860647c09b65", "rental_uris": {"ios": "https://dc.lft.to/lastmile_qr_scan", "android": "https://dc.lft.to/lastmile_qr_scan"}}, {"name": "46faea7659fbda594c0e77132cf7c3f8", "type": "electric_bike", "lat": 38.959098166666664, "is_reserved": 0, "lon": -77.001526, "fusion_lon": 0.0, "is_disabled": 0, "fusion_lat": 0.0, "bike_id": "46faea7659fbda594c0e77132cf7c3f8", "rental_uris": {"ios": "https://dc.lft.to/lastmile_qr_scan", "android": "https://dc.lft.to/lastmile_qr_scan"}}, {"name": "20cd1514962e3177f6a8144e1ca29165", "type": "electric_scooter", "lat": 38.87232783333333, "is_reserved": 0, "lon": -77.0118185, "fusion_lon": 0.0, "is_disabled": 0, "fusion_lat": 0.0, "bike_id": "20cd1514962e3177f6a8144e1ca29165", "rental_uris": {"ios": "https://dc.lft.to/lastmile_qr_scan", "android": "https://dc.lft.to/lastmile_qr_scan"}}, {"name": "fdfc44bdf09501135fe6da5005e8b1ae", "type": "electric_scooter", "lat": 38.915799666666665, "is_reserved": 0, "lon": -77.02224466666667, "fusion_lon": 0.0, "is_disabled": 0, "fusion_lat": 0.0, "bike_id": "fdfc44bdf09501135fe6da5005e8b1ae", "rental_uris": {"ios": "https://dc.lft.to/lastmile_qr_scan", "android": "https://dc.lft.to/lastmile_qr_scan"}}, {"name": "79509107aff05a0dcb4f2528e2a8b404", "type": "electric_scooter", "lat": 38.91713716666667, "is_reserved": 0, "lon": -77.03101883333333, "fusion_lon": 0.0, "is_disabled": 0, "fusion_lat": 0.0, "bike_id": "79509107aff05a0dcb4f2528e2a8b404", "rental_uris": {"ios": "https://dc.lft.to/lastmile_qr_scan", "android": "https://dc.lft.to/lastmile_qr_scan"}}, {"name": "ff7d5970929d41569a0e9ca506a66f20", "type": "electric_scooter", "lat": 38.90708816666667, "is_reserved": 0, "lon": -77.0017295, "fusion_lon": 0.0, "is_disabled": 0, "fusion_lat": 0.0, "bike_id": "ff7d5970929d41569a0e9ca506a66f20", "rental_uris": {"ios": "https://dc.lft.to/lastmile_qr_scan", "android": "https://dc.lft.to/lastmile_qr_scan"}}, {"name": "bac8484cd6650401242696f2ace8c4e0", "type": "electric_scooter", "lat": 38.925664833333336, "is_reserved": 0, "lon": -77.03927566666667, "fusion_lon": 0.0, "is_disabled": 0, "fusion_lat": 0.0, "bike_id": "bac8484cd6650401242696f2ace8c4e0", "rental_uris": {"ios": "https://dc.lft.to/lastmile_qr_scan", "android": "https://dc.lft.to/lastmile_qr_scan"}}, {"name": "12daef0b27e27ca1c92c38b26f33264a", "type": "electric_scooter", "lat": 38.920580333333334, "is_reserved": 0, "lon": -76.99876883333333, "fusion_lon": 0.0, "is_disabled": 0, "fusion_lat": 0.0, "bike_id": "12daef0b27e27ca1c92c38b26f33264a", "rental_uris": {"ios": "https://dc.lft.to/lastmile_qr_scan", "android": "https://dc.lft.to/lastmile_qr_scan"}}, {"name": "eee8f950b75d4d559299fac1ef194c08", "type": "electric_scooter", "lat": 38.913590666666664, "is_reserved": 0, "lon": -77.01556183333334, "fusion_lon": 0.0, "is_disabled": 0, "fusion_lat": 0.0, "bike_id": "eee8f950b75d4d559299fac1ef194c08", "rental_uris": {"ios": "https://dc.lft.to/lastmile_qr_scan", "android": "https://dc.lft.to/lastmile_qr_scan"}}, {"name": "a45c59cd70818ab121d9305dd768e393", "type": "electric_scooter", "lat": 38.89904166666667, "is_reserved": 0, "lon": -76.945618, "fusion_lon": 0.0, "is_disabled": 0, "fusion_lat": 0.0, "bike_id": "a45c59cd70818ab121d9305dd768e393", "rental_uris": {"ios": "https://dc.lft.to/lastmile_qr_scan", "android": "https://dc.lft.to/lastmile_qr_scan"}}, {"name": "70419cc8c9067a950616e341573d22f2", "type": "electric_scooter", "lat": 38.92452816666667, "is_reserved": 0, "lon": -77.00215383333334, "fusion_lon": 0.0, "is_disabled": 0, "fusion_lat": 0.0, "bike_id": "70419cc8c9067a950616e341573d22f2", "rental_uris": {"ios": "https://dc.lft.to/lastmile_qr_scan", "android": "https://dc.lft.to/lastmile_qr_scan"}}, {"name": "5603507ceb46130f83906495ca3b44b9", "type": "electric_scooter", "lat": 38.91186416666667, "is_reserved": 0, "lon": -76.99617016666667, "fusion_lon": 0.0, "is_disabled": 0, "fusion_lat": 0.0, "bike_id": "5603507ceb46130f83906495ca3b44b9", "rental_uris": {"ios": "https://dc.lft.to/lastmile_qr_scan", "android": "https://dc.lft.to/lastmile_qr_scan"}}, {"name": "b0a3ab93d6db270c5c9ca822b19d1b67", "type": "electric_scooter", "lat": 38.89795383333333, "is_reserved": 0, "lon": -77.02974166666667, "fusion_lon": 0.0, "is_disabled": 0, "fusion_lat": 0.0, "bike_id": "b0a3ab93d6db270c5c9ca822b19d1b67", "rental_uris": {"ios": "https://dc.lft.to/lastmile_qr_scan", "android": "https://dc.lft.to/lastmile_qr_scan"}}, {"name": "ab58e0f2151bbd6e08d052ffebcd0109", "type": "electric_scooter", "lat": 38.892227, "is_reserved": 0, "lon": -77.04264883333333, "fusion_lon": 0.0, "is_disabled": 0, "fusion_lat": 0.0, "bike_id": "ab58e0f2151bbd6e08d052ffebcd0109", "rental_uris": {"ios": "https://dc.lft.to/lastmile_qr_scan", "android": "https://dc.lft.to/lastmile_qr_scan"}}, {"name": "e173dc1dbb9bbec0d3ee53ae3fdfa5a1", "type": "electric_scooter", "lat": 38.944377, "is_reserved": 0, "lon": -77.06352716666666, "fusion_lon": 0.0, "is_disabled": 0, "fusion_lat": 0.0, "bike_id": "e173dc1dbb9bbec0d3ee53ae3fdfa5a1", "rental_uris": {"ios": "https://dc.lft.to/lastmile_qr_scan", "android": "https://dc.lft.to/lastmile_qr_scan"}}, {"name": "22c00871b987f891dece1af41fc9e312", "type": "electric_bike", "lat": 38.85490266666667, "is_reserved": 0, "lon": -77.11521733333333, "fusion_lon": 0.0, "is_disabled": 0, "fusion_lat": 0.0, "bike_id": "22c00871b987f891dece1af41fc9e312", "rental_uris": {"ios": "https://dc.lft.to/lastmile_qr_scan", "android": "https://dc.lft.to/lastmile_qr_scan"}}, {"name": "d2a5ce7c0a6f29fd78ef98bbad086f42", "type": "electric_scooter", "lat": 38.88332466666667, "is_reserved": 0, "lon": -77.0176925, "fusion_lon": 0.0, "is_disabled": 0, "fusion_lat": 0.0, "bike_id": "d2a5ce7c0a6f29fd78ef98bbad086f42", "rental_uris": {"ios": "https://dc.lft.to/lastmile_qr_scan", "android": "https://dc.lft.to/lastmile_qr_scan"}}, {"name": "a72883d010c0d9e4795104e22ba6d90d", "type": "electric_scooter", "lat": 38.920654166666665, "is_reserved": 0, "lon": -77.0291875, "fusion_lon": 0.0, "is_disabled": 0, "fusion_lat": 0.0, "bike_id": "a72883d010c0d9e4795104e22ba6d90d", "rental_uris": {"ios": "https://dc.lft.to/lastmile_qr_scan", "android": "https://dc.lft.to/lastmile_qr_scan"}}, {"name": "b560c3ff20ed0d199838117d4c470709", "type": "electric_scooter", "lat": 38.96115666666667, "is_reserved": 0, "lon": -77.02811166666666, "fusion_lon": 0.0, "is_disabled": 0, "fusion_lat": 0.0, "bike_id": "b560c3ff20ed0d199838117d4c470709", "rental_uris": {"ios": "https://dc.lft.to/lastmile_qr_scan", "android": "https://dc.lft.to/lastmile_qr_scan"}}, {"name": "c2905649328dba1ccf4e02f1e6f70703", "type": "electric_scooter", "lat": 38.9132815, "is_reserved": 0, "lon": -77.0304185, "fusion_lon": 0.0, "is_disabled": 0, "fusion_lat": 0.0, "bike_id": "c2905649328dba1ccf4e02f1e6f70703", "rental_uris": {"ios": "https://dc.lft.to/lastmile_qr_scan", "android": "https://dc.lft.to/lastmile_qr_scan"}}, {"name": "b556180e3e1d7e6fdf057b390befe34f", "type": "electric_scooter", "lat": 38.9414955, "is_reserved": 0, "lon": -77.036522, "fusion_lon": 0.0, "is_disabled": 0, "fusion_lat": 0.0, "bike_id": "b556180e3e1d7e6fdf057b390befe34f", "rental_uris": {"ios": "https://dc.lft.to/lastmile_qr_scan", "android": "https://dc.lft.to/lastmile_qr_scan"}}, {"name": "347ad40cff69002cf6d28e3b37f08497", "type": "electric_scooter", "lat": 38.931026, "is_reserved": 0, "lon": -77.02668983333334, "fusion_lon": 0.0, "is_disabled": 0, "fusion_lat": 0.0, "bike_id": "347ad40cff69002cf6d28e3b37f08497", "rental_uris": {"ios": "https://dc.lft.to/lastmile_qr_scan", "android": "https://dc.lft.to/lastmile_qr_scan"}}, {"name": "b3bc36d182d7cc76e0756a2f5b9e6a6d", "type": "electric_bike", "lat": 38.90535233333333, "is_reserved": 0, "lon": -76.99805716666667, "fusion_lon": 0.0, "is_disabled": 0, "fusion_lat": 0.0, "bike_id": "b3bc36d182d7cc76e0756a2f5b9e6a6d", "rental_uris": {"ios": "https://dc.lft.to/lastmile_qr_scan", "android": "https://dc.lft.to/lastmile_qr_scan"}}, {"name": "ae3458f891debfaf7abf47beef8ed662", "type": "electric_scooter", "lat": 38.89890366666667, "is_reserved": 0, "lon": -77.00702883333334, "fusion_lon": 0.0, "is_disabled": 0, "fusion_lat": 0.0, "bike_id": "ae3458f891debfaf7abf47beef8ed662", "rental_uris": {"ios": "https://dc.lft.to/lastmile_qr_scan", "android": "https://dc.lft.to/lastmile_qr_scan"}}, {"name": "66e85d37fd5f55532c45e78213a4a8df", "type": "electric_scooter", "lat": 38.89828216666667, "is_reserved": 0, "lon": -76.92641133333333, "fusion_lon": 0.0, "is_disabled": 0, "fusion_lat": 0.0, "bike_id": "66e85d37fd5f55532c45e78213a4a8df", "rental_uris": {"ios": "https://dc.lft.to/lastmile_qr_scan", "android": "https://dc.lft.to/lastmile_qr_scan"}}, {"name": "8921fc04431059cc7ff32a751d9ed2dd", "type": "electric_scooter", "lat": 38.866982666666665, "is_reserved": 0, "lon": -76.98712516666667, "fusion_lon": 0.0, "is_disabled": 0, "fusion_lat": 0.0, "bike_id": "8921fc04431059cc7ff32a751d9ed2dd", "rental_uris": {"ios": "https://dc.lft.to/lastmile_qr_scan", "android": "https://dc.lft.to/lastmile_qr_scan"}}, {"name": "cf418c66b1fa7fbfd35d58e70023903e", "type": "electric_scooter", "lat": 38.906758833333335, "is_reserved": 0, "lon": -77.038287, "fusion_lon": 0.0, "is_disabled": 0, "fusion_lat": 0.0, "bike_id": "cf418c66b1fa7fbfd35d58e70023903e", "rental_uris": {"ios": "https://dc.lft.to/lastmile_qr_scan", "android": "https://dc.lft.to/lastmile_qr_scan"}}, {"name": "18c031f7a7f1f6b20ecbd945eb7f067b", "type": "electric_bike", "lat": 38.990894833333336, "is_reserved": 0, "lon": -76.87495066666666, "fusion_lon": 0.0, "is_disabled": 0, "fusion_lat": 0.0, "bike_id": "18c031f7a7f1f6b20ecbd945eb7f067b", "rental_uris": {"ios": "https://dc.lft.to/lastmile_qr_scan", "android": "https://dc.lft.to/lastmile_qr_scan"}}, {"name": "28e50f02a81d85ee05255efd896e0a4d", "type": "electric_scooter", "lat": 38.937172, "is_reserved": 0, "lon": -77.03649583333333, "fusion_lon": 0.0, "is_disabled": 0, "fusion_lat": 0.0, "bike_id": "28e50f02a81d85ee05255efd896e0a4d", "rental_uris": {"ios": "https://dc.lft.to/lastmile_qr_scan", "android": "https://dc.lft.to/lastmile_qr_scan"}}, {"name": "413206460d71405745ba00232dd5af8a", "type": "electric_scooter", "lat": 38.89674383333333, "is_reserved": 0, "lon": -77.0540525, "fusion_lon": 0.0, "is_disabled": 0, "fusion_lat": 0.0, "bike_id": "413206460d71405745ba00232dd5af8a", "rental_uris": {"ios": "https://dc.lft.to/lastmile_qr_scan", "android": "https://dc.lft.to/lastmile_qr_scan"}},