{"data": {"bikes": [{"fusion_lat": 0.0, "name": "9e218c294d3e685f769b3f1c7e9364e7", "is_disabled": 0, "rental_uris": {"android": "https://dc.lft.to/lastmile_qr_scan", "ios": "https://dc.lft.to/lastmile_qr_scan"}, "fusion_lon": 0.0, "lat": 38.9006295, "bike_id": "9e218c294d3e685f769b3f1c7e9364e7", "type": "electric_scooter", "is_reserved": 0, "lon": -76.93385783333333}, {"fusion_lat": 0.0, "name": "bc6ab61e306ef3dd3de4065958fc760a", "is_disabled": 0, "rental_uris": {"android": "https://dc.lft.to/lastmile_qr_scan", "ios": "https://dc.lft.to/lastmile_qr_scan"}, "fusion_lon": 0.0, "lat": 38.8961705, "bike_id": "bc6ab61e306ef3dd3de4065958fc760a", "type": "electric_scooter", "is_reserved": 0, "lon": -77.0505995}, {"fusion_lat": 0.0, "name": "59a95ab0de497fe0c17d5d8d15d2b3aa", "is_disabled": 0, "rental_uris": {"android": "https://dc.lft.to/lastmile_qr_scan", "ios": "https://dc.lft.to/lastmile_qr_scan"}, "fusion_lon": 0.0, "lat": 38.899965, "bike_id": "59a95ab0de497fe0c17d5d8d15d2b3aa", "type": "electric_scooter", "is_reserved": 0, "lon": -77.02190933333333}, {"fusion_lat": 0.0, "name": "7cd2781384648d529b1b5c9e06dba08c", "is_disabled": 0, "rental_uris": {"android": "https://dc.lft.to/lastmile_qr_scan", "ios": "https://dc.lft.to/lastmile_qr_scan"}, "fusion_lon": 0.0, "lat": 38.90563266666667, "bike_id": "7cd2781384648d529b1b5c9e06dba08c", "type": "electric_scooter", "is_reserved": 0, "lon": -77.00808116666667}, {"fusion_lat": 0.0, "name": "29b2a556cc2dc69cb741281e46b44737", "is_disabled": 0, "rental_uris": {"android": "https://dc.lft.to/lastmile_qr_scan", "ios": "https://dc.lft.to/lastmile_qr_scan"}, "fusion_lon": 0.0, "lat": 38.937501, "bike_id": "29b2a556cc2dc69cb741281e46b44737", "type": "electric_scooter", "is_reserved": 0, "lon": -77.02529866666667}, {"fusion_lat": 0.0, "name": "1f12c0502a9cde72a33d83f87557a2d7", "is_disabled": 0, "rental_uris": {"android": "https://dc.lft.to/lastmile_qr_scan", "ios": "https://dc.lft.to/lastmile_qr_scan"}, "fusion_lon": 0.0, "lat": 38.903934666666665, "bike_id": "1f12c0502a9cde72a33d83f87557a2d7", "type": "electric_scooter", "is_reserved": 0, "lon": -77.06138316666667}, {"fusion_lat": 0.0, "name": "387bfafde3cfbf27819314210d615e4f", "is_disabled": 0, "rental_uris": {"android": "https://dc.lft.to/lastmile_qr_scan", "ios": "https://dc.lft.to/lastmile_qr_scan"}, "fusion_lon": 0.0, "lat": 38.8405285, "bike_id": "387bfafde3cfbf27819314210d615e4f", "type": "electric_scooter", "is_reserved": 0, "lon": -76.97669416666666}, {"fusion_lat": 0.0, "name": "f4203f469c51cd8b95ca0504cc5a7b29", "is_disabled": 0, "rental_uris": {"android": "https://dc.lft.to/lastmile_qr_scan", "ios": "https://dc.lft.to/lastmile_qr_scan"}, "fusion_lon": 0.0, "lat": 38.9271765, "bike_id": "f4203f469c51cd8b95ca0504cc5a7b29", "type": "electric_scooter", "is_reserved": 0, "lon": -77.02063766666667}, {"fusion_lat": 0.0, "name": "39f6e7dbe70453d452ef29c5daa42c23", "is_disabled": 0, "rental_uris": {"android": "https://dc.lft.to/lastmile_qr_scan", "ios": "https://dc.lft.to/lastmile_qr_scan"}, "fusion_lon": 0.0, "lat": 38.895666, "bike_id": "39f6e7dbe70453d452ef29c5daa42c23", "type": "electric_bike", "is_reserved": 0, "lon": -77.1273795}, {"fusion_lat": 0.0, "name": "bdbb839303397ec9a79d6b98f5456744", "is_disabled": 0, "rental_uris": {"android": "https://dc.lft.to/lastmile_qr_scan", "ios": "https://dc.lft.to/lastmile_qr_scan"}, "fusion_lon": 0.0, "lat": 38.841371, "bike_id": "bdbb839303397ec9a79d6b98f5456744", "type": "electric_bike", "is_reserved": 0, "lon": -76.94764966666666}, {"fusion_lat": 0.0, "name": "fdebfb3909ef6c799d93ec3dd81d7297", "is_disabled": 0, "rental_uris": {"android": "https://dc.lft.to/lastmile_qr_scan", "ios": "https://dc.lft.to/lastmile_qr_scan"}, "fusion_lon": 0.0, "lat": 38.909808, "bike_id": "fdebfb3909ef6c799d93ec3dd81d7297", "type": "electric_scooter", "is_reserved": 0, "lon": -77.03371366666667}, {"fusion_lat": 0.0, "name": "19c0eb8d8311c2797787042d583a4ff8", "is_disabled": 0, "rental_uris": {"android": "https://dc.lft.to/lastmile_qr_scan", "ios": "https://dc.lft.to/lastmile_qr_scan"}, "fusion_lon": 0.0, "lat": 38.88413216666667, "bike_id": "19c0eb8d8311c2797787042d583a4ff8", "type": "electric_scooter", "is_reserved": 0, "lon": -77.024505}, {"fusion_lat": 0.0, "name": "0264fa70042ded0883701d95afc8fe2b", "is_disabled": 0, "rental_uris": {"android": "https://dc.lft.to/lastmile_qr_scan", "ios": "https://dc.lft.to/lastmile_qr_scan"}, "fusion_lon": 0.0, "lat": 38.864672166666665, "bike_id": "0264fa70042ded0883701d95afc8fe2b", "type": "electric_bike", "is_reserved": 0, "lon": -76.94532283333334}, {"fusion_lat": 0.0, "name": "4a75b69a7f119d95696a016397ace66e", "is_disabled": 0, "rental_uris": {"android": "https://dc.lft.to/lastmile_qr_scan", "ios": "https://dc.lft.to/lastmile_qr_scan"}, "fusion_lon": 0.0, "lat": 38.88140033333333, "bike_id": "4a75b69a7f119d95696a016397ace66e", "type": "electric_scooter", "is_reserved": 0, "lon": -77.01657233333333}, {"fusion_lat": 0.0, "name": "2a9cf4480cb01c34177fb13a1e868bbe", "is_disabled": 0, "rental_uris": {"android": "https://dc.lft.to/lastmile_qr_scan", "ios": "https://dc.lft.to/lastmile_qr_scan"}, "fusion_lon": 0.0, "lat": 38.925512166666664, "bike_id": "2a9cf4480cb01c34177fb13a1e868bbe", "type": "electric_scooter", "is_reserved": 0, "lon": -77.05301566666667}, {"fusion_lat": 0.0, "name": "a83b6ffc9b184f6d4a9baf3a39095fd8", "is_disabled": 0, "rental_uris": {"android": "https://dc.lft.to/lastmile_qr_scan", "ios": "https://dc.lft.to/lastmile_qr_scan"}, "fusion_lon": 0.0, "lat": 38.892333666666666, "bike_id": "a83b6ffc9b184f6d4a9baf3a39095fd8", "type": "electric_scooter", "is_reserved": 0, "lon": -77.050055}, {"fusion_lat": 0.0, "name": "942867b94527ac7ebed054d6e30c033d", "is_disabled": 0, "rental_uris": {"android": "https://dc.lft.to/lastmile_qr_scan", "ios": "https://dc.lft.to/lastmile_qr_scan"}, "fusion_lon": 0.0, "lat": 38.931940833333336, "bike_id": "942867b94527ac7ebed054d6e30c033d", "type": "electric_scooter", "is_reserved": 0, "lon": -77.0429855}, {"fusion_lat": 0.0, "name": "56a3897587630d38fdd53f166922ec46", "is_disabled": 0, "rental_uris": {"android": "https://dc.lft.to/lastmile_qr_scan", "ios": "https://dc.lft.to/lastmile_qr_scan"}, "fusion_lon": 0.0, "lat": 38.9169165, "bike_id": "56a3897587630d38fdd53f166922ec46", "type": "electric_scooter", "is_reserved": 0, "lon": -77.02887166666666}, {"fusion_lat": 0.0, "name": "aa8f22fb6e62e6d8c0a203242d9c9a0e", "is_disabled": 0, "rental_uris": {"android": "https://dc.lft.to/lastmile_qr_scan", "ios": "https://dc.lft.to/lastmile_qr_scan"}, "fusion_lon": 0.0, "lat": 38.89846133333333, "bike_id": "aa8f22fb6e62e6d8c0a203242d9c9a0e", "type": "electric_scooter", "is_reserved": 0, "lon": -77.02929833333333}, {"fusion_lat": 0.0, "name": "ea10b59c7add26ecd0027b4345634eb7", "is_disabled": 0, "rental_uris": {"android": "https://dc.lft.to/lastmile_qr_scan", "ios": "https://dc.lft.to/lastmile_qr_scan"}, "fusion_lon": 0.0, "lat": 38.905553, "bike_id": "ea10b59c7add26ecd0027b4345634eb7", "type": "electric_scooter", "is_reserved": 0, "lon": -77.06254533333333}, {"fusion_lat": 0.0, "name": "4901c590257f92977062176ec910d142", "is_disabled": 0, "rental_uris": {"android": "https://dc.lft.to/lastmile_qr_scan", "ios": "https://dc.lft.to/lastmile_qr_scan"}, "fusion_lon": 0.0, "lat": 38.91253316666667, "bike_id": "4901c590257f92977062176ec910d142", "type": "electric_scooter", "is_reserved": 0, "lon": -77.03271883333333}, {"fusion_lat": 0.0, "name": "341847cec97b7853a5d9f314352cb546", "is_disabled": 0, "rental_uris": {"android": "https://dc.lft.to/lastmile_qr_scan", "ios": "https://dc.lft.to/lastmile_qr_scan"}, "fusion_lon": 0.0, "lat": 38.8870205, "bike_id": "341847cec97b7853a5d9f314352cb546", "type": "electric_scooter", "is_reserved": 0, "lon": -76.99608716666667}, {"fusion_lat": 0.0, "name": "af06444ebff93e69797934d7c446eb45", "is_disabled": 0, "rental_uris": {"android": "https://dc.lft.to/lastmile_qr_scan", "ios": "https://dc.lft.to/lastmile_qr_scan"}, "fusion_lon": 0.0, "lat": 38.81939116666667, "bike_id": "af06444ebff93e69797934d7c446eb45", "type": "electric_bike", "is_reserved": 0, "lon": -77.00200566666666}, {"fusion_lat": 0.0, "name": "f9c776d5d093ef621f5f061d81aeb546", "is_disabled": 0, "rental_uris": {"android": "https://dc.lft.to/lastmile_qr_scan", "ios": "https://dc.lft.to/lastmile_qr_scan"}, "fusion_lon": 0.0, "lat": 38.9138745, "bike_id": "f9c776d5d093ef621f5f061d81aeb546", "type": "electric_scooter", "is_reserved": 0, "lon": -77.032097}, {"fusion_lat": 0.0, "name": "4bf9039ce79384b3e9b9a1687d425aae", "is_disabled": 0, "rental_uris": {"android": "https://dc.lft.to/lastmile_qr_scan", "ios": "https://dc.lft.to/lastmile_qr_scan"}, "fusion_lon": 0.0, "lat": 38.8350175, "bike_id": "4bf9039ce79384b3e9b9a1687d425aae", "type": "electric_bike", "is_reserved": 0, "lon": -77.0901865}, {"fusion_lat": 0.0, "name": "f6a85728e491977de39e1f48987d16d0", "is_disabled": 0, "rental_uris": {"android": "https://dc.lft.to/lastmile_qr_scan", "ios": "https://dc.lft.to/lastmile_qr_scan"}, "fusion_lon": 0.0, "lat": 38.90729483333333, "bike_id": "f6a85728e491977de39e1f48987d16d0", "type": "electric_scooter", "is_reserved": 0, "lon": -77.02539266666666}, {"fusion_lat": 0.0, "name": "23e946dd3af0817399db775858ae21b2", "is_disabled": 0, "rental_uris": {"android": "https://dc.lft.to/lastmile_qr_scan", "ios": "https://dc.lft.to/lastmile_qr_scan"}, "fusion_lon": 0.0, "lat": 38.952596666666665, "bike_id": "23e946dd3af0817399db775858ae21b2", "type": "electric_bike", "is_reserved": 0, "lon": -76.99960483333334}, {"fusion_lat": 0.0, "name": "968221849c27dddaa819aff1653c8ea2", "is_disabled": 0, "rental_uris": {"android": "https://dc.lft.to/lastmile_qr_scan", "ios": "https://dc.lft.to/lastmile_qr_scan"}, "fusion_lon": 0.0, "lat": 38.900579666666665, "bike_id": "968221849c27dddaa819aff1653c8ea2", "type": "electric_scooter", "is_reserved": 0, "lon": -77.0453755}, {"fusion_lat": 0.0, "name": "9d0654cbc53e3cdbc55fa6c12c7fcce3", "is_disabled": 0, "rental_uris": {"android": "https://dc.lft.to/lastmile_qr_scan", "ios": "https://dc.lft.to/lastmile_qr_scan"}, "fusion_lon": 0.0, "lat": 38.931533333333334, "bike_id": "9d0654cbc53e3cdbc55fa6c12c7fcce3", "type": "electric_scooter", "is_reserved": 0, "lon": -77.03965883333333}, {"fusion_lat": 0.0, "name": "0f0a7a6d725cabcb62de87c504cb86a2", "is_disabled": 0, "rental_uris": {"android": "https://dc.lft.to/lastmile_qr_scan", "ios": "https://dc.lft.to/lastmile_qr_scan"}, "fusion_lon": 0.0, "lat": 38.854198333333336, "bike_id": "0f0a7a6d725cabcb62de87c504cb86a2", "type": "electric_bike", "is_reserved": 0, "lon": -77.12077516666666}, {"fusion_lat": 0.0, "name": "a648163498ab815e76441d1b0d7d7a59", "is_disabled": 0, "rental_uris": {"android": "https://dc.lft.to/lastmile_qr_scan", "ios": "https://dc.lft.to/lastmile_qr_scan"}, "fusion_lon": 0.0, "lat": 38.882241666666665, "bike_id": "a648163498ab815e76441d1b0d7d7a59", "type": "electric_scooter", "is_reserved": 0, "lon": -77.029399}, {"fusion_lat": 0.0, "name": "52e5137b656851c1ca5134c48dfa2bec", "is_disabled": 0, "rental_uris": {"android": "https://dc.lft.to/lastmile_qr_scan", "ios": "https://dc.lft.to/lastmile_qr_scan"}, "fusion_lon": 0.0, "lat": 38.95222966666667, "bike_id": "52e5137b656851c1ca5134c48dfa2bec", "type": "electric_scooter", "is_reserved": 0, "lon": -77.082184}, {"fusion_lat": 0.0, "name": "19e6d718aeaa5b2762de6f9b278a1514", "is_disabled": 0, "rental_uris": {"android": "https://dc.lft.to/lastmile_qr_scan", "ios": "https://dc.lft.to/lastmile_qr_scan"}, "fusion_lon": 0.0, "lat": 38.9314495, "bike_id": "19e6d718aeaa5b2762de6f9b278a1514", "type": "electric_scooter", "is_reserved": 0, "lon": -77.03966933333334}, {"fusion_lat": 0.0, "name": "399838a8695af46e4078176e3dc6aa34", "is_disabled": 0, "rental_uris": {"android": "https://dc.lft.to/lastmile_qr_scan", "ios": "https://dc.lft.to/lastmile_qr_scan"}, "fusion_lon": 0.0, "lat": 38.915173833333334, "bike_id": "399838a8695af46e4078176e3dc6aa34", "type": "electric_scooter", "is_reserved": 0, "lon": -77.01984016666667}, {"fusion_lat": 0.0, "name": "9e8cbcf3f1e50b161b07739b01b4476a", "is_disabled": 0, "rental_uris": {"android": "https://dc.lft.to/lastmile_qr_scan", "ios": "https://dc.lft.to/lastmile_qr_scan"}, "fusion_lon": 0.0, "lat": 38.91996233333333, "bike_id": "9e8cbcf3f1e50b161b07739b01b4476a", "type": "electric_scooter", "is_reserved": 0, "lon": -77.071848}, {"fusion_lat": 0.0, "name": "f783339e52cc087abda23096007b766a", "is_disabled": 0, "rental_uris": {"android": "https://dc.lft.to/lastmile_qr_scan", "ios": "https://dc.lft.to/lastmile_qr_scan"}, "fusion_lon": 0.0, "lat": 38.92053383333333, "bike_id": "f783339e52cc087abda23096007b766a", "type": "electric_scooter", "is_reserved": 0, "lon": -77.02450066666667}, {"fusion_lat": 0.0, "name": "758882094d3eb19013f7fb33d3e92646", "is_disabled": 0, "rental_uris": {"android": "https://dc.lft.to/lastmile_qr_scan", "ios": "https://dc.lft.to/lastmile_qr_scan"}, "fusion_lon": 0.0, "lat": 38.88299583333333, "bike_id": "758882094d3eb19013f7fb33d3e92646", "type": "electric_scooter", "is_reserved": 0, "lon": -76.94856083333333}, {"fusion_lat": 0.0, "name": "f89ee420369fa38b33cc5559fcfd149a", "is_disabled": 0, "rental_uris": {"android": "https://dc.lft.to/lastmile_qr_scan", "ios": "https://dc.lft.to/lastmile_qr_scan"}, "fusion_lon": 0.0, "lat": 38.9168315, "bike_id": "f89ee420369fa38b33cc5559fcfd149a", "type": "electric_scooter", "is_reserved": 0, "lon": -77.03201566666667}, {"fusion_lat": 0.0, "name": "6d9f247bf85ee9f3a7d0a7cf0cc1f76d", "is_disabled": 0, "rental_uris": {"android": "https://dc.lft.to/lastmile_qr_scan", "ios": "https://dc.lft.to/lastmile_qr_scan"}, "fusion_lon": 0.0, "lat": 38.909199666666666, "bike_id": "6d9f247bf85ee9f3a7d0a7cf0cc1f76d", "type": "electric_scooter", "is_reserved": 0, "lon": -76.99931016666666}, {"fusion_lat": 0.0, "name": "b97ffe013a3fced62cc04edffa68bf5a", "is_disabled": 0, "rental_uris": {"android": "https://dc.lft.to/lastmile_qr_scan", "ios": "https://dc.lft.to/lastmile_qr_scan"}, "fusion_lon": 0.0, "lat": 38.897094833333334, "bike_id": "b97ffe013a3fced62cc04edffa68bf5a", "type": "electric_scooter", "is_reserved": 0, "lon": -77.02457783333334}, {"fusion_lat": 0.0, "name": "6b919dbf37358a974b2d805b7c7ea70e", "is_disabled": 0, "rental_uris": {"android": "https://dc.lft.to/lastmile_qr_scan", "ios": "https://dc.lft.to/lastmile_qr_scan"}, "fusion_lon": 0.0, "lat": 38.92104966666667, "bike_id": "6b919dbf37358a974b2d805b7c7ea70e", "type": "electric_scooter", "is_reserved": 0, "lon": -77.018088}, {"fusion_lat": 0.0, "name": "db62148c92fea641e1d71ca5cd169ba1", "is_disabled": 0, "rental_uris": {"android": "https://dc.lft.to/lastmile_qr_scan", "ios": "https://dc.lft.to/lastmile_qr_scan"}, "fusion_lon": 0.0, "lat": 38.936326666666666, "bike_id": "db62148c92fea641e1d71ca5cd169ba1", "type": "electric_scooter", "is_reserved": 0, "lon": -77.03659783333333}, {"fusion_lat": 0.0, "name": "3e82722df2aea2473e826b7d347a7258", "is_disabled": 0, "rental_uris": {"android": "https://dc.lft.to/lastmile_qr_scan", "ios": "https://dc.lft.to/lastmile_qr_scan"}, "fusion_lon": 0.0, "lat": 38.91030583333333, "bike_id": "3e82722df2aea2473e826b7d347a7258", "type": "electric_scooter", "is_reserved": 0, "lon": -77.02906466666667}, {"fusion_lat": 0.0, "name": "c85300e919c355e590654dafc2627187", "is_disabled": 0, "rental_uris": {"android": "https://dc.lft.to/lastmile_qr_scan", "ios": "https://dc.lft.to/lastmile_qr_scan"}, "fusion_lon": 0.0, "lat": 38.92469083333334, "bike_id": "c85300e919c355e590654dafc2627187", "type": "electric_scooter", "is_reserved": 0, "lon": -77.02073383333334}, {"fusion_lat": 0.0, "name": "80db0c88b5fc625e4b262ef76704cdf0", "is_disabled": 0, "rental_uris": {"android": "https://dc.lft.to/lastmile_qr_scan", "ios": "https://dc.lft.to/lastmile_qr_scan"}, "fusion_lon": 0.0, "lat": 38.90100283333334, "bike_id": "80db0c88b5fc625e4b262ef76704cdf0", "type": "electric_scooter", "is_reserved": 0, "lon": -76.9304715}, {"fusion_lat": 0.0, "name": "ba0a779043f1449d92e7c2fec6c9b2f7", "is_disabled": 0, "rental_uris": {"android": "https://dc.lft.to/lastmile_qr_scan", "ios": "https://dc.lft.to/lastmile_qr_scan"}, "fusion_lon": 0.0, "lat": 38.92579383333333, "bike_id": "ba0a779043f1449d92e7c2fec6c9b2f7", "type": "electric_scooter", "is_reserved": 0, "lon": -77.02553216666666}, {"fusion_lat": 0.0, "name": "41b80ceefca6c4f7419ee81817ae77f9", "is_disabled": 0, "rental_uris": {"android": "https://dc.lft.to/lastmile_qr_scan", "ios": "https://dc.lft.to/lastmile_qr_scan"}, "fusion_lon": 0.0, "lat": 38.90742733333333, "bike_id": "41b80ceefca6c4f7419ee81817ae77f9", "type": "electric_scooter", "is_reserved": 0, "lon": -77.047596}, {"fusion_lat": 0.0, "name": "7456f153d65e2a04d0f3b34bcb423593", "is_disabled": 0, "rental_uris": {"android": "https://dc.lft.to/lastmile_qr_scan", "ios": "https://dc.lft.to/lastmile_qr_scan"}, "fusion_lon": 0.0, "lat": 38.9253845, "bike_id": "7456f153d65e2a04d0f3b34bcb423593", "type": "electric_scooter", "is_reserved": 0, "lon": -77.0076055}, {"fusion_lat": 0.0, "name": "6014bb9162612d7d45b159d32bcd49b8", "is_disabled": 0, "rental_uris": {"android": "https://dc.lft.to/lastmile_qr_scan", "ios": "https://dc.lft.to/lastmile_qr_scan"}, "fusion_lon": 0.0, "lat": 38.807079333333334, "bike_id": "6014bb9162612d7d45b159d32bcd49b8", "type": "electric_bike", "is_reserved": 0, "lon": -77.06173816666667}, {"fusion_lat": 0.0, "name": "66c07a1c3ac4045114a3e2bd1b29c028", "is_disabled": 0, "rental_uris": {"android": "https://dc.lft.to/lastmile_qr_scan", "ios": "https://dc.lft.to/lastmile_qr_scan"}, "fusion_lon": 0.0, "lat": 38.921935833333336, "bike_id": "66c07a1c3ac4045114a3e2bd1b29c028", "type": "electric_scooter", "is_reserved": 0, "lon": -77.04227266666666}, {"fusion_lat": 0.0, "name": "f74eeb2425d8fee59d44514e764cf227", "is_disabled": 0, "rental_uris": {"android": "https://dc.lft.to/lastmile_qr_scan", "ios": "https://dc.lft.to/lastmile_qr_scan"}, "fusion_lon": 0.0, "lat": 38.89100916666666, "bike_id": "f74eeb2425d8fee59d44514e764cf227", "type": "electric_scooter", "is_reserved": 0, "lon": -76.99627833333334}, {"fusion_lat": 0.0, "name": "ee29268aa50d4324336759faa43a5900", "is_disabled": 0, "rental_uris": {"android": "https://dc.lft.to/lastmile_qr_scan", "ios": "https://dc.lft.to/lastmile_qr_scan"}, "fusion_lon": 0.0, "lat": 38.9073255, "bike_id": "ee29268aa50d4324336759faa43a5900", "type": "electric_scooter", "is_reserved": 0, "lon": -76.93543983333333}, {"fusion_lat": 0.0, "name": "774a79ff2ac5baf797057eb0d4f9825d", "is_disabled": 0, "rental_uris": {"android": "https://dc.lft.to/lastmile_qr_scan", "ios": "https://dc.lft.to/lastmile_qr_scan"}, "fusion_lon": 0.0, "lat": 38.90617983333333, "bike_id": "774a79ff2ac5baf797057eb0d4f9825d", "type": "electric_scooter", "is_reserved": 0, "lon": -77.03404416666666}, {"fusion_lat": 0.0, "name": "af867041f23934eb38ae5f299f8c1448", "is_disabled": 0, "rental_uris": {"android": "https://dc.lft.to/lastmile_qr_scan", "ios": "https://dc.lft.to/lastmile_qr_scan"}, "fusion_lon": 0.0, "lat": 38.907166833333335, "bike_id": "af867041f23934eb38ae5f299f8c1448", "type": "electric_scooter", "is_reserved": 0, "lon": -77.0475465}, {"fusion_lat": 0.0, "name": "35841a47bd9fbb8d4dc920dfa572bb30", "is_disabled": 0, "rental_uris": {"android": "https://dc.lft.to/lastmile_qr_scan", "ios": "https://dc.lft.to/lastmile_qr_scan"}, "fusion_lon": 0.0, "lat": 38.81914316666666, "bike_id": "35841a47bd9fbb8d4dc920dfa572bb30", "type": "electric_bike", "is_reserved": 0, "lon": -77.047912}, {"fusion_lat": 0.0, "name": "8568324af194798bccdd815494ceff0b", "is_disabled": 0, "rental_uris": {"android": "https://dc.lft.to/lastmile_qr_scan", "ios": "https://dc.lft.to/lastmile_qr_scan"}, "fusion_lon": 0.0, "lat": 38.926813, "bike_id": "8568324af194798bccdd815494ceff0b", "type": "electric_scooter", "is_reserved": 0, "lon": -77.03081833333333}, {"fusion_lat": 0.0, "name": "2250cf97432e17be7c63234fc9f74663", "is_disabled": 0, "rental_uris": {"android": "https://dc.lft.to/lastmile_qr_scan", "ios": "https://dc.lft.to/lastmile_qr_scan"}, "fusion_lon": 0.0, "lat": 38.904083, "bike_id": "2250cf97432e17be7c63234fc9f74663", "type": "electric_scooter", "is_reserved": 0, "lon": -77.0680105}, {"fusion_lat": 0.0, "name": "ac70257c3b56bfdcd72b37117b439ef0", "is_disabled": 0, "rental_uris": {"android": "https://dc.lft.to/lastmile_qr_scan", "ios": "https://dc.lft.to/lastmile_qr_scan"}, "fusion_lon": 0.0, "lat": 38.883026666666666, "bike_id": "ac70257c3b56bfdcd72b37117b439ef0", "type": "electric_scooter", "is_reserved": 0, "lon": -76.9485845}, {"fusion_lat": 0.0, "name": "1ad3bf4b46a14606e6080ae94f0327d1", "is_disabled": 0, "rental_uris": {"android": "https://dc.lft.to/lastmile_qr_scan", "ios": "https://dc.lft.to/lastmile_qr_scan"}, "fusion_lon": 0.0, "lat": 38.899678, "bike_id": "1ad3bf4b46a14606e6080ae94f0327d1", "type": "electric_scooter", "is_reserved": 0, "lon": -77.03360266666667}, {"fusion_lat": 0.0, "name": "2b7e8e74c96705aa8686cb69fe2e20b3", "is_disabled": 0, "rental_uris": {"android": "https://dc.lft.to/lastmile_qr_scan", "ios": "https://dc.lft.to/lastmile_qr_scan"}, "fusion_lon": 0.0, "lat": 38.95635633333333, "bike_id": "2b7e8e74c96705aa8686cb69fe2e20b3", "type": "electric_scooter", "is_reserved": 0, "lon": -77.03309283333333}, {"fusion_lat": 0.0, "name": "b4c3d80c55da073f4062cfe9fd4b0f1c", "is_disabled": 0, "rental_uris": {"android": "https://dc.lft.to/lastmile_qr_scan", "ios": "https://dc.lft.to/lastmile_qr_scan"}, "fusion_lon": 0.0, "lat": 38.93124533333334, "bike_id": "b4c3d80c55da073f4062cfe9fd4b0f1c", "type": "electric_scooter", "is_reserved": 0, "lon": -77.02978683333333}, {"fusion_lat": 0.0, "name": "3d928259ba2f84e4d9d8ffc25284ebdc", "is_disabled": 0, "rental_uris": {"android": "https://dc.lft.to/lastmile_qr_scan", "ios": "https://dc.lft.to/lastmile_qr_scan"}, "fusion_lon": 0.0, "lat": 38.90084316666667, "bike_id": "3d928259ba2f84e4d9d8ffc25284ebdc", "type": "electric_scooter", "is_reserved": 0, "lon": -77.04968983333333}, {"fusion_lat": 0.0, "name": "0ddfba8dec71cce78c2cec817e1e3590", "is_disabled": 0, "rental_uris": {"android": "https://dc.lft.to/lastmile_qr_scan", "ios": "https://dc.lft.to/lastmile_qr_scan"}, "fusion_lon": 0.0, "lat": 38.942010833333335, "bike_id": "0ddfba8dec71cce78c2cec817e1e3590", "type": "electric_scooter", "is_reserved": 0, "lon": -77.02589983333333}, {"fusion_lat": 0.0, "name": "6bec7206553267198405bdd1177d8dd0", "is_disabled": 0, "rental_uris": {"android": "https://dc.lft.to/lastmile_qr_scan", "ios": "https://dc.lft.to/lastmile_qr_scan"}, "fusion_lon": 0.0, "lat": 38.910541333333335, "bike_id": "6bec7206553267198405bdd1177d8dd0", "type": "electric_scooter", "is_reserved": 0, "lon": -77.04580583333333}, {"fusion_lat": 0.0, "name": "add43d1becfa283397e6aeeb454e28a4", "is_disabled": 0, "rental_uris": {"android": "https://dc.lft.to/lastmile_qr_scan", "ios": "https://dc.lft.to/lastmile_qr_scan"}, "fusion_lon": 0.0, "lat": 38.863384833333335, "bike_id": "add43d1becfa283397e6aeeb454e28a4", "type": "electric_bike", "is_reserved": 0, "lon": -76.98720083333333}, {"fusion_lat": 0.0, "name": "f98e87ec696c6896a235807ca31e456e", "is_disabled": 0, "rental_uris": {"android": "https://dc.lft.to/lastmile_qr_scan", "ios": "https://dc.lft.to/lastmile_qr_scan"}, "fusion_lon": 0.0, "lat": 38.9145005, "bike_id": "f98e87ec696c6896a235807ca31e456e", "type": "electric_scooter", "is_reserved": 0, "lon": -77.04153016666666}, {"fusion_lat": 0.0, "name": "8237b98f10c3fa95873ba6fa39ad5621", "is_disabled": 0, "rental_uris": {"android": "https://dc.lft.to/lastmile_qr_scan", "ios": "https://dc.lft.to/lastmile_qr_scan"}, "fusion_lon": 0.0, "lat": 38.9053235, "bike_id": "8237b98f10c3fa95873ba6fa39ad5621", "type": "electric_scooter", "is_reserved": 0, "lon": -77.05939816666667}, {"fusion_lat": 0.0, "name": "54f73661ab38a7a779930909de2a4811", "is_disabled": 0, "rental_uris": {"android": "https://dc.lft.to/lastmile_qr_scan", "ios": "https://dc.lft.to/lastmile_qr_scan"}, "fusion_lon": 0.0, "lat": 39.052513, "bike_id": "54f73661ab38a7a779930909de2a4811", "type": "electric_bike", "is_reserved": 0, "lon": -77.08065466666666}, {"fusion_lat": 0.0, "name": "33dde46bba1e427dd2c45cf1346d8b2a", "is_disabled": 0, "rental_uris": {"android": "https://dc.lft.to/lastmile_qr_scan", "ios": "https://dc.lft.to/lastmile_qr_scan"}, "fusion_lon": 0.0, "lat": 38.935221166666665, "bike_id": "33dde46bba1e427dd2c45cf1346d8b2a", "type": "electric_scooter", "is_reserved": 0, "lon": -77.07262733333333}, {"fusion_lat": 0.0, "name": "91106997ba039d7aa14d0e805f0bb9a1", "is_disabled": 0, "rental_uris": {"android": "https://dc.lft.to/lastmile_qr_scan", "ios": "https://dc.lft.to/lastmile_qr_scan"}, "fusion_lon": 0.0, "lat": 38.847562833333335, "bike_id": "91106997ba039d7aa14d0e805f0bb9a1", "type": "electric_scooter", "is_reserved": 0, "lon": -76.99499816666666}, {"fusion_lat": 0.0, "name": "a9d7aea1fbeac0de4bb956cf2c71e9ea", "is_disabled": 0, "rental_uris": {"android": "https://dc.lft.to/lastmile_qr_scan", "ios": "https://dc.lft.to/lastmile_qr_scan"}, "fusion_lon": 0.0, "lat": 38.914159833333336, "bike_id": "a9d7aea1fbeac0de4bb956cf2c71e9ea", "type": "electric_scooter", "is_reserved": 0, "lon": -77.0282805}, {"fusion_lat": 0.0, "name": "e56a9a26baa32d9ef512c36509ff9bbd", "is_disabled": 0, "rental_uris": {"android": "https://dc.lft.to/lastmile_qr_scan", "ios": "https://dc.lft.to/lastmile_qr_scan"}, "fusion_lon": 0.0, "lat": 38.894429833333334, "bike_id": "e56a9a26baa32d9ef512c36509ff9bbd", "type": "electric_scooter", "is_reserved": 0, "lon": -76.93676333333333}, {"fusion_lat": 0.0, "name": "2d0e1457e0b2cfe04741432f0f2ef4cd", "is_disabled": 0, "rental_uris": {"android": "https://dc.lft.to/lastmile_qr_scan", "ios": "https://dc.lft.to/lastmile_qr_scan"}, "fusion_lon": 0.0, "lat": 38.90745366666667, "bike_id": "2d0e1457e0b2cfe04741432f0f2ef4cd", "type": "electric_scooter", "is_reserved": 0, "lon": -77.04549583333333}, {"fusion_lat": 0.0, "name": "f6a11fe352a92651d75a99d7424b1c6c", "is_disabled": 0, "rental_uris": {"android": "https://dc.lft.to/lastmile_qr_scan", "ios": "https://dc.lft.to/lastmile_qr_scan"}, "fusion_lon": 0.0, "lat": 38.90768116666667, "bike_id": "f6a11fe352a92651d75a99d7424b1c6c", "type": "electric_scooter", "is_reserved": 0, "lon": -77.05010716666666}, {"fusion_lat": 0.0, "name": "2f3db76b6e0170f5d7811d6c8454a92c", "is_disabled": 0, "rental_uris": {"android": "https://dc.lft.to/lastmile_qr_scan", "ios": "https://dc.lft.to/lastmile_qr_scan"}, "fusion_lon": 0.0, "lat": 38.898509833333335, "bike_id": "2f3db76b6e0170f5d7811d6c8454a92c", "type": "electric_scooter", "is_reserved": 0, "lon": -76.99033183333333}, {"fusion_lat": 0.0, "name": "f20ab9909ca81195b295f85e0807d7bc", "is_disabled": 0, "rental_uris": {"android": "https://dc.lft.to/lastmile_qr_scan", "ios": "https://dc.lft.to/lastmile_qr_scan"}, "fusion_lon": 0.0, "lat": 38.89874583333334, "bike_id": "f20ab9909ca81195b295f85e0807d7bc", "type": "electric_scooter", "is_reserved": 0, "lon": -76.931845}, {"fusion_lat": 0.0, "name": "e464f9163b1e2136b7becc3dc3868ede", "is_disabled": 0, "rental_uris": {"android": "https://dc.lft.to/lastmile_qr_scan", "ios": "https://dc.lft.to/lastmile_qr_scan"}, "fusion_lon": 0.0, "lat": 38.8990575, "bike_id": "e464f9163b1e2136b7becc3dc3868ede", "type": "electric_scooter", "is_reserved": 0, "lon": -76.93354166666667}, {"fusion_lat": 0.0, "name": "3049d431765f9c3f0efac57c0ed0aa0f", "is_disabled": 0, "rental_uris": {"android": "https://dc.lft.to/lastmile_qr_scan", "ios": "https://dc.lft.to/lastmile_qr_scan"}, "fusion_lon": 0.0, "lat": 38.921958333333336, "bike_id": "3049d431765f9c3f0efac57c0ed0aa0f", "type": "electric_scooter", "is_reserved": 0, "lon": -77.0808635}, {"fusion_lat": 0.0, "name": "b028b2a774122a323b8a0d37a600ad45", "is_disabled": 0, "rental_uris": {"android": "https://dc.lft.to/lastmile_qr_scan", "ios": "https://dc.lft.to/lastmile_qr_scan"}, "fusion_lon": 0.0, "lat": 38.936089333333335, "bike_id": "b028b2a774122a323b8a0d37a600ad45", "type": "electric_scooter", "is_reserved": 0, "lon": -77.03197583333333}, {"fusion_lat": 0.0, "name": "6d6a6d29251cdf0c58aae918ab70a946", "is_disabled": 0, "rental_uris": {"android": "https://dc.lft.to/lastmile_qr_scan", "ios": "https://dc.lft.to/lastmile_qr_scan"}, "fusion_lon": 0.0, "lat": 38.892311, "bike_id": "6d6a6d29251cdf0c58aae918ab70a946", "type": "electric_scooter", "is_reserved": 0, "lon": -77.03175166666666}, {"fusion_lat": 0.0, "name": "b67b8d1128d6f3daa8e909dfd8cd163f", "is_disabled": 0, "rental_uris": {"android": "https://dc.lft.to/lastmile_qr_scan", "ios": "https://dc.lft.to/lastmile_qr_scan"}, "fusion_lon": 0.0, "lat": 38.88744766666667, "bike_id": "b67b8d1128d6f3daa8e909dfd8cd163f", "type": "electric_scooter", "is_reserved": 0, "lon": -77.02451766666667}, {"fusion_lat": 0.0, "name": "971d4cd2be01ac02c6edc48f7076c0be", "is_disabled": 0, "rental_uris": {"android": "https://dc.lft.to/lastmile_qr_scan", "ios": "https://dc.lft.to/lastmile_qr_scan"}, "fusion_lon": 0.0, "lat": 38.90479633333333, "bike_id": "971d4cd2be01ac02c6edc48f7076c0be", "type": "electric_scooter", "is_reserved": 0, "lon": -77.04659766666667}, {"fusion_lat": 0.0, "name": "8cc1519937c18e90feb3298f263c2868", "is_disabled": 0, "rental_uris": {"android": "https://dc.lft.to/lastmile_qr_scan", "ios": "https://dc.lft.to/lastmile_qr_scan"}, "fusion_lon": 0.0, "lat": 38.950695833333334, "bike_id": "8cc1519937c18e90feb3298f263c2868", "type": "electric_bike", "is_reserved": 0, "lon": -77.01198633333334}, {"fusion_lat": 0.0, "name": "261e729ab74c795f9fb193265fcd6e08", "is_disabled": 0, "rental_uris": {"android": "https://dc.lft.to/lastmile_qr_scan", "ios": "https://dc.lft.to/lastmile_qr_scan"}, "fusion_lon": 0.0, "lat": 38.95737716666667, "bike_id": "261e729ab74c795f9fb193265fcd6e08", "type": "electric_bike", "is_reserved": 0, "lon": -76.9808735}, {"fusion_lat": 0.0, "name": "66bd09fc7b9406f1e54c9d290076f24a", "is_disabled": 0, "rental_uris": {"android": "https://dc.lft.to/lastmile_qr_scan", "ios": "https://dc.lft.to/lastmile_qr_scan"}, "fusion_lon": 0.0, "lat": 38.92349866666667, "bike_id": "66bd09fc7b9406f1e54c9d290076f24a", "type": "electric_scooter", "is_reserved": 0, "lon": -77.04169733333333}, {"fusion_lat": 0.0, "name": "c59e0526b2652407c070f7ba30f84964", "is_disabled": 0, "rental_uris": {"android": "https://dc.lft.to/lastmile_qr_scan", "ios": "https://dc.lft.to/lastmile_qr_scan"}, "fusion_lon": 0.0, "lat": 38.90534516666666, "bike_id": "c59e0526b2652407c070f7ba30f84964", "type": "electric_scooter", "is_reserved": 0, "lon": -77.05937}, {"fusion_lat": 0.0, "name": "622939cb37fb196b89d1b09241b4c09c", "is_disabled": 0, "rental_uris": {"android": "https://dc.lft.to/lastmile_qr_scan", "ios": "https://dc.lft.to/lastmile_qr_scan"}, "fusion_lon": 0.0, "lat": 38.92797366666667, "bike_id": "622939cb37fb196b89d1b09241b4c09c", "type": "electric_scooter", "is_reserved": 0, "lon": -76.95555766666666}, {"fusion_lat": 0.0, "name": "4d9af460be8ad4851b9432520982fd95", "is_disabled": 0, "rental_uris": {"android": "https://dc.lft.to/lastmile_qr_scan", "ios": "https://dc.lft.to/lastmile_qr_scan"}, "fusion_lon": 0.0, "lat": 38.917614666666665, "bike_id": "4d9af460be8ad4851b9432520982fd95", "type": "electric_scooter", "is_reserved": 0, "lon": -77.036473}, {"fusion_lat": 0.0, "name": "51c81dc595dcf9860dd93b5c29b98f12", "is_disabled": 0, "rental_uris": {"android": "https://dc.lft.to/lastmile_qr_scan", "ios": "https://dc.lft.to/lastmile_qr_scan"}, "fusion_lon": 0.0, "lat": 38.907705666666665, "bike_id": "51c81dc595dcf9860dd93b5c29b98f12", "type": "electric_scooter", "is_reserved": 0, "lon": -77.06234133333334}, {"fusion_lat": 0.0, "name": "fcdf4a9ba68fe046798fdf47695c4f31", "is_disabled": 0, "rental_uris": {"android": "https://dc.lft.to/lastmile_qr_scan", "ios": "https://dc.lft.to/lastmile_qr_scan"}, "fusion_lon": 0.0, "lat": 38.898321333333335, "bike_id": "fcdf4a9ba68fe046798fdf47695c4f31", "type": "electric_bike", "is_reserved": 0, "lon": -77.04680983333333}, {"fusion_lat": 0.0, "name": "7bed0fa422b48d7a45b1e407d167bb03", "is_disabled": 0, "rental_uris": {"android": "https://dc.lft.to/lastmile_qr_scan", "ios": "https://dc.lft.to/lastmile_qr_scan"}, "fusion_lon": 0.0, "lat": 38.93189133333333, "bike_id": "7bed0fa422b48d7a45b1e407d167bb03", "type": "electric_scooter", "is_reserved": 0, "lon": -77.03315883333333}, {"fusion_lat": 0.0, "name": "ae936faa016782f64d3d97a5a75ee4a6", "is_disabled": 0, "rental_uris": {"android": "https://dc.lft.to/lastmile_qr_scan", "ios": "https://dc.lft.to/lastmile_qr_scan"}, "fusion_lon": 0.0, "lat": 38.930585, "bike_id": "ae936faa016782f64d3d97a5a75ee4a6", "type": "electric_scooter", "is_reserved": 0, "lon": -77.03946383333333}, {"fusion_lat": 0.0, "name": "54eefbf36df7fe6059ebd38feef34c55", "is_disabled": 0, "rental_uris": {"android": "https://dc.lft.to/lastmile_qr_scan", "ios": "https://dc.lft.to/lastmile_qr_scan"}, "fusion_lon": 0.0, "lat": 38.904869833333336, "bike_id": "54eefbf36df7fe6059ebd38feef34c55", "type": "electric_scooter", "is_reserved": 0, "lon": -76.9495615}, {"fusion_lat": 0.0, "name": "744eb2b64b9a3694e8e183997c8dc4f9", "is_disabled": 0, "rental_uris": {"android": "https://dc.lft.to/lastmile_qr_scan", "ios": "https://dc.lft.to/lastmile_qr_scan"}, "fusion_lon": 0.0, "lat": 38.92253616666667, "bike_id": "744eb2b64b9a3694e8e183997c8dc4f9", "type": "electric_scooter", "is_reserved": 0, "lon": -77.0746135}, {"fusion_lat": 0.0, "name": "6d46b8e3e88d143c2c1b5b8430d27f75", "is_disabled": 0, "rental_uris": {"android": "https://dc.lft.to/lastmile_qr_scan", "ios": "https://dc.lft.to/lastmile_qr_scan"}, "fusion_lon": 0.0, "lat": 38.91488716666667, "bike_id": "6d46b8e3e88d143c2c1b5b8430d27f75", "type": "electric_scooter", "is_reserved": 0, "lon": -76.983771}, {"fusion_lat": 0.0, "name": "f807619467a2898e3134d1abfae7ecbb", "is_disabled": 0, "rental_uris": {"android": "https://dc.lft.to/lastmile_qr_scan", "ios": "https://dc.lft.to/lastmile_qr_scan"}, "fusion_lon": 0.0, "lat": 38.8882735, "bike_id": "f807619467a2898e3134d1abfae7ecbb", "type": "electric_scooter", "is_reserved": 0, "lon": -76.98663116666667}, {"fusion_lat": 0.0, "name": "9c18eab5ccf164b6920e568db2dfdb24", "is_disabled": 0, "rental_uris": {"android": "https://dc.lft.to/lastmile_qr_scan", "ios": "https://dc.lft.to/lastmile_qr_scan"}, "fusion_lon": 0.0, "lat": 38.907960333333335, "bike_id": "9c18eab5ccf164b6920e568db2dfdb24", "type": "electric_scooter", "is_reserved": 0, "lon": -76.99433683333334}, {"fusion_lat": 0.0, "name": "d5c7b05baae99367405e9600c650c7d2", "is_disabled": 0, "rental_uris": {"android": "https://dc.lft.to/lastmile_qr_scan", "ios": "https://dc.lft.to/lastmile_qr_scan"}, "fusion_lon": 0.0, "lat": 38.914943666666666, "bike_id": "d5c7b05baae99367405e9600c650c7d2", "type": "electric_scooter", "is_reserved": 0, "lon": -77.06731983333333}, {"fusion_lat": 0.0, "name": "48cd7300f922b7fe2578b52c33bf1809", "is_disabled": 0, "rental_uris": {"android": "https://dc.lft.to/lastmile_qr_scan", "ios": "https://dc.lft.to/lastmile_qr_scan"}, "fusion_lon": 0.0, "lat": 38.905629833333336, "bike_id": "48cd7300f922b7fe2578b52c33bf1809", "type": "electric_scooter", "is_reserved": 0, "lon": -76.98198666666667}, {"fusion_lat": 0.0, "name": "88af0df03f875e4c47e753ade1273647", "is_disabled": 0, "rental_uris": {"android": "https://dc.lft.to/lastmile_qr_scan", "ios": "https://dc.lft.to/lastmile_qr_scan"}, "fusion_lon": 0.0, "lat": 38.937679, "bike_id": "88af0df03f875e4c47e753ade1273647", "type": "electric_scooter", "is_reserved": 0, "lon": -77.032618}, {"fusion_lat": 0.0, "name": "acd4339424894501f66033c0a4d11312", "is_disabled": 0, "rental_uris": {"android": "https://dc.lft.to/lastmile_qr_scan", "ios": "https://dc.lft.to/lastmile_qr_scan"}, "fusion_lon": 0.0, "lat": 38.907997, "bike_id": "acd4339424894501f66033c0a4d11312", "type": "electric_scooter", "is_reserved": 0, "lon": -77.04338}, {"fusion_lat": 0.0, "name": "77b658aed17a7941b00c2cc843ce0917", "is_disabled": 0, "rental_uris": {"android": "https://dc.lft.to/lastmile_qr_scan", "ios": "https://dc.lft.to/lastmile_qr_scan"}, "fusion_lon": 0.0, "lat": 38.913082833333334, "bike_id": "77b658aed17a7941b00c2cc843ce0917", "type": "electric_scooter", "is_reserved": 0, "lon": -77.04869833333333}, {"fusion_lat": 0.0, "name": "cc6dcd3193d9a5b99cd9aa311d95e0e9", "is_disabled": 0, "rental_uris": {"android": "https://dc.lft.to/lastmile_qr_scan", "ios": "https://dc.lft.to/lastmile_qr_scan"}, "fusion_lon": 0.0, "lat": 38.908121, "bike_id": "cc6dcd3193d9a5b99cd9aa311d95e0e9", "type": "electric_scooter", "is_reserved": 0, "lon": -77.04183416666666}, {"fusion_lat": 0.0, "name": "cd0c5b6c5cefb209001e2aa07f1c01be", "is_disabled": 0, "rental_uris": {"android": "https://dc.lft.to/lastmile_qr_scan", "ios": "https://dc.lft.to/lastmile_qr_scan"}, "fusion_lon": 0.0, "lat": 38.910860666666665, "bike_id": "cd0c5b6c5cefb209001e2aa07f1c01be", "type": "electric_scooter", "is_reserved": 0, "lon": -77.06501983333334}, {"fusion_lat": 0.0, "name": "f1c4a0ae7c0981d9e015b04500f065e0", "is_disabled": 0, "rental_uris": {"android": "https://dc.lft.to/lastmile_qr_scan", "ios": "https://dc.lft.to/lastmile_qr_scan"}, "fusion_lon": 0.0, "lat": 38.892846666666664, "bike_id": "f1c4a0ae7c0981d9e015b04500f065e0", "type": "electric_scooter", "is_reserved": 0, "lon": -76.983062}, {"fusion_lat": 0.0, "name": "30797b5ca634b857a19bf197bf2d7c9c", "is_disabled": 0, "rental_uris": {"android": "https://dc.lft.to/lastmile_qr_scan", "ios": "https://dc.lft.to/lastmile_qr_scan"}, "fusion_lon": 0.0, "lat": 38.920427, "bike_id": "30797b5ca634b857a19bf197bf2d7c9c", "type": "electric_scooter", "is_reserved": 0, "lon": -77.01726016666667}, {"fusion_lat": 0.0, "name": "7419df6de8ef67f887d293b0eb25c183", "is_disabled": 0, "rental_uris": {"android": "https://dc.lft.to/lastmile_qr_scan", "ios": "https://dc.lft.to/lastmile_qr_scan"}, "fusion_lon": 0.0, "lat": 38.80494866666667, "bike_id": "7419df6de8ef67f887d293b0eb25c183", "type": "electric_bike", "is_reserved": 0, "lon": -77.10164066666667}, {"fusion_lat": 0.0, "name": "f31d5eb0be45639c1e4697c187fa53c7", "is_disabled": 0, "rental_uris": {"android": "https://dc.lft.to/lastmile_qr_scan", "ios": "https://dc.lft.to/lastmile_qr_scan"}, "fusion_lon": 0.0, "lat": 38.927916, "bike_id": "f31d5eb0be45639c1e4697c187fa53c7", "type": "electric_scooter", "is_reserved": 0, "lon": -77.03223516666667}, {"fusion_lat": 0.0, "name": "ca50ea8cd157e1632901e24de990b59b", "is_disabled": 0, "rental_uris": {"android": "https://dc.lft.to/lastmile_qr_scan", "ios": "https://dc.lft.to/lastmile_qr_scan"}, "fusion_lon": 0.0, "lat": 38.87833933333334, "bike_id": "ca50ea8cd157e1632901e24de990b59b", "type": "electric_scooter", "is_reserved": 0, "lon": -76.96320816666666}, {"fusion_lat": 0.0, "name": "5098da804b6f27fbe1df2dda5fa18134", "is_disabled": 0, "rental_uris": {"android": "https://dc.lft.to/lastmile_qr_scan", "ios": "https://dc.lft.to/lastmile_qr_scan"}, "fusion_lon": 0.0, "lat": 38.925549833333335, "bike_id": "5098da804b6f27fbe1df2dda5fa18134", "type": "electric_scooter", "is_reserved": 0, "lon": -77.07765466666666}, {"fusion_lat": 0.0, "name": "d37e9065dbc3d343ff5b8fc2563cbe69", "is_disabled": 0, "rental_uris": {"android": "https://dc.lft.to/lastmile_qr_scan", "ios": "https://dc.lft.to/lastmile_qr_scan"}, "fusion_lon": 0.0, "lat": 38.919235, "bike_id": "d37e9065dbc3d343ff5b8fc2563cbe69", "type": "electric_scooter", "is_reserved": 0, "lon": -77.070849}, {"fusion_lat": 0.0, "name": "6a7bca7df8ee4b9186c6dffc6b6afa5e", "is_disabled": 0, "rental_uris": {"android": "https://dc.lft.to/lastmile_qr_scan", "ios": "https://dc.lft.to/lastmile_qr_scan"}, "fusion_lon": 0.0, "lat": 38.93142816666666, "bike_id": "6a7bca7df8ee4b9186c6dffc6b6afa5e", "type": "electric_scooter", "is_reserved": 0, "lon": -77.03243416666666}, {"fusion_lat": 0.0, "name": "43ce3ad55ab29ad1a27c191bb64a8b61", "is_disabled": 0, "rental_uris": {"android": "https://dc.lft.to/lastmile_qr_scan", "ios": "https://dc.lft.to/lastmile_qr_scan"}, "fusion_lon": 0.0, "lat": 38.90003383333333, "bike_id": "43ce3ad55ab29ad1a27c191bb64a8b61", "type": "electric_scooter", "is_reserved": 0, "lon": -76.99849933333333}, {"fusion_lat": 0.0, "name": "e991c31e6d57d9d8200ffd2da2b1a42b", "is_disabled": 0, "rental_uris": {"android": "https://dc.lft.to/lastmile_qr_scan", "ios": "https://dc.lft.to/lastmile_qr_scan"}, "fusion_lon": 0.0, "lat": 39.038935, "bike_id": "e991c31e6d57d9d8200ffd2da2b1a42b", "type": "electric_bike", "is_reserved": 0, "lon": -77.05041383333334}, {"fusion_lat": 0.0, "name": "eb33357c2dcc9012ea30058d5ea5caf7", "is_disabled": 0, "rental_uris": {"android": "https://dc.lft.to/lastmile_qr_scan", "ios": "https://dc.lft.to/lastmile_qr_scan"}, "fusion_lon": 0.0, "lat": 38.896344, "bike_id": "eb33357c2dcc9012ea30058d5ea5caf7", "type": "electric_scooter", "is_reserved": 0, "lon": -77.02186783333333}, {"fusion_lat": 0.0, "name": "ac487f14d8a8bfae10e23eaaf446f360", "is_disabled": 0, "rental_uris": {"android": "https://dc.lft.to/lastmile_qr_scan", "ios": "https://dc.lft.to/lastmile_qr_scan"}, "fusion_lon": 0.0, "lat": 38.85361183333333, "bike_id": "ac487f14d8a8bfae10e23eaaf446f360", "type": "electric_bike", "is_reserved": 0, "lon": -77.1151265}, {"fusion_lat": 0.0, "name": "be104719581a685a2bafd8526c518071", "is_disabled": 0, "rental_uris": {"android": "https://dc.lft.to/lastmile_qr_scan", "ios": "https://dc.lft.to/lastmile_qr_scan"}, "fusion_lon": 0.0, "lat": 38.91905166666667, "bike_id": "be104719581a685a2bafd8526c518071", "type": "electric_scooter", "is_reserved": 0, "lon": -77.0320615}, {"fusion_lat": 0.0, "name": "fa93005d8d882739538bdd5b5fe4830c", "is_disabled": 0, "rental_uris": {"android": "https://dc.lft.to/lastmile_qr_scan", "ios": "https://dc.lft.to/lastmile_qr_scan"}, "fusion_lon": 0.0, "lat": 38.91423066666667, "bike_id": "fa93005d8d882739538bdd5b5fe4830c", "type": "electric_scooter", "is_reserved": 0, "lon": -76.98450816666667}, {"fusion_lat": 0.0, "name": "16a34a4f324172645a46b116718ca843", "is_disabled": 0, "rental_uris": {"android": "https://dc.lft.to/lastmile_qr_scan", "ios": "https://dc.lft.to/lastmile_qr_scan"}, "fusion_lon": 0.0, "lat": 38.878428, "bike_id": "16a34a4f324172645a46b116718ca843", "type": "electric_scooter", "is_reserved": 0, "lon": -76.990368}, {"fusion_lat": 0.0, "name": "c2f106fc0cb7d41599b67ac237ed9be3", "is_disabled": 0, "rental_uris": {"android": "https://dc.lft.to/lastmile_qr_scan", "ios": "https://dc.lft.to/lastmile_qr_scan"}, "fusion_lon": 0.0, "lat": 38.90044016666667, "bike_id": "c2f106fc0cb7d41599b67ac237ed9be3", "type": "electric_scooter", "is_reserved": 0, "lon": -77.04488666666667}, {"fusion_lat": 0.0, "name": "8b83baca94325a3ebcda744329233bf6", "is_disabled": 0, "rental_uris": {"android": "https://dc.lft.to/lastmile_qr_scan", "ios": "https://dc.lft.to/lastmile_qr_scan"}, "fusion_lon": 0.0, "lat": 38.938676666666666, "bike_id": "8b83baca94325a3ebcda744329233bf6", "type": "electric_scooter", "is_reserved": 0, "lon": -77.03206833333333}, {"fusion_lat": 0.0, "name": "0a1ee3ec458385eab2c847730f104e5b", "is_disabled": 0, "rental_uris": {"android": "https://dc.lft.to/lastmile_qr_scan", "ios": "https://dc.lft.to/lastmile_qr_scan"}, "fusion_lon": 0.0, "lat": 38.920366666666666, "bike_id": "0a1ee3ec458385eab2c847730f104e5b", "type": "electric_scooter", "is_reserved": 0, "lon": -77.012217}, {"fusion_lat": 0.0, "name": "5312a5078a6ff5cdb2bde65f28f3f5c1", "is_disabled": 0, "rental_uris": {"android": "https://dc.lft.to/lastmile_qr_scan", "ios": "https://dc.lft.to/lastmile_qr_scan"}, "fusion_lon": 0.0, "lat": 38.91556883333333, "bike_id": "5312a5078a6ff5cdb2bde65f28f3f5c1", "type": "electric_scooter", "is_reserved": 0, "lon": -77.03252366666666}, {"fusion_lat": 0.0, "name": "b45c19a1db1d84206130723d8c602116", "is_disabled": 0, "rental_uris": {"android": "https://dc.lft.to/lastmile_qr_scan", "ios": "https://dc.lft.to/lastmile_qr_scan"}, "fusion_lon": 0.0, "lat": 38.926319166666666, "bike_id": "b45c19a1db1d84206130723d8c602116", "type": "electric_bike", "is_reserved": 0, "lon": -77.033008}, {"fusion_lat": 0.0, "name": "8d971dc6badd9426c5f9de4749da4060", "is_disabled": 0, "rental_uris": {"android": "https://dc.lft.to/lastmile_qr_scan", "ios": "https://dc.lft.to/lastmile_qr_scan"}, "fusion_lon": 0.0, "lat": 38.93032616666667, "bike_id": "8d971dc6badd9426c5f9de4749da4060", "type": "electric_scooter", "is_reserved": 0, "lon": -77.01950016666666}, {"fusion_lat": 0.0, "name": "6cc129bdf1fb2a476b824528ba13e10a", "is_disabled": 0, "rental_uris": {"android": "https://dc.lft.to/lastmile_qr_scan", "ios": "https://dc.lft.to/lastmile_qr_scan"}, "fusion_lon": 0.0, "lat": 38.90235883333333, "bike_id": "6cc129bdf1fb2a476b824528ba13e10a", "type": "electric_bike", "is_reserved": 0, "lon": -77.05915466666667}, {"fusion_lat": 0.0, "name": "d8df159021c6f787356b3af82b00f797", "is_disabled": 0, "rental_uris": {"android": "https://dc.lft.to/lastmile_qr_scan", "ios": "https://dc.lft.to/lastmile_qr_scan"}, "fusion_lon": 0.0, "lat": 38.8948905, "bike_id": "d8df159021c6f787356b3af82b00f797", "type": "electric_scooter", "is_reserved": 0, "lon": -77.0194915}, {"fusion_lat": 0.0, "name": "4f41d90e437fe467e96656678e31abdc", "is_disabled": 0, "rental_uris": {"android": "https://dc.lft.to/lastmile_qr_scan", "ios": "https://dc.lft.to/lastmile_qr_scan"}, "fusion_lon": 0.0, "lat": 38.81330283333333, "bike_id": "4f41d90e437fe467e96656678e31abdc", "type": "electric_bike", "is_reserved": 0, "lon": -77.050862}, {"fusion_lat": 0.0, "name": "318df17f422c32b54c68e3a281af0bac", "is_disabled": 0, "rental_uris": {"android": "https://dc.lft.to/lastmile_qr_scan", "ios": "https://dc.lft.to/lastmile_qr_scan"}, "fusion_lon": 0.0, "lat": 38.90533966666667, "bike_id": "318df17f422c32b54c68e3a281af0bac", "type": "electric_scooter", "is_reserved": 0, "lon": -77.047924}, {"fusion_lat": 0.0, "name": "808ab8bde67383e34b5700db10eb98fe", "is_disabled": 0, "rental_uris": {"android": "https://dc.lft.to/lastmile_qr_scan", "ios": "https://dc.lft.to/lastmile_qr_scan"}, "fusion_lon": 0.0, "lat": 38.89995783333333, "bike_id": "808ab8bde67383e34b5700db10eb98fe", "type": "electric_scooter", "is_reserved": 0, "lon": -77.029321}, {"fusion_lat": 0.0, "name": "ef3423da3bef7c6cb43d0a20df15ae5f", "is_disabled": 0, "rental_uris": {"android": "https://dc.lft.to/lastmile_qr_scan", "ios": "https://dc.lft.to/lastmile_qr_scan"}, "fusion_lon": 0.0, "lat": 38.91860533333333, "bike_id": "ef3423da3bef7c6cb43d0a20df15ae5f", "type": "electric_bike", "is_reserved": 0, "lon": -76.960868}, {"fusion_lat": 0.0, "name": "a59872ed930e7acd028d94851ebd2b90", "is_disabled": 0, "rental_uris": {"android": "https://dc.lft.to/lastmile_qr_scan", "ios": "https://dc.lft.to/lastmile_qr_scan"}, "fusion_lon": 0.0, "lat": 38.90531216666667, "bike_id": "a59872ed930e7acd028d94851ebd2b90", "type": "electric_scooter", "is_reserved": 0, "lon": -77.05940266666667}, {"fusion_lat": 0.0, "name": "e5d6827a21de4b31cf9149a91a51cf39", "is_disabled": 0, "rental_uris": {"android": "https://dc.lft.to/lastmile_qr_scan", "ios": "https://dc.lft.to/lastmile_qr_scan"}, "fusion_lon": 0.0, "lat": 38.91552466666667, "bike_id": "e5d6827a21de4b31cf9149a91a51cf39", "type": "electric_scooter", "is_reserved": 0, "lon": -77.011322}, {"fusion_lat": 0.0, "name": "a95dadcb216f518749550670b78c9c1b", "is_disabled": 0, "rental_uris": {"android": "https://dc.lft.to/lastmile_qr_scan", "ios": "https://dc.lft.to/lastmile_qr_scan"}, "fusion_lon": 0.0, "lat": 38.94008216666667, "bike_id": "a95dadcb216f518749550670b78c9c1b", "type": "electric_scooter", "is_reserved": 0, "lon": -77.08417266666666}, {"fusion_lat": 0.0, "name": "b9c5dff46a9e8c1e7caf2d755574d527", "is_disabled": 0, "rental_uris": {"android": "https://dc.lft.to/lastmile_qr_scan", "ios": "https://dc.lft.to/lastmile_qr_scan"}, "fusion_lon": 0.0, "lat": 38.88675683333334, "bike_id": "b9c5dff46a9e8c1e7caf2d755574d527", "type": "electric_scooter", "is_reserved": 0, "lon": -77.01370166666666}, {"fusion_lat": 0.0, "name": "1998c38d4ff36dbe9eedb40fb16e15f2", "is_disabled": 0, "rental_uris": {"android": "https://dc.lft.to/lastmile_qr_scan", "ios": "https://dc.lft.to/lastmile_qr_scan"}, "fusion_lon": 0.0, "lat": 38.900302, "bike_id": "1998c38d4ff36dbe9eedb40fb16e15f2", "type": "electric_scooter", "is_reserved": 0, "lon": -77.0162695}, {"fusion_lat": 0.0, "name": "4d4dd3dc4817482de610ecd301ddaad5", "is_disabled": 0, "rental_uris": {"android": "https://dc.lft.to/lastmile_qr_scan", "ios": "https://dc.lft.to/lastmile_qr_scan"}, "fusion_lon": 0.0, "lat": 38.90062533333333, "bike_id": "4d4dd3dc4817482de610ecd301ddaad5", "type": "electric_scooter", "is_reserved": 0, "lon": -76.93387466666667}, {"fusion_lat": 0.0, "name": "908fb73e36e3cba4f33880765ddb7d71", "is_disabled": 0, "rental_uris": {"android": "https://dc.lft.to/lastmile_qr_scan", "ios": "https://dc.lft.to/lastmile_qr_scan"}, "fusion_lon": 0.0, "lat": 38.915397, "bike_id": "908fb73e36e3cba4f33880765ddb7d71", "type": "electric_scooter", "is_reserved": 0, "lon": -77.06656633333333}, {"fusion_lat": 0.0, "name": "5f6cfe2d59bd405d1fa82a26e73b8c55", "is_disabled": 0, "rental_uris": {"android": "https://dc.lft.to/lastmile_qr_scan", "ios": "https://dc.lft.to/lastmile_qr_scan"}, "fusion_lon": 0.0, "lat": 38.90767016666667, "bike_id": "5f6cfe2d59bd405d1fa82a26e73b8c55", "type": "electric_scooter", "is_reserved": 0, "lon": -77.05591116666666}, {"fusion_lat": 0.0, "name": "e42dc6a9ae3d7e205d23ac84d4bcfdaa", "is_disabled": 0, "rental_uris": {"android": "https://dc.lft.to/lastmile_qr_scan", "ios": "https://dc.lft.to/lastmile_qr_scan"}, "fusion_lon": 0.0, "lat": 38.88183, "bike_id": "e42dc6a9ae3d7e205d23ac84d4bcfdaa", "type": "electric_scooter", "is_reserved": 0, "lon": -77.0357615}, {"fusion_lat": 0.0, "name": "6039102f487335c3fe191ac7daebf048", "is_disabled": 0, "rental_uris": {"android": "https://dc.lft.to/lastmile_qr_scan", "ios": "https://dc.lft.to/lastmile_qr_scan"}, "fusion_lon": 0.0, "lat": 38.94271166666667, "bike_id": "6039102f487335c3fe191ac7daebf048", "type": "electric_scooter", "is_reserved": 0, "lon": -77.03262166666667}, {"fusion_lat": 0.0, "name": "e34bdaeaf83c3381552ef3cc05841653", "is_disabled": 0, "rental_uris": {"android": "https://dc.lft.to/lastmile_qr_scan", "ios": "https://dc.lft.to/lastmile_qr_scan"}, "fusion_lon": 0.0, "lat": 38.83511566666667, "bike_id": "e34bdaeaf83c3381552ef3cc05841653", "type": "electric_bike", "is_reserved": 0, "lon": -76.98676583333334}, {"fusion_lat": 0.0, "name": "535db4d555032ef8e32a045fd2bce69a", "is_disabled": 0, "rental_uris": {"android": "https://dc.lft.to/lastmile_qr_scan", "ios": "https://dc.lft.to/lastmile_qr_scan"}, "fusion_lon": 0.0, "lat": 38.897170333333335, "bike_id": "535db4d555032ef8e32a045fd2bce69a", "type": "electric_scooter", "is_reserved": 0, "lon": -77.02143216666667}, {"fusion_lat": 0.0, "name": "30d41e18db854490f78122fe33e867e4", "is_disabled": 0, "rental_uris": {"android": "https://dc.lft.to/lastmile_qr_scan", "ios": "https://dc.lft.to/lastmile_qr_scan"}, "fusion_lon": 0.0, "lat": 38.911555666666665, "bike_id": "30d41e18db854490f78122fe33e867e4", "type": "electric_scooter", "is_reserved": 0, "lon": -77.07269433333333}, {"fusion_lat": 0.0, "name": "f7e672eb210173cfda8fdfa0b4ee309e", "is_disabled": 0, "rental_uris": {"android": "https://dc.lft.to/lastmile_qr_scan", "ios": "https://dc.lft.to/lastmile_qr_scan"}, "fusion_lon": 0.0, "lat": 38.887462166666666, "bike_id": "f7e672eb210173cfda8fdfa0b4ee309e", "type": "electric_scooter", "is_reserved": 0, "lon": -76.98359716666667}, {"fusion_lat": 0.0, "name": "be8a1850d7f9735bfb2ca9992a4e11e1", "is_disabled": 0, "rental_uris": {"android": "https://dc.lft.to/lastmile_qr_scan", "ios": "https://dc.lft.to/lastmile_qr_scan"}, "fusion_lon": 0.0, "lat": 38.926778166666665, "bike_id": "be8a1850d7f9735bfb2ca9992a4e11e1", "type": "electric_scooter", "is_reserved": 0, "lon": -77.03139466666667}, {"fusion_lat": 0.0, "name": "fc492eac0e3751c86338e43b56804209", "is_disabled": 0, "rental_uris": {"android": "https://dc.lft.to/lastmile_qr_scan", "ios": "https://dc.lft.to/lastmile_qr_scan"}, "fusion_lon": 0.0, "lat": 38.94310016666667, "bike_id": "fc492eac0e3751c86338e43b56804209", "type": "electric_scooter", "is_reserved": 0, "lon": -77.020085}, {"fusion_lat": 0.0, "name": "46871daf10373cd3d1d3280a8cdd3236", "is_disabled": 0, "rental_uris": {"android": "https://dc.lft.to/lastmile_qr_scan", "ios": "https://dc.lft.to/lastmile_qr_scan"}, "fusion_lon": 0.0, "lat": 38.899566666666665, "bike_id": "46871daf10373cd3d1d3280a8cdd3236", "type": "electric_scooter", "is_reserved": 0, "lon": -77.05474483333333}, {"fusion_lat": 0.0, "name": "e3adef50a644bee94ee79fa73ee2267f", "is_disabled": 0, "rental_uris": {"android": "https://dc.lft.to/lastmile_qr_scan", "ios": "https://dc.lft.to/lastmile_qr_scan"}, "fusion_lon": 0.0, "lat": 38.90298133333334, "bike_id": "e3adef50a644bee94ee79fa73ee2267f", "type": "electric_scooter", "is_reserved": 0, "lon": -76.9925805}, {"fusion_lat": 0.0, "name": "7d3f66a361199567ad2167f8fca78f59", "is_disabled": 0, "rental_uris": {"android": "https://dc.lft.to/lastmile_qr_scan", "ios": "https://dc.lft.to/lastmile_qr_scan"}, "fusion_lon": 0.0, "lat": 38.92417016666667, "bike_id": "7d3f66a361199567ad2167f8fca78f59", "type": "electric_scooter", "is_reserved": 0, "lon": -77.02012183333333}, {"fusion_lat": 0.0, "name": "83fc4388e2db36513aa64eef635ad208", "is_disabled": 0, "rental_uris": {"android": "https://dc.lft.to/lastmile_qr_scan", "ios": "https://dc.lft.to/lastmile_qr_scan"}, "fusion_lon": 0.0, "lat": 38.888157166666666, "bike_id": "83fc4388e2db36513aa64eef635ad208", "type": "electric_scooter", "is_reserved": 0, "lon": -76.983531}, {"fusion_lat": 0.0, "name": "1e275709132ff7716dacb78772257ead", "is_disabled": 0, "rental_uris": {"android": "https://dc.lft.to/lastmile_qr_scan", "ios": "https://dc.lft.to/lastmile_qr_scan"}, "fusion_lon": 0.0, "lat": 38.9134735, "bike_id": "1e275709132ff7716dacb78772257ead", "type": "electric_bike", "is_reserved": 0, "lon": -76.9889955}, {"fusion_lat": 0.0, "name": "7385ad6753c39e1bdd5005402b91ed5b", "is_disabled": 0, "rental_uris": {"android": "https://dc.lft.to/lastmile_qr_scan", "ios": "https://dc.lft.to/lastmile_qr_scan"}, "fusion_lon": 0.0, "lat": 38.90572483333333, "bike_id": "7385ad6753c39e1bdd5005402b91ed5b", "type": "electric_scooter", "is_reserved": 0, "lon": -77.00605016666667}, {"fusion_lat": 0.0, "name": "1b33df18605c630af2254463f9bb913d", "is_disabled": 0, "rental_uris": {"android": "https://dc.lft.to/lastmile_qr_scan", "ios": "https://dc.lft.to/lastmile_qr_scan"}, "fusion_lon": 0.0, "lat": 38.90308983333333, "bike_id": "1b33df18605c630af2254463f9bb913d", "type": "electric_scooter", "is_reserved": 0, "lon": -76.97653966666667}, {"fusion_lat": 0.0, "name": "89adb02663d6307984c9f1cbb0d075a6", "is_disabled": 0, "rental_uris": {"android": "https://dc.lft.to/lastmile_qr_scan", "ios": "https://dc.lft.to/lastmile_qr_scan"}, "fusion_lon": 0.0, "lat": 38.994441333333334, "bike_id": "89adb02663d6307984c9f1cbb0d075a6", "type": "electric_bike", "is_reserved": 0, "lon": -76.995892}, {"fusion_lat": 0.0, "name": "1db55c5165070f9db43691fd7696c228", "is_disabled": 0, "rental_uris": {"android": "https://dc.lft.to/lastmile_qr_scan", "ios": "https://dc.lft.to/lastmile_qr_scan"}, "fusion_lon": 0.0, "lat": 38.94053866666667, "bike_id": "1db55c5165070f9db43691fd7696c228", "type": "electric_bike", "is_reserved": 0, "lon": -76.904163}, {"fusion_lat": 0.0, "name": "3d2e1ba46f85bfcc00d29361acd2daa1", "is_disabled": 0, "rental_uris": {"android": "https://dc.lft.to/lastmile_qr_scan", "ios": "https://dc.lft.to/lastmile_qr_scan"}, "fusion_lon": 0.0, "lat": 38.916757, "bike_id": "3d2e1ba46f85bfcc00d29361acd2daa1", "type": "electric_scooter", "is_reserved": 0, "lon": -77.04188583333334}, {"fusion_lat": 0.0, "name": "404f7a0cea3930bb6fa6b35fbe5cefeb", "is_disabled": 0, "rental_uris": {"android": "https://dc.lft.to/lastmile_qr_scan", "ios": "https://dc.lft.to/lastmile_qr_scan"}, "fusion_lon": 0.0, "lat": 38.90101333333333, "bike_id": "404f7a0cea3930bb6fa6b35fbe5cefeb", "type": "electric_scooter", "is_reserved": 0, "lon": -77.0169885}, {"fusion_lat": 0.0, "name": "ca518a75399eceb9588e4f9da811b106", "is_disabled": 0, "rental_uris": {"android": "https://dc.lft.to/lastmile_qr_scan", "ios": "https://dc.lft.to/lastmile_qr_scan"}, "fusion_lon": 0.0, "lat": 38.90573533333333, "bike_id": "ca518a75399eceb9588e4f9da811b106", "type": "electric_scooter", "is_reserved": 0, "lon": -77.04081033333334}, {"fusion_lat": 0.0, "name": "1f94c8bd5415aa5728945547b1200d81", "is_disabled": 0, "rental_uris": {"android": "https://dc.lft.to/lastmile_qr_scan", "ios": "https://dc.lft.to/lastmile_qr_scan"}, "fusion_lon": 0.0, "lat": 38.89846466666667, "bike_id": "1f94c8bd5415aa5728945547b1200d81", "type": "electric_scooter", "is_reserved": 0, "lon": -77.022633}, {"fusion_lat": 0.0, "name": "5429b538c4b47cee0226803e8f9c0107", "is_disabled": 0, "rental_uris": {"android": "https://dc.lft.to/lastmile_qr_scan", "ios": "https://dc.lft.to/lastmile_qr_scan"}, "fusion_lon": 0.0, "lat": 38.91875366666667, "bike_id": "5429b538c4b47cee0226803e8f9c0107", "type": "electric_scooter", "is_reserved": 0, "lon": -77.025969}, {"fusion_lat": 0.0, "name": "c9ba3878f95bc801f4a36b57d28d3a4d", "is_disabled": 0, "rental_uris": {"android": "https://dc.lft.to/lastmile_qr_scan", "ios": "https://dc.lft.to/lastmile_qr_scan"}, "fusion_lon": 0.0, "lat": 38.8991, "bike_id": "c9ba3878f95bc801f4a36b57d28d3a4d", "type": "electric_scooter", "is_reserved": 0, "lon": -76.94589216666667}, {"fusion_lat": 0.0, "name": "612030cd3e035621a5662ec44754b6f7", "is_disabled": 0, "rental_uris": {"android": "https://dc.lft.to/lastmile_qr_scan", "ios": "https://dc.lft.to/lastmile_qr_scan"}, "fusion_lon": 0.0, "lat": 38.94966, "bike_id": "612030cd3e035621a5662ec44754b6f7", "type": "electric_scooter", "is_reserved": 0, "lon": -77.08087533333334}, {"fusion_lat": 0.0, "name": "c3fa778b4c23f0d8191be06c2b5a080d", "is_disabled": 0, "rental_uris": {"android": "https://dc.lft.to/lastmile_qr_scan", "ios": "https://dc.lft.to/lastmile_qr_scan"}, "fusion_lon": 0.0, "lat": 38.885296, "bike_id": "c3fa778b4c23f0d8191be06c2b5a080d", "type": "electric_scooter", "is_reserved": 0, "lon": -76.92914283333333}, {"fusion_lat": 0.0, "name": "7d552c1c537bb3c6c87fea1fd1c850cc", "is_disabled": 0, "rental_uris": {"android": "https://dc.lft.to/lastmile_qr_scan", "ios": "https://dc.lft.to/lastmile_qr_scan"}, "fusion_lon": 0.0, "lat": 38.93532883333334, "bike_id": "7d552c1c537bb3c6c87fea1fd1c850cc", "type": "electric_scooter", "is_reserved": 0, "lon": -77.02350566666667}, {"fusion_lat": 0.0, "name": "90a0aee1a52fab298b709b036f6bd496", "is_disabled": 0, "rental_uris": {"android": "https://dc.lft.to/lastmile_qr_scan", "ios": "https://dc.lft.to/lastmile_qr_scan"}, "fusion_lon": 0.0, "lat": 38.915633166666666, "bike_id": "90a0aee1a52fab298b709b036f6bd496", "type": "electric_scooter", "is_reserved": 0, "lon": -77.0316245}, {"fusion_lat": 0.0, "name": "777cea295ad07398f8b537a09a2e21ef", "is_disabled": 0, "rental_uris": {"android": "https://dc.lft.to/lastmile_qr_scan", "ios": "https://dc.lft.to/lastmile_qr_scan"}, "fusion_lon": 0.0, "lat": 38.916133, "bike_id": "777cea295ad07398f8b537a09a2e21ef", "type": "electric_scooter", "is_reserved": 0, "lon": -77.00327583333333}, {"fusion_lat": 0.0, "name": "77f19c3ed62942f690932b59dee44464", "is_disabled": 0, "rental_uris": {"android": "https://dc.lft.to/lastmile_qr_scan", "ios": "https://dc.lft.to/lastmile_qr_scan"}, "fusion_lon": 0.0, "lat": 38.875789833333336, "bike_id": "77f19c3ed62942f690932b59dee44464", "type": "electric_bike", "is_reserved": 0, "lon": -77.23409533333333}, {"fusion_lat": 0.0, "name": "97f99e6b88b41f36a4542176478e5c42", "is_disabled": 0, "rental_uris": {"android": "https://dc.lft.to/lastmile_qr_scan", "ios": "https://dc.lft.to/lastmile_qr_scan"}, "fusion_lon": 0.0, "lat": 38.928399, "bike_id": "97f99e6b88b41f36a4542176478e5c42", "type": "electric_scooter", "is_reserved": 0, "lon": -77.01584583333333}, {"fusion_lat": 0.0, "name": "73f3cf1844b03da04e558849d885e09d", "is_disabled": 0, "rental_uris": {"android": "https://dc.lft.to/lastmile_qr_scan", "ios": "https://dc.lft.to/lastmile_qr_scan"}, "fusion_lon": 0.0, "lat": 38.930431, "bike_id": "73f3cf1844b03da04e558849d885e09d", "type": "electric_scooter", "is_reserved": 0, "lon": -77.03304333333334}, {"fusion_lat": 0.0, "name": "e9fcff5b55b047a14fdafed95c2c941d", "is_disabled": 0, "rental_uris": {"android": "https://dc.lft.to/lastmile_qr_scan", "ios": "https://dc.lft.to/lastmile_qr_scan"}, "fusion_lon": 0.0, "lat": 38.89516533333333, "bike_id": "e9fcff5b55b047a14fdafed95c2c941d", "type": "electric_scooter", "is_reserved": 0, "lon": -77.04153633333334}, {"fusion_lat": 0.0, "name": "d085726da5107e71938db12c85abddcb", "is_disabled": 0, "rental_uris": {"android": "https://dc.lft.to/lastmile_qr_scan", "ios": "https://dc.lft.to/lastmile_qr_scan"}, "fusion_lon": 0.0, "lat": 38.916973, "bike_id": "d085726da5107e71938db12c85abddcb", "type": "electric_scooter", "is_reserved": 0, "lon": -77.03152966666667}, {"fusion_lat": 0.0, "name": "e58f1e0e86f2fc60482cbbdb4f7a7187", "is_disabled": 0, "rental_uris": {"android": "https://dc.lft.to/lastmile_qr_scan", "ios": "https://dc.lft.to/lastmile_qr_scan"}, "fusion_lon": 0.0, "lat": 38.899077, "bike_id": "e58f1e0e86f2fc60482cbbdb4f7a7187", "type": "electric_scooter", "is_reserved": 0, "lon": -76.9335325}, {"fusion_lat": 0.0, "name": "98f9a44bb29b661681df22534625d35b", "is_disabled": 0, "rental_uris": {"android": "https://dc.lft.to/lastmile_qr_scan", "ios": "https://dc.lft.to/lastmile_qr_scan"}, "fusion_lon": 0.0, "lat": 38.9074475, "bike_id": "98f9a44bb29b661681df22534625d35b", "type": "electric_scooter", "is_reserved": 0, "lon": -77.0634115}, {"fusion_lat": 0.0, "name": "1c5879fa39485a69f8306f56294917d7", "is_disabled": 0, "rental_uris": {"android": "https://dc.lft.to/lastmile_qr_scan", "ios": "https://dc.lft.to/lastmile_qr_scan"}, "fusion_lon": 0.0, "lat": 38.93420666666667, "bike_id": "1c5879fa39485a69f8306f56294917d7", "type": "electric_scooter", "is_reserved": 0, "lon": -76.97958733333333}, {"fusion_lat": 0.0, "name": "b4982c313ff4c2a10e6d91d537dbd1c1", "is_disabled": 0, "rental_uris": {"android": "https://dc.lft.to/lastmile_qr_scan", "ios": "https://dc.lft.to/lastmile_qr_scan"}, "fusion_lon": 0.0, "lat": 38.918211, "bike_id": "b4982c313ff4c2a10e6d91d537dbd1c1", "type": "electric_scooter", "is_reserved": 0, "lon": -77.02532583333333}, {"fusion_lat": 0.0, "name": "24d6fe48d3d75f67b2c0d8aa922339a4", "is_disabled": 0, "rental_uris": {"android": "https://dc.lft.to/lastmile_qr_scan", "ios": "https://dc.lft.to/lastmile_qr_scan"}, "fusion_lon": 0.0, "lat": 38.93083716666667, "bike_id": "24d6fe48d3d75f67b2c0d8aa922339a4", "type": "electric_scooter", "is_reserved": 0, "lon": -77.037651}, {"fusion_lat": 0.0, "name": "28c0f5ba6631ba34c0158bd170bcafed", "is_disabled": 0, "rental_uris": {"android": "https://dc.lft.to/lastmile_qr_scan", "ios": "https://dc.lft.to/lastmile_qr_scan"}, "fusion_lon": 0.0, "lat": 38.8922455, "bike_id": "28c0f5ba6631ba34c0158bd170bcafed", "type": "electric_scooter", "is_reserved": 0, "lon": -77.03146833333334}, {"fusion_lat": 0.0, "name": "82fc48d58c527a3afb7fada12aa1ffba", "is_disabled": 0, "rental_uris": {"android": "https://dc.lft.to/lastmile_qr_scan", "ios": "https://dc.lft.to/lastmile_qr_scan"}, "fusion_lon": 0.0, "lat": 38.88221816666667, "bike_id": "82fc48d58c527a3afb7fada12aa1ffba", "type": "electric_scooter", "is_reserved": 0, "lon": -77.029375}, {"fusion_lat": 0.0, "name": "f8c17f3530babca6c73e6ec66872aa20", "is_disabled": 0, "rental_uris": {"android": "https://dc.lft.to/lastmile_qr_scan", "ios": "https://dc.lft.to/lastmile_qr_scan"}, "fusion_lon": 0.0, "lat": 38.918186, "bike_id": "f8c17f3530babca6c73e6ec66872aa20", "type": "electric_scooter", "is_reserved": 0, "lon": -77.02820766666666}, {"fusion_lat": 0.0, "name": "3364e27f60899f472c3b62417524ad00", "is_disabled": 0, "rental_uris": {"android": "https://dc.lft.to/lastmile_qr_scan", "ios": "https://dc.lft.to/lastmile_qr_scan"}, "fusion_lon": 0.0, "lat": 38.90194416666667, "bike_id": "3364e27f60899f472c3b62417524ad00", "type": "electric_scooter", "is_reserved": 0, "lon": -77.06125116666666}, {"fusion_lat": 0.0, "name": "af108c1eea1dbf0a93f89d8e6948acb7", "is_disabled": 0, "rental_uris": {"android": "https://dc.lft.to/lastmile_qr_scan", "ios": "https://dc.lft.to/lastmile_qr_scan"}, "fusion_lon": 0.0, "lat": 38.9354275, "bike_id": "af108c1eea1dbf0a93f89d8e6948acb7", "type": "electric_scooter", "is_reserved": 0, "lon": -77.03093283333334}, {"fusion_lat": 0.0, "name": "fa81323137d1241ed79bfe45e8f06454", "is_disabled": 0, "rental_uris": {"android": "https://dc.lft.to/lastmile_qr_scan", "ios": "https://dc.lft.to/lastmile_qr_scan"}, "fusion_lon": 0.0, "lat": 38.89542616666667, "bike_id": "fa81323137d1241ed79bfe45e8f06454", "type": "electric_scooter", "is_reserved": 0, "lon": -77.03057516666667}, {"fusion_lat": 0.0, "name": "aeb0e2d173669bf95c2ea81b1482f216", "is_disabled": 0, "rental_uris": {"android": "https://dc.lft.to/lastmile_qr_scan", "ios": "https://dc.lft.to/lastmile_qr_scan"}, "fusion_lon": 0.0, "lat": 38.930850666666664, "bike_id": "aeb0e2d173669bf95c2ea81b1482f216", "type": "electric_bike", "is_reserved": 0, "lon": -76.985049}, {"fusion_lat": 0.0, "name": "ea17cabf9b18b263dfaad4f73f55d5ad", "is_disabled": 0, "rental_uris": {"android": "https://dc.lft.to/lastmile_qr_scan", "ios": "https://dc.lft.to/lastmile_qr_scan"}, "fusion_lon": 0.0, "lat": 38.88892516666667, "bike_id": "ea17cabf9b18b263dfaad4f73f55d5ad", "type": "electric_bike", "is_reserved": 0, "lon": -77.11527016666666}, {"fusion_lat": 0.0, "name": "2f720724f2b7ec7799572728d7841edc", "is_disabled": 0, "rental_uris": {"android": "https://dc.lft.to/lastmile_qr_scan", "ios": "https://dc.lft.to/lastmile_qr_scan"}, "fusion_lon": 0.0, "lat": 38.9607005, "bike_id": "2f720724f2b7ec7799572728d7841edc", "type": "electric_scooter", "is_reserved": 0, "lon": -77.00099333333333}, {"fusion_lat": 0.0, "name": "798d077ac0c2471b281d1197d0d7d9e9", "is_disabled": 0, "rental_uris": {"android": "https://dc.lft.to/lastmile_qr_scan", "ios": "https://dc.lft.to/lastmile_qr_scan"}, "fusion_lon": 0.0, "lat": 38.85562, "bike_id": "798d077ac0c2471b281d1197d0d7d9e9", "type": "electric_bike", "is_reserved": 0, "lon": -77.11311283333333}, {"fusion_lat": 0.0, "name": "3ca863e89bca7b64c56b9b79f552d15a", "is_disabled": 0, "rental_uris": {"android": "https://dc.lft.to/lastmile_qr_scan", "ios": "https://dc.lft.to/lastmile_qr_scan"}, "fusion_lon": 0.0, "lat": 38.894508, "bike_id": "3ca863e89bca7b64c56b9b79f552d15a", "type": "electric_scooter", "is_reserved": 0, "lon": -77.04545033333333}, {"fusion_lat": 0.0, "name": "356bc877a6ce4b01cf6d2226f4a7902d", "is_disabled": 0, "rental_uris": {"android": "https://dc.lft.to/lastmile_qr_scan", "ios": "https://dc.lft.to/lastmile_qr_scan"}, "fusion_lon": 0.0, "lat": 38.8972455, "bike_id": "356bc877a6ce4b01cf6d2226f4a7902d", "type": "electric_scooter", "is_reserved": 0, "lon": -76.94700583333334}, {"fusion_lat": 0.0, "name": "2695e4216970530b7e440ba75b91e747", "is_disabled": 0, "rental_uris": {"android": "https://dc.lft.to/lastmile_qr_scan", "ios": "https://dc.lft.to/lastmile_qr_scan"}, "fusion_lon": 0.0, "lat": 38.908562833333335, "bike_id": "2695e4216970530b7e440ba75b91e747", "type": "electric_scooter", "is_reserved": 0, "lon": -77.06394033333333}, {"fusion_lat": 0.0, "name": "bd6d167e8b5e354dfad98338ce04c064", "is_disabled": 0, "rental_uris": {"android": "https://dc.lft.to/lastmile_qr_scan", "ios": "https://dc.lft.to/lastmile_qr_scan"}, "fusion_lon": 0.0, "lat": 38.887512, "bike_id": "bd6d167e8b5e354dfad98338ce04c064", "type": "electric_scooter", "is_reserved": 0, "lon": -76.99782466666667}, {"fusion_lat": 0.0, "name": "ffdad0020fa4fb8f79afaf938193ddc6", "is_disabled": 0, "rental_uris": {"android": "https://dc.lft.to/lastmile_qr_scan", "ios": "https://dc.lft.to/lastmile_qr_scan"}, "fusion_lon": 0.0, "lat": 38.892201, "bike_id": "ffdad0020fa4fb8f79afaf938193ddc6", "type": "electric_scooter", "is_reserved": 0, "lon": -77.03216866666666}, {"fusion_lat": 0.0, "name": "d23ff49d8f799f274776ac8621a3825b", "is_disabled": 0, "rental_uris": {"android": "https://dc.lft.to/lastmile_qr_scan", "ios": "https://dc.lft.to/lastmile_qr_scan"}, "fusion_lon": 0.0, "lat": 38.936296666666664, "bike_id": "d23ff49d8f799f274776ac8621a3825b", "type": "electric_scooter", "is_reserved": 0, "lon": -77.0730985}, {"fusion_lat": 0.0, "name": "d8b325bfe4512fd88e80262085920aaf", "is_disabled": 0, "rental_uris": {"android": "https://dc.lft.to/lastmile_qr_scan", "ios": "https://dc.lft.to/lastmile_qr_scan"}, "fusion_lon": 0.0, "lat": 38.90046616666667, "bike_id": "d8b325bfe4512fd88e80262085920aaf", "type": "electric_scooter", "is_reserved": 0, "lon": -77.04498183333334}, {"fusion_lat": 0.0, "name": "ce0fc39d90a5c8c5c0f4bf4053c67307", "is_disabled": 0, "rental_uris": {"android": "https://dc.lft.to/lastmile_qr_scan", "ios": "https://dc.lft.to/lastmile_qr_scan"}, "fusion_lon": 0.0, "lat": 38.917034666666666, "bike_id": "ce0fc39d90a5c8c5c0f4bf4053c67307", "type": "electric_scooter", "is_reserved": 0, "lon": -77.02744716666666}, {"fusion_lat": 0.0, "name": "a00a3cd5f99d7cf42ed41436a46f9b95", "is_disabled": 0, "rental_uris": {"android": "https://dc.lft.to/lastmile_qr_scan", "ios": "https://dc.lft.to/lastmile_qr_scan"}, "fusion_lon": 0.0, "lat": 38.945165, "bike_id": "a00a3cd5f99d7cf42ed41436a46f9b95", "type": "electric_scooter", "is_reserved": 0, "lon": -77.038906}, {"fusion_lat": 0.0, "name": "17e07dc11c87714ad02e9c55936d3f5c", "is_disabled": 0, "rental_uris": {"android": "https://dc.lft.to/lastmile_qr_scan", "ios": "https://dc.lft.to/lastmile_qr_scan"}, "fusion_lon": 0.0, "lat": 38.8475395, "bike_id": "17e07dc11c87714ad02e9c55936d3f5c", "type": "electric_scooter", "is_reserved": 0, "lon": -76.995009}, {"fusion_lat": 0.0, "name": "0551723c4fe9951c4a9734396f27ac93", "is_disabled": 0, "rental_uris": {"android": "https://dc.lft.to/lastmile_qr_scan", "ios": "https://dc.lft.to/lastmile_qr_scan"}, "fusion_lon": 0.0, "lat": 38.92350883333334, "bike_id": "0551723c4fe9951c4a9734396f27ac93", "type": "electric_scooter", "is_reserved": 0, "lon": -76.99249316666666}, {"fusion_lat": 0.0, "name": "cbee0ae68bb71c6b06e62eeffd4b5b9d", "is_disabled": 0, "rental_uris": {"android": "https://dc.lft.to/lastmile_qr_scan", "ios": "https://dc.lft.to/lastmile_qr_scan"}, "fusion_lon": 0.0, "lat": 38.91321383333333, "bike_id": "cbee0ae68bb71c6b06e62eeffd4b5b9d", "type": "electric_scooter", "is_reserved": 0, "lon": -77.047027}, {"fusion_lat": 0.0, "name": "fec78674fcd04512e63ab4d24444d6ce", "is_disabled": 0, "rental_uris": {"android": "https://dc.lft.to/lastmile_qr_scan", "ios": "https://dc.lft.to/lastmile_qr_scan"}, "fusion_lon": 0.0, "lat": 38.90931716666667, "bike_id": "fec78674fcd04512e63ab4d24444d6ce", "type": "electric_scooter", "is_reserved": 0, "lon": -77.03180516666667}, {"fusion_lat": 0.0, "name": "09f5a961507627a8ab954102e0c49f7c", "is_disabled": 0, "rental_uris": {"android": "https://dc.lft.to/lastmile_qr_scan", "ios": "https://dc.lft.to/lastmile_qr_scan"}, "fusion_lon": 0.0, "lat": 38.91026983333333, "bike_id": "09f5a961507627a8ab954102e0c49f7c", "type": "electric_scooter", "is_reserved": 0, "lon": -77.007529}, {"fusion_lat": 0.0, "name": "f39e4b7e8cc117bbc2a6004f79aa8d0c", "is_disabled": 0, "rental_uris": {"android": "https://dc.lft.to/lastmile_qr_scan", "ios": "https://dc.lft.to/lastmile_qr_scan"}, "fusion_lon": 0.0, "lat": 38.9286875, "bike_id": "f39e4b7e8cc117bbc2a6004f79aa8d0c", "type": "electric_scooter", "is_reserved": 0, "lon": -77.03284033333334}, {"fusion_lat": 0.0, "name": "3578b8d9351eee37a4c850b4f1c1718d", "is_disabled": 0, "rental_uris": {"android": "https://dc.lft.to/lastmile_qr_scan", "ios": "https://dc.lft.to/lastmile_qr_scan"}, "fusion_lon": 0.0, "lat": 38.89848633333333, "bike_id": "3578b8d9351eee37a4c850b4f1c1718d", "type": "electric_scooter", "is_reserved": 0, "lon": -77.02936966666667}, {"fusion_lat": 0.0, "name": "685e2594aa29a9e30abe6f0661f8fcfc", "is_disabled": 0, "rental_uris": {"android": "https://dc.lft.to/lastmile_qr_scan", "ios": "https://dc.lft.to/lastmile_qr_scan"}, "fusion_lon": 0.0, "lat": 38.9148605, "bike_id": "685e2594aa29a9e30abe6f0661f8fcfc", "type": "electric_scooter", "is_reserved": 0, "lon": -77.03213966666667}, {"fusion_lat": 0.0, "name": "c12b6f99aa48e406fdfd64d6e994ae8e", "is_disabled": 0, "rental_uris": {"android": "https://dc.lft.to/lastmile_qr_scan", "ios": "https://dc.lft.to/lastmile_qr_scan"}, "fusion_lon": 0.0, "lat": 38.91720266666667, "bike_id": "c12b6f99aa48e406fdfd64d6e994ae8e", "type": "electric_scooter", "is_reserved": 0, "lon": -76.96871383333334}, {"fusion_lat": 0.0, "name": "99fa473f415fe1d6883c95d9df41323b", "is_disabled": 0, "rental_uris": {"android": "https://dc.lft.to/lastmile_qr_scan", "ios": "https://dc.lft.to/lastmile_qr_scan"}, "fusion_lon": 0.0, "lat": 38.906504, "bike_id": "99fa473f415fe1d6883c95d9df41323b", "type": "electric_scooter", "is_reserved": 0, "lon": -77.02502116666666}, {"fusion_lat": 0.0, "name": "926dcf86eb66bcf39ee7debc9053dd9a", "is_disabled": 0, "rental_uris": {"android": "https://dc.lft.to/lastmile_qr_scan", "ios": "https://dc.lft.to/lastmile_qr_scan"}, "fusion_lon": 0.0, "lat": 38.90533283333333, "bike_id": "926dcf86eb66bcf39ee7debc9053dd9a", "type": "electric_scooter", "is_reserved": 0, "lon": -77.06136166666667}, {"fusion_lat": 0.0, "name": "125bcf38768f0083a03b0efaab7c1f19", "is_disabled": 0, "rental_uris": {"android": "https://dc.lft.to/lastmile_qr_scan", "ios": "https://dc.lft.to/lastmile_qr_scan"}, "fusion_lon": 0.0, "lat": 38.93575633333333, "bike_id": "125bcf38768f0083a03b0efaab7c1f19", "type": "electric_scooter", "is_reserved": 0, "lon": -77.01929783333334}, {"fusion_lat": 0.0, "name": "2f94923e3619b63ff962174d44647b3d", "is_disabled": 0, "rental_uris": {"android": "https://dc.lft.to/lastmile_qr_scan", "ios": "https://dc.lft.to/lastmile_qr_scan"}, "fusion_lon": 0.0, "lat": 38.90185266666667, "bike_id": "2f94923e3619b63ff962174d44647b3d", "type": "electric_scooter", "is_reserved": 0, "lon": -77.02015283333333}, {"fusion_lat": 0.0, "name": "3231dddbcc96e58d584c020ecdd2cc7b", "is_disabled": 0, "rental_uris": {"android": "https://dc.lft.to/lastmile_qr_scan", "ios": "https://dc.lft.to/lastmile_qr_scan"}, "fusion_lon": 0.0, "lat": 38.89754466666667, "bike_id": "3231dddbcc96e58d584c020ecdd2cc7b", "type": "electric_scooter", "is_reserved": 0, "lon": -77.05150116666667}, {"fusion_lat": 0.0, "name": "e0f336c19ec0ec5bec1958fa2132727f", "is_disabled": 0, "rental_uris": {"android": "https://dc.lft.to/lastmile_qr_scan", "ios": "https://dc.lft.to/lastmile_qr_scan"}, "fusion_lon": 0.0, "lat": 38.862169, "bike_id": "e0f336c19ec0ec5bec1958fa2132727f", "type": "electric_bike", "is_reserved": 0, "lon": -76.99548}, {"fusion_lat": 0.0, "name": "3e44e9eec096c00f28460aaf7da2d557", "is_disabled": 0, "rental_uris": {"android": "https://dc.lft.to/lastmile_qr_scan", "ios": "https://dc.lft.to/lastmile_qr_scan"}, "fusion_lon": 0.0, "lat": 38.9148825, "bike_id": "3e44e9eec096c00f28460aaf7da2d557", "type": "electric_scooter", "is_reserved": 0, "lon": -77.03827033333333}, {"fusion_lat": 0.0, "name": "14512a053325ec55813e4e12ba197680", "is_disabled": 0, "rental_uris": {"android": "https://dc.lft.to/lastmile_qr_scan", "ios": "https://dc.lft.to/lastmile_qr_scan"}, "fusion_lon": 0.0, "lat": 38.884366666666665, "bike_id": "14512a053325ec55813e4e12ba197680", "type": "electric_scooter", "is_reserved": 0, "lon": -77.0034325}, {"fusion_lat": 0.0, "name": "a22220392bd07a8e116aacd92bf44fb9", "is_disabled": 0, "rental_uris": {"android": "https://dc.lft.to/lastmile_qr_scan", "ios": "https://dc.lft.to/lastmile_qr_scan"}, "fusion_lon": 0.0, "lat": 38.9225045, "bike_id": "a22220392bd07a8e116aacd92bf44fb9", "type": "electric_scooter", "is_reserved": 0, "lon": -77.03386083333334}, {"fusion_lat": 0.0, "name": "2733566eafe0a48900aa97e854c78080", "is_disabled": 0, "rental_uris": {"android": "https://dc.lft.to/lastmile_qr_scan", "ios": "https://dc.lft.to/lastmile_qr_scan"}, "fusion_lon": 0.0, "lat": 38.90067116666667, "bike_id": "2733566eafe0a48900aa97e854c78080", "type": "electric_scooter", "is_reserved": 0, "lon": -77.05684466666666}, {"fusion_lat": 0.0, "name": "ca7007937ff55f899f5fda4c4a8f2f45", "is_disabled": 0, "rental_uris": {"android": "https://dc.lft.to/lastmile_qr_scan", "ios": "https://dc.lft.to/lastmile_qr_scan"}, "fusion_lon": 0.0, "lat": 38.881466833333334, "bike_id": "ca7007937ff55f899f5fda4c4a8f2f45", "type": "electric_scooter", "is_reserved": 0, "lon": -76.99504366666666}, {"fusion_lat": 0.0, "name": "da3af31305c9c7a2be675ab2135b0543", "is_disabled": 0, "rental_uris": {"android": "https://dc.lft.to/lastmile_qr_scan", "ios": "https://dc.lft.to/lastmile_qr_scan"}, "fusion_lon": 0.0, "lat": 38.89681566666667, "bike_id": "da3af31305c9c7a2be675ab2135b0543", "type": "electric_scooter", "is_reserved": 0, "lon": -77.0054705}, {"fusion_lat": 0.0, "name": "58d0ce2341338a0b7e8863a67527daab", "is_disabled": 0, "rental_uris": {"android": "https://dc.lft.to/lastmile_qr_scan", "ios": "https://dc.lft.to/lastmile_qr_scan"}, "fusion_lon": 0.0, "lat": 38.88605166666667, "bike_id": "58d0ce2341338a0b7e8863a67527daab", "type": "electric_scooter", "is_reserved": 0, "lon": -77.00340883333334}, {"fusion_lat": 0.0, "name": "a046b0f08a7e4647e953451e85291a19", "is_disabled": 0, "rental_uris": {"android": "https://dc.lft.to/lastmile_qr_scan", "ios": "https://dc.lft.to/lastmile_qr_scan"}, "fusion_lon": 0.0, "lat": 38.91406633333333, "bike_id": "a046b0f08a7e4647e953451e85291a19", "type": "electric_scooter", "is_reserved": 0, "lon": -77.04095883333333}, {"fusion_lat": 0.0, "name": "ea91a68ad8509296522c20748bc05487", "is_disabled": 0, "rental_uris": {"android": "https://dc.lft.to/lastmile_qr_scan", "ios": "https://dc.lft.to/lastmile_qr_scan"}, "fusion_lon": 0.0, "lat": 38.90646616666667, "bike_id": "ea91a68ad8509296522c20748bc05487", "type": "electric_scooter", "is_reserved": 0, "lon": -77.00649233333333}, {"fusion_lat": 0.0, "name": "fa8ab353e58ca521572c52d69cf44f73", "is_disabled": 0, "rental_uris": {"android": "https://dc.lft.to/lastmile_qr_scan", "ios": "https://dc.lft.to/lastmile_qr_scan"}, "fusion_lon": 0.0, "lat": 38.9667095, "bike_id": "fa8ab353e58ca521572c52d69cf44f73", "type": "electric_scooter", "is_reserved": 0, "lon": -77.02545983333333}, {"fusion_lat": 0.0, "name": "890efd4fb1f517895c8e32a1f52a4f82", "is_disabled": 0, "rental_uris": {"android": "https://dc.lft.to/lastmile_qr_scan", "ios": "https://dc.lft.to/lastmile_qr_scan"}, "fusion_lon": 0.0, "lat": 38.905311166666664, "bike_id": "890efd4fb1f517895c8e32a1f52a4f82", "type": "electric_scooter", "is_reserved": 0, "lon": -77.058786}, {"fusion_lat": 0.0, "name": "728ee639210219f91a36273375a083d0", "is_disabled": 0, "rental_uris": {"android": "https://dc.lft.to/lastmile_qr_scan", "ios": "https://dc.lft.to/lastmile_qr_scan"}, "fusion_lon": 0.0, "lat": 38.91298283333333, "bike_id": "728ee639210219f91a36273375a083d0", "type": "electric_scooter", "is_reserved": 0, "lon": -77.03653016666667}, {"fusion_lat": 0.0, "name": "24b8352ed6fc21705f036dc3fec99456", "is_disabled": 0, "rental_uris": {"android": "https://dc.lft.to/lastmile_qr_scan", "ios": "https://dc.lft.to/lastmile_qr_scan"}, "fusion_lon": 0.0, "lat": 38.9317445, "bike_id": "24b8352ed6fc21705f036dc3fec99456", "type": "electric_scooter", "is_reserved": 0, "lon": -77.03784266666666}, {"fusion_lat": 0.0, "name": "47abe40d004e5248b7c4331fd9b4c2e1", "is_disabled": 0, "rental_uris": {"android": "https://dc.lft.to/lastmile_qr_scan", "ios": "https://dc.lft.to/lastmile_qr_scan"}, "fusion_lon": 0.0, "lat": 38.90930866666667, "bike_id": "47abe40d004e5248b7c4331fd9b4c2e1", "type": "electric_scooter", "is_reserved": 0, "lon": -77.0641565}, {"fusion_lat": 0.0, "name": "9aab0c3e67a99320f0c33db97aa6f568", "is_disabled": 0, "rental_uris": {"android": "https://dc.lft.to/lastmile_qr_scan", "ios": "https://dc.lft.to/lastmile_qr_scan"}, "fusion_lon": 0.0, "lat": 38.93966783333333, "bike_id": "9aab0c3e67a99320f0c33db97aa6f568", "type": "electric_scooter", "is_reserved": 0, "lon": -77.03281216666667}, {"fusion_lat": 0.0, "name": "5437310ac4cc5e9226e90ffdc63d4f07", "is_disabled": 0, "rental_uris": {"android": "https://dc.lft.to/lastmile_qr_scan", "ios": "https://dc.lft.to/lastmile_qr_scan"}, "fusion_lon": 0.0, "lat": 38.91682483333334, "bike_id": "5437310ac4cc5e9226e90ffdc63d4f07", "type": "electric_scooter", "is_reserved": 0, "lon": -77.02384666666667}, {"fusion_lat": 0.0, "name": "e292b7b83c62f2f316259ebd1388b01a", "is_disabled": 0, "rental_uris": {"android": "https://dc.lft.to/lastmile_qr_scan", "ios": "https://dc.lft.to/lastmile_qr_scan"}, "fusion_lon": 0.0, "lat": 38.92903666666667, "bike_id": "e292b7b83c62f2f316259ebd1388b01a", "type": "electric_scooter", "is_reserved": 0, "lon": -77.0214495}, {"fusion_lat": 0.0, "name": "a9ebde9775da73227027668d1f5b56f7", "is_disabled": 0, "rental_uris": {"android": "https://dc.lft.to/lastmile_qr_scan", "ios": "https://dc.lft.to/lastmile_qr_scan"}, "fusion_lon": 0.0, "lat": 38.78261216666667, "bike_id": "a9ebde9775da73227027668d1f5b56f7", "type": "electric_bike", "is_reserved": 0, "lon": -77.01610833333334}, {"fusion_lat": 0.0, "name": "91ad32fffb9326da612037c78d8400a3", "is_disabled": 0, "rental_uris": {"android": "https://dc.lft.to/lastmile_qr_scan", "ios": "https://dc.lft.to/lastmile_qr_scan"}, "fusion_lon": 0.0, "lat": 38.914368333333336, "bike_id": "91ad32fffb9326da612037c78d8400a3", "type": "electric_scooter", "is_reserved": 0, "lon": -76.99353983333333}, {"fusion_lat": 0.0, "name": "220c00dbf4e896ed4f908334af8dfe30", "is_disabled": 0, "rental_uris": {"android": "https://dc.lft.to/lastmile_qr_scan", "ios": "https://dc.lft.to/lastmile_qr_scan"}, "fusion_lon": 0.0, "lat": 38.96494716666667, "bike_id": "220c00dbf4e896ed4f908334af8dfe30", "type": "electric_bike", "is_reserved": 0, "lon": -77.107185}, {"fusion_lat": 0.0, "name": "2745d66448f0203268c1c63504862430", "is_disabled": 0, "rental_uris": {"android": "https://dc.lft.to/lastmile_qr_scan", "ios": "https://dc.lft.to/lastmile_qr_scan"}, "fusion_lon": 0.0, "lat": 38.900294833333334, "bike_id": "2745d66448f0203268c1c63504862430", "type": "electric_scooter", "is_reserved": 0, "lon": -77.03512316666666}, {"fusion_lat": 0.0, "name": "5e3ecf21d7f419b272596307fc79c8f4", "is_disabled": 0, "rental_uris": {"android": "https://dc.lft.to/lastmile_qr_scan", "ios": "https://dc.lft.to/lastmile_qr_scan"}, "fusion_lon": 0.0, "lat": 38.88509083333334, "bike_id": "5e3ecf21d7f419b272596307fc79c8f4", "type": "electric_scooter", "is_reserved": 0, "lon": -77.01115383333334}, {"fusion_lat": 0.0, "name": "bef13cb80b2084444797fd1710170623", "is_disabled": 0, "rental_uris": {"android": "https://dc.lft.to/lastmile_qr_scan", "ios": "https://dc.lft.to/lastmile_qr_scan"}, "fusion_lon": 0.0, "lat": 38.92219466666667, "bike_id": "bef13cb80b2084444797fd1710170623", "type": "electric_scooter", "is_reserved": 0, "lon": -77.03781933333333}, {"fusion_lat": 0.0, "name": "ba62de55fa70f7e577c486c71bcfb937", "is_disabled": 0, "rental_uris": {"android": "https://dc.lft.to/lastmile_qr_scan", "ios": "https://dc.lft.to/lastmile_qr_scan"}, "fusion_lon": 0.0, "lat": 38.9022375, "bike_id": "ba62de55fa70f7e577c486c71bcfb937", "type": "electric_scooter", "is_reserved": 0, "lon": -76.9861355}, {"fusion_lat": 0.0, "name": "5055b625e2e3249725314440138277fe", "is_disabled": 0, "rental_uris": {"android": "https://dc.lft.to/lastmile_qr_scan", "ios": "https://dc.lft.to/lastmile_qr_scan"}, "fusion_lon": 0.0, "lat": 38.908625, "bike_id": "5055b625e2e3249725314440138277fe", "type": "electric_scooter", "is_reserved": 0, "lon": -77.0009645}, {"fusion_lat": 0.0, "name": "1a9caec2713b872bad14463721ba9f45", "is_disabled": 0, "rental_uris": {"android": "https://dc.lft.to/lastmile_qr_scan", "ios": "https://dc.lft.to/lastmile_qr_scan"}, "fusion_lon": 0.0, "lat": 38.897247, "bike_id": "1a9caec2713b872bad14463721ba9f45", "type": "electric_scooter", "is_reserved": 0, "lon": -77.02764616666667}, {"fusion_lat": 0.0, "name": "d4cc58806467a08a4bdb486acb3549f5", "is_disabled": 0, "rental_uris": {"android": "https://dc.lft.to/lastmile_qr_scan", "ios": "https://dc.lft.to/lastmile_qr_scan"}, "fusion_lon": 0.0, "lat": 38.89611433333334, "bike_id": "d4cc58806467a08a4bdb486acb3549f5", "type": "electric_scooter", "is_reserved": 0, "lon": -76.98108233333333}, {"fusion_lat": 0.0, "name": "40f9b2abe7818278da79446c4271721e", "is_disabled": 0, "rental_uris": {"android": "https://dc.lft.to/lastmile_qr_scan", "ios": "https://dc.lft.to/lastmile_qr_scan"}, "fusion_lon": 0.0, "lat": 38.8961635, "bike_id": "40f9b2abe7818278da79446c4271721e", "type": "electric_scooter", "is_reserved": 0, "lon": -77.0228565}, {"fusion_lat": 0.0, "name": "57003c57421e46b0978b34c1fbe08f50", "is_disabled": 0, "rental_uris": {"android": "https://dc.lft.to/lastmile_qr_scan", "ios": "https://dc.lft.to/lastmile_qr_scan"}, "fusion_lon": 0.0, "lat": 38.91109, "bike_id": "57003c57421e46b0978b34c1fbe08f50", "type": "electric_scooter", "is_reserved": 0, "lon": -77.01002033333333}, {"fusion_lat": 0.0, "name": "7f893b9a2f4c0556b86a6eac7849248e", "is_disabled": 0, "rental_uris": {"android": "https://dc.lft.to/lastmile_qr_scan", "ios": "https://dc.lft.to/lastmile_qr_scan"}, "fusion_lon": 0.0, "lat": 38.9228775, "bike_id": "7f893b9a2f4c0556b86a6eac7849248e", "type": "electric_scooter", "is_reserved": 0, "lon": -77.022453}, {"fusion_lat": 0.0, "name": "a9c4bd5524d594a6b4b563244ed34f11", "is_disabled": 0, "rental_uris": {"android": "https://dc.lft.to/lastmile_qr_scan", "ios": "https://dc.lft.to/lastmile_qr_scan"}, "fusion_lon": 0.0, "lat": 38.9072975, "bike_id": "a9c4bd5524d594a6b4b563244ed34f11", "type": "electric_scooter", "is_reserved": 0, "lon": -77.04772666666666}, {"fusion_lat": 0.0, "name": "2bea9c0324ee8c6fd667c79c4d16b089", "is_disabled": 0, "rental_uris": {"android": "https://dc.lft.to/lastmile_qr_scan", "ios": "https://dc.lft.to/lastmile_qr_scan"}, "fusion_lon": 0.0, "lat": 38.890170499999996, "bike_id": "2bea9c0324ee8c6fd667c79c4d16b089", "type": "electric_scooter", "is_reserved": 0, "lon": -76.93741633333333}, {"fusion_lat": 0.0, "name": "ad0e0097520ae09c9462ca75f8d40c10", "is_disabled": 0, "rental_uris": {"android": "https://dc.lft.to/lastmile_qr_scan", "ios": "https://dc.lft.to/lastmile_qr_scan"}, "fusion_lon": 0.0, "lat": 38.93983, "bike_id": "ad0e0097520ae09c9462ca75f8d40c10", "type": "electric_scooter", "is_reserved": 0, "lon": -77.028727}, {"fusion_lat": 0.0, "name": "e3623333fc747bc04c49478a63652d14", "is_disabled": 0, "rental_uris": {"android": "https://dc.lft.to/lastmile_qr_scan", "ios": "https://dc.lft.to/lastmile_qr_scan"}, "fusion_lon": 0.0, "lat": 38.887309, "bike_id": "e3623333fc747bc04c49478a63652d14", "type": "electric_scooter", "is_reserved": 0, "lon": -77.02212716666666}, {"fusion_lat": 0.0, "name": "1f6701316459262d7ca52a296711a089", "is_disabled": 0, "rental_uris": {"android": "https://dc.lft.to/lastmile_qr_scan", "ios": "https://dc.lft.to/lastmile_qr_scan"}, "fusion_lon": 0.0, "lat": 38.94919083333333, "bike_id": "1f6701316459262d7ca52a296711a089", "type": "electric_scooter", "is_reserved": 0, "lon": -77.01849783333333}, {"fusion_lat": 0.0, "name": "efc411e5a3010fd542d2e36df5741ac0", "is_disabled": 0, "rental_uris": {"android": "https://dc.lft.to/lastmile_qr_scan", "ios": "https://dc.lft.to/lastmile_qr_scan"}, "fusion_lon": 0.0, "lat": 38.9023665, "bike_id": "efc411e5a3010fd542d2e36df5741ac0", "type": "electric_scooter", "is_reserved": 0, "lon": -77.01927033333334}, {"fusion_lat": 0.0, "name": "271e3c8397dd37adbfc345082de2ebf6", "is_disabled": 0, "rental_uris": {"android": "https://dc.lft.to/lastmile_qr_scan", "ios": "https://dc.lft.to/lastmile_qr_scan"}, "fusion_lon": 0.0, "lat": 38.88743133333333, "bike_id": "271e3c8397dd37adbfc345082de2ebf6", "type": "electric_scooter", "is_reserved": 0, "lon": -77.022176}, {"fusion_lat": 0.0, "name": "8e388a8dd4e703593378c3246a492224", "is_disabled": 0, "rental_uris": {"android": "https://dc.lft.to/lastmile_qr_scan", "ios": "https://dc.lft.to/lastmile_qr_scan"}, "fusion_lon": 0.0, "lat": 38.8936255, "bike_id": "8e388a8dd4e703593378c3246a492224", "type": "electric_scooter", "is_reserved": 0, "lon": -77.00080733333333}, {"fusion_lat": 0.0, "name": "d766797503f332805f04cc93ad1cbef4", "is_disabled": 0, "rental_uris": {"android": "https://dc.lft.to/lastmile_qr_scan", "ios": "https://dc.lft.to/lastmile_qr_scan"}, "fusion_lon": 0.0, "lat": 38.935627, "bike_id": "d766797503f332805f04cc93ad1cbef4", "type": "electric_scooter", "is_reserved": 0, "lon": -77.034901}, {"fusion_lat": 0.0, "name": "12974c626e2102ad5e2c735eb2f04dfa", "is_disabled": 0, "rental_uris": {"android": "https://dc.lft.to/lastmile_qr_scan", "ios": "https://dc.lft.to/lastmile_qr_scan"}, "fusion_lon": 0.0, "lat": 38.93052983333333, "bike_id": "12974c626e2102ad5e2c735eb2f04dfa", "type": "electric_scooter", "is_reserved": 0, "lon": -77.0335635}, {"fusion_lat": 0.0, "name": "6395552c1933e069bce0f5909aa0d1e8", "is_disabled": 0, "rental_uris": {"android": "https://dc.lft.to/lastmile_qr_scan", "ios": "https://dc.lft.to/lastmile_qr_scan"}, "fusion_lon": 0.0, "lat": 38.919510833333334, "bike_id": "6395552c1933e069bce0f5909aa0d1e8", "type": "electric_scooter", "is_reserved": 0, "lon": -77.03207233333333}, {"fusion_lat": 0.0, "name": "5cff330318d0d91d90a5c63c52266549", "is_disabled": 0, "rental_uris": {"android": "https://dc.lft.to/lastmile_qr_scan", "ios": "https://dc.lft.to/lastmile_qr_scan"}, "fusion_lon": 0.0, "lat": 38.9208, "bike_id": "5cff330318d0d91d90a5c63c52266549", "type": "electric_scooter", "is_reserved": 0, "lon": -77.00445833333333}, {"fusion_lat": 0.0, "name": "0063c346613bbb6c6a14f092196d30c4", "is_disabled": 0, "rental_uris": {"android": "https://dc.lft.to/lastmile_qr_scan", "ios": "https://dc.lft.to/lastmile_qr_scan"}, "fusion_lon": 0.0, "lat": 38.88119533333333, "bike_id": "0063c346613bbb6c6a14f092196d30c4", "type": "electric_scooter", "is_reserved": 0, "lon": -77.0166485}, {"fusion_lat": 0.0, "name": "59dde8304107112542bc4f9d35a14d4b", "is_disabled": 0, "rental_uris": {"android": "https://dc.lft.to/lastmile_qr_scan", "ios": "https://dc.lft.to/lastmile_qr_scan"}, "fusion_lon": 0.0, "lat": 38.973668833333335, "bike_id": "59dde8304107112542bc4f9d35a14d4b", "type": "electric_scooter", "is_reserved": 0, "lon": -77.01851816666667}, {"fusion_lat": 0.0, "name": "038acf978b1fcafeee5e54e07ac8c138", "is_disabled": 0, "rental_uris": {"android": "https://dc.lft.to/lastmile_qr_scan", "ios": "https://dc.lft.to/lastmile_qr_scan"}, "fusion_lon": 0.0, "lat": 38.8819365, "bike_id": "038acf978b1fcafeee5e54e07ac8c138", "type": "electric_scooter", "is_reserved": 0, "lon": -77.00065333333333}, {"fusion_lat": 0.0, "name": "dfb7d79dc56f9815c2d2fd828cbf3463", "is_disabled": 0, "rental_uris": {"android": "https://dc.lft.to/lastmile_qr_scan", "ios": "https://dc.lft.to/lastmile_qr_scan"}, "fusion_lon": 0.0, "lat": 38.914678333333335, "bike_id": "dfb7d79dc56f9815c2d2fd828cbf3463", "type": "electric_scooter", "is_reserved": 0, "lon": -76.98440166666667}, {"fusion_lat": 0.0, "name": "ffe0501981161441e68dffff05e0d830", "is_disabled": 0, "rental_uris": {"android": "https://dc.lft.to/lastmile_qr_scan", "ios": "https://dc.lft.to/lastmile_qr_scan"}, "fusion_lon": 0.0, "lat": 38.883139666666665, "bike_id": "ffe0501981161441e68dffff05e0d830", "type": "electric_scooter", "is_reserved": 0, "lon": -76.99482383333333}, {"fusion_lat": 0.0, "name": "6dc7d9f4d3a50e646de35040e3513f3b", "is_disabled": 0, "rental_uris": {"android": "https://dc.lft.to/lastmile_qr_scan", "ios": "https://dc.lft.to/lastmile_qr_scan"}, "fusion_lon": 0.0, "lat": 38.898284833333335, "bike_id": "6dc7d9f4d3a50e646de35040e3513f3b", "type": "electric_scooter", "is_reserved": 0, "lon": -77.04075266666666}, {"fusion_lat": 0.0, "name": "4424aff412c903846470d412732b4232", "is_disabled": 0, "rental_uris": {"android": "https://dc.lft.to/lastmile_qr_scan", "ios": "https://dc.lft.to/lastmile_qr_scan"}, "fusion_lon": 0.0, "lat": 38.892295, "bike_id": "4424aff412c903846470d412732b4232", "type": "electric_scooter", "is_reserved": 0, "lon": -77.049947}, {"fusion_lat": 0.0, "name": "631ceba5e457de8b5430b28d5c91e80b", "is_disabled": 0, "rental_uris": {"android": "https://dc.lft.to/lastmile_qr_scan", "ios": "https://dc.lft.to/lastmile_qr_scan"}, "fusion_lon": 0.0, "lat": 38.9337655, "bike_id": "631ceba5e457de8b5430b28d5c91e80b", "type": "electric_scooter", "is_reserved": 0, "lon": -77.03883233333333}, {"fusion_lat": 0.0, "name": "bddb19c51fb1a3a66f420a2099f95e05", "is_disabled": 0, "rental_uris": {"android": "https://dc.lft.to/lastmile_qr_scan", "ios": "https://dc.lft.to/lastmile_qr_scan"}, "fusion_lon": 0.0, "lat": 38.89217516666667, "bike_id": "bddb19c51fb1a3a66f420a2099f95e05", "type": "electric_scooter", "is_reserved": 0, "lon": -77.03222033333333}, {"fusion_lat": 0.0, "name": "d0a52e4a425926fcef12ebc02a10d23c", "is_disabled": 0, "rental_uris": {"android": "https://dc.lft.to/lastmile_qr_scan", "ios": "https://dc.lft.to/lastmile_qr_scan"}, "fusion_lon": 0.0, "lat": 38.90567933333333, "bike_id": "d0a52e4a425926fcef12ebc02a10d23c", "type": "electric_scooter", "is_reserved": 0, "lon": -77.00810233333333}, {"fusion_lat": 0.0, "name": "e56a5880cc8143fe117a4a3969da2ac2", "is_disabled": 0, "rental_uris": {"android": "https://dc.lft.to/lastmile_qr_scan", "ios": "https://dc.lft.to/lastmile_qr_scan"}, "fusion_lon": 0.0, "lat": 38.915176, "bike_id": "e56a5880cc8143fe117a4a3969da2ac2", "type": "electric_scooter", "is_reserved": 0, "lon": -77.03188183333333}, {"fusion_lat": 0.0, "name": "97775122694d2b9ff5338e5f49f2e21f", "is_disabled": 0, "rental_uris": {"android": "https://dc.lft.to/lastmile_qr_scan", "ios": "https://dc.lft.to/lastmile_qr_scan"}, "fusion_lon": 0.0, "lat": 38.91055566666667, "bike_id": "97775122694d2b9ff5338e5f49f2e21f", "type": "electric_scooter", "is_reserved": 0, "lon": -77.04354966666666}, {"fusion_lat": 0.0, "name": "e7c7c42e20dc9a10d4b2915e4894f50a", "is_disabled": 0, "rental_uris": {"android": "https://dc.lft.to/lastmile_qr_scan", "ios": "https://dc.lft.to/lastmile_qr_scan"}, "fusion_lon": 0.0, "lat": 38.909653, "bike_id": "e7c7c42e20dc9a10d4b2915e4894f50a", "type": "electric_scooter", "is_reserved": 0, "lon": -77.03859566666667}, {"fusion_lat": 0.0, "name": "9ac3993a252fdf406c4e3f222c243317", "is_disabled": 0, "rental_uris": {"android": "https://dc.lft.to/lastmile_qr_scan", "ios": "https://dc.lft.to/lastmile_qr_scan"}, "fusion_lon": 0.0, "lat": 38.87637433333333, "bike_id": "9ac3993a252fdf406c4e3f222c243317", "type": "electric_scooter", "is_reserved": 0, "lon": -77.01470466666666}, {"fusion_lat": 0.0, "name": "ab47c18b8cd9d8b43c39d1212898f4a6", "is_disabled": 0, "rental_uris": {"android": "https://dc.lft.to/lastmile_qr_scan", "ios": "https://dc.lft.to/lastmile_qr_scan"}, "fusion_lon": 0.0, "lat": 38.892188833333336, "bike_id": "ab47c18b8cd9d8b43c39d1212898f4a6", "type": "electric_scooter", "is_reserved": 0, "lon": -77.03147833333334}, {"fusion_lat": 0.0, "name": "cc7029a771065f40cf663b5e23fcf9df", "is_disabled": 0, "rental_uris": {"android": "https://dc.lft.to/lastmile_qr_scan", "ios": "https://dc.lft.to/lastmile_qr_scan"}, "fusion_lon": 0.0, "lat": 38.90098416666667, "bike_id": "cc7029a771065f40cf663b5e23fcf9df", "type": "electric_scooter", "is_reserved": 0, "lon": -76.9833055}, {"fusion_lat": 0.0, "name": "d47d223e1fa6e1597898db1d9d3c07e5", "is_disabled": 0, "rental_uris": {"android": "https://dc.lft.to/lastmile_qr_scan", "ios": "https://dc.lft.to/lastmile_qr_scan"}, "fusion_lon": 0.0, "lat": 38.9104555, "bike_id": "d47d223e1fa6e1597898db1d9d3c07e5", "type": "electric_scooter", "is_reserved": 0, "lon": -77.00830933333333}, {"fusion_lat": 0.0, "name": "aa92ed28a658e6dbd7d77950da3d2e1c", "is_disabled": 0, "rental_uris": {"android": "https://dc.lft.to/lastmile_qr_scan", "ios": "https://dc.lft.to/lastmile_qr_scan"}, "fusion_lon": 0.0, "lat": 38.92221466666667, "bike_id": "aa92ed28a658e6dbd7d77950da3d2e1c", "type": "electric_scooter", "is_reserved": 0, "lon": -77.04241733333333}, {"fusion_lat": 0.0, "name": "4e7bddfae79d86cdb7c9b8fe15283b07", "is_disabled": 0, "rental_uris": {"android": "https://dc.lft.to/lastmile_qr_scan", "ios": "https://dc.lft.to/lastmile_qr_scan"}, "fusion_lon": 0.0, "lat": 38.915701166666665, "bike_id": "4e7bddfae79d86cdb7c9b8fe15283b07", "type": "electric_scooter", "is_reserved": 0, "lon": -77.03849383333333}, {"fusion_lat": 0.0, "name": "a11861b61e17bbef81e1980fb9f9f24c", "is_disabled": 0, "rental_uris": {"android": "https://dc.lft.to/lastmile_qr_scan", "ios": "https://dc.lft.to/lastmile_qr_scan"}, "fusion_lon": 0.0, "lat": 38.906198833333335, "bike_id": "a11861b61e17bbef81e1980fb9f9f24c", "type": "electric_scooter", "is_reserved": 0, "lon": -77.03704916666666}, {"fusion_lat": 0.0, "name": "cd353e5df8aa40725101a44d9857e80e", "is_disabled": 0, "rental_uris": {"android": "https://dc.lft.to/lastmile_qr_scan", "ios": "https://dc.lft.to/lastmile_qr_scan"}, "fusion_lon": 0.0, "lat": 38.925398333333334, "bike_id": "cd353e5df8aa40725101a44d9857e80e", "type": "electric_scooter", "is_reserved": 0, "lon": -77.03829666666667}, {"fusion_lat": 0.0, "name": "28a2b7c1aa9659d4684fd3d21b82b0a3", "is_disabled": 0, "rental_uris": {"android": "https://dc.lft.to/lastmile_qr_scan", "ios": "https://dc.lft.to/lastmile_qr_scan"}, "fusion_lon": 0.0, "lat": 38.9387315, "bike_id": "28a2b7c1aa9659d4684fd3d21b82b0a3", "type": "electric_scooter", "is_reserved": 0, "lon": -77.02469583333334}, {"fusion_lat": 0.0, "name": "0379a7da534ba915e3ddf46ca5dcc06a", "is_disabled": 0, "rental_uris": {"android": "https://dc.lft.to/lastmile_qr_scan", "ios": "https://dc.lft.to/lastmile_qr_scan"}, "fusion_lon": 0.0, "lat": 38.898802, "bike_id": "0379a7da534ba915e3ddf46ca5dcc06a", "type": "electric_scooter", "is_reserved": 0, "lon": -77.0151}, {"fusion_lat": 0.0, "name": "a091efe8fc03d5923b11695159aa212e", "is_disabled": 0, "rental_uris": {"android": "https://dc.lft.to/lastmile_qr_scan", "ios": "https://dc.lft.to/lastmile_qr_scan"}, "fusion_lon": 0.0, "lat": 38.90289583333333, "bike_id": "a091efe8fc03d5923b11695159aa212e", "type": "electric_scooter", "is_reserved": 0, "lon": -77.01670766666666}, {"fusion_lat": 0.0, "name": "e07c3d3b7c63116a4235f808c415f99b", "is_disabled": 0, "rental_uris": {"android": "https://dc.lft.to/lastmile_qr_scan", "ios": "https://dc.lft.to/lastmile_qr_scan"}, "fusion_lon": 0.0, "lat": 38.89613633333333, "bike_id": "e07c3d3b7c63116a4235f808c415f99b", "type": "electric_scooter", "is_reserved": 0, "lon": -77.02136033333333}, {"fusion_lat": 0.0, "name": "b85e5b040bbfd64b81c8a2364fdef714", "is_disabled": 0, "rental_uris": {"android": "https://dc.lft.to/lastmile_qr_scan", "ios": "https://dc.lft.to/lastmile_qr_scan"}, "fusion_lon": 0.0, "lat": 38.89542333333333, "bike_id": "b85e5b040bbfd64b81c8a2364fdef714", "type": "electric_scooter", "is_reserved": 0, "lon": -77.01090533333333}, {"fusion_lat": 0.0, "name": "ad7bb89f1a0db1f4572570e488cf4b0e", "is_disabled": 0, "rental_uris": {"android": "https://dc.lft.to/lastmile_qr_scan", "ios": "https://dc.lft.to/lastmile_qr_scan"}, "fusion_lon": 0.0, "lat": 38.921797833333336, "bike_id": "ad7bb89f1a0db1f4572570e488cf4b0e", "type": "electric_scooter", "is_reserved": 0, "lon": -77.02665983333333}, {"fusion_lat": 0.0, "name": "b60d592c560f38e2f737da3dec91246d", "is_disabled": 0, "rental_uris": {"android": "https://dc.lft.to/lastmile_qr_scan", "ios": "https://dc.lft.to/lastmile_qr_scan"}, "fusion_lon": 0.0, "lat": 38.91429016666667, "bike_id": "b60d592c560f38e2f737da3dec91246d", "type": "electric_scooter", "is_reserved": 0, "lon": -77.06922233333333}, {"fusion_lat": 0.0, "name": "6057310329a0afcc1fcd937d30da1402", "is_disabled": 0, "rental_uris": {"android": "https://dc.lft.to/lastmile_qr_scan", "ios": "https://dc.lft.to/lastmile_qr_scan"}, "fusion_lon": 0.0, "lat": 38.9079785, "bike_id": "6057310329a0afcc1fcd937d30da1402", "type": "electric_scooter", "is_reserved": 0, "lon": -77.043339},