{"data": {"bikes": [{"lon": -77.02524316666667, "bike_id": "2d2abc4a41326dbea7346fe8f89ca40b", "lat": 38.93281866666667, "fusion_lon": 0.0, "fusion_lat": 0.0, "type": "electric_scooter", "name": "2d2abc4a41326dbea7346fe8f89ca40b", "is_disabled": 0, "rental_uris": {"ios": "https://dc.lft.to/lastmile_qr_scan", "android": "https://dc.lft.to/lastmile_qr_scan"}, "is_reserved": 0}, {"lon": -77.02513983333333, "bike_id": "716b8f03577b5401dbb37be7b97519f2", "lat": 38.9169775, "fusion_lon": 0.0, "fusion_lat": 0.0, "type": "electric_scooter", "name": "716b8f03577b5401dbb37be7b97519f2", "is_disabled": 0, "rental_uris": {"ios": "https://dc.lft.to/lastmile_qr_scan", "android": "https://dc.lft.to/lastmile_qr_scan"}, "is_reserved": 0}, {"lon": -76.98145483333333, "bike_id": "36403fd54cc180331de07958c5ead5b1", "lat": 38.90566666666667, "fusion_lon": 0.0, "fusion_lat": 0.0, "type": "electric_scooter", "name": "36403fd54cc180331de07958c5ead5b1", "is_disabled": 0, "rental_uris": {"ios": "https://dc.lft.to/lastmile_qr_scan", "android": "https://dc.lft.to/lastmile_qr_scan"}, "is_reserved": 0}, {"lon": -77.0781965, "bike_id": "985456a3ee0edd04859fe0ff1d47036e", "lat": 38.923695, "fusion_lon": 0.0, "fusion_lat": 0.0, "type": "electric_scooter", "name": "985456a3ee0edd04859fe0ff1d47036e", "is_disabled": 0, "rental_uris": {"ios": "https://dc.lft.to/lastmile_qr_scan", "android": "https://dc.lft.to/lastmile_qr_scan"}, "is_reserved": 0}, {"lon": -77.02714916666666, "bike_id": "6e312bc27d4039fd3f0a4ea183b3ec10", "lat": 38.9007315, "fusion_lon": 0.0, "fusion_lat": 0.0, "type": "electric_scooter", "name": "6e312bc27d4039fd3f0a4ea183b3ec10", "is_disabled": 0, "rental_uris": {"ios": "https://dc.lft.to/lastmile_qr_scan", "android": "https://dc.lft.to/lastmile_qr_scan"}, "is_reserved": 0}, {"lon": -76.99778983333333, "bike_id": "df4c86722e3e8f2db86f49fd8f266793", "lat": 38.8442955, "fusion_lon": 0.0, "fusion_lat": 0.0, "type": "electric_scooter", "name": "df4c86722e3e8f2db86f49fd8f266793", "is_disabled": 0, "rental_uris": {"ios": "https://dc.lft.to/lastmile_qr_scan", "android": "https://dc.lft.to/lastmile_qr_scan"}, "is_reserved": 0}, {"lon": -76.99710733333333, "bike_id": "50cae709efb9efa4e279a50e78cab343", "lat": 38.90818766666666, "fusion_lon": 0.0, "fusion_lat": 0.0, "type": "electric_scooter", "name": "50cae709efb9efa4e279a50e78cab343", "is_disabled": 0, "rental_uris": {"ios": "https://dc.lft.to/lastmile_qr_scan", "android": "https://dc.lft.to/lastmile_qr_scan"}, "is_reserved": 0}, {"lon": -76.9928695, "bike_id": "bc750465b4402e581cb0a3a4d7488205", "lat": 38.88485283333333, "fusion_lon": 0.0, "fusion_lat": 0.0, "type": "electric_scooter", "name": "bc750465b4402e581cb0a3a4d7488205", "is_disabled": 0, "rental_uris": {"ios": "https://dc.lft.to/lastmile_qr_scan", "android": "https://dc.lft.to/lastmile_qr_scan"}, "is_reserved": 0}, {"lon": -77.0280075, "bike_id": "c602fa60e40d439dc5b5d6d5bc235021", "lat": 38.92286333333333, "fusion_lon": 0.0, "fusion_lat": 0.0, "type": "electric_scooter", "name": "c602fa60e40d439dc5b5d6d5bc235021", "is_disabled": 0, "rental_uris": {"ios": "https://dc.lft.to/lastmile_qr_scan", "android": "https://dc.lft.to/lastmile_qr_scan"}, "is_reserved": 0}, {"lon": -77.03664683333334, "bike_id": "a2010866968f5e91c3d3aa75f296e4b8", "lat": 38.91817433333333, "fusion_lon": 0.0, "fusion_lat": 0.0, "type": "electric_scooter", "name": "a2010866968f5e91c3d3aa75f296e4b8", "is_disabled": 0, "rental_uris": {"ios": "https://dc.lft.to/lastmile_qr_scan", "android": "https://dc.lft.to/lastmile_qr_scan"}, "is_reserved": 0}, {"lon": -77.0334685, "bike_id": "1b006e738b13ed28964a7bd95ac89552", "lat": 38.90564833333333, "fusion_lon": 0.0, "fusion_lat": 0.0, "type": "electric_scooter", "name": "1b006e738b13ed28964a7bd95ac89552", "is_disabled": 0, "rental_uris": {"ios": "https://dc.lft.to/lastmile_qr_scan", "android": "https://dc.lft.to/lastmile_qr_scan"}, "is_reserved": 0}, {"lon": -77.09469266666666, "bike_id": "6838dc8aa416da685c4f829574e4f35e", "lat": 38.869381833333335, "fusion_lon": 0.0, "fusion_lat": 0.0, "type": "electric_bike", "name": "6838dc8aa416da685c4f829574e4f35e", "is_disabled": 0, "rental_uris": {"ios": "https://dc.lft.to/lastmile_qr_scan", "android": "https://dc.lft.to/lastmile_qr_scan"}, "is_reserved": 0}, {"lon": -76.99195933333333, "bike_id": "b23f8692deeec0b51bbc9f7d74d76a7b", "lat": 38.88269666666667, "fusion_lon": 0.0, "fusion_lat": 0.0, "type": "electric_scooter", "name": "b23f8692deeec0b51bbc9f7d74d76a7b", "is_disabled": 0, "rental_uris": {"ios": "https://dc.lft.to/lastmile_qr_scan", "android": "https://dc.lft.to/lastmile_qr_scan"}, "is_reserved": 0}, {"lon": -76.99388, "bike_id": "5240f3e2de30bb9176f43c63c2fe7b25", "lat": 38.922697666666664, "fusion_lon": 0.0, "fusion_lat": 0.0, "type": "electric_scooter", "name": "5240f3e2de30bb9176f43c63c2fe7b25", "is_disabled": 0, "rental_uris": {"ios": "https://dc.lft.to/lastmile_qr_scan", "android": "https://dc.lft.to/lastmile_qr_scan"}, "is_reserved": 0}, {"lon": -77.06411666666666, "bike_id": "d9458d3c0b6151d039f68e8326ad055b", "lat": 38.90934383333333, "fusion_lon": 0.0, "fusion_lat": 0.0, "type": "electric_scooter", "name": "d9458d3c0b6151d039f68e8326ad055b", "is_disabled": 0, "rental_uris": {"ios": "https://dc.lft.to/lastmile_qr_scan", "android": "https://dc.lft.to/lastmile_qr_scan"}, "is_reserved": 0}, {"lon": -77.00776433333333, "bike_id": "80a39d87ea0fdcb1f3cfde583b8e5ed1", "lat": 38.92528083333333, "fusion_lon": 0.0, "fusion_lat": 0.0, "type": "electric_scooter", "name": "80a39d87ea0fdcb1f3cfde583b8e5ed1", "is_disabled": 0, "rental_uris": {"ios": "https://dc.lft.to/lastmile_qr_scan", "android": "https://dc.lft.to/lastmile_qr_scan"}, "is_reserved": 0}, {"lon": -76.98751266666666, "bike_id": "c13f8ddb4e4746c7c2ac9bd8374d5acc", "lat": 38.900265166666664, "fusion_lon": 0.0, "fusion_lat": 0.0, "type": "electric_scooter", "name": "c13f8ddb4e4746c7c2ac9bd8374d5acc", "is_disabled": 0, "rental_uris": {"ios": "https://dc.lft.to/lastmile_qr_scan", "android": "https://dc.lft.to/lastmile_qr_scan"}, "is_reserved": 0}, {"lon": -77.03276366666667, "bike_id": "bcbed892d6058f1794338d3a349ed82b", "lat": 38.91562666666667, "fusion_lon": 0.0, "fusion_lat": 0.0, "type": "electric_scooter", "name": "bcbed892d6058f1794338d3a349ed82b", "is_disabled": 0, "rental_uris": {"ios": "https://dc.lft.to/lastmile_qr_scan", "android": "https://dc.lft.to/lastmile_qr_scan"}, "is_reserved": 0}, {"lon": -77.02342516666667, "bike_id": "b3e0e8dc7890928ccb10e65c5272a85d", "lat": 38.896303833333334, "fusion_lon": 0.0, "fusion_lat": 0.0, "type": "electric_scooter", "name": "b3e0e8dc7890928ccb10e65c5272a85d", "is_disabled": 0, "rental_uris": {"ios": "https://dc.lft.to/lastmile_qr_scan", "android": "https://dc.lft.to/lastmile_qr_scan"}, "is_reserved": 0}, {"lon": -76.98309733333333, "bike_id": "579739ff629c000ab1b6bfa89559df41", "lat": 38.899695666666666, "fusion_lon": 0.0, "fusion_lat": 0.0, "type": "electric_scooter", "name": "579739ff629c000ab1b6bfa89559df41", "is_disabled": 0, "rental_uris": {"ios": "https://dc.lft.to/lastmile_qr_scan", "android": "https://dc.lft.to/lastmile_qr_scan"}, "is_reserved": 0}, {"lon": -77.10652283333333, "bike_id": "37d87aade7615e27c13b9469915b6453", "lat": 38.87352933333333, "fusion_lon": 0.0, "fusion_lat": 0.0, "type": "electric_bike", "name": "37d87aade7615e27c13b9469915b6453", "is_disabled": 0, "rental_uris": {"ios": "https://dc.lft.to/lastmile_qr_scan", "android": "https://dc.lft.to/lastmile_qr_scan"}, "is_reserved": 0}, {"lon": -77.05825566666667, "bike_id": "0a46ba3bc38029d4c7f2bd31e1f16b11", "lat": 38.935392, "fusion_lon": 0.0, "fusion_lat": 0.0, "type": "electric_scooter", "name": "0a46ba3bc38029d4c7f2bd31e1f16b11", "is_disabled": 0, "rental_uris": {"ios": "https://dc.lft.to/lastmile_qr_scan", "android": "https://dc.lft.to/lastmile_qr_scan"}, "is_reserved": 0}, {"lon": -77.05863583333333, "bike_id": "80d7728c90775191d90af8ef51ffe5c5", "lat": 38.93607316666667, "fusion_lon": 0.0, "fusion_lat": 0.0, "type": "electric_scooter", "name": "80d7728c90775191d90af8ef51ffe5c5", "is_disabled": 0, "rental_uris": {"ios": "https://dc.lft.to/lastmile_qr_scan", "android": "https://dc.lft.to/lastmile_qr_scan"}, "is_reserved": 0}, {"lon": -77.05024383333334, "bike_id": "d58afa84166949990d4eaa9df11fdd86", "lat": 38.89780666666667, "fusion_lon": 0.0, "fusion_lat": 0.0, "type": "electric_scooter", "name": "d58afa84166949990d4eaa9df11fdd86", "is_disabled": 0, "rental_uris": {"ios": "https://dc.lft.to/lastmile_qr_scan", "android": "https://dc.lft.to/lastmile_qr_scan"}, "is_reserved": 0}, {"lon": -76.98350383333333, "bike_id": "76dd1f3c5799806ef8bda92ba8e9bb02", "lat": 38.90289633333333, "fusion_lon": 0.0, "fusion_lat": 0.0, "type": "electric_scooter", "name": "76dd1f3c5799806ef8bda92ba8e9bb02", "is_disabled": 0, "rental_uris": {"ios": "https://dc.lft.to/lastmile_qr_scan", "android": "https://dc.lft.to/lastmile_qr_scan"}, "is_reserved": 0}, {"lon": -77.041389, "bike_id": "e8b5fc52c5c631b61eb013cbadaddcdc", "lat": 38.9227565, "fusion_lon": 0.0, "fusion_lat": 0.0, "type": "electric_scooter", "name": "e8b5fc52c5c631b61eb013cbadaddcdc", "is_disabled": 0, "rental_uris": {"ios": "https://dc.lft.to/lastmile_qr_scan", "android": "https://dc.lft.to/lastmile_qr_scan"}, "is_reserved": 0}, {"lon": -77.0584045, "bike_id": "f100156e0d5f614b3414d37b3125af38", "lat": 38.90530533333333, "fusion_lon": 0.0, "fusion_lat": 0.0, "type": "electric_scooter", "name": "f100156e0d5f614b3414d37b3125af38", "is_disabled": 0, "rental_uris": {"ios": "https://dc.lft.to/lastmile_qr_scan", "android": "https://dc.lft.to/lastmile_qr_scan"}, "is_reserved": 0}, {"lon": -76.99770783333334, "bike_id": "539ba34fdaae88a2b7b647ecd4263c2d", "lat": 38.92450783333334, "fusion_lon": 0.0, "fusion_lat": 0.0, "type": "electric_scooter", "name": "539ba34fdaae88a2b7b647ecd4263c2d", "is_disabled": 0, "rental_uris": {"ios": "https://dc.lft.to/lastmile_qr_scan", "android": "https://dc.lft.to/lastmile_qr_scan"}, "is_reserved": 0}, {"lon": -77.023054, "bike_id": "5f67455d620de392c1aeebbd2919beb1", "lat": 38.909582, "fusion_lon": 0.0, "fusion_lat": 0.0, "type": "electric_scooter", "name": "5f67455d620de392c1aeebbd2919beb1", "is_disabled": 0, "rental_uris": {"ios": "https://dc.lft.to/lastmile_qr_scan", "android": "https://dc.lft.to/lastmile_qr_scan"}, "is_reserved": 0}, {"lon": -76.973352, "bike_id": "e89c4d49625f84d2a08e025b382bad9c", "lat": 38.865169, "fusion_lon": 0.0, "fusion_lat": 0.0, "type": "electric_bike", "name": "e89c4d49625f84d2a08e025b382bad9c", "is_disabled": 0, "rental_uris": {"ios": "https://dc.lft.to/lastmile_qr_scan", "android": "https://dc.lft.to/lastmile_qr_scan"}, "is_reserved": 0}, {"lon": -77.01122066666667, "bike_id": "969d19ddf0e6621e4483cf7764dc086d", "lat": 38.86830666666667, "fusion_lon": 0.0, "fusion_lat": 0.0, "type": "electric_scooter", "name": "969d19ddf0e6621e4483cf7764dc086d", "is_disabled": 0, "rental_uris": {"ios": "https://dc.lft.to/lastmile_qr_scan", "android": "https://dc.lft.to/lastmile_qr_scan"}, "is_reserved": 0}, {"lon": -77.04891983333333, "bike_id": "d4717305f2837eabfc60e3d42e37b9ba", "lat": 38.892423, "fusion_lon": 0.0, "fusion_lat": 0.0, "type": "electric_scooter", "name": "d4717305f2837eabfc60e3d42e37b9ba", "is_disabled": 0, "rental_uris": {"ios": "https://dc.lft.to/lastmile_qr_scan", "android": "https://dc.lft.to/lastmile_qr_scan"}, "is_reserved": 0}, {"lon": -76.99864716666667, "bike_id": "e3c2ac9da8f73393a168ceb8b84f3e45", "lat": 38.9002605, "fusion_lon": 0.0, "fusion_lat": 0.0, "type": "electric_scooter", "name": "e3c2ac9da8f73393a168ceb8b84f3e45", "is_disabled": 0, "rental_uris": {"ios": "https://dc.lft.to/lastmile_qr_scan", "android": "https://dc.lft.to/lastmile_qr_scan"}, "is_reserved": 0}, {"lon": -77.05490766666667, "bike_id": "43bf23de0b919f6dd93ba46c2c21d9a3", "lat": 38.90843983333333, "fusion_lon": 0.0, "fusion_lat": 0.0, "type": "electric_scooter", "name": "43bf23de0b919f6dd93ba46c2c21d9a3", "is_disabled": 0, "rental_uris": {"ios": "https://dc.lft.to/lastmile_qr_scan", "android": "https://dc.lft.to/lastmile_qr_scan"}, "is_reserved": 0}, {"lon": -77.05496366666667, "bike_id": "f236f79eeb6cbb7ad6105bf8c26a2c9c", "lat": 38.89752416666666, "fusion_lon": 0.0, "fusion_lat": 0.0, "type": "electric_scooter", "name": "f236f79eeb6cbb7ad6105bf8c26a2c9c", "is_disabled": 0, "rental_uris": {"ios": "https://dc.lft.to/lastmile_qr_scan", "android": "https://dc.lft.to/lastmile_qr_scan"}, "is_reserved": 0}, {"lon": -77.04147666666667, "bike_id": "0a473b56a13891ec2745ee8629336341", "lat": 38.92994866666667, "fusion_lon": 0.0, "fusion_lat": 0.0, "type": "electric_scooter", "name": "0a473b56a13891ec2745ee8629336341", "is_disabled": 0, "rental_uris": {"ios": "https://dc.lft.to/lastmile_qr_scan", "android": "https://dc.lft.to/lastmile_qr_scan"}, "is_reserved": 0}, {"lon": -77.03491016666666, "bike_id": "82a37061355f2b98f198ec0f3e9365eb", "lat": 38.932728833333336, "fusion_lon": 0.0, "fusion_lat": 0.0, "type": "electric_scooter", "name": "82a37061355f2b98f198ec0f3e9365eb", "is_disabled": 0, "rental_uris": {"ios": "https://dc.lft.to/lastmile_qr_scan", "android": "https://dc.lft.to/lastmile_qr_scan"}, "is_reserved": 0}, {"lon": -76.94190916666666, "bike_id": "592189dd61e1cafe29d15bf5a2a1632d", "lat": 38.893136166666665, "fusion_lon": 0.0, "fusion_lat": 0.0, "type": "electric_bike", "name": "592189dd61e1cafe29d15bf5a2a1632d", "is_disabled": 0, "rental_uris": {"ios": "https://dc.lft.to/lastmile_qr_scan", "android": "https://dc.lft.to/lastmile_qr_scan"}, "is_reserved": 0}, {"lon": -76.98668616666667, "bike_id": "5411e3d7a49b71a5088fceb166e1bd77", "lat": 38.89964833333333, "fusion_lon": 0.0, "fusion_lat": 0.0, "type": "electric_bike", "name": "5411e3d7a49b71a5088fceb166e1bd77", "is_disabled": 0, "rental_uris": {"ios": "https://dc.lft.to/lastmile_qr_scan", "android": "https://dc.lft.to/lastmile_qr_scan"}, "is_reserved": 0}, {"lon": -77.03758266666667, "bike_id": "17d15699f3a955d954a9e98cb9209d0c", "lat": 38.91879216666667, "fusion_lon": 0.0, "fusion_lat": 0.0, "type": "electric_scooter", "name": "17d15699f3a955d954a9e98cb9209d0c", "is_disabled": 0, "rental_uris": {"ios": "https://dc.lft.to/lastmile_qr_scan", "android": "https://dc.lft.to/lastmile_qr_scan"}, "is_reserved": 0}, {"lon": -77.06518166666666, "bike_id": "46d13b34a3a93ab962b610ab21f71785", "lat": 38.90395433333333, "fusion_lon": 0.0, "fusion_lat": 0.0, "type": "electric_scooter", "name": "46d13b34a3a93ab962b610ab21f71785", "is_disabled": 0, "rental_uris": {"ios": "https://dc.lft.to/lastmile_qr_scan", "android": "https://dc.lft.to/lastmile_qr_scan"}, "is_reserved": 0}, {"lon": -77.03655266666667, "bike_id": "76df127885876a74ab4e41d41c01d565", "lat": 38.93629966666666, "fusion_lon": 0.0, "fusion_lat": 0.0, "type": "electric_scooter", "name": "76df127885876a74ab4e41d41c01d565", "is_disabled": 0, "rental_uris": {"ios": "https://dc.lft.to/lastmile_qr_scan", "android": "https://dc.lft.to/lastmile_qr_scan"}, "is_reserved": 0}, {"lon": -77.02203016666667, "bike_id": "df69e1d55244b2737f7543159c3ab3cb", "lat": 38.911358, "fusion_lon": 0.0, "fusion_lat": 0.0, "type": "electric_scooter", "name": "df69e1d55244b2737f7543159c3ab3cb", "is_disabled": 0, "rental_uris": {"ios": "https://dc.lft.to/lastmile_qr_scan", "android": "https://dc.lft.to/lastmile_qr_scan"}, "is_reserved": 0}, {"lon": -77.0250685, "bike_id": "9791dfab7a79b2d4b140b43ea1233ac5", "lat": 38.934157166666665, "fusion_lon": 0.0, "fusion_lat": 0.0, "type": "electric_bike", "name": "9791dfab7a79b2d4b140b43ea1233ac5", "is_disabled": 0, "rental_uris": {"ios": "https://dc.lft.to/lastmile_qr_scan", "android": "https://dc.lft.to/lastmile_qr_scan"}, "is_reserved": 0}, {"lon": -76.97478066666666, "bike_id": "3bae7f4b0167aba6f62aaa2cbda31fe7", "lat": 38.90348766666666, "fusion_lon": 0.0, "fusion_lat": 0.0, "type": "electric_scooter", "name": "3bae7f4b0167aba6f62aaa2cbda31fe7", "is_disabled": 0, "rental_uris": {"ios": "https://dc.lft.to/lastmile_qr_scan", "android": "https://dc.lft.to/lastmile_qr_scan"}, "is_reserved": 0}, {"lon": -77.036388, "bike_id": "ddb2e4cc495367030cb5e28ca40c0350", "lat": 38.90424683333333, "fusion_lon": 0.0, "fusion_lat": 0.0, "type": "electric_scooter", "name": "ddb2e4cc495367030cb5e28ca40c0350", "is_disabled": 0, "rental_uris": {"ios": "https://dc.lft.to/lastmile_qr_scan", "android": "https://dc.lft.to/lastmile_qr_scan"}, "is_reserved": 0}, {"lon": -76.99015416666667, "bike_id": "705c4ac42d4640cc828668244b230dfc", "lat": 38.866411166666666, "fusion_lon": 0.0, "fusion_lat": 0.0, "type": "electric_scooter", "name": "705c4ac42d4640cc828668244b230dfc", "is_disabled": 0, "rental_uris": {"ios": "https://dc.lft.to/lastmile_qr_scan", "android": "https://dc.lft.to/lastmile_qr_scan"}, "is_reserved": 0}, {"lon": -77.01103866666666, "bike_id": "19c2f7aa77922e56e8b8aec08f61c893", "lat": 38.90791866666667, "fusion_lon": 0.0, "fusion_lat": 0.0, "type": "electric_scooter", "name": "19c2f7aa77922e56e8b8aec08f61c893", "is_disabled": 0, "rental_uris": {"ios": "https://dc.lft.to/lastmile_qr_scan", "android": "https://dc.lft.to/lastmile_qr_scan"}, "is_reserved": 0}, {"lon": -76.99086716666666, "bike_id": "f7a0e66de19b3127e5c688a5f429fc37", "lat": 38.862371833333334, "fusion_lon": 0.0, "fusion_lat": 0.0, "type": "electric_bike", "name": "f7a0e66de19b3127e5c688a5f429fc37", "is_disabled": 0, "rental_uris": {"ios": "https://dc.lft.to/lastmile_qr_scan", "android": "https://dc.lft.to/lastmile_qr_scan"}, "is_reserved": 0}, {"lon": -76.99533166666667, "bike_id": "dde35260182358975ee371f2b12edb4f", "lat": 38.8837265, "fusion_lon": 0.0, "fusion_lat": 0.0, "type": "electric_scooter", "name": "dde35260182358975ee371f2b12edb4f", "is_disabled": 0, "rental_uris": {"ios": "https://dc.lft.to/lastmile_qr_scan", "android": "https://dc.lft.to/lastmile_qr_scan"}, "is_reserved": 0}, {"lon": -77.08070783333334, "bike_id": "36132b3cc6909f1223139f66e3f0cb54", "lat": 39.0528195, "fusion_lon": 0.0, "fusion_lat": 0.0, "type": "electric_bike", "name": "36132b3cc6909f1223139f66e3f0cb54", "is_disabled": 0, "rental_uris": {"ios": "https://dc.lft.to/lastmile_qr_scan", "android": "https://dc.lft.to/lastmile_qr_scan"}, "is_reserved": 0}, {"lon": -77.00683966666666, "bike_id": "a69eb5f3f164eb4c01bfe82472a6fabf", "lat": 38.900127, "fusion_lon": 0.0, "fusion_lat": 0.0, "type": "electric_scooter", "name": "a69eb5f3f164eb4c01bfe82472a6fabf", "is_disabled": 0, "rental_uris": {"ios": "https://dc.lft.to/lastmile_qr_scan", "android": "https://dc.lft.to/lastmile_qr_scan"}, "is_reserved": 0}, {"lon": -77.026351, "bike_id": "3fec4e2060b91a6ebca4eed5a6594da9", "lat": 38.9169505, "fusion_lon": 0.0, "fusion_lat": 0.0, "type": "electric_scooter", "name": "3fec4e2060b91a6ebca4eed5a6594da9", "is_disabled": 0, "rental_uris": {"ios": "https://dc.lft.to/lastmile_qr_scan", "android": "https://dc.lft.to/lastmile_qr_scan"}, "is_reserved": 0}, {"lon": -77.02073666666666, "bike_id": "4fd51383ec2b873e3b8eef2f4c8d4f32", "lat": 38.89725383333333, "fusion_lon": 0.0, "fusion_lat": 0.0, "type": "electric_scooter", "name": "4fd51383ec2b873e3b8eef2f4c8d4f32", "is_disabled": 0, "rental_uris": {"ios": "https://dc.lft.to/lastmile_qr_scan", "android": "https://dc.lft.to/lastmile_qr_scan"}, "is_reserved": 0}, {"lon": -77.05264566666666, "bike_id": "82f642803cfff4ab81b8f25c5e443f83", "lat": 38.8997465, "fusion_lon": 0.0, "fusion_lat": 0.0, "type": "electric_scooter", "name": "82f642803cfff4ab81b8f25c5e443f83", "is_disabled": 0, "rental_uris": {"ios": "https://dc.lft.to/lastmile_qr_scan", "android": "https://dc.lft.to/lastmile_qr_scan"}, "is_reserved": 0}, {"lon": -77.0261175, "bike_id": "893b3c00116d31cd48304c779a5719a8", "lat": 38.9298735, "fusion_lon": 0.0, "fusion_lat": 0.0, "type": "electric_scooter", "name": "893b3c00116d31cd48304c779a5719a8", "is_disabled": 0, "rental_uris": {"ios": "https://dc.lft.to/lastmile_qr_scan", "android": "https://dc.lft.to/lastmile_qr_scan"}, "is_reserved": 0}, {"lon": -77.02323783333334, "bike_id": "053157f8f873b363361f01127da0e6dd", "lat": 38.920855, "fusion_lon": 0.0, "fusion_lat": 0.0, "type": "electric_scooter", "name": "053157f8f873b363361f01127da0e6dd", "is_disabled": 0, "rental_uris": {"ios": "https://dc.lft.to/lastmile_qr_scan", "android": "https://dc.lft.to/lastmile_qr_scan"}, "is_reserved": 0}, {"lon": -76.9968025, "bike_id": "482e40437847cec86f979dd02905b33d", "lat": 38.88685133333333, "fusion_lon": 0.0, "fusion_lat": 0.0, "type": "electric_scooter", "name": "482e40437847cec86f979dd02905b33d", "is_disabled": 0, "rental_uris": {"ios": "https://dc.lft.to/lastmile_qr_scan", "android": "https://dc.lft.to/lastmile_qr_scan"}, "is_reserved": 0}, {"lon": -77.02799766666666, "bike_id": "18b9060a59afda8b42bc04a37b2eca73", "lat": 38.961465, "fusion_lon": 0.0, "fusion_lat": 0.0, "type": "electric_scooter", "name": "18b9060a59afda8b42bc04a37b2eca73", "is_disabled": 0, "rental_uris": {"ios": "https://dc.lft.to/lastmile_qr_scan", "android": "https://dc.lft.to/lastmile_qr_scan"}, "is_reserved": 0}, {"lon": -77.02478016666667, "bike_id": "2e025133d7dd05cfc2c74bc6bdb73665", "lat": 38.91994733333333, "fusion_lon": 0.0, "fusion_lat": 0.0, "type": "electric_scooter", "name": "2e025133d7dd05cfc2c74bc6bdb73665", "is_disabled": 0, "rental_uris": {"ios": "https://dc.lft.to/lastmile_qr_scan", "android": "https://dc.lft.to/lastmile_qr_scan"}, "is_reserved": 0}, {"lon": -77.02185, "bike_id": "9f8a5bd57bbbce260a151614eb79153d", "lat": 38.911288166666665, "fusion_lon": 0.0, "fusion_lat": 0.0, "type": "electric_scooter", "name": "9f8a5bd57bbbce260a151614eb79153d", "is_disabled": 0, "rental_uris": {"ios": "https://dc.lft.to/lastmile_qr_scan", "android": "https://dc.lft.to/lastmile_qr_scan"}, "is_reserved": 0}, {"lon": -77.05181416666667, "bike_id": "c6423e2047860ab621cfebcfd7fb25c8", "lat": 38.92428066666667, "fusion_lon": 0.0, "fusion_lat": 0.0, "type": "electric_scooter", "name": "c6423e2047860ab621cfebcfd7fb25c8", "is_disabled": 0, "rental_uris": {"ios": "https://dc.lft.to/lastmile_qr_scan", "android": "https://dc.lft.to/lastmile_qr_scan"}, "is_reserved": 0}, {"lon": -76.9652585, "bike_id": "7a038f01aca016f1750ba3fcbd2271a3", "lat": 38.87630866666667, "fusion_lon": 0.0, "fusion_lat": 0.0, "type": "electric_scooter", "name": "7a038f01aca016f1750ba3fcbd2271a3", "is_disabled": 0, "rental_uris": {"ios": "https://dc.lft.to/lastmile_qr_scan", "android": "https://dc.lft.to/lastmile_qr_scan"}, "is_reserved": 0}, {"lon": -77.0318655, "bike_id": "5a86e5d43ac28e2d7274d6df49259c56", "lat": 38.93608233333333, "fusion_lon": 0.0, "fusion_lat": 0.0, "type": "electric_scooter", "name": "5a86e5d43ac28e2d7274d6df49259c56", "is_disabled": 0, "rental_uris": {"ios": "https://dc.lft.to/lastmile_qr_scan", "android": "https://dc.lft.to/lastmile_qr_scan"}, "is_reserved": 0}, {"lon": -77.04237, "bike_id": "0e53ba4a6eb8b86b823a2e7961f2a27e", "lat": 38.9163535, "fusion_lon": 0.0, "fusion_lat": 0.0, "type": "electric_scooter", "name": "0e53ba4a6eb8b86b823a2e7961f2a27e", "is_disabled": 0, "rental_uris": {"ios": "https://dc.lft.to/lastmile_qr_scan", "android": "https://dc.lft.to/lastmile_qr_scan"}, "is_reserved": 0}, {"lon": -76.98836383333334, "bike_id": "af53d923e92bd5e6df1eaa2cd9596241", "lat": 38.90075983333333, "fusion_lon": 0.0, "fusion_lat": 0.0, "type": "electric_scooter", "name": "af53d923e92bd5e6df1eaa2cd9596241", "is_disabled": 0, "rental_uris": {"ios": "https://dc.lft.to/lastmile_qr_scan", "android": "https://dc.lft.to/lastmile_qr_scan"}, "is_reserved": 0}, {"lon": -76.983773, "bike_id": "53611e69b44a7ecf6a5d4f29ce57fa9e", "lat": 38.89143966666666, "fusion_lon": 0.0, "fusion_lat": 0.0, "type": "electric_scooter", "name": "53611e69b44a7ecf6a5d4f29ce57fa9e", "is_disabled": 0, "rental_uris": {"ios": "https://dc.lft.to/lastmile_qr_scan", "android": "https://dc.lft.to/lastmile_qr_scan"}, "is_reserved": 0}, {"lon": -77.0610405, "bike_id": "d4e5d492583cb1f7ae64e7429031efca", "lat": 38.94365666666667, "fusion_lon": 0.0, "fusion_lat": 0.0, "type": "electric_scooter", "name": "d4e5d492583cb1f7ae64e7429031efca", "is_disabled": 0, "rental_uris": {"ios": "https://dc.lft.to/lastmile_qr_scan", "android": "https://dc.lft.to/lastmile_qr_scan"}, "is_reserved": 0}, {"lon": -77.02566233333333, "bike_id": "48f306a716974dfc6d93de062f2b0fd7", "lat": 38.94181233333333, "fusion_lon": 0.0, "fusion_lat": 0.0, "type": "electric_scooter", "name": "48f306a716974dfc6d93de062f2b0fd7", "is_disabled": 0, "rental_uris": {"ios": "https://dc.lft.to/lastmile_qr_scan", "android": "https://dc.lft.to/lastmile_qr_scan"}, "is_reserved": 0}, {"lon": -77.057953, "bike_id": "f677d4dff08ec140a5b6d16ef846d26c", "lat": 38.934784, "fusion_lon": 0.0, "fusion_lat": 0.0, "type": "electric_scooter", "name": "f677d4dff08ec140a5b6d16ef846d26c", "is_disabled": 0, "rental_uris": {"ios": "https://dc.lft.to/lastmile_qr_scan", "android": "https://dc.lft.to/lastmile_qr_scan"}, "is_reserved": 0}, {"lon": -77.02583416666667, "bike_id": "1bc42a864dfb41db202f1e599c137f4d", "lat": 38.939317, "fusion_lon": 0.0, "fusion_lat": 0.0, "type": "electric_scooter", "name": "1bc42a864dfb41db202f1e599c137f4d", "is_disabled": 0, "rental_uris": {"ios": "https://dc.lft.to/lastmile_qr_scan", "android": "https://dc.lft.to/lastmile_qr_scan"}, "is_reserved": 0}, {"lon": -77.0178755, "bike_id": "dfcc08a649b6cf2a6bb290b1a3003fb9", "lat": 38.903884, "fusion_lon": 0.0, "fusion_lat": 0.0, "type": "electric_scooter", "name": "dfcc08a649b6cf2a6bb290b1a3003fb9", "is_disabled": 0, "rental_uris": {"ios": "https://dc.lft.to/lastmile_qr_scan", "android": "https://dc.lft.to/lastmile_qr_scan"}, "is_reserved": 0}, {"lon": -77.02470116666667, "bike_id": "c0aa029992bd9f1df147f5888415831c", "lat": 38.91698816666667, "fusion_lon": 0.0, "fusion_lat": 0.0, "type": "electric_scooter", "name": "c0aa029992bd9f1df147f5888415831c", "is_disabled": 0, "rental_uris": {"ios": "https://dc.lft.to/lastmile_qr_scan", "android": "https://dc.lft.to/lastmile_qr_scan"}, "is_reserved": 0}, {"lon": -76.98570816666667, "bike_id": "f757f7b0eeb3a4f95c955741d75b08e3", "lat": 38.896167, "fusion_lon": 0.0, "fusion_lat": 0.0, "type": "electric_scooter", "name": "f757f7b0eeb3a4f95c955741d75b08e3", "is_disabled": 0, "rental_uris": {"ios": "https://dc.lft.to/lastmile_qr_scan", "android": "https://dc.lft.to/lastmile_qr_scan"}, "is_reserved": 0}, {"lon": -77.07006433333333, "bike_id": "07da015eea73fd625e47c49a649d3945", "lat": 38.95852583333333, "fusion_lon": 0.0, "fusion_lat": 0.0, "type": "electric_scooter", "name": "07da015eea73fd625e47c49a649d3945", "is_disabled": 0, "rental_uris": {"ios": "https://dc.lft.to/lastmile_qr_scan", "android": "https://dc.lft.to/lastmile_qr_scan"}, "is_reserved": 0}, {"lon": -77.03268866666667, "bike_id": "e067d5f334b32fd5d6dba65ad80d4a08", "lat": 38.90146983333333, "fusion_lon": 0.0, "fusion_lat": 0.0, "type": "electric_scooter", "name": "e067d5f334b32fd5d6dba65ad80d4a08", "is_disabled": 0, "rental_uris": {"ios": "https://dc.lft.to/lastmile_qr_scan", "android": "https://dc.lft.to/lastmile_qr_scan"}, "is_reserved": 0}, {"lon": -77.0057825, "bike_id": "e05f70ad08edf649a07e995da4274c41", "lat": 38.835922, "fusion_lon": 0.0, "fusion_lat": 0.0, "type": "electric_scooter", "name": "e05f70ad08edf649a07e995da4274c41", "is_disabled": 0, "rental_uris": {"ios": "https://dc.lft.to/lastmile_qr_scan", "android": "https://dc.lft.to/lastmile_qr_scan"}, "is_reserved": 0}, {"lon": -76.99379466666667, "bike_id": "d341a019b5020719b3d24cff9803a59f", "lat": 38.971848666666666, "fusion_lon": 0.0, "fusion_lat": 0.0, "type": "electric_bike", "name": "d341a019b5020719b3d24cff9803a59f", "is_disabled": 0, "rental_uris": {"ios": "https://dc.lft.to/lastmile_qr_scan", "android": "https://dc.lft.to/lastmile_qr_scan"}, "is_reserved": 0}, {"lon": -77.0255675, "bike_id": "005f471085a8f2ad47d8a58447bba299", "lat": 38.9168345, "fusion_lon": 0.0, "fusion_lat": 0.0, "type": "electric_scooter", "name": "005f471085a8f2ad47d8a58447bba299", "is_disabled": 0, "rental_uris": {"ios": "https://dc.lft.to/lastmile_qr_scan", "android": "https://dc.lft.to/lastmile_qr_scan"}, "is_reserved": 0}, {"lon": -77.02177816666666, "bike_id": "6cfbe1969d1aab66f2f3bf5443791697", "lat": 38.909623833333335, "fusion_lon": 0.0, "fusion_lat": 0.0, "type": "electric_scooter", "name": "6cfbe1969d1aab66f2f3bf5443791697", "is_disabled": 0, "rental_uris": {"ios": "https://dc.lft.to/lastmile_qr_scan", "android": "https://dc.lft.to/lastmile_qr_scan"}, "is_reserved": 0}, {"lon": -77.02493583333333, "bike_id": "ec1baf8c8a1477fa3bae0443d3a86b13", "lat": 38.941852833333336, "fusion_lon": 0.0, "fusion_lat": 0.0, "type": "electric_scooter", "name": "ec1baf8c8a1477fa3bae0443d3a86b13", "is_disabled": 0, "rental_uris": {"ios": "https://dc.lft.to/lastmile_qr_scan", "android": "https://dc.lft.to/lastmile_qr_scan"}, "is_reserved": 0}, {"lon": -76.98345533333334, "bike_id": "526634896b79772bac0ef957067a7739", "lat": 38.9029215, "fusion_lon": 0.0, "fusion_lat": 0.0, "type": "electric_scooter", "name": "526634896b79772bac0ef957067a7739", "is_disabled": 0, "rental_uris": {"ios": "https://dc.lft.to/lastmile_qr_scan", "android": "https://dc.lft.to/lastmile_qr_scan"}, "is_reserved": 0}, {"lon": -77.08070216666667, "bike_id": "76d636bd49578533a20fe8aea26a3ed3", "lat": 38.96313266666667, "fusion_lon": 0.0, "fusion_lat": 0.0, "type": "electric_bike", "name": "76d636bd49578533a20fe8aea26a3ed3", "is_disabled": 0, "rental_uris": {"ios": "https://dc.lft.to/lastmile_qr_scan", "android": "https://dc.lft.to/lastmile_qr_scan"}, "is_reserved": 0}, {"lon": -77.03958916666667, "bike_id": "858398da60889f404445106b55b7283c", "lat": 38.90065383333334, "fusion_lon": 0.0, "fusion_lat": 0.0, "type": "electric_scooter", "name": "858398da60889f404445106b55b7283c", "is_disabled": 0, "rental_uris": {"ios": "https://dc.lft.to/lastmile_qr_scan", "android": "https://dc.lft.to/lastmile_qr_scan"}, "is_reserved": 0}, {"lon": -77.05253033333334, "bike_id": "576ba57aa771abd2ed9027d426da2e98", "lat": 38.9237765, "fusion_lon": 0.0, "fusion_lat": 0.0, "type": "electric_scooter", "name": "576ba57aa771abd2ed9027d426da2e98", "is_disabled": 0, "rental_uris": {"ios": "https://dc.lft.to/lastmile_qr_scan", "android": "https://dc.lft.to/lastmile_qr_scan"}, "is_reserved": 0}, {"lon": -77.02413, "bike_id": "2ddef7f30844cf70b4002ef296b918c7", "lat": 38.908633, "fusion_lon": 0.0, "fusion_lat": 0.0, "type": "electric_bike", "name": "2ddef7f30844cf70b4002ef296b918c7", "is_disabled": 0, "rental_uris": {"ios": "https://dc.lft.to/lastmile_qr_scan", "android": "https://dc.lft.to/lastmile_qr_scan"}, "is_reserved": 0}, {"lon": -77.038996, "bike_id": "e96f2423a7c05ae71042be3e02ceedaf", "lat": 38.92514583333333, "fusion_lon": 0.0, "fusion_lat": 0.0, "type": "electric_scooter", "name": "e96f2423a7c05ae71042be3e02ceedaf", "is_disabled": 0, "rental_uris": {"ios": "https://dc.lft.to/lastmile_qr_scan", "android": "https://dc.lft.to/lastmile_qr_scan"}, "is_reserved": 0}, {"lon": -77.04684433333334, "bike_id": "d16dbbf48afa9f27b3e9f1724611d33b", "lat": 38.90866033333333, "fusion_lon": 0.0, "fusion_lat": 0.0, "type": "electric_scooter", "name": "d16dbbf48afa9f27b3e9f1724611d33b", "is_disabled": 0, "rental_uris": {"ios": "https://dc.lft.to/lastmile_qr_scan", "android": "https://dc.lft.to/lastmile_qr_scan"}, "is_reserved": 0}, {"lon": -76.94881033333333, "bike_id": "a5af3c4da1d29adfe579e6d27401c0de", "lat": 38.8954655, "fusion_lon": 0.0, "fusion_lat": 0.0, "type": "electric_scooter", "name": "a5af3c4da1d29adfe579e6d27401c0de", "is_disabled": 0, "rental_uris": {"ios": "https://dc.lft.to/lastmile_qr_scan", "android": "https://dc.lft.to/lastmile_qr_scan"}, "is_reserved": 0}, {"lon": -77.05222866666666, "bike_id": "9e5fc548791a830a97644d8aded773db", "lat": 38.9243335, "fusion_lon": 0.0, "fusion_lat": 0.0, "type": "electric_scooter", "name": "9e5fc548791a830a97644d8aded773db", "is_disabled": 0, "rental_uris": {"ios": "https://dc.lft.to/lastmile_qr_scan", "android": "https://dc.lft.to/lastmile_qr_scan"}, "is_reserved": 0}, {"lon": -77.05934616666667, "bike_id": "7271a6753cbbff9b392ec45317ae4710", "lat": 38.86246216666667, "fusion_lon": 0.0, "fusion_lat": 0.0, "type": "electric_scooter", "name": "7271a6753cbbff9b392ec45317ae4710", "is_disabled": 0, "rental_uris": {"ios": "https://dc.lft.to/lastmile_qr_scan", "android": "https://dc.lft.to/lastmile_qr_scan"}, "is_reserved": 0}, {"lon": -77.02978666666667, "bike_id": "fa8433124624333c1825d3c881450ad0", "lat": 38.9029485, "fusion_lon": 0.0, "fusion_lat": 0.0, "type": "electric_scooter", "name": "fa8433124624333c1825d3c881450ad0", "is_disabled": 0, "rental_uris": {"ios": "https://dc.lft.to/lastmile_qr_scan", "android": "https://dc.lft.to/lastmile_qr_scan"}, "is_reserved": 0}, {"lon": -77.0084535, "bike_id": "4070a84d866a0c90f1716bc01b00f45c", "lat": 38.9162485, "fusion_lon": 0.0, "fusion_lat": 0.0, "type": "electric_scooter", "name": "4070a84d866a0c90f1716bc01b00f45c", "is_disabled": 0, "rental_uris": {"ios": "https://dc.lft.to/lastmile_qr_scan", "android": "https://dc.lft.to/lastmile_qr_scan"}, "is_reserved": 0}, {"lon": -77.001999, "bike_id": "55d7d164740b2284e9bcea85c6dcb1a7", "lat": 38.902408333333334, "fusion_lon": 0.0, "fusion_lat": 0.0, "type": "electric_scooter", "name": "55d7d164740b2284e9bcea85c6dcb1a7", "is_disabled": 0, "rental_uris": {"ios": "https://dc.lft.to/lastmile_qr_scan", "android": "https://dc.lft.to/lastmile_qr_scan"}, "is_reserved": 0}, {"lon": -77.042512, "bike_id": "5e57a0b9692933154c22ff87f7085847", "lat": 38.92253616666667, "fusion_lon": 0.0, "fusion_lat": 0.0, "type": "electric_scooter", "name": "5e57a0b9692933154c22ff87f7085847", "is_disabled": 0, "rental_uris": {"ios": "https://dc.lft.to/lastmile_qr_scan", "android": "https://dc.lft.to/lastmile_qr_scan"}, "is_reserved": 0}, {"lon": -76.98898983333333, "bike_id": "9752de7507524122f4aac2c3aa3026c1", "lat": 38.913462833333334, "fusion_lon": 0.0, "fusion_lat": 0.0, "type": "electric_scooter", "name": "9752de7507524122f4aac2c3aa3026c1", "is_disabled": 0, "rental_uris": {"ios": "https://dc.lft.to/lastmile_qr_scan", "android": "https://dc.lft.to/lastmile_qr_scan"}, "is_reserved": 0}, {"lon": -77.0415775, "bike_id": "493a3c54e6c2f26e45e63a4895ce1036", "lat": 38.90469, "fusion_lon": 0.0, "fusion_lat": 0.0, "type": "electric_scooter", "name": "493a3c54e6c2f26e45e63a4895ce1036", "is_disabled": 0, "rental_uris": {"ios": "https://dc.lft.to/lastmile_qr_scan", "android": "https://dc.lft.to/lastmile_qr_scan"}, "is_reserved": 0}, {"lon": -77.03427533333333, "bike_id": "88e745d62f878651ecf9203cdce41201", "lat": 38.919304, "fusion_lon": 0.0, "fusion_lat": 0.0, "type": "electric_scooter", "name": "88e745d62f878651ecf9203cdce41201", "is_disabled": 0, "rental_uris": {"ios": "https://dc.lft.to/lastmile_qr_scan", "android": "https://dc.lft.to/lastmile_qr_scan"}, "is_reserved": 0}, {"lon": -77.020498, "bike_id": "a19cf50d7d3b76f4d3d4e007a558e295", "lat": 38.91558583333333, "fusion_lon": 0.0, "fusion_lat": 0.0, "type": "electric_scooter", "name": "a19cf50d7d3b76f4d3d4e007a558e295", "is_disabled": 0, "rental_uris": {"ios": "https://dc.lft.to/lastmile_qr_scan", "android": "https://dc.lft.to/lastmile_qr_scan"}, "is_reserved": 0}, {"lon": -77.02934483333334, "bike_id": "074cf4d3b94dc2bf82a1c2366ba6d041", "lat": 38.9208145, "fusion_lon": 0.0, "fusion_lat": 0.0, "type": "electric_scooter", "name": "074cf4d3b94dc2bf82a1c2366ba6d041", "is_disabled": 0, "rental_uris": {"ios": "https://dc.lft.to/lastmile_qr_scan", "android": "https://dc.lft.to/lastmile_qr_scan"}, "is_reserved": 0}, {"lon": -77.00333383333333, "bike_id": "d724aaf3bd2a05d474888b197f8c18a6", "lat": 38.8973005, "fusion_lon": 0.0, "fusion_lat": 0.0, "type": "electric_scooter", "name": "d724aaf3bd2a05d474888b197f8c18a6", "is_disabled": 0, "rental_uris": {"ios": "https://dc.lft.to/lastmile_qr_scan", "android": "https://dc.lft.to/lastmile_qr_scan"}, "is_reserved": 0}, {"lon": -77.03327316666666, "bike_id": "41f2cd93b2880cfded16fd94a51169fe", "lat": 38.91565816666667, "fusion_lon": 0.0, "fusion_lat": 0.0, "type": "electric_scooter", "name": "41f2cd93b2880cfded16fd94a51169fe", "is_disabled": 0, "rental_uris": {"ios": "https://dc.lft.to/lastmile_qr_scan", "android": "https://dc.lft.to/lastmile_qr_scan"}, "is_reserved": 0}, {"lon": -77.06831883333334, "bike_id": "25d4ffa667a8bd18017e9ef26ea7c743", "lat": 38.8056775, "fusion_lon": 0.0, "fusion_lat": 0.0, "type": "electric_bike", "name": "25d4ffa667a8bd18017e9ef26ea7c743", "is_disabled": 0, "rental_uris": {"ios": "https://dc.lft.to/lastmile_qr_scan", "android": "https://dc.lft.to/lastmile_qr_scan"}, "is_reserved": 0}, {"lon": -76.990061, "bike_id": "afc10de40b25d8c0b809ec9f13f968b3", "lat": 38.865072, "fusion_lon": 0.0, "fusion_lat": 0.0, "type": "electric_scooter", "name": "afc10de40b25d8c0b809ec9f13f968b3", "is_disabled": 0, "rental_uris": {"ios": "https://dc.lft.to/lastmile_qr_scan", "android": "https://dc.lft.to/lastmile_qr_scan"}, "is_reserved": 0}, {"lon": -77.05237133333334, "bike_id": "0ed8464e7cd842a79a4e1b204d248418", "lat": 38.92342133333333, "fusion_lon": 0.0, "fusion_lat": 0.0, "type": "electric_scooter", "name": "0ed8464e7cd842a79a4e1b204d248418", "is_disabled": 0, "rental_uris": {"ios": "https://dc.lft.to/lastmile_qr_scan", "android": "https://dc.lft.to/lastmile_qr_scan"}, "is_reserved": 0}, {"lon": -77.02764466666666, "bike_id": "9d68fd9024a64e3ffb8114892d54218f", "lat": 38.95427083333333, "fusion_lon": 0.0, "fusion_lat": 0.0, "type": "electric_scooter", "name": "9d68fd9024a64e3ffb8114892d54218f", "is_disabled": 0, "rental_uris": {"ios": "https://dc.lft.to/lastmile_qr_scan", "android": "https://dc.lft.to/lastmile_qr_scan"}, "is_reserved": 0}, {"lon": -77.03262433333333, "bike_id": "396227e646ddb454b9de6e6a3b3d720d", "lat": 38.9372195, "fusion_lon": 0.0, "fusion_lat": 0.0, "type": "electric_scooter", "name": "396227e646ddb454b9de6e6a3b3d720d", "is_disabled": 0, "rental_uris": {"ios": "https://dc.lft.to/lastmile_qr_scan", "android": "https://dc.lft.to/lastmile_qr_scan"}, "is_reserved": 0}, {"lon": -76.98758933333333, "bike_id": "935cee79b0a246992cf446fc94d0253f", "lat": 38.85768616666667, "fusion_lon": 0.0, "fusion_lat": 0.0, "type": "electric_bike", "name": "935cee79b0a246992cf446fc94d0253f", "is_disabled": 0, "rental_uris": {"ios": "https://dc.lft.to/lastmile_qr_scan", "android": "https://dc.lft.to/lastmile_qr_scan"}, "is_reserved": 0}, {"lon": -77.03878483333334, "bike_id": "55a0c26f50ee6a4e16c9f34df085643c", "lat": 38.92316266666667, "fusion_lon": 0.0, "fusion_lat": 0.0, "type": "electric_scooter", "name": "55a0c26f50ee6a4e16c9f34df085643c", "is_disabled": 0, "rental_uris": {"ios": "https://dc.lft.to/lastmile_qr_scan", "android": "https://dc.lft.to/lastmile_qr_scan"}, "is_reserved": 0}, {"lon": -77.04350933333333, "bike_id": "cf29d7aa0b59c52ac7c5759656206208", "lat": 38.91057933333333, "fusion_lon": 0.0, "fusion_lat": 0.0, "type": "electric_scooter", "name": "cf29d7aa0b59c52ac7c5759656206208", "is_disabled": 0, "rental_uris": {"ios": "https://dc.lft.to/lastmile_qr_scan", "android": "https://dc.lft.to/lastmile_qr_scan"}, "is_reserved": 0}, {"lon": -76.98085433333334, "bike_id": "fa15873afae9abdf58191d1d16042391", "lat": 38.90706616666667, "fusion_lon": 0.0, "fusion_lat": 0.0, "type": "electric_scooter", "name": "fa15873afae9abdf58191d1d16042391", "is_disabled": 0, "rental_uris": {"ios": "https://dc.lft.to/lastmile_qr_scan", "android": "https://dc.lft.to/lastmile_qr_scan"}, "is_reserved": 0}, {"lon": -77.00536516666666, "bike_id": "42e2875e6042d7e9e60151b7ff91bcfb", "lat": 38.874557, "fusion_lon": 0.0, "fusion_lat": 0.0, "type": "electric_scooter", "name": "42e2875e6042d7e9e60151b7ff91bcfb", "is_disabled": 0, "rental_uris": {"ios": "https://dc.lft.to/lastmile_qr_scan", "android": "https://dc.lft.to/lastmile_qr_scan"}, "is_reserved": 0}, {"lon": -77.038702, "bike_id": "d1b6e9167a078bd733c905cab6a59f9a", "lat": 38.92012866666666, "fusion_lon": 0.0, "fusion_lat": 0.0, "type": "electric_scooter", "name": "d1b6e9167a078bd733c905cab6a59f9a", "is_disabled": 0, "rental_uris": {"ios": "https://dc.lft.to/lastmile_qr_scan", "android": "https://dc.lft.to/lastmile_qr_scan"}, "is_reserved": 0}, {"lon": -76.99367966666667, "bike_id": "52fc2c8b8ad405982e97d4a21e6e91e1", "lat": 38.94025766666667, "fusion_lon": 0.0, "fusion_lat": 0.0, "type": "electric_scooter", "name": "52fc2c8b8ad405982e97d4a21e6e91e1", "is_disabled": 0, "rental_uris": {"ios": "https://dc.lft.to/lastmile_qr_scan", "android": "https://dc.lft.to/lastmile_qr_scan"}, "is_reserved": 0}, {"lon": -76.94503483333334, "bike_id": "0a18b1aed950af42e0ef660c88d96e32", "lat": 38.864855666666664, "fusion_lon": 0.0, "fusion_lat": 0.0, "type": "electric_bike", "name": "0a18b1aed950af42e0ef660c88d96e32", "is_disabled": 0, "rental_uris": {"ios": "https://dc.lft.to/lastmile_qr_scan", "android": "https://dc.lft.to/lastmile_qr_scan"}, "is_reserved": 0}, {"lon": -77.03661083333333, "bike_id": "96ec1488f068c7d3c5f660a8cadb4e04", "lat": 38.9298645, "fusion_lon": 0.0, "fusion_lat": 0.0, "type": "electric_scooter", "name": "96ec1488f068c7d3c5f660a8cadb4e04", "is_disabled": 0, "rental_uris": {"ios": "https://dc.lft.to/lastmile_qr_scan", "android": "https://dc.lft.to/lastmile_qr_scan"}, "is_reserved": 0}, {"lon": -77.05138833333334, "bike_id": "0b6bfc833f34c87fd71b4bf7d7daec55", "lat": 38.898649166666665, "fusion_lon": 0.0, "fusion_lat": 0.0, "type": "electric_scooter", "name": "0b6bfc833f34c87fd71b4bf7d7daec55", "is_disabled": 0, "rental_uris": {"ios": "https://dc.lft.to/lastmile_qr_scan", "android": "https://dc.lft.to/lastmile_qr_scan"}, "is_reserved": 0}, {"lon": -76.9985245, "bike_id": "b90ef27d5e1cc2c4807c5780d5fe12c9", "lat": 38.90105116666667, "fusion_lon": 0.0, "fusion_lat": 0.0, "type": "electric_scooter", "name": "b90ef27d5e1cc2c4807c5780d5fe12c9", "is_disabled": 0, "rental_uris": {"ios": "https://dc.lft.to/lastmile_qr_scan", "android": "https://dc.lft.to/lastmile_qr_scan"}, "is_reserved": 0}, {"lon": -77.04981633333334, "bike_id": "5185687b7726981d590e37aa77b0c1f8", "lat": 39.06296533333333, "fusion_lon": 0.0, "fusion_lat": 0.0, "type": "electric_bike", "name": "5185687b7726981d590e37aa77b0c1f8", "is_disabled": 0, "rental_uris": {"ios": "https://dc.lft.to/lastmile_qr_scan", "android": "https://dc.lft.to/lastmile_qr_scan"}, "is_reserved": 0}, {"lon": -76.99015616666667, "bike_id": "a66fb53c0b57751d7a285e20db352d72", "lat": 38.946001833333334, "fusion_lon": 0.0, "fusion_lat": 0.0, "type": "electric_scooter", "name": "a66fb53c0b57751d7a285e20db352d72", "is_disabled": 0, "rental_uris": {"ios": "https://dc.lft.to/lastmile_qr_scan", "android": "https://dc.lft.to/lastmile_qr_scan"}, "is_reserved": 0}, {"lon": -77.002136, "bike_id": "c12b40fb61a9cd17c0d8bc09e947a656", "lat": 38.8812895, "fusion_lon": 0.0, "fusion_lat": 0.0, "type": "electric_scooter", "name": "c12b40fb61a9cd17c0d8bc09e947a656", "is_disabled": 0, "rental_uris": {"ios": "https://dc.lft.to/lastmile_qr_scan", "android": "https://dc.lft.to/lastmile_qr_scan"}, "is_reserved": 0}, {"lon": -77.08321683333334, "bike_id": "0f21ac7df268fe5c1e7a98ad990a84d5", "lat": 38.9298545, "fusion_lon": 0.0, "fusion_lat": 0.0, "type": "electric_scooter", "name": "0f21ac7df268fe5c1e7a98ad990a84d5", "is_disabled": 0, "rental_uris": {"ios": "https://dc.lft.to/lastmile_qr_scan", "android": "https://dc.lft.to/lastmile_qr_scan"}, "is_reserved": 0}, {"lon": -76.93353483333334, "bike_id": "ba5875bcfe6941d1fb295790d9cf7b1d", "lat": 38.899103, "fusion_lon": 0.0, "fusion_lat": 0.0, "type": "electric_scooter", "name": "ba5875bcfe6941d1fb295790d9cf7b1d", "is_disabled": 0, "rental_uris": {"ios": "https://dc.lft.to/lastmile_qr_scan", "android": "https://dc.lft.to/lastmile_qr_scan"}, "is_reserved": 0}, {"lon": -77.04629233333333, "bike_id": "854a4db235f9596b8bc06f88ea3bc463", "lat": 38.919145666666665, "fusion_lon": 0.0, "fusion_lat": 0.0, "type": "electric_scooter", "name": "854a4db235f9596b8bc06f88ea3bc463", "is_disabled": 0, "rental_uris": {"ios": "https://dc.lft.to/lastmile_qr_scan", "android": "https://dc.lft.to/lastmile_qr_scan"}, "is_reserved": 0}, {"lon": -77.04046066666666, "bike_id": "8f2056be6b42c84a2b352704c8b01aa7", "lat": 38.91863566666667, "fusion_lon": 0.0, "fusion_lat": 0.0, "type": "electric_scooter", "name": "8f2056be6b42c84a2b352704c8b01aa7", "is_disabled": 0, "rental_uris": {"ios": "https://dc.lft.to/lastmile_qr_scan", "android": "https://dc.lft.to/lastmile_qr_scan"}, "is_reserved": 0}, {"lon": -77.053475, "bike_id": "bbc9fa7a1c1c6c7673f4606f3ca92efa", "lat": 38.927086, "fusion_lon": 0.0, "fusion_lat": 0.0, "type": "electric_scooter", "name": "bbc9fa7a1c1c6c7673f4606f3ca92efa", "is_disabled": 0, "rental_uris": {"ios": "https://dc.lft.to/lastmile_qr_scan", "android": "https://dc.lft.to/lastmile_qr_scan"}, "is_reserved": 0}, {"lon": -76.9819665, "bike_id": "2ee19c9b95c3e1c87f918372ee7bbdb7", "lat": 38.92605866666667, "fusion_lon": 0.0, "fusion_lat": 0.0, "type": "electric_scooter", "name": "2ee19c9b95c3e1c87f918372ee7bbdb7", "is_disabled": 0, "rental_uris": {"ios": "https://dc.lft.to/lastmile_qr_scan", "android": "https://dc.lft.to/lastmile_qr_scan"}, "is_reserved": 0}, {"lon": -76.98292383333333, "bike_id": "ab97b07459b40224b46a56163ecf8b49", "lat": 38.90049166666667, "fusion_lon": 0.0, "fusion_lat": 0.0, "type": "electric_scooter", "name": "ab97b07459b40224b46a56163ecf8b49", "is_disabled": 0, "rental_uris": {"ios": "https://dc.lft.to/lastmile_qr_scan", "android": "https://dc.lft.to/lastmile_qr_scan"}, "is_reserved": 0}, {"lon": -77.02354466666667, "bike_id": "cfc9ffa78aa7bb51c06b19de9fdcb1bc", "lat": 38.92061483333333, "fusion_lon": 0.0, "fusion_lat": 0.0, "type": "electric_scooter", "name": "cfc9ffa78aa7bb51c06b19de9fdcb1bc", "is_disabled": 0, "rental_uris": {"ios": "https://dc.lft.to/lastmile_qr_scan", "android": "https://dc.lft.to/lastmile_qr_scan"}, "is_reserved": 0}, {"lon": -77.0049265, "bike_id": "09a1fed10aeb5a49ca55b07529fc8932", "lat": 38.8969605, "fusion_lon": 0.0, "fusion_lat": 0.0, "type": "electric_scooter", "name": "09a1fed10aeb5a49ca55b07529fc8932", "is_disabled": 0, "rental_uris": {"ios": "https://dc.lft.to/lastmile_qr_scan", "android": "https://dc.lft.to/lastmile_qr_scan"}, "is_reserved": 0}, {"lon": -76.987503, "bike_id": "2bdbb03d332bc90df8ea39b799409386", "lat": 38.90026366666667, "fusion_lon": 0.0, "fusion_lat": 0.0, "type": "electric_scooter", "name": "2bdbb03d332bc90df8ea39b799409386", "is_disabled": 0, "rental_uris": {"ios": "https://dc.lft.to/lastmile_qr_scan", "android": "https://dc.lft.to/lastmile_qr_scan"}, "is_reserved": 0}, {"lon": -77.04495866666667, "bike_id": "bf72a35e8410b0dca875ed384581baac", "lat": 38.915955333333336, "fusion_lon": 0.0, "fusion_lat": 0.0, "type": "electric_scooter", "name": "bf72a35e8410b0dca875ed384581baac", "is_disabled": 0, "rental_uris": {"ios": "https://dc.lft.to/lastmile_qr_scan", "android": "https://dc.lft.to/lastmile_qr_scan"}, "is_reserved": 0}, {"lon": -76.92739166666667, "bike_id": "6ddd224dfb725c4a4bb00c4f4e9a8029", "lat": 38.8896655, "fusion_lon": 0.0, "fusion_lat": 0.0, "type": "electric_scooter", "name": "6ddd224dfb725c4a4bb00c4f4e9a8029", "is_disabled": 0, "rental_uris": {"ios": "https://dc.lft.to/lastmile_qr_scan", "android": "https://dc.lft.to/lastmile_qr_scan"}, "is_reserved": 0}, {"lon": -77.12651666666666, "bike_id": "ab27dee54b706cea06ffc96b06177af0", "lat": 38.81518166666667, "fusion_lon": 0.0, "fusion_lat": 0.0, "type": "electric_bike", "name": "ab27dee54b706cea06ffc96b06177af0", "is_disabled": 0, "rental_uris": {"ios": "https://dc.lft.to/lastmile_qr_scan", "android": "https://dc.lft.to/lastmile_qr_scan"}, "is_reserved": 0}, {"lon": -77.0445375, "bike_id": "633e2a54b5d226073087083b0a695d93", "lat": 38.91885083333333, "fusion_lon": 0.0, "fusion_lat": 0.0, "type": "electric_scooter", "name": "633e2a54b5d226073087083b0a695d93", "is_disabled": 0, "rental_uris": {"ios": "https://dc.lft.to/lastmile_qr_scan", "android": "https://dc.lft.to/lastmile_qr_scan"}, "is_reserved": 0}, {"lon": -77.03541633333333, "bike_id": "a979df445058dfc73cebd44f6d504ad3", "lat": 38.92574466666667, "fusion_lon": 0.0, "fusion_lat": 0.0, "type": "electric_scooter", "name": "a979df445058dfc73cebd44f6d504ad3", "is_disabled": 0, "rental_uris": {"ios": "https://dc.lft.to/lastmile_qr_scan", "android": "https://dc.lft.to/lastmile_qr_scan"}, "is_reserved": 0}, {"lon": -77.03263916666667, "bike_id": "2e7b8ec215b689d43990becc56c79bf2", "lat": 38.93774766666667, "fusion_lon": 0.0, "fusion_lat": 0.0, "type": "electric_scooter", "name": "2e7b8ec215b689d43990becc56c79bf2", "is_disabled": 0, "rental_uris": {"ios": "https://dc.lft.to/lastmile_qr_scan", "android": "https://dc.lft.to/lastmile_qr_scan"}, "is_reserved": 0}, {"lon": -77.00723666666667, "bike_id": "52d22e6bd5ab4babad48127d4e41971a", "lat": 38.833447166666666, "fusion_lon": 0.0, "fusion_lat": 0.0, "type": "electric_bike", "name": "52d22e6bd5ab4babad48127d4e41971a", "is_disabled": 0, "rental_uris": {"ios": "https://dc.lft.to/lastmile_qr_scan", "android": "https://dc.lft.to/lastmile_qr_scan"}, "is_reserved": 0}, {"lon": -76.98376733333333, "bike_id": "4ddcfef56e144c9d747aee7684d33a1d", "lat": 38.896068166666666, "fusion_lon": 0.0, "fusion_lat": 0.0, "type": "electric_scooter", "name": "4ddcfef56e144c9d747aee7684d33a1d", "is_disabled": 0, "rental_uris": {"ios": "https://dc.lft.to/lastmile_qr_scan", "android": "https://dc.lft.to/lastmile_qr_scan"}, "is_reserved": 0}, {"lon": -77.0421805, "bike_id": "323dcea4190ee106b1c4033e2f2afbf7", "lat": 38.9135005, "fusion_lon": 0.0, "fusion_lat": 0.0, "type": "electric_scooter", "name": "323dcea4190ee106b1c4033e2f2afbf7", "is_disabled": 0, "rental_uris": {"ios": "https://dc.lft.to/lastmile_qr_scan", "android": "https://dc.lft.to/lastmile_qr_scan"}, "is_reserved": 0}, {"lon": -77.0411085, "bike_id": "732f8cabb64bcd6a6106ea8d89e331d7", "lat": 38.92799483333334, "fusion_lon": 0.0, "fusion_lat": 0.0, "type": "electric_scooter", "name": "732f8cabb64bcd6a6106ea8d89e331d7", "is_disabled": 0, "rental_uris": {"ios": "https://dc.lft.to/lastmile_qr_scan", "android": "https://dc.lft.to/lastmile_qr_scan"}, "is_reserved": 0}, {"lon": -77.00578483333334, "bike_id": "f95e2a3c2a1793178ef41bc9c8cadc7e", "lat": 38.872358166666665, "fusion_lon": 0.0, "fusion_lat": 0.0, "type": "electric_scooter", "name": "f95e2a3c2a1793178ef41bc9c8cadc7e", "is_disabled": 0, "rental_uris": {"ios": "https://dc.lft.to/lastmile_qr_scan", "android": "https://dc.lft.to/lastmile_qr_scan"}, "is_reserved": 0}, {"lon": -77.03568566666667, "bike_id": "b4a1406a04d5500355fa81062f18b52f", "lat": 38.918167, "fusion_lon": 0.0, "fusion_lat": 0.0, "type": "electric_scooter", "name": "b4a1406a04d5500355fa81062f18b52f", "is_disabled": 0, "rental_uris": {"ios": "https://dc.lft.to/lastmile_qr_scan", "android": "https://dc.lft.to/lastmile_qr_scan"}, "is_reserved": 0}, {"lon": -77.00939183333334, "bike_id": "1f0ee97c4e374d241f589174e2792508", "lat": 38.88311683333333, "fusion_lon": 0.0, "fusion_lat": 0.0, "type": "electric_scooter", "name": "1f0ee97c4e374d241f589174e2792508", "is_disabled": 0, "rental_uris": {"ios": "https://dc.lft.to/lastmile_qr_scan", "android": "https://dc.lft.to/lastmile_qr_scan"}, "is_reserved": 0}, {"lon": -77.04462033333333, "bike_id": "8d43a8052424e2179d24839b628be6cd", "lat": 38.91531466666667, "fusion_lon": 0.0, "fusion_lat": 0.0, "type": "electric_scooter", "name": "8d43a8052424e2179d24839b628be6cd", "is_disabled": 0, "rental_uris": {"ios": "https://dc.lft.to/lastmile_qr_scan", "android": "https://dc.lft.to/lastmile_qr_scan"}, "is_reserved": 0}, {"lon": -77.0309025, "bike_id": "5a7534de8360dd4614284bcd647c910d", "lat": 38.910331, "fusion_lon": 0.0, "fusion_lat": 0.0, "type": "electric_scooter", "name": "5a7534de8360dd4614284bcd647c910d", "is_disabled": 0, "rental_uris": {"ios": "https://dc.lft.to/lastmile_qr_scan", "android": "https://dc.lft.to/lastmile_qr_scan"}, "is_reserved": 0}, {"lon": -77.01789033333333, "bike_id": "18ea57fbc6f2cb7b3e02fa09c1ec7a8b", "lat": 38.9050275, "fusion_lon": 0.0, "fusion_lat": 0.0, "type": "electric_scooter", "name": "18ea57fbc6f2cb7b3e02fa09c1ec7a8b", "is_disabled": 0, "rental_uris": {"ios": "https://dc.lft.to/lastmile_qr_scan", "android": "https://dc.lft.to/lastmile_qr_scan"}, "is_reserved": 0}, {"lon": -77.0376665, "bike_id": "a15996d740dd8ab07413fea6a52f565d", "lat": 38.9201275, "fusion_lon": 0.0, "fusion_lat": 0.0, "type": "electric_scooter", "name": "a15996d740dd8ab07413fea6a52f565d", "is_disabled": 0, "rental_uris": {"ios": "https://dc.lft.to/lastmile_qr_scan", "android": "https://dc.lft.to/lastmile_qr_scan"}, "is_reserved": 0}, {"lon": -77.0196225, "bike_id": "584dd128df9a54e7dd69fe15add0a439", "lat": 38.913022166666664, "fusion_lon": 0.0, "fusion_lat": 0.0, "type": "electric_scooter", "name": "584dd128df9a54e7dd69fe15add0a439", "is_disabled": 0, "rental_uris": {"ios": "https://dc.lft.to/lastmile_qr_scan", "android": "https://dc.lft.to/lastmile_qr_scan"}, "is_reserved": 0}, {"lon": -77.01435316666667, "bike_id": "25363a8392ad2d54b6146a62a88f47b6", "lat": 38.99794766666667, "fusion_lon": 0.0, "fusion_lat": 0.0, "type": "electric_bike", "name": "25363a8392ad2d54b6146a62a88f47b6", "is_disabled": 0, "rental_uris": {"ios": "https://dc.lft.to/lastmile_qr_scan", "android": "https://dc.lft.to/lastmile_qr_scan"}, "is_reserved": 0}, {"lon": -77.0130805, "bike_id": "dda0fd943354a15d5646136ec62fe272", "lat": 38.91147133333333, "fusion_lon": 0.0, "fusion_lat": 0.0, "type": "electric_scooter", "name": "dda0fd943354a15d5646136ec62fe272", "is_disabled": 0, "rental_uris": {"ios": "https://dc.lft.to/lastmile_qr_scan", "android": "https://dc.lft.to/lastmile_qr_scan"}, "is_reserved": 0}, {"lon": -77.031301, "bike_id": "04ad1a9abe24d0b369ebfd55fc0ec4ba", "lat": 38.91497583333334, "fusion_lon": 0.0, "fusion_lat": 0.0, "type": "electric_scooter", "name": "04ad1a9abe24d0b369ebfd55fc0ec4ba", "is_disabled": 0, "rental_uris": {"ios": "https://dc.lft.to/lastmile_qr_scan", "android": "https://dc.lft.to/lastmile_qr_scan"}, "is_reserved": 0}, {"lon": -76.949658, "bike_id": "0e4b76434b9379496ff38e3a63a3365a", "lat": 38.904982833333335, "fusion_lon": 0.0, "fusion_lat": 0.0, "type": "electric_scooter", "name": "0e4b76434b9379496ff38e3a63a3365a", "is_disabled": 0, "rental_uris": {"ios": "https://dc.lft.to/lastmile_qr_scan", "android": "https://dc.lft.to/lastmile_qr_scan"}, "is_reserved": 0}, {"lon": -77.00737466666666, "bike_id": "aaf1b079884724781aa0dab8354ea55c", "lat": 38.9255015, "fusion_lon": 0.0, "fusion_lat": 0.0, "type": "electric_scooter", "name": "aaf1b079884724781aa0dab8354ea55c", "is_disabled": 0, "rental_uris": {"ios": "https://dc.lft.to/lastmile_qr_scan", "android": "https://dc.lft.to/lastmile_qr_scan"}, "is_reserved": 0}, {"lon": -77.04260416666666, "bike_id": "4c03266c6d08c121957ed96228daa813", "lat": 38.91046983333333, "fusion_lon": 0.0, "fusion_lat": 0.0, "type": "electric_scooter", "name": "4c03266c6d08c121957ed96228daa813", "is_disabled": 0, "rental_uris": {"ios": "https://dc.lft.to/lastmile_qr_scan", "android": "https://dc.lft.to/lastmile_qr_scan"}, "is_reserved": 0}, {"lon": -76.95754766666667, "bike_id": "0c50afc6db050d631f628919e39ce836", "lat": 38.884307, "fusion_lon": 0.0, "fusion_lat": 0.0, "type": "electric_scooter", "name": "0c50afc6db050d631f628919e39ce836", "is_disabled": 0, "rental_uris": {"ios": "https://dc.lft.to/lastmile_qr_scan", "android": "https://dc.lft.to/lastmile_qr_scan"}, "is_reserved": 0}, {"lon": -77.03059016666667, "bike_id": "40ef533da20988886a77b6aff6a945a9", "lat": 38.93098, "fusion_lon": 0.0, "fusion_lat": 0.0, "type": "electric_scooter", "name": "40ef533da20988886a77b6aff6a945a9", "is_disabled": 0, "rental_uris": {"ios": "https://dc.lft.to/lastmile_qr_scan", "android": "https://dc.lft.to/lastmile_qr_scan"}, "is_reserved": 0}, {"lon": -77.02429116666667, "bike_id": "4ef47a7c30f328e6fccf737f87a56800", "lat": 38.92049316666667, "fusion_lon": 0.0, "fusion_lat": 0.0, "type": "electric_scooter", "name": "4ef47a7c30f328e6fccf737f87a56800", "is_disabled": 0, "rental_uris": {"ios": "https://dc.lft.to/lastmile_qr_scan", "android": "https://dc.lft.to/lastmile_qr_scan"}, "is_reserved": 0}, {"lon": -77.03447683333333, "bike_id": "a1ac7332f7baeb8342a410f15aa59ff7", "lat": 38.907355833333334, "fusion_lon": 0.0, "fusion_lat": 0.0, "type": "electric_scooter", "name": "a1ac7332f7baeb8342a410f15aa59ff7", "is_disabled": 0, "rental_uris": {"ios": "https://dc.lft.to/lastmile_qr_scan", "android": "https://dc.lft.to/lastmile_qr_scan"}, "is_reserved": 0}, {"lon": -77.04472133333333, "bike_id": "c04b2ce716a28e85b23f29f26773c583", "lat": 38.923920333333335, "fusion_lon": 0.0, "fusion_lat": 0.0, "type": "electric_scooter", "name": "c04b2ce716a28e85b23f29f26773c583", "is_disabled": 0, "rental_uris": {"ios": "https://dc.lft.to/lastmile_qr_scan", "android": "https://dc.lft.to/lastmile_qr_scan"}, "is_reserved": 0}, {"lon": -76.90740416666667, "bike_id": "9ea9f8aa8f1615390b498d932857a579", "lat": 38.896159833333336, "fusion_lon": 0.0, "fusion_lat": 0.0, "type": "electric_bike", "name": "9ea9f8aa8f1615390b498d932857a579", "is_disabled": 0, "rental_uris": {"ios": "https://dc.lft.to/lastmile_qr_scan", "android": "https://dc.lft.to/lastmile_qr_scan"}, "is_reserved": 0}, {"lon": -77.003249, "bike_id": "792aa14c1898fc1d2eecd66e463f2d83", "lat": 38.90264166666667, "fusion_lon": 0.0, "fusion_lat": 0.0, "type": "electric_scooter", "name": "792aa14c1898fc1d2eecd66e463f2d83", "is_disabled": 0, "rental_uris": {"ios": "https://dc.lft.to/lastmile_qr_scan", "android": "https://dc.lft.to/lastmile_qr_scan"}, "is_reserved": 0}, {"lon": -77.02982116666666, "bike_id": "7abd69da87e6cff36553d07296eca11a", "lat": 38.92733483333333, "fusion_lon": 0.0, "fusion_lat": 0.0, "type": "electric_scooter", "name": "7abd69da87e6cff36553d07296eca11a", "is_disabled": 0, "rental_uris": {"ios": "https://dc.lft.to/lastmile_qr_scan", "android": "https://dc.lft.to/lastmile_qr_scan"}, "is_reserved": 0}, {"lon": -77.039424, "bike_id": "06c90290c214690f8061575ee9c7b818", "lat": 38.91564233333333, "fusion_lon": 0.0, "fusion_lat": 0.0, "type": "electric_scooter", "name": "06c90290c214690f8061575ee9c7b818", "is_disabled": 0, "rental_uris": {"ios": "https://dc.lft.to/lastmile_qr_scan", "android": "https://dc.lft.to/lastmile_qr_scan"}, "is_reserved": 0}, {"lon": -77.05148483333333, "bike_id": "844180da89b0959a3a5a8644f8e9887b", "lat": 38.8980705, "fusion_lon": 0.0, "fusion_lat": 0.0, "type": "electric_scooter", "name": "844180da89b0959a3a5a8644f8e9887b", "is_disabled": 0, "rental_uris": {"ios": "https://dc.lft.to/lastmile_qr_scan", "android": "https://dc.lft.to/lastmile_qr_scan"}, "is_reserved": 0}, {"lon": -76.9852795, "bike_id": "c79cae334ee5b6184ad2e55056754921", "lat": 38.866845166666664, "fusion_lon": 0.0, "fusion_lat": 0.0, "type": "electric_scooter", "name": "c79cae334ee5b6184ad2e55056754921", "is_disabled": 0, "rental_uris": {"ios": "https://dc.lft.to/lastmile_qr_scan", "android": "https://dc.lft.to/lastmile_qr_scan"}, "is_reserved": 0}, {"lon": -77.022925, "bike_id": "bc288b24eb7440aae64fb5ac9404edc4", "lat": 38.92228933333333, "fusion_lon": 0.0, "fusion_lat": 0.0, "type": "electric_scooter", "name": "bc288b24eb7440aae64fb5ac9404edc4", "is_disabled": 0, "rental_uris": {"ios": "https://dc.lft.to/lastmile_qr_scan", "android": "https://dc.lft.to/lastmile_qr_scan"}, "is_reserved": 0}, {"lon": -76.96612916666666, "bike_id": "0dfbae5e68be20a34165c7d2e9242eeb", "lat": 38.871067333333336, "fusion_lon": 0.0, "fusion_lat": 0.0, "type": "electric_scooter", "name": "0dfbae5e68be20a34165c7d2e9242eeb", "is_disabled": 0, "rental_uris": {"ios": "https://dc.lft.to/lastmile_qr_scan", "android": "https://dc.lft.to/lastmile_qr_scan"}, "is_reserved": 0}, {"lon": -77.00541983333333, "bike_id": "9e06bf2f00033ddc991662f6b2a6590d", "lat": 38.874576, "fusion_lon": 0.0, "fusion_lat": 0.0, "type": "electric_scooter", "name": "9e06bf2f00033ddc991662f6b2a6590d", "is_disabled": 0, "rental_uris": {"ios": "https://dc.lft.to/lastmile_qr_scan", "android": "https://dc.lft.to/lastmile_qr_scan"}, "is_reserved": 0}, {"lon": -77.02224866666667, "bike_id": "bd4a23a43e65915b34a00c5200cf6c84", "lat": 38.92169716666667, "fusion_lon": 0.0, "fusion_lat": 0.0, "type": "electric_scooter", "name": "bd4a23a43e65915b34a00c5200cf6c84", "is_disabled": 0, "rental_uris": {"ios": "https://dc.lft.to/lastmile_qr_scan", "android": "https://dc.lft.to/lastmile_qr_scan"}, "is_reserved": 0}, {"lon": -77.05083583333334, "bike_id": "0b901ebbca0c519d6971df3ce3dd58b8", "lat": 38.81366216666667, "fusion_lon": 0.0, "fusion_lat": 0.0, "type": "electric_bike", "name": "0b901ebbca0c519d6971df3ce3dd58b8", "is_disabled": 0, "rental_uris": {"ios": "https://dc.lft.to/lastmile_qr_scan", "android": "https://dc.lft.to/lastmile_qr_scan"}, "is_reserved": 0}, {"lon": -77.03182183333334, "bike_id": "cdb450a2e64a529a5d576add57dd020d", "lat": 38.91176166666666, "fusion_lon": 0.0, "fusion_lat": 0.0, "type": "electric_scooter", "name": "cdb450a2e64a529a5d576add57dd020d", "is_disabled": 0, "rental_uris": {"ios": "https://dc.lft.to/lastmile_qr_scan", "android": "https://dc.lft.to/lastmile_qr_scan"}, "is_reserved": 0}, {"lon": -77.02025033333334, "bike_id": "d122f65e41b3974c2efb5e47814ce744", "lat": 38.90558033333333, "fusion_lon": 0.0, "fusion_lat": 0.0, "type": "electric_scooter", "name": "d122f65e41b3974c2efb5e47814ce744", "is_disabled": 0, "rental_uris": {"ios": "https://dc.lft.to/lastmile_qr_scan", "android": "https://dc.lft.to/lastmile_qr_scan"}, "is_reserved": 0}, {"lon": -77.0625945, "bike_id": "fd1ac41de6fa27fdd45e254fe22d964d", "lat": 38.90232966666667, "fusion_lon": 0.0, "fusion_lat": 0.0, "type": "electric_scooter", "name": "fd1ac41de6fa27fdd45e254fe22d964d", "is_disabled": 0, "rental_uris": {"ios": "https://dc.lft.to/lastmile_qr_scan", "android": "https://dc.lft.to/lastmile_qr_scan"}, "is_reserved": 0}, {"lon": -77.02691, "bike_id": "3cb0cf76440b4706a26593c4ccf920f6", "lat": 38.9122815, "fusion_lon": 0.0, "fusion_lat": 0.0, "type": "electric_scooter", "name": "3cb0cf76440b4706a26593c4ccf920f6", "is_disabled": 0, "rental_uris": {"ios": "https://dc.lft.to/lastmile_qr_scan", "android": "https://dc.lft.to/lastmile_qr_scan"}, "is_reserved": 0}, {"lon": -77.02767183333333, "bike_id": "c4407296509e7b18ff94cd3e8a2f4c8b", "lat": 38.954278333333335, "fusion_lon": 0.0, "fusion_lat": 0.0, "type": "electric_scooter", "name": "c4407296509e7b18ff94cd3e8a2f4c8b", "is_disabled": 0, "rental_uris": {"ios": "https://dc.lft.to/lastmile_qr_scan", "android": "https://dc.lft.to/lastmile_qr_scan"}, "is_reserved": 0}, {"lon": -77.0472255, "bike_id": "474767fbcac66371985b53d1b51a28d6", "lat": 38.922356, "fusion_lon": 0.0, "fusion_lat": 0.0, "type": "electric_scooter", "name": "474767fbcac66371985b53d1b51a28d6", "is_disabled": 0, "rental_uris": {"ios": "https://dc.lft.to/lastmile_qr_scan", "android": "https://dc.lft.to/lastmile_qr_scan"}, "is_reserved": 0}, {"lon": -77.02889933333333, "bike_id": "138f2e566c3cab5245b894f947c69c0f", "lat": 38.9038805, "fusion_lon": 0.0, "fusion_lat": 0.0, "type": "electric_scooter", "name": "138f2e566c3cab5245b894f947c69c0f", "is_disabled": 0, "rental_uris": {"ios": "https://dc.lft.to/lastmile_qr_scan", "android": "https://dc.lft.to/lastmile_qr_scan"}, "is_reserved": 0}, {"lon": -77.02391233333333, "bike_id": "d188a0204e1128e30f3b6f447781ebd2", "lat": 38.92061133333333, "fusion_lon": 0.0, "fusion_lat": 0.0, "type": "electric_scooter", "name": "d188a0204e1128e30f3b6f447781ebd2", "is_disabled": 0, "rental_uris": {"ios": "https://dc.lft.to/lastmile_qr_scan", "android": "https://dc.lft.to/lastmile_qr_scan"}, "is_reserved": 0}, {"lon": -77.03842233333333, "bike_id": "c7f2e5cc35968f2810150a81bd836725", "lat": 38.91491333333333, "fusion_lon": 0.0, "fusion_lat": 0.0, "type": "electric_scooter", "name": "c7f2e5cc35968f2810150a81bd836725", "is_disabled": 0, "rental_uris": {"ios": "https://dc.lft.to/lastmile_qr_scan", "android": "https://dc.lft.to/lastmile_qr_scan"}, "is_reserved": 0}, {"lon": -76.96358616666667, "bike_id": "dd0fafd0da909dfe2aeab16b7e42a056", "lat": 38.9350125, "fusion_lon": 0.0, "fusion_lat": 0.0, "type": "electric_scooter", "name": "dd0fafd0da909dfe2aeab16b7e42a056", "is_disabled": 0, "rental_uris": {"ios": "https://dc.lft.to/lastmile_qr_scan", "android": "https://dc.lft.to/lastmile_qr_scan"}, "is_reserved": 0}, {"lon": -76.93610466666667, "bike_id": "3ccb0bc2e0bd793989d302b937bd974a", "lat": 38.8968425, "fusion_lon": 0.0, "fusion_lat": 0.0, "type": "electric_scooter", "name": "3ccb0bc2e0bd793989d302b937bd974a", "is_disabled": 0, "rental_uris": {"ios": "https://dc.lft.to/lastmile_qr_scan", "android": "https://dc.lft.to/lastmile_qr_scan"}, "is_reserved": 0}, {"lon": -77.0446935, "bike_id": "64ac67f135df9a2841f35033c94dfe3a", "lat": 38.91888683333333, "fusion_lon": 0.0, "fusion_lat": 0.0, "type": "electric_scooter", "name": "64ac67f135df9a2841f35033c94dfe3a", "is_disabled": 0, "rental_uris": {"ios": "https://dc.lft.to/lastmile_qr_scan", "android": "https://dc.lft.to/lastmile_qr_scan"}, "is_reserved": 0}, {"lon": -77.0092145, "bike_id": "4fa0a2635668336100f910a7232ce206", "lat": 38.827860666666666, "fusion_lon": 0.0, "fusion_lat": 0.0, "type": "electric_bike", "name": "4fa0a2635668336100f910a7232ce206", "is_disabled": 0, "rental_uris": {"ios": "https://dc.lft.to/lastmile_qr_scan", "android": "https://dc.lft.to/lastmile_qr_scan"}, "is_reserved": 0}, {"lon": -77.00066466666667, "bike_id": "5a2100f603a0feb0fce519feb3380af6", "lat": 38.92436383333333, "fusion_lon": 0.0, "fusion_lat": 0.0, "type": "electric_scooter", "name": "5a2100f603a0feb0fce519feb3380af6", "is_disabled": 0, "rental_uris": {"ios": "https://dc.lft.to/lastmile_qr_scan", "android": "https://dc.lft.to/lastmile_qr_scan"}, "is_reserved": 0}, {"lon": -77.02795816666666, "bike_id": "7ce1d880bc4683186b0268e433bce96a", "lat": 38.916931, "fusion_lon": 0.0, "fusion_lat": 0.0, "type": "electric_scooter", "name": "7ce1d880bc4683186b0268e433bce96a", "is_disabled": 0, "rental_uris": {"ios": "https://dc.lft.to/lastmile_qr_scan", "android": "https://dc.lft.to/lastmile_qr_scan"}, "is_reserved": 0}, {"lon": -76.99831366666666, "bike_id": "98c1e869a0f2c4e877e287aa5447f7b4", "lat": 38.905005, "fusion_lon": 0.0, "fusion_lat": 0.0, "type": "electric_scooter", "name": "98c1e869a0f2c4e877e287aa5447f7b4", "is_disabled": 0, "rental_uris": {"ios": "https://dc.lft.to/lastmile_qr_scan", "android": "https://dc.lft.to/lastmile_qr_scan"}, "is_reserved": 0}, {"lon": -76.97616833333333, "bike_id": "f33dccf51bcb9f3fb7009a5d80bac129", "lat": 38.90384316666667, "fusion_lon": 0.0, "fusion_lat": 0.0, "type": "electric_scooter", "name": "f33dccf51bcb9f3fb7009a5d80bac129", "is_disabled": 0, "rental_uris": {"ios": "https://dc.lft.to/lastmile_qr_scan", "android": "https://dc.lft.to/lastmile_qr_scan"}, "is_reserved": 0}, {"lon": -77.02724183333333, "bike_id": "5106ee7310f9aef407a3acad63d42df2", "lat": 38.910757, "fusion_lon": 0.0, "fusion_lat": 0.0, "type": "electric_scooter", "name": "5106ee7310f9aef407a3acad63d42df2", "is_disabled": 0, "rental_uris": {"ios": "https://dc.lft.to/lastmile_qr_scan", "android": "https://dc.lft.to/lastmile_qr_scan"}, "is_reserved": 0}, {"lon": -77.02425183333334, "bike_id": "516d63f9549078d189fc69ed308cc486", "lat": 38.89970533333333, "fusion_lon": 0.0, "fusion_lat": 0.0, "type": "electric_scooter", "name": "516d63f9549078d189fc69ed308cc486", "is_disabled": 0, "rental_uris": {"ios": "https://dc.lft.to/lastmile_qr_scan", "android": "https://dc.lft.to/lastmile_qr_scan"}, "is_reserved": 0}, {"lon": -77.0208635, "bike_id": "ce82c63340ecaa3618b0242561d01111", "lat": 38.957511833333335, "fusion_lon": 0.0, "fusion_lat": 0.0, "type": "electric_scooter", "name": "ce82c63340ecaa3618b0242561d01111", "is_disabled": 0, "rental_uris": {"ios": "https://dc.lft.to/lastmile_qr_scan", "android": "https://dc.lft.to/lastmile_qr_scan"}, "is_reserved": 0}, {"lon": -77.0263685, "bike_id": "ec6c2b46dc4374828db08f4e5eb01244", "lat": 38.89713866666666, "fusion_lon": 0.0, "fusion_lat": 0.0, "type": "electric_scooter", "name": "ec6c2b46dc4374828db08f4e5eb01244", "is_disabled": 0, "rental_uris": {"ios": "https://dc.lft.to/lastmile_qr_scan", "android": "https://dc.lft.to/lastmile_qr_scan"}, "is_reserved": 0}, {"lon": -77.02276133333334, "bike_id": "dacc42e35544e673f1be4cf9e82098b5", "lat": 38.878925333333335, "fusion_lon": 0.0, "fusion_lat": 0.0, "type": "electric_scooter", "name": "dacc42e35544e673f1be4cf9e82098b5", "is_disabled": 0, "rental_uris": {"ios": "https://dc.lft.to/lastmile_qr_scan", "android": "https://dc.lft.to/lastmile_qr_scan"}, "is_reserved": 0}, {"lon": -76.960609, "bike_id": "25c630b653f31067883d7da9681d0f9e", "lat": 38.8840545, "fusion_lon": 0.0, "fusion_lat": 0.0, "type": "electric_bike", "name": "25c630b653f31067883d7da9681d0f9e", "is_disabled": 0, "rental_uris": {"ios": "https://dc.lft.to/lastmile_qr_scan", "android": "https://dc.lft.to/lastmile_qr_scan"}, "is_reserved": 0}, {"lon": -77.03339583333333, "bike_id": "eccfa9b7859a87230c274a9a933e7bf5", "lat": 38.936432333333336, "fusion_lon": 0.0, "fusion_lat": 0.0, "type": "electric_scooter", "name": "eccfa9b7859a87230c274a9a933e7bf5", "is_disabled": 0, "rental_uris": {"ios": "https://dc.lft.to/lastmile_qr_scan", "android": "https://dc.lft.to/lastmile_qr_scan"}, "is_reserved": 0}, {"lon": -76.98727066666666, "bike_id": "cfcffa29ee793d829758afd61189f9d3", "lat": 38.86711666666667, "fusion_lon": 0.0, "fusion_lat": 0.0, "type": "electric_scooter", "name": "cfcffa29ee793d829758afd61189f9d3", "is_disabled": 0, "rental_uris": {"ios": "https://dc.lft.to/lastmile_qr_scan", "android": "https://dc.lft.to/lastmile_qr_scan"}, "is_reserved": 0}, {"lon": -76.99003366666666, "bike_id": "7658b9680eabf61e584c9c2f69733518", "lat": 38.86505366666667, "fusion_lon": 0.0, "fusion_lat": 0.0, "type": "electric_scooter", "name": "7658b9680eabf61e584c9c2f69733518", "is_disabled": 0, "rental_uris": {"ios": "https://dc.lft.to/lastmile_qr_scan", "android": "https://dc.lft.to/lastmile_qr_scan"}, "is_reserved": 0}, {"lon": -77.04410333333334, "bike_id": "094d54e22bae860715f5832e15b86c10", "lat": 38.909013333333334, "fusion_lon": 0.0, "fusion_lat": 0.0, "type": "electric_scooter", "name": "094d54e22bae860715f5832e15b86c10", "is_disabled": 0, "rental_uris": {"ios": "https://dc.lft.to/lastmile_qr_scan", "android": "https://dc.lft.to/lastmile_qr_scan"}, "is_reserved": 0}, {"lon": -76.993339, "bike_id": "9e6c9ed00b4a53006f236a014e66db4c", "lat": 38.87144883333333, "fusion_lon": 0.0, "fusion_lat": 0.0, "type": "electric_scooter", "name": "9e6c9ed00b4a53006f236a014e66db4c", "is_disabled": 0, "rental_uris": {"ios": "https://dc.lft.to/lastmile_qr_scan", "android": "https://dc.lft.to/lastmile_qr_scan"}, "is_reserved": 0}, {"lon": -76.98707333333333, "bike_id": "31e568fddd3eef5f77926d273f89ee02", "lat": 38.86539783333333, "fusion_lon": 0.0, "fusion_lat": 0.0, "type": "electric_scooter", "name": "31e568fddd3eef5f77926d273f89ee02", "is_disabled": 0, "rental_uris": {"ios": "https://dc.lft.to/lastmile_qr_scan", "android": "https://dc.lft.to/lastmile_qr_scan"}, "is_reserved": 0}, {"lon": -76.94887733333333, "bike_id": "e8be17ebd4700e20055a2a7d1b5846df", "lat": 38.89512466666667, "fusion_lon": 0.0, "fusion_lat": 0.0, "type": "electric_scooter", "name": "e8be17ebd4700e20055a2a7d1b5846df", "is_disabled": 0, "rental_uris": {"ios": "https://dc.lft.to/lastmile_qr_scan", "android": "https://dc.lft.to/lastmile_qr_scan"}, "is_reserved": 0}, {"lon": -77.02390516666667, "bike_id": "2e2a2a0d8faadd20dc867d25b3c086ad", "lat": 38.90014683333333, "fusion_lon": 0.0, "fusion_lat": 0.0, "type": "electric_scooter", "name": "2e2a2a0d8faadd20dc867d25b3c086ad", "is_disabled": 0, "rental_uris": {"ios": "https://dc.lft.to/lastmile_qr_scan", "android": "https://dc.lft.to/lastmile_qr_scan"}, "is_reserved": 0}, {"lon": -77.03853033333333, "bike_id": "998a6fae07172bcab08f27d4678136cf", "lat": 38.916654, "fusion_lon": 0.0, "fusion_lat": 0.0, "type": "electric_scooter", "name": "998a6fae07172bcab08f27d4678136cf", "is_disabled": 0, "rental_uris": {"ios": "https://dc.lft.to/lastmile_qr_scan", "android": "https://dc.lft.to/lastmile_qr_scan"}, "is_reserved": 0}, {"lon": -76.9853065, "bike_id": "03e87c61e64eb8e12f5b7e1f65d6d56d", "lat": 38.90461716666667, "fusion_lon": 0.0, "fusion_lat": 0.0, "type": "electric_scooter", "name": "03e87c61e64eb8e12f5b7e1f65d6d56d", "is_disabled": 0, "rental_uris": {"ios": "https://dc.lft.to/lastmile_qr_scan", "android": "https://dc.lft.to/lastmile_qr_scan"}, "is_reserved": 0}, {"lon": -77.03450516666666, "bike_id": "8e73ed5455b61f3c110fa9a9519196b4", "lat": 38.92737783333333, "fusion_lon": 0.0, "fusion_lat": 0.0, "type": "electric_scooter", "name": "8e73ed5455b61f3c110fa9a9519196b4", "is_disabled": 0, "rental_uris": {"ios": "https://dc.lft.to/lastmile_qr_scan", "android": "https://dc.lft.to/lastmile_qr_scan"}, "is_reserved": 0}, {"lon": -77.04746383333334, "bike_id": "cbd665d88714e72e47fab54e53be2d53", "lat": 38.91774316666667, "fusion_lon": 0.0, "fusion_lat": 0.0, "type": "electric_scooter", "name": "cbd665d88714e72e47fab54e53be2d53", "is_disabled": 0, "rental_uris": {"ios": "https://dc.lft.to/lastmile_qr_scan", "android": "https://dc.lft.to/lastmile_qr_scan"}, "is_reserved": 0}, {"lon": -77.01907683333333, "bike_id": "a1c854a8ec2411ebd9374e259d4fb157", "lat": 38.899366, "fusion_lon": 0.0, "fusion_lat": 0.0, "type": "electric_bike", "name": "a1c854a8ec2411ebd9374e259d4fb157", "is_disabled": 0, "rental_uris": {"ios": "https://dc.lft.to/lastmile_qr_scan", "android": "https://dc.lft.to/lastmile_qr_scan"}, "is_reserved": 0}, {"lon": -76.99811983333333, "bike_id": "53d32ad5390c48c7f567f59715775681", "lat": 38.829147666666664, "fusion_lon": 0.0, "fusion_lat": 0.0, "type": "electric_bike", "name": "53d32ad5390c48c7f567f59715775681", "is_disabled": 0, "rental_uris": {"ios": "https://dc.lft.to/lastmile_qr_scan", "android": "https://dc.lft.to/lastmile_qr_scan"}, "is_reserved": 0}, {"lon": -77.11709666666667, "bike_id": "bc63c990650904eb67dda525eb061057", "lat": 38.867460666666666, "fusion_lon": 0.0, "fusion_lat": 0.0, "type": "electric_bike", "name": "bc63c990650904eb67dda525eb061057", "is_disabled": 0, "rental_uris": {"ios": "https://dc.lft.to/lastmile_qr_scan", "android": "https://dc.lft.to/lastmile_qr_scan"}, "is_reserved": 0}, {"lon": -77.02444666666666, "bike_id": "c14d742b3338cc25a8d6bd47c9b7f727", "lat": 38.907188833333336, "fusion_lon": 0.0, "fusion_lat": 0.0, "type": "electric_scooter", "name": "c14d742b3338cc25a8d6bd47c9b7f727", "is_disabled": 0, "rental_uris": {"ios": "https://dc.lft.to/lastmile_qr_scan", "android": "https://dc.lft.to/lastmile_qr_scan"}, "is_reserved": 0}, {"lon": -76.95749333333333, "bike_id": "11408db66509b2b7463be8679e0aad55", "lat": 38.88428016666667, "fusion_lon": 0.0, "fusion_lat": 0.0, "type": "electric_scooter", "name": "11408db66509b2b7463be8679e0aad55", "is_disabled": 0, "rental_uris": {"ios": "https://dc.lft.to/lastmile_qr_scan", "android": "https://dc.lft.to/lastmile_qr_scan"}, "is_reserved": 0}, {"lon": -77.04471016666666, "bike_id": "f85f2dc5b62c8c42921597117bf0d6e4", "lat": 38.907894166666665, "fusion_lon": 0.0, "fusion_lat": 0.0, "type": "electric_scooter", "name": "f85f2dc5b62c8c42921597117bf0d6e4", "is_disabled": 0, "rental_uris": {"ios": "https://dc.lft.to/lastmile_qr_scan", "android": "https://dc.lft.to/lastmile_qr_scan"}, "is_reserved": 0}, {"lon": -77.048147, "bike_id": "6d6334f2127e48cbd6546135b9e51d79", "lat": 38.907315833333335, "fusion_lon": 0.0, "fusion_lat": 0.0, "type": "electric_scooter", "name": "6d6334f2127e48cbd6546135b9e51d79", "is_disabled": 0, "rental_uris": {"ios": "https://dc.lft.to/lastmile_qr_scan", "android": "https://dc.lft.to/lastmile_qr_scan"}, "is_reserved": 0}, {"lon": -76.99369216666666, "bike_id": "a4e83623b9add17cbfe4c3cf6cb0dd72", "lat": 38.900134333333334, "fusion_lon": 0.0, "fusion_lat": 0.0, "type": "electric_scooter", "name": "a4e83623b9add17cbfe4c3cf6cb0dd72", "is_disabled": 0, "rental_uris": {"ios": "https://dc.lft.to/lastmile_qr_scan", "android": "https://dc.lft.to/lastmile_qr_scan"}, "is_reserved": 0}, {"lon": -77.04187583333334, "bike_id": "3f54f5e9c02f04241ca9b1278fb31ee2", "lat": 38.91555183333333, "fusion_lon": 0.0, "fusion_lat": 0.0, "type": "electric_scooter", "name": "3f54f5e9c02f04241ca9b1278fb31ee2", "is_disabled": 0, "rental_uris": {"ios": "https://dc.lft.to/lastmile_qr_scan", "android": "https://dc.lft.to/lastmile_qr_scan"}, "is_reserved": 0}, {"lon": -77.01347466666667, "bike_id": "8201fbfe5e5e149cdd41d4675c8b1e9d", "lat": 38.87813366666666, "fusion_lon": 0.0, "fusion_lat": 0.0, "type": "electric_scooter", "name": "8201fbfe5e5e149cdd41d4675c8b1e9d", "is_disabled": 0, "rental_uris": {"ios": "https://dc.lft.to/lastmile_qr_scan", "android": "https://dc.lft.to/lastmile_qr_scan"}, "is_reserved": 0}, {"lon": -77.0235755, "bike_id": "be09181164620c7432c4882ea6ee623e", "lat": 38.92225583333333, "fusion_lon": 0.0, "fusion_lat": 0.0, "type": "electric_scooter", "name": "be09181164620c7432c4882ea6ee623e", "is_disabled": 0, "rental_uris": {"ios": "https://dc.lft.to/lastmile_qr_scan", "android": "https://dc.lft.to/lastmile_qr_scan"}, "is_reserved": 0}, {"lon": -77.03823066666666, "bike_id": "4b787af90ec5180f127a32658dac9727", "lat": 38.93057066666667, "fusion_lon": 0.0, "fusion_lat": 0.0, "type": "electric_scooter", "name": "4b787af90ec5180f127a32658dac9727", "is_disabled": 0, "rental_uris": {"ios": "https://dc.lft.to/lastmile_qr_scan", "android": "https://dc.lft.to/lastmile_qr_scan"}, "is_reserved": 0}, {"lon": -77.043357, "bike_id": "62e9362959d352b3fe2035f74ff1438a", "lat": 38.915838, "fusion_lon": 0.0, "fusion_lat": 0.0, "type": "electric_scooter", "name": "62e9362959d352b3fe2035f74ff1438a", "is_disabled": 0, "rental_uris": {"ios": "https://dc.lft.to/lastmile_qr_scan", "android": "https://dc.lft.to/lastmile_qr_scan"}, "is_reserved": 0}, {"lon": -77.04500133333333, "bike_id": "a2e6bd7e6542b5de8895bb804f678188", "lat": 38.9193135, "fusion_lon": 0.0, "fusion_lat": 0.0, "type": "electric_scooter", "name": "a2e6bd7e6542b5de8895bb804f678188", "is_disabled": 0, "rental_uris": {"ios": "https://dc.lft.to/lastmile_qr_scan", "android": "https://dc.lft.to/lastmile_qr_scan"}, "is_reserved": 0}, {"lon": -77.0214635, "bike_id": "4f3cb0751b82b4ddc06071c85939b0c7", "lat": 38.902528333333336, "fusion_lon": 0.0, "fusion_lat": 0.0, "type": "electric_scooter", "name": "4f3cb0751b82b4ddc06071c85939b0c7", "is_disabled": 0, "rental_uris": {"ios": "https://dc.lft.to/lastmile_qr_scan", "android": "https://dc.lft.to/lastmile_qr_scan"}, "is_reserved": 0}, {"lon": -76.9810715, "bike_id": "aefd92d915d08279c358cfc4c5f4d047", "lat": 38.9040425, "fusion_lon": 0.0, "fusion_lat": 0.0, "type": "electric_scooter", "name": "aefd92d915d08279c358cfc4c5f4d047", "is_disabled": 0, "rental_uris": {"ios": "https://dc.lft.to/lastmile_qr_scan", "android": "https://dc.lft.to/lastmile_qr_scan"}, "is_reserved": 0}, {"lon": -76.998662, "bike_id": "e9bce589fac48522670ea8c1d51b0933", "lat": 38.902474833333336, "fusion_lon": 0.0, "fusion_lat": 0.0, "type": "electric_scooter", "name": "e9bce589fac48522670ea8c1d51b0933", "is_disabled": 0, "rental_uris": {"ios": "https://dc.lft.to/lastmile_qr_scan", "android": "https://dc.lft.to/lastmile_qr_scan"}, "is_reserved": 0}, {"lon": -77.05512033333333, "bike_id": "3fd0c308310eccd8dc22cbe369f490dc", "lat": 38.89968233333333, "fusion_lon": 0.0, "fusion_lat": 0.0, "type": "electric_scooter", "name": "3fd0c308310eccd8dc22cbe369f490dc", "is_disabled": 0, "rental_uris": {"ios": "https://dc.lft.to/lastmile_qr_scan", "android": "https://dc.lft.to/lastmile_qr_scan"}, "is_reserved": 0}, {"lon": -77.03663383333334, "bike_id": "51bf363f6fd74fc098c5a50feed8b0c9", "lat": 38.90277433333333, "fusion_lon": 0.0, "fusion_lat": 0.0, "type": "electric_scooter", "name": "51bf363f6fd74fc098c5a50feed8b0c9", "is_disabled": 0, "rental_uris": {"ios": "https://dc.lft.to/lastmile_qr_scan", "android": "https://dc.lft.to/lastmile_qr_scan"}, "is_reserved": 0}, {"lon": -77.02280533333334, "bike_id": "38ca3ad2ae5cebbfc79a5bd47bc57fb7", "lat": 38.8789035, "fusion_lon": 0.0, "fusion_lat": 0.0, "type": "electric_scooter", "name": "38ca3ad2ae5cebbfc79a5bd47bc57fb7", "is_disabled": 0, "rental_uris": {"ios": "https://dc.lft.to/lastmile_qr_scan", "android": "https://dc.lft.to/lastmile_qr_scan"}, "is_reserved": 0}, {"lon": -77.04289416666667, "bike_id": "7769ffc6817ec12b5eddbd266498c6e0", "lat": 38.90725416666667, "fusion_lon": 0.0, "fusion_lat": 0.0, "type": "electric_scooter", "name": "7769ffc6817ec12b5eddbd266498c6e0", "is_disabled": 0, "rental_uris": {"ios": "https://dc.lft.to/lastmile_qr_scan", "android": "https://dc.lft.to/lastmile_qr_scan"}, "is_reserved": 0}, {"lon": -77.010771, "bike_id": "c5067eae05a3154ea50ec38233d010f3", "lat": 38.907312166666664, "fusion_lon": 0.0, "fusion_lat": 0.0, "type": "electric_scooter", "name": "c5067eae05a3154ea50ec38233d010f3", "is_disabled": 0, "rental_uris": {"ios": "https://dc.lft.to/lastmile_qr_scan", "android": "https://dc.lft.to/lastmile_qr_scan"}, "is_reserved": 0}, {"lon": -76.98844, "bike_id": "0c18c636931850d675f47d3ae3e966a3", "lat": 38.9013405, "fusion_lon": 0.0, "fusion_lat": 0.0, "type": "electric_scooter", "name": "0c18c636931850d675f47d3ae3e966a3", "is_disabled": 0, "rental_uris": {"ios": "https://dc.lft.to/lastmile_qr_scan", "android": "https://dc.lft.to/lastmile_qr_scan"}, "is_reserved": 0}, {"lon": -77.04343466666667, "bike_id": "f973eba2c8f386eb3df8a4e97c46eac3", "lat": 38.92200166666667, "fusion_lon": 0.0, "fusion_lat": 0.0, "type": "electric_scooter", "name": "f973eba2c8f386eb3df8a4e97c46eac3", "is_disabled": 0, "rental_uris": {"ios": "https://dc.lft.to/lastmile_qr_scan", "android": "https://dc.lft.to/lastmile_qr_scan"}, "is_reserved": 0}, {"lon": -77.00370283333334, "bike_id": "ba66007029d08cd6c7340252610f0e19", "lat": 38.899330166666665, "fusion_lon": 0.0, "fusion_lat": 0.0, "type": "electric_scooter", "name": "ba66007029d08cd6c7340252610f0e19", "is_disabled": 0, "rental_uris": {"ios": "https://dc.lft.to/lastmile_qr_scan", "android": "https://dc.lft.to/lastmile_qr_scan"}, "is_reserved": 0}, {"lon": -77.02211216666667, "bike_id": "fa7650305b79ba30086ff220360d6e91", "lat": 38.92008083333333, "fusion_lon": 0.0, "fusion_lat": 0.0, "type": "electric_scooter", "name": "fa7650305b79ba30086ff220360d6e91", "is_disabled": 0, "rental_uris": {"ios": "https://dc.lft.to/lastmile_qr_scan", "android": "https://dc.lft.to/lastmile_qr_scan"}, "is_reserved": 0}, {"lon": -77.0215885, "bike_id": "9383668e5c491652465ef4bdc141f7c6", "lat": 38.902213, "fusion_lon": 0.0, "fusion_lat": 0.0, "type": "electric_scooter", "name": "9383668e5c491652465ef4bdc141f7c6", "is_disabled": 0, "rental_uris": {"ios": "https://dc.lft.to/lastmile_qr_scan", "android": "https://dc.lft.to/lastmile_qr_scan"}, "is_reserved": 0}, {"lon": -77.03032766666666, "bike_id": "f988cb00d5c29604fd6ed51529e04923", "lat": 38.917119666666665, "fusion_lon": 0.0, "fusion_lat": 0.0, "type": "electric_scooter", "name": "f988cb00d5c29604fd6ed51529e04923", "is_disabled": 0, "rental_uris": {"ios": "https://dc.lft.to/lastmile_qr_scan", "android": "https://dc.lft.to/lastmile_qr_scan"}, "is_reserved": 0}, {"lon": -77.02654133333333, "bike_id": "f6d66ccc721d3bddebbf573058a3d699", "lat": 38.9024435, "fusion_lon": 0.0, "fusion_lat": 0.0, "type": "electric_scooter", "name": "f6d66ccc721d3bddebbf573058a3d699", "is_disabled": 0, "rental_uris": {"ios": "https://dc.lft.to/lastmile_qr_scan", "android": "https://dc.lft.to/lastmile_qr_scan"}, "is_reserved": 0}, {"lon": -77.02814466666666, "bike_id": "fb8bb398ea9ed42792183da83fdb46a7", "lat": 38.917688, "fusion_lon": 0.0, "fusion_lat": 0.0, "type": "electric_scooter", "name": "fb8bb398ea9ed42792183da83fdb46a7", "is_disabled": 0, "rental_uris": {"ios": "https://dc.lft.to/lastmile_qr_scan", "android": "https://dc.lft.to/lastmile_qr_scan"}, "is_reserved": 0}, {"lon": -77.0295345, "bike_id": "6f77b5d8d7917921df0b5f904228530e", "lat": 38.921769166666664, "fusion_lon": 0.0, "fusion_lat": 0.0, "type": "electric_scooter", "name": "6f77b5d8d7917921df0b5f904228530e", "is_disabled": 0, "rental_uris": {"ios": "https://dc.lft.to/lastmile_qr_scan", "android": "https://dc.lft.to/lastmile_qr_scan"}, "is_reserved": 0}, {"lon": -76.98710916666667, "bike_id": "994d1a87273158f685a56d49f5b7cb80", "lat": 38.8670055, "fusion_lon": 0.0, "fusion_lat": 0.0, "type": "electric_scooter", "name": "994d1a87273158f685a56d49f5b7cb80", "is_disabled": 0, "rental_uris": {"ios": "https://dc.lft.to/lastmile_qr_scan", "android": "https://dc.lft.to/lastmile_qr_scan"}, "is_reserved": 0}, {"lon": -76.98881933333334, "bike_id": "0f25489377cd1e4c86b05f40b2c5b9ab", "lat": 38.866542833333334, "fusion_lon": 0.0, "fusion_lat": 0.0, "type": "electric_scooter", "name": "0f25489377cd1e4c86b05f40b2c5b9ab", "is_disabled": 0, "rental_uris": {"ios": "https://dc.lft.to/lastmile_qr_scan", "android": "https://dc.lft.to/lastmile_qr_scan"}, "is_reserved": 0}, {"lon": -76.97860533333333, "bike_id": "83454683d3b5e3e1f49392eb6bb54c19", "lat": 38.87073383333333, "fusion_lon": 0.0, "fusion_lat": 0.0, "type": "electric_scooter", "name": "83454683d3b5e3e1f49392eb6bb54c19", "is_disabled": 0, "rental_uris": {"ios": "https://dc.lft.to/lastmile_qr_scan", "android": "https://dc.lft.to/lastmile_qr_scan"}, "is_reserved": 0}, {"lon": -77.02320516666667, "bike_id": "de94b64deb72dc5bf7b9341f5d975771", "lat": 38.916777, "fusion_lon": 0.0, "fusion_lat": 0.0, "type": "electric_scooter", "name": "de94b64deb72dc5bf7b9341f5d975771", "is_disabled": 0, "rental_uris": {"ios": "https://dc.lft.to/lastmile_qr_scan", "android": "https://dc.lft.to/lastmile_qr_scan"}, "is_reserved": 0}, {"lon": -77.00191933333333, "bike_id": "e7abef6e8bea81fde3efe26cfa0041d9", "lat": 38.91481, "fusion_lon": 0.0, "fusion_lat": 0.0, "type": "electric_scooter", "name": "e7abef6e8bea81fde3efe26cfa0041d9", "is_disabled": 0, "rental_uris": {"ios": "https://dc.lft.to/lastmile_qr_scan", "android": "https://dc.lft.to/lastmile_qr_scan"}, "is_reserved": 0}, {"lon": -77.0121105, "bike_id": "9593812fbb96fdcb3785c1779f66d3a4", "lat": 38.915949833333336, "fusion_lon": 0.0, "fusion_lat": 0.0, "type": "electric_scooter", "name": "9593812fbb96fdcb3785c1779f66d3a4", "is_disabled": 0, "rental_uris": {"ios": "https://dc.lft.to/lastmile_qr_scan", "android": "https://dc.lft.to/lastmile_qr_scan"}, "is_reserved": 0}, {"lon": -77.04607683333333, "bike_id": "2a2d1f62fca850c1b8c45ab1fb678d80", "lat": 38.883818833333336, "fusion_lon": 0.0, "fusion_lat": 0.0, "type": "electric_scooter", "name": "2a2d1f62fca850c1b8c45ab1fb678d80", "is_disabled": 0, "rental_uris": {"ios": "https://dc.lft.to/lastmile_qr_scan", "android": "https://dc.lft.to/lastmile_qr_scan"}, "is_reserved": 0}, {"lon": -77.03671333333334, "bike_id": "8167e38b8a6f5502537b7f7fded5fdae", "lat": 38.90962183333333, "fusion_lon": 0.0, "fusion_lat": 0.0, "type": "electric_scooter", "name": "8167e38b8a6f5502537b7f7fded5fdae", "is_disabled": 0, "rental_uris": {"ios": "https://dc.lft.to/lastmile_qr_scan", "android": "https://dc.lft.to/lastmile_qr_scan"}, "is_reserved": 0}, {"lon": -77.04886416666666, "bike_id": "ab0f86e1db37436669a54803bd13a06b", "lat": 38.903517666666666, "fusion_lon": 0.0, "fusion_lat": 0.0, "type": "electric_scooter", "name": "ab0f86e1db37436669a54803bd13a06b", "is_disabled": 0, "rental_uris": {"ios": "https://dc.lft.to/lastmile_qr_scan", "android": "https://dc.lft.to/lastmile_qr_scan"}, "is_reserved": 0}, {"lon": -77.03672816666666, "bike_id": "7bb6b0d625933d64152cdcf3426dc9c1", "lat": 38.92121233333334, "fusion_lon": 0.0, "fusion_lat": 0.0, "type": "electric_scooter", "name": "7bb6b0d625933d64152cdcf3426dc9c1", "is_disabled": 0, "rental_uris": {"ios": "https://dc.lft.to/lastmile_qr_scan", "android": "https://dc.lft.to/lastmile_qr_scan"}, "is_reserved": 0}, {"lon": -77.03256516666667, "bike_id": "a40383e73be05d8e2510be1dd9a97a40", "lat": 38.93135516666667, "fusion_lon": 0.0, "fusion_lat": 0.0, "type": "electric_scooter", "name": "a40383e73be05d8e2510be1dd9a97a40", "is_disabled": 0, "rental_uris": {"ios": "https://dc.lft.to/lastmile_qr_scan", "android": "https://dc.lft.to/lastmile_qr_scan"}, "is_reserved": 0}, {"lon": -77.0579625, "bike_id": "f1f1f28988865180876f109a35298107", "lat": 38.93452033333333, "fusion_lon": 0.0, "fusion_lat": 0.0, "type": "electric_scooter", "name": "f1f1f28988865180876f109a35298107", "is_disabled": 0, "rental_uris": {"ios": "https://dc.lft.to/lastmile_qr_scan", "android": "https://dc.lft.to/lastmile_qr_scan"}, "is_reserved": 0}, {"lon": -76.93741883333334, "bike_id": "6d68c24701bb5df411d7472228f698df", "lat": 38.890133166666665, "fusion_lon": 0.0, "fusion_lat": 0.0, "type": "electric_scooter", "name": "6d68c24701bb5df411d7472228f698df", "is_disabled": 0, "rental_uris": {"ios": "https://dc.lft.to/lastmile_qr_scan", "android": "https://dc.lft.to/lastmile_qr_scan"}, "is_reserved": 0}, {"lon": -77.0449465, "bike_id": "552cab429d13eb967da5413b9ac44f4b", "lat": 38.91389616666667, "fusion_lon": 0.0, "fusion_lat": 0.0, "type": "electric_scooter", "name": "552cab429d13eb967da5413b9ac44f4b", "is_disabled": 0, "rental_uris": {"ios": "https://dc.lft.to/lastmile_qr_scan", "android": "https://dc.lft.to/lastmile_qr_scan"}, "is_reserved": 0}, {"lon": -77.0367495, "bike_id": "3d149326c6ff4fd0bee25ab8c536dc82", "lat": 38.90874383333333, "fusion_lon": 0.0, "fusion_lat": 0.0, "type": "electric_scooter", "name": "3d149326c6ff4fd0bee25ab8c536dc82", "is_disabled": 0, "rental_uris": {"ios": "https://dc.lft.to/lastmile_qr_scan", "android": "https://dc.lft.to/lastmile_qr_scan"}, "is_reserved": 0}, {"lon": -77.00676166666666, "bike_id": "685c7dd70715be586fdfc08cede6e052", "lat": 38.900119, "fusion_lon": 0.0, "fusion_lat": 0.0, "type": "electric_scooter", "name": "685c7dd70715be586fdfc08cede6e052", "is_disabled": 0, "rental_uris": {"ios": "https://dc.lft.to/lastmile_qr_scan", "android": "https://dc.lft.to/lastmile_qr_scan"}, "is_reserved": 0}, {"lon": -76.9375845, "bike_id": "e273900e7e71d0cf4048e6039211514c", "lat": 38.890435, "fusion_lon": 0.0, "fusion_lat": 0.0, "type": "electric_scooter", "name": "e273900e7e71d0cf4048e6039211514c", "is_disabled": 0, "rental_uris": {"ios": "https://dc.lft.to/lastmile_qr_scan", "android": "https://dc.lft.to/lastmile_qr_scan"}, "is_reserved": 0}, {"lon": -77.0523595, "bike_id": "d65b2b027de2aa4e23876f279ddb6d41", "lat": 38.92453833333333, "fusion_lon": 0.0, "fusion_lat": 0.0, "type": "electric_scooter", "name": "d65b2b027de2aa4e23876f279ddb6d41", "is_disabled": 0, "rental_uris": {"ios": "https://dc.lft.to/lastmile_qr_scan", "android": "https://dc.lft.to/lastmile_qr_scan"}, "is_reserved": 0}, {"lon": -76.99548033333333, "bike_id": "1bd39a2cdc3be7163387b5983ae89676", "lat": 38.862585833333334, "fusion_lon": 0.0, "fusion_lat": 0.0, "type": "electric_scooter", "name": "1bd39a2cdc3be7163387b5983ae89676", "is_disabled": 0, "rental_uris": {"ios": "https://dc.lft.to/lastmile_qr_scan", "android": "https://dc.lft.to/lastmile_qr_scan"}, "is_reserved": 0}, {"lon": -77.01633516666666, "bike_id": "dcbd97b29b081d89d9a64453bc4b8ec3", "lat": 38.929025833333334, "fusion_lon": 0.0, "fusion_lat": 0.0, "type": "electric_scooter", "name": "dcbd97b29b081d89d9a64453bc4b8ec3", "is_disabled": 0, "rental_uris": {"ios": "https://dc.lft.to/lastmile_qr_scan", "android": "https://dc.lft.to/lastmile_qr_scan"}, "is_reserved": 0}, {"lon": -77.03263216666667, "bike_id": "a8732a563d31270a5f02c6c6d4c53ff4", "lat": 38.93523183333333, "fusion_lon": 0.0, "fusion_lat": 0.0, "type": "electric_scooter", "name": "a8732a563d31270a5f02c6c6d4c53ff4", "is_disabled": 0, "rental_uris": {"ios": "https://dc.lft.to/lastmile_qr_scan", "android": "https://dc.lft.to/lastmile_qr_scan"}, "is_reserved": 0}, {"lon": -77.03322266666666, "bike_id": "892ac86580850c9871b6b79cd917644f", "lat": 38.915682, "fusion_lon": 0.0, "fusion_lat": 0.0, "type": "electric_scooter", "name": "892ac86580850c9871b6b79cd917644f", "is_disabled": 0, "rental_uris": {"ios": "https://dc.lft.to/lastmile_qr_scan", "android": "https://dc.lft.to/lastmile_qr_scan"}, "is_reserved": 0}, {"lon": -76.98558916666667, "bike_id": "4d56fe9784d36bba6928f913e1c61a45", "lat": 38.91036966666667, "fusion_lon": 0.0, "fusion_lat": 0.0, "type": "electric_scooter", "name": "4d56fe9784d36bba6928f913e1c61a45", "is_disabled": 0, "rental_uris": {"ios": "https://dc.lft.to/lastmile_qr_scan", "android": "https://dc.lft.to/lastmile_qr_scan"}, "is_reserved": 0}, {"lon": -77.0380335, "bike_id": "36d50a86a692f82c910fdcc1c5ffe45b", "lat": 38.92061533333333, "fusion_lon": 0.0, "fusion_lat": 0.0, "type": "electric_scooter", "name": "36d50a86a692f82c910fdcc1c5ffe45b", "is_disabled": 0, "rental_uris": {"ios": "https://dc.lft.to/lastmile_qr_scan", "android": "https://dc.lft.to/lastmile_qr_scan"}, "is_reserved": 0}, {"lon": -77.04123383333334, "bike_id": "08c71c084953c1eaad1d59f51821b980", "lat": 38.94408683333333, "fusion_lon": 0.0, "fusion_lat": 0.0, "type": "electric_bike", "name": "08c71c084953c1eaad1d59f51821b980", "is_disabled": 0, "rental_uris": {"ios": "https://dc.lft.to/lastmile_qr_scan", "android": "https://dc.lft.to/lastmile_qr_scan"}, "is_reserved": 0}, {"lon": -77.081808, "bike_id": "1bda56e48990b8b8bbd7c73164128350", "lat": 38.92213566666667, "fusion_lon": 0.0, "fusion_lat": 0.0, "type": "electric_bike", "name": "1bda56e48990b8b8bbd7c73164128350", "is_disabled": 0, "rental_uris": {"ios": "https://dc.lft.to/lastmile_qr_scan", "android": "https://dc.lft.to/lastmile_qr_scan"}, "is_reserved": 0}, {"lon": -77.00568866666667, "bike_id": "1a957fe3981f2a3db22445531d70337c", "lat": 38.87444133333333, "fusion_lon": 0.0, "fusion_lat": 0.0, "type": "electric_scooter", "name": "1a957fe3981f2a3db22445531d70337c", "is_disabled": 0, "rental_uris": {"ios": "https://dc.lft.to/lastmile_qr_scan", "android": "https://dc.lft.to/lastmile_qr_scan"}, "is_reserved": 0}, {"lon": -77.02984283333333, "bike_id": "42db636df7d76680977de806332496bd", "lat": 38.9328385, "fusion_lon": 0.0, "fusion_lat": 0.0, "type": "electric_scooter", "name": "42db636df7d76680977de806332496bd", "is_disabled": 0, "rental_uris": {"ios": "https://dc.lft.to/lastmile_qr_scan", "android": "https://dc.lft.to/lastmile_qr_scan"}, "is_reserved": 0}, {"lon": -77.01469, "bike_id": "823182c9b4b1ac3e0c00baddc3cfc7f9", "lat": 38.89188433333333, "fusion_lon": 0.0, "fusion_lat": 0.0, "type": "electric_scooter", "name": "823182c9b4b1ac3e0c00baddc3cfc7f9", "is_disabled": 0, "rental_uris": {"ios": "https://dc.lft.to/lastmile_qr_scan", "android": "https://dc.lft.to/lastmile_qr_scan"}, "is_reserved": 0}, {"lon": -77.03947, "bike_id": "51cc7c82c62c6e9cb7eafd1ce8e49534", "lat": 38.930642666666664, "fusion_lon": 0.0, "fusion_lat": 0.0, "type": "electric_scooter", "name": "51cc7c82c62c6e9cb7eafd1ce8e49534", "is_disabled": 0, "rental_uris": {"ios": "https://dc.lft.to/lastmile_qr_scan", "android": "https://dc.lft.to/lastmile_qr_scan"}, "is_reserved": 0}, {"lon": -77.04343683333333, "bike_id": "7a376be5fd2d67ae519ee37ba8d3dcb0", "lat": 38.92964383333333, "fusion_lon": 0.0, "fusion_lat": 0.0, "type": "electric_scooter", "name": "7a376be5fd2d67ae519ee37ba8d3dcb0", "is_disabled": 0, "rental_uris": {"ios": "https://dc.lft.to/lastmile_qr_scan", "android": "https://dc.lft.to/lastmile_qr_scan"}, "is_reserved": 0}, {"lon": -77.02405516666667, "bike_id": "e91693b1a1903595c9894ef46173f565", "lat": 38.9191275, "fusion_lon": 0.0, "fusion_lat": 0.0, "type": "electric_scooter", "name": "e91693b1a1903595c9894ef46173f565", "is_disabled": 0, "rental_uris": {"ios": "https://dc.lft.to/lastmile_qr_scan", "android": "https://dc.lft.to/lastmile_qr_scan"}, "is_reserved": 0}, {"lon": -76.98178783333333, "bike_id": "1eb453de2714a561104df9eb4b4dde17", "lat": 38.89579283333333, "fusion_lon": 0.0, "fusion_lat": 0.0, "type": "electric_scooter", "name": "1eb453de2714a561104df9eb4b4dde17", "is_disabled": 0, "rental_uris": {"ios": "https://dc.lft.to/lastmile_qr_scan", "android": "https://dc.lft.to/lastmile_qr_scan"}, "is_reserved": 0}, {"lon": -77.03664733333333, "bike_id": "84df1d0875694a554bb2374d4dfdf4e9", "lat": 38.91713166666667, "fusion_lon": 0.0, "fusion_lat": 0.0, "type": "electric_scooter", "name": "84df1d0875694a554bb2374d4dfdf4e9", "is_disabled": 0, "rental_uris": {"ios": "https://dc.lft.to/lastmile_qr_scan", "android": "https://dc.lft.to/lastmile_qr_scan"}, "is_reserved": 0}, {"lon": -76.98370166666666, "bike_id": "3be8226d57640792c063fb61221340e7", "lat": 38.899793333333335, "fusion_lon": 0.0, "fusion_lat": 0.0, "type": "electric_scooter", "name": "3be8226d57640792c063fb61221340e7", "is_disabled": 0, "rental_uris": {"ios": "https://dc.lft.to/lastmile_qr_scan", "android": "https://dc.lft.to/lastmile_qr_scan"}, "is_reserved": 0}, {"lon": -77.04233116666667, "bike_id": "e0c7445d840c1b308c9534dcc883d528", "lat": 38.9218085, "fusion_lon": 0.0, "fusion_lat": 0.0, "type": "electric_scooter", "name": "e0c7445d840c1b308c9534dcc883d528", "is_disabled": 0, "rental_uris": {"ios": "https://dc.lft.to/lastmile_qr_scan", "android": "https://dc.lft.to/lastmile_qr_scan"}, "is_reserved": 0}, {"lon": -77.02288766666666, "bike_id": "380e9f084d7aeb345ce727e553355002", "lat": 38.90978483333333, "fusion_lon": 0.0, "fusion_lat": 0.0, "type": "electric_scooter", "name": "380e9f084d7aeb345ce727e553355002", "is_disabled": 0, "rental_uris": {"ios": "https://dc.lft.to/lastmile_qr_scan", "android": "https://dc.lft.to/lastmile_qr_scan"}, "is_reserved": 0}, {"lon": -77.02311683333333, "bike_id": "b8d32b59ede3b8a80b9a08a6723f13e7", "lat": 38.91834466666667, "fusion_lon": 0.0, "fusion_lat": 0.0, "type": "electric_scooter", "name": "b8d32b59ede3b8a80b9a08a6723f13e7", "is_disabled": 0, "rental_uris": {"ios": "https://dc.lft.to/lastmile_qr_scan", "android": "https://dc.lft.to/lastmile_qr_scan"}, "is_reserved": 0}, {"lon": -76.93367483333333, "bike_id": "3cbbd734a74e5529b964a257cbd8131d", "lat": 38.899165833333335, "fusion_lon": 0.0, "fusion_lat": 0.0, "type": "electric_scooter", "name": "3cbbd734a74e5529b964a257cbd8131d", "is_disabled": 0, "rental_uris": {"ios": "https://dc.lft.to/lastmile_qr_scan", "android": "https://dc.lft.to/lastmile_qr_scan"}, "is_reserved": 0}, {"lon": -77.032066, "bike_id": "fe90ddf82b9319ac0c2c1348f84b8739", "lat": 38.91681166666667, "fusion_lon": 0.0, "fusion_lat": 0.0, "type": "electric_scooter", "name": "fe90ddf82b9319ac0c2c1348f84b8739", "is_disabled": 0, "rental_uris": {"ios": "https://dc.lft.to/lastmile_qr_scan", "android": "https://dc.lft.to/lastmile_qr_scan"}, "is_reserved": 0}, {"lon": -77.05584116666667, "bike_id": "c79cc9de2fb38e1dfafd9103eb54c569", "lat": 38.893114, "fusion_lon": 0.0, "fusion_lat": 0.0, "type": "electric_scooter", "name": "c79cc9de2fb38e1dfafd9103eb54c569", "is_disabled": 0, "rental_uris": {"ios": "https://dc.lft.to/lastmile_qr_scan", "android": "https://dc.lft.to/lastmile_qr_scan"}, "is_reserved": 0}, {"lon": -77.06389083333333, "bike_id": "500b4efc183e81a88e25f9d78ae82eed", "lat": 38.90921433333333, "fusion_lon": 0.0, "fusion_lat": 0.0, "type": "electric_scooter", "name": "500b4efc183e81a88e25f9d78ae82eed", "is_disabled": 0, "rental_uris": {"ios": "https://dc.lft.to/lastmile_qr_scan", "android": "https://dc.lft.to/lastmile_qr_scan"}, "is_reserved": 0}, {"lon": -77.04018416666666, "bike_id": "8b6a1930170fbc69427e0a824884eea8", "lat": 38.9149665, "fusion_lon": 0.0, "fusion_lat": 0.0, "type": "electric_scooter", "name": "8b6a1930170fbc69427e0a824884eea8", "is_disabled": 0, "rental_uris": {"ios": "https://dc.lft.to/lastmile_qr_scan", "android": "https://dc.lft.to/lastmile_qr_scan"}, "is_reserved": 0}, {"lon": -77.0463065, "bike_id": "15ee5f5a1a6d3e99525cdbcb7123462d", "lat": 38.915696, "fusion_lon": 0.0, "fusion_lat": 0.0, "type": "electric_scooter", "name": "15ee5f5a1a6d3e99525cdbcb7123462d", "is_disabled": 0, "rental_uris": {"ios": "https://dc.lft.to/lastmile_qr_scan", "android": "https://dc.lft.to/lastmile_qr_scan"}, "is_reserved": 0}, {"lon": -77.04021033333333, "bike_id": "1ef4bb9344bccfcbe1e0df35ed71c83b", "lat": 38.9149345, "fusion_lon": 0.0, "fusion_lat": 0.0, "type": "electric_scooter", "name": "1ef4bb9344bccfcbe1e0df35ed71c83b", "is_disabled": 0, "rental_uris": {"ios": "https://dc.lft.to/lastmile_qr_scan", "android": "https://dc.lft.to/lastmile_qr_scan"}, "is_reserved": 0},