{"data": {"bikes": [{"lon": -77.02110366666666, "bike_id": "489644b95234133c68ba82c7e133588b", "lat": 38.9059555, "fusion_lon": 0.0, "fusion_lat": 0.0, "type": "electric_scooter", "name": "489644b95234133c68ba82c7e133588b", "is_disabled": 0, "rental_uris": {"ios": "https://dc.lft.to/lastmile_qr_scan", "android": "https://dc.lft.to/lastmile_qr_scan"}, "is_reserved": 0}, {"lon": -76.9892295, "bike_id": "a243c16b07e6d3e799b098fc47139e8e", "lat": 38.858104, "fusion_lon": 0.0, "fusion_lat": 0.0, "type": "electric_scooter", "name": "a243c16b07e6d3e799b098fc47139e8e", "is_disabled": 0, "rental_uris": {"ios": "https://dc.lft.to/lastmile_qr_scan", "android": "https://dc.lft.to/lastmile_qr_scan"}, "is_reserved": 0}, {"lon": -77.00201483333333, "bike_id": "544e91b693ed2e02546b0250bf4442ce", "lat": 38.90237783333333, "fusion_lon": 0.0, "fusion_lat": 0.0, "type": "electric_scooter", "name": "544e91b693ed2e02546b0250bf4442ce", "is_disabled": 0, "rental_uris": {"ios": "https://dc.lft.to/lastmile_qr_scan", "android": "https://dc.lft.to/lastmile_qr_scan"}, "is_reserved": 0}, {"lon": -77.03642233333333, "bike_id": "5c84638b7a4345966f3fe6b3bcbdd66b", "lat": 38.984919, "fusion_lon": 0.0, "fusion_lat": 0.0, "type": "electric_bike", "name": "5c84638b7a4345966f3fe6b3bcbdd66b", "is_disabled": 0, "rental_uris": {"ios": "https://dc.lft.to/lastmile_qr_scan", "android": "https://dc.lft.to/lastmile_qr_scan"}, "is_reserved": 0}, {"lon": -77.043863, "bike_id": "e7630d93156cb46ae4cc6f8f8add07e5", "lat": 39.04714766666667, "fusion_lon": 0.0, "fusion_lat": 0.0, "type": "electric_bike", "name": "e7630d93156cb46ae4cc6f8f8add07e5", "is_disabled": 0, "rental_uris": {"ios": "https://dc.lft.to/lastmile_qr_scan", "android": "https://dc.lft.to/lastmile_qr_scan"}, "is_reserved": 0}, {"lon": -77.04684816666666, "bike_id": "6b7875f85b1433f0c4885e234c44cca0", "lat": 38.906182666666666, "fusion_lon": 0.0, "fusion_lat": 0.0, "type": "electric_scooter", "name": "6b7875f85b1433f0c4885e234c44cca0", "is_disabled": 0, "rental_uris": {"ios": "https://dc.lft.to/lastmile_qr_scan", "android": "https://dc.lft.to/lastmile_qr_scan"}, "is_reserved": 0}, {"lon": -77.02227883333333, "bike_id": "bd4a5e163432c6cf6d6a8460c5131fda", "lat": 38.92622383333333, "fusion_lon": 0.0, "fusion_lat": 0.0, "type": "electric_scooter", "name": "bd4a5e163432c6cf6d6a8460c5131fda", "is_disabled": 0, "rental_uris": {"ios": "https://dc.lft.to/lastmile_qr_scan", "android": "https://dc.lft.to/lastmile_qr_scan"}, "is_reserved": 0}, {"lon": -77.04401783333333, "bike_id": "2ef4d641267f032621c3091cf40137f8", "lat": 38.924548, "fusion_lon": 0.0, "fusion_lat": 0.0, "type": "electric_scooter", "name": "2ef4d641267f032621c3091cf40137f8", "is_disabled": 0, "rental_uris": {"ios": "https://dc.lft.to/lastmile_qr_scan", "android": "https://dc.lft.to/lastmile_qr_scan"}, "is_reserved": 0}, {"lon": -77.0218145, "bike_id": "ddc26355cc66db056be2d9ca8ca638ab", "lat": 38.939511833333334, "fusion_lon": 0.0, "fusion_lat": 0.0, "type": "electric_scooter", "name": "ddc26355cc66db056be2d9ca8ca638ab", "is_disabled": 0, "rental_uris": {"ios": "https://dc.lft.to/lastmile_qr_scan", "android": "https://dc.lft.to/lastmile_qr_scan"}, "is_reserved": 0}, {"lon": -77.01268016666667, "bike_id": "09a1faf210b959b4a813188da962304d", "lat": 38.9153905, "fusion_lon": 0.0, "fusion_lat": 0.0, "type": "electric_scooter", "name": "09a1faf210b959b4a813188da962304d", "is_disabled": 0, "rental_uris": {"ios": "https://dc.lft.to/lastmile_qr_scan", "android": "https://dc.lft.to/lastmile_qr_scan"}, "is_reserved": 0}, {"lon": -77.0320265, "bike_id": "d5126cc65983ae26c6571d48d5aff7f2", "lat": 38.939668, "fusion_lon": 0.0, "fusion_lat": 0.0, "type": "electric_scooter", "name": "d5126cc65983ae26c6571d48d5aff7f2", "is_disabled": 0, "rental_uris": {"ios": "https://dc.lft.to/lastmile_qr_scan", "android": "https://dc.lft.to/lastmile_qr_scan"}, "is_reserved": 0}, {"lon": -77.02796516666666, "bike_id": "482dd5cdc715b5fd28e43ebed8c40a11", "lat": 38.93533216666667, "fusion_lon": 0.0, "fusion_lat": 0.0, "type": "electric_scooter", "name": "482dd5cdc715b5fd28e43ebed8c40a11", "is_disabled": 0, "rental_uris": {"ios": "https://dc.lft.to/lastmile_qr_scan", "android": "https://dc.lft.to/lastmile_qr_scan"}, "is_reserved": 0}, {"lon": -77.02920566666667, "bike_id": "74baafff2bc692cf5aa47c17d9c98b4d", "lat": 38.92369033333333, "fusion_lon": 0.0, "fusion_lat": 0.0, "type": "electric_scooter", "name": "74baafff2bc692cf5aa47c17d9c98b4d", "is_disabled": 0, "rental_uris": {"ios": "https://dc.lft.to/lastmile_qr_scan", "android": "https://dc.lft.to/lastmile_qr_scan"}, "is_reserved": 0}, {"lon": -77.02054233333334, "bike_id": "ef33bf8d5288ce9bc4f32b57bc413302", "lat": 38.90150666666667, "fusion_lon": 0.0, "fusion_lat": 0.0, "type": "electric_scooter", "name": "ef33bf8d5288ce9bc4f32b57bc413302", "is_disabled": 0, "rental_uris": {"ios": "https://dc.lft.to/lastmile_qr_scan", "android": "https://dc.lft.to/lastmile_qr_scan"}, "is_reserved": 0}, {"lon": -77.03183416666667, "bike_id": "40a2b9ab7f0cfd75f8afa9c48c2c5c97", "lat": 38.915609333333336, "fusion_lon": 0.0, "fusion_lat": 0.0, "type": "electric_scooter", "name": "40a2b9ab7f0cfd75f8afa9c48c2c5c97", "is_disabled": 0, "rental_uris": {"ios": "https://dc.lft.to/lastmile_qr_scan", "android": "https://dc.lft.to/lastmile_qr_scan"}, "is_reserved": 0}, {"lon": -77.04417466666666, "bike_id": "1b128874bd351db78510ad47908fd489", "lat": 38.9212825, "fusion_lon": 0.0, "fusion_lat": 0.0, "type": "electric_scooter", "name": "1b128874bd351db78510ad47908fd489", "is_disabled": 0, "rental_uris": {"ios": "https://dc.lft.to/lastmile_qr_scan", "android": "https://dc.lft.to/lastmile_qr_scan"}, "is_reserved": 0}, {"lon": -77.0140035, "bike_id": "2d7b1374c917b274b362b2d029a17a8d", "lat": 38.928488333333334, "fusion_lon": 0.0, "fusion_lat": 0.0, "type": "electric_scooter", "name": "2d7b1374c917b274b362b2d029a17a8d", "is_disabled": 0, "rental_uris": {"ios": "https://dc.lft.to/lastmile_qr_scan", "android": "https://dc.lft.to/lastmile_qr_scan"}, "is_reserved": 0}, {"lon": -77.0444065, "bike_id": "4494ef2dada8510cd4bd9624c9b13e1f", "lat": 38.921648, "fusion_lon": 0.0, "fusion_lat": 0.0, "type": "electric_scooter", "name": "4494ef2dada8510cd4bd9624c9b13e1f", "is_disabled": 0, "rental_uris": {"ios": "https://dc.lft.to/lastmile_qr_scan", "android": "https://dc.lft.to/lastmile_qr_scan"}, "is_reserved": 0}, {"lon": -76.97727416666666, "bike_id": "15169edf3ab670786643090e2f25416f", "lat": 38.872887666666664, "fusion_lon": 0.0, "fusion_lat": 0.0, "type": "electric_scooter", "name": "15169edf3ab670786643090e2f25416f", "is_disabled": 0, "rental_uris": {"ios": "https://dc.lft.to/lastmile_qr_scan", "android": "https://dc.lft.to/lastmile_qr_scan"}, "is_reserved": 0}, {"lon": -77.03851066666667, "bike_id": "99339e9618ed5c1f98c7d02e5abbae91", "lat": 38.93202216666667, "fusion_lon": 0.0, "fusion_lat": 0.0, "type": "electric_scooter", "name": "99339e9618ed5c1f98c7d02e5abbae91", "is_disabled": 0, "rental_uris": {"ios": "https://dc.lft.to/lastmile_qr_scan", "android": "https://dc.lft.to/lastmile_qr_scan"}, "is_reserved": 0}, {"lon": -77.04004816666666, "bike_id": "9644f6e486207b51154b75a6ba73d3d2", "lat": 38.91003516666667, "fusion_lon": 0.0, "fusion_lat": 0.0, "type": "electric_scooter", "name": "9644f6e486207b51154b75a6ba73d3d2", "is_disabled": 0, "rental_uris": {"ios": "https://dc.lft.to/lastmile_qr_scan", "android": "https://dc.lft.to/lastmile_qr_scan"}, "is_reserved": 0}, {"lon": -77.01319183333334, "bike_id": "3d1b36872ce7485537d0f97a7c2ea532", "lat": 38.900683, "fusion_lon": 0.0, "fusion_lat": 0.0, "type": "electric_scooter", "name": "3d1b36872ce7485537d0f97a7c2ea532", "is_disabled": 0, "rental_uris": {"ios": "https://dc.lft.to/lastmile_qr_scan", "android": "https://dc.lft.to/lastmile_qr_scan"}, "is_reserved": 0}, {"lon": -76.93018066666667, "bike_id": "0d48e3f45d0bbdf04cea8e4a12ed47c8", "lat": 38.896496, "fusion_lon": 0.0, "fusion_lat": 0.0, "type": "electric_bike", "name": "0d48e3f45d0bbdf04cea8e4a12ed47c8", "is_disabled": 0, "rental_uris": {"ios": "https://dc.lft.to/lastmile_qr_scan", "android": "https://dc.lft.to/lastmile_qr_scan"}, "is_reserved": 0}, {"lon": -77.01728966666667, "bike_id": "1452942a2b718c8a103c779d355dffc2", "lat": 38.943151666666665, "fusion_lon": 0.0, "fusion_lat": 0.0, "type": "electric_scooter", "name": "1452942a2b718c8a103c779d355dffc2", "is_disabled": 0, "rental_uris": {"ios": "https://dc.lft.to/lastmile_qr_scan", "android": "https://dc.lft.to/lastmile_qr_scan"}, "is_reserved": 0}, {"lon": -76.93176416666667, "bike_id": "f5ffd03b9bb8b509ec6bf35544082a2d", "lat": 38.89881333333334, "fusion_lon": 0.0, "fusion_lat": 0.0, "type": "electric_scooter", "name": "f5ffd03b9bb8b509ec6bf35544082a2d", "is_disabled": 0, "rental_uris": {"ios": "https://dc.lft.to/lastmile_qr_scan", "android": "https://dc.lft.to/lastmile_qr_scan"}, "is_reserved": 0}, {"lon": -77.043589, "bike_id": "eeeac8ee4eaea06b435959760fffa9c6", "lat": 38.902499666666664, "fusion_lon": 0.0, "fusion_lat": 0.0, "type": "electric_scooter", "name": "eeeac8ee4eaea06b435959760fffa9c6", "is_disabled": 0, "rental_uris": {"ios": "https://dc.lft.to/lastmile_qr_scan", "android": "https://dc.lft.to/lastmile_qr_scan"}, "is_reserved": 0}, {"lon": -77.027414, "bike_id": "6e48af0128aff91da6e41df70d4f0756", "lat": 38.909559333333334, "fusion_lon": 0.0, "fusion_lat": 0.0, "type": "electric_bike", "name": "6e48af0128aff91da6e41df70d4f0756", "is_disabled": 0, "rental_uris": {"ios": "https://dc.lft.to/lastmile_qr_scan", "android": "https://dc.lft.to/lastmile_qr_scan"}, "is_reserved": 0}, {"lon": -77.03290583333333, "bike_id": "e58bcc859fa748a12f1e51425a7fb494", "lat": 38.956497666666664, "fusion_lon": 0.0, "fusion_lat": 0.0, "type": "electric_scooter", "name": "e58bcc859fa748a12f1e51425a7fb494", "is_disabled": 0, "rental_uris": {"ios": "https://dc.lft.to/lastmile_qr_scan", "android": "https://dc.lft.to/lastmile_qr_scan"}, "is_reserved": 0}, {"lon": -77.04398316666666, "bike_id": "af5183eae0629457009ccbbc2ce7672e", "lat": 38.91717216666667, "fusion_lon": 0.0, "fusion_lat": 0.0, "type": "electric_scooter", "name": "af5183eae0629457009ccbbc2ce7672e", "is_disabled": 0, "rental_uris": {"ios": "https://dc.lft.to/lastmile_qr_scan", "android": "https://dc.lft.to/lastmile_qr_scan"}, "is_reserved": 0}, {"lon": -77.02353866666667, "bike_id": "b27b42e7f82defa573d23c15a7bc0e60", "lat": 38.93537633333333, "fusion_lon": 0.0, "fusion_lat": 0.0, "type": "electric_scooter", "name": "b27b42e7f82defa573d23c15a7bc0e60", "is_disabled": 0, "rental_uris": {"ios": "https://dc.lft.to/lastmile_qr_scan", "android": "https://dc.lft.to/lastmile_qr_scan"}, "is_reserved": 0}, {"lon": -76.9363935, "bike_id": "2485bf0d68a5852cbcb0c905d9475eea", "lat": 38.900589, "fusion_lon": 0.0, "fusion_lat": 0.0, "type": "electric_scooter", "name": "2485bf0d68a5852cbcb0c905d9475eea", "is_disabled": 0, "rental_uris": {"ios": "https://dc.lft.to/lastmile_qr_scan", "android": "https://dc.lft.to/lastmile_qr_scan"}, "is_reserved": 0}, {"lon": -77.000511, "bike_id": "b9f2a3912deeabba8171f772c998e776", "lat": 38.89648733333333, "fusion_lon": 0.0, "fusion_lat": 0.0, "type": "electric_scooter", "name": "b9f2a3912deeabba8171f772c998e776", "is_disabled": 0, "rental_uris": {"ios": "https://dc.lft.to/lastmile_qr_scan", "android": "https://dc.lft.to/lastmile_qr_scan"}, "is_reserved": 0}, {"lon": -77.0083415, "bike_id": "29a89696a6ae8eecc1d1c9f4b4aa3170", "lat": 38.9133975, "fusion_lon": 0.0, "fusion_lat": 0.0, "type": "electric_scooter", "name": "29a89696a6ae8eecc1d1c9f4b4aa3170", "is_disabled": 0, "rental_uris": {"ios": "https://dc.lft.to/lastmile_qr_scan", "android": "https://dc.lft.to/lastmile_qr_scan"}, "is_reserved": 0}, {"lon": -77.01315933333333, "bike_id": "cc30eff05a68db57803c53ddacd8bb98", "lat": 38.87147383333333, "fusion_lon": 0.0, "fusion_lat": 0.0, "type": "electric_scooter", "name": "cc30eff05a68db57803c53ddacd8bb98", "is_disabled": 0, "rental_uris": {"ios": "https://dc.lft.to/lastmile_qr_scan", "android": "https://dc.lft.to/lastmile_qr_scan"}, "is_reserved": 0}, {"lon": -77.09869666666667, "bike_id": "405ed848dd01249d522d782653b026d3", "lat": 38.94968316666667, "fusion_lon": 0.0, "fusion_lat": 0.0, "type": "electric_scooter", "name": "405ed848dd01249d522d782653b026d3", "is_disabled": 0, "rental_uris": {"ios": "https://dc.lft.to/lastmile_qr_scan", "android": "https://dc.lft.to/lastmile_qr_scan"}, "is_reserved": 0}, {"lon": -77.02198, "bike_id": "e6a05a5793c59ed7436c82b27c7f9a86", "lat": 38.9112755, "fusion_lon": 0.0, "fusion_lat": 0.0, "type": "electric_scooter", "name": "e6a05a5793c59ed7436c82b27c7f9a86", "is_disabled": 0, "rental_uris": {"ios": "https://dc.lft.to/lastmile_qr_scan", "android": "https://dc.lft.to/lastmile_qr_scan"}, "is_reserved": 0}, {"lon": -77.02471366666667, "bike_id": "6e3dece872f80978fab0c61846809208", "lat": 38.91925066666667, "fusion_lon": 0.0, "fusion_lat": 0.0, "type": "electric_scooter", "name": "6e3dece872f80978fab0c61846809208", "is_disabled": 0, "rental_uris": {"ios": "https://dc.lft.to/lastmile_qr_scan", "android": "https://dc.lft.to/lastmile_qr_scan"}, "is_reserved": 0}, {"lon": -76.99456466666666, "bike_id": "4f9bd76a989ac58e8e47987d77f67264", "lat": 38.9661735, "fusion_lon": 0.0, "fusion_lat": 0.0, "type": "electric_bike", "name": "4f9bd76a989ac58e8e47987d77f67264", "is_disabled": 0, "rental_uris": {"ios": "https://dc.lft.to/lastmile_qr_scan", "android": "https://dc.lft.to/lastmile_qr_scan"}, "is_reserved": 0}, {"lon": -76.99002316666666, "bike_id": "74679328ddab42b9901e7536cb848757", "lat": 38.865018666666664, "fusion_lon": 0.0, "fusion_lat": 0.0, "type": "electric_scooter", "name": "74679328ddab42b9901e7536cb848757", "is_disabled": 0, "rental_uris": {"ios": "https://dc.lft.to/lastmile_qr_scan", "android": "https://dc.lft.to/lastmile_qr_scan"}, "is_reserved": 0}, {"lon": -77.00375633333333, "bike_id": "68c0ecb377ad00c53e280d115d600e88", "lat": 38.89734983333334, "fusion_lon": 0.0, "fusion_lat": 0.0, "type": "electric_scooter", "name": "68c0ecb377ad00c53e280d115d600e88", "is_disabled": 0, "rental_uris": {"ios": "https://dc.lft.to/lastmile_qr_scan", "android": "https://dc.lft.to/lastmile_qr_scan"}, "is_reserved": 0}, {"lon": -77.03547466666667, "bike_id": "55f0563c3e071460372fc7e36d7d4692", "lat": 38.9170795, "fusion_lon": 0.0, "fusion_lat": 0.0, "type": "electric_scooter", "name": "55f0563c3e071460372fc7e36d7d4692", "is_disabled": 0, "rental_uris": {"ios": "https://dc.lft.to/lastmile_qr_scan", "android": "https://dc.lft.to/lastmile_qr_scan"}, "is_reserved": 0}, {"lon": -77.009034, "bike_id": "401694f77bbb6bd1aceab0fc66d567cb", "lat": 38.90635266666666, "fusion_lon": 0.0, "fusion_lat": 0.0, "type": "electric_scooter", "name": "401694f77bbb6bd1aceab0fc66d567cb", "is_disabled": 0, "rental_uris": {"ios": "https://dc.lft.to/lastmile_qr_scan", "android": "https://dc.lft.to/lastmile_qr_scan"}, "is_reserved": 0}, {"lon": -77.03122883333333, "bike_id": "8e058c7a6e61f34da7a787fe79adb89a", "lat": 38.91695983333334, "fusion_lon": 0.0, "fusion_lat": 0.0, "type": "electric_scooter", "name": "8e058c7a6e61f34da7a787fe79adb89a", "is_disabled": 0, "rental_uris": {"ios": "https://dc.lft.to/lastmile_qr_scan", "android": "https://dc.lft.to/lastmile_qr_scan"}, "is_reserved": 0}, {"lon": -77.0069995, "bike_id": "62163a6ee082af7af88b2f6ffd00e7b8", "lat": 38.87648883333333, "fusion_lon": 0.0, "fusion_lat": 0.0, "type": "electric_scooter", "name": "62163a6ee082af7af88b2f6ffd00e7b8", "is_disabled": 0, "rental_uris": {"ios": "https://dc.lft.to/lastmile_qr_scan", "android": "https://dc.lft.to/lastmile_qr_scan"}, "is_reserved": 0}, {"lon": -76.99544966666667, "bike_id": "df61bcf9a6f7ee1b4b9b52253c287805", "lat": 38.86258333333333, "fusion_lon": 0.0, "fusion_lat": 0.0, "type": "electric_scooter", "name": "df61bcf9a6f7ee1b4b9b52253c287805", "is_disabled": 0, "rental_uris": {"ios": "https://dc.lft.to/lastmile_qr_scan", "android": "https://dc.lft.to/lastmile_qr_scan"}, "is_reserved": 0}, {"lon": -77.0318215, "bike_id": "b8b6623c677b29843ce8dbf51317b7ab", "lat": 38.914192166666666, "fusion_lon": 0.0, "fusion_lat": 0.0, "type": "electric_scooter", "name": "b8b6623c677b29843ce8dbf51317b7ab", "is_disabled": 0, "rental_uris": {"ios": "https://dc.lft.to/lastmile_qr_scan", "android": "https://dc.lft.to/lastmile_qr_scan"}, "is_reserved": 0}, {"lon": -76.92997433333333, "bike_id": "21569f2aaf6c0ff5d5c33c26513f49ce", "lat": 38.9018465, "fusion_lon": 0.0, "fusion_lat": 0.0, "type": "electric_scooter", "name": "21569f2aaf6c0ff5d5c33c26513f49ce", "is_disabled": 0, "rental_uris": {"ios": "https://dc.lft.to/lastmile_qr_scan", "android": "https://dc.lft.to/lastmile_qr_scan"}, "is_reserved": 0}, {"lon": -77.0320695, "bike_id": "5a6f5dffbbfaac21342b82aa8ef1263c", "lat": 38.9077935, "fusion_lon": 0.0, "fusion_lat": 0.0, "type": "electric_scooter", "name": "5a6f5dffbbfaac21342b82aa8ef1263c", "is_disabled": 0, "rental_uris": {"ios": "https://dc.lft.to/lastmile_qr_scan", "android": "https://dc.lft.to/lastmile_qr_scan"}, "is_reserved": 0}, {"lon": -77.034587, "bike_id": "e16b6a74b4d89b67e640452b02246ab3", "lat": 38.90867133333333, "fusion_lon": 0.0, "fusion_lat": 0.0, "type": "electric_scooter", "name": "e16b6a74b4d89b67e640452b02246ab3", "is_disabled": 0, "rental_uris": {"ios": "https://dc.lft.to/lastmile_qr_scan", "android": "https://dc.lft.to/lastmile_qr_scan"}, "is_reserved": 0}, {"lon": -77.03443216666666, "bike_id": "4c27332996670b39e54a37ccb1a42292", "lat": 38.9098055, "fusion_lon": 0.0, "fusion_lat": 0.0, "type": "electric_scooter", "name": "4c27332996670b39e54a37ccb1a42292", "is_disabled": 0, "rental_uris": {"ios": "https://dc.lft.to/lastmile_qr_scan", "android": "https://dc.lft.to/lastmile_qr_scan"}, "is_reserved": 0}, {"lon": -76.99714233333333, "bike_id": "bda905c130f06cd9bd5fe2ed36fc7bd1", "lat": 38.9111115, "fusion_lon": 0.0, "fusion_lat": 0.0, "type": "electric_scooter", "name": "bda905c130f06cd9bd5fe2ed36fc7bd1", "is_disabled": 0, "rental_uris": {"ios": "https://dc.lft.to/lastmile_qr_scan", "android": "https://dc.lft.to/lastmile_qr_scan"}, "is_reserved": 0}, {"lon": -77.10913083333334, "bike_id": "3cce04a9fbcb0125d79b6f05ff4d34e9", "lat": 39.05197866666666, "fusion_lon": 0.0, "fusion_lat": 0.0, "type": "electric_bike", "name": "3cce04a9fbcb0125d79b6f05ff4d34e9", "is_disabled": 0, "rental_uris": {"ios": "https://dc.lft.to/lastmile_qr_scan", "android": "https://dc.lft.to/lastmile_qr_scan"}, "is_reserved": 0}, {"lon": -77.085753, "bike_id": "aec9af639f521c34e5b295a513785181", "lat": 38.93352266666667, "fusion_lon": 0.0, "fusion_lat": 0.0, "type": "electric_scooter", "name": "aec9af639f521c34e5b295a513785181", "is_disabled": 0, "rental_uris": {"ios": "https://dc.lft.to/lastmile_qr_scan", "android": "https://dc.lft.to/lastmile_qr_scan"}, "is_reserved": 0}, {"lon": -77.0111585, "bike_id": "bfad55b3aeba152a7c45e18210a4d407", "lat": 38.885509166666665, "fusion_lon": 0.0, "fusion_lat": 0.0, "type": "electric_scooter", "name": "bfad55b3aeba152a7c45e18210a4d407", "is_disabled": 0, "rental_uris": {"ios": "https://dc.lft.to/lastmile_qr_scan", "android": "https://dc.lft.to/lastmile_qr_scan"}, "is_reserved": 0}, {"lon": -77.02808016666667, "bike_id": "33279d78c8a6890a0e13f4180a78cdd5", "lat": 38.8817635, "fusion_lon": 0.0, "fusion_lat": 0.0, "type": "electric_scooter", "name": "33279d78c8a6890a0e13f4180a78cdd5", "is_disabled": 0, "rental_uris": {"ios": "https://dc.lft.to/lastmile_qr_scan", "android": "https://dc.lft.to/lastmile_qr_scan"}, "is_reserved": 0}, {"lon": -77.01411333333333, "bike_id": "c92ba21f22ee528668488315f951ad24", "lat": 38.928395333333334, "fusion_lon": 0.0, "fusion_lat": 0.0, "type": "electric_scooter", "name": "c92ba21f22ee528668488315f951ad24", "is_disabled": 0, "rental_uris": {"ios": "https://dc.lft.to/lastmile_qr_scan", "android": "https://dc.lft.to/lastmile_qr_scan"}, "is_reserved": 0}, {"lon": -77.05935866666667, "bike_id": "8124c984287fd8d20c1745814ba02f11", "lat": 38.912358, "fusion_lon": 0.0, "fusion_lat": 0.0, "type": "electric_scooter", "name": "8124c984287fd8d20c1745814ba02f11", "is_disabled": 0, "rental_uris": {"ios": "https://dc.lft.to/lastmile_qr_scan", "android": "https://dc.lft.to/lastmile_qr_scan"}, "is_reserved": 0}, {"lon": -77.0385675, "bike_id": "325aaed81114ed54211cc644596ed13b", "lat": 38.9171345, "fusion_lon": 0.0, "fusion_lat": 0.0, "type": "electric_scooter", "name": "325aaed81114ed54211cc644596ed13b", "is_disabled": 0, "rental_uris": {"ios": "https://dc.lft.to/lastmile_qr_scan", "android": "https://dc.lft.to/lastmile_qr_scan"}, "is_reserved": 0}, {"lon": -77.014297, "bike_id": "a2c3c39f148b34a345d9240403d3dadd", "lat": 38.97220433333333, "fusion_lon": 0.0, "fusion_lat": 0.0, "type": "electric_bike", "name": "a2c3c39f148b34a345d9240403d3dadd", "is_disabled": 0, "rental_uris": {"ios": "https://dc.lft.to/lastmile_qr_scan", "android": "https://dc.lft.to/lastmile_qr_scan"}, "is_reserved": 0}, {"lon": -77.0672775, "bike_id": "51cf5df9e9a6bd1c99d3c16daa45b1a8", "lat": 38.909710833333335, "fusion_lon": 0.0, "fusion_lat": 0.0, "type": "electric_scooter", "name": "51cf5df9e9a6bd1c99d3c16daa45b1a8", "is_disabled": 0, "rental_uris": {"ios": "https://dc.lft.to/lastmile_qr_scan", "android": "https://dc.lft.to/lastmile_qr_scan"}, "is_reserved": 0}, {"lon": -77.03452216666666, "bike_id": "b6b9edb22a1880b3991d0391656ad97f", "lat": 38.905672833333334, "fusion_lon": 0.0, "fusion_lat": 0.0, "type": "electric_scooter", "name": "b6b9edb22a1880b3991d0391656ad97f", "is_disabled": 0, "rental_uris": {"ios": "https://dc.lft.to/lastmile_qr_scan", "android": "https://dc.lft.to/lastmile_qr_scan"}, "is_reserved": 0}, {"lon": -77.02114566666667, "bike_id": "7f34038f2697eb35b07b3f2800adb106", "lat": 38.91742283333333, "fusion_lon": 0.0, "fusion_lat": 0.0, "type": "electric_scooter", "name": "7f34038f2697eb35b07b3f2800adb106", "is_disabled": 0, "rental_uris": {"ios": "https://dc.lft.to/lastmile_qr_scan", "android": "https://dc.lft.to/lastmile_qr_scan"}, "is_reserved": 0}, {"lon": -76.99623616666666, "bike_id": "d06698946d7097da5514d126d5a1a548", "lat": 38.88303783333333, "fusion_lon": 0.0, "fusion_lat": 0.0, "type": "electric_bike", "name": "d06698946d7097da5514d126d5a1a548", "is_disabled": 0, "rental_uris": {"ios": "https://dc.lft.to/lastmile_qr_scan", "android": "https://dc.lft.to/lastmile_qr_scan"}, "is_reserved": 0}, {"lon": -77.04038183333333, "bike_id": "7f3e3cbac149dc709bf101815a1deb7e", "lat": 38.91863433333333, "fusion_lon": 0.0, "fusion_lat": 0.0, "type": "electric_scooter", "name": "7f3e3cbac149dc709bf101815a1deb7e", "is_disabled": 0, "rental_uris": {"ios": "https://dc.lft.to/lastmile_qr_scan", "android": "https://dc.lft.to/lastmile_qr_scan"}, "is_reserved": 0}, {"lon": -76.946331, "bike_id": "909eab9c0b63ad49840141eca1bf810b", "lat": 38.89831016666667, "fusion_lon": 0.0, "fusion_lat": 0.0, "type": "electric_scooter", "name": "909eab9c0b63ad49840141eca1bf810b", "is_disabled": 0, "rental_uris": {"ios": "https://dc.lft.to/lastmile_qr_scan", "android": "https://dc.lft.to/lastmile_qr_scan"}, "is_reserved": 0}, {"lon": -77.03943316666667, "bike_id": "ba804209d4699c8b9614376058ce2f15", "lat": 38.919372333333335, "fusion_lon": 0.0, "fusion_lat": 0.0, "type": "electric_scooter", "name": "ba804209d4699c8b9614376058ce2f15", "is_disabled": 0, "rental_uris": {"ios": "https://dc.lft.to/lastmile_qr_scan", "android": "https://dc.lft.to/lastmile_qr_scan"}, "is_reserved": 0}, {"lon": -77.05625416666666, "bike_id": "175864a01deb86af0fdbfc5c8ff235dd", "lat": 38.9234095, "fusion_lon": 0.0, "fusion_lat": 0.0, "type": "electric_scooter", "name": "175864a01deb86af0fdbfc5c8ff235dd", "is_disabled": 0, "rental_uris": {"ios": "https://dc.lft.to/lastmile_qr_scan", "android": "https://dc.lft.to/lastmile_qr_scan"}, "is_reserved": 0}, {"lon": -76.99865816666667, "bike_id": "f59e30b2c41754c40e2a845120efaaeb", "lat": 38.907784666666664, "fusion_lon": 0.0, "fusion_lat": 0.0, "type": "electric_scooter", "name": "f59e30b2c41754c40e2a845120efaaeb", "is_disabled": 0, "rental_uris": {"ios": "https://dc.lft.to/lastmile_qr_scan", "android": "https://dc.lft.to/lastmile_qr_scan"}, "is_reserved": 0}, {"lon": -77.0243965, "bike_id": "fb1a74a02d9d00730e74bead76ff6f81", "lat": 38.92053883333333, "fusion_lon": 0.0, "fusion_lat": 0.0, "type": "electric_scooter", "name": "fb1a74a02d9d00730e74bead76ff6f81", "is_disabled": 0, "rental_uris": {"ios": "https://dc.lft.to/lastmile_qr_scan", "android": "https://dc.lft.to/lastmile_qr_scan"}, "is_reserved": 0}, {"lon": -77.0765955, "bike_id": "85acc9968727589f93750ed2fa494a93", "lat": 38.943055333333334, "fusion_lon": 0.0, "fusion_lat": 0.0, "type": "electric_scooter", "name": "85acc9968727589f93750ed2fa494a93", "is_disabled": 0, "rental_uris": {"ios": "https://dc.lft.to/lastmile_qr_scan", "android": "https://dc.lft.to/lastmile_qr_scan"}, "is_reserved": 0}, {"lon": -77.03280333333333, "bike_id": "ba50459fe221ca251a7a7195cf6eee07", "lat": 38.92753033333334, "fusion_lon": 0.0, "fusion_lat": 0.0, "type": "electric_scooter", "name": "ba50459fe221ca251a7a7195cf6eee07", "is_disabled": 0, "rental_uris": {"ios": "https://dc.lft.to/lastmile_qr_scan", "android": "https://dc.lft.to/lastmile_qr_scan"}, "is_reserved": 0}, {"lon": -76.96523583333334, "bike_id": "d80b5a3924a583fd78f6730de8f79a4c", "lat": 38.8748435, "fusion_lon": 0.0, "fusion_lat": 0.0, "type": "electric_scooter", "name": "d80b5a3924a583fd78f6730de8f79a4c", "is_disabled": 0, "rental_uris": {"ios": "https://dc.lft.to/lastmile_qr_scan", "android": "https://dc.lft.to/lastmile_qr_scan"}, "is_reserved": 0}, {"lon": -76.99200033333334, "bike_id": "aa4dba07954c98da2ef0505d23757a0f", "lat": 38.898269, "fusion_lon": 0.0, "fusion_lat": 0.0, "type": "electric_scooter", "name": "aa4dba07954c98da2ef0505d23757a0f", "is_disabled": 0, "rental_uris": {"ios": "https://dc.lft.to/lastmile_qr_scan", "android": "https://dc.lft.to/lastmile_qr_scan"}, "is_reserved": 0}, {"lon": -77.04218316666666, "bike_id": "a5ce6131eed1e9437ad7630951939b7b", "lat": 38.911174, "fusion_lon": 0.0, "fusion_lat": 0.0, "type": "electric_scooter", "name": "a5ce6131eed1e9437ad7630951939b7b", "is_disabled": 0, "rental_uris": {"ios": "https://dc.lft.to/lastmile_qr_scan", "android": "https://dc.lft.to/lastmile_qr_scan"}, "is_reserved": 0}, {"lon": -76.99737033333334, "bike_id": "97f665a9865ccefb2c406f1860b8deb4", "lat": 38.92041183333333, "fusion_lon": 0.0, "fusion_lat": 0.0, "type": "electric_scooter", "name": "97f665a9865ccefb2c406f1860b8deb4", "is_disabled": 0, "rental_uris": {"ios": "https://dc.lft.to/lastmile_qr_scan", "android": "https://dc.lft.to/lastmile_qr_scan"}, "is_reserved": 0}, {"lon": -76.9923195, "bike_id": "13d312b6d206540621e0c4e080a4867d", "lat": 38.90791816666667, "fusion_lon": 0.0, "fusion_lat": 0.0, "type": "electric_scooter", "name": "13d312b6d206540621e0c4e080a4867d", "is_disabled": 0, "rental_uris": {"ios": "https://dc.lft.to/lastmile_qr_scan", "android": "https://dc.lft.to/lastmile_qr_scan"}, "is_reserved": 0}, {"lon": -77.04245433333334, "bike_id": "f3fba34e32c3ed3905553437f3a42cea", "lat": 38.906401833333334, "fusion_lon": 0.0, "fusion_lat": 0.0, "type": "electric_scooter", "name": "f3fba34e32c3ed3905553437f3a42cea", "is_disabled": 0, "rental_uris": {"ios": "https://dc.lft.to/lastmile_qr_scan", "android": "https://dc.lft.to/lastmile_qr_scan"}, "is_reserved": 0}, {"lon": -77.04552683333333, "bike_id": "61d38bdbbf59f2adb5788aa1240a7db6", "lat": 38.91923333333333, "fusion_lon": 0.0, "fusion_lat": 0.0, "type": "electric_scooter", "name": "61d38bdbbf59f2adb5788aa1240a7db6", "is_disabled": 0, "rental_uris": {"ios": "https://dc.lft.to/lastmile_qr_scan", "android": "https://dc.lft.to/lastmile_qr_scan"}, "is_reserved": 0}, {"lon": -77.009061, "bike_id": "e92cf0556d596e22a7a291bf5149b279", "lat": 38.896389166666665, "fusion_lon": 0.0, "fusion_lat": 0.0, "type": "electric_scooter", "name": "e92cf0556d596e22a7a291bf5149b279", "is_disabled": 0, "rental_uris": {"ios": "https://dc.lft.to/lastmile_qr_scan", "android": "https://dc.lft.to/lastmile_qr_scan"}, "is_reserved": 0}, {"lon": -77.0217055, "bike_id": "d079d5f0aac3bd79cb4ec7c3d413af31", "lat": 38.942925833333334, "fusion_lon": 0.0, "fusion_lat": 0.0, "type": "electric_scooter", "name": "d079d5f0aac3bd79cb4ec7c3d413af31", "is_disabled": 0, "rental_uris": {"ios": "https://dc.lft.to/lastmile_qr_scan", "android": "https://dc.lft.to/lastmile_qr_scan"}, "is_reserved": 0}, {"lon": -77.02563416666666, "bike_id": "4268ce96684995efd9290d118d759f23", "lat": 38.92479266666667, "fusion_lon": 0.0, "fusion_lat": 0.0, "type": "electric_scooter", "name": "4268ce96684995efd9290d118d759f23", "is_disabled": 0, "rental_uris": {"ios": "https://dc.lft.to/lastmile_qr_scan", "android": "https://dc.lft.to/lastmile_qr_scan"}, "is_reserved": 0}, {"lon": -77.0236515, "bike_id": "28876c61e6e62fdf88d84c6fc8235e18", "lat": 38.892123833333336, "fusion_lon": 0.0, "fusion_lat": 0.0, "type": "electric_scooter", "name": "28876c61e6e62fdf88d84c6fc8235e18", "is_disabled": 0, "rental_uris": {"ios": "https://dc.lft.to/lastmile_qr_scan", "android": "https://dc.lft.to/lastmile_qr_scan"}, "is_reserved": 0}, {"lon": -76.96153133333334, "bike_id": "fa221c5006b9c4670059842c554aabb4", "lat": 38.88357033333333, "fusion_lon": 0.0, "fusion_lat": 0.0, "type": "electric_scooter", "name": "fa221c5006b9c4670059842c554aabb4", "is_disabled": 0, "rental_uris": {"ios": "https://dc.lft.to/lastmile_qr_scan", "android": "https://dc.lft.to/lastmile_qr_scan"}, "is_reserved": 0}, {"lon": -76.98585183333333, "bike_id": "72a65749cac6161b809af87c4a7dbdad", "lat": 38.86238066666667, "fusion_lon": 0.0, "fusion_lat": 0.0, "type": "electric_scooter", "name": "72a65749cac6161b809af87c4a7dbdad", "is_disabled": 0, "rental_uris": {"ios": "https://dc.lft.to/lastmile_qr_scan", "android": "https://dc.lft.to/lastmile_qr_scan"}, "is_reserved": 0}, {"lon": -77.03209116666666, "bike_id": "47b18f14f206482d48e6c3fe5f97759e", "lat": 38.909675666666665, "fusion_lon": 0.0, "fusion_lat": 0.0, "type": "electric_scooter", "name": "47b18f14f206482d48e6c3fe5f97759e", "is_disabled": 0, "rental_uris": {"ios": "https://dc.lft.to/lastmile_qr_scan", "android": "https://dc.lft.to/lastmile_qr_scan"}, "is_reserved": 0}, {"lon": -76.9854015, "bike_id": "820365c23c93002db4ca157dd970c751", "lat": 38.91022983333333, "fusion_lon": 0.0, "fusion_lat": 0.0, "type": "electric_scooter", "name": "820365c23c93002db4ca157dd970c751", "is_disabled": 0, "rental_uris": {"ios": "https://dc.lft.to/lastmile_qr_scan", "android": "https://dc.lft.to/lastmile_qr_scan"}, "is_reserved": 0}, {"lon": -77.10596583333333, "bike_id": "dd67a30052f602620d5a33bc00400a56", "lat": 38.928918, "fusion_lon": 0.0, "fusion_lat": 0.0, "type": "electric_bike", "name": "dd67a30052f602620d5a33bc00400a56", "is_disabled": 0, "rental_uris": {"ios": "https://dc.lft.to/lastmile_qr_scan", "android": "https://dc.lft.to/lastmile_qr_scan"}, "is_reserved": 0}, {"lon": -76.99173216666667, "bike_id": "10d11eac791e14b85e8c0b516d9f1a48", "lat": 38.905003666666666, "fusion_lon": 0.0, "fusion_lat": 0.0, "type": "electric_scooter", "name": "10d11eac791e14b85e8c0b516d9f1a48", "is_disabled": 0, "rental_uris": {"ios": "https://dc.lft.to/lastmile_qr_scan", "android": "https://dc.lft.to/lastmile_qr_scan"}, "is_reserved": 0}, {"lon": -77.03874333333333, "bike_id": "2eea30636914ca42fe909f8ec503ef3f", "lat": 38.90278283333333, "fusion_lon": 0.0, "fusion_lat": 0.0, "type": "electric_scooter", "name": "2eea30636914ca42fe909f8ec503ef3f", "is_disabled": 0, "rental_uris": {"ios": "https://dc.lft.to/lastmile_qr_scan", "android": "https://dc.lft.to/lastmile_qr_scan"}, "is_reserved": 0}, {"lon": -77.0340505, "bike_id": "6e2f8b1707df3a52676168ef35b1c21b", "lat": 38.9341385, "fusion_lon": 0.0, "fusion_lat": 0.0, "type": "electric_scooter", "name": "6e2f8b1707df3a52676168ef35b1c21b", "is_disabled": 0, "rental_uris": {"ios": "https://dc.lft.to/lastmile_qr_scan", "android": "https://dc.lft.to/lastmile_qr_scan"}, "is_reserved": 0}, {"lon": -76.987241, "bike_id": "1e9668fa71d696a1067d8f639a091243", "lat": 38.86710583333333, "fusion_lon": 0.0, "fusion_lat": 0.0, "type": "electric_scooter", "name": "1e9668fa71d696a1067d8f639a091243", "is_disabled": 0, "rental_uris": {"ios": "https://dc.lft.to/lastmile_qr_scan", "android": "https://dc.lft.to/lastmile_qr_scan"}, "is_reserved": 0}, {"lon": -77.03160783333334, "bike_id": "34263db7b6686afa3f83954eb817d87c", "lat": 38.91708066666666, "fusion_lon": 0.0, "fusion_lat": 0.0, "type": "electric_scooter", "name": "34263db7b6686afa3f83954eb817d87c", "is_disabled": 0, "rental_uris": {"ios": "https://dc.lft.to/lastmile_qr_scan", "android": "https://dc.lft.to/lastmile_qr_scan"}, "is_reserved": 0}, {"lon": -77.02978416666667, "bike_id": "9690a1d32b89c89fdf62a21e3b2c69cd", "lat": 38.947408833333334, "fusion_lon": 0.0, "fusion_lat": 0.0, "type": "electric_scooter", "name": "9690a1d32b89c89fdf62a21e3b2c69cd", "is_disabled": 0, "rental_uris": {"ios": "https://dc.lft.to/lastmile_qr_scan", "android": "https://dc.lft.to/lastmile_qr_scan"}, "is_reserved": 0}, {"lon": -77.04691616666666, "bike_id": "b422db5c804023c1e8f076ad9e1cd6d1", "lat": 38.921135166666666, "fusion_lon": 0.0, "fusion_lat": 0.0, "type": "electric_scooter", "name": "b422db5c804023c1e8f076ad9e1cd6d1", "is_disabled": 0, "rental_uris": {"ios": "https://dc.lft.to/lastmile_qr_scan", "android": "https://dc.lft.to/lastmile_qr_scan"}, "is_reserved": 0}, {"lon": -77.031138, "bike_id": "741adc6a1c71c0e25f89c927fdee1a9c", "lat": 38.91703866666667, "fusion_lon": 0.0, "fusion_lat": 0.0, "type": "electric_scooter", "name": "741adc6a1c71c0e25f89c927fdee1a9c", "is_disabled": 0, "rental_uris": {"ios": "https://dc.lft.to/lastmile_qr_scan", "android": "https://dc.lft.to/lastmile_qr_scan"}, "is_reserved": 0}, {"lon": -77.04335166666667, "bike_id": "40bf0bcbd08b23f7529b41d11758f917", "lat": 38.908018166666665, "fusion_lon": 0.0, "fusion_lat": 0.0, "type": "electric_scooter", "name": "40bf0bcbd08b23f7529b41d11758f917", "is_disabled": 0, "rental_uris": {"ios": "https://dc.lft.to/lastmile_qr_scan", "android": "https://dc.lft.to/lastmile_qr_scan"}, "is_reserved": 0}, {"lon": -77.05139533333333, "bike_id": "af038a9dcf318d60925a2519dd0572ff", "lat": 38.898602833333335, "fusion_lon": 0.0, "fusion_lat": 0.0, "type": "electric_scooter", "name": "af038a9dcf318d60925a2519dd0572ff", "is_disabled": 0, "rental_uris": {"ios": "https://dc.lft.to/lastmile_qr_scan", "android": "https://dc.lft.to/lastmile_qr_scan"}, "is_reserved": 0}, {"lon": -77.0177175, "bike_id": "00b612caa85495e544926300f45b0cfb", "lat": 38.9212375, "fusion_lon": 0.0, "fusion_lat": 0.0, "type": "electric_scooter", "name": "00b612caa85495e544926300f45b0cfb", "is_disabled": 0, "rental_uris": {"ios": "https://dc.lft.to/lastmile_qr_scan", "android": "https://dc.lft.to/lastmile_qr_scan"}, "is_reserved": 0}, {"lon": -77.0214655, "bike_id": "cc163a2e73c792d35c5df488aa42e7b9", "lat": 38.89408, "fusion_lon": 0.0, "fusion_lat": 0.0, "type": "electric_scooter", "name": "cc163a2e73c792d35c5df488aa42e7b9", "is_disabled": 0, "rental_uris": {"ios": "https://dc.lft.to/lastmile_qr_scan", "android": "https://dc.lft.to/lastmile_qr_scan"}, "is_reserved": 0}, {"lon": -77.01287716666667, "bike_id": "d75f273f666d5412ebb290bdff9ec051", "lat": 38.91036066666667, "fusion_lon": 0.0, "fusion_lat": 0.0, "type": "electric_scooter", "name": "d75f273f666d5412ebb290bdff9ec051", "is_disabled": 0, "rental_uris": {"ios": "https://dc.lft.to/lastmile_qr_scan", "android": "https://dc.lft.to/lastmile_qr_scan"}, "is_reserved": 0}, {"lon": -77.03192733333333, "bike_id": "dbbc38f0dcc5badd90eb545292f03c23", "lat": 38.915683333333334, "fusion_lon": 0.0, "fusion_lat": 0.0, "type": "electric_scooter", "name": "dbbc38f0dcc5badd90eb545292f03c23", "is_disabled": 0, "rental_uris": {"ios": "https://dc.lft.to/lastmile_qr_scan", "android": "https://dc.lft.to/lastmile_qr_scan"}, "is_reserved": 0}, {"lon": -77.05018, "bike_id": "43fbf9e6db087971b73f25f06fc9af83", "lat": 38.901888166666666, "fusion_lon": 0.0, "fusion_lat": 0.0, "type": "electric_scooter", "name": "43fbf9e6db087971b73f25f06fc9af83", "is_disabled": 0, "rental_uris": {"ios": "https://dc.lft.to/lastmile_qr_scan", "android": "https://dc.lft.to/lastmile_qr_scan"}, "is_reserved": 0}, {"lon": -77.02345, "bike_id": "48a96cfae3c943c53954ff85449db88e", "lat": 38.859897833333335, "fusion_lon": 0.0, "fusion_lat": 0.0, "type": "electric_scooter", "name": "48a96cfae3c943c53954ff85449db88e", "is_disabled": 0, "rental_uris": {"ios": "https://dc.lft.to/lastmile_qr_scan", "android": "https://dc.lft.to/lastmile_qr_scan"}, "is_reserved": 0}, {"lon": -77.03775733333333, "bike_id": "84980312258d6a8413673f4d5976c167", "lat": 38.929715333333334, "fusion_lon": 0.0, "fusion_lat": 0.0, "type": "electric_scooter", "name": "84980312258d6a8413673f4d5976c167", "is_disabled": 0, "rental_uris": {"ios": "https://dc.lft.to/lastmile_qr_scan", "android": "https://dc.lft.to/lastmile_qr_scan"}, "is_reserved": 0}, {"lon": -77.036536, "bike_id": "890eded50636bdfea25a9c15a63648d6", "lat": 38.918654, "fusion_lon": 0.0, "fusion_lat": 0.0, "type": "electric_scooter", "name": "890eded50636bdfea25a9c15a63648d6", "is_disabled": 0, "rental_uris": {"ios": "https://dc.lft.to/lastmile_qr_scan", "android": "https://dc.lft.to/lastmile_qr_scan"}, "is_reserved": 0}, {"lon": -77.02583333333334, "bike_id": "113b04aaca73352e645d3877011f035f", "lat": 38.904926333333336, "fusion_lon": 0.0, "fusion_lat": 0.0, "type": "electric_scooter", "name": "113b04aaca73352e645d3877011f035f", "is_disabled": 0, "rental_uris": {"ios": "https://dc.lft.to/lastmile_qr_scan", "android": "https://dc.lft.to/lastmile_qr_scan"}, "is_reserved": 0}, {"lon": -76.98926033333333, "bike_id": "976b10b8358e49cb67201ce4b10ea569", "lat": 38.9182855, "fusion_lon": 0.0, "fusion_lat": 0.0, "type": "electric_scooter", "name": "976b10b8358e49cb67201ce4b10ea569", "is_disabled": 0, "rental_uris": {"ios": "https://dc.lft.to/lastmile_qr_scan", "android": "https://dc.lft.to/lastmile_qr_scan"}, "is_reserved": 0}, {"lon": -77.01752966666666, "bike_id": "23bc205b8997c0f598eee92bfc7534bb", "lat": 38.876659333333336, "fusion_lon": 0.0, "fusion_lat": 0.0, "type": "electric_scooter", "name": "23bc205b8997c0f598eee92bfc7534bb", "is_disabled": 0, "rental_uris": {"ios": "https://dc.lft.to/lastmile_qr_scan", "android": "https://dc.lft.to/lastmile_qr_scan"}, "is_reserved": 0}, {"lon": -77.0431765, "bike_id": "85db11f1fc55a0b044f8aa36ccb8f6bc", "lat": 38.918741, "fusion_lon": 0.0, "fusion_lat": 0.0, "type": "electric_scooter", "name": "85db11f1fc55a0b044f8aa36ccb8f6bc", "is_disabled": 0, "rental_uris": {"ios": "https://dc.lft.to/lastmile_qr_scan", "android": "https://dc.lft.to/lastmile_qr_scan"}, "is_reserved": 0}, {"lon": -77.04231466666667, "bike_id": "82cc63b0e5ed93f808b338d7b363d0db", "lat": 38.922156333333334, "fusion_lon": 0.0, "fusion_lat": 0.0, "type": "electric_scooter", "name": "82cc63b0e5ed93f808b338d7b363d0db", "is_disabled": 0, "rental_uris": {"ios": "https://dc.lft.to/lastmile_qr_scan", "android": "https://dc.lft.to/lastmile_qr_scan"}, "is_reserved": 0}, {"lon": -77.03864166666666, "bike_id": "7bef7f2a5c5537d8e9aa0bf0a09d1abd", "lat": 38.914172, "fusion_lon": 0.0, "fusion_lat": 0.0, "type": "electric_scooter", "name": "7bef7f2a5c5537d8e9aa0bf0a09d1abd", "is_disabled": 0, "rental_uris": {"ios": "https://dc.lft.to/lastmile_qr_scan", "android": "https://dc.lft.to/lastmile_qr_scan"}, "is_reserved": 0}, {"lon": -76.945726, "bike_id": "459362747d0a791a860d7187f118f8d4", "lat": 38.93753433333333, "fusion_lon": 0.0, "fusion_lat": 0.0, "type": "electric_bike", "name": "459362747d0a791a860d7187f118f8d4", "is_disabled": 0, "rental_uris": {"ios": "https://dc.lft.to/lastmile_qr_scan", "android": "https://dc.lft.to/lastmile_qr_scan"}, "is_reserved": 0}, {"lon": -77.02083633333334, "bike_id": "47c15500a026d5b5ed6f89b83897e5c6", "lat": 38.88186433333333, "fusion_lon": 0.0, "fusion_lat": 0.0, "type": "electric_scooter", "name": "47c15500a026d5b5ed6f89b83897e5c6", "is_disabled": 0, "rental_uris": {"ios": "https://dc.lft.to/lastmile_qr_scan", "android": "https://dc.lft.to/lastmile_qr_scan"}, "is_reserved": 0}, {"lon": -77.00212283333333, "bike_id": "3aa1db9ccf5709bccb154c1f124c5adf", "lat": 38.900397166666664, "fusion_lon": 0.0, "fusion_lat": 0.0, "type": "electric_scooter", "name": "3aa1db9ccf5709bccb154c1f124c5adf", "is_disabled": 0, "rental_uris": {"ios": "https://dc.lft.to/lastmile_qr_scan", "android": "https://dc.lft.to/lastmile_qr_scan"}, "is_reserved": 0}, {"lon": -76.98514366666667, "bike_id": "5712fe9d5ed1d35b6ba2b23b9a4802d0", "lat": 38.903494333333335, "fusion_lon": 0.0, "fusion_lat": 0.0, "type": "electric_scooter", "name": "5712fe9d5ed1d35b6ba2b23b9a4802d0", "is_disabled": 0, "rental_uris": {"ios": "https://dc.lft.to/lastmile_qr_scan", "android": "https://dc.lft.to/lastmile_qr_scan"}, "is_reserved": 0}, {"lon": -77.03871083333334, "bike_id": "055f84f7ed7abbf50cdb8f3bdd5221c9", "lat": 38.90724016666667, "fusion_lon": 0.0, "fusion_lat": 0.0, "type": "electric_scooter", "name": "055f84f7ed7abbf50cdb8f3bdd5221c9", "is_disabled": 0, "rental_uris": {"ios": "https://dc.lft.to/lastmile_qr_scan", "android": "https://dc.lft.to/lastmile_qr_scan"}, "is_reserved": 0}, {"lon": -77.0346, "bike_id": "9c16388ec5df3d8936c74005a2df5e0b", "lat": 38.916627166666665, "fusion_lon": 0.0, "fusion_lat": 0.0, "type": "electric_scooter", "name": "9c16388ec5df3d8936c74005a2df5e0b", "is_disabled": 0, "rental_uris": {"ios": "https://dc.lft.to/lastmile_qr_scan", "android": "https://dc.lft.to/lastmile_qr_scan"}, "is_reserved": 0}, {"lon": -77.0238085, "bike_id": "ab10e0dd174a99eedc43d59526ef90a3", "lat": 38.9061925, "fusion_lon": 0.0, "fusion_lat": 0.0, "type": "electric_scooter", "name": "ab10e0dd174a99eedc43d59526ef90a3", "is_disabled": 0, "rental_uris": {"ios": "https://dc.lft.to/lastmile_qr_scan", "android": "https://dc.lft.to/lastmile_qr_scan"}, "is_reserved": 0}, {"lon": -77.02712316666667, "bike_id": "d3c8791051785aaec6192d5ba3f58277", "lat": 38.9181135, "fusion_lon": 0.0, "fusion_lat": 0.0, "type": "electric_scooter", "name": "d3c8791051785aaec6192d5ba3f58277", "is_disabled": 0, "rental_uris": {"ios": "https://dc.lft.to/lastmile_qr_scan", "android": "https://dc.lft.to/lastmile_qr_scan"}, "is_reserved": 0}, {"lon": -77.0403925, "bike_id": "f51eb0fe6cd90540fa15fd050492bed4", "lat": 38.912659, "fusion_lon": 0.0, "fusion_lat": 0.0, "type": "electric_scooter", "name": "f51eb0fe6cd90540fa15fd050492bed4", "is_disabled": 0, "rental_uris": {"ios": "https://dc.lft.to/lastmile_qr_scan", "android": "https://dc.lft.to/lastmile_qr_scan"}, "is_reserved": 0}, {"lon": -77.02319666666666, "bike_id": "f50d258baf409df7590179037765c999", "lat": 38.95523383333333, "fusion_lon": 0.0, "fusion_lat": 0.0, "type": "electric_scooter", "name": "f50d258baf409df7590179037765c999", "is_disabled": 0, "rental_uris": {"ios": "https://dc.lft.to/lastmile_qr_scan", "android": "https://dc.lft.to/lastmile_qr_scan"}, "is_reserved": 0}, {"lon": -77.04456083333334, "bike_id": "72ada7ff31536f632beb978db530b93e", "lat": 38.91833966666667, "fusion_lon": 0.0, "fusion_lat": 0.0, "type": "electric_scooter", "name": "72ada7ff31536f632beb978db530b93e", "is_disabled": 0, "rental_uris": {"ios": "https://dc.lft.to/lastmile_qr_scan", "android": "https://dc.lft.to/lastmile_qr_scan"}, "is_reserved": 0}, {"lon": -77.02625416666666, "bike_id": "4e8c6c5111dabc8f48ef63df9d058e02", "lat": 38.9622745, "fusion_lon": 0.0, "fusion_lat": 0.0, "type": "electric_bike", "name": "4e8c6c5111dabc8f48ef63df9d058e02", "is_disabled": 0, "rental_uris": {"ios": "https://dc.lft.to/lastmile_qr_scan", "android": "https://dc.lft.to/lastmile_qr_scan"}, "is_reserved": 0}, {"lon": -77.03227766666667, "bike_id": "8b8ad3c615dc8eebe4c2259b188f0907", "lat": 38.931566, "fusion_lon": 0.0, "fusion_lat": 0.0, "type": "electric_scooter", "name": "8b8ad3c615dc8eebe4c2259b188f0907", "is_disabled": 0, "rental_uris": {"ios": "https://dc.lft.to/lastmile_qr_scan", "android": "https://dc.lft.to/lastmile_qr_scan"}, "is_reserved": 0}, {"lon": -77.03454066666667, "bike_id": "3eec7a2425616fbe38795d4bbb426f57", "lat": 38.934390666666665, "fusion_lon": 0.0, "fusion_lat": 0.0, "type": "electric_scooter", "name": "3eec7a2425616fbe38795d4bbb426f57", "is_disabled": 0, "rental_uris": {"ios": "https://dc.lft.to/lastmile_qr_scan", "android": "https://dc.lft.to/lastmile_qr_scan"}, "is_reserved": 0}, {"lon": -77.02292866666667, "bike_id": "9707fa9bb0a65e81d243116d84933f61", "lat": 38.9223065, "fusion_lon": 0.0, "fusion_lat": 0.0, "type": "electric_scooter", "name": "9707fa9bb0a65e81d243116d84933f61", "is_disabled": 0, "rental_uris": {"ios": "https://dc.lft.to/lastmile_qr_scan", "android": "https://dc.lft.to/lastmile_qr_scan"}, "is_reserved": 0}, {"lon": -77.00844733333334, "bike_id": "744f29f0065713a611cc5b7f95c8fd70", "lat": 38.876263333333334, "fusion_lon": 0.0, "fusion_lat": 0.0, "type": "electric_scooter", "name": "744f29f0065713a611cc5b7f95c8fd70", "is_disabled": 0, "rental_uris": {"ios": "https://dc.lft.to/lastmile_qr_scan", "android": "https://dc.lft.to/lastmile_qr_scan"}, "is_reserved": 0}, {"lon": -77.029597, "bike_id": "2bc77479f90a7042a6dba31704ea48c8", "lat": 38.92297083333333, "fusion_lon": 0.0, "fusion_lat": 0.0, "type": "electric_scooter", "name": "2bc77479f90a7042a6dba31704ea48c8", "is_disabled": 0, "rental_uris": {"ios": "https://dc.lft.to/lastmile_qr_scan", "android": "https://dc.lft.to/lastmile_qr_scan"}, "is_reserved": 0}, {"lon": -77.039604, "bike_id": "2eb28c7f48c39da7fc7aeba14db6d05a", "lat": 38.913602833333336, "fusion_lon": 0.0, "fusion_lat": 0.0, "type": "electric_scooter", "name": "2eb28c7f48c39da7fc7aeba14db6d05a", "is_disabled": 0, "rental_uris": {"ios": "https://dc.lft.to/lastmile_qr_scan", "android": "https://dc.lft.to/lastmile_qr_scan"}, "is_reserved": 0}, {"lon": -77.02763766666666, "bike_id": "1e06482525bb9363892e3b9f94dfca9e", "lat": 38.954243166666664, "fusion_lon": 0.0, "fusion_lat": 0.0, "type": "electric_scooter", "name": "1e06482525bb9363892e3b9f94dfca9e", "is_disabled": 0, "rental_uris": {"ios": "https://dc.lft.to/lastmile_qr_scan", "android": "https://dc.lft.to/lastmile_qr_scan"}, "is_reserved": 0}, {"lon": -76.965973, "bike_id": "386117bbae048a32e88f89d23faa3ff4", "lat": 38.871086, "fusion_lon": 0.0, "fusion_lat": 0.0, "type": "electric_scooter", "name": "386117bbae048a32e88f89d23faa3ff4", "is_disabled": 0, "rental_uris": {"ios": "https://dc.lft.to/lastmile_qr_scan", "android": "https://dc.lft.to/lastmile_qr_scan"}, "is_reserved": 0}, {"lon": -77.02028733333333, "bike_id": "fe2604ac05fa5919ddeba76ab2524e75", "lat": 38.905617166666666, "fusion_lon": 0.0, "fusion_lat": 0.0, "type": "electric_scooter", "name": "fe2604ac05fa5919ddeba76ab2524e75", "is_disabled": 0, "rental_uris": {"ios": "https://dc.lft.to/lastmile_qr_scan", "android": "https://dc.lft.to/lastmile_qr_scan"}, "is_reserved": 0}, {"lon": -77.040216, "bike_id": "667c6365bd79678308e25f51ac517b11", "lat": 38.921723166666666, "fusion_lon": 0.0, "fusion_lat": 0.0, "type": "electric_scooter", "name": "667c6365bd79678308e25f51ac517b11", "is_disabled": 0, "rental_uris": {"ios": "https://dc.lft.to/lastmile_qr_scan", "android": "https://dc.lft.to/lastmile_qr_scan"}, "is_reserved": 0}, {"lon": -77.03857383333333, "bike_id": "4b9f2d39bc433ea4a6226b7ea1aad7e0", "lat": 38.91715533333333, "fusion_lon": 0.0, "fusion_lat": 0.0, "type": "electric_scooter", "name": "4b9f2d39bc433ea4a6226b7ea1aad7e0", "is_disabled": 0, "rental_uris": {"ios": "https://dc.lft.to/lastmile_qr_scan", "android": "https://dc.lft.to/lastmile_qr_scan"}, "is_reserved": 0}, {"lon": -77.02712883333334, "bike_id": "64c72a1267d49386b338ad71b46b8614", "lat": 38.91807716666667, "fusion_lon": 0.0, "fusion_lat": 0.0, "type": "electric_scooter", "name": "64c72a1267d49386b338ad71b46b8614", "is_disabled": 0, "rental_uris": {"ios": "https://dc.lft.to/lastmile_qr_scan", "android": "https://dc.lft.to/lastmile_qr_scan"}, "is_reserved": 0}, {"lon": -77.02189983333334, "bike_id": "db855f70c2a82b0f4b33bbd3ae82030c", "lat": 38.91988083333333, "fusion_lon": 0.0, "fusion_lat": 0.0, "type": "electric_scooter", "name": "db855f70c2a82b0f4b33bbd3ae82030c", "is_disabled": 0, "rental_uris": {"ios": "https://dc.lft.to/lastmile_qr_scan", "android": "https://dc.lft.to/lastmile_qr_scan"}, "is_reserved": 0}, {"lon": -77.02474583333333, "bike_id": "7d010e42f1f747f4ca5bcd45b5d5ebc7", "lat": 38.9188235, "fusion_lon": 0.0, "fusion_lat": 0.0, "type": "electric_scooter", "name": "7d010e42f1f747f4ca5bcd45b5d5ebc7", "is_disabled": 0, "rental_uris": {"ios": "https://dc.lft.to/lastmile_qr_scan", "android": "https://dc.lft.to/lastmile_qr_scan"}, "is_reserved": 0}, {"lon": -77.02899233333333, "bike_id": "5feade49c099548882e113c3d7208d3b", "lat": 38.928178833333334, "fusion_lon": 0.0, "fusion_lat": 0.0, "type": "electric_scooter", "name": "5feade49c099548882e113c3d7208d3b", "is_disabled": 0, "rental_uris": {"ios": "https://dc.lft.to/lastmile_qr_scan", "android": "https://dc.lft.to/lastmile_qr_scan"}, "is_reserved": 0}, {"lon": -76.998724, "bike_id": "d3a42b9efed80ae83249e5b6f30c0b94", "lat": 38.901243666666666, "fusion_lon": 0.0, "fusion_lat": 0.0, "type": "electric_scooter", "name": "d3a42b9efed80ae83249e5b6f30c0b94", "is_disabled": 0, "rental_uris": {"ios": "https://dc.lft.to/lastmile_qr_scan", "android": "https://dc.lft.to/lastmile_qr_scan"}, "is_reserved": 0}, {"lon": -77.034739, "bike_id": "3203dc0bcfceccd91694b42d49c336b0", "lat": 38.93535083333333, "fusion_lon": 0.0, "fusion_lat": 0.0, "type": "electric_scooter", "name": "3203dc0bcfceccd91694b42d49c336b0", "is_disabled": 0, "rental_uris": {"ios": "https://dc.lft.to/lastmile_qr_scan", "android": "https://dc.lft.to/lastmile_qr_scan"}, "is_reserved": 0}, {"lon": -77.04982983333333, "bike_id": "5546ef02bbd6708036c4bedf18c30956", "lat": 38.90516866666667, "fusion_lon": 0.0, "fusion_lat": 0.0, "type": "electric_scooter", "name": "5546ef02bbd6708036c4bedf18c30956", "is_disabled": 0, "rental_uris": {"ios": "https://dc.lft.to/lastmile_qr_scan", "android": "https://dc.lft.to/lastmile_qr_scan"}, "is_reserved": 0}, {"lon": -77.0020035, "bike_id": "c4281f09a8368785ee97d04b43e8c5b1", "lat": 38.91588933333333, "fusion_lon": 0.0, "fusion_lat": 0.0, "type": "electric_scooter", "name": "c4281f09a8368785ee97d04b43e8c5b1", "is_disabled": 0, "rental_uris": {"ios": "https://dc.lft.to/lastmile_qr_scan", "android": "https://dc.lft.to/lastmile_qr_scan"}, "is_reserved": 0}, {"lon": -76.98014216666667, "bike_id": "a68c2d3ce16d38960cb8ae8f35bcb5a8", "lat": 38.902861333333334, "fusion_lon": 0.0, "fusion_lat": 0.0, "type": "electric_scooter", "name": "a68c2d3ce16d38960cb8ae8f35bcb5a8", "is_disabled": 0, "rental_uris": {"ios": "https://dc.lft.to/lastmile_qr_scan", "android": "https://dc.lft.to/lastmile_qr_scan"}, "is_reserved": 0}, {"lon": -77.05500466666666, "bike_id": "62191d1dcee0ef5e12a04a045cb214b9", "lat": 38.929762833333335, "fusion_lon": 0.0, "fusion_lat": 0.0, "type": "electric_scooter", "name": "62191d1dcee0ef5e12a04a045cb214b9", "is_disabled": 0, "rental_uris": {"ios": "https://dc.lft.to/lastmile_qr_scan", "android": "https://dc.lft.to/lastmile_qr_scan"}, "is_reserved": 0}, {"lon": -77.04125883333333, "bike_id": "15a6064048b05f685c70e3c86015007b", "lat": 38.925385166666665, "fusion_lon": 0.0, "fusion_lat": 0.0, "type": "electric_scooter", "name": "15a6064048b05f685c70e3c86015007b", "is_disabled": 0, "rental_uris": {"ios": "https://dc.lft.to/lastmile_qr_scan", "android": "https://dc.lft.to/lastmile_qr_scan"}, "is_reserved": 0}, {"lon": -77.02003383333333, "bike_id": "7f4716d2d77ded67957b97e4aaad512f", "lat": 38.903904833333335, "fusion_lon": 0.0, "fusion_lat": 0.0, "type": "electric_scooter", "name": "7f4716d2d77ded67957b97e4aaad512f", "is_disabled": 0, "rental_uris": {"ios": "https://dc.lft.to/lastmile_qr_scan", "android": "https://dc.lft.to/lastmile_qr_scan"}, "is_reserved": 0}, {"lon": -77.03856033333334, "bike_id": "a80821e881e2960c17bfe3485b9936c7", "lat": 38.907796833333336, "fusion_lon": 0.0, "fusion_lat": 0.0, "type": "electric_scooter", "name": "a80821e881e2960c17bfe3485b9936c7", "is_disabled": 0, "rental_uris": {"ios": "https://dc.lft.to/lastmile_qr_scan", "android": "https://dc.lft.to/lastmile_qr_scan"}, "is_reserved": 0}, {"lon": -77.04351416666667, "bike_id": "c42fb336dca58b84353ed6dac13d059b", "lat": 38.9217775, "fusion_lon": 0.0, "fusion_lat": 0.0, "type": "electric_scooter", "name": "c42fb336dca58b84353ed6dac13d059b", "is_disabled": 0, "rental_uris": {"ios": "https://dc.lft.to/lastmile_qr_scan", "android": "https://dc.lft.to/lastmile_qr_scan"}, "is_reserved": 0}, {"lon": -77.041033, "bike_id": "c3400f643b472ecdf36df34f402d4caa", "lat": 38.91851966666667, "fusion_lon": 0.0, "fusion_lat": 0.0, "type": "electric_scooter", "name": "c3400f643b472ecdf36df34f402d4caa", "is_disabled": 0, "rental_uris": {"ios": "https://dc.lft.to/lastmile_qr_scan", "android": "https://dc.lft.to/lastmile_qr_scan"}, "is_reserved": 0}, {"lon": -76.95194066666667, "bike_id": "024f301561d055409b7017ab185c5849", "lat": 38.900027, "fusion_lon": 0.0, "fusion_lat": 0.0, "type": "electric_scooter", "name": "024f301561d055409b7017ab185c5849", "is_disabled": 0, "rental_uris": {"ios": "https://dc.lft.to/lastmile_qr_scan", "android": "https://dc.lft.to/lastmile_qr_scan"}, "is_reserved": 0}, {"lon": -76.98088583333333, "bike_id": "363cb664579c93d65380000bfa63e420", "lat": 38.88129966666666, "fusion_lon": 0.0, "fusion_lat": 0.0, "type": "electric_bike", "name": "363cb664579c93d65380000bfa63e420", "is_disabled": 0, "rental_uris": {"ios": "https://dc.lft.to/lastmile_qr_scan", "android": "https://dc.lft.to/lastmile_qr_scan"}, "is_reserved": 0}, {"lon": -77.04321883333333, "bike_id": "d53d2262cb22ac009262b94046998865", "lat": 38.907996833333335, "fusion_lon": 0.0, "fusion_lat": 0.0, "type": "electric_scooter", "name": "d53d2262cb22ac009262b94046998865", "is_disabled": 0, "rental_uris": {"ios": "https://dc.lft.to/lastmile_qr_scan", "android": "https://dc.lft.to/lastmile_qr_scan"}, "is_reserved": 0}, {"lon": -77.000787, "bike_id": "3bd8f86e137438853b03384fa39d1400", "lat": 38.875523666666666, "fusion_lon": 0.0, "fusion_lat": 0.0, "type": "electric_scooter", "name": "3bd8f86e137438853b03384fa39d1400", "is_disabled": 0, "rental_uris": {"ios": "https://dc.lft.to/lastmile_qr_scan", "android": "https://dc.lft.to/lastmile_qr_scan"}, "is_reserved": 0}, {"lon": -77.0219735, "bike_id": "b7a75936d314a675b4382c776c207e09", "lat": 38.9114075, "fusion_lon": 0.0, "fusion_lat": 0.0, "type": "electric_scooter", "name": "b7a75936d314a675b4382c776c207e09", "is_disabled": 0, "rental_uris": {"ios": "https://dc.lft.to/lastmile_qr_scan", "android": "https://dc.lft.to/lastmile_qr_scan"}, "is_reserved": 0}, {"lon": -77.0296045, "bike_id": "19a605944ac7aa2191b3ee51dbb1051a", "lat": 38.9256435, "fusion_lon": 0.0, "fusion_lat": 0.0, "type": "electric_scooter", "name": "19a605944ac7aa2191b3ee51dbb1051a", "is_disabled": 0, "rental_uris": {"ios": "https://dc.lft.to/lastmile_qr_scan", "android": "https://dc.lft.to/lastmile_qr_scan"}, "is_reserved": 0}, {"lon": -76.99837, "bike_id": "9141d0c0b989337faa8f25f83dac432c", "lat": 38.902353, "fusion_lon": 0.0, "fusion_lat": 0.0, "type": "electric_scooter", "name": "9141d0c0b989337faa8f25f83dac432c", "is_disabled": 0, "rental_uris": {"ios": "https://dc.lft.to/lastmile_qr_scan", "android": "https://dc.lft.to/lastmile_qr_scan"}, "is_reserved": 0}, {"lon": -77.03474366666667, "bike_id": "9075ea40ee30b00690a67dc3d916a8ee", "lat": 38.928647, "fusion_lon": 0.0, "fusion_lat": 0.0, "type": "electric_scooter", "name": "9075ea40ee30b00690a67dc3d916a8ee", "is_disabled": 0, "rental_uris": {"ios": "https://dc.lft.to/lastmile_qr_scan", "android": "https://dc.lft.to/lastmile_qr_scan"}, "is_reserved": 0}, {"lon": -77.0444445, "bike_id": "4470f3c550091d52075c0b3a993ed37d", "lat": 38.919331666666665, "fusion_lon": 0.0, "fusion_lat": 0.0, "type": "electric_scooter", "name": "4470f3c550091d52075c0b3a993ed37d", "is_disabled": 0, "rental_uris": {"ios": "https://dc.lft.to/lastmile_qr_scan", "android": "https://dc.lft.to/lastmile_qr_scan"}, "is_reserved": 0}, {"lon": -77.033944, "bike_id": "4fd55c9b18ef655fb29b7939493248e2", "lat": 38.90977133333333, "fusion_lon": 0.0, "fusion_lat": 0.0, "type": "electric_scooter", "name": "4fd55c9b18ef655fb29b7939493248e2", "is_disabled": 0, "rental_uris": {"ios": "https://dc.lft.to/lastmile_qr_scan", "android": "https://dc.lft.to/lastmile_qr_scan"}, "is_reserved": 0}, {"lon": -76.9317535, "bike_id": "3b16c32808d24ccf837d7fffaa1322a0", "lat": 38.898828, "fusion_lon": 0.0, "fusion_lat": 0.0, "type": "electric_scooter", "name": "3b16c32808d24ccf837d7fffaa1322a0", "is_disabled": 0, "rental_uris": {"ios": "https://dc.lft.to/lastmile_qr_scan", "android": "https://dc.lft.to/lastmile_qr_scan"}, "is_reserved": 0}, {"lon": -76.9495965, "bike_id": "ae8d24acdc1813bab8c84dccc6af1b8a", "lat": 38.89440416666667, "fusion_lon": 0.0, "fusion_lat": 0.0, "type": "electric_scooter", "name": "ae8d24acdc1813bab8c84dccc6af1b8a", "is_disabled": 0, "rental_uris": {"ios": "https://dc.lft.to/lastmile_qr_scan", "android": "https://dc.lft.to/lastmile_qr_scan"}, "is_reserved": 0}, {"lon": -76.99471016666666, "bike_id": "2bd9feeef00be4d4a30192ec14f0996b", "lat": 38.8622285, "fusion_lon": 0.0, "fusion_lat": 0.0, "type": "electric_scooter", "name": "2bd9feeef00be4d4a30192ec14f0996b", "is_disabled": 0, "rental_uris": {"ios": "https://dc.lft.to/lastmile_qr_scan", "android": "https://dc.lft.to/lastmile_qr_scan"}, "is_reserved": 0}, {"lon": -77.03324766666667, "bike_id": "d8aa2107349297bdb712aae38d86c7d8", "lat": 38.94716016666667, "fusion_lon": 0.0, "fusion_lat": 0.0, "type": "electric_scooter", "name": "d8aa2107349297bdb712aae38d86c7d8", "is_disabled": 0, "rental_uris": {"ios": "https://dc.lft.to/lastmile_qr_scan", "android": "https://dc.lft.to/lastmile_qr_scan"}, "is_reserved": 0}, {"lon": -76.99615783333333, "bike_id": "794d4a8abaf47e7b0fd34be7ca46d3be", "lat": 38.883192666666666, "fusion_lon": 0.0, "fusion_lat": 0.0, "type": "electric_scooter", "name": "794d4a8abaf47e7b0fd34be7ca46d3be", "is_disabled": 0, "rental_uris": {"ios": "https://dc.lft.to/lastmile_qr_scan", "android": "https://dc.lft.to/lastmile_qr_scan"}, "is_reserved": 0}, {"lon": -77.01137433333334, "bike_id": "aa8a986072b54152b14baec11e63d19a", "lat": 38.91249083333334, "fusion_lon": 0.0, "fusion_lat": 0.0, "type": "electric_scooter", "name": "aa8a986072b54152b14baec11e63d19a", "is_disabled": 0, "rental_uris": {"ios": "https://dc.lft.to/lastmile_qr_scan", "android": "https://dc.lft.to/lastmile_qr_scan"}, "is_reserved": 0}, {"lon": -76.93366716666667, "bike_id": "ad41f5d9dded48bcf4feb38ce038fc55", "lat": 38.89915, "fusion_lon": 0.0, "fusion_lat": 0.0, "type": "electric_scooter", "name": "ad41f5d9dded48bcf4feb38ce038fc55", "is_disabled": 0, "rental_uris": {"ios": "https://dc.lft.to/lastmile_qr_scan", "android": "https://dc.lft.to/lastmile_qr_scan"}, "is_reserved": 0}, {"lon": -77.05208383333333, "bike_id": "13661921480775ee814f0a4947faedec", "lat": 38.924806333333336, "fusion_lon": 0.0, "fusion_lat": 0.0, "type": "electric_scooter", "name": "13661921480775ee814f0a4947faedec", "is_disabled": 0, "rental_uris": {"ios": "https://dc.lft.to/lastmile_qr_scan", "android": "https://dc.lft.to/lastmile_qr_scan"}, "is_reserved": 0}, {"lon": -77.03814383333334, "bike_id": "a766462524fa5c968d1afff666a0fda5", "lat": 38.920661, "fusion_lon": 0.0, "fusion_lat": 0.0, "type": "electric_scooter", "name": "a766462524fa5c968d1afff666a0fda5", "is_disabled": 0, "rental_uris": {"ios": "https://dc.lft.to/lastmile_qr_scan", "android": "https://dc.lft.to/lastmile_qr_scan"}, "is_reserved": 0}, {"lon": -77.0019775, "bike_id": "1391bf255ec5c81b0b4908f402e34a2b", "lat": 38.902370166666664, "fusion_lon": 0.0, "fusion_lat": 0.0, "type": "electric_scooter", "name": "1391bf255ec5c81b0b4908f402e34a2b", "is_disabled": 0, "rental_uris": {"ios": "https://dc.lft.to/lastmile_qr_scan", "android": "https://dc.lft.to/lastmile_qr_scan"}, "is_reserved": 0}, {"lon": -77.04118616666666, "bike_id": "0dbf43f6d1d6aa4e278b529bbebc9192", "lat": 38.944103, "fusion_lon": 0.0, "fusion_lat": 0.0, "type": "electric_bike", "name": "0dbf43f6d1d6aa4e278b529bbebc9192", "is_disabled": 0, "rental_uris": {"ios": "https://dc.lft.to/lastmile_qr_scan", "android": "https://dc.lft.to/lastmile_qr_scan"}, "is_reserved": 0}, {"lon": -76.99580483333334, "bike_id": "3fa9a066898c0eb529560b1226e4e77f", "lat": 38.852937833333336, "fusion_lon": 0.0, "fusion_lat": 0.0, "type": "electric_scooter", "name": "3fa9a066898c0eb529560b1226e4e77f", "is_disabled": 0, "rental_uris": {"ios": "https://dc.lft.to/lastmile_qr_scan", "android": "https://dc.lft.to/lastmile_qr_scan"}, "is_reserved": 0}, {"lon": -77.02392416666666, "bike_id": "65ea58a3db08ea84901c4d6f96b5cf8a", "lat": 38.902886333333335, "fusion_lon": 0.0, "fusion_lat": 0.0, "type": "electric_scooter", "name": "65ea58a3db08ea84901c4d6f96b5cf8a", "is_disabled": 0, "rental_uris": {"ios": "https://dc.lft.to/lastmile_qr_scan", "android": "https://dc.lft.to/lastmile_qr_scan"}, "is_reserved": 0}, {"lon": -77.04983766666666, "bike_id": "af44d0c45a8c2bd53ffa241c1e3fd598", "lat": 38.90513083333333, "fusion_lon": 0.0, "fusion_lat": 0.0, "type": "electric_scooter", "name": "af44d0c45a8c2bd53ffa241c1e3fd598", "is_disabled": 0, "rental_uris": {"ios": "https://dc.lft.to/lastmile_qr_scan", "android": "https://dc.lft.to/lastmile_qr_scan"}, "is_reserved": 0}, {"lon": -76.9252305, "bike_id": "40dd1592b614586dddc586fe9118f36f", "lat": 38.8834105, "fusion_lon": 0.0, "fusion_lat": 0.0, "type": "electric_bike", "name": "40dd1592b614586dddc586fe9118f36f", "is_disabled": 0, "rental_uris": {"ios": "https://dc.lft.to/lastmile_qr_scan", "android": "https://dc.lft.to/lastmile_qr_scan"}, "is_reserved": 0}, {"lon": -76.9935195, "bike_id": "9f8da5128e68f91a6251c89d751e7e5a", "lat": 38.93713116666667, "fusion_lon": 0.0, "fusion_lat": 0.0, "type": "electric_bike", "name": "9f8da5128e68f91a6251c89d751e7e5a", "is_disabled": 0, "rental_uris": {"ios": "https://dc.lft.to/lastmile_qr_scan", "android": "https://dc.lft.to/lastmile_qr_scan"}, "is_reserved": 0}, {"lon": -76.98557433333333, "bike_id": "afa2b6ef8a180200135f2e26435188d2", "lat": 38.91034783333333, "fusion_lon": 0.0, "fusion_lat": 0.0, "type": "electric_scooter", "name": "afa2b6ef8a180200135f2e26435188d2", "is_disabled": 0, "rental_uris": {"ios": "https://dc.lft.to/lastmile_qr_scan", "android": "https://dc.lft.to/lastmile_qr_scan"}, "is_reserved": 0}, {"lon": -77.02418233333333, "bike_id": "d2a72651c1c35ef93cc2e8aee356e6f8", "lat": 38.936879166666664, "fusion_lon": 0.0, "fusion_lat": 0.0, "type": "electric_scooter", "name": "d2a72651c1c35ef93cc2e8aee356e6f8", "is_disabled": 0, "rental_uris": {"ios": "https://dc.lft.to/lastmile_qr_scan", "android": "https://dc.lft.to/lastmile_qr_scan"}, "is_reserved": 0}, {"lon": -77.002216, "bike_id": "190c4325dd03d45c33cf7971528a057c", "lat": 38.902473, "fusion_lon": 0.0, "fusion_lat": 0.0, "type": "electric_scooter", "name": "190c4325dd03d45c33cf7971528a057c", "is_disabled": 0, "rental_uris": {"ios": "https://dc.lft.to/lastmile_qr_scan", "android": "https://dc.lft.to/lastmile_qr_scan"}, "is_reserved": 0}, {"lon": -77.0365895, "bike_id": "778b74c022b6f839db4d8024aa3756d2", "lat": 38.91749183333334, "fusion_lon": 0.0, "fusion_lat": 0.0, "type": "electric_scooter", "name": "778b74c022b6f839db4d8024aa3756d2", "is_disabled": 0, "rental_uris": {"ios": "https://dc.lft.to/lastmile_qr_scan", "android": "https://dc.lft.to/lastmile_qr_scan"}, "is_reserved": 0}, {"lon": -77.0106525, "bike_id": "ae4ad6d5be713645b82421ed16f772aa", "lat": 38.963437, "fusion_lon": 0.0, "fusion_lat": 0.0, "type": "electric_scooter", "name": "ae4ad6d5be713645b82421ed16f772aa", "is_disabled": 0, "rental_uris": {"ios": "https://dc.lft.to/lastmile_qr_scan", "android": "https://dc.lft.to/lastmile_qr_scan"}, "is_reserved": 0}, {"lon": -77.04619033333333, "bike_id": "545364899aa6aae9f4fe586a38789151", "lat": 38.9163225, "fusion_lon": 0.0, "fusion_lat": 0.0, "type": "electric_scooter", "name": "545364899aa6aae9f4fe586a38789151", "is_disabled": 0, "rental_uris": {"ios": "https://dc.lft.to/lastmile_qr_scan", "android": "https://dc.lft.to/lastmile_qr_scan"}, "is_reserved": 0}, {"lon": -77.11917383333333, "bike_id": "733b64fa18cbbf22ea08f15d142e054b", "lat": 38.8763695, "fusion_lon": 0.0, "fusion_lat": 0.0, "type": "electric_bike", "name": "733b64fa18cbbf22ea08f15d142e054b", "is_disabled": 0, "rental_uris": {"ios": "https://dc.lft.to/lastmile_qr_scan", "android": "https://dc.lft.to/lastmile_qr_scan"}, "is_reserved": 0}, {"lon": -77.02606133333333, "bike_id": "412abf2f9330755ee261b8385467ef6e", "lat": 38.927957166666666, "fusion_lon": 0.0, "fusion_lat": 0.0, "type": "electric_scooter", "name": "412abf2f9330755ee261b8385467ef6e", "is_disabled": 0, "rental_uris": {"ios": "https://dc.lft.to/lastmile_qr_scan", "android": "https://dc.lft.to/lastmile_qr_scan"}, "is_reserved": 0}, {"lon": -77.00565133333333, "bike_id": "c1df6cdac595cdaaea36ac471300dc05", "lat": 38.876738333333336, "fusion_lon": 0.0, "fusion_lat": 0.0, "type": "electric_scooter", "name": "c1df6cdac595cdaaea36ac471300dc05", "is_disabled": 0, "rental_uris": {"ios": "https://dc.lft.to/lastmile_qr_scan", "android": "https://dc.lft.to/lastmile_qr_scan"}, "is_reserved": 0}, {"lon": -77.01890533333334, "bike_id": "d9b267ed934fbf38b8666b68f240256f", "lat": 38.874697166666664, "fusion_lon": 0.0, "fusion_lat": 0.0, "type": "electric_scooter", "name": "d9b267ed934fbf38b8666b68f240256f", "is_disabled": 0, "rental_uris": {"ios": "https://dc.lft.to/lastmile_qr_scan", "android": "https://dc.lft.to/lastmile_qr_scan"}, "is_reserved": 0}, {"lon": -77.05333533333334, "bike_id": "05967b637de15b1c2010e2ac9af5eba0", "lat": 38.898765166666664, "fusion_lon": 0.0, "fusion_lat": 0.0, "type": "electric_scooter", "name": "05967b637de15b1c2010e2ac9af5eba0", "is_disabled": 0, "rental_uris": {"ios": "https://dc.lft.to/lastmile_qr_scan", "android": "https://dc.lft.to/lastmile_qr_scan"}, "is_reserved": 0}, {"lon": -77.02028466666667, "bike_id": "3a9d60253ae0776dee87bd07819497d7", "lat": 38.91658116666667, "fusion_lon": 0.0, "fusion_lat": 0.0, "type": "electric_scooter", "name": "3a9d60253ae0776dee87bd07819497d7", "is_disabled": 0, "rental_uris": {"ios": "https://dc.lft.to/lastmile_qr_scan", "android": "https://dc.lft.to/lastmile_qr_scan"}, "is_reserved": 0}, {"lon": -76.98170383333333, "bike_id": "0daed9abea49cfa1ecf24c1b6b76f25c", "lat": 38.904399, "fusion_lon": 0.0, "fusion_lat": 0.0, "type": "electric_scooter", "name": "0daed9abea49cfa1ecf24c1b6b76f25c", "is_disabled": 0, "rental_uris": {"ios": "https://dc.lft.to/lastmile_qr_scan", "android": "https://dc.lft.to/lastmile_qr_scan"}, "is_reserved": 0}, {"lon": -77.02148166666667, "bike_id": "dfcabd502f37c7a7fcb4048f95404b68", "lat": 38.87918483333333, "fusion_lon": 0.0, "fusion_lat": 0.0, "type": "electric_scooter", "name": "dfcabd502f37c7a7fcb4048f95404b68", "is_disabled": 0, "rental_uris": {"ios": "https://dc.lft.to/lastmile_qr_scan", "android": "https://dc.lft.to/lastmile_qr_scan"}, "is_reserved": 0}, {"lon": -77.02293683333333, "bike_id": "e6e2e6734efbc0e122d0567a8354b749", "lat": 38.89472, "fusion_lon": 0.0, "fusion_lat": 0.0, "type": "electric_scooter", "name": "e6e2e6734efbc0e122d0567a8354b749", "is_disabled": 0, "rental_uris": {"ios": "https://dc.lft.to/lastmile_qr_scan", "android": "https://dc.lft.to/lastmile_qr_scan"}, "is_reserved": 0}, {"lon": -76.98100933333333, "bike_id": "42a59aa38fe62da136200a2d5cbcc21a", "lat": 38.904162666666664, "fusion_lon": 0.0, "fusion_lat": 0.0, "type": "electric_scooter", "name": "42a59aa38fe62da136200a2d5cbcc21a", "is_disabled": 0, "rental_uris": {"ios": "https://dc.lft.to/lastmile_qr_scan", "android": "https://dc.lft.to/lastmile_qr_scan"}, "is_reserved": 0}, {"lon": -76.98682716666667, "bike_id": "a890e1a02c0a67f75623c7eccd846080", "lat": 38.91216383333333, "fusion_lon": 0.0, "fusion_lat": 0.0, "type": "electric_scooter", "name": "a890e1a02c0a67f75623c7eccd846080", "is_disabled": 0, "rental_uris": {"ios": "https://dc.lft.to/lastmile_qr_scan", "android": "https://dc.lft.to/lastmile_qr_scan"}, "is_reserved": 0}, {"lon": -77.02344816666667, "bike_id": "f964eeb988eef4d89cf25b34b4d63429", "lat": 38.92250466666667, "fusion_lon": 0.0, "fusion_lat": 0.0, "type": "electric_scooter", "name": "f964eeb988eef4d89cf25b34b4d63429", "is_disabled": 0, "rental_uris": {"ios": "https://dc.lft.to/lastmile_qr_scan", "android": "https://dc.lft.to/lastmile_qr_scan"}, "is_reserved": 0}, {"lon": -77.02161016666666, "bike_id": "855a9594ad2ab0095734d86910cd23fa", "lat": 38.9096895, "fusion_lon": 0.0, "fusion_lat": 0.0, "type": "electric_scooter", "name": "855a9594ad2ab0095734d86910cd23fa", "is_disabled": 0, "rental_uris": {"ios": "https://dc.lft.to/lastmile_qr_scan", "android": "https://dc.lft.to/lastmile_qr_scan"}, "is_reserved": 0}, {"lon": -77.02392116666667, "bike_id": "8208864e6929e32203bd70b375cb9f5d", "lat": 38.90944366666667, "fusion_lon": 0.0, "fusion_lat": 0.0, "type": "electric_scooter", "name": "8208864e6929e32203bd70b375cb9f5d", "is_disabled": 0, "rental_uris": {"ios": "https://dc.lft.to/lastmile_qr_scan", "android": "https://dc.lft.to/lastmile_qr_scan"}, "is_reserved": 0}, {"lon": -77.0328795, "bike_id": "915bdb70e7994ffaf449e9c39ee61800", "lat": 38.9364365, "fusion_lon": 0.0, "fusion_lat": 0.0, "type": "electric_scooter", "name": "915bdb70e7994ffaf449e9c39ee61800", "is_disabled": 0, "rental_uris": {"ios": "https://dc.lft.to/lastmile_qr_scan", "android": "https://dc.lft.to/lastmile_qr_scan"}, "is_reserved": 0}, {"lon": -76.94630566666666, "bike_id": "a7361b7ff3fca2560b72c6dbc783b27c", "lat": 38.89833016666667, "fusion_lon": 0.0, "fusion_lat": 0.0, "type": "electric_scooter", "name": "a7361b7ff3fca2560b72c6dbc783b27c", "is_disabled": 0, "rental_uris": {"ios": "https://dc.lft.to/lastmile_qr_scan", "android": "https://dc.lft.to/lastmile_qr_scan"}, "is_reserved": 0}, {"lon": -77.02237816666667, "bike_id": "494488733889a41f5a26a09294b8acae", "lat": 38.922661, "fusion_lon": 0.0, "fusion_lat": 0.0, "type": "electric_scooter", "name": "494488733889a41f5a26a09294b8acae", "is_disabled": 0, "rental_uris": {"ios": "https://dc.lft.to/lastmile_qr_scan", "android": "https://dc.lft.to/lastmile_qr_scan"}, "is_reserved": 0}, {"lon": -77.02955383333334, "bike_id": "7f854271cf2a1c82706e81b07fefbc6b", "lat": 38.898119, "fusion_lon": 0.0, "fusion_lat": 0.0, "type": "electric_scooter", "name": "7f854271cf2a1c82706e81b07fefbc6b", "is_disabled": 0, "rental_uris": {"ios": "https://dc.lft.to/lastmile_qr_scan", "android": "https://dc.lft.to/lastmile_qr_scan"}, "is_reserved": 0}, {"lon": -77.03342716666667, "bike_id": "9053281e8f3ced2d27195f4e11603734", "lat": 38.928571833333336, "fusion_lon": 0.0, "fusion_lat": 0.0, "type": "electric_scooter", "name": "9053281e8f3ced2d27195f4e11603734", "is_disabled": 0, "rental_uris": {"ios": "https://dc.lft.to/lastmile_qr_scan", "android": "https://dc.lft.to/lastmile_qr_scan"}, "is_reserved": 0}, {"lon": -77.03181333333333, "bike_id": "e26310f634c8020a32cc618996aa4d38", "lat": 38.91916533333333, "fusion_lon": 0.0, "fusion_lat": 0.0, "type": "electric_scooter", "name": "e26310f634c8020a32cc618996aa4d38", "is_disabled": 0, "rental_uris": {"ios": "https://dc.lft.to/lastmile_qr_scan", "android": "https://dc.lft.to/lastmile_qr_scan"}, "is_reserved": 0}, {"lon": -77.04369133333333, "bike_id": "2cee4c40cf9893148461b27be5789e23", "lat": 38.898512, "fusion_lon": 0.0, "fusion_lat": 0.0, "type": "electric_scooter", "name": "2cee4c40cf9893148461b27be5789e23", "is_disabled": 0, "rental_uris": {"ios": "https://dc.lft.to/lastmile_qr_scan", "android": "https://dc.lft.to/lastmile_qr_scan"}, "is_reserved": 0}, {"lon": -76.94124566666666, "bike_id": "2957c2139085d2c8e9f6ba1bb210d3ba", "lat": 38.8861145, "fusion_lon": 0.0, "fusion_lat": 0.0, "type": "electric_scooter", "name": "2957c2139085d2c8e9f6ba1bb210d3ba", "is_disabled": 0, "rental_uris": {"ios": "https://dc.lft.to/lastmile_qr_scan", "android": "https://dc.lft.to/lastmile_qr_scan"}, "is_reserved": 0}, {"lon": -77.05044366666667, "bike_id": "f680533897a898fb9494eff24c4078e3", "lat": 38.9236125, "fusion_lon": 0.0, "fusion_lat": 0.0, "type": "electric_scooter", "name": "f680533897a898fb9494eff24c4078e3", "is_disabled": 0, "rental_uris": {"ios": "https://dc.lft.to/lastmile_qr_scan", "android": "https://dc.lft.to/lastmile_qr_scan"}, "is_reserved": 0}, {"lon": -77.02366383333333, "bike_id": "4f18fda6a0e13af58baafdc70626891f", "lat": 38.892286666666664, "fusion_lon": 0.0, "fusion_lat": 0.0, "type": "electric_scooter", "name": "4f18fda6a0e13af58baafdc70626891f", "is_disabled": 0, "rental_uris": {"ios": "https://dc.lft.to/lastmile_qr_scan", "android": "https://dc.lft.to/lastmile_qr_scan"}, "is_reserved": 0}, {"lon": -77.0520675, "bike_id": "818520895aa2ce9f80f6dec25d0cb6a9", "lat": 38.91553183333333, "fusion_lon": 0.0, "fusion_lat": 0.0, "type": "electric_scooter", "name": "818520895aa2ce9f80f6dec25d0cb6a9", "is_disabled": 0, "rental_uris": {"ios": "https://dc.lft.to/lastmile_qr_scan", "android": "https://dc.lft.to/lastmile_qr_scan"}, "is_reserved": 0}, {"lon": -77.05022583333333, "bike_id": "de474d1cf524c9f9838767e9e0e6958f", "lat": 38.898208, "fusion_lon": 0.0, "fusion_lat": 0.0, "type": "electric_scooter", "name": "de474d1cf524c9f9838767e9e0e6958f", "is_disabled": 0, "rental_uris": {"ios": "https://dc.lft.to/lastmile_qr_scan", "android": "https://dc.lft.to/lastmile_qr_scan"}, "is_reserved": 0}, {"lon": -76.98494083333334, "bike_id": "2dae68e95e4e6201967cabadf6e30e9f", "lat": 38.8783215, "fusion_lon": 0.0, "fusion_lat": 0.0, "type": "electric_scooter", "name": "2dae68e95e4e6201967cabadf6e30e9f", "is_disabled": 0, "rental_uris": {"ios": "https://dc.lft.to/lastmile_qr_scan", "android": "https://dc.lft.to/lastmile_qr_scan"}, "is_reserved": 0}, {"lon": -77.03983116666667, "bike_id": "86bc09d6084cb97c7e639418f27b010a", "lat": 38.924636166666666, "fusion_lon": 0.0, "fusion_lat": 0.0, "type": "electric_scooter", "name": "86bc09d6084cb97c7e639418f27b010a", "is_disabled": 0, "rental_uris": {"ios": "https://dc.lft.to/lastmile_qr_scan", "android": "https://dc.lft.to/lastmile_qr_scan"}, "is_reserved": 0}, {"lon": -77.03968716666667, "bike_id": "5d72afddd38635af5be7322c3c56e2d9", "lat": 38.931482333333335, "fusion_lon": 0.0, "fusion_lat": 0.0, "type": "electric_scooter", "name": "5d72afddd38635af5be7322c3c56e2d9", "is_disabled": 0, "rental_uris": {"ios": "https://dc.lft.to/lastmile_qr_scan", "android": "https://dc.lft.to/lastmile_qr_scan"}, "is_reserved": 0}, {"lon": -77.00429, "bike_id": "07d16ae1ac564782e1973a18df573fef", "lat": 38.913324333333335, "fusion_lon": 0.0, "fusion_lat": 0.0, "type": "electric_scooter", "name": "07d16ae1ac564782e1973a18df573fef", "is_disabled": 0, "rental_uris": {"ios": "https://dc.lft.to/lastmile_qr_scan", "android": "https://dc.lft.to/lastmile_qr_scan"}, "is_reserved": 0}, {"lon": -77.03279083333334, "bike_id": "896fcbfcb0f3a6b63b35779789da6968", "lat": 38.90738483333333, "fusion_lon": 0.0, "fusion_lat": 0.0, "type": "electric_scooter", "name": "896fcbfcb0f3a6b63b35779789da6968", "is_disabled": 0, "rental_uris": {"ios": "https://dc.lft.to/lastmile_qr_scan", "android": "https://dc.lft.to/lastmile_qr_scan"}, "is_reserved": 0}, {"lon": -77.034533, "bike_id": "9a6b2df511fbd14c9b3f22046f692fab", "lat": 38.9101615, "fusion_lon": 0.0, "fusion_lat": 0.0, "type": "electric_scooter", "name": "9a6b2df511fbd14c9b3f22046f692fab", "is_disabled": 0, "rental_uris": {"ios": "https://dc.lft.to/lastmile_qr_scan", "android": "https://dc.lft.to/lastmile_qr_scan"}, "is_reserved": 0}, {"lon": -77.04942966666667, "bike_id": "8617d06b9efd6ab4a1c644f7b36c60b1", "lat": 38.90852066666667, "fusion_lon": 0.0, "fusion_lat": 0.0, "type": "electric_scooter", "name": "8617d06b9efd6ab4a1c644f7b36c60b1", "is_disabled": 0, "rental_uris": {"ios": "https://dc.lft.to/lastmile_qr_scan", "android": "https://dc.lft.to/lastmile_qr_scan"}, "is_reserved": 0}, {"lon": -76.98954566666667, "bike_id": "fef2eafc237087ec56c182d22e764652", "lat": 38.856907166666666, "fusion_lon": 0.0, "fusion_lat": 0.0, "type": "electric_scooter", "name": "fef2eafc237087ec56c182d22e764652", "is_disabled": 0, "rental_uris": {"ios": "https://dc.lft.to/lastmile_qr_scan", "android": "https://dc.lft.to/lastmile_qr_scan"}, "is_reserved": 0}, {"lon": -77.00920233333333, "bike_id": "0aeb083b5f4300085e6ec6d55c65c6f6", "lat": 38.89641116666667, "fusion_lon": 0.0, "fusion_lat": 0.0, "type": "electric_scooter", "name": "0aeb083b5f4300085e6ec6d55c65c6f6", "is_disabled": 0, "rental_uris": {"ios": "https://dc.lft.to/lastmile_qr_scan", "android": "https://dc.lft.to/lastmile_qr_scan"}, "is_reserved": 0}, {"lon": -76.98263983333334, "bike_id": "3b27d60afac0bdd6c0cd0457b3e176bc", "lat": 38.90858466666667, "fusion_lon": 0.0, "fusion_lat": 0.0, "type": "electric_scooter", "name": "3b27d60afac0bdd6c0cd0457b3e176bc", "is_disabled": 0, "rental_uris": {"ios": "https://dc.lft.to/lastmile_qr_scan", "android": "https://dc.lft.to/lastmile_qr_scan"}, "is_reserved": 0}, {"lon": -77.02365083333333, "bike_id": "90b07f0b5256b06f51f6421bacb95e0f", "lat": 38.8922015, "fusion_lon": 0.0, "fusion_lat": 0.0, "type": "electric_scooter", "name": "90b07f0b5256b06f51f6421bacb95e0f", "is_disabled": 0, "rental_uris": {"ios": "https://dc.lft.to/lastmile_qr_scan", "android": "https://dc.lft.to/lastmile_qr_scan"}, "is_reserved": 0}, {"lon": -77.01413366666667, "bike_id": "af4ae362f32d719c815cbf8c28e2eab3", "lat": 38.88744033333333, "fusion_lon": 0.0, "fusion_lat": 0.0, "type": "electric_scooter", "name": "af4ae362f32d719c815cbf8c28e2eab3", "is_disabled": 0, "rental_uris": {"ios": "https://dc.lft.to/lastmile_qr_scan", "android": "https://dc.lft.to/lastmile_qr_scan"}, "is_reserved": 0}, {"lon": -77.03225616666667, "bike_id": "e11585db5c9d9f37f6c62cc883129438", "lat": 38.92656733333333, "fusion_lon": 0.0, "fusion_lat": 0.0, "type": "electric_scooter", "name": "e11585db5c9d9f37f6c62cc883129438", "is_disabled": 0, "rental_uris": {"ios": "https://dc.lft.to/lastmile_qr_scan", "android": "https://dc.lft.to/lastmile_qr_scan"}, "is_reserved": 0}, {"lon": -77.0316475, "bike_id": "e33c6db9b43694d341d49f230df0571b", "lat": 38.892213, "fusion_lon": 0.0, "fusion_lat": 0.0, "type": "electric_scooter", "name": "e33c6db9b43694d341d49f230df0571b", "is_disabled": 0, "rental_uris": {"ios": "https://dc.lft.to/lastmile_qr_scan", "android": "https://dc.lft.to/lastmile_qr_scan"}, "is_reserved": 0}, {"lon": -76.98194883333333, "bike_id": "fc37ef9cc758859fe0c3e5bffcccd1fb", "lat": 38.899477166666664, "fusion_lon": 0.0, "fusion_lat": 0.0, "type": "electric_scooter", "name": "fc37ef9cc758859fe0c3e5bffcccd1fb", "is_disabled": 0, "rental_uris": {"ios": "https://dc.lft.to/lastmile_qr_scan", "android": "https://dc.lft.to/lastmile_qr_scan"}, "is_reserved": 0}, {"lon": -76.98710116666666, "bike_id": "22f5468488dbf9676337b05e7f9ef496", "lat": 38.86625333333333, "fusion_lon": 0.0, "fusion_lat": 0.0, "type": "electric_scooter", "name": "22f5468488dbf9676337b05e7f9ef496", "is_disabled": 0, "rental_uris": {"ios": "https://dc.lft.to/lastmile_qr_scan", "android": "https://dc.lft.to/lastmile_qr_scan"}, "is_reserved": 0}, {"lon": -76.979993, "bike_id": "542f0f73265a2eb2dd4112d0b7de7713", "lat": 38.90677433333333, "fusion_lon": 0.0, "fusion_lat": 0.0, "type": "electric_scooter", "name": "542f0f73265a2eb2dd4112d0b7de7713", "is_disabled": 0, "rental_uris": {"ios": "https://dc.lft.to/lastmile_qr_scan", "android": "https://dc.lft.to/lastmile_qr_scan"}, "is_reserved": 0}, {"lon": -77.03528683333333, "bike_id": "5e73f23819336dee5b415acfa4cb92c4", "lat": 38.9228095, "fusion_lon": 0.0, "fusion_lat": 0.0, "type": "electric_scooter", "name": "5e73f23819336dee5b415acfa4cb92c4", "is_disabled": 0, "rental_uris": {"ios": "https://dc.lft.to/lastmile_qr_scan", "android": "https://dc.lft.to/lastmile_qr_scan"}, "is_reserved": 0}, {"lon": -76.95188216666666, "bike_id": "58cdee6597cd83442452ae75389c5880", "lat": 38.907401666666665, "fusion_lon": 0.0, "fusion_lat": 0.0, "type": "electric_scooter", "name": "58cdee6597cd83442452ae75389c5880", "is_disabled": 0, "rental_uris": {"ios": "https://dc.lft.to/lastmile_qr_scan", "android": "https://dc.lft.to/lastmile_qr_scan"}, "is_reserved": 0}, {"lon": -77.02838233333334, "bike_id": "d2111be64f18d2fe6003d250fc73f55a", "lat": 38.89222, "fusion_lon": 0.0, "fusion_lat": 0.0, "type": "electric_scooter", "name": "d2111be64f18d2fe6003d250fc73f55a", "is_disabled": 0, "rental_uris": {"ios": "https://dc.lft.to/lastmile_qr_scan", "android": "https://dc.lft.to/lastmile_qr_scan"}, "is_reserved": 0}, {"lon": -77.02985333333334, "bike_id": "4cbfd4079aec3bd15235bbe1f9b22021", "lat": 38.907429, "fusion_lon": 0.0, "fusion_lat": 0.0, "type": "electric_scooter", "name": "4cbfd4079aec3bd15235bbe1f9b22021", "is_disabled": 0, "rental_uris": {"ios": "https://dc.lft.to/lastmile_qr_scan", "android": "https://dc.lft.to/lastmile_qr_scan"}, "is_reserved": 0}, {"lon": -76.99375533333334, "bike_id": "df60263009809fe48681e7f822282b8e", "lat": 38.9239865, "fusion_lon": 0.0, "fusion_lat": 0.0, "type": "electric_scooter", "name": "df60263009809fe48681e7f822282b8e", "is_disabled": 0, "rental_uris": {"ios": "https://dc.lft.to/lastmile_qr_scan", "android": "https://dc.lft.to/lastmile_qr_scan"}, "is_reserved": 0}, {"lon": -76.97929466666666, "bike_id": "b4acccea26205b78a726595c7662f111", "lat": 38.906641666666665, "fusion_lon": 0.0, "fusion_lat": 0.0, "type": "electric_bike", "name": "b4acccea26205b78a726595c7662f111", "is_disabled": 0, "rental_uris": {"ios": "https://dc.lft.to/lastmile_qr_scan", "android": "https://dc.lft.to/lastmile_qr_scan"}, "is_reserved": 0}, {"lon": -77.021917, "bike_id": "e15c1c36a7af9bbb529699b479456f41", "lat": 38.91051483333333, "fusion_lon": 0.0, "fusion_lat": 0.0, "type": "electric_scooter", "name": "e15c1c36a7af9bbb529699b479456f41", "is_disabled": 0, "rental_uris": {"ios": "https://dc.lft.to/lastmile_qr_scan", "android": "https://dc.lft.to/lastmile_qr_scan"}, "is_reserved": 0}, {"lon": -77.0322495, "bike_id": "5b12d21f81866f169fad8567c99d2b0d", "lat": 38.918145333333335, "fusion_lon": 0.0, "fusion_lat": 0.0, "type": "electric_scooter", "name": "5b12d21f81866f169fad8567c99d2b0d", "is_disabled": 0, "rental_uris": {"ios": "https://dc.lft.to/lastmile_qr_scan", "android": "https://dc.lft.to/lastmile_qr_scan"}, "is_reserved": 0}, {"lon": -77.00886766666666, "bike_id": "5bba421557f424c2db3da63239ce12ba", "lat": 38.92488133333333, "fusion_lon": 0.0, "fusion_lat": 0.0, "type": "electric_scooter", "name": "5bba421557f424c2db3da63239ce12ba", "is_disabled": 0, "rental_uris": {"ios": "https://dc.lft.to/lastmile_qr_scan", "android": "https://dc.lft.to/lastmile_qr_scan"}, "is_reserved": 0}, {"lon": -77.02413433333334, "bike_id": "ef08c63be9347c5973ff5788e6b37743", "lat": 38.90563183333333, "fusion_lon": 0.0, "fusion_lat": 0.0, "type": "electric_scooter", "name": "ef08c63be9347c5973ff5788e6b37743", "is_disabled": 0, "rental_uris": {"ios": "https://dc.lft.to/lastmile_qr_scan", "android": "https://dc.lft.to/lastmile_qr_scan"}, "is_reserved": 0}, {"lon": -76.98843683333334, "bike_id": "be35b809fa413e410cfc5a39b92587b2", "lat": 38.90124133333333, "fusion_lon": 0.0, "fusion_lat": 0.0, "type": "electric_scooter", "name": "be35b809fa413e410cfc5a39b92587b2", "is_disabled": 0, "rental_uris": {"ios": "https://dc.lft.to/lastmile_qr_scan", "android": "https://dc.lft.to/lastmile_qr_scan"}, "is_reserved": 0}, {"lon": -77.0481785, "bike_id": "4305adc1e6aa79c73fd1d895256cf156", "lat": 38.90370333333333, "fusion_lon": 0.0, "fusion_lat": 0.0, "type": "electric_scooter", "name": "4305adc1e6aa79c73fd1d895256cf156", "is_disabled": 0, "rental_uris": {"ios": "https://dc.lft.to/lastmile_qr_scan", "android": "https://dc.lft.to/lastmile_qr_scan"}, "is_reserved": 0}, {"lon": -77.03124683333333, "bike_id": "1a1315108394142d6a406e625b038163", "lat": 38.9592325, "fusion_lon": 0.0, "fusion_lat": 0.0, "type": "electric_bike", "name": "1a1315108394142d6a406e625b038163", "is_disabled": 0, "rental_uris": {"ios": "https://dc.lft.to/lastmile_qr_scan", "android": "https://dc.lft.to/lastmile_qr_scan"}, "is_reserved": 0}, {"lon": -77.00374666666667, "bike_id": "9ecbc0bfd6fcc885058c80eb3bc08cac", "lat": 38.89726483333333, "fusion_lon": 0.0, "fusion_lat": 0.0, "type": "electric_scooter", "name": "9ecbc0bfd6fcc885058c80eb3bc08cac", "is_disabled": 0, "rental_uris": {"ios": "https://dc.lft.to/lastmile_qr_scan", "android": "https://dc.lft.to/lastmile_qr_scan"}, "is_reserved": 0}, {"lon": -76.99858533333334, "bike_id": "3bf3d8e546a107d7d41242c7f6990c36", "lat": 38.900233, "fusion_lon": 0.0, "fusion_lat": 0.0, "type": "electric_scooter", "name": "3bf3d8e546a107d7d41242c7f6990c36", "is_disabled": 0, "rental_uris": {"ios": "https://dc.lft.to/lastmile_qr_scan", "android": "https://dc.lft.to/lastmile_qr_scan"}, "is_reserved": 0}, {"lon": -76.95367133333333, "bike_id": "1e16473e5fcbf98558ccf7247be9ca9e", "lat": 38.89200533333333, "fusion_lon": 0.0, "fusion_lat": 0.0, "type": "electric_scooter", "name": "1e16473e5fcbf98558ccf7247be9ca9e", "is_disabled": 0, "rental_uris": {"ios": "https://dc.lft.to/lastmile_qr_scan", "android": "https://dc.lft.to/lastmile_qr_scan"}, "is_reserved": 0}, {"lon": -77.0028425, "bike_id": "2369a264d979f8f1d8708c09ea911a6e", "lat": 38.90868533333333, "fusion_lon": 0.0, "fusion_lat": 0.0, "type": "electric_scooter", "name": "2369a264d979f8f1d8708c09ea911a6e", "is_disabled": 0, "rental_uris": {"ios": "https://dc.lft.to/lastmile_qr_scan", "android": "https://dc.lft.to/lastmile_qr_scan"}, "is_reserved": 0}, {"lon": -76.96152983333333, "bike_id": "6e41de81f5abcbdf3a723088b8b62905", "lat": 38.883576166666664, "fusion_lon": 0.0, "fusion_lat": 0.0, "type": "electric_scooter", "name": "6e41de81f5abcbdf3a723088b8b62905", "is_disabled": 0, "rental_uris": {"ios": "https://dc.lft.to/lastmile_qr_scan", "android": "https://dc.lft.to/lastmile_qr_scan"}, "is_reserved": 0}, {"lon": -77.04592383333333, "bike_id": "ea0d39b922234a81bb71406e14656717", "lat": 38.90349783333333, "fusion_lon": 0.0, "fusion_lat": 0.0, "type": "electric_scooter", "name": "ea0d39b922234a81bb71406e14656717", "is_disabled": 0, "rental_uris": {"ios": "https://dc.lft.to/lastmile_qr_scan", "android": "https://dc.lft.to/lastmile_qr_scan"}, "is_reserved": 0}, {"lon": -77.03865183333333, "bike_id": "59501e764ce5a36c202e723f4ff77c4e", "lat": 38.94501966666667, "fusion_lon": 0.0, "fusion_lat": 0.0, "type": "electric_scooter", "name": "59501e764ce5a36c202e723f4ff77c4e", "is_disabled": 0, "rental_uris": {"ios": "https://dc.lft.to/lastmile_qr_scan", "android": "https://dc.lft.to/lastmile_qr_scan"}, "is_reserved": 0}, {"lon": -77.03442116666666, "bike_id": "b506bb0bcf46cec5ce680d8e521e0c74", "lat": 38.90978533333333, "fusion_lon": 0.0, "fusion_lat": 0.0, "type": "electric_scooter", "name": "b506bb0bcf46cec5ce680d8e521e0c74", "is_disabled": 0, "rental_uris": {"ios": "https://dc.lft.to/lastmile_qr_scan", "android": "https://dc.lft.to/lastmile_qr_scan"}, "is_reserved": 0}, {"lon": -77.00581316666667, "bike_id": "30ea96b1d0dc8ccdade8c4c081fc0d3f", "lat": 38.88436816666667, "fusion_lon": 0.0, "fusion_lat": 0.0, "type": "electric_scooter", "name": "30ea96b1d0dc8ccdade8c4c081fc0d3f", "is_disabled": 0, "rental_uris": {"ios": "https://dc.lft.to/lastmile_qr_scan", "android": "https://dc.lft.to/lastmile_qr_scan"}, "is_reserved": 0}, {"lon": -76.998411, "bike_id": "2cdaf7b516c973f2c28cb77ad74750fe", "lat": 38.90216516666667, "fusion_lon": 0.0, "fusion_lat": 0.0, "type": "electric_scooter", "name": "2cdaf7b516c973f2c28cb77ad74750fe", "is_disabled": 0, "rental_uris": {"ios": "https://dc.lft.to/lastmile_qr_scan", "android": "https://dc.lft.to/lastmile_qr_scan"}, "is_reserved": 0}, {"lon": -77.0347815, "bike_id": "cfe962dff8169e8fce74076577c10536", "lat": 38.928685, "fusion_lon": 0.0, "fusion_lat": 0.0, "type": "electric_scooter", "name": "cfe962dff8169e8fce74076577c10536", "is_disabled": 0, "rental_uris": {"ios": "https://dc.lft.to/lastmile_qr_scan", "android": "https://dc.lft.to/lastmile_qr_scan"}, "is_reserved": 0}, {"lon": -77.03889183333334, "bike_id": "526867944e3b3ded41d22a31a33d4480", "lat": 38.91019466666667, "fusion_lon": 0.0, "fusion_lat": 0.0, "type": "electric_scooter", "name": "526867944e3b3ded41d22a31a33d4480", "is_disabled": 0, "rental_uris": {"ios": "https://dc.lft.to/lastmile_qr_scan", "android": "https://dc.lft.to/lastmile_qr_scan"}, "is_reserved": 0}, {"lon": -76.967809, "bike_id": "aad8934a7c45dccb6b5c3bb2d61bc280", "lat": 38.8685085, "fusion_lon": 0.0, "fusion_lat": 0.0, "type": "electric_scooter", "name": "aad8934a7c45dccb6b5c3bb2d61bc280", "is_disabled": 0, "rental_uris": {"ios": "https://dc.lft.to/lastmile_qr_scan", "android": "https://dc.lft.to/lastmile_qr_scan"}, "is_reserved": 0}, {"lon": -76.99173833333333, "bike_id": "a225a222d6b402c2755ee34b342fda93", "lat": 38.88989383333333, "fusion_lon": 0.0, "fusion_lat": 0.0, "type": "electric_scooter", "name": "a225a222d6b402c2755ee34b342fda93", "is_disabled": 0, "rental_uris": {"ios": "https://dc.lft.to/lastmile_qr_scan", "android": "https://dc.lft.to/lastmile_qr_scan"}, "is_reserved": 0}, {"lon": -77.0434255, "bike_id": "31ef1e3c4dab580c40984284fe036c85", "lat": 38.9078515, "fusion_lon": 0.0, "fusion_lat": 0.0, "type": "electric_scooter", "name": "31ef1e3c4dab580c40984284fe036c85", "is_disabled": 0, "rental_uris": {"ios": "https://dc.lft.to/lastmile_qr_scan", "android": "https://dc.lft.to/lastmile_qr_scan"}, "is_reserved": 0}, {"lon": -77.009711, "bike_id": "0612e698b4b7f505a516626e181ed116", "lat": 38.911772166666665, "fusion_lon": 0.0, "fusion_lat": 0.0, "type": "electric_scooter", "name": "0612e698b4b7f505a516626e181ed116", "is_disabled": 0, "rental_uris": {"ios": "https://dc.lft.to/lastmile_qr_scan", "android": "https://dc.lft.to/lastmile_qr_scan"}, "is_reserved": 0}, {"lon": -77.02583566666667, "bike_id": "9bdbfc964a45e3d31fac5715e1aca3cb", "lat": 38.8922545, "fusion_lon": 0.0, "fusion_lat": 0.0, "type": "electric_scooter", "name": "9bdbfc964a45e3d31fac5715e1aca3cb", "is_disabled": 0, "rental_uris": {"ios": "https://dc.lft.to/lastmile_qr_scan", "android": "https://dc.lft.to/lastmile_qr_scan"}, "is_reserved": 0}, {"lon": -77.05047916666666, "bike_id": "97c8b8f86634cb188f7370cd24ddbfc8", "lat": 38.9238935, "fusion_lon": 0.0, "fusion_lat": 0.0, "type": "electric_scooter", "name": "97c8b8f86634cb188f7370cd24ddbfc8", "is_disabled": 0, "rental_uris": {"ios": "https://dc.lft.to/lastmile_qr_scan", "android": "https://dc.lft.to/lastmile_qr_scan"}, "is_reserved": 0}, {"lon": -77.03981, "bike_id": "5cf256aa5375a03fe861484c798b76b9", "lat": 38.9133845, "fusion_lon": 0.0, "fusion_lat": 0.0, "type": "electric_scooter", "name": "5cf256aa5375a03fe861484c798b76b9", "is_disabled": 0, "rental_uris": {"ios": "https://dc.lft.to/lastmile_qr_scan", "android": "https://dc.lft.to/lastmile_qr_scan"}, "is_reserved": 0}, {"lon": -77.032592, "bike_id": "47d96759f4b4e86fa20f68e94edf5533", "lat": 38.90974216666667, "fusion_lon": 0.0, "fusion_lat": 0.0, "type": "electric_scooter", "name": "47d96759f4b4e86fa20f68e94edf5533", "is_disabled": 0, "rental_uris": {"ios": "https://dc.lft.to/lastmile_qr_scan", "android": "https://dc.lft.to/lastmile_qr_scan"}, "is_reserved": 0}, {"lon": -77.03819366666667, "bike_id": "e68b51106175644e2259b4029d5b6d28", "lat": 38.91267083333334, "fusion_lon": 0.0, "fusion_lat": 0.0, "type": "electric_scooter", "name": "e68b51106175644e2259b4029d5b6d28", "is_disabled": 0, "rental_uris": {"ios": "https://dc.lft.to/lastmile_qr_scan", "android": "https://dc.lft.to/lastmile_qr_scan"}, "is_reserved": 0}, {"lon": -76.9815615, "bike_id": "a677f172355193aa95103666e217073f", "lat": 38.925707833333334, "fusion_lon": 0.0, "fusion_lat": 0.0, "type": "electric_scooter", "name": "a677f172355193aa95103666e217073f", "is_disabled": 0, "rental_uris": {"ios": "https://dc.lft.to/lastmile_qr_scan", "android": "https://dc.lft.to/lastmile_qr_scan"}, "is_reserved": 0}, {"lon": -77.022746, "bike_id": "cac07b78aef5043f740dad7fb6e3eb28", "lat": 38.926847333333335, "fusion_lon": 0.0, "fusion_lat": 0.0, "type": "electric_scooter", "name": "cac07b78aef5043f740dad7fb6e3eb28", "is_disabled": 0, "rental_uris": {"ios": "https://dc.lft.to/lastmile_qr_scan", "android": "https://dc.lft.to/lastmile_qr_scan"}, "is_reserved": 0}, {"lon": -77.016137, "bike_id": "5b815c515a11d2cd2286decb19652129", "lat": 38.899453666666666, "fusion_lon": 0.0, "fusion_lat": 0.0, "type": "electric_scooter", "name": "5b815c515a11d2cd2286decb19652129", "is_disabled": 0, "rental_uris": {"ios": "https://dc.lft.to/lastmile_qr_scan", "android": "https://dc.lft.to/lastmile_qr_scan"}, "is_reserved": 0}, {"lon": -77.02626633333334, "bike_id": "6a3d29f062bdb0889f1c7bf6a7d46bb0", "lat": 38.90086083333333, "fusion_lon": 0.0, "fusion_lat": 0.0, "type": "electric_scooter", "name": "6a3d29f062bdb0889f1c7bf6a7d46bb0", "is_disabled": 0, "rental_uris": {"ios": "https://dc.lft.to/lastmile_qr_scan", "android": "https://dc.lft.to/lastmile_qr_scan"}, "is_reserved": 0}, {"lon": -77.0324065, "bike_id": "2aab4fa9e2b04ed8052212476eb7ede2", "lat": 38.9275915, "fusion_lon": 0.0, "fusion_lat": 0.0, "type": "electric_scooter", "name": "2aab4fa9e2b04ed8052212476eb7ede2", "is_disabled": 0, "rental_uris": {"ios": "https://dc.lft.to/lastmile_qr_scan", "android": "https://dc.lft.to/lastmile_qr_scan"}, "is_reserved": 0}, {"lon": -76.99702033333334, "bike_id": "43d12f4d3e95eacb912882f769015131", "lat": 38.84427766666667, "fusion_lon": 0.0, "fusion_lat": 0.0, "type": "electric_scooter", "name": "43d12f4d3e95eacb912882f769015131", "is_disabled": 0, "rental_uris": {"ios": "https://dc.lft.to/lastmile_qr_scan", "android": "https://dc.lft.to/lastmile_qr_scan"}, "is_reserved": 0}, {"lon": -76.994996, "bike_id": "7230d63dac38a1fd1076496662b8664a", "lat": 38.89762433333333, "fusion_lon": 0.0, "fusion_lat": 0.0, "type": "electric_scooter", "name": "7230d63dac38a1fd1076496662b8664a", "is_disabled": 0, "rental_uris": {"ios": "https://dc.lft.to/lastmile_qr_scan", "android": "https://dc.lft.to/lastmile_qr_scan"}, "is_reserved": 0}, {"lon": -77.02173683333334, "bike_id": "c25117cc1f0826312e41f7b22c983004", "lat": 38.91989383333333, "fusion_lon": 0.0, "fusion_lat": 0.0, "type": "electric_scooter", "name": "c25117cc1f0826312e41f7b22c983004", "is_disabled": 0, "rental_uris": {"ios": "https://dc.lft.to/lastmile_qr_scan", "android": "https://dc.lft.to/lastmile_qr_scan"}, "is_reserved": 0}, {"lon": -77.01766016666667, "bike_id": "aaae73d2afe9f39ac11dc175534dbfdb", "lat": 38.881977, "fusion_lon": 0.0, "fusion_lat": 0.0, "type": "electric_scooter", "name": "aaae73d2afe9f39ac11dc175534dbfdb", "is_disabled": 0, "rental_uris": {"ios": "https://dc.lft.to/lastmile_qr_scan", "android": "https://dc.lft.to/lastmile_qr_scan"}, "is_reserved": 0}, {"lon": -77.00535883333333, "bike_id": "4092775cc1a5b1d676e3cadeb3611909", "lat": 38.87545816666667, "fusion_lon": 0.0, "fusion_lat": 0.0, "type": "electric_scooter", "name": "4092775cc1a5b1d676e3cadeb3611909", "is_disabled": 0, "rental_uris": {"ios": "https://dc.lft.to/lastmile_qr_scan", "android": "https://dc.lft.to/lastmile_qr_scan"}, "is_reserved": 0}, {"lon": -77.029623, "bike_id": "1bc0f30545568cc89579fa6610a962ec", "lat": 38.922920500000004, "fusion_lon": 0.0, "fusion_lat": 0.0, "type": "electric_scooter", "name": "1bc0f30545568cc89579fa6610a962ec", "is_disabled": 0, "rental_uris": {"ios": "https://dc.lft.to/lastmile_qr_scan", "android": "https://dc.lft.to/lastmile_qr_scan"}, "is_reserved": 0}, {"lon": -76.9788815, "bike_id": "920a20ff1a442fa814029d44bcf5b04b", "lat": 38.88540883333334, "fusion_lon": 0.0, "fusion_lat": 0.0, "type": "electric_scooter", "name": "920a20ff1a442fa814029d44bcf5b04b", "is_disabled": 0, "rental_uris": {"ios": "https://dc.lft.to/lastmile_qr_scan", "android": "https://dc.lft.to/lastmile_qr_scan"}, "is_reserved": 0}, {"lon": -76.97597516666667, "bike_id": "b8a93560710f054c6d2693b6af97123d", "lat": 38.89749483333333, "fusion_lon": 0.0, "fusion_lat": 0.0, "type": "electric_scooter", "name": "b8a93560710f054c6d2693b6af97123d", "is_disabled": 0, "rental_uris": {"ios": "https://dc.lft.to/lastmile_qr_scan", "android": "https://dc.lft.to/lastmile_qr_scan"}, "is_reserved": 0}, {"lon": -76.98334916666667, "bike_id": "e63b2768183aa426d7eb920624455f0a", "lat": 38.8954435, "fusion_lon": 0.0, "fusion_lat": 0.0, "type": "electric_scooter", "name": "e63b2768183aa426d7eb920624455f0a", "is_disabled": 0, "rental_uris": {"ios": "https://dc.lft.to/lastmile_qr_scan", "android": "https://dc.lft.to/lastmile_qr_scan"}, "is_reserved": 0}, {"lon": -77.025141, "bike_id": "7161c286b075647b229453177d76ad9d", "lat": 38.942058833333334, "fusion_lon": 0.0, "fusion_lat": 0.0, "type": "electric_scooter", "name": "7161c286b075647b229453177d76ad9d", "is_disabled": 0, "rental_uris": {"ios": "https://dc.lft.to/lastmile_qr_scan", "android": "https://dc.lft.to/lastmile_qr_scan"}, "is_reserved": 0}, {"lon": -77.02965083333333, "bike_id": "c81c3266b5b915a3e062e56bd45935aa", "lat": 38.912690166666664, "fusion_lon": 0.0, "fusion_lat": 0.0, "type": "electric_scooter", "name": "c81c3266b5b915a3e062e56bd45935aa", "is_disabled": 0, "rental_uris": {"ios": "https://dc.lft.to/lastmile_qr_scan", "android": "https://dc.lft.to/lastmile_qr_scan"}, "is_reserved": 0}, {"lon": -77.029926, "bike_id": "eee42d5bc591a8f99df1e672a209a160", "lat": 38.924693, "fusion_lon": 0.0, "fusion_lat": 0.0, "type": "electric_scooter", "name": "eee42d5bc591a8f99df1e672a209a160", "is_disabled": 0, "rental_uris": {"ios": "https://dc.lft.to/lastmile_qr_scan", "android": "https://dc.lft.to/lastmile_qr_scan"}, "is_reserved": 0}, {"lon": -76.93129366666666, "bike_id": "8142b4a75d2af4e9767c79d37504903d", "lat": 38.8761405, "fusion_lon": 0.0, "fusion_lat": 0.0, "type": "electric_scooter", "name": "8142b4a75d2af4e9767c79d37504903d", "is_disabled": 0, "rental_uris": {"ios": "https://dc.lft.to/lastmile_qr_scan", "android": "https://dc.lft.to/lastmile_qr_scan"}, "is_reserved": 0}, {"lon": -77.05805133333334, "bike_id": "076c44db5dcb980f1a23a295dee61c0a", "lat": 38.93449583333334, "fusion_lon": 0.0, "fusion_lat": 0.0, "type": "electric_scooter", "name": "076c44db5dcb980f1a23a295dee61c0a", "is_disabled": 0, "rental_uris": {"ios": "https://dc.lft.to/lastmile_qr_scan", "android": "https://dc.lft.to/lastmile_qr_scan"}, "is_reserved": 0}, {"lon": -77.02399816666667, "bike_id": "599fa9523252ebf5f2ee5cbcc5375f6e", "lat": 38.937044, "fusion_lon": 0.0, "fusion_lat": 0.0, "type": "electric_scooter", "name": "599fa9523252ebf5f2ee5cbcc5375f6e", "is_disabled": 0, "rental_uris": {"ios": "https://dc.lft.to/lastmile_qr_scan", "android": "https://dc.lft.to/lastmile_qr_scan"}, "is_reserved": 0}, {"lon": -77.03190166666667, "bike_id": "fc4e2828ff3473d344ef6a5e6b352d05", "lat": 38.9133365, "fusion_lon": 0.0, "fusion_lat": 0.0, "type": "electric_scooter", "name": "fc4e2828ff3473d344ef6a5e6b352d05", "is_disabled": 0, "rental_uris": {"ios": "https://dc.lft.to/lastmile_qr_scan", "android": "https://dc.lft.to/lastmile_qr_scan"}, "is_reserved": 0}, {"lon": -77.01632166666667, "bike_id": "8054c31f728e2aaf3d4c0821f93813c9", "lat": 38.9289715, "fusion_lon": 0.0, "fusion_lat": 0.0, "type": "electric_scooter", "name": "8054c31f728e2aaf3d4c0821f93813c9", "is_disabled": 0, "rental_uris": {"ios": "https://dc.lft.to/lastmile_qr_scan", "android": "https://dc.lft.to/lastmile_qr_scan"}, "is_reserved": 0}, {"lon": -77.04923383333333, "bike_id": "9819ce2357fc6c9069444d65c5eddba7", "lat": 38.903526166666666, "fusion_lon": 0.0, "fusion_lat": 0.0, "type": "electric_scooter", "name": "9819ce2357fc6c9069444d65c5eddba7", "is_disabled": 0, "rental_uris": {"ios": "https://dc.lft.to/lastmile_qr_scan", "android": "https://dc.lft.to/lastmile_qr_scan"}, "is_reserved": 0}, {"lon": -76.99543866666667, "bike_id": "489ed9c4ecb83e218966f9c725549c94", "lat": 38.86255383333334, "fusion_lon": 0.0, "fusion_lat": 0.0, "type": "electric_scooter", "name": "489ed9c4ecb83e218966f9c725549c94", "is_disabled": 0, "rental_uris": {"ios": "https://dc.lft.to/lastmile_qr_scan", "android": "https://dc.lft.to/lastmile_qr_scan"}, "is_reserved": 0},