{"data": {"bikes": [{"is_disabled": 0, "fusion_lon": 0.0, "fusion_lat": 0.0, "lat": 38.9370025, "type": "electric_bike", "lon": -77.02980816666667, "bike_id": "684f9720ac632248f6ea04244da4f9ea", "rental_uris": {"android": "https://dc.lft.to/lastmile_qr_scan", "ios": "https://dc.lft.to/lastmile_qr_scan"}, "name": "684f9720ac632248f6ea04244da4f9ea", "is_reserved": 0}, {"is_disabled": 0, "fusion_lon": 0.0, "fusion_lat": 0.0, "lat": 38.91817533333333, "type": "electric_scooter", "lon": -77.03456983333334, "bike_id": "1f50fcd21877d72f324c857d8b49b11b", "rental_uris": {"android": "https://dc.lft.to/lastmile_qr_scan", "ios": "https://dc.lft.to/lastmile_qr_scan"}, "name": "1f50fcd21877d72f324c857d8b49b11b", "is_reserved": 0}, {"is_disabled": 0, "fusion_lon": 0.0, "fusion_lat": 0.0, "lat": 38.910336, "type": "electric_scooter", "lon": -77.0149105, "bike_id": "ed726eac73a226ceaf2cbdc0ebc53b12", "rental_uris": {"android": "https://dc.lft.to/lastmile_qr_scan", "ios": "https://dc.lft.to/lastmile_qr_scan"}, "name": "ed726eac73a226ceaf2cbdc0ebc53b12", "is_reserved": 0}, {"is_disabled": 0, "fusion_lon": 0.0, "fusion_lat": 0.0, "lat": 38.92254916666667, "type": "electric_scooter", "lon": -77.02987633333333, "bike_id": "7f3a08bdba9a24681f9439d48fb446d8", "rental_uris": {"android": "https://dc.lft.to/lastmile_qr_scan", "ios": "https://dc.lft.to/lastmile_qr_scan"}, "name": "7f3a08bdba9a24681f9439d48fb446d8", "is_reserved": 0}, {"is_disabled": 0, "fusion_lon": 0.0, "fusion_lat": 0.0, "lat": 38.93710333333333, "type": "electric_scooter", "lon": -77.02462166666666, "bike_id": "78ae72c0798d199c72345b1a331d210c", "rental_uris": {"android": "https://dc.lft.to/lastmile_qr_scan", "ios": "https://dc.lft.to/lastmile_qr_scan"}, "name": "78ae72c0798d199c72345b1a331d210c", "is_reserved": 0}, {"is_disabled": 0, "fusion_lon": 0.0, "fusion_lat": 0.0, "lat": 38.9223185, "type": "electric_scooter", "lon": -76.97534433333334, "bike_id": "fb6f9030615fd55f0090b839393f686f", "rental_uris": {"android": "https://dc.lft.to/lastmile_qr_scan", "ios": "https://dc.lft.to/lastmile_qr_scan"}, "name": "fb6f9030615fd55f0090b839393f686f", "is_reserved": 0}, {"is_disabled": 0, "fusion_lon": 0.0, "fusion_lat": 0.0, "lat": 38.909731, "type": "electric_scooter", "lon": -77.0373215, "bike_id": "a11c030037f9ba102da1eb176ab5b181", "rental_uris": {"android": "https://dc.lft.to/lastmile_qr_scan", "ios": "https://dc.lft.to/lastmile_qr_scan"}, "name": "a11c030037f9ba102da1eb176ab5b181", "is_reserved": 0}, {"is_disabled": 0, "fusion_lon": 0.0, "fusion_lat": 0.0, "lat": 38.88453283333333, "type": "electric_scooter", "lon": -76.95210416666667, "bike_id": "5d1c5bfa9d9b0b8da5aaec2179181ef7", "rental_uris": {"android": "https://dc.lft.to/lastmile_qr_scan", "ios": "https://dc.lft.to/lastmile_qr_scan"}, "name": "5d1c5bfa9d9b0b8da5aaec2179181ef7", "is_reserved": 0}, {"is_disabled": 0, "fusion_lon": 0.0, "fusion_lat": 0.0, "lat": 38.89621133333333, "type": "electric_scooter", "lon": -77.02650433333334, "bike_id": "d00222234ceb6b6b9c1a2f37bac93f60", "rental_uris": {"android": "https://dc.lft.to/lastmile_qr_scan", "ios": "https://dc.lft.to/lastmile_qr_scan"}, "name": "d00222234ceb6b6b9c1a2f37bac93f60", "is_reserved": 0}, {"is_disabled": 0, "fusion_lon": 0.0, "fusion_lat": 0.0, "lat": 38.90563916666667, "type": "electric_scooter", "lon": -77.036377, "bike_id": "29e7a6b2f0aecded8bb95f93d4022a66", "rental_uris": {"android": "https://dc.lft.to/lastmile_qr_scan", "ios": "https://dc.lft.to/lastmile_qr_scan"}, "name": "29e7a6b2f0aecded8bb95f93d4022a66", "is_reserved": 0}, {"is_disabled": 0, "fusion_lon": 0.0, "fusion_lat": 0.0, "lat": 38.89233133333333, "type": "electric_scooter", "lon": -77.02585583333334, "bike_id": "6c06b90c343f7c7a9d7c3a38fe145fb4", "rental_uris": {"android": "https://dc.lft.to/lastmile_qr_scan", "ios": "https://dc.lft.to/lastmile_qr_scan"}, "name": "6c06b90c343f7c7a9d7c3a38fe145fb4", "is_reserved": 0}, {"is_disabled": 0, "fusion_lon": 0.0, "fusion_lat": 0.0, "lat": 38.92253083333333, "type": "electric_scooter", "lon": -77.04140633333333, "bike_id": "df97b369a79834b75de17102d95f9151", "rental_uris": {"android": "https://dc.lft.to/lastmile_qr_scan", "ios": "https://dc.lft.to/lastmile_qr_scan"}, "name": "df97b369a79834b75de17102d95f9151", "is_reserved": 0}, {"is_disabled": 0, "fusion_lon": 0.0, "fusion_lat": 0.0, "lat": 38.93785666666667, "type": "electric_scooter", "lon": -77.018788, "bike_id": "cbb71336c59bca07903c83360bea31e6", "rental_uris": {"android": "https://dc.lft.to/lastmile_qr_scan", "ios": "https://dc.lft.to/lastmile_qr_scan"}, "name": "cbb71336c59bca07903c83360bea31e6", "is_reserved": 0}, {"is_disabled": 0, "fusion_lon": 0.0, "fusion_lat": 0.0, "lat": 38.9222275, "type": "electric_scooter", "lon": -77.03289916666667, "bike_id": "36d1c7c512265038ad49bedb997410a6", "rental_uris": {"android": "https://dc.lft.to/lastmile_qr_scan", "ios": "https://dc.lft.to/lastmile_qr_scan"}, "name": "36d1c7c512265038ad49bedb997410a6", "is_reserved": 0}, {"is_disabled": 0, "fusion_lon": 0.0, "fusion_lat": 0.0, "lat": 38.88743433333333, "type": "electric_scooter", "lon": -77.015401, "bike_id": "fe7e0a291c5968df0de43ab7a8f1175d", "rental_uris": {"android": "https://dc.lft.to/lastmile_qr_scan", "ios": "https://dc.lft.to/lastmile_qr_scan"}, "name": "fe7e0a291c5968df0de43ab7a8f1175d", "is_reserved": 0}, {"is_disabled": 0, "fusion_lon": 0.0, "fusion_lat": 0.0, "lat": 38.925768833333336, "type": "electric_scooter", "lon": -76.99494366666667, "bike_id": "28061a4fbd67e4b3e0eac872f5d5608b", "rental_uris": {"android": "https://dc.lft.to/lastmile_qr_scan", "ios": "https://dc.lft.to/lastmile_qr_scan"}, "name": "28061a4fbd67e4b3e0eac872f5d5608b", "is_reserved": 0}, {"is_disabled": 0, "fusion_lon": 0.0, "fusion_lat": 0.0, "lat": 38.89565833333333, "type": "electric_bike", "lon": -77.127376, "bike_id": "582c188354968f7e5d8f2acaf814cbc3", "rental_uris": {"android": "https://dc.lft.to/lastmile_qr_scan", "ios": "https://dc.lft.to/lastmile_qr_scan"}, "name": "582c188354968f7e5d8f2acaf814cbc3", "is_reserved": 0}, {"is_disabled": 0, "fusion_lon": 0.0, "fusion_lat": 0.0, "lat": 38.9231765, "type": "electric_scooter", "lon": -77.04224016666667, "bike_id": "d8ff99a801e29b9cc5e4d3db5a2face9", "rental_uris": {"android": "https://dc.lft.to/lastmile_qr_scan", "ios": "https://dc.lft.to/lastmile_qr_scan"}, "name": "d8ff99a801e29b9cc5e4d3db5a2face9", "is_reserved": 0}, {"is_disabled": 0, "fusion_lon": 0.0, "fusion_lat": 0.0, "lat": 38.90798183333333, "type": "electric_scooter", "lon": -77.04986766666667, "bike_id": "25a2abc5446ea66565dc6d3bce32876a", "rental_uris": {"android": "https://dc.lft.to/lastmile_qr_scan", "ios": "https://dc.lft.to/lastmile_qr_scan"}, "name": "25a2abc5446ea66565dc6d3bce32876a", "is_reserved": 0}, {"is_disabled": 0, "fusion_lon": 0.0, "fusion_lat": 0.0, "lat": 38.907621666666664, "type": "electric_scooter", "lon": -77.02818616666667, "bike_id": "faab31c6b61e99d62e456fb250c1ab30", "rental_uris": {"android": "https://dc.lft.to/lastmile_qr_scan", "ios": "https://dc.lft.to/lastmile_qr_scan"}, "name": "faab31c6b61e99d62e456fb250c1ab30", "is_reserved": 0}, {"is_disabled": 0, "fusion_lon": 0.0, "fusion_lat": 0.0, "lat": 38.9199595, "type": "electric_scooter", "lon": -77.03278783333333, "bike_id": "0f1dfdb9ec7d0348d6572617c6f436cb", "rental_uris": {"android": "https://dc.lft.to/lastmile_qr_scan", "ios": "https://dc.lft.to/lastmile_qr_scan"}, "name": "0f1dfdb9ec7d0348d6572617c6f436cb", "is_reserved": 0}, {"is_disabled": 0, "fusion_lon": 0.0, "fusion_lat": 0.0, "lat": 38.896511333333336, "type": "electric_scooter", "lon": -77.0118975, "bike_id": "f81775182eebddab7fea788327ad9aed", "rental_uris": {"android": "https://dc.lft.to/lastmile_qr_scan", "ios": "https://dc.lft.to/lastmile_qr_scan"}, "name": "f81775182eebddab7fea788327ad9aed", "is_reserved": 0}, {"is_disabled": 0, "fusion_lon": 0.0, "fusion_lat": 0.0, "lat": 38.920006666666666, "type": "electric_scooter", "lon": -77.02514516666666, "bike_id": "175f8f7a8e5fd96f200296516bad415b", "rental_uris": {"android": "https://dc.lft.to/lastmile_qr_scan", "ios": "https://dc.lft.to/lastmile_qr_scan"}, "name": "175f8f7a8e5fd96f200296516bad415b", "is_reserved": 0}, {"is_disabled": 0, "fusion_lon": 0.0, "fusion_lat": 0.0, "lat": 38.972636333333334, "type": "electric_bike", "lon": -76.99170966666667, "bike_id": "16ba651d534017713f7f2b0c828184eb", "rental_uris": {"android": "https://dc.lft.to/lastmile_qr_scan", "ios": "https://dc.lft.to/lastmile_qr_scan"}, "name": "16ba651d534017713f7f2b0c828184eb", "is_reserved": 0}, {"is_disabled": 0, "fusion_lon": 0.0, "fusion_lat": 0.0, "lat": 38.90416366666667, "type": "electric_scooter", "lon": -77.04029133333333, "bike_id": "ccb25002ea7c27ac34b044c4f1651e3f", "rental_uris": {"android": "https://dc.lft.to/lastmile_qr_scan", "ios": "https://dc.lft.to/lastmile_qr_scan"}, "name": "ccb25002ea7c27ac34b044c4f1651e3f", "is_reserved": 0}, {"is_disabled": 0, "fusion_lon": 0.0, "fusion_lat": 0.0, "lat": 38.905532, "type": "electric_scooter", "lon": -77.04557516666667, "bike_id": "f5b128c25b4c4f64993b7f4430a5e754", "rental_uris": {"android": "https://dc.lft.to/lastmile_qr_scan", "ios": "https://dc.lft.to/lastmile_qr_scan"}, "name": "f5b128c25b4c4f64993b7f4430a5e754", "is_reserved": 0}, {"is_disabled": 0, "fusion_lon": 0.0, "fusion_lat": 0.0, "lat": 38.91769, "type": "electric_scooter", "lon": -77.02799833333333, "bike_id": "17c8e5cee371acfb863cae765a5d90c7", "rental_uris": {"android": "https://dc.lft.to/lastmile_qr_scan", "ios": "https://dc.lft.to/lastmile_qr_scan"}, "name": "17c8e5cee371acfb863cae765a5d90c7", "is_reserved": 0}, {"is_disabled": 0, "fusion_lon": 0.0, "fusion_lat": 0.0, "lat": 38.8393645, "type": "electric_bike", "lon": -77.07902583333333, "bike_id": "824f2e6b0a53bd24a482c2b406ac48e7", "rental_uris": {"android": "https://dc.lft.to/lastmile_qr_scan", "ios": "https://dc.lft.to/lastmile_qr_scan"}, "name": "824f2e6b0a53bd24a482c2b406ac48e7", "is_reserved": 0}, {"is_disabled": 0, "fusion_lon": 0.0, "fusion_lat": 0.0, "lat": 38.93473266666667, "type": "electric_scooter", "lon": -77.0687955, "bike_id": "b787f0a95c985c481e87faeb4bd12ccc", "rental_uris": {"android": "https://dc.lft.to/lastmile_qr_scan", "ios": "https://dc.lft.to/lastmile_qr_scan"}, "name": "b787f0a95c985c481e87faeb4bd12ccc", "is_reserved": 0}, {"is_disabled": 0, "fusion_lon": 0.0, "fusion_lat": 0.0, "lat": 38.8126975, "type": "electric_bike", "lon": -77.06173, "bike_id": "7d114cb763054c93175bff2e17acd07c", "rental_uris": {"android": "https://dc.lft.to/lastmile_qr_scan", "ios": "https://dc.lft.to/lastmile_qr_scan"}, "name": "7d114cb763054c93175bff2e17acd07c", "is_reserved": 0}, {"is_disabled": 0, "fusion_lon": 0.0, "fusion_lat": 0.0, "lat": 38.897402, "type": "electric_scooter", "lon": -77.0100405, "bike_id": "8f02708565e8533da7dbb3acc92630ef", "rental_uris": {"android": "https://dc.lft.to/lastmile_qr_scan", "ios": "https://dc.lft.to/lastmile_qr_scan"}, "name": "8f02708565e8533da7dbb3acc92630ef", "is_reserved": 0}, {"is_disabled": 0, "fusion_lon": 0.0, "fusion_lat": 0.0, "lat": 38.917937, "type": "electric_scooter", "lon": -77.034369, "bike_id": "996431842df7262731f050173d51f8e9", "rental_uris": {"android": "https://dc.lft.to/lastmile_qr_scan", "ios": "https://dc.lft.to/lastmile_qr_scan"}, "name": "996431842df7262731f050173d51f8e9", "is_reserved": 0}, {"is_disabled": 0, "fusion_lon": 0.0, "fusion_lat": 0.0, "lat": 38.932241833333336, "type": "electric_scooter", "lon": -76.99491116666667, "bike_id": "19cfc45a9221c09f7962d368fc6fd6d5", "rental_uris": {"android": "https://dc.lft.to/lastmile_qr_scan", "ios": "https://dc.lft.to/lastmile_qr_scan"}, "name": "19cfc45a9221c09f7962d368fc6fd6d5", "is_reserved": 0}, {"is_disabled": 0, "fusion_lon": 0.0, "fusion_lat": 0.0, "lat": 38.91176316666667, "type": "electric_scooter", "lon": -77.00459883333333, "bike_id": "e3610d3c91ebca2d0060d45b8d3c5bd0", "rental_uris": {"android": "https://dc.lft.to/lastmile_qr_scan", "ios": "https://dc.lft.to/lastmile_qr_scan"}, "name": "e3610d3c91ebca2d0060d45b8d3c5bd0", "is_reserved": 0}, {"is_disabled": 0, "fusion_lon": 0.0, "fusion_lat": 0.0, "lat": 38.930933833333334, "type": "electric_scooter", "lon": -77.03621466666667, "bike_id": "708b4e8ce5b9185b694993f5eac000f9", "rental_uris": {"android": "https://dc.lft.to/lastmile_qr_scan", "ios": "https://dc.lft.to/lastmile_qr_scan"}, "name": "708b4e8ce5b9185b694993f5eac000f9", "is_reserved": 0}, {"is_disabled": 0, "fusion_lon": 0.0, "fusion_lat": 0.0, "lat": 38.9085195, "type": "electric_scooter", "lon": -77.060849, "bike_id": "6351f704b317ebe9be38b5260faa1f21", "rental_uris": {"android": "https://dc.lft.to/lastmile_qr_scan", "ios": "https://dc.lft.to/lastmile_qr_scan"}, "name": "6351f704b317ebe9be38b5260faa1f21", "is_reserved": 0}, {"is_disabled": 0, "fusion_lon": 0.0, "fusion_lat": 0.0, "lat": 38.896658, "type": "electric_scooter", "lon": -77.02694283333334, "bike_id": "ff836e7ddda57bb2a041befb1cd4dec9", "rental_uris": {"android": "https://dc.lft.to/lastmile_qr_scan", "ios": "https://dc.lft.to/lastmile_qr_scan"}, "name": "ff836e7ddda57bb2a041befb1cd4dec9", "is_reserved": 0}, {"is_disabled": 0, "fusion_lon": 0.0, "fusion_lat": 0.0, "lat": 38.90483116666667, "type": "electric_scooter", "lon": -77.062179, "bike_id": "f1208b28a942bb7c9a8bbdb2fe895fc5", "rental_uris": {"android": "https://dc.lft.to/lastmile_qr_scan", "ios": "https://dc.lft.to/lastmile_qr_scan"}, "name": "f1208b28a942bb7c9a8bbdb2fe895fc5", "is_reserved": 0}, {"is_disabled": 0, "fusion_lon": 0.0, "fusion_lat": 0.0, "lat": 38.9363355, "type": "electric_scooter", "lon": -77.0269555, "bike_id": "64c6a37be7605d2ae7a305502b5b3f04", "rental_uris": {"android": "https://dc.lft.to/lastmile_qr_scan", "ios": "https://dc.lft.to/lastmile_qr_scan"}, "name": "64c6a37be7605d2ae7a305502b5b3f04", "is_reserved": 0}, {"is_disabled": 0, "fusion_lon": 0.0, "fusion_lat": 0.0, "lat": 38.916949333333335, "type": "electric_scooter", "lon": -77.04113383333333, "bike_id": "547585883ad9de8fd977f4506e84a518", "rental_uris": {"android": "https://dc.lft.to/lastmile_qr_scan", "ios": "https://dc.lft.to/lastmile_qr_scan"}, "name": "547585883ad9de8fd977f4506e84a518", "is_reserved": 0}, {"is_disabled": 0, "fusion_lon": 0.0, "fusion_lat": 0.0, "lat": 38.91716483333333, "type": "electric_scooter", "lon": -77.03302183333334, "bike_id": "fc4ca218ca99be6022abc350ed544ff6", "rental_uris": {"android": "https://dc.lft.to/lastmile_qr_scan", "ios": "https://dc.lft.to/lastmile_qr_scan"}, "name": "fc4ca218ca99be6022abc350ed544ff6", "is_reserved": 0}, {"is_disabled": 0, "fusion_lon": 0.0, "fusion_lat": 0.0, "lat": 38.892199166666664, "type": "electric_scooter", "lon": -77.031828, "bike_id": "38a94129a6d41e08cfecee602edb1fcb", "rental_uris": {"android": "https://dc.lft.to/lastmile_qr_scan", "ios": "https://dc.lft.to/lastmile_qr_scan"}, "name": "38a94129a6d41e08cfecee602edb1fcb", "is_reserved": 0}, {"is_disabled": 0, "fusion_lon": 0.0, "fusion_lat": 0.0, "lat": 38.89817766666667, "type": "electric_scooter", "lon": -77.02793283333334, "bike_id": "626b0eb0f8ea1f3756406845ac7f1b8b", "rental_uris": {"android": "https://dc.lft.to/lastmile_qr_scan", "ios": "https://dc.lft.to/lastmile_qr_scan"}, "name": "626b0eb0f8ea1f3756406845ac7f1b8b", "is_reserved": 0}, {"is_disabled": 0, "fusion_lon": 0.0, "fusion_lat": 0.0, "lat": 38.935226666666665, "type": "electric_scooter", "lon": -77.06640683333333, "bike_id": "4f6b19d6db52b38f81eede36d0c6a5e3", "rental_uris": {"android": "https://dc.lft.to/lastmile_qr_scan", "ios": "https://dc.lft.to/lastmile_qr_scan"}, "name": "4f6b19d6db52b38f81eede36d0c6a5e3", "is_reserved": 0}, {"is_disabled": 0, "fusion_lon": 0.0, "fusion_lat": 0.0, "lat": 38.865929333333334, "type": "electric_scooter", "lon": -77.0107785, "bike_id": "6768fc812a96e8ecc1481448a0dba1ab", "rental_uris": {"android": "https://dc.lft.to/lastmile_qr_scan", "ios": "https://dc.lft.to/lastmile_qr_scan"}, "name": "6768fc812a96e8ecc1481448a0dba1ab", "is_reserved": 0}, {"is_disabled": 0, "fusion_lon": 0.0, "fusion_lat": 0.0, "lat": 38.852120666666664, "type": "electric_bike", "lon": -77.1013305, "bike_id": "490a29f5fd4b7ba632fb6a0a54ec0463", "rental_uris": {"android": "https://dc.lft.to/lastmile_qr_scan", "ios": "https://dc.lft.to/lastmile_qr_scan"}, "name": "490a29f5fd4b7ba632fb6a0a54ec0463", "is_reserved": 0}, {"is_disabled": 0, "fusion_lon": 0.0, "fusion_lat": 0.0, "lat": 38.890819666666665, "type": "electric_scooter", "lon": -76.95436533333333, "bike_id": "39f30c5cf914aabfa0d805f1634f520d", "rental_uris": {"android": "https://dc.lft.to/lastmile_qr_scan", "ios": "https://dc.lft.to/lastmile_qr_scan"}, "name": "39f30c5cf914aabfa0d805f1634f520d", "is_reserved": 0}, {"is_disabled": 0, "fusion_lon": 0.0, "fusion_lat": 0.0, "lat": 38.8833815, "type": "electric_scooter", "lon": -76.94183466666667, "bike_id": "774974b7f1a5467fa8de673cf97efaac", "rental_uris": {"android": "https://dc.lft.to/lastmile_qr_scan", "ios": "https://dc.lft.to/lastmile_qr_scan"}, "name": "774974b7f1a5467fa8de673cf97efaac", "is_reserved": 0}, {"is_disabled": 0, "fusion_lon": 0.0, "fusion_lat": 0.0, "lat": 38.9249905, "type": "electric_scooter", "lon": -76.99574533333333, "bike_id": "74bbff7c3436d86a256e6e95933beeb7", "rental_uris": {"android": "https://dc.lft.to/lastmile_qr_scan", "ios": "https://dc.lft.to/lastmile_qr_scan"}, "name": "74bbff7c3436d86a256e6e95933beeb7", "is_reserved": 0}, {"is_disabled": 0, "fusion_lon": 0.0, "fusion_lat": 0.0, "lat": 38.91802366666667, "type": "electric_scooter", "lon": -77.04034083333333, "bike_id": "e2de6dd2c3b1e6f51e999e5513225474", "rental_uris": {"android": "https://dc.lft.to/lastmile_qr_scan", "ios": "https://dc.lft.to/lastmile_qr_scan"}, "name": "e2de6dd2c3b1e6f51e999e5513225474", "is_reserved": 0}, {"is_disabled": 0, "fusion_lon": 0.0, "fusion_lat": 0.0, "lat": 38.91048416666667, "type": "electric_scooter", "lon": -77.04344516666667, "bike_id": "8b31c45c0d6ef3e9af1e316a6a459184", "rental_uris": {"android": "https://dc.lft.to/lastmile_qr_scan", "ios": "https://dc.lft.to/lastmile_qr_scan"}, "name": "8b31c45c0d6ef3e9af1e316a6a459184", "is_reserved": 0}, {"is_disabled": 0, "fusion_lon": 0.0, "fusion_lat": 0.0, "lat": 38.91806866666667, "type": "electric_scooter", "lon": -77.01015733333334, "bike_id": "e64a36d0c135f6942633f0e9315e0980", "rental_uris": {"android": "https://dc.lft.to/lastmile_qr_scan", "ios": "https://dc.lft.to/lastmile_qr_scan"}, "name": "e64a36d0c135f6942633f0e9315e0980", "is_reserved": 0}, {"is_disabled": 0, "fusion_lon": 0.0, "fusion_lat": 0.0, "lat": 38.88249833333333, "type": "electric_bike", "lon": -77.10741433333334, "bike_id": "64a515c9ad7cde4e626b4ea0facd4b9d", "rental_uris": {"android": "https://dc.lft.to/lastmile_qr_scan", "ios": "https://dc.lft.to/lastmile_qr_scan"}, "name": "64a515c9ad7cde4e626b4ea0facd4b9d", "is_reserved": 0}, {"is_disabled": 0, "fusion_lon": 0.0, "fusion_lat": 0.0, "lat": 38.941768333333336, "type": "electric_scooter", "lon": -77.03655233333333, "bike_id": "69aef5f54028272d051856f4ced978c7", "rental_uris": {"android": "https://dc.lft.to/lastmile_qr_scan", "ios": "https://dc.lft.to/lastmile_qr_scan"}, "name": "69aef5f54028272d051856f4ced978c7", "is_reserved": 0}, {"is_disabled": 0, "fusion_lon": 0.0, "fusion_lat": 0.0, "lat": 38.897720666666665, "type": "electric_scooter", "lon": -77.02481266666666, "bike_id": "ebf1a0070db34cac5f549115753576b9", "rental_uris": {"android": "https://dc.lft.to/lastmile_qr_scan", "ios": "https://dc.lft.to/lastmile_qr_scan"}, "name": "ebf1a0070db34cac5f549115753576b9", "is_reserved": 0}, {"is_disabled": 0, "fusion_lon": 0.0, "fusion_lat": 0.0, "lat": 38.901832666666664, "type": "electric_scooter", "lon": -77.04792616666667, "bike_id": "ca998c6dd7af0309754634658fff1903", "rental_uris": {"android": "https://dc.lft.to/lastmile_qr_scan", "ios": "https://dc.lft.to/lastmile_qr_scan"}, "name": "ca998c6dd7af0309754634658fff1903", "is_reserved": 0}, {"is_disabled": 0, "fusion_lon": 0.0, "fusion_lat": 0.0, "lat": 38.92152316666667, "type": "electric_scooter", "lon": -77.03380733333333, "bike_id": "96e65e6b0a71e5d4afabff4c883026a4", "rental_uris": {"android": "https://dc.lft.to/lastmile_qr_scan", "ios": "https://dc.lft.to/lastmile_qr_scan"}, "name": "96e65e6b0a71e5d4afabff4c883026a4", "is_reserved": 0}, {"is_disabled": 0, "fusion_lon": 0.0, "fusion_lat": 0.0, "lat": 38.89486933333333, "type": "electric_scooter", "lon": -77.00216066666667, "bike_id": "9db0b75409d21d2f2148ffaa2bad736b", "rental_uris": {"android": "https://dc.lft.to/lastmile_qr_scan", "ios": "https://dc.lft.to/lastmile_qr_scan"}, "name": "9db0b75409d21d2f2148ffaa2bad736b", "is_reserved": 0}, {"is_disabled": 0, "fusion_lon": 0.0, "fusion_lat": 0.0, "lat": 38.95651266666667, "type": "electric_scooter", "lon": -77.01494716666667, "bike_id": "283f202a9f8664f8064d96389fa9ccbb", "rental_uris": {"android": "https://dc.lft.to/lastmile_qr_scan", "ios": "https://dc.lft.to/lastmile_qr_scan"}, "name": "283f202a9f8664f8064d96389fa9ccbb", "is_reserved": 0}, {"is_disabled": 0, "fusion_lon": 0.0, "fusion_lat": 0.0, "lat": 38.92589016666667, "type": "electric_scooter", "lon": -77.02294766666667, "bike_id": "d2ffdd413ae936eece7785b0646e5ebb", "rental_uris": {"android": "https://dc.lft.to/lastmile_qr_scan", "ios": "https://dc.lft.to/lastmile_qr_scan"}, "name": "d2ffdd413ae936eece7785b0646e5ebb", "is_reserved": 0}, {"is_disabled": 0, "fusion_lon": 0.0, "fusion_lat": 0.0, "lat": 38.91820833333333, "type": "electric_scooter", "lon": -77.02720183333334, "bike_id": "a4bae639c8864a562844d57d30e7a41c", "rental_uris": {"android": "https://dc.lft.to/lastmile_qr_scan", "ios": "https://dc.lft.to/lastmile_qr_scan"}, "name": "a4bae639c8864a562844d57d30e7a41c", "is_reserved": 0}, {"is_disabled": 0, "fusion_lon": 0.0, "fusion_lat": 0.0, "lat": 38.918088, "type": "electric_scooter", "lon": -77.0400045, "bike_id": "acafa0d9fa994d741ea617de580f521a", "rental_uris": {"android": "https://dc.lft.to/lastmile_qr_scan", "ios": "https://dc.lft.to/lastmile_qr_scan"}, "name": "acafa0d9fa994d741ea617de580f521a", "is_reserved": 0}, {"is_disabled": 0, "fusion_lon": 0.0, "fusion_lat": 0.0, "lat": 38.892612166666666, "type": "electric_scooter", "lon": -76.941575, "bike_id": "f89a03798de13d74a4c2000df02751ae", "rental_uris": {"android": "https://dc.lft.to/lastmile_qr_scan", "ios": "https://dc.lft.to/lastmile_qr_scan"}, "name": "f89a03798de13d74a4c2000df02751ae", "is_reserved": 0}, {"is_disabled": 0, "fusion_lon": 0.0, "fusion_lat": 0.0, "lat": 38.9188295, "type": "electric_scooter", "lon": -77.0418505, "bike_id": "2f4d58e6e77c68f43844df4f06ea11d6", "rental_uris": {"android": "https://dc.lft.to/lastmile_qr_scan", "ios": "https://dc.lft.to/lastmile_qr_scan"}, "name": "2f4d58e6e77c68f43844df4f06ea11d6", "is_reserved": 0}, {"is_disabled": 0, "fusion_lon": 0.0, "fusion_lat": 0.0, "lat": 38.9080745, "type": "electric_scooter", "lon": -77.0433935, "bike_id": "f9f5996951bface091301b94671ddb3a", "rental_uris": {"android": "https://dc.lft.to/lastmile_qr_scan", "ios": "https://dc.lft.to/lastmile_qr_scan"}, "name": "f9f5996951bface091301b94671ddb3a", "is_reserved": 0}, {"is_disabled": 0, "fusion_lon": 0.0, "fusion_lat": 0.0, "lat": 38.909467166666666, "type": "electric_scooter", "lon": -77.0153215, "bike_id": "f289cb212778f00803bf997fc9cbf02c", "rental_uris": {"android": "https://dc.lft.to/lastmile_qr_scan", "ios": "https://dc.lft.to/lastmile_qr_scan"}, "name": "f289cb212778f00803bf997fc9cbf02c", "is_reserved": 0}, {"is_disabled": 0, "fusion_lon": 0.0, "fusion_lat": 0.0, "lat": 38.9225785, "type": "electric_scooter", "lon": -77.03523316666667, "bike_id": "833aea3608655cc2dce39e65cc8fe53d", "rental_uris": {"android": "https://dc.lft.to/lastmile_qr_scan", "ios": "https://dc.lft.to/lastmile_qr_scan"}, "name": "833aea3608655cc2dce39e65cc8fe53d", "is_reserved": 0}, {"is_disabled": 0, "fusion_lon": 0.0, "fusion_lat": 0.0, "lat": 38.8864625, "type": "electric_scooter", "lon": -77.02248683333333, "bike_id": "36e3e06d978a60a4742839e51959758d", "rental_uris": {"android": "https://dc.lft.to/lastmile_qr_scan", "ios": "https://dc.lft.to/lastmile_qr_scan"}, "name": "36e3e06d978a60a4742839e51959758d", "is_reserved": 0}, {"is_disabled": 0, "fusion_lon": 0.0, "fusion_lat": 0.0, "lat": 38.892210166666665, "type": "electric_scooter", "lon": -77.01556866666667, "bike_id": "27a48f2d0cddbd0c674bfbbd14e71576", "rental_uris": {"android": "https://dc.lft.to/lastmile_qr_scan", "ios": "https://dc.lft.to/lastmile_qr_scan"}, "name": "27a48f2d0cddbd0c674bfbbd14e71576", "is_reserved": 0}, {"is_disabled": 0, "fusion_lon": 0.0, "fusion_lat": 0.0, "lat": 38.932557833333334, "type": "electric_scooter", "lon": -77.032817, "bike_id": "6c77e86f8dd8b14c1e3f0103bdd08379", "rental_uris": {"android": "https://dc.lft.to/lastmile_qr_scan", "ios": "https://dc.lft.to/lastmile_qr_scan"}, "name": "6c77e86f8dd8b14c1e3f0103bdd08379", "is_reserved": 0}, {"is_disabled": 0, "fusion_lon": 0.0, "fusion_lat": 0.0, "lat": 38.91621466666667, "type": "electric_scooter", "lon": -77.03171566666667, "bike_id": "e41da1ed5d0e7b03595ef6ad2fa86cca", "rental_uris": {"android": "https://dc.lft.to/lastmile_qr_scan", "ios": "https://dc.lft.to/lastmile_qr_scan"}, "name": "e41da1ed5d0e7b03595ef6ad2fa86cca", "is_reserved": 0}, {"is_disabled": 0, "fusion_lon": 0.0, "fusion_lat": 0.0, "lat": 38.91820166666667, "type": "electric_scooter", "lon": -77.02717416666667, "bike_id": "e7f80056344564ff480392a53d3f851e", "rental_uris": {"android": "https://dc.lft.to/lastmile_qr_scan", "ios": "https://dc.lft.to/lastmile_qr_scan"}, "name": "e7f80056344564ff480392a53d3f851e", "is_reserved": 0}, {"is_disabled": 0, "fusion_lon": 0.0, "fusion_lat": 0.0, "lat": 38.9294185, "type": "electric_scooter", "lon": -77.01888983333333, "bike_id": "0804309191c490c1c37de43ffc9ca71c", "rental_uris": {"android": "https://dc.lft.to/lastmile_qr_scan", "ios": "https://dc.lft.to/lastmile_qr_scan"}, "name": "0804309191c490c1c37de43ffc9ca71c", "is_reserved": 0}, {"is_disabled": 0, "fusion_lon": 0.0, "fusion_lat": 0.0, "lat": 38.9068575, "type": "electric_bike", "lon": -76.9519605, "bike_id": "485fad90a1916cc3a71251575f02e800", "rental_uris": {"android": "https://dc.lft.to/lastmile_qr_scan", "ios": "https://dc.lft.to/lastmile_qr_scan"}, "name": "485fad90a1916cc3a71251575f02e800", "is_reserved": 0}, {"is_disabled": 0, "fusion_lon": 0.0, "fusion_lat": 0.0, "lat": 38.908080166666664, "type": "electric_scooter", "lon": -77.032006, "bike_id": "86e00acd5d32d9b616342e5915f20bc0", "rental_uris": {"android": "https://dc.lft.to/lastmile_qr_scan", "ios": "https://dc.lft.to/lastmile_qr_scan"}, "name": "86e00acd5d32d9b616342e5915f20bc0", "is_reserved": 0}, {"is_disabled": 0, "fusion_lon": 0.0, "fusion_lat": 0.0, "lat": 38.917079333333334, "type": "electric_scooter", "lon": -77.03469816666667, "bike_id": "0bdda6373c32fdc203edd61eb5797e0e", "rental_uris": {"android": "https://dc.lft.to/lastmile_qr_scan", "ios": "https://dc.lft.to/lastmile_qr_scan"}, "name": "0bdda6373c32fdc203edd61eb5797e0e", "is_reserved": 0}, {"is_disabled": 0, "fusion_lon": 0.0, "fusion_lat": 0.0, "lat": 38.90873766666667, "type": "electric_scooter", "lon": -77.02690133333333, "bike_id": "f1ba1dadb1d43108d844857fc11dd176", "rental_uris": {"android": "https://dc.lft.to/lastmile_qr_scan", "ios": "https://dc.lft.to/lastmile_qr_scan"}, "name": "f1ba1dadb1d43108d844857fc11dd176", "is_reserved": 0}, {"is_disabled": 0, "fusion_lon": 0.0, "fusion_lat": 0.0, "lat": 38.90015116666667, "type": "electric_scooter", "lon": -77.0524425, "bike_id": "b92cf35d824031ad8c5ff9158a3af675", "rental_uris": {"android": "https://dc.lft.to/lastmile_qr_scan", "ios": "https://dc.lft.to/lastmile_qr_scan"}, "name": "b92cf35d824031ad8c5ff9158a3af675", "is_reserved": 0}, {"is_disabled": 0, "fusion_lon": 0.0, "fusion_lat": 0.0, "lat": 38.91957133333333, "type": "electric_scooter", "lon": -77.000748, "bike_id": "8e6356aca177236b0a8d3e97d2f7ee22", "rental_uris": {"android": "https://dc.lft.to/lastmile_qr_scan", "ios": "https://dc.lft.to/lastmile_qr_scan"}, "name": "8e6356aca177236b0a8d3e97d2f7ee22", "is_reserved": 0}, {"is_disabled": 0, "fusion_lon": 0.0, "fusion_lat": 0.0, "lat": 38.919555, "type": "electric_scooter", "lon": -77.01651983333333, "bike_id": "690b8727a20f1fc68e9983d09d883e63", "rental_uris": {"android": "https://dc.lft.to/lastmile_qr_scan", "ios": "https://dc.lft.to/lastmile_qr_scan"}, "name": "690b8727a20f1fc68e9983d09d883e63", "is_reserved": 0}, {"is_disabled": 0, "fusion_lon": 0.0, "fusion_lat": 0.0, "lat": 38.93758566666666, "type": "electric_scooter", "lon": -77.024981, "bike_id": "d50fc3b8b2521950395d53923c5a5b8d", "rental_uris": {"android": "https://dc.lft.to/lastmile_qr_scan", "ios": "https://dc.lft.to/lastmile_qr_scan"}, "name": "d50fc3b8b2521950395d53923c5a5b8d", "is_reserved": 0}, {"is_disabled": 0, "fusion_lon": 0.0, "fusion_lat": 0.0, "lat": 38.957772, "type": "electric_bike", "lon": -76.94094733333333, "bike_id": "6a77fb45713b8519d51760e49bced65f", "rental_uris": {"android": "https://dc.lft.to/lastmile_qr_scan", "ios": "https://dc.lft.to/lastmile_qr_scan"}, "name": "6a77fb45713b8519d51760e49bced65f", "is_reserved": 0}, {"is_disabled": 0, "fusion_lon": 0.0, "fusion_lat": 0.0, "lat": 38.899873666666664, "type": "electric_scooter", "lon": -76.99499, "bike_id": "90c3f960d729cf3590505f704d9497b6", "rental_uris": {"android": "https://dc.lft.to/lastmile_qr_scan", "ios": "https://dc.lft.to/lastmile_qr_scan"}, "name": "90c3f960d729cf3590505f704d9497b6", "is_reserved": 0}, {"is_disabled": 0, "fusion_lon": 0.0, "fusion_lat": 0.0, "lat": 38.8802325, "type": "electric_bike", "lon": -76.96070933333333, "bike_id": "8454d3dffc327f3aad9898107e7edb59", "rental_uris": {"android": "https://dc.lft.to/lastmile_qr_scan", "ios": "https://dc.lft.to/lastmile_qr_scan"}, "name": "8454d3dffc327f3aad9898107e7edb59", "is_reserved": 0}, {"is_disabled": 0, "fusion_lon": 0.0, "fusion_lat": 0.0, "lat": 38.89369516666667, "type": "electric_scooter", "lon": -76.94018533333333, "bike_id": "7f9f4889049bc3ff5292f4ac1fad1a98", "rental_uris": {"android": "https://dc.lft.to/lastmile_qr_scan", "ios": "https://dc.lft.to/lastmile_qr_scan"}, "name": "7f9f4889049bc3ff5292f4ac1fad1a98", "is_reserved": 0}, {"is_disabled": 0, "fusion_lon": 0.0, "fusion_lat": 0.0, "lat": 38.8896925, "type": "electric_bike", "lon": -76.94864466666667, "bike_id": "5d385921c12ff926002a7e32591ff85e", "rental_uris": {"android": "https://dc.lft.to/lastmile_qr_scan", "ios": "https://dc.lft.to/lastmile_qr_scan"}, "name": "5d385921c12ff926002a7e32591ff85e", "is_reserved": 0}, {"is_disabled": 0, "fusion_lon": 0.0, "fusion_lat": 0.0, "lat": 38.9757475, "type": "electric_bike", "lon": -76.96408366666667, "bike_id": "dc46fa0ab91d3459d73505306a8c2c0d", "rental_uris": {"android": "https://dc.lft.to/lastmile_qr_scan", "ios": "https://dc.lft.to/lastmile_qr_scan"}, "name": "dc46fa0ab91d3459d73505306a8c2c0d", "is_reserved": 0}, {"is_disabled": 0, "fusion_lon": 0.0, "fusion_lat": 0.0, "lat": 38.932925166666664, "type": "electric_scooter", "lon": -77.02395416666667, "bike_id": "fedc9ffb2d9ff332122c05db67b9e56e", "rental_uris": {"android": "https://dc.lft.to/lastmile_qr_scan", "ios": "https://dc.lft.to/lastmile_qr_scan"}, "name": "fedc9ffb2d9ff332122c05db67b9e56e", "is_reserved": 0}, {"is_disabled": 0, "fusion_lon": 0.0, "fusion_lat": 0.0, "lat": 38.99224566666667, "type": "electric_bike", "lon": -76.87772616666666, "bike_id": "31c859cc4bbdcd72062ea6aa63bf366b", "rental_uris": {"android": "https://dc.lft.to/lastmile_qr_scan", "ios": "https://dc.lft.to/lastmile_qr_scan"}, "name": "31c859cc4bbdcd72062ea6aa63bf366b", "is_reserved": 0}, {"is_disabled": 0, "fusion_lon": 0.0, "fusion_lat": 0.0, "lat": 38.88744883333333, "type": "electric_scooter", "lon": -77.02858216666667, "bike_id": "d7a423fbc71cd6171a43361419ede785", "rental_uris": {"android": "https://dc.lft.to/lastmile_qr_scan", "ios": "https://dc.lft.to/lastmile_qr_scan"}, "name": "d7a423fbc71cd6171a43361419ede785", "is_reserved": 0}, {"is_disabled": 0, "fusion_lon": 0.0, "fusion_lat": 0.0, "lat": 38.908283833333336, "type": "electric_bike", "lon": -76.94157566666667, "bike_id": "e9e0701e2332bdb171f5b748f7d319f6", "rental_uris": {"android": "https://dc.lft.to/lastmile_qr_scan", "ios": "https://dc.lft.to/lastmile_qr_scan"}, "name": "e9e0701e2332bdb171f5b748f7d319f6", "is_reserved": 0}, {"is_disabled": 0, "fusion_lon": 0.0, "fusion_lat": 0.0, "lat": 38.91839183333333, "type": "electric_scooter", "lon": -77.02326033333334, "bike_id": "494be71ab89dfe124134c8bb760a6e56", "rental_uris": {"android": "https://dc.lft.to/lastmile_qr_scan", "ios": "https://dc.lft.to/lastmile_qr_scan"}, "name": "494be71ab89dfe124134c8bb760a6e56", "is_reserved": 0}, {"is_disabled": 0, "fusion_lon": 0.0, "fusion_lat": 0.0, "lat": 38.8882105, "type": "electric_bike", "lon": -77.12741833333334, "bike_id": "a7c5cd5649e006d845f90b90015d1a85", "rental_uris": {"android": "https://dc.lft.to/lastmile_qr_scan", "ios": "https://dc.lft.to/lastmile_qr_scan"}, "name": "a7c5cd5649e006d845f90b90015d1a85", "is_reserved": 0}, {"is_disabled": 0, "fusion_lon": 0.0, "fusion_lat": 0.0, "lat": 38.9077545, "type": "electric_scooter", "lon": -77.032651, "bike_id": "1afd3aede1d6dd31dd75bec70f46ece5", "rental_uris": {"android": "https://dc.lft.to/lastmile_qr_scan", "ios": "https://dc.lft.to/lastmile_qr_scan"}, "name": "1afd3aede1d6dd31dd75bec70f46ece5", "is_reserved": 0}, {"is_disabled": 0, "fusion_lon": 0.0, "fusion_lat": 0.0, "lat": 38.903817, "type": "electric_scooter", "lon": -77.0433465, "bike_id": "f6fa003d5b86c9d3b7c111604564d0b6", "rental_uris": {"android": "https://dc.lft.to/lastmile_qr_scan", "ios": "https://dc.lft.to/lastmile_qr_scan"}, "name": "f6fa003d5b86c9d3b7c111604564d0b6", "is_reserved": 0}, {"is_disabled": 0, "fusion_lon": 0.0, "fusion_lat": 0.0, "lat": 38.85784783333333, "type": "electric_bike", "lon": -76.98751733333333, "bike_id": "c994235dd0fb2a1677ac32f8561ea76a", "rental_uris": {"android": "https://dc.lft.to/lastmile_qr_scan", "ios": "https://dc.lft.to/lastmile_qr_scan"}, "name": "c994235dd0fb2a1677ac32f8561ea76a", "is_reserved": 0}, {"is_disabled": 0, "fusion_lon": 0.0, "fusion_lat": 0.0, "lat": 38.915642, "type": "electric_scooter", "lon": -77.00811, "bike_id": "577f10f789f68637c202471437b985c8", "rental_uris": {"android": "https://dc.lft.to/lastmile_qr_scan", "ios": "https://dc.lft.to/lastmile_qr_scan"}, "name": "577f10f789f68637c202471437b985c8", "is_reserved": 0}, {"is_disabled": 0, "fusion_lon": 0.0, "fusion_lat": 0.0, "lat": 38.852937, "type": "electric_bike", "lon": -76.98151733333333, "bike_id": "698f4e6576cb2643f500e20a9a6786ee", "rental_uris": {"android": "https://dc.lft.to/lastmile_qr_scan", "ios": "https://dc.lft.to/lastmile_qr_scan"}, "name": "698f4e6576cb2643f500e20a9a6786ee", "is_reserved": 0}, {"is_disabled": 0, "fusion_lon": 0.0, "fusion_lat": 0.0, "lat": 38.89196166666667, "type": "electric_scooter", "lon": -76.9427155, "bike_id": "fc95397c5e737a0f6d63b67191148c29", "rental_uris": {"android": "https://dc.lft.to/lastmile_qr_scan", "ios": "https://dc.lft.to/lastmile_qr_scan"}, "name": "fc95397c5e737a0f6d63b67191148c29", "is_reserved": 0}, {"is_disabled": 0, "fusion_lon": 0.0, "fusion_lat": 0.0, "lat": 38.8849715, "type": "electric_scooter", "lon": -77.02507466666667, "bike_id": "be0de0d2a891762d60b110dd5c95db55", "rental_uris": {"android": "https://dc.lft.to/lastmile_qr_scan", "ios": "https://dc.lft.to/lastmile_qr_scan"}, "name": "be0de0d2a891762d60b110dd5c95db55", "is_reserved": 0}, {"is_disabled": 0, "fusion_lon": 0.0, "fusion_lat": 0.0, "lat": 38.8956055, "type": "electric_scooter", "lon": -77.01529066666667, "bike_id": "dc2ef9869a6199aa3f155a971b5f471f", "rental_uris": {"android": "https://dc.lft.to/lastmile_qr_scan", "ios": "https://dc.lft.to/lastmile_qr_scan"}, "name": "dc2ef9869a6199aa3f155a971b5f471f", "is_reserved": 0}, {"is_disabled": 0, "fusion_lon": 0.0, "fusion_lat": 0.0, "lat": 38.907892833333335, "type": "electric_scooter", "lon": -77.02391883333334, "bike_id": "3cde2c2435b76eab5971f126f8921103", "rental_uris": {"android": "https://dc.lft.to/lastmile_qr_scan", "ios": "https://dc.lft.to/lastmile_qr_scan"}, "name": "3cde2c2435b76eab5971f126f8921103", "is_reserved": 0}, {"is_disabled": 0, "fusion_lon": 0.0, "fusion_lat": 0.0, "lat": 38.90004166666667, "type": "electric_scooter", "lon": -77.03375783333334, "bike_id": "31a1f0b4ef39ceb33107cba0413a0794", "rental_uris": {"android": "https://dc.lft.to/lastmile_qr_scan", "ios": "https://dc.lft.to/lastmile_qr_scan"}, "name": "31a1f0b4ef39ceb33107cba0413a0794", "is_reserved": 0}, {"is_disabled": 0, "fusion_lon": 0.0, "fusion_lat": 0.0, "lat": 38.91811216666667, "type": "electric_scooter", "lon": -77.02696866666666, "bike_id": "9a61ff76e2db0f14a11c203ab670730a", "rental_uris": {"android": "https://dc.lft.to/lastmile_qr_scan", "ios": "https://dc.lft.to/lastmile_qr_scan"}, "name": "9a61ff76e2db0f14a11c203ab670730a", "is_reserved": 0}, {"is_disabled": 0, "fusion_lon": 0.0, "fusion_lat": 0.0, "lat": 38.916244666666664, "type": "electric_scooter", "lon": -77.03188333333334, "bike_id": "d21146ca05ecba59d57f0829fa8c9fe6", "rental_uris": {"android": "https://dc.lft.to/lastmile_qr_scan", "ios": "https://dc.lft.to/lastmile_qr_scan"}, "name": "d21146ca05ecba59d57f0829fa8c9fe6", "is_reserved": 0}, {"is_disabled": 0, "fusion_lon": 0.0, "fusion_lat": 0.0, "lat": 38.943337, "type": "electric_bike", "lon": -77.01480566666666, "bike_id": "4f43f5949f8b1329bd8d68122027dfce", "rental_uris": {"android": "https://dc.lft.to/lastmile_qr_scan", "ios": "https://dc.lft.to/lastmile_qr_scan"}, "name": "4f43f5949f8b1329bd8d68122027dfce", "is_reserved": 0}, {"is_disabled": 0, "fusion_lon": 0.0, "fusion_lat": 0.0, "lat": 38.77621933333333, "type": "electric_bike", "lon": -77.08347783333333, "bike_id": "4ef70beb241a3741192b21c2ba44559b", "rental_uris": {"android": "https://dc.lft.to/lastmile_qr_scan", "ios": "https://dc.lft.to/lastmile_qr_scan"}, "name": "4ef70beb241a3741192b21c2ba44559b", "is_reserved": 0}, {"is_disabled": 0, "fusion_lon": 0.0, "fusion_lat": 0.0, "lat": 38.8874365, "type": "electric_scooter", "lon": -77.0143285, "bike_id": "41305b41be854be71fb3f19ddb50cfef", "rental_uris": {"android": "https://dc.lft.to/lastmile_qr_scan", "ios": "https://dc.lft.to/lastmile_qr_scan"}, "name": "41305b41be854be71fb3f19ddb50cfef", "is_reserved": 0}, {"is_disabled": 0, "fusion_lon": 0.0, "fusion_lat": 0.0, "lat": 38.91758733333333, "type": "electric_scooter", "lon": -77.03207116666667, "bike_id": "3caf5748eda6520c3abddcf3d59bfb98", "rental_uris": {"android": "https://dc.lft.to/lastmile_qr_scan", "ios": "https://dc.lft.to/lastmile_qr_scan"}, "name": "3caf5748eda6520c3abddcf3d59bfb98", "is_reserved": 0}, {"is_disabled": 0, "fusion_lon": 0.0, "fusion_lat": 0.0, "lat": 38.895329833333335, "type": "electric_scooter", "lon": -77.033516, "bike_id": "c46b61fcb7c5e263f387aacb135c00a5", "rental_uris": {"android": "https://dc.lft.to/lastmile_qr_scan", "ios": "https://dc.lft.to/lastmile_qr_scan"}, "name": "c46b61fcb7c5e263f387aacb135c00a5", "is_reserved": 0}, {"is_disabled": 0, "fusion_lon": 0.0, "fusion_lat": 0.0, "lat": 38.8939195, "type": "electric_scooter", "lon": -76.94999266666667, "bike_id": "eebe1f6288566da92c5f8d884ed10094", "rental_uris": {"android": "https://dc.lft.to/lastmile_qr_scan", "ios": "https://dc.lft.to/lastmile_qr_scan"}, "name": "eebe1f6288566da92c5f8d884ed10094", "is_reserved": 0}, {"is_disabled": 0, "fusion_lon": 0.0, "fusion_lat": 0.0, "lat": 38.89605683333333, "type": "electric_scooter", "lon": -77.0092995, "bike_id": "ed9e89cd7fa4438d691db076337601ee", "rental_uris": {"android": "https://dc.lft.to/lastmile_qr_scan", "ios": "https://dc.lft.to/lastmile_qr_scan"}, "name": "ed9e89cd7fa4438d691db076337601ee", "is_reserved": 0}, {"is_disabled": 0, "fusion_lon": 0.0, "fusion_lat": 0.0, "lat": 38.90509866666667, "type": "electric_scooter", "lon": -76.98239466666666, "bike_id": "5efd9c8a6870e78fe5481f40d252e276", "rental_uris": {"android": "https://dc.lft.to/lastmile_qr_scan", "ios": "https://dc.lft.to/lastmile_qr_scan"}, "name": "5efd9c8a6870e78fe5481f40d252e276", "is_reserved": 0}, {"is_disabled": 0, "fusion_lon": 0.0, "fusion_lat": 0.0, "lat": 38.8896225, "type": "electric_scooter", "lon": -76.9913905, "bike_id": "702f222610afa0a17b8fecbf7a9bbc8a", "rental_uris": {"android": "https://dc.lft.to/lastmile_qr_scan", "ios": "https://dc.lft.to/lastmile_qr_scan"}, "name": "702f222610afa0a17b8fecbf7a9bbc8a", "is_reserved": 0}, {"is_disabled": 0, "fusion_lon": 0.0, "fusion_lat": 0.0, "lat": 38.8679875, "type": "electric_scooter", "lon": -77.01186916666667, "bike_id": "3d4234a384afcbf763e09cf0bd1a97f4", "rental_uris": {"android": "https://dc.lft.to/lastmile_qr_scan", "ios": "https://dc.lft.to/lastmile_qr_scan"}, "name": "3d4234a384afcbf763e09cf0bd1a97f4", "is_reserved": 0}, {"is_disabled": 0, "fusion_lon": 0.0, "fusion_lat": 0.0, "lat": 38.91039266666667, "type": "electric_scooter", "lon": -77.0379995, "bike_id": "cc9de51fd2cf62c5b6a3a11e9775c1d2", "rental_uris": {"android": "https://dc.lft.to/lastmile_qr_scan", "ios": "https://dc.lft.to/lastmile_qr_scan"}, "name": "cc9de51fd2cf62c5b6a3a11e9775c1d2", "is_reserved": 0}, {"is_disabled": 0, "fusion_lon": 0.0, "fusion_lat": 0.0, "lat": 38.928469, "type": "electric_scooter", "lon": -77.0554135, "bike_id": "4cd17af4459a9a4f6e9348f0868cbfe3", "rental_uris": {"android": "https://dc.lft.to/lastmile_qr_scan", "ios": "https://dc.lft.to/lastmile_qr_scan"}, "name": "4cd17af4459a9a4f6e9348f0868cbfe3", "is_reserved": 0}, {"is_disabled": 0, "fusion_lon": 0.0, "fusion_lat": 0.0, "lat": 38.946014166666664, "type": "electric_bike", "lon": -77.34411083333333, "bike_id": "532643384af10f1c5f4b692d8d23e047", "rental_uris": {"android": "https://dc.lft.to/lastmile_qr_scan", "ios": "https://dc.lft.to/lastmile_qr_scan"}, "name": "532643384af10f1c5f4b692d8d23e047", "is_reserved": 0}, {"is_disabled": 0, "fusion_lon": 0.0, "fusion_lat": 0.0, "lat": 38.8885285, "type": "electric_bike", "lon": -76.97702866666667, "bike_id": "125cc327521128ea8f769edae41e23ad", "rental_uris": {"android": "https://dc.lft.to/lastmile_qr_scan", "ios": "https://dc.lft.to/lastmile_qr_scan"}, "name": "125cc327521128ea8f769edae41e23ad", "is_reserved": 0}, {"is_disabled": 0, "fusion_lon": 0.0, "fusion_lat": 0.0, "lat": 38.89723333333333, "type": "electric_scooter", "lon": -77.04718266666667, "bike_id": "a44a7ad29ee0445439f8385dcbce4eaf", "rental_uris": {"android": "https://dc.lft.to/lastmile_qr_scan", "ios": "https://dc.lft.to/lastmile_qr_scan"}, "name": "a44a7ad29ee0445439f8385dcbce4eaf", "is_reserved": 0}, {"is_disabled": 0, "fusion_lon": 0.0, "fusion_lat": 0.0, "lat": 39.05452016666667, "type": "electric_bike", "lon": -77.14325916666667, "bike_id": "285122c0f835c229c0be1482a021a120", "rental_uris": {"android": "https://dc.lft.to/lastmile_qr_scan", "ios": "https://dc.lft.to/lastmile_qr_scan"}, "name": "285122c0f835c229c0be1482a021a120", "is_reserved": 0}, {"is_disabled": 0, "fusion_lon": 0.0, "fusion_lat": 0.0, "lat": 38.90849133333333, "type": "electric_scooter", "lon": -77.05509016666667, "bike_id": "d42c6e839efc8ea593200b9fd7611259", "rental_uris": {"android": "https://dc.lft.to/lastmile_qr_scan", "ios": "https://dc.lft.to/lastmile_qr_scan"}, "name": "d42c6e839efc8ea593200b9fd7611259", "is_reserved": 0}, {"is_disabled": 0, "fusion_lon": 0.0, "fusion_lat": 0.0, "lat": 38.924171666666666, "type": "electric_scooter", "lon": -77.02009416666667, "bike_id": "34b4cd5d8d77c9b58199c00d8ef69e1d", "rental_uris": {"android": "https://dc.lft.to/lastmile_qr_scan", "ios": "https://dc.lft.to/lastmile_qr_scan"}, "name": "34b4cd5d8d77c9b58199c00d8ef69e1d", "is_reserved": 0}, {"is_disabled": 0, "fusion_lon": 0.0, "fusion_lat": 0.0, "lat": 38.917319166666665, "type": "electric_scooter", "lon": -77.0344965, "bike_id": "3e91978bbc6bdf6f0a1c9926502999e8", "rental_uris": {"android": "https://dc.lft.to/lastmile_qr_scan", "ios": "https://dc.lft.to/lastmile_qr_scan"}, "name": "3e91978bbc6bdf6f0a1c9926502999e8", "is_reserved": 0}, {"is_disabled": 0, "fusion_lon": 0.0, "fusion_lat": 0.0, "lat": 38.9212645, "type": "electric_scooter", "lon": -77.03663416666667, "bike_id": "67d9e9247831b31064807266dba01090", "rental_uris": {"android": "https://dc.lft.to/lastmile_qr_scan", "ios": "https://dc.lft.to/lastmile_qr_scan"}, "name": "67d9e9247831b31064807266dba01090", "is_reserved": 0}, {"is_disabled": 0, "fusion_lon": 0.0, "fusion_lat": 0.0, "lat": 38.9094335, "type": "electric_scooter", "lon": -77.03188283333333, "bike_id": "39028d4a70b5c9b0a15087e67cfe1aad", "rental_uris": {"android": "https://dc.lft.to/lastmile_qr_scan", "ios": "https://dc.lft.to/lastmile_qr_scan"}, "name": "39028d4a70b5c9b0a15087e67cfe1aad", "is_reserved": 0}, {"is_disabled": 0, "fusion_lon": 0.0, "fusion_lat": 0.0, "lat": 38.90038116666667, "type": "electric_scooter", "lon": -77.03351083333334, "bike_id": "b99339c27787eeb06a802817ef072fbe", "rental_uris": {"android": "https://dc.lft.to/lastmile_qr_scan", "ios": "https://dc.lft.to/lastmile_qr_scan"}, "name": "b99339c27787eeb06a802817ef072fbe", "is_reserved": 0}, {"is_disabled": 0, "fusion_lon": 0.0, "fusion_lat": 0.0, "lat": 38.881465, "type": "electric_scooter", "lon": -76.99164866666666, "bike_id": "593a2c9c33962df8a92157d3acf6b961", "rental_uris": {"android": "https://dc.lft.to/lastmile_qr_scan", "ios": "https://dc.lft.to/lastmile_qr_scan"}, "name": "593a2c9c33962df8a92157d3acf6b961", "is_reserved": 0}, {"is_disabled": 0, "fusion_lon": 0.0, "fusion_lat": 0.0, "lat": 38.92481383333333, "type": "electric_scooter", "lon": -77.02725933333333, "bike_id": "d43ccce6c53ac7caa0b34f92a524e0b9", "rental_uris": {"android": "https://dc.lft.to/lastmile_qr_scan", "ios": "https://dc.lft.to/lastmile_qr_scan"}, "name": "d43ccce6c53ac7caa0b34f92a524e0b9", "is_reserved": 0}, {"is_disabled": 0, "fusion_lon": 0.0, "fusion_lat": 0.0, "lat": 38.88770816666667, "type": "electric_scooter", "lon": -77.01544283333334, "bike_id": "5f1c1c4c8513d4b50c0185ea616fc799", "rental_uris": {"android": "https://dc.lft.to/lastmile_qr_scan", "ios": "https://dc.lft.to/lastmile_qr_scan"}, "name": "5f1c1c4c8513d4b50c0185ea616fc799", "is_reserved": 0}, {"is_disabled": 0, "fusion_lon": 0.0, "fusion_lat": 0.0, "lat": 38.93279916666667, "type": "electric_scooter", "lon": -76.97421566666667, "bike_id": "56c922ccb328f8156304d6e4fe952a97", "rental_uris": {"android": "https://dc.lft.to/lastmile_qr_scan", "ios": "https://dc.lft.to/lastmile_qr_scan"}, "name": "56c922ccb328f8156304d6e4fe952a97", "is_reserved": 0}, {"is_disabled": 0, "fusion_lon": 0.0, "fusion_lat": 0.0, "lat": 38.90547983333333, "type": "electric_scooter", "lon": -77.0497995, "bike_id": "eab28b910dd31ef27211da59936944e1", "rental_uris": {"android": "https://dc.lft.to/lastmile_qr_scan", "ios": "https://dc.lft.to/lastmile_qr_scan"}, "name": "eab28b910dd31ef27211da59936944e1", "is_reserved": 0}, {"is_disabled": 0, "fusion_lon": 0.0, "fusion_lat": 0.0, "lat": 38.93202516666667, "type": "electric_scooter", "lon": -77.02350666666666, "bike_id": "89870cf78aa74e3d086d7571b37f60f6", "rental_uris": {"android": "https://dc.lft.to/lastmile_qr_scan", "ios": "https://dc.lft.to/lastmile_qr_scan"}, "name": "89870cf78aa74e3d086d7571b37f60f6", "is_reserved": 0}, {"is_disabled": 0, "fusion_lon": 0.0, "fusion_lat": 0.0, "lat": 38.910402, "type": "electric_scooter", "lon": -77.04052866666666, "bike_id": "440cf61cf27e23428047b858f8710f3e", "rental_uris": {"android": "https://dc.lft.to/lastmile_qr_scan", "ios": "https://dc.lft.to/lastmile_qr_scan"}, "name": "440cf61cf27e23428047b858f8710f3e", "is_reserved": 0}, {"is_disabled": 0, "fusion_lon": 0.0, "fusion_lat": 0.0, "lat": 38.89877366666666, "type": "electric_scooter", "lon": -76.93184516666666, "bike_id": "39bd8c2d1c9f87d9361a13b9db10a8da", "rental_uris": {"android": "https://dc.lft.to/lastmile_qr_scan", "ios": "https://dc.lft.to/lastmile_qr_scan"}, "name": "39bd8c2d1c9f87d9361a13b9db10a8da", "is_reserved": 0}, {"is_disabled": 0, "fusion_lon": 0.0, "fusion_lat": 0.0, "lat": 38.95956433333333, "type": "electric_bike", "lon": -76.98170333333333, "bike_id": "22eb62c593187e87d622d878120b3580", "rental_uris": {"android": "https://dc.lft.to/lastmile_qr_scan", "ios": "https://dc.lft.to/lastmile_qr_scan"}, "name": "22eb62c593187e87d622d878120b3580", "is_reserved": 0}, {"is_disabled": 0, "fusion_lon": 0.0, "fusion_lat": 0.0, "lat": 38.8876245, "type": "electric_scooter", "lon": -76.9567685, "bike_id": "c9c735fd519634e7bb2f15e4b8d81159", "rental_uris": {"android": "https://dc.lft.to/lastmile_qr_scan", "ios": "https://dc.lft.to/lastmile_qr_scan"}, "name": "c9c735fd519634e7bb2f15e4b8d81159", "is_reserved": 0}, {"is_disabled": 0, "fusion_lon": 0.0, "fusion_lat": 0.0, "lat": 38.905042333333334, "type": "electric_scooter", "lon": -76.98848783333334, "bike_id": "6ec41f011ac001a27d75f3238e7d7afe", "rental_uris": {"android": "https://dc.lft.to/lastmile_qr_scan", "ios": "https://dc.lft.to/lastmile_qr_scan"}, "name": "6ec41f011ac001a27d75f3238e7d7afe", "is_reserved": 0}, {"is_disabled": 0, "fusion_lon": 0.0, "fusion_lat": 0.0, "lat": 38.887335, "type": "electric_scooter", "lon": -77.02830966666667, "bike_id": "02a84b6eae18b14918203ad102d86a89", "rental_uris": {"android": "https://dc.lft.to/lastmile_qr_scan", "ios": "https://dc.lft.to/lastmile_qr_scan"}, "name": "02a84b6eae18b14918203ad102d86a89", "is_reserved": 0}, {"is_disabled": 0, "fusion_lon": 0.0, "fusion_lat": 0.0, "lat": 38.92619083333334, "type": "electric_scooter", "lon": -77.05708933333334, "bike_id": "c27abac2296b6876e92db0b33d4cd77b", "rental_uris": {"android": "https://dc.lft.to/lastmile_qr_scan", "ios": "https://dc.lft.to/lastmile_qr_scan"}, "name": "c27abac2296b6876e92db0b33d4cd77b", "is_reserved": 0}, {"is_disabled": 0, "fusion_lon": 0.0, "fusion_lat": 0.0, "lat": 38.936034666666664, "type": "electric_scooter", "lon": -77.05860633333333, "bike_id": "3cdd3c6d72e3a20fb1baf27f27258472", "rental_uris": {"android": "https://dc.lft.to/lastmile_qr_scan", "ios": "https://dc.lft.to/lastmile_qr_scan"}, "name": "3cdd3c6d72e3a20fb1baf27f27258472", "is_reserved": 0}, {"is_disabled": 0, "fusion_lon": 0.0, "fusion_lat": 0.0, "lat": 38.9231405, "type": "electric_bike", "lon": -77.038085, "bike_id": "8bd14ed2f77bc62c72332660e9afff12", "rental_uris": {"android": "https://dc.lft.to/lastmile_qr_scan", "ios": "https://dc.lft.to/lastmile_qr_scan"}, "name": "8bd14ed2f77bc62c72332660e9afff12", "is_reserved": 0}, {"is_disabled": 0, "fusion_lon": 0.0, "fusion_lat": 0.0, "lat": 38.90535533333333, "type": "electric_scooter", "lon": -76.98783966666667, "bike_id": "1dfb754fb38fd6fd72e40093457398fa", "rental_uris": {"android": "https://dc.lft.to/lastmile_qr_scan", "ios": "https://dc.lft.to/lastmile_qr_scan"}, "name": "1dfb754fb38fd6fd72e40093457398fa", "is_reserved": 0}, {"is_disabled": 0, "fusion_lon": 0.0, "fusion_lat": 0.0, "lat": 38.876779, "type": "electric_scooter", "lon": -76.93194066666666, "bike_id": "fa3c5745ec1f7ec1b10e675f10921e96", "rental_uris": {"android": "https://dc.lft.to/lastmile_qr_scan", "ios": "https://dc.lft.to/lastmile_qr_scan"}, "name": "fa3c5745ec1f7ec1b10e675f10921e96", "is_reserved": 0}, {"is_disabled": 0, "fusion_lon": 0.0, "fusion_lat": 0.0, "lat": 38.897297, "type": "electric_scooter", "lon": -77.04808416666667, "bike_id": "039face4ae6fc6ee02db77c261314048", "rental_uris": {"android": "https://dc.lft.to/lastmile_qr_scan", "ios": "https://dc.lft.to/lastmile_qr_scan"}, "name": "039face4ae6fc6ee02db77c261314048", "is_reserved": 0}, {"is_disabled": 0, "fusion_lon": 0.0, "fusion_lat": 0.0, "lat": 38.91116933333333, "type": "electric_scooter", "lon": -77.037323, "bike_id": "6e518b8c20792c004b83a04e5dbd2401", "rental_uris": {"android": "https://dc.lft.to/lastmile_qr_scan", "ios": "https://dc.lft.to/lastmile_qr_scan"}, "name": "6e518b8c20792c004b83a04e5dbd2401", "is_reserved": 0}, {"is_disabled": 0, "fusion_lon": 0.0, "fusion_lat": 0.0, "lat": 38.9500315, "type": "electric_bike", "lon": -77.35306783333333, "bike_id": "cc86eb910c8080849174478c87b4871e", "rental_uris": {"android": "https://dc.lft.to/lastmile_qr_scan", "ios": "https://dc.lft.to/lastmile_qr_scan"}, "name": "cc86eb910c8080849174478c87b4871e", "is_reserved": 0}, {"is_disabled": 0, "fusion_lon": 0.0, "fusion_lat": 0.0, "lat": 38.92286033333333, "type": "electric_scooter", "lon": -77.0297095, "bike_id": "aeb2f7c7cb19c6888a080c3055057910", "rental_uris": {"android": "https://dc.lft.to/lastmile_qr_scan", "ios": "https://dc.lft.to/lastmile_qr_scan"}, "name": "aeb2f7c7cb19c6888a080c3055057910", "is_reserved": 0}, {"is_disabled": 0, "fusion_lon": 0.0, "fusion_lat": 0.0, "lat": 38.992560166666664, "type": "electric_bike", "lon": -77.04994583333334, "bike_id": "d23a5529346a358f9097d19575b731d7", "rental_uris": {"android": "https://dc.lft.to/lastmile_qr_scan", "ios": "https://dc.lft.to/lastmile_qr_scan"}, "name": "d23a5529346a358f9097d19575b731d7", "is_reserved": 0}, {"is_disabled": 0, "fusion_lon": 0.0, "fusion_lat": 0.0, "lat": 38.86862, "type": "electric_bike", "lon": -76.91656833333333, "bike_id": "6a87a29823efedf9139bc09bfe7b5687", "rental_uris": {"android": "https://dc.lft.to/lastmile_qr_scan", "ios": "https://dc.lft.to/lastmile_qr_scan"}, "name": "6a87a29823efedf9139bc09bfe7b5687", "is_reserved": 0}, {"is_disabled": 0, "fusion_lon": 0.0, "fusion_lat": 0.0, "lat": 38.92053216666667, "type": "electric_scooter", "lon": -76.99876216666667, "bike_id": "cdc466423143a00d5b303babc6b61a8a", "rental_uris": {"android": "https://dc.lft.to/lastmile_qr_scan", "ios": "https://dc.lft.to/lastmile_qr_scan"}, "name": "cdc466423143a00d5b303babc6b61a8a", "is_reserved": 0}, {"is_disabled": 0, "fusion_lon": 0.0, "fusion_lat": 0.0, "lat": 38.93187916666667, "type": "electric_bike", "lon": -77.229392, "bike_id": "b527e70222caacb72ef4b6dc41eeb2e7", "rental_uris": {"android": "https://dc.lft.to/lastmile_qr_scan", "ios": "https://dc.lft.to/lastmile_qr_scan"}, "name": "b527e70222caacb72ef4b6dc41eeb2e7", "is_reserved": 0}, {"is_disabled": 0, "fusion_lon": 0.0, "fusion_lat": 0.0, "lat": 38.950787166666665, "type": "electric_scooter", "lon": -77.02876616666667, "bike_id": "8f467a01865b6477776854ef5b94b864", "rental_uris": {"android": "https://dc.lft.to/lastmile_qr_scan", "ios": "https://dc.lft.to/lastmile_qr_scan"}, "name": "8f467a01865b6477776854ef5b94b864", "is_reserved": 0}, {"is_disabled": 0, "fusion_lon": 0.0, "fusion_lat": 0.0, "lat": 38.92847166666667, "type": "electric_scooter", "lon": -77.03429683333333, "bike_id": "bc0fc1926362e1b0d363a181594876e6", "rental_uris": {"android": "https://dc.lft.to/lastmile_qr_scan", "ios": "https://dc.lft.to/lastmile_qr_scan"}, "name": "bc0fc1926362e1b0d363a181594876e6", "is_reserved": 0}, {"is_disabled": 0, "fusion_lon": 0.0, "fusion_lat": 0.0, "lat": 39.11517, "type": "electric_bike", "lon": -77.1954505, "bike_id": "3161ba85e772dfdde42fd9e30d50439e", "rental_uris": {"android": "https://dc.lft.to/lastmile_qr_scan", "ios": "https://dc.lft.to/lastmile_qr_scan"}, "name": "3161ba85e772dfdde42fd9e30d50439e", "is_reserved": 0}, {"is_disabled": 0, "fusion_lon": 0.0, "fusion_lat": 0.0, "lat": 38.93047133333334, "type": "electric_scooter", "lon": -77.00416683333333, "bike_id": "93615131fad19ca9baaf51b65db0fdd8", "rental_uris": {"android": "https://dc.lft.to/lastmile_qr_scan", "ios": "https://dc.lft.to/lastmile_qr_scan"}, "name": "93615131fad19ca9baaf51b65db0fdd8", "is_reserved": 0}, {"is_disabled": 0, "fusion_lon": 0.0, "fusion_lat": 0.0, "lat": 38.8571675, "type": "electric_bike", "lon": -76.9811425, "bike_id": "1ff1d08462198c2c7a6862a8bb2a274d", "rental_uris": {"android": "https://dc.lft.to/lastmile_qr_scan", "ios": "https://dc.lft.to/lastmile_qr_scan"}, "name": "1ff1d08462198c2c7a6862a8bb2a274d", "is_reserved": 0}, {"is_disabled": 0, "fusion_lon": 0.0, "fusion_lat": 0.0, "lat": 38.91554716666667, "type": "electric_scooter", "lon": -77.0387675, "bike_id": "3b312ad68e909f11bd7060817b2bea60", "rental_uris": {"android": "https://dc.lft.to/lastmile_qr_scan", "ios": "https://dc.lft.to/lastmile_qr_scan"}, "name": "3b312ad68e909f11bd7060817b2bea60", "is_reserved": 0}, {"is_disabled": 0, "fusion_lon": 0.0, "fusion_lat": 0.0, "lat": 38.94457333333333, "type": "electric_scooter", "lon": -77.06056833333334, "bike_id": "e700e7ff7f640f7f8dcfa76493a24806", "rental_uris": {"android": "https://dc.lft.to/lastmile_qr_scan", "ios": "https://dc.lft.to/lastmile_qr_scan"}, "name": "e700e7ff7f640f7f8dcfa76493a24806", "is_reserved": 0}, {"is_disabled": 0, "fusion_lon": 0.0, "fusion_lat": 0.0, "lat": 38.916403333333335, "type": "electric_scooter", "lon": -77.05061983333333, "bike_id": "2141c66e601577ee5ca5019dd836d54e", "rental_uris": {"android": "https://dc.lft.to/lastmile_qr_scan", "ios": "https://dc.lft.to/lastmile_qr_scan"}, "name": "2141c66e601577ee5ca5019dd836d54e", "is_reserved": 0}, {"is_disabled": 0, "fusion_lon": 0.0, "fusion_lat": 0.0, "lat": 38.9135645, "type": "electric_scooter", "lon": -77.03172266666667, "bike_id": "9d90f81bf5a3e8a668e3968460512eb9", "rental_uris": {"android": "https://dc.lft.to/lastmile_qr_scan", "ios": "https://dc.lft.to/lastmile_qr_scan"}, "name": "9d90f81bf5a3e8a668e3968460512eb9", "is_reserved": 0}, {"is_disabled": 0, "fusion_lon": 0.0, "fusion_lat": 0.0, "lat": 38.90932316666667, "type": "electric_scooter", "lon": -76.99226366666667, "bike_id": "46cd4c89b7d4b6479d9fac34be4406f4", "rental_uris": {"android": "https://dc.lft.to/lastmile_qr_scan", "ios": "https://dc.lft.to/lastmile_qr_scan"}, "name": "46cd4c89b7d4b6479d9fac34be4406f4", "is_reserved": 0}, {"is_disabled": 0, "fusion_lon": 0.0, "fusion_lat": 0.0, "lat": 38.9054075, "type": "electric_scooter", "lon": -77.0297495, "bike_id": "0e2e6542d1a69e747399e0d550034e95", "rental_uris": {"android": "https://dc.lft.to/lastmile_qr_scan", "ios": "https://dc.lft.to/lastmile_qr_scan"}, "name": "0e2e6542d1a69e747399e0d550034e95", "is_reserved": 0}, {"is_disabled": 0, "fusion_lon": 0.0, "fusion_lat": 0.0, "lat": 38.8949095, "type": "electric_scooter", "lon": -77.02290166666667, "bike_id": "c2a008981c1aa8baf73060b958b5efd7", "rental_uris": {"android": "https://dc.lft.to/lastmile_qr_scan", "ios": "https://dc.lft.to/lastmile_qr_scan"}, "name": "c2a008981c1aa8baf73060b958b5efd7", "is_reserved": 0}, {"is_disabled": 0, "fusion_lon": 0.0, "fusion_lat": 0.0, "lat": 38.911450333333335, "type": "electric_scooter", "lon": -76.9849365, "bike_id": "2abbc4899bd71e905a0a0835204bde8c", "rental_uris": {"android": "https://dc.lft.to/lastmile_qr_scan", "ios": "https://dc.lft.to/lastmile_qr_scan"}, "name": "2abbc4899bd71e905a0a0835204bde8c", "is_reserved": 0}, {"is_disabled": 0, "fusion_lon": 0.0, "fusion_lat": 0.0, "lat": 38.9169245, "type": "electric_scooter", "lon": -77.03584166666667, "bike_id": "4079cbd5de27cf39838d4d0422c8fbb2", "rental_uris": {"android": "https://dc.lft.to/lastmile_qr_scan", "ios": "https://dc.lft.to/lastmile_qr_scan"}, "name": "4079cbd5de27cf39838d4d0422c8fbb2", "is_reserved": 0}, {"is_disabled": 0, "fusion_lon": 0.0, "fusion_lat": 0.0, "lat": 38.833805166666664, "type": "electric_scooter", "lon": -76.99305716666667, "bike_id": "3c1bc5ec8897fd5f4193bedcd7670a6f", "rental_uris": {"android": "https://dc.lft.to/lastmile_qr_scan", "ios": "https://dc.lft.to/lastmile_qr_scan"}, "name": "3c1bc5ec8897fd5f4193bedcd7670a6f", "is_reserved": 0}, {"is_disabled": 0, "fusion_lon": 0.0, "fusion_lat": 0.0, "lat": 38.926076, "type": "electric_scooter", "lon": -77.02420766666667, "bike_id": "c3b60bb6762a3f5d6c7a075c9b679c3f", "rental_uris": {"android": "https://dc.lft.to/lastmile_qr_scan", "ios": "https://dc.lft.to/lastmile_qr_scan"}, "name": "c3b60bb6762a3f5d6c7a075c9b679c3f", "is_reserved": 0}, {"is_disabled": 0, "fusion_lon": 0.0, "fusion_lat": 0.0, "lat": 38.90854933333333, "type": "electric_scooter", "lon": -77.02596716666666, "bike_id": "63327e717e3b3a4804e913413c7eb027", "rental_uris": {"android": "https://dc.lft.to/lastmile_qr_scan", "ios": "https://dc.lft.to/lastmile_qr_scan"}, "name": "63327e717e3b3a4804e913413c7eb027", "is_reserved": 0}, {"is_disabled": 0, "fusion_lon": 0.0, "fusion_lat": 0.0, "lat": 38.9057075, "type": "electric_scooter", "lon": -77.00578116666667, "bike_id": "2403300b67eba4a54864d1a34ddceee8", "rental_uris": {"android": "https://dc.lft.to/lastmile_qr_scan", "ios": "https://dc.lft.to/lastmile_qr_scan"}, "name": "2403300b67eba4a54864d1a34ddceee8", "is_reserved": 0}, {"is_disabled": 0, "fusion_lon": 0.0, "fusion_lat": 0.0, "lat": 38.91888483333334, "type": "electric_scooter", "lon": -77.0178565, "bike_id": "5af734e800fddeb72313cd29bd68203c", "rental_uris": {"android": "https://dc.lft.to/lastmile_qr_scan", "ios": "https://dc.lft.to/lastmile_qr_scan"}, "name": "5af734e800fddeb72313cd29bd68203c", "is_reserved": 0}, {"is_disabled": 0, "fusion_lon": 0.0, "fusion_lat": 0.0, "lat": 38.9095755, "type": "electric_scooter", "lon": -77.03424633333333, "bike_id": "b57093607617f450433885e8b819acca", "rental_uris": {"android": "https://dc.lft.to/lastmile_qr_scan", "ios": "https://dc.lft.to/lastmile_qr_scan"}, "name": "b57093607617f450433885e8b819acca", "is_reserved": 0}, {"is_disabled": 0, "fusion_lon": 0.0, "fusion_lat": 0.0, "lat": 38.9165495, "type": "electric_scooter", "lon": -77.03854933333334, "bike_id": "be75094d47c3940a036a57dbf11f267d", "rental_uris": {"android": "https://dc.lft.to/lastmile_qr_scan", "ios": "https://dc.lft.to/lastmile_qr_scan"}, "name": "be75094d47c3940a036a57dbf11f267d", "is_reserved": 0}, {"is_disabled": 0, "fusion_lon": 0.0, "fusion_lat": 0.0, "lat": 38.921560666666664, "type": "electric_scooter", "lon": -77.03440433333333, "bike_id": "0e8e64ae69ebe27a8f8a78e99b72de70", "rental_uris": {"android": "https://dc.lft.to/lastmile_qr_scan", "ios": "https://dc.lft.to/lastmile_qr_scan"}, "name": "0e8e64ae69ebe27a8f8a78e99b72de70", "is_reserved": 0}, {"is_disabled": 0, "fusion_lon": 0.0, "fusion_lat": 0.0, "lat": 38.9132395, "type": "electric_scooter", "lon": -77.03857566666667, "bike_id": "e71b1a44e9eead7e5e85ee3156b30078", "rental_uris": {"android": "https://dc.lft.to/lastmile_qr_scan", "ios": "https://dc.lft.to/lastmile_qr_scan"}, "name": "e71b1a44e9eead7e5e85ee3156b30078", "is_reserved": 0}, {"is_disabled": 0, "fusion_lon": 0.0, "fusion_lat": 0.0, "lat": 38.93093016666667, "type": "electric_scooter", "lon": -77.031337, "bike_id": "e1274d24c49817a47e1133173851ce88", "rental_uris": {"android": "https://dc.lft.to/lastmile_qr_scan", "ios": "https://dc.lft.to/lastmile_qr_scan"}, "name": "e1274d24c49817a47e1133173851ce88", "is_reserved": 0}, {"is_disabled": 0, "fusion_lon": 0.0, "fusion_lat": 0.0, "lat": 38.897313, "type": "electric_scooter", "lon": -77.007544, "bike_id": "6db8e957e8f5f1b94406a629e8f16bb9", "rental_uris": {"android": "https://dc.lft.to/lastmile_qr_scan", "ios": "https://dc.lft.to/lastmile_qr_scan"}, "name": "6db8e957e8f5f1b94406a629e8f16bb9", "is_reserved": 0}, {"is_disabled": 0, "fusion_lon": 0.0, "fusion_lat": 0.0, "lat": 38.89877633333333, "type": "electric_scooter", "lon": -76.9318335, "bike_id": "c4948b976d689639e144d865ba3af01d", "rental_uris": {"android": "https://dc.lft.to/lastmile_qr_scan", "ios": "https://dc.lft.to/lastmile_qr_scan"}, "name": "c4948b976d689639e144d865ba3af01d", "is_reserved": 0}, {"is_disabled": 0, "fusion_lon": 0.0, "fusion_lat": 0.0, "lat": 38.9070015, "type": "electric_scooter", "lon": -77.0632125, "bike_id": "9c64ab81385d485375152126c206c7a0", "rental_uris": {"android": "https://dc.lft.to/lastmile_qr_scan", "ios": "https://dc.lft.to/lastmile_qr_scan"}, "name": "9c64ab81385d485375152126c206c7a0", "is_reserved": 0}, {"is_disabled": 0, "fusion_lon": 0.0, "fusion_lat": 0.0, "lat": 38.980288, "type": "electric_bike", "lon": -76.92917783333333, "bike_id": "d04ec0ff3c2378e561be7f5b5c355f07", "rental_uris": {"android": "https://dc.lft.to/lastmile_qr_scan", "ios": "https://dc.lft.to/lastmile_qr_scan"}, "name": "d04ec0ff3c2378e561be7f5b5c355f07", "is_reserved": 0}, {"is_disabled": 0, "fusion_lon": 0.0, "fusion_lat": 0.0, "lat": 38.895778, "type": "electric_scooter", "lon": -77.0045455, "bike_id": "f18a471cbfd137702db10764f66d7250", "rental_uris": {"android": "https://dc.lft.to/lastmile_qr_scan", "ios": "https://dc.lft.to/lastmile_qr_scan"}, "name": "f18a471cbfd137702db10764f66d7250", "is_reserved": 0}, {"is_disabled": 0, "fusion_lon": 0.0, "fusion_lat": 0.0, "lat": 38.893131333333336, "type": "electric_scooter", "lon": -77.02204533333334, "bike_id": "23e4f4ff2becf4844fa44c04ce511e60", "rental_uris": {"android": "https://dc.lft.to/lastmile_qr_scan", "ios": "https://dc.lft.to/lastmile_qr_scan"}, "name": "23e4f4ff2becf4844fa44c04ce511e60", "is_reserved": 0}, {"is_disabled": 0, "fusion_lon": 0.0, "fusion_lat": 0.0, "lat": 38.91567583333333, "type": "electric_scooter", "lon": -77.01205783333333, "bike_id": "d3bb1b255696bad5890b93b3eac4af43", "rental_uris": {"android": "https://dc.lft.to/lastmile_qr_scan", "ios": "https://dc.lft.to/lastmile_qr_scan"}, "name": "d3bb1b255696bad5890b93b3eac4af43", "is_reserved": 0}, {"is_disabled": 0, "fusion_lon": 0.0, "fusion_lat": 0.0, "lat": 38.8587715, "type": "electric_scooter", "lon": -76.99035083333334, "bike_id": "40b91df6bda7f96684df1f402239b040", "rental_uris": {"android": "https://dc.lft.to/lastmile_qr_scan", "ios": "https://dc.lft.to/lastmile_qr_scan"}, "name": "40b91df6bda7f96684df1f402239b040", "is_reserved": 0}, {"is_disabled": 0, "fusion_lon": 0.0, "fusion_lat": 0.0, "lat": 38.9052545, "type": "electric_scooter", "lon": -77.05085383333333, "bike_id": "6fac66047862511f547473f6b54dfbc0", "rental_uris": {"android": "https://dc.lft.to/lastmile_qr_scan", "ios": "https://dc.lft.to/lastmile_qr_scan"}, "name": "6fac66047862511f547473f6b54dfbc0", "is_reserved": 0}, {"is_disabled": 0, "fusion_lon": 0.0, "fusion_lat": 0.0, "lat": 38.9096595, "type": "electric_scooter", "lon": -77.045408, "bike_id": "e7abce49099d116c236a075815d3ea3e", "rental_uris": {"android": "https://dc.lft.to/lastmile_qr_scan", "ios": "https://dc.lft.to/lastmile_qr_scan"}, "name": "e7abce49099d116c236a075815d3ea3e", "is_reserved": 0}, {"is_disabled": 0, "fusion_lon": 0.0, "fusion_lat": 0.0, "lat": 38.92012583333333, "type": "electric_scooter", "lon": -77.032011, "bike_id": "b031dce223b842429d082be65e24dc38", "rental_uris": {"android": "https://dc.lft.to/lastmile_qr_scan", "ios": "https://dc.lft.to/lastmile_qr_scan"}, "name": "b031dce223b842429d082be65e24dc38", "is_reserved": 0}, {"is_disabled": 0, "fusion_lon": 0.0, "fusion_lat": 0.0, "lat": 38.87733216666667, "type": "electric_scooter", "lon": -77.00065633333334, "bike_id": "829279234827c83491014203090c4214", "rental_uris": {"android": "https://dc.lft.to/lastmile_qr_scan", "ios": "https://dc.lft.to/lastmile_qr_scan"}, "name": "829279234827c83491014203090c4214", "is_reserved": 0}, {"is_disabled": 0, "fusion_lon": 0.0, "fusion_lat": 0.0, "lat": 38.94453583333333, "type": "electric_scooter", "lon": -77.0065455, "bike_id": "81c714fdcaf1e67dd4fe1c694ec807f8", "rental_uris": {"android": "https://dc.lft.to/lastmile_qr_scan", "ios": "https://dc.lft.to/lastmile_qr_scan"}, "name": "81c714fdcaf1e67dd4fe1c694ec807f8", "is_reserved": 0}, {"is_disabled": 0, "fusion_lon": 0.0, "fusion_lat": 0.0, "lat": 38.8429305, "type": "electric_scooter", "lon": -76.999476, "bike_id": "7dfcd0a84e48f98c67ebd8edefd745e4", "rental_uris": {"android": "https://dc.lft.to/lastmile_qr_scan", "ios": "https://dc.lft.to/lastmile_qr_scan"}, "name": "7dfcd0a84e48f98c67ebd8edefd745e4", "is_reserved": 0}, {"is_disabled": 0, "fusion_lon": 0.0, "fusion_lat": 0.0, "lat": 38.902500833333335, "type": "electric_scooter", "lon": -77.05221216666666, "bike_id": "c1645ed73d2b05339ed556c588384597", "rental_uris": {"android": "https://dc.lft.to/lastmile_qr_scan", "ios": "https://dc.lft.to/lastmile_qr_scan"}, "name": "c1645ed73d2b05339ed556c588384597", "is_reserved": 0}, {"is_disabled": 0, "fusion_lon": 0.0, "fusion_lat": 0.0, "lat": 38.887039, "type": "electric_scooter", "lon": -76.953608, "bike_id": "54e3fad2ccf5361c598c76f647f9b6b8", "rental_uris": {"android": "https://dc.lft.to/lastmile_qr_scan", "ios": "https://dc.lft.to/lastmile_qr_scan"}, "name": "54e3fad2ccf5361c598c76f647f9b6b8", "is_reserved": 0}, {"is_disabled": 0, "fusion_lon": 0.0, "fusion_lat": 0.0, "lat": 38.915115166666666, "type": "electric_scooter", "lon": -77.01977833333333, "bike_id": "a2728b6c4952f8e6a29cc70a5c554790", "rental_uris": {"android": "https://dc.lft.to/lastmile_qr_scan", "ios": "https://dc.lft.to/lastmile_qr_scan"}, "name": "a2728b6c4952f8e6a29cc70a5c554790", "is_reserved": 0}, {"is_disabled": 0, "fusion_lon": 0.0, "fusion_lat": 0.0, "lat": 38.910388833333336, "type": "electric_scooter", "lon": -77.04364083333333, "bike_id": "1eeeb5b9d4bd9585965636ed78e506f2", "rental_uris": {"android": "https://dc.lft.to/lastmile_qr_scan", "ios": "https://dc.lft.to/lastmile_qr_scan"}, "name": "1eeeb5b9d4bd9585965636ed78e506f2", "is_reserved": 0}, {"is_disabled": 0, "fusion_lon": 0.0, "fusion_lat": 0.0, "lat": 38.900884833333336, "type": "electric_scooter", "lon": -77.01972383333333, "bike_id": "9e83461e47231da9ad8424ae40485984", "rental_uris": {"android": "https://dc.lft.to/lastmile_qr_scan", "ios": "https://dc.lft.to/lastmile_qr_scan"}, "name": "9e83461e47231da9ad8424ae40485984", "is_reserved": 0}, {"is_disabled": 0, "fusion_lon": 0.0, "fusion_lat": 0.0, "lat": 38.9198745, "type": "electric_scooter", "lon": -77.032737, "bike_id": "6ffe271d528d33935a15c4f9ea7c91fe", "rental_uris": {"android": "https://dc.lft.to/lastmile_qr_scan", "ios": "https://dc.lft.to/lastmile_qr_scan"}, "name": "6ffe271d528d33935a15c4f9ea7c91fe", "is_reserved": 0}, {"is_disabled": 0, "fusion_lon": 0.0, "fusion_lat": 0.0, "lat": 38.94197616666666, "type": "electric_scooter", "lon": -77.02418483333334, "bike_id": "71e0c32b4580276c8eaee9d9c059d070", "rental_uris": {"android": "https://dc.lft.to/lastmile_qr_scan", "ios": "https://dc.lft.to/lastmile_qr_scan"}, "name": "71e0c32b4580276c8eaee9d9c059d070", "is_reserved": 0}, {"is_disabled": 0, "fusion_lon": 0.0, "fusion_lat": 0.0, "lat": 38.928811333333336, "type": "electric_scooter", "lon": -77.0327915, "bike_id": "9ecb5dcde645a5ba6fc5bde3196c6cef", "rental_uris": {"android": "https://dc.lft.to/lastmile_qr_scan", "ios": "https://dc.lft.to/lastmile_qr_scan"}, "name": "9ecb5dcde645a5ba6fc5bde3196c6cef", "is_reserved": 0}, {"is_disabled": 0, "fusion_lon": 0.0, "fusion_lat": 0.0, "lat": 38.883087833333335, "type": "electric_bike", "lon": -76.99620666666667, "bike_id": "b1063afd2ecba2db177e9db55e536ccd", "rental_uris": {"android": "https://dc.lft.to/lastmile_qr_scan", "ios": "https://dc.lft.to/lastmile_qr_scan"}, "name": "b1063afd2ecba2db177e9db55e536ccd", "is_reserved": 0}, {"is_disabled": 0, "fusion_lon": 0.0, "fusion_lat": 0.0, "lat": 38.905607833333335, "type": "electric_scooter", "lon": -77.00703783333333, "bike_id": "3777112624e4e4a1203d93fdb104c96e", "rental_uris": {"android": "https://dc.lft.to/lastmile_qr_scan", "ios": "https://dc.lft.to/lastmile_qr_scan"}, "name": "3777112624e4e4a1203d93fdb104c96e", "is_reserved": 0}, {"is_disabled": 0, "fusion_lon": 0.0, "fusion_lat": 0.0, "lat": 38.9118995, "type": "electric_scooter", "lon": -77.03835833333333, "bike_id": "0c36969311d010448683ca13142548e9", "rental_uris": {"android": "https://dc.lft.to/lastmile_qr_scan", "ios": "https://dc.lft.to/lastmile_qr_scan"}, "name": "0c36969311d010448683ca13142548e9", "is_reserved": 0}, {"is_disabled": 0, "fusion_lon": 0.0, "fusion_lat": 0.0, "lat": 38.92740716666667, "type": "electric_scooter", "lon": -77.02251616666666, "bike_id": "d075e97c8be7a0b32908285c7c79ac43", "rental_uris": {"android": "https://dc.lft.to/lastmile_qr_scan", "ios": "https://dc.lft.to/lastmile_qr_scan"}, "name": "d075e97c8be7a0b32908285c7c79ac43", "is_reserved": 0}, {"is_disabled": 0, "fusion_lon": 0.0, "fusion_lat": 0.0, "lat": 38.92821766666667, "type": "electric_scooter", "lon": -77.01404983333333, "bike_id": "ea4ad8b15118a15dd6298aaa24f081f3", "rental_uris": {"android": "https://dc.lft.to/lastmile_qr_scan", "ios": "https://dc.lft.to/lastmile_qr_scan"}, "name": "ea4ad8b15118a15dd6298aaa24f081f3", "is_reserved": 0}, {"is_disabled": 0, "fusion_lon": 0.0, "fusion_lat": 0.0, "lat": 38.9096255, "type": "electric_scooter", "lon": -77.02303433333333, "bike_id": "876986e1805551062a5646347359c519", "rental_uris": {"android": "https://dc.lft.to/lastmile_qr_scan", "ios": "https://dc.lft.to/lastmile_qr_scan"}, "name": "876986e1805551062a5646347359c519", "is_reserved": 0}, {"is_disabled": 0, "fusion_lon": 0.0, "fusion_lat": 0.0, "lat": 38.90044783333333, "type": "electric_scooter", "lon": -76.92271783333334, "bike_id": "17e734bae2e4496de80874d34f636ee7", "rental_uris": {"android": "https://dc.lft.to/lastmile_qr_scan", "ios": "https://dc.lft.to/lastmile_qr_scan"}, "name": "17e734bae2e4496de80874d34f636ee7", "is_reserved": 0}, {"is_disabled": 0, "fusion_lon": 0.0, "fusion_lat": 0.0, "lat": 38.8937295, "type": "electric_scooter", "lon": -76.94998716666667, "bike_id": "9200e57f8123761a28ee0e97de7004e0", "rental_uris": {"android": "https://dc.lft.to/lastmile_qr_scan", "ios": "https://dc.lft.to/lastmile_qr_scan"}, "name": "9200e57f8123761a28ee0e97de7004e0", "is_reserved": 0}, {"is_disabled": 0, "fusion_lon": 0.0, "fusion_lat": 0.0, "lat": 38.90013716666667, "type": "electric_scooter", "lon": -77.01205616666667, "bike_id": "48e445a0d91daaee746995e200f40ac3", "rental_uris": {"android": "https://dc.lft.to/lastmile_qr_scan", "ios": "https://dc.lft.to/lastmile_qr_scan"}, "name": "48e445a0d91daaee746995e200f40ac3", "is_reserved": 0}, {"is_disabled": 0, "fusion_lon": 0.0, "fusion_lat": 0.0, "lat": 38.861344333333335, "type": "electric_scooter", "lon": -76.98567033333333, "bike_id": "e32f52a4de0f11857d4bf96640718d1e", "rental_uris": {"android": "https://dc.lft.to/lastmile_qr_scan", "ios": "https://dc.lft.to/lastmile_qr_scan"}, "name": "e32f52a4de0f11857d4bf96640718d1e", "is_reserved": 0}, {"is_disabled": 0, "fusion_lon": 0.0, "fusion_lat": 0.0, "lat": 38.927076666666665, "type": "electric_scooter", "lon": -77.02330433333333, "bike_id": "bd7f3209d355c31407aeee615445d0ab", "rental_uris": {"android": "https://dc.lft.to/lastmile_qr_scan", "ios": "https://dc.lft.to/lastmile_qr_scan"}, "name": "bd7f3209d355c31407aeee615445d0ab", "is_reserved": 0}, {"is_disabled": 0, "fusion_lon": 0.0, "fusion_lat": 0.0, "lat": 38.85417866666667, "type": "electric_bike", "lon": -76.90952216666666, "bike_id": "f9d45dc6262948ddca2e000a0ee1e422", "rental_uris": {"android": "https://dc.lft.to/lastmile_qr_scan", "ios": "https://dc.lft.to/lastmile_qr_scan"}, "name": "f9d45dc6262948ddca2e000a0ee1e422", "is_reserved": 0}, {"is_disabled": 0, "fusion_lon": 0.0, "fusion_lat": 0.0, "lat": 38.911849833333335, "type": "electric_scooter", "lon": -77.03501316666667, "bike_id": "a2838bd5830fe1731df8d0cb8e249d8d", "rental_uris": {"android": "https://dc.lft.to/lastmile_qr_scan", "ios": "https://dc.lft.to/lastmile_qr_scan"}, "name": "a2838bd5830fe1731df8d0cb8e249d8d", "is_reserved": 0}, {"is_disabled": 0, "fusion_lon": 0.0, "fusion_lat": 0.0, "lat": 38.885149, "type": "electric_scooter", "lon": -76.998486, "bike_id": "762031d9144287701460d7b95d73022b", "rental_uris": {"android": "https://dc.lft.to/lastmile_qr_scan", "ios": "https://dc.lft.to/lastmile_qr_scan"}, "name": "762031d9144287701460d7b95d73022b", "is_reserved": 0}, {"is_disabled": 0, "fusion_lon": 0.0, "fusion_lat": 0.0, "lat": 38.9882675, "type": "electric_bike", "lon": -76.987516, "bike_id": "59c82def634467c495cee0d27b77bc34", "rental_uris": {"android": "https://dc.lft.to/lastmile_qr_scan", "ios": "https://dc.lft.to/lastmile_qr_scan"}, "name": "59c82def634467c495cee0d27b77bc34", "is_reserved": 0}, {"is_disabled": 0, "fusion_lon": 0.0, "fusion_lat": 0.0, "lat": 38.92037783333333, "type": "electric_scooter", "lon": -77.02585916666666, "bike_id": "a832e4f3013fca5de071f42bcca0d671", "rental_uris": {"android": "https://dc.lft.to/lastmile_qr_scan", "ios": "https://dc.lft.to/lastmile_qr_scan"}, "name": "a832e4f3013fca5de071f42bcca0d671", "is_reserved": 0}, {"is_disabled": 0, "fusion_lon": 0.0, "fusion_lat": 0.0, "lat": 38.909110166666665, "type": "electric_scooter", "lon": -77.04331966666666, "bike_id": "2e05e7e667ebd3ee8be8c308055e415f", "rental_uris": {"android": "https://dc.lft.to/lastmile_qr_scan", "ios": "https://dc.lft.to/lastmile_qr_scan"}, "name": "2e05e7e667ebd3ee8be8c308055e415f", "is_reserved": 0}, {"is_disabled": 0, "fusion_lon": 0.0, "fusion_lat": 0.0, "lat": 38.89510816666667, "type": "electric_scooter", "lon": -77.0282465, "bike_id": "8e82db3f090d3850d656c59f49abc606", "rental_uris": {"android": "https://dc.lft.to/lastmile_qr_scan", "ios": "https://dc.lft.to/lastmile_qr_scan"}, "name": "8e82db3f090d3850d656c59f49abc606", "is_reserved": 0}, {"is_disabled": 0, "fusion_lon": 0.0, "fusion_lat": 0.0, "lat": 38.887249, "type": "electric_scooter", "lon": -76.996364, "bike_id": "628dcfbf03b4c50f748445707f194284", "rental_uris": {"android": "https://dc.lft.to/lastmile_qr_scan", "ios": "https://dc.lft.to/lastmile_qr_scan"}, "name": "628dcfbf03b4c50f748445707f194284", "is_reserved": 0}, {"is_disabled": 0, "fusion_lon": 0.0, "fusion_lat": 0.0, "lat": 38.85325733333333, "type": "electric_scooter", "lon": -76.96603383333333, "bike_id": "c272cb306b32d3194d7cd8beceb19841", "rental_uris": {"android": "https://dc.lft.to/lastmile_qr_scan", "ios": "https://dc.lft.to/lastmile_qr_scan"}, "name": "c272cb306b32d3194d7cd8beceb19841", "is_reserved": 0}, {"is_disabled": 0, "fusion_lon": 0.0, "fusion_lat": 0.0, "lat": 38.87788533333333, "type": "electric_scooter", "lon": -76.93104783333334, "bike_id": "7dee64d110b75cf0945d07b675bcccbe", "rental_uris": {"android": "https://dc.lft.to/lastmile_qr_scan", "ios": "https://dc.lft.to/lastmile_qr_scan"}, "name": "7dee64d110b75cf0945d07b675bcccbe", "is_reserved": 0}, {"is_disabled": 0, "fusion_lon": 0.0, "fusion_lat": 0.0, "lat": 38.915393333333334, "type": "electric_scooter", "lon": -77.032107, "bike_id": "3bce46c8be155408922ced43e9ae752f", "rental_uris": {"android": "https://dc.lft.to/lastmile_qr_scan", "ios": "https://dc.lft.to/lastmile_qr_scan"}, "name": "3bce46c8be155408922ced43e9ae752f", "is_reserved": 0}, {"is_disabled": 0, "fusion_lon": 0.0, "fusion_lat": 0.0, "lat": 38.9148095, "type": "electric_scooter", "lon": -77.03470816666666, "bike_id": "53872bdfe5001ced629e20b5fa173a0e", "rental_uris": {"android": "https://dc.lft.to/lastmile_qr_scan", "ios": "https://dc.lft.to/lastmile_qr_scan"}, "name": "53872bdfe5001ced629e20b5fa173a0e", "is_reserved": 0}, {"is_disabled": 0, "fusion_lon": 0.0, "fusion_lat": 0.0, "lat": 39.08841783333333, "type": "electric_bike", "lon": -77.178013, "bike_id": "198007e36d9f887d32b5a7c00e299dc6", "rental_uris": {"android": "https://dc.lft.to/lastmile_qr_scan", "ios": "https://dc.lft.to/lastmile_qr_scan"}, "name": "198007e36d9f887d32b5a7c00e299dc6", "is_reserved": 0}, {"is_disabled": 0, "fusion_lon": 0.0, "fusion_lat": 0.0, "lat": 38.92276733333333, "type": "electric_scooter", "lon": -77.0297925, "bike_id": "0ac385b7731e6470016adf570d44929c", "rental_uris": {"android": "https://dc.lft.to/lastmile_qr_scan", "ios": "https://dc.lft.to/lastmile_qr_scan"}, "name": "0ac385b7731e6470016adf570d44929c", "is_reserved": 0}, {"is_disabled": 0, "fusion_lon": 0.0, "fusion_lat": 0.0, "lat": 38.89204083333333, "type": "electric_scooter", "lon": -76.9881155, "bike_id": "b74dba65584ab2b89ce782369240f4b7", "rental_uris": {"android": "https://dc.lft.to/lastmile_qr_scan", "ios": "https://dc.lft.to/lastmile_qr_scan"}, "name": "b74dba65584ab2b89ce782369240f4b7", "is_reserved": 0}, {"is_disabled": 0, "fusion_lon": 0.0, "fusion_lat": 0.0, "lat": 38.9005695, "type": "electric_scooter", "lon": -77.04345783333333, "bike_id": "db744a470234e743eb45610b3ac19cb0", "rental_uris": {"android": "https://dc.lft.to/lastmile_qr_scan", "ios": "https://dc.lft.to/lastmile_qr_scan"}, "name": "db744a470234e743eb45610b3ac19cb0", "is_reserved": 0}, {"is_disabled": 0, "fusion_lon": 0.0, "fusion_lat": 0.0, "lat": 38.91342316666667, "type": "electric_scooter", "lon": -77.032612, "bike_id": "4cc0636e609272d67e36aadf51370f58", "rental_uris": {"android": "https://dc.lft.to/lastmile_qr_scan", "ios": "https://dc.lft.to/lastmile_qr_scan"}, "name": "4cc0636e609272d67e36aadf51370f58", "is_reserved": 0}, {"is_disabled": 0, "fusion_lon": 0.0, "fusion_lat": 0.0, "lat": 38.884147, "type": "electric_scooter", "lon": -76.95411633333333, "bike_id": "74f0eb3cc9e62b7c464907b114d8f61a", "rental_uris": {"android": "https://dc.lft.to/lastmile_qr_scan", "ios": "https://dc.lft.to/lastmile_qr_scan"}, "name": "74f0eb3cc9e62b7c464907b114d8f61a", "is_reserved": 0}, {"is_disabled": 0, "fusion_lon": 0.0, "fusion_lat": 0.0, "lat": 38.91803183333333, "type": "electric_scooter", "lon": -77.03445333333333, "bike_id": "260760bebaed1f84033a46d76b71e677", "rental_uris": {"android": "https://dc.lft.to/lastmile_qr_scan", "ios": "https://dc.lft.to/lastmile_qr_scan"}, "name": "260760bebaed1f84033a46d76b71e677", "is_reserved": 0}, {"is_disabled": 0, "fusion_lon": 0.0, "fusion_lat": 0.0, "lat": 38.9064895, "type": "electric_scooter", "lon": -77.04867183333333, "bike_id": "ef5c30c3a791d0fcfb4fdd79db0a3f6d", "rental_uris": {"android": "https://dc.lft.to/lastmile_qr_scan", "ios": "https://dc.lft.to/lastmile_qr_scan"}, "name": "ef5c30c3a791d0fcfb4fdd79db0a3f6d", "is_reserved": 0}, {"is_disabled": 0, "fusion_lon": 0.0, "fusion_lat": 0.0, "lat": 38.891996, "type": "electric_scooter", "lon": -76.94266533333334, "bike_id": "994d8803ed30df08be675fdd7f634706", "rental_uris": {"android": "https://dc.lft.to/lastmile_qr_scan", "ios": "https://dc.lft.to/lastmile_qr_scan"}, "name": "994d8803ed30df08be675fdd7f634706", "is_reserved": 0}, {"is_disabled": 0, "fusion_lon": 0.0, "fusion_lat": 0.0, "lat": 38.89833733333333, "type": "electric_scooter", "lon": -77.02915183333333, "bike_id": "9639dd0628fba06b89611b9e118ff3b8", "rental_uris": {"android": "https://dc.lft.to/lastmile_qr_scan", "ios": "https://dc.lft.to/lastmile_qr_scan"}, "name": "9639dd0628fba06b89611b9e118ff3b8", "is_reserved": 0}, {"is_disabled": 0, "fusion_lon": 0.0, "fusion_lat": 0.0, "lat": 38.9104975, "type": "electric_scooter", "lon": -77.04344283333333, "bike_id": "d84edbee737789bd5104e356b53bb530", "rental_uris": {"android": "https://dc.lft.to/lastmile_qr_scan", "ios": "https://dc.lft.to/lastmile_qr_scan"}, "name": "d84edbee737789bd5104e356b53bb530", "is_reserved": 0}, {"is_disabled": 0, "fusion_lon": 0.0, "fusion_lat": 0.0, "lat": 38.930899833333335, "type": "electric_scooter", "lon": -77.036194, "bike_id": "27e8c8c8256f4dbe20e21e58ff3c7e57", "rental_uris": {"android": "https://dc.lft.to/lastmile_qr_scan", "ios": "https://dc.lft.to/lastmile_qr_scan"}, "name": "27e8c8c8256f4dbe20e21e58ff3c7e57", "is_reserved": 0}, {"is_disabled": 0, "fusion_lon": 0.0, "fusion_lat": 0.0, "lat": 38.9263585, "type": "electric_scooter", "lon": -77.036334, "bike_id": "5e5dd10b52617d4a0d875239ccb648ab", "rental_uris": {"android": "https://dc.lft.to/lastmile_qr_scan", "ios": "https://dc.lft.to/lastmile_qr_scan"}, "name": "5e5dd10b52617d4a0d875239ccb648ab", "is_reserved": 0}, {"is_disabled": 0, "fusion_lon": 0.0, "fusion_lat": 0.0, "lat": 39.0249485, "type": "electric_bike", "lon": -77.12568316666666, "bike_id": "c389a2e8e6c3ef79980f2dd186e92b0f", "rental_uris": {"android": "https://dc.lft.to/lastmile_qr_scan", "ios": "https://dc.lft.to/lastmile_qr_scan"}, "name": "c389a2e8e6c3ef79980f2dd186e92b0f", "is_reserved": 0}, {"is_disabled": 0, "fusion_lon": 0.0, "fusion_lat": 0.0, "lat": 38.94311716666667, "type": "electric_scooter", "lon": -77.06170283333333, "bike_id": "c9a97722c133c780dd9cd3b7bc91f29c", "rental_uris": {"android": "https://dc.lft.to/lastmile_qr_scan", "ios": "https://dc.lft.to/lastmile_qr_scan"}, "name": "c9a97722c133c780dd9cd3b7bc91f29c", "is_reserved": 0}, {"is_disabled": 0, "fusion_lon": 0.0, "fusion_lat": 0.0, "lat": 38.93053666666667, "type": "electric_scooter", "lon": -77.02967433333333, "bike_id": "dfac4aa63a739da11df8e1210b6486c5", "rental_uris": {"android": "https://dc.lft.to/lastmile_qr_scan", "ios": "https://dc.lft.to/lastmile_qr_scan"}, "name": "dfac4aa63a739da11df8e1210b6486c5", "is_reserved": 0}, {"is_disabled": 0, "fusion_lon": 0.0, "fusion_lat": 0.0, "lat": 38.909761, "type": "electric_scooter", "lon": -77.03443533333333, "bike_id": "f39f406d8fba475108f06a287a192dc2", "rental_uris": {"android": "https://dc.lft.to/lastmile_qr_scan", "ios": "https://dc.lft.to/lastmile_qr_scan"}, "name": "f39f406d8fba475108f06a287a192dc2", "is_reserved": 0}, {"is_disabled": 0, "fusion_lon": 0.0, "fusion_lat": 0.0, "lat": 38.90140066666667, "type": "electric_scooter", "lon": -77.04410033333333, "bike_id": "b8fc3151fed47b665acbbcb9103ba562", "rental_uris": {"android": "https://dc.lft.to/lastmile_qr_scan", "ios": "https://dc.lft.to/lastmile_qr_scan"}, "name": "b8fc3151fed47b665acbbcb9103ba562", "is_reserved": 0}, {"is_disabled": 0, "fusion_lon": 0.0, "fusion_lat": 0.0, "lat": 38.91115633333333, "type": "electric_scooter", "lon": -77.035674, "bike_id": "ad46d2bac569a7a2d183877270e6f1d3", "rental_uris": {"android": "https://dc.lft.to/lastmile_qr_scan", "ios": "https://dc.lft.to/lastmile_qr_scan"}, "name": "ad46d2bac569a7a2d183877270e6f1d3", "is_reserved": 0}, {"is_disabled": 0, "fusion_lon": 0.0, "fusion_lat": 0.0, "lat": 38.912711, "type": "electric_scooter", "lon": -77.02224066666666, "bike_id": "28c26e264e7b3d23f49b404bd58cfa82", "rental_uris": {"android": "https://dc.lft.to/lastmile_qr_scan", "ios": "https://dc.lft.to/lastmile_qr_scan"}, "name": "28c26e264e7b3d23f49b404bd58cfa82", "is_reserved": 0}, {"is_disabled": 0, "fusion_lon": 0.0, "fusion_lat": 0.0, "lat": 38.886648, "type": "electric_scooter", "lon": -77.00377766666666, "bike_id": "d9a71e94b276f817ba75ab84b47091a6", "rental_uris": {"android": "https://dc.lft.to/lastmile_qr_scan", "ios": "https://dc.lft.to/lastmile_qr_scan"}, "name": "d9a71e94b276f817ba75ab84b47091a6", "is_reserved": 0}, {"is_disabled": 0, "fusion_lon": 0.0, "fusion_lat": 0.0, "lat": 38.96817816666667, "type": "electric_scooter", "lon": -77.00891233333333, "bike_id": "49be1d082f19bceef13815bf7c716ac6", "rental_uris": {"android": "https://dc.lft.to/lastmile_qr_scan", "ios": "https://dc.lft.to/lastmile_qr_scan"}, "name": "49be1d082f19bceef13815bf7c716ac6", "is_reserved": 0}, {"is_disabled": 0, "fusion_lon": 0.0, "fusion_lat": 0.0, "lat": 39.052083833333334, "type": "electric_bike", "lon": -77.04403483333333, "bike_id": "8c018875337eb3ca7e1c88797930d155", "rental_uris": {"android": "https://dc.lft.to/lastmile_qr_scan", "ios": "https://dc.lft.to/lastmile_qr_scan"}, "name": "8c018875337eb3ca7e1c88797930d155", "is_reserved": 0}, {"is_disabled": 0, "fusion_lon": 0.0, "fusion_lat": 0.0, "lat": 38.916576, "type": "electric_scooter", "lon": -77.0465175, "bike_id": "f4266b997fe92128e12ddb0afca26f5c", "rental_uris": {"android": "https://dc.lft.to/lastmile_qr_scan", "ios": "https://dc.lft.to/lastmile_qr_scan"}, "name": "f4266b997fe92128e12ddb0afca26f5c", "is_reserved": 0}, {"is_disabled": 0, "fusion_lon": 0.0, "fusion_lat": 0.0, "lat": 38.9034785, "type": "electric_scooter", "lon": -77.03459616666666, "bike_id": "49f73e7200606fd86958f5f726e7565c", "rental_uris": {"android": "https://dc.lft.to/lastmile_qr_scan", "ios": "https://dc.lft.to/lastmile_qr_scan"}, "name": "49f73e7200606fd86958f5f726e7565c", "is_reserved": 0}, {"is_disabled": 0, "fusion_lon": 0.0, "fusion_lat": 0.0, "lat": 38.91693583333333, "type": "electric_scooter", "lon": -77.0427365, "bike_id": "d6efe4def5f4f9045fa0f0e643fe6ac9", "rental_uris": {"android": "https://dc.lft.to/lastmile_qr_scan", "ios": "https://dc.lft.to/lastmile_qr_scan"}, "name": "d6efe4def5f4f9045fa0f0e643fe6ac9", "is_reserved": 0}, {"is_disabled": 0, "fusion_lon": 0.0, "fusion_lat": 0.0, "lat": 38.91350283333333, "type": "electric_scooter", "lon": -77.04168266666667, "bike_id": "496fc8c34c1bf1c0c620b6b45b957554", "rental_uris": {"android": "https://dc.lft.to/lastmile_qr_scan", "ios": "https://dc.lft.to/lastmile_qr_scan"}, "name": "496fc8c34c1bf1c0c620b6b45b957554", "is_reserved": 0}, {"is_disabled": 0, "fusion_lon": 0.0, "fusion_lat": 0.0, "lat": 38.911181, "type": "electric_scooter", "lon": -77.04093216666666, "bike_id": "e6fed8f902c946540317a7754062cf55", "rental_uris": {"android": "https://dc.lft.to/lastmile_qr_scan", "ios": "https://dc.lft.to/lastmile_qr_scan"}, "name": "e6fed8f902c946540317a7754062cf55", "is_reserved": 0}, {"is_disabled": 0, "fusion_lon": 0.0, "fusion_lat": 0.0, "lat": 38.9177895, "type": "electric_scooter", "lon": -77.0230435, "bike_id": "99eac2b9b79a39b1cf472fab74bf9af3", "rental_uris": {"android": "https://dc.lft.to/lastmile_qr_scan", "ios": "https://dc.lft.to/lastmile_qr_scan"}, "name": "99eac2b9b79a39b1cf472fab74bf9af3", "is_reserved": 0}, {"is_disabled": 0, "fusion_lon": 0.0, "fusion_lat": 0.0, "lat": 38.89731616666667, "type": "electric_bike", "lon": -76.90540283333333, "bike_id": "a91880a63540b303e8899fc47d77d2a4", "rental_uris": {"android": "https://dc.lft.to/lastmile_qr_scan", "ios": "https://dc.lft.to/lastmile_qr_scan"}, "name": "a91880a63540b303e8899fc47d77d2a4", "is_reserved": 0}, {"is_disabled": 0, "fusion_lon": 0.0, "fusion_lat": 0.0, "lat": 38.9300405, "type": "electric_bike", "lon": -77.01428916666667, "bike_id": "debc0ba191477f8d90cf6920d91b2061", "rental_uris": {"android": "https://dc.lft.to/lastmile_qr_scan", "ios": "https://dc.lft.to/lastmile_qr_scan"}, "name": "debc0ba191477f8d90cf6920d91b2061", "is_reserved": 0}, {"is_disabled": 0, "fusion_lon": 0.0, "fusion_lat": 0.0, "lat": 38.93097516666667, "type": "electric_scooter", "lon": -77.02507266666667, "bike_id": "d58ef3c680fe0e6a8265146720e5a0d2", "rental_uris": {"android": "https://dc.lft.to/lastmile_qr_scan", "ios": "https://dc.lft.to/lastmile_qr_scan"}, "name": "d58ef3c680fe0e6a8265146720e5a0d2", "is_reserved": 0}, {"is_disabled": 0, "fusion_lon": 0.0, "fusion_lat": 0.0, "lat": 38.89827016666667, "type": "electric_scooter", "lon": -76.946536, "bike_id": "f5ca86d89bf77a06d14e6ab1680b3928", "rental_uris": {"android": "https://dc.lft.to/lastmile_qr_scan", "ios": "https://dc.lft.to/lastmile_qr_scan"}, "name": "f5ca86d89bf77a06d14e6ab1680b3928", "is_reserved": 0}, {"is_disabled": 0, "fusion_lon": 0.0, "fusion_lat": 0.0, "lat": 38.900521833333336, "type": "electric_scooter", "lon": -77.00063716666666, "bike_id": "0ee3288971e39618d2dccf630b5bc3e5", "rental_uris": {"android": "https://dc.lft.to/lastmile_qr_scan", "ios": "https://dc.lft.to/lastmile_qr_scan"}, "name": "0ee3288971e39618d2dccf630b5bc3e5", "is_reserved": 0}, {"is_disabled": 0, "fusion_lon": 0.0, "fusion_lat": 0.0, "lat": 38.953133333333334, "type": "electric_scooter", "lon": -77.03598466666666, "bike_id": "743f4c1de401a00561699a4771fe8702", "rental_uris": {"android": "https://dc.lft.to/lastmile_qr_scan", "ios": "https://dc.lft.to/lastmile_qr_scan"}, "name": "743f4c1de401a00561699a4771fe8702", "is_reserved": 0}, {"is_disabled": 0, "fusion_lon": 0.0, "fusion_lat": 0.0, "lat": 38.91098233333334, "type": "electric_scooter", "lon": -77.03859466666667, "bike_id": "182e322c43b29480f8f57ec4c6082616", "rental_uris": {"android": "https://dc.lft.to/lastmile_qr_scan", "ios": "https://dc.lft.to/lastmile_qr_scan"}, "name": "182e322c43b29480f8f57ec4c6082616", "is_reserved": 0}, {"is_disabled": 0, "fusion_lon": 0.0, "fusion_lat": 0.0, "lat": 38.903174, "type": "electric_scooter", "lon": -77.0188905, "bike_id": "b9289aaa95ffdfbbf69bc6356b4e3256", "rental_uris": {"android": "https://dc.lft.to/lastmile_qr_scan", "ios": "https://dc.lft.to/lastmile_qr_scan"}, "name": "b9289aaa95ffdfbbf69bc6356b4e3256", "is_reserved": 0}, {"is_disabled": 0, "fusion_lon": 0.0, "fusion_lat": 0.0, "lat": 38.882248833333335, "type": "electric_bike", "lon": -77.11281933333333, "bike_id": "cc85da888304e1a2df1fa21393e19483", "rental_uris": {"android": "https://dc.lft.to/lastmile_qr_scan", "ios": "https://dc.lft.to/lastmile_qr_scan"}, "name": "cc85da888304e1a2df1fa21393e19483", "is_reserved": 0}, {"is_disabled": 0, "fusion_lon": 0.0, "fusion_lat": 0.0, "lat": 38.89307783333334, "type": "electric_scooter", "lon": -77.01234983333333, "bike_id": "a07372c09a6624eee8a23eec519c8dd6", "rental_uris": {"android": "https://dc.lft.to/lastmile_qr_scan", "ios": "https://dc.lft.to/lastmile_qr_scan"}, "name": "a07372c09a6624eee8a23eec519c8dd6", "is_reserved": 0}, {"is_disabled": 0, "fusion_lon": 0.0, "fusion_lat": 0.0, "lat": 38.921020166666665, "type": "electric_scooter", "lon": -77.03050833333333, "bike_id": "ba34f1d3e8019c70e3caf345804d194c", "rental_uris": {"android": "https://dc.lft.to/lastmile_qr_scan", "ios": "https://dc.lft.to/lastmile_qr_scan"}, "name": "ba34f1d3e8019c70e3caf345804d194c", "is_reserved": 0}, {"is_disabled": 0, "fusion_lon": 0.0, "fusion_lat": 0.0, "lat": 38.908324, "type": "electric_scooter", "lon": -77.04170083333334, "bike_id": "25e8e95df67b7edf9a09a1ed13f26ee1", "rental_uris": {"android": "https://dc.lft.to/lastmile_qr_scan", "ios": "https://dc.lft.to/lastmile_qr_scan"}, "name": "25e8e95df67b7edf9a09a1ed13f26ee1", "is_reserved": 0}, {"is_disabled": 0, "fusion_lon": 0.0, "fusion_lat": 0.0, "lat": 38.876422833333336, "type": "electric_scooter", "lon": -77.015658, "bike_id": "c7dec3e7567b54e0c4284e2c76e23479", "rental_uris": {"android": "https://dc.lft.to/lastmile_qr_scan", "ios": "https://dc.lft.to/lastmile_qr_scan"}, "name": "c7dec3e7567b54e0c4284e2c76e23479", "is_reserved": 0}, {"is_disabled": 0, "fusion_lon": 0.0, "fusion_lat": 0.0, "lat": 38.909768, "type": "electric_scooter", "lon": -77.08076066666666, "bike_id": "8424523d08ee1a189957edcc8d24efab", "rental_uris": {"android": "https://dc.lft.to/lastmile_qr_scan", "ios": "https://dc.lft.to/lastmile_qr_scan"}, "name": "8424523d08ee1a189957edcc8d24efab", "is_reserved": 0}, {"is_disabled": 0, "fusion_lon": 0.0, "fusion_lat": 0.0, "lat": 38.89967633333333, "type": "electric_scooter", "lon": -77.0461345, "bike_id": "78069999b0372f00979f982bef9ebf74", "rental_uris": {"android": "https://dc.lft.to/lastmile_qr_scan", "ios": "https://dc.lft.to/lastmile_qr_scan"}, "name": "78069999b0372f00979f982bef9ebf74", "is_reserved": 0}, {"is_disabled": 0, "fusion_lon": 0.0, "fusion_lat": 0.0, "lat": 38.93154883333333, "type": "electric_scooter", "lon": -77.03450183333334, "bike_id": "92f32afac113d83d5294a50da5d37f45", "rental_uris": {"android": "https://dc.lft.to/lastmile_qr_scan", "ios": "https://dc.lft.to/lastmile_qr_scan"}, "name": "92f32afac113d83d5294a50da5d37f45", "is_reserved": 0}, {"is_disabled": 0, "fusion_lon": 0.0, "fusion_lat": 0.0, "lat": 38.9077925, "type": "electric_scooter", "lon": -77.03822816666667, "bike_id": "fabb7eec70d1ceb85fd83818015e2726", "rental_uris": {"android": "https://dc.lft.to/lastmile_qr_scan", "ios": "https://dc.lft.to/lastmile_qr_scan"}, "name": "fabb7eec70d1ceb85fd83818015e2726", "is_reserved": 0}, {"is_disabled": 0, "fusion_lon": 0.0, "fusion_lat": 0.0, "lat": 38.945164166666665, "type": "electric_scooter", "lon": -77.02984916666666, "bike_id": "029be5a5c90af12d2700c31a0220487c", "rental_uris": {"android": "https://dc.lft.to/lastmile_qr_scan", "ios": "https://dc.lft.to/lastmile_qr_scan"}, "name": "029be5a5c90af12d2700c31a0220487c", "is_reserved": 0}, {"is_disabled": 0, "fusion_lon": 0.0, "fusion_lat": 0.0, "lat": 38.9020085, "type": "electric_scooter", "lon": -76.98192116666667, "bike_id": "4a822911e71f5f88ddf16a3a3c0539c4", "rental_uris": {"android": "https://dc.lft.to/lastmile_qr_scan", "ios": "https://dc.lft.to/lastmile_qr_scan"}, "name": "4a822911e71f5f88ddf16a3a3c0539c4", "is_reserved": 0}, {"is_disabled": 0, "fusion_lon": 0.0, "fusion_lat": 0.0, "lat": 38.901402, "type": "electric_scooter", "lon": -77.0415435, "bike_id": "0df74dc098df493553afb5fd02563e84", "rental_uris": {"android": "https://dc.lft.to/lastmile_qr_scan", "ios": "https://dc.lft.to/lastmile_qr_scan"}, "name": "0df74dc098df493553afb5fd02563e84", "is_reserved": 0}, {"is_disabled": 0, "fusion_lon": 0.0, "fusion_lat": 0.0, "lat": 38.90681683333333, "type": "electric_scooter", "lon": -77.03116216666666, "bike_id": "853a1e67c65a3d5b2539dee956b038eb", "rental_uris": {"android": "https://dc.lft.to/lastmile_qr_scan", "ios": "https://dc.lft.to/lastmile_qr_scan"}, "name": "853a1e67c65a3d5b2539dee956b038eb", "is_reserved": 0}, {"is_disabled": 0, "fusion_lon": 0.0, "fusion_lat": 0.0, "lat": 38.927870166666665, "type": "electric_scooter", "lon": -77.03262216666667, "bike_id": "d370e0b5d2e482a3bb881c2c1f1d945b", "rental_uris": {"android": "https://dc.lft.to/lastmile_qr_scan", "ios": "https://dc.lft.to/lastmile_qr_scan"}, "name": "d370e0b5d2e482a3bb881c2c1f1d945b", "is_reserved": 0}, {"is_disabled": 0, "fusion_lon": 0.0, "fusion_lat": 0.0, "lat": 38.89843833333333, "type": "electric_scooter", "lon": -77.03120833333334, "bike_id": "8dfe407e6dc4e90ff6245e989ee45a4f", "rental_uris": {"android": "https://dc.lft.to/lastmile_qr_scan", "ios": "https://dc.lft.to/lastmile_qr_scan"}, "name": "8dfe407e6dc4e90ff6245e989ee45a4f", "is_reserved": 0}, {"is_disabled": 0, "fusion_lon": 0.0, "fusion_lat": 0.0, "lat": 38.90164166666667, "type": "electric_scooter", "lon": -77.0317425, "bike_id": "aee06456c51a6ace1a0cc02ea2c406c3", "rental_uris": {"android": "https://dc.lft.to/lastmile_qr_scan", "ios": "https://dc.lft.to/lastmile_qr_scan"}, "name": "aee06456c51a6ace1a0cc02ea2c406c3", "is_reserved": 0}, {"is_disabled": 0, "fusion_lon": 0.0, "fusion_lat": 0.0, "lat": 38.90600233333333, "type": "electric_scooter", "lon": -77.0637195, "bike_id": "e2177612ff497009415c720a0f6cccb7", "rental_uris": {"android": "https://dc.lft.to/lastmile_qr_scan", "ios": "https://dc.lft.to/lastmile_qr_scan"}, "name": "e2177612ff497009415c720a0f6cccb7", "is_reserved": 0}, {"is_disabled": 0, "fusion_lon": 0.0, "fusion_lat": 0.0, "lat": 38.90296883333333, "type": "electric_scooter", "lon": -77.0365635, "bike_id": "385152909fd91a16bb7e4d97672baf86", "rental_uris": {"android": "https://dc.lft.to/lastmile_qr_scan", "ios": "https://dc.lft.to/lastmile_qr_scan"}, "name": "385152909fd91a16bb7e4d97672baf86", "is_reserved": 0}, {"is_disabled": 0, "fusion_lon": 0.0, "fusion_lat": 0.0, "lat": 38.918064666666666, "type": "electric_scooter", "lon": -77.03434483333334, "bike_id": "72520ba9b195feafe4cbf161722cdb99", "rental_uris": {"android": "https://dc.lft.to/lastmile_qr_scan", "ios": "https://dc.lft.to/lastmile_qr_scan"}, "name": "72520ba9b195feafe4cbf161722cdb99", "is_reserved": 0}, {"is_disabled": 0, "fusion_lon": 0.0, "fusion_lat": 0.0, "lat": 38.88369466666666, "type": "electric_scooter", "lon": -77.01966733333333, "bike_id": "90eedaa785781b499592b63c4c0d126e", "rental_uris": {"android": "https://dc.lft.to/lastmile_qr_scan", "ios": "https://dc.lft.to/lastmile_qr_scan"}, "name": "90eedaa785781b499592b63c4c0d126e", "is_reserved": 0}, {"is_disabled": 0, "fusion_lon": 0.0, "fusion_lat": 0.0, "lat": 38.9248515, "type": "electric_scooter", "lon": -77.02727916666667, "bike_id": "cdf78f97d420620f707cc36eb95391ec", "rental_uris": {"android": "https://dc.lft.to/lastmile_qr_scan", "ios": "https://dc.lft.to/lastmile_qr_scan"}, "name": "cdf78f97d420620f707cc36eb95391ec", "is_reserved": 0}, {"is_disabled": 0, "fusion_lon": 0.0, "fusion_lat": 0.0, "lat": 38.90381133333333, "type": "electric_scooter", "lon": -77.04186116666666, "bike_id": "93c99ac856875b6bd28113bf56eb7738", "rental_uris": {"android": "https://dc.lft.to/lastmile_qr_scan", "ios": "https://dc.lft.to/lastmile_qr_scan"}, "name": "93c99ac856875b6bd28113bf56eb7738", "is_reserved": 0}, {"is_disabled": 0, "fusion_lon": 0.0, "fusion_lat": 0.0, "lat": 38.842929166666664, "type": "electric_scooter", "lon": -76.99946383333334, "bike_id": "8b806165256ae4a31071ae91f6eb1b3e", "rental_uris": {"android": "https://dc.lft.to/lastmile_qr_scan", "ios": "https://dc.lft.to/lastmile_qr_scan"}, "name": "8b806165256ae4a31071ae91f6eb1b3e", "is_reserved": 0}, {"is_disabled": 0, "fusion_lon": 0.0, "fusion_lat": 0.0, "lat": 38.9856415, "type": "electric_bike", "lon": -76.988301, "bike_id": "6d6c3bd95eb5d826facef9d4d648734b", "rental_uris": {"android": "https://dc.lft.to/lastmile_qr_scan", "ios": "https://dc.lft.to/lastmile_qr_scan"}, "name": "6d6c3bd95eb5d826facef9d4d648734b", "is_reserved": 0},