{"data": {"bikes": [{"type": "electric_scooter", "rental_uris": {"android": "https://dc.lft.to/lastmile_qr_scan", "ios": "https://dc.lft.to/lastmile_qr_scan"}, "fusion_lat": 0.0, "name": "d1347a16975b97cd77026a839b951437", "lon": -77.03176633333334, "is_disabled": 0, "is_reserved": 0, "fusion_lon": 0.0, "bike_id": "d1347a16975b97cd77026a839b951437", "lat": 38.936006}, {"type": "electric_bike", "rental_uris": {"android": "https://dc.lft.to/lastmile_qr_scan", "ios": "https://dc.lft.to/lastmile_qr_scan"}, "fusion_lat": 0.0, "name": "f078a9d56f7db0b38767d5ed7b15993e", "lon": -77.031758, "is_disabled": 0, "is_reserved": 0, "fusion_lon": 0.0, "bike_id": "f078a9d56f7db0b38767d5ed7b15993e", "lat": 38.92106283333333}, {"type": "electric_scooter", "rental_uris": {"android": "https://dc.lft.to/lastmile_qr_scan", "ios": "https://dc.lft.to/lastmile_qr_scan"}, "fusion_lat": 0.0, "name": "f8c88a150a779d0046ca506e45324f72", "lon": -77.03198783333333, "is_disabled": 0, "is_reserved": 0, "fusion_lon": 0.0, "bike_id": "f8c88a150a779d0046ca506e45324f72", "lat": 38.91534516666667}, {"type": "electric_scooter", "rental_uris": {"android": "https://dc.lft.to/lastmile_qr_scan", "ios": "https://dc.lft.to/lastmile_qr_scan"}, "fusion_lat": 0.0, "name": "e8b87af3530109b32699dec18972f916", "lon": -77.03187933333334, "is_disabled": 0, "is_reserved": 0, "fusion_lon": 0.0, "bike_id": "e8b87af3530109b32699dec18972f916", "lat": 38.911159833333336}, {"type": "electric_scooter", "rental_uris": {"android": "https://dc.lft.to/lastmile_qr_scan", "ios": "https://dc.lft.to/lastmile_qr_scan"}, "fusion_lat": 0.0, "name": "64c7d49165145a62e46c527ac22c4a5f", "lon": -77.07597433333333, "is_disabled": 0, "is_reserved": 0, "fusion_lon": 0.0, "bike_id": "64c7d49165145a62e46c527ac22c4a5f", "lat": 38.91217683333333}, {"type": "electric_scooter", "rental_uris": {"android": "https://dc.lft.to/lastmile_qr_scan", "ios": "https://dc.lft.to/lastmile_qr_scan"}, "fusion_lat": 0.0, "name": "beaf9f8a23795cee9cb19fb614c3248f", "lon": -77.02677866666667, "is_disabled": 0, "is_reserved": 0, "fusion_lon": 0.0, "bike_id": "beaf9f8a23795cee9cb19fb614c3248f", "lat": 38.90720433333333}, {"type": "electric_bike", "rental_uris": {"android": "https://dc.lft.to/lastmile_qr_scan", "ios": "https://dc.lft.to/lastmile_qr_scan"}, "fusion_lat": 0.0, "name": "909ef75be93f76a2b321bbdcbbabd7d1", "lon": -76.9701265, "is_disabled": 0, "is_reserved": 0, "fusion_lon": 0.0, "bike_id": "909ef75be93f76a2b321bbdcbbabd7d1", "lat": 38.86370433333333}, {"type": "electric_scooter", "rental_uris": {"android": "https://dc.lft.to/lastmile_qr_scan", "ios": "https://dc.lft.to/lastmile_qr_scan"}, "fusion_lat": 0.0, "name": "23e40bc258bcdda57927eb24d212b91a", "lon": -77.02373133333333, "is_disabled": 0, "is_reserved": 0, "fusion_lon": 0.0, "bike_id": "23e40bc258bcdda57927eb24d212b91a", "lat": 38.92062283333333}, {"type": "electric_scooter", "rental_uris": {"android": "https://dc.lft.to/lastmile_qr_scan", "ios": "https://dc.lft.to/lastmile_qr_scan"}, "fusion_lat": 0.0, "name": "38b5defeccc6da7ce31fcb28c64f9f9f", "lon": -77.0187825, "is_disabled": 0, "is_reserved": 0, "fusion_lon": 0.0, "bike_id": "38b5defeccc6da7ce31fcb28c64f9f9f", "lat": 38.91416066666667}, {"type": "electric_bike", "rental_uris": {"android": "https://dc.lft.to/lastmile_qr_scan", "ios": "https://dc.lft.to/lastmile_qr_scan"}, "fusion_lat": 0.0, "name": "3f8b76c9ec5b9008780f2124859bb226", "lon": -77.13918933333333, "is_disabled": 0, "is_reserved": 0, "fusion_lon": 0.0, "bike_id": "3f8b76c9ec5b9008780f2124859bb226", "lat": 38.8730245}, {"type": "electric_scooter", "rental_uris": {"android": "https://dc.lft.to/lastmile_qr_scan", "ios": "https://dc.lft.to/lastmile_qr_scan"}, "fusion_lat": 0.0, "name": "195973ac844ac8739856707768839127", "lon": -77.04238, "is_disabled": 0, "is_reserved": 0, "fusion_lon": 0.0, "bike_id": "195973ac844ac8739856707768839127", "lat": 38.921873166666664}, {"type": "electric_scooter", "rental_uris": {"android": "https://dc.lft.to/lastmile_qr_scan", "ios": "https://dc.lft.to/lastmile_qr_scan"}, "fusion_lat": 0.0, "name": "fa87d08a79d80a811919c0bd61e583b3", "lon": -77.01890666666667, "is_disabled": 0, "is_reserved": 0, "fusion_lon": 0.0, "bike_id": "fa87d08a79d80a811919c0bd61e583b3", "lat": 38.878610333333334}, {"type": "electric_scooter", "rental_uris": {"android": "https://dc.lft.to/lastmile_qr_scan", "ios": "https://dc.lft.to/lastmile_qr_scan"}, "fusion_lat": 0.0, "name": "d196e1efde1a969e5ce8826733e4b18f", "lon": -77.02088333333333, "is_disabled": 0, "is_reserved": 0, "fusion_lon": 0.0, "bike_id": "d196e1efde1a969e5ce8826733e4b18f", "lat": 38.881811666666664}, {"type": "electric_scooter", "rental_uris": {"android": "https://dc.lft.to/lastmile_qr_scan", "ios": "https://dc.lft.to/lastmile_qr_scan"}, "fusion_lat": 0.0, "name": "9765e8780c34369e024ad5d6e00695c6", "lon": -77.03446433333333, "is_disabled": 0, "is_reserved": 0, "fusion_lon": 0.0, "bike_id": "9765e8780c34369e024ad5d6e00695c6", "lat": 38.9057015}, {"type": "electric_scooter", "rental_uris": {"android": "https://dc.lft.to/lastmile_qr_scan", "ios": "https://dc.lft.to/lastmile_qr_scan"}, "fusion_lat": 0.0, "name": "8d2b55407f7a2c8342c9cc704acd48a8", "lon": -76.93076666666667, "is_disabled": 0, "is_reserved": 0, "fusion_lon": 0.0, "bike_id": "8d2b55407f7a2c8342c9cc704acd48a8", "lat": 38.9016705}, {"type": "electric_bike", "rental_uris": {"android": "https://dc.lft.to/lastmile_qr_scan", "ios": "https://dc.lft.to/lastmile_qr_scan"}, "fusion_lat": 0.0, "name": "2a86bec87e814bc8dedb7930600406b4", "lon": -76.97206983333334, "is_disabled": 0, "is_reserved": 0, "fusion_lon": 0.0, "bike_id": "2a86bec87e814bc8dedb7930600406b4", "lat": 38.8929135}, {"type": "electric_scooter", "rental_uris": {"android": "https://dc.lft.to/lastmile_qr_scan", "ios": "https://dc.lft.to/lastmile_qr_scan"}, "fusion_lat": 0.0, "name": "dc2a7ed4eb961e7c5e0fc13665f3aa8b", "lon": -77.04658966666666, "is_disabled": 0, "is_reserved": 0, "fusion_lon": 0.0, "bike_id": "dc2a7ed4eb961e7c5e0fc13665f3aa8b", "lat": 38.897356}, {"type": "electric_scooter", "rental_uris": {"android": "https://dc.lft.to/lastmile_qr_scan", "ios": "https://dc.lft.to/lastmile_qr_scan"}, "fusion_lat": 0.0, "name": "3cd5640bf6d7b8d5be83761134165ec3", "lon": -77.03645, "is_disabled": 0, "is_reserved": 0, "fusion_lon": 0.0, "bike_id": "3cd5640bf6d7b8d5be83761134165ec3", "lat": 38.9173715}, {"type": "electric_scooter", "rental_uris": {"android": "https://dc.lft.to/lastmile_qr_scan", "ios": "https://dc.lft.to/lastmile_qr_scan"}, "fusion_lat": 0.0, "name": "1282c537b70887a8cbde7f4cd4e474ae", "lon": -76.99479033333333, "is_disabled": 0, "is_reserved": 0, "fusion_lon": 0.0, "bike_id": "1282c537b70887a8cbde7f4cd4e474ae", "lat": 38.862164}, {"type": "electric_scooter", "rental_uris": {"android": "https://dc.lft.to/lastmile_qr_scan", "ios": "https://dc.lft.to/lastmile_qr_scan"}, "fusion_lat": 0.0, "name": "8d9792aa8ad9383f09e72225e76c70ac", "lon": -76.999343, "is_disabled": 0, "is_reserved": 0, "fusion_lon": 0.0, "bike_id": "8d9792aa8ad9383f09e72225e76c70ac", "lat": 38.8430175}, {"type": "electric_scooter", "rental_uris": {"android": "https://dc.lft.to/lastmile_qr_scan", "ios": "https://dc.lft.to/lastmile_qr_scan"}, "fusion_lat": 0.0, "name": "24b5e3a5d7d298bd6aa0d84ae85e15fc", "lon": -77.02163866666666, "is_disabled": 0, "is_reserved": 0, "fusion_lon": 0.0, "bike_id": "24b5e3a5d7d298bd6aa0d84ae85e15fc", "lat": 38.9261085}, {"type": "electric_scooter", "rental_uris": {"android": "https://dc.lft.to/lastmile_qr_scan", "ios": "https://dc.lft.to/lastmile_qr_scan"}, "fusion_lat": 0.0, "name": "f65b1dc59775db868d715ad038253e4d", "lon": -76.99903016666667, "is_disabled": 0, "is_reserved": 0, "fusion_lon": 0.0, "bike_id": "f65b1dc59775db868d715ad038253e4d", "lat": 38.9481905}, {"type": "electric_scooter", "rental_uris": {"android": "https://dc.lft.to/lastmile_qr_scan", "ios": "https://dc.lft.to/lastmile_qr_scan"}, "fusion_lat": 0.0, "name": "181383014e0505957b21c8e5900b4c00", "lon": -77.05482983333333, "is_disabled": 0, "is_reserved": 0, "fusion_lon": 0.0, "bike_id": "181383014e0505957b21c8e5900b4c00", "lat": 38.8979615}, {"type": "electric_scooter", "rental_uris": {"android": "https://dc.lft.to/lastmile_qr_scan", "ios": "https://dc.lft.to/lastmile_qr_scan"}, "fusion_lat": 0.0, "name": "a77c7286a1fe606133362bbc731aedd1", "lon": -77.00761016666667, "is_disabled": 0, "is_reserved": 0, "fusion_lon": 0.0, "bike_id": "a77c7286a1fe606133362bbc731aedd1", "lat": 38.900515666666664}, {"type": "electric_scooter", "rental_uris": {"android": "https://dc.lft.to/lastmile_qr_scan", "ios": "https://dc.lft.to/lastmile_qr_scan"}, "fusion_lat": 0.0, "name": "c912f502145225354f5b459dcee3070e", "lon": -76.9917115, "is_disabled": 0, "is_reserved": 0, "fusion_lon": 0.0, "bike_id": "c912f502145225354f5b459dcee3070e", "lat": 38.8898715}, {"type": "electric_scooter", "rental_uris": {"android": "https://dc.lft.to/lastmile_qr_scan", "ios": "https://dc.lft.to/lastmile_qr_scan"}, "fusion_lat": 0.0, "name": "b48ac1837b6172ff787d5ac94b509353", "lon": -77.04987983333334, "is_disabled": 0, "is_reserved": 0, "fusion_lon": 0.0, "bike_id": "b48ac1837b6172ff787d5ac94b509353", "lat": 38.896072}, {"type": "electric_scooter", "rental_uris": {"android": "https://dc.lft.to/lastmile_qr_scan", "ios": "https://dc.lft.to/lastmile_qr_scan"}, "fusion_lat": 0.0, "name": "ff6e5bb0e5092f3de427262e48efab0a", "lon": -77.04183966666666, "is_disabled": 0, "is_reserved": 0, "fusion_lon": 0.0, "bike_id": "ff6e5bb0e5092f3de427262e48efab0a", "lat": 38.91655033333333}, {"type": "electric_scooter", "rental_uris": {"android": "https://dc.lft.to/lastmile_qr_scan", "ios": "https://dc.lft.to/lastmile_qr_scan"}, "fusion_lat": 0.0, "name": "45c2bc668ec06ebd9e54e8338c3149e0", "lon": -77.03330966666667, "is_disabled": 0, "is_reserved": 0, "fusion_lon": 0.0, "bike_id": "45c2bc668ec06ebd9e54e8338c3149e0", "lat": 38.928920166666664}, {"type": "electric_bike", "rental_uris": {"android": "https://dc.lft.to/lastmile_qr_scan", "ios": "https://dc.lft.to/lastmile_qr_scan"}, "fusion_lat": 0.0, "name": "cbbf77d3f56c34d8f9ee0802a9bd06f0", "lon": -76.99648533333334, "is_disabled": 0, "is_reserved": 0, "fusion_lon": 0.0, "bike_id": "cbbf77d3f56c34d8f9ee0802a9bd06f0", "lat": 38.98828666666667}, {"type": "electric_scooter", "rental_uris": {"android": "https://dc.lft.to/lastmile_qr_scan", "ios": "https://dc.lft.to/lastmile_qr_scan"}, "fusion_lat": 0.0, "name": "21f4fa5308dbe4b951f877beb9e5d01b", "lon": -77.02325816666666, "is_disabled": 0, "is_reserved": 0, "fusion_lon": 0.0, "bike_id": "21f4fa5308dbe4b951f877beb9e5d01b", "lat": 38.9272455}, {"type": "electric_scooter", "rental_uris": {"android": "https://dc.lft.to/lastmile_qr_scan", "ios": "https://dc.lft.to/lastmile_qr_scan"}, "fusion_lat": 0.0, "name": "7f1ec9556131ffc207545b6557416081", "lon": -77.0481535, "is_disabled": 0, "is_reserved": 0, "fusion_lon": 0.0, "bike_id": "7f1ec9556131ffc207545b6557416081", "lat": 38.904764}, {"type": "electric_scooter", "rental_uris": {"android": "https://dc.lft.to/lastmile_qr_scan", "ios": "https://dc.lft.to/lastmile_qr_scan"}, "fusion_lat": 0.0, "name": "5acb8d0faf33e581ce0b197f3a4e7c48", "lon": -77.047205, "is_disabled": 0, "is_reserved": 0, "fusion_lon": 0.0, "bike_id": "5acb8d0faf33e581ce0b197f3a4e7c48", "lat": 38.905234666666665}, {"type": "electric_scooter", "rental_uris": {"android": "https://dc.lft.to/lastmile_qr_scan", "ios": "https://dc.lft.to/lastmile_qr_scan"}, "fusion_lat": 0.0, "name": "480c4c4fb7573fea078b56c990f68ede", "lon": -77.017737, "is_disabled": 0, "is_reserved": 0, "fusion_lon": 0.0, "bike_id": "480c4c4fb7573fea078b56c990f68ede", "lat": 38.887144666666664}, {"type": "electric_scooter", "rental_uris": {"android": "https://dc.lft.to/lastmile_qr_scan", "ios": "https://dc.lft.to/lastmile_qr_scan"}, "fusion_lat": 0.0, "name": "253a2dd3f17862901ee769a2d7d9b7ac", "lon": -77.04462766666667, "is_disabled": 0, "is_reserved": 0, "fusion_lon": 0.0, "bike_id": "253a2dd3f17862901ee769a2d7d9b7ac", "lat": 38.90966016666667}, {"type": "electric_scooter", "rental_uris": {"android": "https://dc.lft.to/lastmile_qr_scan", "ios": "https://dc.lft.to/lastmile_qr_scan"}, "fusion_lat": 0.0, "name": "d6025692be72375fd4ef81ff6dc5f720", "lon": -77.037742, "is_disabled": 0, "is_reserved": 0, "fusion_lon": 0.0, "bike_id": "d6025692be72375fd4ef81ff6dc5f720", "lat": 38.91708933333334}, {"type": "electric_scooter", "rental_uris": {"android": "https://dc.lft.to/lastmile_qr_scan", "ios": "https://dc.lft.to/lastmile_qr_scan"}, "fusion_lat": 0.0, "name": "bdf177233c1eabe0d3fc0ddecec20be9", "lon": -77.04009883333333, "is_disabled": 0, "is_reserved": 0, "fusion_lon": 0.0, "bike_id": "bdf177233c1eabe0d3fc0ddecec20be9", "lat": 38.909996}, {"type": "electric_scooter", "rental_uris": {"android": "https://dc.lft.to/lastmile_qr_scan", "ios": "https://dc.lft.to/lastmile_qr_scan"}, "fusion_lat": 0.0, "name": "a5492b1637a43beacb2fd026a3859056", "lon": -77.009721, "is_disabled": 0, "is_reserved": 0, "fusion_lon": 0.0, "bike_id": "a5492b1637a43beacb2fd026a3859056", "lat": 38.91184066666667}, {"type": "electric_scooter", "rental_uris": {"android": "https://dc.lft.to/lastmile_qr_scan", "ios": "https://dc.lft.to/lastmile_qr_scan"}, "fusion_lat": 0.0, "name": "d5f9b4bcd201cb871ddfd9d31e2f4443", "lon": -76.98456783333333, "is_disabled": 0, "is_reserved": 0, "fusion_lon": 0.0, "bike_id": "d5f9b4bcd201cb871ddfd9d31e2f4443", "lat": 38.900180166666665}, {"type": "electric_scooter", "rental_uris": {"android": "https://dc.lft.to/lastmile_qr_scan", "ios": "https://dc.lft.to/lastmile_qr_scan"}, "fusion_lat": 0.0, "name": "38271feaff44f2bf6186ab457969dddb", "lon": -77.08501616666666, "is_disabled": 0, "is_reserved": 0, "fusion_lon": 0.0, "bike_id": "38271feaff44f2bf6186ab457969dddb", "lat": 38.959428}, {"type": "electric_scooter", "rental_uris": {"android": "https://dc.lft.to/lastmile_qr_scan", "ios": "https://dc.lft.to/lastmile_qr_scan"}, "fusion_lat": 0.0, "name": "af2eabb4e47a02e1f5ea5101444dacfb", "lon": -77.03874033333334, "is_disabled": 0, "is_reserved": 0, "fusion_lon": 0.0, "bike_id": "af2eabb4e47a02e1f5ea5101444dacfb", "lat": 38.9033715}, {"type": "electric_scooter", "rental_uris": {"android": "https://dc.lft.to/lastmile_qr_scan", "ios": "https://dc.lft.to/lastmile_qr_scan"}, "fusion_lat": 0.0, "name": "3a0599f1bbdbc73cadd196ab07dc6532", "lon": -77.007547, "is_disabled": 0, "is_reserved": 0, "fusion_lon": 0.0, "bike_id": "3a0599f1bbdbc73cadd196ab07dc6532", "lat": 38.89842683333333}, {"type": "electric_scooter", "rental_uris": {"android": "https://dc.lft.to/lastmile_qr_scan", "ios": "https://dc.lft.to/lastmile_qr_scan"}, "fusion_lat": 0.0, "name": "44946a4af5c517772d6d9076bf59813f", "lon": -77.01816533333333, "is_disabled": 0, "is_reserved": 0, "fusion_lon": 0.0, "bike_id": "44946a4af5c517772d6d9076bf59813f", "lat": 38.923687}, {"type": "electric_scooter", "rental_uris": {"android": "https://dc.lft.to/lastmile_qr_scan", "ios": "https://dc.lft.to/lastmile_qr_scan"}, "fusion_lat": 0.0, "name": "2994e4785ea8736dc8b0bbed1093806e", "lon": -77.071371, "is_disabled": 0, "is_reserved": 0, "fusion_lon": 0.0, "bike_id": "2994e4785ea8736dc8b0bbed1093806e", "lat": 38.958376666666666}, {"type": "electric_scooter", "rental_uris": {"android": "https://dc.lft.to/lastmile_qr_scan", "ios": "https://dc.lft.to/lastmile_qr_scan"}, "fusion_lat": 0.0, "name": "6e5c6416c591ef935c9dcd353056fa4f", "lon": -77.03174983333334, "is_disabled": 0, "is_reserved": 0, "fusion_lon": 0.0, "bike_id": "6e5c6416c591ef935c9dcd353056fa4f", "lat": 38.91553016666667}, {"type": "electric_scooter", "rental_uris": {"android": "https://dc.lft.to/lastmile_qr_scan", "ios": "https://dc.lft.to/lastmile_qr_scan"}, "fusion_lat": 0.0, "name": "50827193702d70348aa9960c2597fa64", "lon": -77.00196716666666, "is_disabled": 0, "is_reserved": 0, "fusion_lon": 0.0, "bike_id": "50827193702d70348aa9960c2597fa64", "lat": 38.88682383333333}, {"type": "electric_scooter", "rental_uris": {"android": "https://dc.lft.to/lastmile_qr_scan", "ios": "https://dc.lft.to/lastmile_qr_scan"}, "fusion_lat": 0.0, "name": "2aa5c60fd800858ca0530d17f884f103", "lon": -77.04346683333333, "is_disabled": 0, "is_reserved": 0, "fusion_lon": 0.0, "bike_id": "2aa5c60fd800858ca0530d17f884f103", "lat": 38.912993166666666}, {"type": "electric_scooter", "rental_uris": {"android": "https://dc.lft.to/lastmile_qr_scan", "ios": "https://dc.lft.to/lastmile_qr_scan"}, "fusion_lat": 0.0, "name": "f1ee4fcbc55fd4e8a0e63f6bb70fb81f", "lon": -77.01224816666667, "is_disabled": 0, "is_reserved": 0, "fusion_lon": 0.0, "bike_id": "f1ee4fcbc55fd4e8a0e63f6bb70fb81f", "lat": 38.90737566666667}, {"type": "electric_scooter", "rental_uris": {"android": "https://dc.lft.to/lastmile_qr_scan", "ios": "https://dc.lft.to/lastmile_qr_scan"}, "fusion_lat": 0.0, "name": "f7e253d1a36a208693078974afd3f80b", "lon": -77.03791783333334, "is_disabled": 0, "is_reserved": 0, "fusion_lon": 0.0, "bike_id": "f7e253d1a36a208693078974afd3f80b", "lat": 38.925003833333335}, {"type": "electric_scooter", "rental_uris": {"android": "https://dc.lft.to/lastmile_qr_scan", "ios": "https://dc.lft.to/lastmile_qr_scan"}, "fusion_lat": 0.0, "name": "4c9287f5ab448aca94389d4e06f4f168", "lon": -77.04549516666667, "is_disabled": 0, "is_reserved": 0, "fusion_lon": 0.0, "bike_id": "4c9287f5ab448aca94389d4e06f4f168", "lat": 38.9096745}, {"type": "electric_scooter", "rental_uris": {"android": "https://dc.lft.to/lastmile_qr_scan", "ios": "https://dc.lft.to/lastmile_qr_scan"}, "fusion_lat": 0.0, "name": "573f64af4e18eea1d3e714cbab1776df", "lon": -77.022768, "is_disabled": 0, "is_reserved": 0, "fusion_lon": 0.0, "bike_id": "573f64af4e18eea1d3e714cbab1776df", "lat": 38.915643333333335}, {"type": "electric_scooter", "rental_uris": {"android": "https://dc.lft.to/lastmile_qr_scan", "ios": "https://dc.lft.to/lastmile_qr_scan"}, "fusion_lat": 0.0, "name": "b395e5c23a88510f0cbd941867309a00", "lon": -77.04141516666667, "is_disabled": 0, "is_reserved": 0, "fusion_lon": 0.0, "bike_id": "b395e5c23a88510f0cbd941867309a00", "lat": 38.91684466666667}, {"type": "electric_scooter", "rental_uris": {"android": "https://dc.lft.to/lastmile_qr_scan", "ios": "https://dc.lft.to/lastmile_qr_scan"}, "fusion_lat": 0.0, "name": "4ac16ef40f7c5ea7b1a74d3e5abc2fd2", "lon": -77.024, "is_disabled": 0, "is_reserved": 0, "fusion_lon": 0.0, "bike_id": "4ac16ef40f7c5ea7b1a74d3e5abc2fd2", "lat": 38.9329695}, {"type": "electric_scooter", "rental_uris": {"android": "https://dc.lft.to/lastmile_qr_scan", "ios": "https://dc.lft.to/lastmile_qr_scan"}, "fusion_lat": 0.0, "name": "ffaba4b00d1688c8ef3824f2450c2c63", "lon": -77.009331, "is_disabled": 0, "is_reserved": 0, "fusion_lon": 0.0, "bike_id": "ffaba4b00d1688c8ef3824f2450c2c63", "lat": 38.91836216666667}, {"type": "electric_scooter", "rental_uris": {"android": "https://dc.lft.to/lastmile_qr_scan", "ios": "https://dc.lft.to/lastmile_qr_scan"}, "fusion_lat": 0.0, "name": "47426db68fbde46c5b728fb3ae0d9a34", "lon": -77.059387, "is_disabled": 0, "is_reserved": 0, "fusion_lon": 0.0, "bike_id": "47426db68fbde46c5b728fb3ae0d9a34", "lat": 38.92898533333333}, {"type": "electric_scooter", "rental_uris": {"android": "https://dc.lft.to/lastmile_qr_scan", "ios": "https://dc.lft.to/lastmile_qr_scan"}, "fusion_lat": 0.0, "name": "8fe55e5c123d2f0fdce57ed6e0cc5baa", "lon": -76.99937733333333, "is_disabled": 0, "is_reserved": 0, "fusion_lon": 0.0, "bike_id": "8fe55e5c123d2f0fdce57ed6e0cc5baa", "lat": 38.8430145}, {"type": "electric_scooter", "rental_uris": {"android": "https://dc.lft.to/lastmile_qr_scan", "ios": "https://dc.lft.to/lastmile_qr_scan"}, "fusion_lat": 0.0, "name": "3f4b49c397b1f73567014929b48a8bd7", "lon": -76.94873383333334, "is_disabled": 0, "is_reserved": 0, "fusion_lon": 0.0, "bike_id": "3f4b49c397b1f73567014929b48a8bd7", "lat": 38.895485666666666}, {"type": "electric_scooter", "rental_uris": {"android": "https://dc.lft.to/lastmile_qr_scan", "ios": "https://dc.lft.to/lastmile_qr_scan"}, "fusion_lat": 0.0, "name": "519ea3cea37c73c7afafb016c90d26f9", "lon": -77.0034365, "is_disabled": 0, "is_reserved": 0, "fusion_lon": 0.0, "bike_id": "519ea3cea37c73c7afafb016c90d26f9", "lat": 38.895243666666666}, {"type": "electric_scooter", "rental_uris": {"android": "https://dc.lft.to/lastmile_qr_scan", "ios": "https://dc.lft.to/lastmile_qr_scan"}, "fusion_lat": 0.0, "name": "34861a59ff9e29840b3a0a54656d0f79", "lon": -77.04746033333333, "is_disabled": 0, "is_reserved": 0, "fusion_lon": 0.0, "bike_id": "34861a59ff9e29840b3a0a54656d0f79", "lat": 38.90534983333333}, {"type": "electric_bike", "rental_uris": {"android": "https://dc.lft.to/lastmile_qr_scan", "ios": "https://dc.lft.to/lastmile_qr_scan"}, "fusion_lat": 0.0, "name": "6be38c3926dd4336fc7b41a43ccd2008", "lon": -76.993715, "is_disabled": 0, "is_reserved": 0, "fusion_lon": 0.0, "bike_id": "6be38c3926dd4336fc7b41a43ccd2008", "lat": 38.9718585}, {"type": "electric_scooter", "rental_uris": {"android": "https://dc.lft.to/lastmile_qr_scan", "ios": "https://dc.lft.to/lastmile_qr_scan"}, "fusion_lat": 0.0, "name": "e1abb67069ae24cbc25621fe603720af", "lon": -77.01862, "is_disabled": 0, "is_reserved": 0, "fusion_lon": 0.0, "bike_id": "e1abb67069ae24cbc25621fe603720af", "lat": 38.973712166666665}, {"type": "electric_scooter", "rental_uris": {"android": "https://dc.lft.to/lastmile_qr_scan", "ios": "https://dc.lft.to/lastmile_qr_scan"}, "fusion_lat": 0.0, "name": "873ae4433ddebcb3a38030b30cb5cb28", "lon": -77.041995, "is_disabled": 0, "is_reserved": 0, "fusion_lon": 0.0, "bike_id": "873ae4433ddebcb3a38030b30cb5cb28", "lat": 38.91970833333333}, {"type": "electric_scooter", "rental_uris": {"android": "https://dc.lft.to/lastmile_qr_scan", "ios": "https://dc.lft.to/lastmile_qr_scan"}, "fusion_lat": 0.0, "name": "64830f1a9aefcb8c531b93c5c4699b0f", "lon": -77.03157883333333, "is_disabled": 0, "is_reserved": 0, "fusion_lon": 0.0, "bike_id": "64830f1a9aefcb8c531b93c5c4699b0f", "lat": 38.93604666666667}, {"type": "electric_scooter", "rental_uris": {"android": "https://dc.lft.to/lastmile_qr_scan", "ios": "https://dc.lft.to/lastmile_qr_scan"}, "fusion_lat": 0.0, "name": "504be8e43d17f130da97f3b6a7b4ea48", "lon": -77.0629035, "is_disabled": 0, "is_reserved": 0, "fusion_lon": 0.0, "bike_id": "504be8e43d17f130da97f3b6a7b4ea48", "lat": 38.90585866666667}, {"type": "electric_scooter", "rental_uris": {"android": "https://dc.lft.to/lastmile_qr_scan", "ios": "https://dc.lft.to/lastmile_qr_scan"}, "fusion_lat": 0.0, "name": "bf510ccc601109b52c68c17ebb0afeb1", "lon": -77.01075116666667, "is_disabled": 0, "is_reserved": 0, "fusion_lon": 0.0, "bike_id": "bf510ccc601109b52c68c17ebb0afeb1", "lat": 38.91769516666667}, {"type": "electric_scooter", "rental_uris": {"android": "https://dc.lft.to/lastmile_qr_scan", "ios": "https://dc.lft.to/lastmile_qr_scan"}, "fusion_lat": 0.0, "name": "83bb6f9ce5926cb5e0d9761f6f378187", "lon": -77.0321025, "is_disabled": 0, "is_reserved": 0, "fusion_lon": 0.0, "bike_id": "83bb6f9ce5926cb5e0d9761f6f378187", "lat": 38.908479}, {"type": "electric_scooter", "rental_uris": {"android": "https://dc.lft.to/lastmile_qr_scan", "ios": "https://dc.lft.to/lastmile_qr_scan"}, "fusion_lat": 0.0, "name": "09827a82fe8e448b469a7102e2a2535b", "lon": -77.02549933333333, "is_disabled": 0, "is_reserved": 0, "fusion_lon": 0.0, "bike_id": "09827a82fe8e448b469a7102e2a2535b", "lat": 38.941403}, {"type": "electric_scooter", "rental_uris": {"android": "https://dc.lft.to/lastmile_qr_scan", "ios": "https://dc.lft.to/lastmile_qr_scan"}, "fusion_lat": 0.0, "name": "988836e2498712b274b2511ef787a72c", "lon": -76.99630016666667, "is_disabled": 0, "is_reserved": 0, "fusion_lon": 0.0, "bike_id": "988836e2498712b274b2511ef787a72c", "lat": 38.90012633333333}, {"type": "electric_bike", "rental_uris": {"android": "https://dc.lft.to/lastmile_qr_scan", "ios": "https://dc.lft.to/lastmile_qr_scan"}, "fusion_lat": 0.0, "name": "b70f3e31ef9b58e4f7553a3ee83f2cd6", "lon": -77.06333933333333, "is_disabled": 0, "is_reserved": 0, "fusion_lon": 0.0, "bike_id": "b70f3e31ef9b58e4f7553a3ee83f2cd6", "lat": 38.92097116666667}, {"type": "electric_scooter", "rental_uris": {"android": "https://dc.lft.to/lastmile_qr_scan", "ios": "https://dc.lft.to/lastmile_qr_scan"}, "fusion_lat": 0.0, "name": "6fedacbf55b0b2c7a48c1312e4152347", "lon": -76.9973245, "is_disabled": 0, "is_reserved": 0, "fusion_lon": 0.0, "bike_id": "6fedacbf55b0b2c7a48c1312e4152347", "lat": 38.90008983333333}, {"type": "electric_scooter", "rental_uris": {"android": "https://dc.lft.to/lastmile_qr_scan", "ios": "https://dc.lft.to/lastmile_qr_scan"}, "fusion_lat": 0.0, "name": "b2e252daf1751b16bd1887e2af28daf1", "lon": -77.026332, "is_disabled": 0, "is_reserved": 0, "fusion_lon": 0.0, "bike_id": "b2e252daf1751b16bd1887e2af28daf1", "lat": 38.926762333333336}, {"type": "electric_scooter", "rental_uris": {"android": "https://dc.lft.to/lastmile_qr_scan", "ios": "https://dc.lft.to/lastmile_qr_scan"}, "fusion_lat": 0.0, "name": "4e9981544a214c8695933ec9655bd704", "lon": -77.03985033333333, "is_disabled": 0, "is_reserved": 0, "fusion_lon": 0.0, "bike_id": "4e9981544a214c8695933ec9655bd704", "lat": 38.899188333333335}, {"type": "electric_bike", "rental_uris": {"android": "https://dc.lft.to/lastmile_qr_scan", "ios": "https://dc.lft.to/lastmile_qr_scan"}, "fusion_lat": 0.0, "name": "c7db7760e888472b01bb18731938e981", "lon": -77.09594033333333, "is_disabled": 0, "is_reserved": 0, "fusion_lon": 0.0, "bike_id": "c7db7760e888472b01bb18731938e981", "lat": 39.028926166666665}, {"type": "electric_scooter", "rental_uris": {"android": "https://dc.lft.to/lastmile_qr_scan", "ios": "https://dc.lft.to/lastmile_qr_scan"}, "fusion_lat": 0.0, "name": "2bb99d3547f7be5fafe4b1e5dd491906", "lon": -77.01844983333334, "is_disabled": 0, "is_reserved": 0, "fusion_lon": 0.0, "bike_id": "2bb99d3547f7be5fafe4b1e5dd491906", "lat": 38.949968}, {"type": "electric_scooter", "rental_uris": {"android": "https://dc.lft.to/lastmile_qr_scan", "ios": "https://dc.lft.to/lastmile_qr_scan"}, "fusion_lat": 0.0, "name": "9340c6f6bf18bb8b5bfa21872e032fab", "lon": -77.0062095, "is_disabled": 0, "is_reserved": 0, "fusion_lon": 0.0, "bike_id": "9340c6f6bf18bb8b5bfa21872e032fab", "lat": 38.908207166666664}, {"type": "electric_scooter", "rental_uris": {"android": "https://dc.lft.to/lastmile_qr_scan", "ios": "https://dc.lft.to/lastmile_qr_scan"}, "fusion_lat": 0.0, "name": "b32b65746da9abad373122edf1eaff96", "lon": -77.05620816666666, "is_disabled": 0, "is_reserved": 0, "fusion_lon": 0.0, "bike_id": "b32b65746da9abad373122edf1eaff96", "lat": 38.960739833333335}, {"type": "electric_scooter", "rental_uris": {"android": "https://dc.lft.to/lastmile_qr_scan", "ios": "https://dc.lft.to/lastmile_qr_scan"}, "fusion_lat": 0.0, "name": "bfcd20ffc82de380729f4cc84aec0abc", "lon": -77.02679383333333, "is_disabled": 0, "is_reserved": 0, "fusion_lon": 0.0, "bike_id": "bfcd20ffc82de380729f4cc84aec0abc", "lat": 38.9483505}, {"type": "electric_bike", "rental_uris": {"android": "https://dc.lft.to/lastmile_qr_scan", "ios": "https://dc.lft.to/lastmile_qr_scan"}, "fusion_lat": 0.0, "name": "4205d30851d225038f1db50dd230dcc5", "lon": -77.1310325, "is_disabled": 0, "is_reserved": 0, "fusion_lon": 0.0, "bike_id": "4205d30851d225038f1db50dd230dcc5", "lat": 39.02438383333333}, {"type": "electric_scooter", "rental_uris": {"android": "https://dc.lft.to/lastmile_qr_scan", "ios": "https://dc.lft.to/lastmile_qr_scan"}, "fusion_lat": 0.0, "name": "a840141d44955a00dd471c5b2bca3116", "lon": -77.033113, "is_disabled": 0, "is_reserved": 0, "fusion_lon": 0.0, "bike_id": "a840141d44955a00dd471c5b2bca3116", "lat": 38.916917}, {"type": "electric_scooter", "rental_uris": {"android": "https://dc.lft.to/lastmile_qr_scan", "ios": "https://dc.lft.to/lastmile_qr_scan"}, "fusion_lat": 0.0, "name": "30f259507c4b78634fe8f96f569ab73e", "lon": -77.04533833333333, "is_disabled": 0, "is_reserved": 0, "fusion_lon": 0.0, "bike_id": "30f259507c4b78634fe8f96f569ab73e", "lat": 38.900669666666666}, {"type": "electric_scooter", "rental_uris": {"android": "https://dc.lft.to/lastmile_qr_scan", "ios": "https://dc.lft.to/lastmile_qr_scan"}, "fusion_lat": 0.0, "name": "3ff78bf3c918bbc86947884e0eda85b2", "lon": -76.99529916666667, "is_disabled": 0, "is_reserved": 0, "fusion_lon": 0.0, "bike_id": "3ff78bf3c918bbc86947884e0eda85b2", "lat": 38.8775955}, {"type": "electric_scooter", "rental_uris": {"android": "https://dc.lft.to/lastmile_qr_scan", "ios": "https://dc.lft.to/lastmile_qr_scan"}, "fusion_lat": 0.0, "name": "ce0c95c74e9eb8d9b750a2f3901ff69e", "lon": -77.03223783333334, "is_disabled": 0, "is_reserved": 0, "fusion_lon": 0.0, "bike_id": "ce0c95c74e9eb8d9b750a2f3901ff69e", "lat": 38.914037666666665}, {"type": "electric_scooter", "rental_uris": {"android": "https://dc.lft.to/lastmile_qr_scan", "ios": "https://dc.lft.to/lastmile_qr_scan"}, "fusion_lat": 0.0, "name": "a1ae6dade21f1b879bb4a2f1f78d3a23", "lon": -77.04349383333333, "is_disabled": 0, "is_reserved": 0, "fusion_lon": 0.0, "bike_id": "a1ae6dade21f1b879bb4a2f1f78d3a23", "lat": 38.92129583333333}, {"type": "electric_scooter", "rental_uris": {"android": "https://dc.lft.to/lastmile_qr_scan", "ios": "https://dc.lft.to/lastmile_qr_scan"}, "fusion_lat": 0.0, "name": "7f2736c428a52fde56275d04f61cd8b4", "lon": -77.01117083333334, "is_disabled": 0, "is_reserved": 0, "fusion_lon": 0.0, "bike_id": "7f2736c428a52fde56275d04f61cd8b4", "lat": 38.885513}, {"type": "electric_scooter", "rental_uris": {"android": "https://dc.lft.to/lastmile_qr_scan", "ios": "https://dc.lft.to/lastmile_qr_scan"}, "fusion_lat": 0.0, "name": "e3fce20bf997700897ad89ff4c5fffe2", "lon": -77.039294, "is_disabled": 0, "is_reserved": 0, "fusion_lon": 0.0, "bike_id": "e3fce20bf997700897ad89ff4c5fffe2", "lat": 38.921156}, {"type": "electric_scooter", "rental_uris": {"android": "https://dc.lft.to/lastmile_qr_scan", "ios": "https://dc.lft.to/lastmile_qr_scan"}, "fusion_lat": 0.0, "name": "fdb2e50369ef10d9c48da1dc2309d02d", "lon": -77.06593483333333, "is_disabled": 0, "is_reserved": 0, "fusion_lon": 0.0, "bike_id": "fdb2e50369ef10d9c48da1dc2309d02d", "lat": 38.90353283333334}, {"type": "electric_scooter", "rental_uris": {"android": "https://dc.lft.to/lastmile_qr_scan", "ios": "https://dc.lft.to/lastmile_qr_scan"}, "fusion_lat": 0.0, "name": "15234f3fd51f32c3b4615285650f66dd", "lon": -77.01756666666667, "is_disabled": 0, "is_reserved": 0, "fusion_lon": 0.0, "bike_id": "15234f3fd51f32c3b4615285650f66dd", "lat": 38.885952333333336}, {"type": "electric_scooter", "rental_uris": {"android": "https://dc.lft.to/lastmile_qr_scan", "ios": "https://dc.lft.to/lastmile_qr_scan"}, "fusion_lat": 0.0, "name": "c39f1da3d2267169380ca52fcb0515d1", "lon": -77.0153015, "is_disabled": 0, "is_reserved": 0, "fusion_lon": 0.0, "bike_id": "c39f1da3d2267169380ca52fcb0515d1", "lat": 38.88737916666667}, {"type": "electric_scooter", "rental_uris": {"android": "https://dc.lft.to/lastmile_qr_scan", "ios": "https://dc.lft.to/lastmile_qr_scan"}, "fusion_lat": 0.0, "name": "c628e334d900c6c864243bdb928e314d", "lon": -77.00599766666667, "is_disabled": 0, "is_reserved": 0, "fusion_lon": 0.0, "bike_id": "c628e334d900c6c864243bdb928e314d", "lat": 38.885209333333336}, {"type": "electric_scooter", "rental_uris": {"android": "https://dc.lft.to/lastmile_qr_scan", "ios": "https://dc.lft.to/lastmile_qr_scan"}, "fusion_lat": 0.0, "name": "9476b3d498fa68cbe77f21a903c26386", "lon": -77.0152145, "is_disabled": 0, "is_reserved": 0, "fusion_lon": 0.0, "bike_id": "9476b3d498fa68cbe77f21a903c26386", "lat": 38.89243466666667}, {"type": "electric_scooter", "rental_uris": {"android": "https://dc.lft.to/lastmile_qr_scan", "ios": "https://dc.lft.to/lastmile_qr_scan"}, "fusion_lat": 0.0, "name": "d9fe26faac90427edcc5edfbeaa82bb6", "lon": -77.04232883333333, "is_disabled": 0, "is_reserved": 0, "fusion_lon": 0.0, "bike_id": "d9fe26faac90427edcc5edfbeaa82bb6", "lat": 38.92168}, {"type": "electric_scooter", "rental_uris": {"android": "https://dc.lft.to/lastmile_qr_scan", "ios": "https://dc.lft.to/lastmile_qr_scan"}, "fusion_lat": 0.0, "name": "cdf4393ef1bdb22746a59a69fc343071", "lon": -77.04483066666667, "is_disabled": 0, "is_reserved": 0, "fusion_lon": 0.0, "bike_id": "cdf4393ef1bdb22746a59a69fc343071", "lat": 38.91103416666667}, {"type": "electric_bike", "rental_uris": {"android": "https://dc.lft.to/lastmile_qr_scan", "ios": "https://dc.lft.to/lastmile_qr_scan"}, "fusion_lat": 0.0, "name": "5e39040e784783cbafc10ce0db934f73", "lon": -76.997959, "is_disabled": 0, "is_reserved": 0, "fusion_lon": 0.0, "bike_id": "5e39040e784783cbafc10ce0db934f73", "lat": 38.95090916666667}, {"type": "electric_scooter", "rental_uris": {"android": "https://dc.lft.to/lastmile_qr_scan", "ios": "https://dc.lft.to/lastmile_qr_scan"}, "fusion_lat": 0.0, "name": "e77709a49c1a21faa0c7a1af47287acc", "lon": -77.03190283333333, "is_disabled": 0, "is_reserved": 0, "fusion_lon": 0.0, "bike_id": "e77709a49c1a21faa0c7a1af47287acc", "lat": 38.9210585}, {"type": "electric_scooter", "rental_uris": {"android": "https://dc.lft.to/lastmile_qr_scan", "ios": "https://dc.lft.to/lastmile_qr_scan"}, "fusion_lat": 0.0, "name": "4409822729777db5e2623a26659574ff", "lon": -77.0438805, "is_disabled": 0, "is_reserved": 0, "fusion_lon": 0.0, "bike_id": "4409822729777db5e2623a26659574ff", "lat": 38.916637333333334}, {"type": "electric_scooter", "rental_uris": {"android": "https://dc.lft.to/lastmile_qr_scan", "ios": "https://dc.lft.to/lastmile_qr_scan"}, "fusion_lat": 0.0, "name": "1660241a928a0dffcc0c49f6afa19411", "lon": -77.04384683333333, "is_disabled": 0, "is_reserved": 0, "fusion_lon": 0.0, "bike_id": "1660241a928a0dffcc0c49f6afa19411", "lat": 38.921117833333334}, {"type": "electric_scooter", "rental_uris": {"android": "https://dc.lft.to/lastmile_qr_scan", "ios": "https://dc.lft.to/lastmile_qr_scan"}, "fusion_lat": 0.0, "name": "a633b408924a621f10dcb185db925634", "lon": -77.02981283333334, "is_disabled": 0, "is_reserved": 0, "fusion_lon": 0.0, "bike_id": "a633b408924a621f10dcb185db925634", "lat": 38.916812}, {"type": "electric_scooter", "rental_uris": {"android": "https://dc.lft.to/lastmile_qr_scan", "ios": "https://dc.lft.to/lastmile_qr_scan"}, "fusion_lat": 0.0, "name": "7fa6a55f947122fb4d880988a09413d0", "lon": -77.04570316666667, "is_disabled": 0, "is_reserved": 0, "fusion_lon": 0.0, "bike_id": "7fa6a55f947122fb4d880988a09413d0", "lat": 38.897499}, {"type": "electric_scooter", "rental_uris": {"android": "https://dc.lft.to/lastmile_qr_scan", "ios": "https://dc.lft.to/lastmile_qr_scan"}, "fusion_lat": 0.0, "name": "e78d1268e368ecb5278b04085c5b6a4a", "lon": -77.036151, "is_disabled": 0, "is_reserved": 0, "fusion_lon": 0.0, "bike_id": "e78d1268e368ecb5278b04085c5b6a4a", "lat": 38.917232166666665}, {"type": "electric_bike", "rental_uris": {"android": "https://dc.lft.to/lastmile_qr_scan", "ios": "https://dc.lft.to/lastmile_qr_scan"}, "fusion_lat": 0.0, "name": "c5372bead166e7372f53ddcf125ee46d", "lon": -77.02523316666667, "is_disabled": 0, "is_reserved": 0, "fusion_lon": 0.0, "bike_id": "c5372bead166e7372f53ddcf125ee46d", "lat": 38.88040633333333}, {"type": "electric_scooter", "rental_uris": {"android": "https://dc.lft.to/lastmile_qr_scan", "ios": "https://dc.lft.to/lastmile_qr_scan"}, "fusion_lat": 0.0, "name": "4cab2d43d76ec79e8761de08d4868444", "lon": -77.01947766666666, "is_disabled": 0, "is_reserved": 0, "fusion_lon": 0.0, "bike_id": "4cab2d43d76ec79e8761de08d4868444", "lat": 38.902569666666665}, {"type": "electric_scooter", "rental_uris": {"android": "https://dc.lft.to/lastmile_qr_scan", "ios": "https://dc.lft.to/lastmile_qr_scan"}, "fusion_lat": 0.0, "name": "6972e90e410a176526c24649b8d65775", "lon": -77.03232366666667, "is_disabled": 0, "is_reserved": 0, "fusion_lon": 0.0, "bike_id": "6972e90e410a176526c24649b8d65775", "lat": 38.928709166666664}, {"type": "electric_scooter", "rental_uris": {"android": "https://dc.lft.to/lastmile_qr_scan", "ios": "https://dc.lft.to/lastmile_qr_scan"}, "fusion_lat": 0.0, "name": "d47dd20b25956c62ae14384b731703b2", "lon": -77.046262, "is_disabled": 0, "is_reserved": 0, "fusion_lon": 0.0, "bike_id": "d47dd20b25956c62ae14384b731703b2", "lat": 38.91527883333333}, {"type": "electric_scooter", "rental_uris": {"android": "https://dc.lft.to/lastmile_qr_scan", "ios": "https://dc.lft.to/lastmile_qr_scan"}, "fusion_lat": 0.0, "name": "9683f1ad77dee1e40d0ae1c559f03d60", "lon": -77.02381483333333, "is_disabled": 0, "is_reserved": 0, "fusion_lon": 0.0, "bike_id": "9683f1ad77dee1e40d0ae1c559f03d60", "lat": 38.919955}, {"type": "electric_scooter", "rental_uris": {"android": "https://dc.lft.to/lastmile_qr_scan", "ios": "https://dc.lft.to/lastmile_qr_scan"}, "fusion_lat": 0.0, "name": "d26952259dade999592933c1e17d89ca", "lon": -77.0257895, "is_disabled": 0, "is_reserved": 0, "fusion_lon": 0.0, "bike_id": "d26952259dade999592933c1e17d89ca", "lat": 38.920281}, {"type": "electric_scooter", "rental_uris": {"android": "https://dc.lft.to/lastmile_qr_scan", "ios": "https://dc.lft.to/lastmile_qr_scan"}, "fusion_lat": 0.0, "name": "515d41ad9db8ace1f3b4e335a56acf1b", "lon": -77.04107783333333, "is_disabled": 0, "is_reserved": 0, "fusion_lon": 0.0, "bike_id": "515d41ad9db8ace1f3b4e335a56acf1b", "lat": 38.92513733333333}, {"type": "electric_bike", "rental_uris": {"android": "https://dc.lft.to/lastmile_qr_scan", "ios": "https://dc.lft.to/lastmile_qr_scan"}, "fusion_lat": 0.0, "name": "6ee5c02e2e51f0779de1bbcd0a7810d1", "lon": -77.1159175, "is_disabled": 0, "is_reserved": 0, "fusion_lon": 0.0, "bike_id": "6ee5c02e2e51f0779de1bbcd0a7810d1", "lat": 39.074942166666666}, {"type": "electric_scooter", "rental_uris": {"android": "https://dc.lft.to/lastmile_qr_scan", "ios": "https://dc.lft.to/lastmile_qr_scan"}, "fusion_lat": 0.0, "name": "5c72fea2846fd81bdef504e1aed93057", "lon": -77.022015, "is_disabled": 0, "is_reserved": 0, "fusion_lon": 0.0, "bike_id": "5c72fea2846fd81bdef504e1aed93057", "lat": 38.91422766666667}, {"type": "electric_bike", "rental_uris": {"android": "https://dc.lft.to/lastmile_qr_scan", "ios": "https://dc.lft.to/lastmile_qr_scan"}, "fusion_lat": 0.0, "name": "94320151961dd4b84cb97d6772f7ea9f", "lon": -77.03761116666666, "is_disabled": 0, "is_reserved": 0, "fusion_lon": 0.0, "bike_id": "94320151961dd4b84cb97d6772f7ea9f", "lat": 38.939748333333334}, {"type": "electric_scooter", "rental_uris": {"android": "https://dc.lft.to/lastmile_qr_scan", "ios": "https://dc.lft.to/lastmile_qr_scan"}, "fusion_lat": 0.0, "name": "092efbd6abd64935849c0d87cc4b1b2d", "lon": -77.000546, "is_disabled": 0, "is_reserved": 0, "fusion_lon": 0.0, "bike_id": "092efbd6abd64935849c0d87cc4b1b2d", "lat": 38.917328833333336}, {"type": "electric_scooter", "rental_uris": {"android": "https://dc.lft.to/lastmile_qr_scan", "ios": "https://dc.lft.to/lastmile_qr_scan"}, "fusion_lat": 0.0, "name": "e3dd3a8f0fa2710c990035ce06e7ad93", "lon": -77.0235065, "is_disabled": 0, "is_reserved": 0, "fusion_lon": 0.0, "bike_id": "e3dd3a8f0fa2710c990035ce06e7ad93", "lat": 38.899718666666665}, {"type": "electric_scooter", "rental_uris": {"android": "https://dc.lft.to/lastmile_qr_scan", "ios": "https://dc.lft.to/lastmile_qr_scan"}, "fusion_lat": 0.0, "name": "037bc625cdd00f45973a43ad7dc6b02c", "lon": -77.03200933333333, "is_disabled": 0, "is_reserved": 0, "fusion_lon": 0.0, "bike_id": "037bc625cdd00f45973a43ad7dc6b02c", "lat": 38.915343166666666}, {"type": "electric_scooter", "rental_uris": {"android": "https://dc.lft.to/lastmile_qr_scan", "ios": "https://dc.lft.to/lastmile_qr_scan"}, "fusion_lat": 0.0, "name": "e3508cdb188426f997deb01320624ca0", "lon": -77.02321533333334, "is_disabled": 0, "is_reserved": 0, "fusion_lon": 0.0, "bike_id": "e3508cdb188426f997deb01320624ca0", "lat": 38.95529883333333}, {"type": "electric_scooter", "rental_uris": {"android": "https://dc.lft.to/lastmile_qr_scan", "ios": "https://dc.lft.to/lastmile_qr_scan"}, "fusion_lat": 0.0, "name": "f2b545b6ee5de4b0f6e783f5ecba6f85", "lon": -77.04866816666667, "is_disabled": 0, "is_reserved": 0, "fusion_lon": 0.0, "bike_id": "f2b545b6ee5de4b0f6e783f5ecba6f85", "lat": 38.892228}, {"type": "electric_scooter", "rental_uris": {"android": "https://dc.lft.to/lastmile_qr_scan", "ios": "https://dc.lft.to/lastmile_qr_scan"}, "fusion_lat": 0.0, "name": "d0b2e068df15a704c4952b17bfe17181", "lon": -77.0408465, "is_disabled": 0, "is_reserved": 0, "fusion_lon": 0.0, "bike_id": "d0b2e068df15a704c4952b17bfe17181", "lat": 38.90714633333333}, {"type": "electric_scooter", "rental_uris": {"android": "https://dc.lft.to/lastmile_qr_scan", "ios": "https://dc.lft.to/lastmile_qr_scan"}, "fusion_lat": 0.0, "name": "6a400d8fa2f72c5385e307869edbdadf", "lon": -77.0266705, "is_disabled": 0, "is_reserved": 0, "fusion_lon": 0.0, "bike_id": "6a400d8fa2f72c5385e307869edbdadf", "lat": 38.896357}, {"type": "electric_scooter", "rental_uris": {"android": "https://dc.lft.to/lastmile_qr_scan", "ios": "https://dc.lft.to/lastmile_qr_scan"}, "fusion_lat": 0.0, "name": "d597f214e113a03bb146fc0451459994", "lon": -77.028356, "is_disabled": 0, "is_reserved": 0, "fusion_lon": 0.0, "bike_id": "d597f214e113a03bb146fc0451459994", "lat": 38.916946333333335}, {"type": "electric_scooter", "rental_uris": {"android": "https://dc.lft.to/lastmile_qr_scan", "ios": "https://dc.lft.to/lastmile_qr_scan"}, "fusion_lat": 0.0, "name": "57e373fce68121ce35dca9027f804d15", "lon": -77.02971716666667, "is_disabled": 0, "is_reserved": 0, "fusion_lon": 0.0, "bike_id": "57e373fce68121ce35dca9027f804d15", "lat": 38.940487}, {"type": "electric_scooter", "rental_uris": {"android": "https://dc.lft.to/lastmile_qr_scan", "ios": "https://dc.lft.to/lastmile_qr_scan"}, "fusion_lat": 0.0, "name": "8b51936d90cecf84a575797599d1a6b7", "lon": -77.034148, "is_disabled": 0, "is_reserved": 0, "fusion_lon": 0.0, "bike_id": "8b51936d90cecf84a575797599d1a6b7", "lat": 38.9170135}, {"type": "electric_scooter", "rental_uris": {"android": "https://dc.lft.to/lastmile_qr_scan", "ios": "https://dc.lft.to/lastmile_qr_scan"}, "fusion_lat": 0.0, "name": "4d198cac4379600eb2c908cd0a84f0b2", "lon": -76.99931216666667, "is_disabled": 0, "is_reserved": 0, "fusion_lon": 0.0, "bike_id": "4d198cac4379600eb2c908cd0a84f0b2", "lat": 38.900341833333336}, {"type": "electric_scooter", "rental_uris": {"android": "https://dc.lft.to/lastmile_qr_scan", "ios": "https://dc.lft.to/lastmile_qr_scan"}, "fusion_lat": 0.0, "name": "c5aa242b83ad89b868bab5e108508b6d", "lon": -77.05240133333334, "is_disabled": 0, "is_reserved": 0, "fusion_lon": 0.0, "bike_id": "c5aa242b83ad89b868bab5e108508b6d", "lat": 38.9251105}, {"type": "electric_bike", "rental_uris": {"android": "https://dc.lft.to/lastmile_qr_scan", "ios": "https://dc.lft.to/lastmile_qr_scan"}, "fusion_lat": 0.0, "name": "8a84c994ae4ffd88a93c88f138846d0d", "lon": -76.94575916666666, "is_disabled": 0, "is_reserved": 0, "fusion_lon": 0.0, "bike_id": "8a84c994ae4ffd88a93c88f138846d0d", "lat": 38.937489}, {"type": "electric_scooter", "rental_uris": {"android": "https://dc.lft.to/lastmile_qr_scan", "ios": "https://dc.lft.to/lastmile_qr_scan"}, "fusion_lat": 0.0, "name": "1fff2ed57eba3074322630d5860cd7c2", "lon": -77.02002016666667, "is_disabled": 0, "is_reserved": 0, "fusion_lon": 0.0, "bike_id": "1fff2ed57eba3074322630d5860cd7c2", "lat": 38.8953725}, {"type": "electric_scooter", "rental_uris": {"android": "https://dc.lft.to/lastmile_qr_scan", "ios": "https://dc.lft.to/lastmile_qr_scan"}, "fusion_lat": 0.0, "name": "261c241aab017935269a9e9a473b45e9", "lon": -76.98022033333334, "is_disabled": 0, "is_reserved": 0, "fusion_lon": 0.0, "bike_id": "261c241aab017935269a9e9a473b45e9", "lat": 38.853138}, {"type": "electric_scooter", "rental_uris": {"android": "https://dc.lft.to/lastmile_qr_scan", "ios": "https://dc.lft.to/lastmile_qr_scan"}, "fusion_lat": 0.0, "name": "6a0fa6ba47ff26e2885f9454ad60afdd", "lon": -77.03189016666667, "is_disabled": 0, "is_reserved": 0, "fusion_lon": 0.0, "bike_id": "6a0fa6ba47ff26e2885f9454ad60afdd", "lat": 38.91799566666667}, {"type": "electric_scooter", "rental_uris": {"android": "https://dc.lft.to/lastmile_qr_scan", "ios": "https://dc.lft.to/lastmile_qr_scan"}, "fusion_lat": 0.0, "name": "7d557730980222a2da01358e2c66f07a", "lon": -77.0228675, "is_disabled": 0, "is_reserved": 0, "fusion_lon": 0.0, "bike_id": "7d557730980222a2da01358e2c66f07a", "lat": 38.902376833333335}, {"type": "electric_scooter", "rental_uris": {"android": "https://dc.lft.to/lastmile_qr_scan", "ios": "https://dc.lft.to/lastmile_qr_scan"}, "fusion_lat": 0.0, "name": "9a8646c5838fef3b63706ac07a243778", "lon": -77.01069966666667, "is_disabled": 0, "is_reserved": 0, "fusion_lon": 0.0, "bike_id": "9a8646c5838fef3b63706ac07a243778", "lat": 38.912640833333334}, {"type": "electric_scooter", "rental_uris": {"android": "https://dc.lft.to/lastmile_qr_scan", "ios": "https://dc.lft.to/lastmile_qr_scan"}, "fusion_lat": 0.0, "name": "2d0620c87616653f74c00551a7e14565", "lon": -77.02490483333334, "is_disabled": 0, "is_reserved": 0, "fusion_lon": 0.0, "bike_id": "2d0620c87616653f74c00551a7e14565", "lat": 38.94184683333334}, {"type": "electric_scooter", "rental_uris": {"android": "https://dc.lft.to/lastmile_qr_scan", "ios": "https://dc.lft.to/lastmile_qr_scan"}, "fusion_lat": 0.0, "name": "5360846c64bbf7d554882c06c8cd1911", "lon": -76.99455816666666, "is_disabled": 0, "is_reserved": 0, "fusion_lon": 0.0, "bike_id": "5360846c64bbf7d554882c06c8cd1911", "lat": 38.862182}, {"type": "electric_scooter", "rental_uris": {"android": "https://dc.lft.to/lastmile_qr_scan", "ios": "https://dc.lft.to/lastmile_qr_scan"}, "fusion_lat": 0.0, "name": "bc6527ef3f88bf6acdc27c43a7115684", "lon": -77.02876166666667, "is_disabled": 0, "is_reserved": 0, "fusion_lon": 0.0, "bike_id": "bc6527ef3f88bf6acdc27c43a7115684", "lat": 38.9282135}, {"type": "electric_bike", "rental_uris": {"android": "https://dc.lft.to/lastmile_qr_scan", "ios": "https://dc.lft.to/lastmile_qr_scan"}, "fusion_lat": 0.0, "name": "7c547902538abf80d744913427acc785", "lon": -77.00780516666667, "is_disabled": 0, "is_reserved": 0, "fusion_lon": 0.0, "bike_id": "7c547902538abf80d744913427acc785", "lat": 38.983875833333336}, {"type": "electric_scooter", "rental_uris": {"android": "https://dc.lft.to/lastmile_qr_scan", "ios": "https://dc.lft.to/lastmile_qr_scan"}, "fusion_lat": 0.0, "name": "875a1f25b021d45b31664e63d8d951e3", "lon": -77.02708216666667, "is_disabled": 0, "is_reserved": 0, "fusion_lon": 0.0, "bike_id": "875a1f25b021d45b31664e63d8d951e3", "lat": 38.92664466666667}, {"type": "electric_scooter", "rental_uris": {"android": "https://dc.lft.to/lastmile_qr_scan", "ios": "https://dc.lft.to/lastmile_qr_scan"}, "fusion_lat": 0.0, "name": "61f2f86ad9d22baac967bc69a8d14e50", "lon": -77.039873, "is_disabled": 0, "is_reserved": 0, "fusion_lon": 0.0, "bike_id": "61f2f86ad9d22baac967bc69a8d14e50", "lat": 38.9027045}, {"type": "electric_scooter", "rental_uris": {"android": "https://dc.lft.to/lastmile_qr_scan", "ios": "https://dc.lft.to/lastmile_qr_scan"}, "fusion_lat": 0.0, "name": "b50971ac3dd30bad56e41d9a0566057c", "lon": -77.00927066666667, "is_disabled": 0, "is_reserved": 0, "fusion_lon": 0.0, "bike_id": "b50971ac3dd30bad56e41d9a0566057c", "lat": 38.89608783333333}, {"type": "electric_scooter", "rental_uris": {"android": "https://dc.lft.to/lastmile_qr_scan", "ios": "https://dc.lft.to/lastmile_qr_scan"}, "fusion_lat": 0.0, "name": "00dbb792caf4f541fa68b2d225463270", "lon": -77.03278133333333, "is_disabled": 0, "is_reserved": 0, "fusion_lon": 0.0, "bike_id": "00dbb792caf4f541fa68b2d225463270", "lat": 38.93641866666667}, {"type": "electric_scooter", "rental_uris": {"android": "https://dc.lft.to/lastmile_qr_scan", "ios": "https://dc.lft.to/lastmile_qr_scan"}, "fusion_lat": 0.0, "name": "6bcf0654236d1df795dd6547aab97022", "lon": -77.02818333333333, "is_disabled": 0, "is_reserved": 0, "fusion_lon": 0.0, "bike_id": "6bcf0654236d1df795dd6547aab97022", "lat": 38.916931}, {"type": "electric_scooter", "rental_uris": {"android": "https://dc.lft.to/lastmile_qr_scan", "ios": "https://dc.lft.to/lastmile_qr_scan"}, "fusion_lat": 0.0, "name": "d01ec901ebe8f4d311aff2bd65e0e319", "lon": -77.00206783333333, "is_disabled": 0, "is_reserved": 0, "fusion_lon": 0.0, "bike_id": "d01ec901ebe8f4d311aff2bd65e0e319", "lat": 38.9023735}, {"type": "electric_scooter", "rental_uris": {"android": "https://dc.lft.to/lastmile_qr_scan", "ios": "https://dc.lft.to/lastmile_qr_scan"}, "fusion_lat": 0.0, "name": "8275b90f887820b813cee47fb1506384", "lon": -77.03266266666667, "is_disabled": 0, "is_reserved": 0, "fusion_lon": 0.0, "bike_id": "8275b90f887820b813cee47fb1506384", "lat": 38.9324795}, {"type": "electric_scooter", "rental_uris": {"android": "https://dc.lft.to/lastmile_qr_scan", "ios": "https://dc.lft.to/lastmile_qr_scan"}, "fusion_lat": 0.0, "name": "44e32b46cacff17d77ce5b9abf02258d", "lon": -77.02616066666667, "is_disabled": 0, "is_reserved": 0, "fusion_lon": 0.0, "bike_id": "44e32b46cacff17d77ce5b9abf02258d", "lat": 38.914146833333334}, {"type": "electric_scooter", "rental_uris": {"android": "https://dc.lft.to/lastmile_qr_scan", "ios": "https://dc.lft.to/lastmile_qr_scan"}, "fusion_lat": 0.0, "name": "56514bf471123db2c2743a82333a719a", "lon": -77.0450605, "is_disabled": 0, "is_reserved": 0, "fusion_lon": 0.0, "bike_id": "56514bf471123db2c2743a82333a719a", "lat": 38.90504033333333}, {"type": "electric_scooter", "rental_uris": {"android": "https://dc.lft.to/lastmile_qr_scan", "ios": "https://dc.lft.to/lastmile_qr_scan"}, "fusion_lat": 0.0, "name": "17eab1092d0c25c8276f53d71dab08c7", "lon": -77.046588, "is_disabled": 0, "is_reserved": 0, "fusion_lon": 0.0, "bike_id": "17eab1092d0c25c8276f53d71dab08c7", "lat": 38.900179666666666}, {"type": "electric_scooter", "rental_uris": {"android": "https://dc.lft.to/lastmile_qr_scan", "ios": "https://dc.lft.to/lastmile_qr_scan"}, "fusion_lat": 0.0, "name": "a93fd573a8b8f6c1d3c22655e2137c4c", "lon": -77.0290705, "is_disabled": 0, "is_reserved": 0, "fusion_lon": 0.0, "bike_id": "a93fd573a8b8f6c1d3c22655e2137c4c", "lat": 38.92816416666667}, {"type": "electric_scooter", "rental_uris": {"android": "https://dc.lft.to/lastmile_qr_scan", "ios": "https://dc.lft.to/lastmile_qr_scan"}, "fusion_lat": 0.0, "name": "2b297f3e89991cb302ece6cd7608fdbf", "lon": -77.025911, "is_disabled": 0, "is_reserved": 0, "fusion_lon": 0.0, "bike_id": "2b297f3e89991cb302ece6cd7608fdbf", "lat": 38.92037416666667}, {"type": "electric_scooter", "rental_uris": {"android": "https://dc.lft.to/lastmile_qr_scan", "ios": "https://dc.lft.to/lastmile_qr_scan"}, "fusion_lat": 0.0, "name": "f55055486628fdf47f88740d98bfc9f3", "lon": -76.99879816666666, "is_disabled": 0, "is_reserved": 0, "fusion_lon": 0.0, "bike_id": "f55055486628fdf47f88740d98bfc9f3", "lat": 38.90129683333333}, {"type": "electric_scooter", "rental_uris": {"android": "https://dc.lft.to/lastmile_qr_scan", "ios": "https://dc.lft.to/lastmile_qr_scan"}, "fusion_lat": 0.0, "name": "9a841b3377a66ff12a34a2fcdb5cee13", "lon": -77.08035383333333, "is_disabled": 0, "is_reserved": 0, "fusion_lon": 0.0, "bike_id": "9a841b3377a66ff12a34a2fcdb5cee13", "lat": 38.92387333333333}, {"type": "electric_scooter", "rental_uris": {"android": "https://dc.lft.to/lastmile_qr_scan", "ios": "https://dc.lft.to/lastmile_qr_scan"}, "fusion_lat": 0.0, "name": "f72eccf75e62c83d4c4cf42f63ad8dda", "lon": -77.04336266666667, "is_disabled": 0, "is_reserved": 0, "fusion_lon": 0.0, "bike_id": "f72eccf75e62c83d4c4cf42f63ad8dda", "lat": 38.92170633333333}, {"type": "electric_scooter", "rental_uris": {"android": "https://dc.lft.to/lastmile_qr_scan", "ios": "https://dc.lft.to/lastmile_qr_scan"}, "fusion_lat": 0.0, "name": "4ee0103f78028b0bb50c8713cbe5cb1a", "lon": -76.9802115, "is_disabled": 0, "is_reserved": 0, "fusion_lon": 0.0, "bike_id": "4ee0103f78028b0bb50c8713cbe5cb1a", "lat": 38.90291333333333}, {"type": "electric_scooter", "rental_uris": {"android": "https://dc.lft.to/lastmile_qr_scan", "ios": "https://dc.lft.to/lastmile_qr_scan"}, "fusion_lat": 0.0, "name": "14855d4a2379d58d570d1d25f0f554be", "lon": -77.01964866666667, "is_disabled": 0, "is_reserved": 0, "fusion_lon": 0.0, "bike_id": "14855d4a2379d58d570d1d25f0f554be", "lat": 38.95654716666667}, {"type": "electric_scooter", "rental_uris": {"android": "https://dc.lft.to/lastmile_qr_scan", "ios": "https://dc.lft.to/lastmile_qr_scan"}, "fusion_lat": 0.0, "name": "6440d21802034f8e2b51730e4b85a0e7", "lon": -77.02232616666667, "is_disabled": 0, "is_reserved": 0, "fusion_lon": 0.0, "bike_id": "6440d21802034f8e2b51730e4b85a0e7", "lat": 38.9111265}, {"type": "electric_scooter", "rental_uris": {"android": "https://dc.lft.to/lastmile_qr_scan", "ios": "https://dc.lft.to/lastmile_qr_scan"}, "fusion_lat": 0.0, "name": "e1086b7a01d296c518c9118b6fc29f87", "lon": -77.03192166666666, "is_disabled": 0, "is_reserved": 0, "fusion_lon": 0.0, "bike_id": "e1086b7a01d296c518c9118b6fc29f87", "lat": 38.91910383333333}, {"type": "electric_scooter", "rental_uris": {"android": "https://dc.lft.to/lastmile_qr_scan", "ios": "https://dc.lft.to/lastmile_qr_scan"}, "fusion_lat": 0.0, "name": "1d76800cb55a7f5e1ce6837178b5d57f", "lon": -77.01374183333333, "is_disabled": 0, "is_reserved": 0, "fusion_lon": 0.0, "bike_id": "1d76800cb55a7f5e1ce6837178b5d57f", "lat": 38.892210166666665}, {"type": "electric_bike", "rental_uris": {"android": "https://dc.lft.to/lastmile_qr_scan", "ios": "https://dc.lft.to/lastmile_qr_scan"}, "fusion_lat": 0.0, "name": "9a584d4f19dd6d88166d015dfe36117b", "lon": -77.0030855, "is_disabled": 0, "is_reserved": 0, "fusion_lon": 0.0, "bike_id": "9a584d4f19dd6d88166d015dfe36117b", "lat": 38.8948365}, {"type": "electric_scooter", "rental_uris": {"android": "https://dc.lft.to/lastmile_qr_scan", "ios": "https://dc.lft.to/lastmile_qr_scan"}, "fusion_lat": 0.0, "name": "6101d48179fcb65e90804d426d0ce376", "lon": -77.012944, "is_disabled": 0, "is_reserved": 0, "fusion_lon": 0.0, "bike_id": "6101d48179fcb65e90804d426d0ce376", "lat": 38.89476033333333}, {"type": "electric_bike", "rental_uris": {"android": "https://dc.lft.to/lastmile_qr_scan", "ios": "https://dc.lft.to/lastmile_qr_scan"}, "fusion_lat": 0.0, "name": "f828503a0056d39ed6040666026550e4", "lon": -77.11576, "is_disabled": 0, "is_reserved": 0, "fusion_lon": 0.0, "bike_id": "f828503a0056d39ed6040666026550e4", "lat": 38.9934765}, {"type": "electric_scooter", "rental_uris": {"android": "https://dc.lft.to/lastmile_qr_scan", "ios": "https://dc.lft.to/lastmile_qr_scan"}, "fusion_lat": 0.0, "name": "d647092dcc3864bcadd5281b85707d5d", "lon": -77.04408783333334, "is_disabled": 0, "is_reserved": 0, "fusion_lon": 0.0, "bike_id": "d647092dcc3864bcadd5281b85707d5d", "lat": 38.92139133333333}, {"type": "electric_scooter", "rental_uris": {"android": "https://dc.lft.to/lastmile_qr_scan", "ios": "https://dc.lft.to/lastmile_qr_scan"}, "fusion_lat": 0.0, "name": "3642bcfa6c572d2d197cd0cabe0874b8", "lon": -77.06112183333333, "is_disabled": 0, "is_reserved": 0, "fusion_lon": 0.0, "bike_id": "3642bcfa6c572d2d197cd0cabe0874b8", "lat": 38.90535766666667}, {"type": "electric_scooter", "rental_uris": {"android": "https://dc.lft.to/lastmile_qr_scan", "ios": "https://dc.lft.to/lastmile_qr_scan"}, "fusion_lat": 0.0, "name": "dad06b9b7885d1bdf0a08cad938abb97", "lon": -77.04465683333333, "is_disabled": 0, "is_reserved": 0, "fusion_lon": 0.0, "bike_id": "dad06b9b7885d1bdf0a08cad938abb97", "lat": 38.9054975}, {"type": "electric_scooter", "rental_uris": {"android": "https://dc.lft.to/lastmile_qr_scan", "ios": "https://dc.lft.to/lastmile_qr_scan"}, "fusion_lat": 0.0, "name": "b55343902c2395fb888dcb41eaa87404", "lon": -77.00895783333333, "is_disabled": 0, "is_reserved": 0, "fusion_lon": 0.0, "bike_id": "b55343902c2395fb888dcb41eaa87404", "lat": 38.968179}, {"type": "electric_scooter", "rental_uris": {"android": "https://dc.lft.to/lastmile_qr_scan", "ios": "https://dc.lft.to/lastmile_qr_scan"}, "fusion_lat": 0.0, "name": "2d19434ec9757c4defae5d8f69b4a2bf", "lon": -76.980223, "is_disabled": 0, "is_reserved": 0, "fusion_lon": 0.0, "bike_id": "2d19434ec9757c4defae5d8f69b4a2bf", "lat": 38.888644}, {"type": "electric_scooter", "rental_uris": {"android": "https://dc.lft.to/lastmile_qr_scan", "ios": "https://dc.lft.to/lastmile_qr_scan"}, "fusion_lat": 0.0, "name": "276e53e237c2089d757949799f6b15fe", "lon": -77.04518066666667, "is_disabled": 0, "is_reserved": 0, "fusion_lon": 0.0, "bike_id": "276e53e237c2089d757949799f6b15fe", "lat": 38.90506233333333}, {"type": "electric_scooter", "rental_uris": {"android": "https://dc.lft.to/lastmile_qr_scan", "ios": "https://dc.lft.to/lastmile_qr_scan"}, "fusion_lat": 0.0, "name": "9daeffdc4db88cabf255fb4445a59837", "lon": -77.0400825, "is_disabled": 0, "is_reserved": 0, "fusion_lon": 0.0, "bike_id": "9daeffdc4db88cabf255fb4445a59837", "lat": 38.90805666666667}, {"type": "electric_scooter", "rental_uris": {"android": "https://dc.lft.to/lastmile_qr_scan", "ios": "https://dc.lft.to/lastmile_qr_scan"}, "fusion_lat": 0.0, "name": "0f7e8aeb96d15faf7093edb7de6cc3b1", "lon": -76.93609583333334, "is_disabled": 0, "is_reserved": 0, "fusion_lon": 0.0, "bike_id": "0f7e8aeb96d15faf7093edb7de6cc3b1", "lat": 38.89683433333333}, {"type": "electric_scooter", "rental_uris": {"android": "https://dc.lft.to/lastmile_qr_scan", "ios": "https://dc.lft.to/lastmile_qr_scan"}, "fusion_lat": 0.0, "name": "9834c81dfa9572906e0f14a378143182", "lon": -77.0256265, "is_disabled": 0, "is_reserved": 0, "fusion_lon": 0.0, "bike_id": "9834c81dfa9572906e0f14a378143182", "lat": 38.90725833333333}, {"type": "electric_scooter", "rental_uris": {"android": "https://dc.lft.to/lastmile_qr_scan", "ios": "https://dc.lft.to/lastmile_qr_scan"}, "fusion_lat": 0.0, "name": "7acff07e8e313aa4e5e2596cbfa6a6b8", "lon": -77.023545, "is_disabled": 0, "is_reserved": 0, "fusion_lon": 0.0, "bike_id": "7acff07e8e313aa4e5e2596cbfa6a6b8", "lat": 38.9317165}, {"type": "electric_scooter", "rental_uris": {"android": "https://dc.lft.to/lastmile_qr_scan", "ios": "https://dc.lft.to/lastmile_qr_scan"}, "fusion_lat": 0.0, "name": "31053e60befeec728f4fafb73a40a785", "lon": -76.97618433333334, "is_disabled": 0, "is_reserved": 0, "fusion_lon": 0.0, "bike_id": "31053e60befeec728f4fafb73a40a785", "lat": 38.903846333333334}, {"type": "electric_scooter", "rental_uris": {"android": "https://dc.lft.to/lastmile_qr_scan", "ios": "https://dc.lft.to/lastmile_qr_scan"}, "fusion_lat": 0.0, "name": "c100fb96d019968d09be9c24be028da8", "lon": -76.99897516666667, "is_disabled": 0, "is_reserved": 0, "fusion_lon": 0.0, "bike_id": "c100fb96d019968d09be9c24be028da8", "lat": 38.909543666666664}, {"type": "electric_scooter", "rental_uris": {"android": "https://dc.lft.to/lastmile_qr_scan", "ios": "https://dc.lft.to/lastmile_qr_scan"}, "fusion_lat": 0.0, "name": "934cda08a11cf8459dc9c34ea25f41f1", "lon": -77.03437083333333, "is_disabled": 0, "is_reserved": 0, "fusion_lon": 0.0, "bike_id": "934cda08a11cf8459dc9c34ea25f41f1", "lat": 38.90515966666667}, {"type": "electric_scooter", "rental_uris": {"android": "https://dc.lft.to/lastmile_qr_scan", "ios": "https://dc.lft.to/lastmile_qr_scan"}, "fusion_lat": 0.0, "name": "157a19d047f0d6fd444f776e9e0d9aeb", "lon": -77.059525, "is_disabled": 0, "is_reserved": 0, "fusion_lon": 0.0, "bike_id": "157a19d047f0d6fd444f776e9e0d9aeb", "lat": 38.90764816666667}, {"type": "electric_scooter", "rental_uris": {"android": "https://dc.lft.to/lastmile_qr_scan", "ios": "https://dc.lft.to/lastmile_qr_scan"}, "fusion_lat": 0.0, "name": "876a95ac05a305bc6e8a545029cb17bb", "lon": -77.04815383333333, "is_disabled": 0, "is_reserved": 0, "fusion_lon": 0.0, "bike_id": "876a95ac05a305bc6e8a545029cb17bb", "lat": 38.911129}, {"type": "electric_scooter", "rental_uris": {"android": "https://dc.lft.to/lastmile_qr_scan", "ios": "https://dc.lft.to/lastmile_qr_scan"}, "fusion_lat": 0.0, "name": "496451015fbbd4bc26c726e8379a5875", "lon": -77.020009, "is_disabled": 0, "is_reserved": 0, "fusion_lon": 0.0, "bike_id": "496451015fbbd4bc26c726e8379a5875", "lat": 38.91578966666667}, {"type": "electric_bike", "rental_uris": {"android": "https://dc.lft.to/lastmile_qr_scan", "ios": "https://dc.lft.to/lastmile_qr_scan"}, "fusion_lat": 0.0, "name": "b343b15c778f2b09d470bb74540c2230", "lon": -77.023147, "is_disabled": 0, "is_reserved": 0, "fusion_lon": 0.0, "bike_id": "b343b15c778f2b09d470bb74540c2230", "lat": 38.929878}, {"type": "electric_scooter", "rental_uris": {"android": "https://dc.lft.to/lastmile_qr_scan", "ios": "https://dc.lft.to/lastmile_qr_scan"}, "fusion_lat": 0.0, "name": "cc7ad8f8849e6db224ad36add2a8dcde", "lon": -77.0410345, "is_disabled": 0, "is_reserved": 0, "fusion_lon": 0.0, "bike_id": "cc7ad8f8849e6db224ad36add2a8dcde", "lat": 38.91855483333333}, {"type": "electric_scooter", "rental_uris": {"android": "https://dc.lft.to/lastmile_qr_scan", "ios": "https://dc.lft.to/lastmile_qr_scan"}, "fusion_lat": 0.0, "name": "975d8c7273a6e27f8eb86c927d4e0636", "lon": -76.95660733333334, "is_disabled": 0, "is_reserved": 0, "fusion_lon": 0.0, "bike_id": "975d8c7273a6e27f8eb86c927d4e0636", "lat": 38.8955035}, {"type": "electric_bike", "rental_uris": {"android": "https://dc.lft.to/lastmile_qr_scan", "ios": "https://dc.lft.to/lastmile_qr_scan"}, "fusion_lat": 0.0, "name": "ab121b107166a1428cafd1953a5a57ed", "lon": -77.17842116666667, "is_disabled": 0, "is_reserved": 0, "fusion_lon": 0.0, "bike_id": "ab121b107166a1428cafd1953a5a57ed", "lat": 39.088569}, {"type": "electric_scooter", "rental_uris": {"android": "https://dc.lft.to/lastmile_qr_scan", "ios": "https://dc.lft.to/lastmile_qr_scan"}, "fusion_lat": 0.0, "name": "1c0120fda52a0c9dbba314c650182c80", "lon": -77.01406366666667, "is_disabled": 0, "is_reserved": 0, "fusion_lon": 0.0, "bike_id": "1c0120fda52a0c9dbba314c650182c80", "lat": 38.88747016666667}, {"type": "electric_scooter", "rental_uris": {"android": "https://dc.lft.to/lastmile_qr_scan", "ios": "https://dc.lft.to/lastmile_qr_scan"}, "fusion_lat": 0.0, "name": "baf8e4a9fad26a85b156a800b7c88c06", "lon": -76.9993875, "is_disabled": 0, "is_reserved": 0, "fusion_lon": 0.0, "bike_id": "baf8e4a9fad26a85b156a800b7c88c06", "lat": 38.8974285}, {"type": "electric_scooter", "rental_uris": {"android": "https://dc.lft.to/lastmile_qr_scan", "ios": "https://dc.lft.to/lastmile_qr_scan"}, "fusion_lat": 0.0, "name": "a59b9f098fb29c2347173695cdc9b940", "lon": -77.034224, "is_disabled": 0, "is_reserved": 0, "fusion_lon": 0.0, "bike_id": "a59b9f098fb29c2347173695cdc9b940", "lat": 38.90365166666667}, {"type": "electric_scooter", "rental_uris": {"android": "https://dc.lft.to/lastmile_qr_scan", "ios": "https://dc.lft.to/lastmile_qr_scan"}, "fusion_lat": 0.0, "name": "b455764718c129843047cecab2dfed2c", "lon": -76.99005433333333, "is_disabled": 0, "is_reserved": 0, "fusion_lon": 0.0, "bike_id": "b455764718c129843047cecab2dfed2c", "lat": 38.903943166666664}, {"type": "electric_scooter", "rental_uris": {"android": "https://dc.lft.to/lastmile_qr_scan", "ios": "https://dc.lft.to/lastmile_qr_scan"}, "fusion_lat": 0.0, "name": "991dacde8fd9eb0d4f6f988b3dd37631", "lon": -76.99167366666667, "is_disabled": 0, "is_reserved": 0, "fusion_lon": 0.0, "bike_id": "991dacde8fd9eb0d4f6f988b3dd37631", "lat": 38.90971}, {"type": "electric_bike", "rental_uris": {"android": "https://dc.lft.to/lastmile_qr_scan", "ios": "https://dc.lft.to/lastmile_qr_scan"}, "fusion_lat": 0.0, "name": "ae5076ff19d03db184729b674074ada5", "lon": -76.971207, "is_disabled": 0, "is_reserved": 0, "fusion_lon": 0.0, "bike_id": "ae5076ff19d03db184729b674074ada5", "lat": 38.919588166666664}, {"type": "electric_scooter", "rental_uris": {"android": "https://dc.lft.to/lastmile_qr_scan", "ios": "https://dc.lft.to/lastmile_qr_scan"}, "fusion_lat": 0.0, "name": "24b97a04e777db2f127e0a2dbf00ff1c", "lon": -77.03283033333334, "is_disabled": 0, "is_reserved": 0, "fusion_lon": 0.0, "bike_id": "24b97a04e777db2f127e0a2dbf00ff1c", "lat": 38.936412}, {"type": "electric_scooter", "rental_uris": {"android": "https://dc.lft.to/lastmile_qr_scan", "ios": "https://dc.lft.to/lastmile_qr_scan"}, "fusion_lat": 0.0, "name": "d34a0de6fd9fb7b9f32eae2de4112b53", "lon": -77.02658433333333, "is_disabled": 0, "is_reserved": 0, "fusion_lon": 0.0, "bike_id": "d34a0de6fd9fb7b9f32eae2de4112b53", "lat": 38.8922065}, {"type": "electric_scooter", "rental_uris": {"android": "https://dc.lft.to/lastmile_qr_scan", "ios": "https://dc.lft.to/lastmile_qr_scan"}, "fusion_lat": 0.0, "name": "fd1a7f3e301614fa5e179ef7fa9e0607", "lon": -77.0321805, "is_disabled": 0, "is_reserved": 0, "fusion_lon": 0.0, "bike_id": "fd1a7f3e301614fa5e179ef7fa9e0607", "lat": 38.9164235}, {"type": "electric_scooter", "rental_uris": {"android": "https://dc.lft.to/lastmile_qr_scan", "ios": "https://dc.lft.to/lastmile_qr_scan"}, "fusion_lat": 0.0, "name": "b0ed266ead40461b5471879644fc4fdf", "lon": -77.0239835, "is_disabled": 0, "is_reserved": 0, "fusion_lon": 0.0, "bike_id": "b0ed266ead40461b5471879644fc4fdf", "lat": 38.914205333333335}, {"type": "electric_scooter", "rental_uris": {"android": "https://dc.lft.to/lastmile_qr_scan", "ios": "https://dc.lft.to/lastmile_qr_scan"}, "fusion_lat": 0.0, "name": "27200d4ed993f7595e702bfd0682270c", "lon": -77.03298866666667, "is_disabled": 0, "is_reserved": 0, "fusion_lon": 0.0, "bike_id": "27200d4ed993f7595e702bfd0682270c", "lat": 38.91919466666667}, {"type": "electric_scooter", "rental_uris": {"android": "https://dc.lft.to/lastmile_qr_scan", "ios": "https://dc.lft.to/lastmile_qr_scan"}, "fusion_lat": 0.0, "name": "6d4ea975f68ba5016a24a43b97557d28", "lon": -77.070741, "is_disabled": 0, "is_reserved": 0, "fusion_lon": 0.0, "bike_id": "6d4ea975f68ba5016a24a43b97557d28", "lat": 38.9316995}, {"type": "electric_scooter", "rental_uris": {"android": "https://dc.lft.to/lastmile_qr_scan", "ios": "https://dc.lft.to/lastmile_qr_scan"}, "fusion_lat": 0.0, "name": "6bed7b9d553eac1d8f8e32a2cad4cb2f", "lon": -77.02156016666666, "is_disabled": 0, "is_reserved": 0, "fusion_lon": 0.0, "bike_id": "6bed7b9d553eac1d8f8e32a2cad4cb2f", "lat": 38.899881666666666}, {"type": "electric_scooter", "rental_uris": {"android": "https://dc.lft.to/lastmile_qr_scan", "ios": "https://dc.lft.to/lastmile_qr_scan"}, "fusion_lat": 0.0, "name": "548a2d0e6e9646233edc74d8d75aac83", "lon": -77.038813, "is_disabled": 0, "is_reserved": 0, "fusion_lon": 0.0, "bike_id": "548a2d0e6e9646233edc74d8d75aac83", "lat": 38.917037666666666}, {"type": "electric_scooter", "rental_uris": {"android": "https://dc.lft.to/lastmile_qr_scan", "ios": "https://dc.lft.to/lastmile_qr_scan"}, "fusion_lat": 0.0, "name": "a4d4a91b0eea3e5374aef74f59bc8a64", "lon": -77.02703883333334, "is_disabled": 0, "is_reserved": 0, "fusion_lon": 0.0, "bike_id": "a4d4a91b0eea3e5374aef74f59bc8a64", "lat": 38.9066975}, {"type": "electric_scooter", "rental_uris": {"android": "https://dc.lft.to/lastmile_qr_scan", "ios": "https://dc.lft.to/lastmile_qr_scan"}, "fusion_lat": 0.0, "name": "bb51a10f6b37cf78e4947abfcd68d37b", "lon": -77.00970983333333, "is_disabled": 0, "is_reserved": 0, "fusion_lon": 0.0, "bike_id": "bb51a10f6b37cf78e4947abfcd68d37b", "lat": 38.9141485}, {"type": "electric_scooter", "rental_uris": {"android": "https://dc.lft.to/lastmile_qr_scan", "ios": "https://dc.lft.to/lastmile_qr_scan"}, "fusion_lat": 0.0, "name": "a1f6ddf5b42c81869c087d68a9743111", "lon": -76.93756983333333, "is_disabled": 0, "is_reserved": 0, "fusion_lon": 0.0, "bike_id": "a1f6ddf5b42c81869c087d68a9743111", "lat": 38.89042033333333}, {"type": "electric_scooter", "rental_uris": {"android": "https://dc.lft.to/lastmile_qr_scan", "ios": "https://dc.lft.to/lastmile_qr_scan"}, "fusion_lat": 0.0, "name": "2208cab003210085df1b0825afb6389b", "lon": -77.01345533333334, "is_disabled": 0, "is_reserved": 0, "fusion_lon": 0.0, "bike_id": "2208cab003210085df1b0825afb6389b", "lat": 38.89244033333333}, {"type": "electric_scooter", "rental_uris": {"android": "https://dc.lft.to/lastmile_qr_scan", "ios": "https://dc.lft.to/lastmile_qr_scan"}, "fusion_lat": 0.0, "name": "2c8999d73d97a05694703b120f1fe133", "lon": -77.019929, "is_disabled": 0, "is_reserved": 0, "fusion_lon": 0.0, "bike_id": "2c8999d73d97a05694703b120f1fe133", "lat": 38.8759005}, {"type": "electric_scooter", "rental_uris": {"android": "https://dc.lft.to/lastmile_qr_scan", "ios": "https://dc.lft.to/lastmile_qr_scan"}, "fusion_lat": 0.0, "name": "eda1a48bfc832a82c3d9d30e77ba546f", "lon": -76.98746416666667, "is_disabled": 0, "is_reserved": 0, "fusion_lon": 0.0, "bike_id": "eda1a48bfc832a82c3d9d30e77ba546f", "lat": 38.886131}, {"type": "electric_scooter", "rental_uris": {"android": "https://dc.lft.to/lastmile_qr_scan", "ios": "https://dc.lft.to/lastmile_qr_scan"}, "fusion_lat": 0.0, "name": "f37d918a5084c985dd83ae1f7e60b101", "lon": -77.03823533333333, "is_disabled": 0, "is_reserved": 0, "fusion_lon": 0.0, "bike_id": "f37d918a5084c985dd83ae1f7e60b101", "lat": 38.921757166666666}, {"type": "electric_scooter", "rental_uris": {"android": "https://dc.lft.to/lastmile_qr_scan", "ios": "https://dc.lft.to/lastmile_qr_scan"}, "fusion_lat": 0.0, "name": "b93b2d8d9093936cbd3158062118387b", "lon": -77.03895933333334, "is_disabled": 0, "is_reserved": 0, "fusion_lon": 0.0, "bike_id": "b93b2d8d9093936cbd3158062118387b", "lat": 38.92240733333333}, {"type": "electric_scooter", "rental_uris": {"android": "https://dc.lft.to/lastmile_qr_scan", "ios": "https://dc.lft.to/lastmile_qr_scan"}, "fusion_lat": 0.0, "name": "5d7ea3cab7ea178e7de05cc437b27f65", "lon": -77.04657466666667, "is_disabled": 0, "is_reserved": 0, "fusion_lon": 0.0, "bike_id": "5d7ea3cab7ea178e7de05cc437b27f65", "lat": 38.90786216666667}, {"type": "electric_scooter", "rental_uris": {"android": "https://dc.lft.to/lastmile_qr_scan", "ios": "https://dc.lft.to/lastmile_qr_scan"}, "fusion_lat": 0.0, "name": "9c627ef8d27ec9b7358d1edea4a70ceb", "lon": -77.04478966666667, "is_disabled": 0, "is_reserved": 0, "fusion_lon": 0.0, "bike_id": "9c627ef8d27ec9b7358d1edea4a70ceb", "lat": 38.90551716666667}, {"type": "electric_scooter", "rental_uris": {"android": "https://dc.lft.to/lastmile_qr_scan", "ios": "https://dc.lft.to/lastmile_qr_scan"}, "fusion_lat": 0.0, "name": "bab118b9a27662b0d5274983517e1e04", "lon": -77.01991783333334, "is_disabled": 0, "is_reserved": 0, "fusion_lon": 0.0, "bike_id": "bab118b9a27662b0d5274983517e1e04", "lat": 38.915711}, {"type": "electric_scooter", "rental_uris": {"android": "https://dc.lft.to/lastmile_qr_scan", "ios": "https://dc.lft.to/lastmile_qr_scan"}, "fusion_lat": 0.0, "name": "32917dab3de47048a25a2567015ba1dd", "lon": -76.98882366666666, "is_disabled": 0, "is_reserved": 0, "fusion_lon": 0.0, "bike_id": "32917dab3de47048a25a2567015ba1dd", "lat": 38.866632833333334}, {"type": "electric_scooter", "rental_uris": {"android": "https://dc.lft.to/lastmile_qr_scan", "ios": "https://dc.lft.to/lastmile_qr_scan"}, "fusion_lat": 0.0, "name": "95f682e6b5b2072c152aa700e03ebfc3", "lon": -77.033028, "is_disabled": 0, "is_reserved": 0, "fusion_lon": 0.0, "bike_id": "95f682e6b5b2072c152aa700e03ebfc3", "lat": 38.9095355}, {"type": "electric_scooter", "rental_uris": {"android": "https://dc.lft.to/lastmile_qr_scan", "ios": "https://dc.lft.to/lastmile_qr_scan"}, "fusion_lat": 0.0, "name": "7a83007498045ad0b8667e8a194bf469", "lon": -77.029063, "is_disabled": 0, "is_reserved": 0, "fusion_lon": 0.0, "bike_id": "7a83007498045ad0b8667e8a194bf469", "lat": 38.895927}, {"type": "electric_scooter", "rental_uris": {"android": "https://dc.lft.to/lastmile_qr_scan", "ios": "https://dc.lft.to/lastmile_qr_scan"}, "fusion_lat": 0.0, "name": "46366b0c95e7b4638c8eefdeb7beec14", "lon": -77.02431683333333, "is_disabled": 0, "is_reserved": 0, "fusion_lon": 0.0, "bike_id": "46366b0c95e7b4638c8eefdeb7beec14", "lat": 38.9371635}, {"type": "electric_scooter", "rental_uris": {"android": "https://dc.lft.to/lastmile_qr_scan", "ios": "https://dc.lft.to/lastmile_qr_scan"}, "fusion_lat": 0.0, "name": "8450c71b0fcd35226b96275abf0a18bf", "lon": -77.061125, "is_disabled": 0, "is_reserved": 0, "fusion_lon": 0.0, "bike_id": "8450c71b0fcd35226b96275abf0a18bf", "lat": 38.9068845}, {"type": "electric_scooter", "rental_uris": {"android": "https://dc.lft.to/lastmile_qr_scan", "ios": "https://dc.lft.to/lastmile_qr_scan"}, "fusion_lat": 0.0, "name": "48a740ab3802032bda8b990f226c45e0", "lon": -77.06249, "is_disabled": 0, "is_reserved": 0, "fusion_lon": 0.0, "bike_id": "48a740ab3802032bda8b990f226c45e0", "lat": 38.905198166666665}, {"type": "electric_scooter", "rental_uris": {"android": "https://dc.lft.to/lastmile_qr_scan", "ios": "https://dc.lft.to/lastmile_qr_scan"}, "fusion_lat": 0.0, "name": "ed011cd45e14ccb8fd93936fddd32e3c", "lon": -77.03557966666666, "is_disabled": 0, "is_reserved": 0, "fusion_lon": 0.0, "bike_id": "ed011cd45e14ccb8fd93936fddd32e3c", "lat": 38.9171225}, {"type": "electric_scooter", "rental_uris": {"android": "https://dc.lft.to/lastmile_qr_scan", "ios": "https://dc.lft.to/lastmile_qr_scan"}, "fusion_lat": 0.0, "name": "91df1ebbeda54b30f36639ab71c70b93", "lon": -77.023971, "is_disabled": 0, "is_reserved": 0, "fusion_lon": 0.0, "bike_id": "91df1ebbeda54b30f36639ab71c70b93", "lat": 38.914209}, {"type": "electric_scooter", "rental_uris": {"android": "https://dc.lft.to/lastmile_qr_scan", "ios": "https://dc.lft.to/lastmile_qr_scan"}, "fusion_lat": 0.0, "name": "374e73e0ad6857a4ad2696464808a025", "lon": -77.04322033333334, "is_disabled": 0, "is_reserved": 0, "fusion_lon": 0.0, "bike_id": "374e73e0ad6857a4ad2696464808a025", "lat": 38.9068175}, {"type": "electric_scooter", "rental_uris": {"android": "https://dc.lft.to/lastmile_qr_scan", "ios": "https://dc.lft.to/lastmile_qr_scan"}, "fusion_lat": 0.0, "name": "a039d4e086b8a4dad9c631e9e980cc41", "lon": -76.97840466666666, "is_disabled": 0, "is_reserved": 0, "fusion_lon": 0.0, "bike_id": "a039d4e086b8a4dad9c631e9e980cc41", "lat": 38.899128}, {"type": "electric_scooter", "rental_uris": {"android": "https://dc.lft.to/lastmile_qr_scan", "ios": "https://dc.lft.to/lastmile_qr_scan"}, "fusion_lat": 0.0, "name": "d8d22107e0f058aeeaa807faed1db382", "lon": -77.07269316666667, "is_disabled": 0, "is_reserved": 0, "fusion_lon": 0.0, "bike_id": "d8d22107e0f058aeeaa807faed1db382", "lat": 38.911563}, {"type": "electric_scooter", "rental_uris": {"android": "https://dc.lft.to/lastmile_qr_scan", "ios": "https://dc.lft.to/lastmile_qr_scan"}, "fusion_lat": 0.0, "name": "2f4c844ef90d81f864423df4092cfda6", "lon": -77.02154283333333, "is_disabled": 0, "is_reserved": 0, "fusion_lon": 0.0, "bike_id": "2f4c844ef90d81f864423df4092cfda6", "lat": 38.926060666666665}, {"type": "electric_bike", "rental_uris": {"android": "https://dc.lft.to/lastmile_qr_scan", "ios": "https://dc.lft.to/lastmile_qr_scan"}, "fusion_lat": 0.0, "name": "4a7564a72654cbc307cacd06dd8f00ca", "lon": -76.97092983333333, "is_disabled": 0, "is_reserved": 0, "fusion_lon": 0.0, "bike_id": "4a7564a72654cbc307cacd06dd8f00ca", "lat": 38.9181065}, {"type": "electric_bike", "rental_uris": {"android": "https://dc.lft.to/lastmile_qr_scan", "ios": "https://dc.lft.to/lastmile_qr_scan"}, "fusion_lat": 0.0, "name": "b57d0695eb2b9f75265ad2f6946eb757", "lon": -77.0208905, "is_disabled": 0, "is_reserved": 0, "fusion_lon": 0.0, "bike_id": "b57d0695eb2b9f75265ad2f6946eb757", "lat": 38.93011833333333}, {"type": "electric_scooter", "rental_uris": {"android": "https://dc.lft.to/lastmile_qr_scan", "ios": "https://dc.lft.to/lastmile_qr_scan"}, "fusion_lat": 0.0, "name": "6d804226128eb9889956f74460dc71c4", "lon": -77.03218516666666, "is_disabled": 0, "is_reserved": 0, "fusion_lon": 0.0, "bike_id": "6d804226128eb9889956f74460dc71c4", "lat": 38.90732416666667}, {"type": "electric_scooter", "rental_uris": {"android": "https://dc.lft.to/lastmile_qr_scan", "ios": "https://dc.lft.to/lastmile_qr_scan"}, "fusion_lat": 0.0, "name": "20be99edde1fffb085899c3ac62751cb", "lon": -77.0273015, "is_disabled": 0, "is_reserved": 0, "fusion_lon": 0.0, "bike_id": "20be99edde1fffb085899c3ac62751cb", "lat": 38.940872166666665}, {"type": "electric_scooter", "rental_uris": {"android": "https://dc.lft.to/lastmile_qr_scan", "ios": "https://dc.lft.to/lastmile_qr_scan"}, "fusion_lat": 0.0, "name": "34e55e05b61e0699a8e1a736b5265b58", "lon": -76.91753466666667, "is_disabled": 0, "is_reserved": 0, "fusion_lon": 0.0, "bike_id": "34e55e05b61e0699a8e1a736b5265b58", "lat": 38.88838766666667}, {"type": "electric_scooter", "rental_uris": {"android": "https://dc.lft.to/lastmile_qr_scan", "ios": "https://dc.lft.to/lastmile_qr_scan"}, "fusion_lat": 0.0, "name": "fc9b762c57e3ff085d11f898e5b9b709", "lon": -77.01971383333333, "is_disabled": 0, "is_reserved": 0, "fusion_lon": 0.0, "bike_id": "fc9b762c57e3ff085d11f898e5b9b709", "lat": 38.90557866666666}, {"type": "electric_bike", "rental_uris": {"android": "https://dc.lft.to/lastmile_qr_scan", "ios": "https://dc.lft.to/lastmile_qr_scan"}, "fusion_lat": 0.0, "name": "e506a9deae562b6b422ebe4cd6bf3255", "lon": -76.974414, "is_disabled": 0, "is_reserved": 0, "fusion_lon": 0.0, "bike_id": "e506a9deae562b6b422ebe4cd6bf3255", "lat": 38.864020333333336}, {"type": "electric_scooter", "rental_uris": {"android": "https://dc.lft.to/lastmile_qr_scan", "ios": "https://dc.lft.to/lastmile_qr_scan"}, "fusion_lat": 0.0, "name": "c633f2fffdea2b880306f58c12b22cd8", "lon": -77.0747545, "is_disabled": 0, "is_reserved": 0, "fusion_lon": 0.0, "bike_id": "c633f2fffdea2b880306f58c12b22cd8", "lat": 38.96314983333333}, {"type": "electric_scooter", "rental_uris": {"android": "https://dc.lft.to/lastmile_qr_scan", "ios": "https://dc.lft.to/lastmile_qr_scan"}, "fusion_lat": 0.0, "name": "dda1952b64644e6961fd451597d3dac1", "lon": -77.005619, "is_disabled": 0, "is_reserved": 0, "fusion_lon": 0.0, "bike_id": "dda1952b64644e6961fd451597d3dac1", "lat": 38.88044283333333}, {"type": "electric_scooter", "rental_uris": {"android": "https://dc.lft.to/lastmile_qr_scan", "ios": "https://dc.lft.to/lastmile_qr_scan"}, "fusion_lat": 0.0, "name": "daafb8d928679de429ae8060abbcb0d6", "lon": -77.0465945, "is_disabled": 0, "is_reserved": 0, "fusion_lon": 0.0, "bike_id": "daafb8d928679de429ae8060abbcb0d6", "lat": 38.90366266666667}, {"type": "electric_scooter", "rental_uris": {"android": "https://dc.lft.to/lastmile_qr_scan", "ios": "https://dc.lft.to/lastmile_qr_scan"}, "fusion_lat": 0.0, "name": "7f387d226e85ab23b2e027610121f904", "lon": -77.055942, "is_disabled": 0, "is_reserved": 0, "fusion_lon": 0.0, "bike_id": "7f387d226e85ab23b2e027610121f904", "lat": 38.91619816666667}, {"type": "electric_scooter", "rental_uris": {"android": "https://dc.lft.to/lastmile_qr_scan", "ios": "https://dc.lft.to/lastmile_qr_scan"}, "fusion_lat": 0.0, "name": "20714935a9e41dd5a708acdab23d8d8e", "lon": -76.99472366666667, "is_disabled": 0, "is_reserved": 0, "fusion_lon": 0.0, "bike_id": "20714935a9e41dd5a708acdab23d8d8e", "lat": 38.884336166666664}, {"type": "electric_bike", "rental_uris": {"android": "https://dc.lft.to/lastmile_qr_scan", "ios": "https://dc.lft.to/lastmile_qr_scan"}, "fusion_lat": 0.0, "name": "8f0382f585bfee4614dc01b8889a53dd", "lon": -77.11761816666667, "is_disabled": 0, "is_reserved": 0, "fusion_lon": 0.0, "bike_id": "8f0382f585bfee4614dc01b8889a53dd", "lat": 38.81254283333333}, {"type": "electric_scooter", "rental_uris": {"android": "https://dc.lft.to/lastmile_qr_scan", "ios": "https://dc.lft.to/lastmile_qr_scan"}, "fusion_lat": 0.0, "name": "51d01bf45140bc31d0170ea3f4bf9576", "lon": -77.06134766666666, "is_disabled": 0, "is_reserved": 0, "fusion_lon": 0.0, "bike_id": "51d01bf45140bc31d0170ea3f4bf9576", "lat": 38.905285166666665}, {"type": "electric_scooter", "rental_uris": {"android": "https://dc.lft.to/lastmile_qr_scan", "ios": "https://dc.lft.to/lastmile_qr_scan"}, "fusion_lat": 0.0, "name": "462d080abfb3ecec4a3dac6826b4f278", "lon": -77.02327866666667, "is_disabled": 0, "is_reserved": 0, "fusion_lon": 0.0, "bike_id": "462d080abfb3ecec4a3dac6826b4f278", "lat": 38.9270465}, {"type": "electric_scooter", "rental_uris": {"android": "https://dc.lft.to/lastmile_qr_scan", "ios": "https://dc.lft.to/lastmile_qr_scan"}, "fusion_lat": 0.0, "name": "90707111cd9cf634abe61434d98ecf15", "lon": -77.05179133333333, "is_disabled": 0, "is_reserved": 0, "fusion_lon": 0.0, "bike_id": "90707111cd9cf634abe61434d98ecf15", "lat": 38.90518016666667}, {"type": "electric_scooter", "rental_uris": {"android": "https://dc.lft.to/lastmile_qr_scan", "ios": "https://dc.lft.to/lastmile_qr_scan"}, "fusion_lat": 0.0, "name": "88cc6677d116d88e3b3f8ad4923f0eeb", "lon": -77.03194116666667, "is_disabled": 0, "is_reserved": 0, "fusion_lon": 0.0, "bike_id": "88cc6677d116d88e3b3f8ad4923f0eeb", "lat": 38.91536633333333}, {"type": "electric_scooter", "rental_uris": {"android": "https://dc.lft.to/lastmile_qr_scan", "ios": "https://dc.lft.to/lastmile_qr_scan"}, "fusion_lat": 0.0, "name": "f7d5392bcc4ef8afae85c4604c6933a8", "lon": -77.05710883333333, "is_disabled": 0, "is_reserved": 0, "fusion_lon": 0.0, "bike_id": "f7d5392bcc4ef8afae85c4604c6933a8", "lat": 38.90619366666667}, {"type": "electric_scooter", "rental_uris": {"android": "https://dc.lft.to/lastmile_qr_scan", "ios": "https://dc.lft.to/lastmile_qr_scan"}, "fusion_lat": 0.0, "name": "ba9e25df7f57c6cccc61ac7e676fe417", "lon": -77.04162333333333, "is_disabled": 0, "is_reserved": 0, "fusion_lon": 0.0, "bike_id": "ba9e25df7f57c6cccc61ac7e676fe417", "lat": 38.91491033333333}, {"type": "electric_scooter", "rental_uris": {"android": "https://dc.lft.to/lastmile_qr_scan", "ios": "https://dc.lft.to/lastmile_qr_scan"}, "fusion_lat": 0.0, "name": "58e5fcaec0ba3648a129faa143f4e337", "lon": -77.01860983333333, "is_disabled": 0, "is_reserved": 0, "fusion_lon": 0.0, "bike_id": "58e5fcaec0ba3648a129faa143f4e337", "lat": 38.904177}, {"type": "electric_scooter", "rental_uris": {"android": "https://dc.lft.to/lastmile_qr_scan", "ios": "https://dc.lft.to/lastmile_qr_scan"}, "fusion_lat": 0.0, "name": "e3784560fbf5549c48e71f9d2715704e", "lon": -77.02690483333333, "is_disabled": 0, "is_reserved": 0, "fusion_lon": 0.0, "bike_id": "e3784560fbf5549c48e71f9d2715704e", "lat": 38.90239}, {"type": "electric_bike", "rental_uris": {"android": "https://dc.lft.to/lastmile_qr_scan", "ios": "https://dc.lft.to/lastmile_qr_scan"}, "fusion_lat": 0.0, "name": "f979f0837710ac5f471696b11ec71c0f", "lon": -76.8953965, "is_disabled": 0, "is_reserved": 0, "fusion_lon": 0.0, "bike_id": "f979f0837710ac5f471696b11ec71c0f", "lat": 38.945539333333336}, {"type": "electric_scooter", "rental_uris": {"android": "https://dc.lft.to/lastmile_qr_scan", "ios": "https://dc.lft.to/lastmile_qr_scan"}, "fusion_lat": 0.0, "name": "2c062e05deaf612fc0fee9cb6c956006", "lon": -77.03483016666667, "is_disabled": 0, "is_reserved": 0, "fusion_lon": 0.0, "bike_id": "2c062e05deaf612fc0fee9cb6c956006", "lat": 38.92152566666667}, {"type": "electric_scooter", "rental_uris": {"android": "https://dc.lft.to/lastmile_qr_scan", "ios": "https://dc.lft.to/lastmile_qr_scan"}, "fusion_lat": 0.0, "name": "85e598112bcc46fc42a5b0c53f174c56", "lon": -77.03429816666667, "is_disabled": 0, "is_reserved": 0, "fusion_lon": 0.0, "bike_id": "85e598112bcc46fc42a5b0c53f174c56", "lat": 38.919377833333336}, {"type": "electric_scooter", "rental_uris": {"android": "https://dc.lft.to/lastmile_qr_scan", "ios": "https://dc.lft.to/lastmile_qr_scan"}, "fusion_lat": 0.0, "name": "29e0f34029657bd910335d02dc3d6ae4", "lon": -77.0856215, "is_disabled": 0, "is_reserved": 0, "fusion_lon": 0.0, "bike_id": "29e0f34029657bd910335d02dc3d6ae4", "lat": 38.93364416666667}, {"type": "electric_scooter", "rental_uris": {"android": "https://dc.lft.to/lastmile_qr_scan", "ios": "https://dc.lft.to/lastmile_qr_scan"}, "fusion_lat": 0.0, "name": "f21bf63083431d08d6263c103f6a7716", "lon": -77.006775, "is_disabled": 0, "is_reserved": 0, "fusion_lon": 0.0, "bike_id": "f21bf63083431d08d6263c103f6a7716", "lat": 38.90009766666667}, {"type": "electric_bike", "rental_uris": {"android": "https://dc.lft.to/lastmile_qr_scan", "ios": "https://dc.lft.to/lastmile_qr_scan"}, "fusion_lat": 0.0, "name": "bd6145ad19d2171c30443dcd6c32303b", "lon": -76.9723725, "is_disabled": 0, "is_reserved": 0, "fusion_lon": 0.0, "bike_id": "bd6145ad19d2171c30443dcd6c32303b", "lat": 38.94903766666667}, {"type": "electric_bike", "rental_uris": {"android": "https://dc.lft.to/lastmile_qr_scan", "ios": "https://dc.lft.to/lastmile_qr_scan"}, "fusion_lat": 0.0, "name": "ef0baf017f628abb652c42ed1ae26dee", "lon": -77.00261116666667, "is_disabled": 0, "is_reserved": 0, "fusion_lon": 0.0, "bike_id": "ef0baf017f628abb652c42ed1ae26dee", "lat": 38.95225333333333}, {"type": "electric_scooter", "rental_uris": {"android": "https://dc.lft.to/lastmile_qr_scan", "ios": "https://dc.lft.to/lastmile_qr_scan"}, "fusion_lat": 0.0, "name": "77b2e498d5426c1ed79a28a20e084fab", "lon": -76.97318316666667, "is_disabled": 0, "is_reserved": 0, "fusion_lon": 0.0, "bike_id": "77b2e498d5426c1ed79a28a20e084fab", "lat": 38.91775066666667}, {"type": "electric_scooter", "rental_uris": {"android": "https://dc.lft.to/lastmile_qr_scan", "ios": "https://dc.lft.to/lastmile_qr_scan"}, "fusion_lat": 0.0, "name": "dd5324e138183a8903ca04fe2ed461bd", "lon": -77.028736, "is_disabled": 0, "is_reserved": 0, "fusion_lon": 0.0, "bike_id": "dd5324e138183a8903ca04fe2ed461bd", "lat": 38.885049}, {"type": "electric_bike", "rental_uris": {"android": "https://dc.lft.to/lastmile_qr_scan", "ios": "https://dc.lft.to/lastmile_qr_scan"}, "fusion_lat": 0.0, "name": "99b20959023f8af8e7300353a215fd71", "lon": -77.08585783333334, "is_disabled": 0, "is_reserved": 0, "fusion_lon": 0.0, "bike_id": "99b20959023f8af8e7300353a215fd71", "lat": 38.844416}, {"type": "electric_scooter", "rental_uris": {"android": "https://dc.lft.to/lastmile_qr_scan", "ios": "https://dc.lft.to/lastmile_qr_scan"}, "fusion_lat": 0.0, "name": "f5a4b74b767a74d50b7783b61e6fd137", "lon": -77.03434716666666, "is_disabled": 0, "is_reserved": 0, "fusion_lon": 0.0, "bike_id": "f5a4b74b767a74d50b7783b61e6fd137", "lat": 38.916896}, {"type": "electric_scooter", "rental_uris": {"android": "https://dc.lft.to/lastmile_qr_scan", "ios": "https://dc.lft.to/lastmile_qr_scan"}, "fusion_lat": 0.0, "name": "43d457985ebe0b1bf78be51ab7cf5b68", "lon": -77.02116216666667, "is_disabled": 0, "is_reserved": 0, "fusion_lon": 0.0, "bike_id": "43d457985ebe0b1bf78be51ab7cf5b68", "lat": 38.902285166666665}, {"type": "electric_scooter", "rental_uris": {"android": "https://dc.lft.to/lastmile_qr_scan", "ios": "https://dc.lft.to/lastmile_qr_scan"}, "fusion_lat": 0.0, "name": "ad897e34d0c463e18e23e18816034d42", "lon": -77.0376835, "is_disabled": 0, "is_reserved": 0, "fusion_lon": 0.0, "bike_id": "ad897e34d0c463e18e23e18816034d42", "lat": 38.92557016666667}, {"type": "electric_scooter", "rental_uris": {"android": "https://dc.lft.to/lastmile_qr_scan", "ios": "https://dc.lft.to/lastmile_qr_scan"}, "fusion_lat": 0.0, "name": "cce89b2f0d5fd56280c5a702430515dd", "lon": -77.05038966666666, "is_disabled": 0, "is_reserved": 0, "fusion_lon": 0.0, "bike_id": "cce89b2f0d5fd56280c5a702430515dd", "lat": 38.92371966666666}, {"type": "electric_scooter", "rental_uris": {"android": "https://dc.lft.to/lastmile_qr_scan", "ios": "https://dc.lft.to/lastmile_qr_scan"}, "fusion_lat": 0.0, "name": "45d1fa8d70d87ef2aa657a6e5ca1f684", "lon": -77.04321616666667, "is_disabled": 0, "is_reserved": 0, "fusion_lon": 0.0, "bike_id": "45d1fa8d70d87ef2aa657a6e5ca1f684", "lat": 38.92654183333333}, {"type": "electric_scooter", "rental_uris": {"android": "https://dc.lft.to/lastmile_qr_scan", "ios": "https://dc.lft.to/lastmile_qr_scan"}, "fusion_lat": 0.0, "name": "8e26f50c759b18819282266383dade6d", "lon": -76.98884766666667, "is_disabled": 0, "is_reserved": 0, "fusion_lon": 0.0, "bike_id": "8e26f50c759b18819282266383dade6d", "lat": 38.86653966666667}, {"type": "electric_scooter", "rental_uris": {"android": "https://dc.lft.to/lastmile_qr_scan", "ios": "https://dc.lft.to/lastmile_qr_scan"}, "fusion_lat": 0.0, "name": "5245ee1161013cf34ca622b4625b8556", "lon": -76.9298935, "is_disabled": 0, "is_reserved": 0, "fusion_lon": 0.0, "bike_id": "5245ee1161013cf34ca622b4625b8556", "lat": 38.893307166666666}, {"type": "electric_scooter", "rental_uris": {"android": "https://dc.lft.to/lastmile_qr_scan", "ios": "https://dc.lft.to/lastmile_qr_scan"}, "fusion_lat": 0.0, "name": "af821c939774f3e30d089be2505f9b2f", "lon": -77.0391455, "is_disabled": 0, "is_reserved": 0, "fusion_lon": 0.0, "bike_id": "af821c939774f3e30d089be2505f9b2f", "lat": 38.924762666666666}, {"type": "electric_scooter", "rental_uris": {"android": "https://dc.lft.to/lastmile_qr_scan", "ios": "https://dc.lft.to/lastmile_qr_scan"}, "fusion_lat": 0.0, "name": "6853e983b4b4c8cddfb52317477bca39", "lon": -76.98242133333333, "is_disabled": 0, "is_reserved": 0, "fusion_lon": 0.0, "bike_id": "6853e983b4b4c8cddfb52317477bca39", "lat": 38.916631333333335}, {"type": "electric_scooter", "rental_uris": {"android": "https://dc.lft.to/lastmile_qr_scan", "ios": "https://dc.lft.to/lastmile_qr_scan"}, "fusion_lat": 0.0, "name": "4ac73f65725ceb587cab9cbea155dd21", "lon": -76.99949633333334, "is_disabled": 0, "is_reserved": 0, "fusion_lon": 0.0, "bike_id": "4ac73f65725ceb587cab9cbea155dd21", "lat": 38.89643816666667}, {"type": "electric_scooter", "rental_uris": {"android": "https://dc.lft.to/lastmile_qr_scan", "ios": "https://dc.lft.to/lastmile_qr_scan"}, "fusion_lat": 0.0, "name": "5ffd15dc634721ec011af34a41798c16", "lon": -76.9989755, "is_disabled": 0, "is_reserved": 0, "fusion_lon": 0.0, "bike_id": "5ffd15dc634721ec011af34a41798c16", "lat": 38.90954816666667}, {"type": "electric_scooter", "rental_uris": {"android": "https://dc.lft.to/lastmile_qr_scan", "ios": "https://dc.lft.to/lastmile_qr_scan"}, "fusion_lat": 0.0, "name": "a209c9812daeda55beadc613b91c9aa0", "lon": -77.01624933333333, "is_disabled": 0, "is_reserved": 0, "fusion_lon": 0.0, "bike_id": "a209c9812daeda55beadc613b91c9aa0", "lat": 38.92897716666667}, {"type": "electric_scooter", "rental_uris": {"android": "https://dc.lft.to/lastmile_qr_scan", "ios": "https://dc.lft.to/lastmile_qr_scan"}, "fusion_lat": 0.0, "name": "8883bb770ba2e1da73a0231dc8985c36", "lon": -77.02649666666667, "is_disabled": 0, "is_reserved": 0, "fusion_lon": 0.0, "bike_id": "8883bb770ba2e1da73a0231dc8985c36", "lat": 38.89826866666667}, {"type": "electric_scooter", "rental_uris": {"android": "https://dc.lft.to/lastmile_qr_scan", "ios": "https://dc.lft.to/lastmile_qr_scan"}, "fusion_lat": 0.0, "name": "a591d514a5346f88f16d14170c001c5f", "lon": -76.9955025, "is_disabled": 0, "is_reserved": 0, "fusion_lon": 0.0, "bike_id": "a591d514a5346f88f16d14170c001c5f", "lat": 38.86260633333333}, {"type": "electric_scooter", "rental_uris": {"android": "https://dc.lft.to/lastmile_qr_scan", "ios": "https://dc.lft.to/lastmile_qr_scan"}, "fusion_lat": 0.0, "name": "42499f98fa64f840b380b34bb69bbf09", "lon": -76.93134933333333, "is_disabled": 0, "is_reserved": 0, "fusion_lon": 0.0, "bike_id": "42499f98fa64f840b380b34bb69bbf09", "lat": 38.87613233333333}, {"type": "electric_scooter", "rental_uris": {"android": "https://dc.lft.to/lastmile_qr_scan", "ios": "https://dc.lft.to/lastmile_qr_scan"}, "fusion_lat": 0.0, "name": "82332e00780f332fdafe595bfb0d041f", "lon": -77.03177366666667, "is_disabled": 0, "is_reserved": 0, "fusion_lon": 0.0, "bike_id": "82332e00780f332fdafe595bfb0d041f", "lat": 38.91257133333333}, {"type": "electric_scooter", "rental_uris": {"android": "https://dc.lft.to/lastmile_qr_scan", "ios": "https://dc.lft.to/lastmile_qr_scan"}, "fusion_lat": 0.0, "name": "73756801372c7f785fc7351d42ab4cdd", "lon": -77.02022833333334, "is_disabled": 0, "is_reserved": 0, "fusion_lon": 0.0, "bike_id": "73756801372c7f785fc7351d42ab4cdd", "lat": 38.924652333333334}, {"type": "electric_bike", "rental_uris": {"android": "https://dc.lft.to/lastmile_qr_scan", "ios": "https://dc.lft.to/lastmile_qr_scan"}, "fusion_lat": 0.0, "name": "30561474c5b1aaaee82c9cd4bdeb36ae", "lon": -76.968539, "is_disabled": 0, "is_reserved": 0, "fusion_lon": 0.0, "bike_id": "30561474c5b1aaaee82c9cd4bdeb36ae", "lat": 38.9554275}, {"type": "electric_scooter", "rental_uris": {"android": "https://dc.lft.to/lastmile_qr_scan", "ios": "https://dc.lft.to/lastmile_qr_scan"}, "fusion_lat": 0.0, "name": "e81ecdf9f0f9bc2e1979a93e08c50cf2", "lon": -77.0420055, "is_disabled": 0, "is_reserved": 0, "fusion_lon": 0.0, "bike_id": "e81ecdf9f0f9bc2e1979a93e08c50cf2", "lat": 38.906419666666665}, {"type": "electric_scooter", "rental_uris": {"android": "https://dc.lft.to/lastmile_qr_scan", "ios": "https://dc.lft.to/lastmile_qr_scan"}, "fusion_lat": 0.0, "name": "65ba86985c8585632fceaeac7221da1e", "lon": -77.02113866666667, "is_disabled": 0, "is_reserved": 0, "fusion_lon": 0.0, "bike_id": "65ba86985c8585632fceaeac7221da1e", "lat": 38.924831166666664}, {"type": "electric_scooter", "rental_uris": {"android": "https://dc.lft.to/lastmile_qr_scan", "ios": "https://dc.lft.to/lastmile_qr_scan"}, "fusion_lat": 0.0, "name": "ff2c4ef065a415bcd52c312f965ca46b", "lon": -77.04874016666666, "is_disabled": 0, "is_reserved": 0, "fusion_lon": 0.0, "bike_id": "ff2c4ef065a415bcd52c312f965ca46b", "lat": 38.901232}, {"type": "electric_scooter", "rental_uris": {"android": "https://dc.lft.to/lastmile_qr_scan", "ios": "https://dc.lft.to/lastmile_qr_scan"}, "fusion_lat": 0.0, "name": "b58cbca5824c08c1c06b0384f19c01ee", "lon": -77.01249083333333, "is_disabled": 0, "is_reserved": 0, "fusion_lon": 0.0, "bike_id": "b58cbca5824c08c1c06b0384f19c01ee", "lat": 38.86481033333333}, {"type": "electric_scooter", "rental_uris": {"android": "https://dc.lft.to/lastmile_qr_scan", "ios": "https://dc.lft.to/lastmile_qr_scan"}, "fusion_lat": 0.0, "name": "e59075b335b4d5ce76bab525215e97f7", "lon": -77.0216275, "is_disabled": 0, "is_reserved": 0, "fusion_lon": 0.0, "bike_id": "e59075b335b4d5ce76bab525215e97f7", "lat": 38.926153}, {"type": "electric_scooter", "rental_uris": {"android": "https://dc.lft.to/lastmile_qr_scan", "ios": "https://dc.lft.to/lastmile_qr_scan"}, "fusion_lat": 0.0, "name": "ece817ef9e9b8a8293d9d402545f36b3", "lon": -77.02819766666667, "is_disabled": 0, "is_reserved": 0, "fusion_lon": 0.0, "bike_id": "ece817ef9e9b8a8293d9d402545f36b3", "lat": 38.902279}, {"type": "electric_scooter", "rental_uris": {"android": "https://dc.lft.to/lastmile_qr_scan", "ios": "https://dc.lft.to/lastmile_qr_scan"}, "fusion_lat": 0.0, "name": "7d28f40b34945118f22f11052fed9e2c", "lon": -77.01972216666667, "is_disabled": 0, "is_reserved": 0, "fusion_lon": 0.0, "bike_id": "7d28f40b34945118f22f11052fed9e2c", "lat": 38.905641833333334}, {"type": "electric_scooter", "rental_uris": {"android": "https://dc.lft.to/lastmile_qr_scan", "ios": "https://dc.lft.to/lastmile_qr_scan"}, "fusion_lat": 0.0, "name": "d82600e7489eb9ae8f41fc86f3381a1f", "lon": -76.99541983333333, "is_disabled": 0, "is_reserved": 0, "fusion_lon": 0.0, "bike_id": "d82600e7489eb9ae8f41fc86f3381a1f", "lat": 38.92666883333333}, {"type": "electric_scooter", "rental_uris": {"android": "https://dc.lft.to/lastmile_qr_scan", "ios": "https://dc.lft.to/lastmile_qr_scan"}, "fusion_lat": 0.0, "name": "e6f88c70c46c59de3ebcb94fb44750fa", "lon": -77.0198495, "is_disabled": 0, "is_reserved": 0, "fusion_lon": 0.0, "bike_id": "e6f88c70c46c59de3ebcb94fb44750fa", "lat": 38.91275383333333}, {"type": "electric_scooter", "rental_uris": {"android": "https://dc.lft.to/lastmile_qr_scan", "ios": "https://dc.lft.to/lastmile_qr_scan"}, "fusion_lat": 0.0, "name": "25edf465c8026c937f158650476c90d3", "lon": -77.03292633333334, "is_disabled": 0, "is_reserved": 0, "fusion_lon": 0.0, "bike_id": "25edf465c8026c937f158650476c90d3", "lat": 38.92837933333333}, {"type": "electric_scooter", "rental_uris": {"android": "https://dc.lft.to/lastmile_qr_scan", "ios": "https://dc.lft.to/lastmile_qr_scan"}, "fusion_lat": 0.0, "name": "120c9948520d0b7de0fcbd24f6713b90", "lon": -77.03313933333334, "is_disabled": 0, "is_reserved": 0, "fusion_lon": 0.0, "bike_id": "120c9948520d0b7de0fcbd24f6713b90", "lat": 38.9168775}, {"type": "electric_scooter", "rental_uris": {"android": "https://dc.lft.to/lastmile_qr_scan", "ios": "https://dc.lft.to/lastmile_qr_scan"}, "fusion_lat": 0.0, "name": "4d9203ecb2b29177482ea54c89afd33a", "lon": -77.00779316666667, "is_disabled": 0, "is_reserved": 0, "fusion_lon": 0.0, "bike_id": "4d9203ecb2b29177482ea54c89afd33a", "lat": 38.897386833333336}, {"type": "electric_scooter", "rental_uris": {"android": "https://dc.lft.to/lastmile_qr_scan", "ios": "https://dc.lft.to/lastmile_qr_scan"}, "fusion_lat": 0.0, "name": "b5113b83fd34e4cbfb815d0a7988d038", "lon": -77.039557, "is_disabled": 0, "is_reserved": 0, "fusion_lon": 0.0, "bike_id": "b5113b83fd34e4cbfb815d0a7988d038", "lat": 38.93159216666667}, {"type": "electric_scooter", "rental_uris": {"android": "https://dc.lft.to/lastmile_qr_scan", "ios": "https://dc.lft.to/lastmile_qr_scan"}, "fusion_lat": 0.0, "name": "0fbcf12860d44ed7142eddaa2ea9b5ca", "lon": -77.04002266666667, "is_disabled": 0, "is_reserved": 0, "fusion_lon": 0.0, "bike_id": "0fbcf12860d44ed7142eddaa2ea9b5ca", "lat": 38.90363}, {"type": "electric_bike", "rental_uris": {"android": "https://dc.lft.to/lastmile_qr_scan", "ios": "https://dc.lft.to/lastmile_qr_scan"}, "fusion_lat": 0.0, "name": "f895bcb69940b1774533013688fc8cb2", "lon": -76.9903395, "is_disabled": 0, "is_reserved": 0, "fusion_lon": 0.0, "bike_id": "f895bcb69940b1774533013688fc8cb2", "lat": 38.86573766666667}, {"type": "electric_scooter", "rental_uris": {"android": "https://dc.lft.to/lastmile_qr_scan", "ios": "https://dc.lft.to/lastmile_qr_scan"}, "fusion_lat": 0.0, "name": "e391bbe096a3b416cb512208d974504c", "lon": -77.03301233333333, "is_disabled": 0, "is_reserved": 0, "fusion_lon": 0.0, "bike_id": "e391bbe096a3b416cb512208d974504c", "lat": 38.92877433333334}, {"type": "electric_scooter", "rental_uris": {"android": "https://dc.lft.to/lastmile_qr_scan", "ios": "https://dc.lft.to/lastmile_qr_scan"}, "fusion_lat": 0.0, "name": "ed4e11b76c04602de32cee051875f74e", "lon": -77.0461035, "is_disabled": 0, "is_reserved": 0, "fusion_lon": 0.0, "bike_id": "ed4e11b76c04602de32cee051875f74e", "lat": 38.92184683333333}, {"type": "electric_scooter", "rental_uris": {"android": "https://dc.lft.to/lastmile_qr_scan", "ios": "https://dc.lft.to/lastmile_qr_scan"}, "fusion_lat": 0.0, "name": "fe0decfab7ffd63bf230ad99282dca30", "lon": -76.94153850000001, "is_disabled": 0, "is_reserved": 0, "fusion_lon": 0.0, "bike_id": "fe0decfab7ffd63bf230ad99282dca30", "lat": 38.8790945}, {"type": "electric_scooter", "rental_uris": {"android": "https://dc.lft.to/lastmile_qr_scan", "ios": "https://dc.lft.to/lastmile_qr_scan"}, "fusion_lat": 0.0, "name": "1681ad554584efb6d314ddf5683d3ec0", "lon": -77.04212833333334, "is_disabled": 0, "is_reserved": 0, "fusion_lon": 0.0, "bike_id": "1681ad554584efb6d314ddf5683d3ec0", "lat": 38.9231905}, {"type": "electric_scooter", "rental_uris": {"android": "https://dc.lft.to/lastmile_qr_scan", "ios": "https://dc.lft.to/lastmile_qr_scan"}, "fusion_lat": 0.0, "name": "edf2885fe6efac1a4560cfd6447fe39d", "lon": -77.00535083333334, "is_disabled": 0, "is_reserved": 0, "fusion_lon": 0.0, "bike_id": "edf2885fe6efac1a4560cfd6447fe39d", "lat": 38.909550833333334}, {"type": "electric_scooter", "rental_uris": {"android": "https://dc.lft.to/lastmile_qr_scan", "ios": "https://dc.lft.to/lastmile_qr_scan"}, "fusion_lat": 0.0, "name": "c99046039857fef3c9e050276fc8e52e", "lon": -77.044702, "is_disabled": 0, "is_reserved": 0, "fusion_lon": 0.0, "bike_id": "c99046039857fef3c9e050276fc8e52e", "lat": 38.921413666666666}, {"type": "electric_scooter", "rental_uris": {"android": "https://dc.lft.to/lastmile_qr_scan", "ios": "https://dc.lft.to/lastmile_qr_scan"}, "fusion_lat": 0.0, "name": "1e54e407f07e1d3cad2afae2cb5de5f3", "lon": -76.99269166666667, "is_disabled": 0, "is_reserved": 0, "fusion_lon": 0.0, "bike_id": "1e54e407f07e1d3cad2afae2cb5de5f3", "lat": 38.897687833333336}, {"type": "electric_scooter", "rental_uris": {"android": "https://dc.lft.to/lastmile_qr_scan", "ios": "https://dc.lft.to/lastmile_qr_scan"}, "fusion_lat": 0.0, "name": "cc45076c31dfde256819377b06c75ea2", "lon": -77.02689933333333, "is_disabled": 0, "is_reserved": 0, "fusion_lon": 0.0, "bike_id": "cc45076c31dfde256819377b06c75ea2", "lat": 38.9113555}, {"type": "electric_scooter", "rental_uris": {"android": "https://dc.lft.to/lastmile_qr_scan", "ios": "https://dc.lft.to/lastmile_qr_scan"},