{"data": {"bikes": [{"bike_id": "485189bb5a20e925c7174193336f2857", "fusion_lon": 0.0, "lon": -77.02241733333334, "name": "485189bb5a20e925c7174193336f2857", "is_disabled": 0, "rental_uris": {"android": "https://dc.lft.to/lastmile_qr_scan", "ios": "https://dc.lft.to/lastmile_qr_scan"}, "type": "electric_scooter", "lat": 38.91647483333333, "is_reserved": 0, "fusion_lat": 0.0}, {"bike_id": "bc3c472b5b7b997ec6e3740ee49a5cc8", "fusion_lon": 0.0, "lon": -77.021594, "name": "bc3c472b5b7b997ec6e3740ee49a5cc8", "is_disabled": 0, "rental_uris": {"android": "https://dc.lft.to/lastmile_qr_scan", "ios": "https://dc.lft.to/lastmile_qr_scan"}, "type": "electric_scooter", "lat": 38.90372083333333, "is_reserved": 0, "fusion_lat": 0.0}, {"bike_id": "a6baddf9a3ffd8ec65472bdaea5baeaf", "fusion_lon": 0.0, "lon": -76.9953885, "name": "a6baddf9a3ffd8ec65472bdaea5baeaf", "is_disabled": 0, "rental_uris": {"android": "https://dc.lft.to/lastmile_qr_scan", "ios": "https://dc.lft.to/lastmile_qr_scan"}, "type": "electric_scooter", "lat": 38.92060083333333, "is_reserved": 0, "fusion_lat": 0.0}, {"bike_id": "4807c97bae79dbba54d7d235c8c8595e", "fusion_lon": 0.0, "lon": -77.10727133333333, "name": "4807c97bae79dbba54d7d235c8c8595e", "is_disabled": 0, "rental_uris": {"android": "https://dc.lft.to/lastmile_qr_scan", "ios": "https://dc.lft.to/lastmile_qr_scan"}, "type": "electric_bike", "lat": 38.964879833333335, "is_reserved": 0, "fusion_lat": 0.0}, {"bike_id": "38bf08b563add05887c44f0f3f416bd3", "fusion_lon": 0.0, "lon": -77.04396133333333, "name": "38bf08b563add05887c44f0f3f416bd3", "is_disabled": 0, "rental_uris": {"android": "https://dc.lft.to/lastmile_qr_scan", "ios": "https://dc.lft.to/lastmile_qr_scan"}, "type": "electric_scooter", "lat": 38.920700333333336, "is_reserved": 0, "fusion_lat": 0.0}, {"bike_id": "252a571f46bad86f7dfbc6d396aa26f4", "fusion_lon": 0.0, "lon": -77.031893, "name": "252a571f46bad86f7dfbc6d396aa26f4", "is_disabled": 0, "rental_uris": {"android": "https://dc.lft.to/lastmile_qr_scan", "ios": "https://dc.lft.to/lastmile_qr_scan"}, "type": "electric_scooter", "lat": 38.93065633333333, "is_reserved": 0, "fusion_lat": 0.0}, {"bike_id": "84a2d31502a0b5a4c3823f401512d931", "fusion_lon": 0.0, "lon": -77.04018333333333, "name": "84a2d31502a0b5a4c3823f401512d931", "is_disabled": 0, "rental_uris": {"android": "https://dc.lft.to/lastmile_qr_scan", "ios": "https://dc.lft.to/lastmile_qr_scan"}, "type": "electric_bike", "lat": 38.7932915, "is_reserved": 0, "fusion_lat": 0.0}, {"bike_id": "ef2d1a93ed312525991b9032690dbf09", "fusion_lon": 0.0, "lon": -76.99937183333333, "name": "ef2d1a93ed312525991b9032690dbf09", "is_disabled": 0, "rental_uris": {"android": "https://dc.lft.to/lastmile_qr_scan", "ios": "https://dc.lft.to/lastmile_qr_scan"}, "type": "electric_scooter", "lat": 38.892069, "is_reserved": 0, "fusion_lat": 0.0}, {"bike_id": "ba4846fc36b082ce74a7ba20b4cb4c75", "fusion_lon": 0.0, "lon": -77.03290283333334, "name": "ba4846fc36b082ce74a7ba20b4cb4c75", "is_disabled": 0, "rental_uris": {"android": "https://dc.lft.to/lastmile_qr_scan", "ios": "https://dc.lft.to/lastmile_qr_scan"}, "type": "electric_scooter", "lat": 38.899163333333334, "is_reserved": 0, "fusion_lat": 0.0}, {"bike_id": "f6f5b4b4ea85c0679bdec46a9a7a9e65", "fusion_lon": 0.0, "lon": -76.97239283333333, "name": "f6f5b4b4ea85c0679bdec46a9a7a9e65", "is_disabled": 0, "rental_uris": {"android": "https://dc.lft.to/lastmile_qr_scan", "ios": "https://dc.lft.to/lastmile_qr_scan"}, "type": "electric_bike", "lat": 38.94903716666666, "is_reserved": 0, "fusion_lat": 0.0}, {"bike_id": "c70c265bf1a01de7a5ea139dde35611f", "fusion_lon": 0.0, "lon": -77.02692666666667, "name": "c70c265bf1a01de7a5ea139dde35611f", "is_disabled": 0, "rental_uris": {"android": "https://dc.lft.to/lastmile_qr_scan", "ios": "https://dc.lft.to/lastmile_qr_scan"}, "type": "electric_scooter", "lat": 38.90685283333333, "is_reserved": 0, "fusion_lat": 0.0}, {"bike_id": "3a6eebc2ff568363ab77ce73dbf5b848", "fusion_lon": 0.0, "lon": -77.01948316666666, "name": "3a6eebc2ff568363ab77ce73dbf5b848", "is_disabled": 0, "rental_uris": {"android": "https://dc.lft.to/lastmile_qr_scan", "ios": "https://dc.lft.to/lastmile_qr_scan"}, "type": "electric_scooter", "lat": 38.92421216666666, "is_reserved": 0, "fusion_lat": 0.0}, {"bike_id": "5388477ef5725e83764189a33e93e35a", "fusion_lon": 0.0, "lon": -77.0352185, "name": "5388477ef5725e83764189a33e93e35a", "is_disabled": 0, "rental_uris": {"android": "https://dc.lft.to/lastmile_qr_scan", "ios": "https://dc.lft.to/lastmile_qr_scan"}, "type": "electric_scooter", "lat": 38.9231655, "is_reserved": 0, "fusion_lat": 0.0}, {"bike_id": "39d6d60d1482be6d2cd14a4e5ec67a2d", "fusion_lon": 0.0, "lon": -77.03207116666667, "name": "39d6d60d1482be6d2cd14a4e5ec67a2d", "is_disabled": 0, "rental_uris": {"android": "https://dc.lft.to/lastmile_qr_scan", "ios": "https://dc.lft.to/lastmile_qr_scan"}, "type": "electric_scooter", "lat": 38.915388, "is_reserved": 0, "fusion_lat": 0.0}, {"bike_id": "90b5c4766ca951a57f7b6fb9e8d1f1d9", "fusion_lon": 0.0, "lon": -76.98708883333333, "name": "90b5c4766ca951a57f7b6fb9e8d1f1d9", "is_disabled": 0, "rental_uris": {"android": "https://dc.lft.to/lastmile_qr_scan", "ios": "https://dc.lft.to/lastmile_qr_scan"}, "type": "electric_scooter", "lat": 38.86699983333333, "is_reserved": 0, "fusion_lat": 0.0}, {"bike_id": "3b6a1f34ce9aa7e98142effc30e54f2c", "fusion_lon": 0.0, "lon": -77.04169216666666, "name": "3b6a1f34ce9aa7e98142effc30e54f2c", "is_disabled": 0, "rental_uris": {"android": "https://dc.lft.to/lastmile_qr_scan", "ios": "https://dc.lft.to/lastmile_qr_scan"}, "type": "electric_scooter", "lat": 38.9190425, "is_reserved": 0, "fusion_lat": 0.0}, {"bike_id": "1729be1db8cec5d491f531962b29da88", "fusion_lon": 0.0, "lon": -77.00576916666667, "name": "1729be1db8cec5d491f531962b29da88", "is_disabled": 0, "rental_uris": {"android": "https://dc.lft.to/lastmile_qr_scan", "ios": "https://dc.lft.to/lastmile_qr_scan"}, "type": "electric_bike", "lat": 38.873931166666665, "is_reserved": 0, "fusion_lat": 0.0}, {"bike_id": "d6228e42aa8f5f3c1d28cfe4fa0edd32", "fusion_lon": 0.0, "lon": -77.0321035, "name": "d6228e42aa8f5f3c1d28cfe4fa0edd32", "is_disabled": 0, "rental_uris": {"android": "https://dc.lft.to/lastmile_qr_scan", "ios": "https://dc.lft.to/lastmile_qr_scan"}, "type": "electric_scooter", "lat": 38.913874166666666, "is_reserved": 0, "fusion_lat": 0.0}, {"bike_id": "1965e32cf59085eba4c25b26700d0c89", "fusion_lon": 0.0, "lon": -77.02514166666667, "name": "1965e32cf59085eba4c25b26700d0c89", "is_disabled": 0, "rental_uris": {"android": "https://dc.lft.to/lastmile_qr_scan", "ios": "https://dc.lft.to/lastmile_qr_scan"}, "type": "electric_scooter", "lat": 38.946222166666665, "is_reserved": 0, "fusion_lat": 0.0}, {"bike_id": "b4049334b539706007fd8bbaa1602703", "fusion_lon": 0.0, "lon": -77.05396616666667, "name": "b4049334b539706007fd8bbaa1602703", "is_disabled": 0, "rental_uris": {"android": "https://dc.lft.to/lastmile_qr_scan", "ios": "https://dc.lft.to/lastmile_qr_scan"}, "type": "electric_scooter", "lat": 38.928103666666665, "is_reserved": 0, "fusion_lat": 0.0}, {"bike_id": "10e4166944a8a8672d131f361d8b092d", "fusion_lon": 0.0, "lon": -76.9494635, "name": "10e4166944a8a8672d131f361d8b092d", "is_disabled": 0, "rental_uris": {"android": "https://dc.lft.to/lastmile_qr_scan", "ios": "https://dc.lft.to/lastmile_qr_scan"}, "type": "electric_scooter", "lat": 38.8934965, "is_reserved": 0, "fusion_lat": 0.0}, {"bike_id": "5f4260c4a517c5fbe26ef0403fb34d2f", "fusion_lon": 0.0, "lon": -77.03699533333334, "name": "5f4260c4a517c5fbe26ef0403fb34d2f", "is_disabled": 0, "rental_uris": {"android": "https://dc.lft.to/lastmile_qr_scan", "ios": "https://dc.lft.to/lastmile_qr_scan"}, "type": "electric_scooter", "lat": 38.926414333333334, "is_reserved": 0, "fusion_lat": 0.0}, {"bike_id": "a6e3e3759701a1810ef0c62a61a1134a", "fusion_lon": 0.0, "lon": -77.023409, "name": "a6e3e3759701a1810ef0c62a61a1134a", "is_disabled": 0, "rental_uris": {"android": "https://dc.lft.to/lastmile_qr_scan", "ios": "https://dc.lft.to/lastmile_qr_scan"}, "type": "electric_scooter", "lat": 38.94467016666667, "is_reserved": 0, "fusion_lat": 0.0}, {"bike_id": "2b83878a4cc973bec0f15b6b744bcaa6", "fusion_lon": 0.0, "lon": -77.124844, "name": "2b83878a4cc973bec0f15b6b744bcaa6", "is_disabled": 0, "rental_uris": {"android": "https://dc.lft.to/lastmile_qr_scan", "ios": "https://dc.lft.to/lastmile_qr_scan"}, "type": "electric_bike", "lat": 38.85397716666667, "is_reserved": 0, "fusion_lat": 0.0}, {"bike_id": "7f6bf4c86139a812d1661cbad77e3b21", "fusion_lon": 0.0, "lon": -76.99510433333333, "name": "7f6bf4c86139a812d1661cbad77e3b21", "is_disabled": 0, "rental_uris": {"android": "https://dc.lft.to/lastmile_qr_scan", "ios": "https://dc.lft.to/lastmile_qr_scan"}, "type": "electric_scooter", "lat": 38.88370066666667, "is_reserved": 0, "fusion_lat": 0.0}, {"bike_id": "6b9cabb9671879d301c20c592265b1a9", "fusion_lon": 0.0, "lon": -77.027119, "name": "6b9cabb9671879d301c20c592265b1a9", "is_disabled": 0, "rental_uris": {"android": "https://dc.lft.to/lastmile_qr_scan", "ios": "https://dc.lft.to/lastmile_qr_scan"}, "type": "electric_scooter", "lat": 38.90671316666667, "is_reserved": 0, "fusion_lat": 0.0}, {"bike_id": "0b54997a51f68ac57e7802a461524bdf", "fusion_lon": 0.0, "lon": -77.03597333333333, "name": "0b54997a51f68ac57e7802a461524bdf", "is_disabled": 0, "rental_uris": {"android": "https://dc.lft.to/lastmile_qr_scan", "ios": "https://dc.lft.to/lastmile_qr_scan"}, "type": "electric_scooter", "lat": 38.916976166666664, "is_reserved": 0, "fusion_lat": 0.0}, {"bike_id": "dc73f0c747aa182e8fa40ac773d37ad0", "fusion_lon": 0.0, "lon": -76.97534716666667, "name": "dc73f0c747aa182e8fa40ac773d37ad0", "is_disabled": 0, "rental_uris": {"android": "https://dc.lft.to/lastmile_qr_scan", "ios": "https://dc.lft.to/lastmile_qr_scan"}, "type": "electric_bike", "lat": 38.840140166666664, "is_reserved": 0, "fusion_lat": 0.0}, {"bike_id": "a3920cae268fe427a8d9eae12d9b1942", "fusion_lon": 0.0, "lon": -77.041967, "name": "a3920cae268fe427a8d9eae12d9b1942", "is_disabled": 0, "rental_uris": {"android": "https://dc.lft.to/lastmile_qr_scan", "ios": "https://dc.lft.to/lastmile_qr_scan"}, "type": "electric_scooter", "lat": 38.92045366666667, "is_reserved": 0, "fusion_lat": 0.0}, {"bike_id": "48a26b52306c90239db412077d9850cd", "fusion_lon": 0.0, "lon": -77.02792516666666, "name": "48a26b52306c90239db412077d9850cd", "is_disabled": 0, "rental_uris": {"android": "https://dc.lft.to/lastmile_qr_scan", "ios": "https://dc.lft.to/lastmile_qr_scan"}, "type": "electric_scooter", "lat": 38.9308005, "is_reserved": 0, "fusion_lat": 0.0}, {"bike_id": "0753b98fd6789d76602717b913484821", "fusion_lon": 0.0, "lon": -76.99498033333333, "name": "0753b98fd6789d76602717b913484821", "is_disabled": 0, "rental_uris": {"android": "https://dc.lft.to/lastmile_qr_scan", "ios": "https://dc.lft.to/lastmile_qr_scan"}, "type": "electric_scooter", "lat": 38.86242283333333, "is_reserved": 0, "fusion_lat": 0.0}, {"bike_id": "d8a029ec1638df92ba93ac4f655a901b", "fusion_lon": 0.0, "lon": -77.0325145, "name": "d8a029ec1638df92ba93ac4f655a901b", "is_disabled": 0, "rental_uris": {"android": "https://dc.lft.to/lastmile_qr_scan", "ios": "https://dc.lft.to/lastmile_qr_scan"}, "type": "electric_scooter", "lat": 38.9155155, "is_reserved": 0, "fusion_lat": 0.0}, {"bike_id": "605ccddff5c55723dc91f552b8012689", "fusion_lon": 0.0, "lon": -76.98651883333334, "name": "605ccddff5c55723dc91f552b8012689", "is_disabled": 0, "rental_uris": {"android": "https://dc.lft.to/lastmile_qr_scan", "ios": "https://dc.lft.to/lastmile_qr_scan"}, "type": "electric_scooter", "lat": 38.867277, "is_reserved": 0, "fusion_lat": 0.0}, {"bike_id": "dc0b9b079e088bae79a5c8aac80a2df8", "fusion_lon": 0.0, "lon": -76.9951835, "name": "dc0b9b079e088bae79a5c8aac80a2df8", "is_disabled": 0, "rental_uris": {"android": "https://dc.lft.to/lastmile_qr_scan", "ios": "https://dc.lft.to/lastmile_qr_scan"}, "type": "electric_scooter", "lat": 38.86255933333333, "is_reserved": 0, "fusion_lat": 0.0}, {"bike_id": "73cadc8c6598e2e645421b79fa4a3aa9", "fusion_lon": 0.0, "lon": -77.03324616666667, "name": "73cadc8c6598e2e645421b79fa4a3aa9", "is_disabled": 0, "rental_uris": {"android": "https://dc.lft.to/lastmile_qr_scan", "ios": "https://dc.lft.to/lastmile_qr_scan"}, "type": "electric_scooter", "lat": 38.915668333333336, "is_reserved": 0, "fusion_lat": 0.0}, {"bike_id": "332b0d5fcfff90f524d99557cf5934a5", "fusion_lon": 0.0, "lon": -76.95741383333333, "name": "332b0d5fcfff90f524d99557cf5934a5", "is_disabled": 0, "rental_uris": {"android": "https://dc.lft.to/lastmile_qr_scan", "ios": "https://dc.lft.to/lastmile_qr_scan"}, "type": "electric_scooter", "lat": 38.89631116666666, "is_reserved": 0, "fusion_lat": 0.0}, {"bike_id": "b53e3d4693e3b792b36c11c20eeeb361", "fusion_lon": 0.0, "lon": -76.990079, "name": "b53e3d4693e3b792b36c11c20eeeb361", "is_disabled": 0, "rental_uris": {"android": "https://dc.lft.to/lastmile_qr_scan", "ios": "https://dc.lft.to/lastmile_qr_scan"}, "type": "electric_scooter", "lat": 38.858823, "is_reserved": 0, "fusion_lat": 0.0}, {"bike_id": "a563e1cf7441b6747e596a43ca7f3521", "fusion_lon": 0.0, "lon": -77.18739016666666, "name": "a563e1cf7441b6747e596a43ca7f3521", "is_disabled": 0, "rental_uris": {"android": "https://dc.lft.to/lastmile_qr_scan", "ios": "https://dc.lft.to/lastmile_qr_scan"}, "type": "electric_bike", "lat": 38.89352383333333, "is_reserved": 0, "fusion_lat": 0.0}, {"bike_id": "de8fa24a5e0c7551832a1d0b2423b14e", "fusion_lon": 0.0, "lon": -77.002982, "name": "de8fa24a5e0c7551832a1d0b2423b14e", "is_disabled": 0, "rental_uris": {"android": "https://dc.lft.to/lastmile_qr_scan", "ios": "https://dc.lft.to/lastmile_qr_scan"}, "type": "electric_scooter", "lat": 38.90124183333333, "is_reserved": 0, "fusion_lat": 0.0}, {"bike_id": "97821a4b52b3b90467541b21c151e6d5", "fusion_lon": 0.0, "lon": -77.04580766666666, "name": "97821a4b52b3b90467541b21c151e6d5", "is_disabled": 0, "rental_uris": {"android": "https://dc.lft.to/lastmile_qr_scan", "ios": "https://dc.lft.to/lastmile_qr_scan"}, "type": "electric_scooter", "lat": 38.924192833333336, "is_reserved": 0, "fusion_lat": 0.0}, {"bike_id": "cd4f7622f7427c4997fa74c56f82e2fe", "fusion_lon": 0.0, "lon": -77.00796733333334, "name": "cd4f7622f7427c4997fa74c56f82e2fe", "is_disabled": 0, "rental_uris": {"android": "https://dc.lft.to/lastmile_qr_scan", "ios": "https://dc.lft.to/lastmile_qr_scan"}, "type": "electric_scooter", "lat": 38.897160166666666, "is_reserved": 0, "fusion_lat": 0.0}, {"bike_id": "c58bf0bf7f374d3e4c1c9dfa52d7f067", "fusion_lon": 0.0, "lon": -77.04349916666666, "name": "c58bf0bf7f374d3e4c1c9dfa52d7f067", "is_disabled": 0, "rental_uris": {"android": "https://dc.lft.to/lastmile_qr_scan", "ios": "https://dc.lft.to/lastmile_qr_scan"}, "type": "electric_scooter", "lat": 38.912586, "is_reserved": 0, "fusion_lat": 0.0}, {"bike_id": "b988010e0bf4f57dfd5b231061234e4c", "fusion_lon": 0.0, "lon": -77.02372883333334, "name": "b988010e0bf4f57dfd5b231061234e4c", "is_disabled": 0, "rental_uris": {"android": "https://dc.lft.to/lastmile_qr_scan", "ios": "https://dc.lft.to/lastmile_qr_scan"}, "type": "electric_scooter", "lat": 38.916892, "is_reserved": 0, "fusion_lat": 0.0}, {"bike_id": "3227661e26e333887367f84020bd7538", "fusion_lon": 0.0, "lon": -77.026924, "name": "3227661e26e333887367f84020bd7538", "is_disabled": 0, "rental_uris": {"android": "https://dc.lft.to/lastmile_qr_scan", "ios": "https://dc.lft.to/lastmile_qr_scan"}, "type": "electric_scooter", "lat": 38.92398083333333, "is_reserved": 0, "fusion_lat": 0.0}, {"bike_id": "3d07bdd6b32ad15e6ebeff6749361fac", "fusion_lon": 0.0, "lon": -77.01174966666666, "name": "3d07bdd6b32ad15e6ebeff6749361fac", "is_disabled": 0, "rental_uris": {"android": "https://dc.lft.to/lastmile_qr_scan", "ios": "https://dc.lft.to/lastmile_qr_scan"}, "type": "electric_scooter", "lat": 38.903281666666665, "is_reserved": 0, "fusion_lat": 0.0}, {"bike_id": "21cccac913b104cb5d7ef0971a7cf090", "fusion_lon": 0.0, "lon": -76.94943866666667, "name": "21cccac913b104cb5d7ef0971a7cf090", "is_disabled": 0, "rental_uris": {"android": "https://dc.lft.to/lastmile_qr_scan", "ios": "https://dc.lft.to/lastmile_qr_scan"}, "type": "electric_scooter", "lat": 38.89347583333333, "is_reserved": 0, "fusion_lat": 0.0}, {"bike_id": "af34a52d656f2b8cf599f32f520d2d4e", "fusion_lon": 0.0, "lon": -77.03180283333333, "name": "af34a52d656f2b8cf599f32f520d2d4e", "is_disabled": 0, "rental_uris": {"android": "https://dc.lft.to/lastmile_qr_scan", "ios": "https://dc.lft.to/lastmile_qr_scan"}, "type": "electric_scooter", "lat": 38.912656166666665, "is_reserved": 0, "fusion_lat": 0.0}, {"bike_id": "db5200f1a8f490364c27577e9ad62434", "fusion_lon": 0.0, "lon": -77.0335375, "name": "db5200f1a8f490364c27577e9ad62434", "is_disabled": 0, "rental_uris": {"android": "https://dc.lft.to/lastmile_qr_scan", "ios": "https://dc.lft.to/lastmile_qr_scan"}, "type": "electric_scooter", "lat": 38.917112, "is_reserved": 0, "fusion_lat": 0.0}, {"bike_id": "7fa6821e2f84b4fb0a2a1a57a4d82263", "fusion_lon": 0.0, "lon": -77.04004766666667, "name": "7fa6821e2f84b4fb0a2a1a57a4d82263", "is_disabled": 0, "rental_uris": {"android": "https://dc.lft.to/lastmile_qr_scan", "ios": "https://dc.lft.to/lastmile_qr_scan"}, "type": "electric_scooter", "lat": 38.9100195, "is_reserved": 0, "fusion_lat": 0.0}, {"bike_id": "829bd969f2614f76eda5a47b5bd74215", "fusion_lon": 0.0, "lon": -77.04327033333334, "name": "829bd969f2614f76eda5a47b5bd74215", "is_disabled": 0, "rental_uris": {"android": "https://dc.lft.to/lastmile_qr_scan", "ios": "https://dc.lft.to/lastmile_qr_scan"}, "type": "electric_scooter", "lat": 38.89221633333333, "is_reserved": 0, "fusion_lat": 0.0}, {"bike_id": "2b85119edcb11d84399e32a13d45352f", "fusion_lon": 0.0, "lon": -77.2444685, "name": "2b85119edcb11d84399e32a13d45352f", "is_disabled": 0, "rental_uris": {"android": "https://dc.lft.to/lastmile_qr_scan", "ios": "https://dc.lft.to/lastmile_qr_scan"}, "type": "electric_bike", "lat": 38.88192766666667, "is_reserved": 0, "fusion_lat": 0.0}, {"bike_id": "bb7f0ab050d0ee78b73d6e0bb90a2e75", "fusion_lon": 0.0, "lon": -76.97185733333333, "name": "bb7f0ab050d0ee78b73d6e0bb90a2e75", "is_disabled": 0, "rental_uris": {"android": "https://dc.lft.to/lastmile_qr_scan", "ios": "https://dc.lft.to/lastmile_qr_scan"}, "type": "electric_bike", "lat": 38.916455, "is_reserved": 0, "fusion_lat": 0.0}, {"bike_id": "68b4184688ba46be4c35c5b8e42b846e", "fusion_lon": 0.0, "lon": -76.98006883333333, "name": "68b4184688ba46be4c35c5b8e42b846e", "is_disabled": 0, "rental_uris": {"android": "https://dc.lft.to/lastmile_qr_scan", "ios": "https://dc.lft.to/lastmile_qr_scan"}, "type": "electric_scooter", "lat": 38.90780083333333, "is_reserved": 0, "fusion_lat": 0.0}, {"bike_id": "d0c5bd6d8a1502d73d1eeb444e30a909", "fusion_lon": 0.0, "lon": -77.00349, "name": "d0c5bd6d8a1502d73d1eeb444e30a909", "is_disabled": 0, "rental_uris": {"android": "https://dc.lft.to/lastmile_qr_scan", "ios": "https://dc.lft.to/lastmile_qr_scan"}, "type": "electric_scooter", "lat": 38.901436333333336, "is_reserved": 0, "fusion_lat": 0.0}, {"bike_id": "4671eacff620651873cbcaa31734d350", "fusion_lon": 0.0, "lon": -77.02169766666667, "name": "4671eacff620651873cbcaa31734d350", "is_disabled": 0, "rental_uris": {"android": "https://dc.lft.to/lastmile_qr_scan", "ios": "https://dc.lft.to/lastmile_qr_scan"}, "type": "electric_scooter", "lat": 38.883314666666664, "is_reserved": 0, "fusion_lat": 0.0}, {"bike_id": "cf13b810c62bc10ef21f3eef0c995675", "fusion_lon": 0.0, "lon": -77.04306966666667, "name": "cf13b810c62bc10ef21f3eef0c995675", "is_disabled": 0, "rental_uris": {"android": "https://dc.lft.to/lastmile_qr_scan", "ios": "https://dc.lft.to/lastmile_qr_scan"}, "type": "electric_scooter", "lat": 38.900251833333336, "is_reserved": 0, "fusion_lat": 0.0}, {"bike_id": "6103d79d03df7d612a03d963f3fd8229", "fusion_lon": 0.0, "lon": -77.04325783333333, "name": "6103d79d03df7d612a03d963f3fd8229", "is_disabled": 0, "rental_uris": {"android": "https://dc.lft.to/lastmile_qr_scan", "ios": "https://dc.lft.to/lastmile_qr_scan"}, "type": "electric_scooter", "lat": 38.892263, "is_reserved": 0, "fusion_lat": 0.0}, {"bike_id": "94f094249633bba6c7055e3426c983bd", "fusion_lon": 0.0, "lon": -77.0759495, "name": "94f094249633bba6c7055e3426c983bd", "is_disabled": 0, "rental_uris": {"android": "https://dc.lft.to/lastmile_qr_scan", "ios": "https://dc.lft.to/lastmile_qr_scan"}, "type": "electric_scooter", "lat": 38.91214816666667, "is_reserved": 0, "fusion_lat": 0.0}, {"bike_id": "e4f616b4c27b7985dabbca98bf131498", "fusion_lon": 0.0, "lon": -76.99498833333334, "name": "e4f616b4c27b7985dabbca98bf131498", "is_disabled": 0, "rental_uris": {"android": "https://dc.lft.to/lastmile_qr_scan", "ios": "https://dc.lft.to/lastmile_qr_scan"}, "type": "electric_scooter", "lat": 38.862437, "is_reserved": 0, "fusion_lat": 0.0}, {"bike_id": "afbffe53457bc09a40f9746b0703bded", "fusion_lon": 0.0, "lon": -77.23322916666666, "name": "afbffe53457bc09a40f9746b0703bded", "is_disabled": 0, "rental_uris": {"android": "https://dc.lft.to/lastmile_qr_scan", "ios": "https://dc.lft.to/lastmile_qr_scan"}, "type": "electric_bike", "lat": 38.8728565, "is_reserved": 0, "fusion_lat": 0.0}, {"bike_id": "7a109356a8f453e9e254fe9630b933d4", "fusion_lon": 0.0, "lon": -77.027948, "name": "7a109356a8f453e9e254fe9630b933d4", "is_disabled": 0, "rental_uris": {"android": "https://dc.lft.to/lastmile_qr_scan", "ios": "https://dc.lft.to/lastmile_qr_scan"}, "type": "electric_scooter", "lat": 38.912273, "is_reserved": 0, "fusion_lat": 0.0}, {"bike_id": "c7746c2d6253c7ccadcf28151711ef96", "fusion_lon": 0.0, "lon": -77.0280955, "name": "c7746c2d6253c7ccadcf28151711ef96", "is_disabled": 0, "rental_uris": {"android": "https://dc.lft.to/lastmile_qr_scan", "ios": "https://dc.lft.to/lastmile_qr_scan"}, "type": "electric_scooter", "lat": 38.930861666666665, "is_reserved": 0, "fusion_lat": 0.0}, {"bike_id": "8698c3372c7f7de51b79850d81826a1b", "fusion_lon": 0.0, "lon": -77.0239085, "name": "8698c3372c7f7de51b79850d81826a1b", "is_disabled": 0, "rental_uris": {"android": "https://dc.lft.to/lastmile_qr_scan", "ios": "https://dc.lft.to/lastmile_qr_scan"}, "type": "electric_scooter", "lat": 38.917478, "is_reserved": 0, "fusion_lat": 0.0}, {"bike_id": "c6b4b1f234f404d80f633b42b3586851", "fusion_lon": 0.0, "lon": -77.04921033333333, "name": "c6b4b1f234f404d80f633b42b3586851", "is_disabled": 0, "rental_uris": {"android": "https://dc.lft.to/lastmile_qr_scan", "ios": "https://dc.lft.to/lastmile_qr_scan"}, "type": "electric_bike", "lat": 38.813518333333334, "is_reserved": 0, "fusion_lat": 0.0}, {"bike_id": "c9c95d2f74f786122b8b3a467043202a", "fusion_lon": 0.0, "lon": -77.02608533333333, "name": "c9c95d2f74f786122b8b3a467043202a", "is_disabled": 0, "rental_uris": {"android": "https://dc.lft.to/lastmile_qr_scan", "ios": "https://dc.lft.to/lastmile_qr_scan"}, "type": "electric_scooter", "lat": 38.901688166666666, "is_reserved": 0, "fusion_lat": 0.0}, {"bike_id": "5971436f25f0b1c69a039cbf0d0306ab", "fusion_lon": 0.0, "lon": -77.02126566666666, "name": "5971436f25f0b1c69a039cbf0d0306ab", "is_disabled": 0, "rental_uris": {"android": "https://dc.lft.to/lastmile_qr_scan", "ios": "https://dc.lft.to/lastmile_qr_scan"}, "type": "electric_scooter", "lat": 38.9358205, "is_reserved": 0, "fusion_lat": 0.0}, {"bike_id": "fff515016e6dfb23e2385948388c307f", "fusion_lon": 0.0, "lon": -77.02817266666666, "name": "fff515016e6dfb23e2385948388c307f", "is_disabled": 0, "rental_uris": {"android": "https://dc.lft.to/lastmile_qr_scan", "ios": "https://dc.lft.to/lastmile_qr_scan"}, "type": "electric_scooter", "lat": 38.916887333333335, "is_reserved": 0, "fusion_lat": 0.0}, {"bike_id": "0d31e3e8c97a2a1e8964e413782619e1", "fusion_lon": 0.0, "lon": -77.02548716666666, "name": "0d31e3e8c97a2a1e8964e413782619e1", "is_disabled": 0, "rental_uris": {"android": "https://dc.lft.to/lastmile_qr_scan", "ios": "https://dc.lft.to/lastmile_qr_scan"}, "type": "electric_scooter", "lat": 38.94118916666667, "is_reserved": 0, "fusion_lat": 0.0}, {"bike_id": "c030475a8b86133a80e727a0135b9819", "fusion_lon": 0.0, "lon": -77.00682083333334, "name": "c030475a8b86133a80e727a0135b9819", "is_disabled": 0, "rental_uris": {"android": "https://dc.lft.to/lastmile_qr_scan", "ios": "https://dc.lft.to/lastmile_qr_scan"}, "type": "electric_scooter", "lat": 38.900130833333336, "is_reserved": 0, "fusion_lat": 0.0}, {"bike_id": "0e0dc82bfea3ce684fe0328f36f14606", "fusion_lon": 0.0, "lon": -77.045464, "name": "0e0dc82bfea3ce684fe0328f36f14606", "is_disabled": 0, "rental_uris": {"android": "https://dc.lft.to/lastmile_qr_scan", "ios": "https://dc.lft.to/lastmile_qr_scan"}, "type": "electric_scooter", "lat": 38.93407966666667, "is_reserved": 0, "fusion_lat": 0.0}, {"bike_id": "5cd63e8caaa8701e5cfb234c5acec881", "fusion_lon": 0.0, "lon": -77.0386505, "name": "5cd63e8caaa8701e5cfb234c5acec881", "is_disabled": 0, "rental_uris": {"android": "https://dc.lft.to/lastmile_qr_scan", "ios": "https://dc.lft.to/lastmile_qr_scan"}, "type": "electric_scooter", "lat": 38.9181935, "is_reserved": 0, "fusion_lat": 0.0}, {"bike_id": "89c68d332e8f8be24761a1db51d42920", "fusion_lon": 0.0, "lon": -77.04550216666667, "name": "89c68d332e8f8be24761a1db51d42920", "is_disabled": 0, "rental_uris": {"android": "https://dc.lft.to/lastmile_qr_scan", "ios": "https://dc.lft.to/lastmile_qr_scan"}, "type": "electric_scooter", "lat": 38.91403233333333, "is_reserved": 0, "fusion_lat": 0.0}, {"bike_id": "4da5b85286eaa036c5cfbf7eb59894bd", "fusion_lon": 0.0, "lon": -77.05860683333333, "name": "4da5b85286eaa036c5cfbf7eb59894bd", "is_disabled": 0, "rental_uris": {"android": "https://dc.lft.to/lastmile_qr_scan", "ios": "https://dc.lft.to/lastmile_qr_scan"}, "type": "electric_scooter", "lat": 38.93610366666667, "is_reserved": 0, "fusion_lat": 0.0}, {"bike_id": "cd102051f337d5a4c65e112069e2b740", "fusion_lon": 0.0, "lon": -77.0351625, "name": "cd102051f337d5a4c65e112069e2b740", "is_disabled": 0, "rental_uris": {"android": "https://dc.lft.to/lastmile_qr_scan", "ios": "https://dc.lft.to/lastmile_qr_scan"}, "type": "electric_bike", "lat": 38.962033166666664, "is_reserved": 0, "fusion_lat": 0.0}, {"bike_id": "ac2aacd166e71052f249e3e18e4e246d", "fusion_lon": 0.0, "lon": -77.032814, "name": "ac2aacd166e71052f249e3e18e4e246d", "is_disabled": 0, "rental_uris": {"android": "https://dc.lft.to/lastmile_qr_scan", "ios": "https://dc.lft.to/lastmile_qr_scan"}, "type": "electric_scooter", "lat": 38.9320215, "is_reserved": 0, "fusion_lat": 0.0}, {"bike_id": "7570cd1ba20ad56c125e4c53ba069e8e", "fusion_lon": 0.0, "lon": -77.05401683333334, "name": "7570cd1ba20ad56c125e4c53ba069e8e", "is_disabled": 0, "rental_uris": {"android": "https://dc.lft.to/lastmile_qr_scan", "ios": "https://dc.lft.to/lastmile_qr_scan"}, "type": "electric_scooter", "lat": 38.928092, "is_reserved": 0, "fusion_lat": 0.0}, {"bike_id": "c80dacada17956107999fc39f0ba59d2", "fusion_lon": 0.0, "lon": -77.03067133333333, "name": "c80dacada17956107999fc39f0ba59d2", "is_disabled": 0, "rental_uris": {"android": "https://dc.lft.to/lastmile_qr_scan", "ios": "https://dc.lft.to/lastmile_qr_scan"}, "type": "electric_scooter", "lat": 38.9225155, "is_reserved": 0, "fusion_lat": 0.0}, {"bike_id": "206b47501b18e2c8ca29061343778b12", "fusion_lon": 0.0, "lon": -77.04096133333333, "name": "206b47501b18e2c8ca29061343778b12", "is_disabled": 0, "rental_uris": {"android": "https://dc.lft.to/lastmile_qr_scan", "ios": "https://dc.lft.to/lastmile_qr_scan"}, "type": "electric_scooter", "lat": 38.90581566666667, "is_reserved": 0, "fusion_lat": 0.0}, {"bike_id": "8d732a1a071051174c4007261b3420da", "fusion_lon": 0.0, "lon": -77.00342583333334, "name": "8d732a1a071051174c4007261b3420da", "is_disabled": 0, "rental_uris": {"android": "https://dc.lft.to/lastmile_qr_scan", "ios": "https://dc.lft.to/lastmile_qr_scan"}, "type": "electric_scooter", "lat": 38.901241, "is_reserved": 0, "fusion_lat": 0.0}, {"bike_id": "eaeb2af7f1ba6d0f7e470b1fa372443b", "fusion_lon": 0.0, "lon": -77.01743366666666, "name": "eaeb2af7f1ba6d0f7e470b1fa372443b", "is_disabled": 0, "rental_uris": {"android": "https://dc.lft.to/lastmile_qr_scan", "ios": "https://dc.lft.to/lastmile_qr_scan"}, "type": "electric_scooter", "lat": 38.911205, "is_reserved": 0, "fusion_lat": 0.0}, {"bike_id": "3a08ce1d2109385abcafff426a75f4df", "fusion_lon": 0.0, "lon": -77.032889, "name": "3a08ce1d2109385abcafff426a75f4df", "is_disabled": 0, "rental_uris": {"android": "https://dc.lft.to/lastmile_qr_scan", "ios": "https://dc.lft.to/lastmile_qr_scan"}, "type": "electric_scooter", "lat": 38.919924, "is_reserved": 0, "fusion_lat": 0.0}, {"bike_id": "d916bb17813ebf2fbd89c5734e630947", "fusion_lon": 0.0, "lon": -77.04159433333334, "name": "d916bb17813ebf2fbd89c5734e630947", "is_disabled": 0, "rental_uris": {"android": "https://dc.lft.to/lastmile_qr_scan", "ios": "https://dc.lft.to/lastmile_qr_scan"}, "type": "electric_scooter", "lat": 38.934116333333336, "is_reserved": 0, "fusion_lat": 0.0}, {"bike_id": "675fd6d7388510025d2a755fc2e206b0", "fusion_lon": 0.0, "lon": -77.11241766666667, "name": "675fd6d7388510025d2a755fc2e206b0", "is_disabled": 0, "rental_uris": {"android": "https://dc.lft.to/lastmile_qr_scan", "ios": "https://dc.lft.to/lastmile_qr_scan"}, "type": "electric_bike", "lat": 38.856076, "is_reserved": 0, "fusion_lat": 0.0}, {"bike_id": "bf10aa18104750fb38a7af1fd6ada7ab", "fusion_lon": 0.0, "lon": -77.120743, "name": "bf10aa18104750fb38a7af1fd6ada7ab", "is_disabled": 0, "rental_uris": {"android": "https://dc.lft.to/lastmile_qr_scan", "ios": "https://dc.lft.to/lastmile_qr_scan"}, "type": "electric_bike", "lat": 38.85415533333333, "is_reserved": 0, "fusion_lat": 0.0}, {"bike_id": "fbade902b723aa0fa1624b87b8a4740d", "fusion_lon": 0.0, "lon": -77.03337933333333, "name": "fbade902b723aa0fa1624b87b8a4740d", "is_disabled": 0, "rental_uris": {"android": "https://dc.lft.to/lastmile_qr_scan", "ios": "https://dc.lft.to/lastmile_qr_scan"}, "type": "electric_scooter", "lat": 38.91186416666667, "is_reserved": 0, "fusion_lat": 0.0}, {"bike_id": "d99474590e26e1bdc1fe42084a8e2faf", "fusion_lon": 0.0, "lon": -77.02391616666667, "name": "d99474590e26e1bdc1fe42084a8e2faf", "is_disabled": 0, "rental_uris": {"android": "https://dc.lft.to/lastmile_qr_scan", "ios": "https://dc.lft.to/lastmile_qr_scan"}, "type": "electric_scooter", "lat": 38.9174735, "is_reserved": 0, "fusion_lat": 0.0}, {"bike_id": "2436e26046e6a6b4cc120b85248e0bfc", "fusion_lon": 0.0, "lon": -77.041965, "name": "2436e26046e6a6b4cc120b85248e0bfc", "is_disabled": 0, "rental_uris": {"android": "https://dc.lft.to/lastmile_qr_scan", "ios": "https://dc.lft.to/lastmile_qr_scan"}, "type": "electric_scooter", "lat": 38.920438833333336, "is_reserved": 0, "fusion_lat": 0.0}, {"bike_id": "3bc2336b68e92c8da6a4abe7fedabd02", "fusion_lon": 0.0, "lon": -77.02709066666667, "name": "3bc2336b68e92c8da6a4abe7fedabd02", "is_disabled": 0, "rental_uris": {"android": "https://dc.lft.to/lastmile_qr_scan", "ios": "https://dc.lft.to/lastmile_qr_scan"}, "type": "electric_scooter", "lat": 38.906963, "is_reserved": 0, "fusion_lat": 0.0}, {"bike_id": "0ebb4e42404c3da217ec08c7b5dd29fb", "fusion_lon": 0.0, "lon": -77.04007616666667, "name": "0ebb4e42404c3da217ec08c7b5dd29fb", "is_disabled": 0, "rental_uris": {"android": "https://dc.lft.to/lastmile_qr_scan", "ios": "https://dc.lft.to/lastmile_qr_scan"}, "type": "electric_scooter", "lat": 38.934286666666665, "is_reserved": 0, "fusion_lat": 0.0}, {"bike_id": "7eb025ea631f84e0b0d9a121cc253721", "fusion_lon": 0.0, "lon": -77.0346795, "name": "7eb025ea631f84e0b0d9a121cc253721", "is_disabled": 0, "rental_uris": {"android": "https://dc.lft.to/lastmile_qr_scan", "ios": "https://dc.lft.to/lastmile_qr_scan"}, "type": "electric_scooter", "lat": 38.91490666666667, "is_reserved": 0, "fusion_lat": 0.0}, {"bike_id": "4f351123b43e8ec4ed601c4faa274b4c", "fusion_lon": 0.0, "lon": -77.03288666666667, "name": "4f351123b43e8ec4ed601c4faa274b4c", "is_disabled": 0, "rental_uris": {"android": "https://dc.lft.to/lastmile_qr_scan", "ios": "https://dc.lft.to/lastmile_qr_scan"}, "type": "electric_scooter", "lat": 38.919937166666664, "is_reserved": 0, "fusion_lat": 0.0}, {"bike_id": "9aeffdcb424483478f0b36ff8deac16c", "fusion_lon": 0.0, "lon": -76.99698533333333, "name": "9aeffdcb424483478f0b36ff8deac16c", "is_disabled": 0, "rental_uris": {"android": "https://dc.lft.to/lastmile_qr_scan", "ios": "https://dc.lft.to/lastmile_qr_scan"}, "type": "electric_bike", "lat": 38.83861866666667, "is_reserved": 0, "fusion_lat": 0.0}, {"bike_id": "b5c9b11f4daa7380bda5228591eeb83f", "fusion_lon": 0.0, "lon": -77.021599, "name": "b5c9b11f4daa7380bda5228591eeb83f", "is_disabled": 0, "rental_uris": {"android": "https://dc.lft.to/lastmile_qr_scan", "ios": "https://dc.lft.to/lastmile_qr_scan"}, "type": "electric_scooter", "lat": 38.90961633333333, "is_reserved": 0, "fusion_lat": 0.0}, {"bike_id": "40ff280257962d2bb227dfc664a69cba", "fusion_lon": 0.0, "lon": -76.94874166666666, "name": "40ff280257962d2bb227dfc664a69cba", "is_disabled": 0, "rental_uris": {"android": "https://dc.lft.to/lastmile_qr_scan", "ios": "https://dc.lft.to/lastmile_qr_scan"}, "type": "electric_scooter", "lat": 38.89500366666667, "is_reserved": 0, "fusion_lat": 0.0}, {"bike_id": "5b01cc21220a909086a96f93ecf885e8", "fusion_lon": 0.0, "lon": -77.07286783333333, "name": "5b01cc21220a909086a96f93ecf885e8", "is_disabled": 0, "rental_uris": {"android": "https://dc.lft.to/lastmile_qr_scan", "ios": "https://dc.lft.to/lastmile_qr_scan"}, "type": "electric_scooter", "lat": 38.934509, "is_reserved": 0, "fusion_lat": 0.0}, {"bike_id": "b0a118762746c45153b6df01933213f8", "fusion_lon": 0.0, "lon": -77.02651266666666, "name": "b0a118762746c45153b6df01933213f8", "is_disabled": 0, "rental_uris": {"android": "https://dc.lft.to/lastmile_qr_scan", "ios": "https://dc.lft.to/lastmile_qr_scan"}, "type": "electric_scooter", "lat": 38.945388666666666, "is_reserved": 0, "fusion_lat": 0.0}, {"bike_id": "51259b195fe5647539081e34375f4a4c", "fusion_lon": 0.0, "lon": -77.0395885, "name": "51259b195fe5647539081e34375f4a4c", "is_disabled": 0, "rental_uris": {"android": "https://dc.lft.to/lastmile_qr_scan", "ios": "https://dc.lft.to/lastmile_qr_scan"}, "type": "electric_scooter", "lat": 38.898484, "is_reserved": 0, "fusion_lat": 0.0}, {"bike_id": "5a48f65f88c9e9252c81dd40024db7ad", "fusion_lon": 0.0, "lon": -77.03903016666666, "name": "5a48f65f88c9e9252c81dd40024db7ad", "is_disabled": 0, "rental_uris": {"android": "https://dc.lft.to/lastmile_qr_scan", "ios": "https://dc.lft.to/lastmile_qr_scan"}, "type": "electric_scooter", "lat": 38.9220215, "is_reserved": 0, "fusion_lat": 0.0}, {"bike_id": "7212b7a2464d952cc7256433b2461fdd", "fusion_lon": 0.0, "lon": -77.016098, "name": "7212b7a2464d952cc7256433b2461fdd", "is_disabled": 0, "rental_uris": {"android": "https://dc.lft.to/lastmile_qr_scan", "ios": "https://dc.lft.to/lastmile_qr_scan"}, "type": "electric_scooter", "lat": 38.91274116666666, "is_reserved": 0, "fusion_lat": 0.0}, {"bike_id": "cfe5d3331f6db719d297005145f332b2", "fusion_lon": 0.0, "lon": -76.9817515, "name": "cfe5d3331f6db719d297005145f332b2", "is_disabled": 0, "rental_uris": {"android": "https://dc.lft.to/lastmile_qr_scan", "ios": "https://dc.lft.to/lastmile_qr_scan"}, "type": "electric_scooter", "lat": 38.856708166666664, "is_reserved": 0, "fusion_lat": 0.0}, {"bike_id": "2f925922ba52c8eb156dc69283a35e54", "fusion_lon": 0.0, "lon": -77.0238495, "name": "2f925922ba52c8eb156dc69283a35e54", "is_disabled": 0, "rental_uris": {"android": "https://dc.lft.to/lastmile_qr_scan", "ios": "https://dc.lft.to/lastmile_qr_scan"}, "type": "electric_scooter", "lat": 38.9112035, "is_reserved": 0, "fusion_lat": 0.0}, {"bike_id": "fc10d12e5e6672b09ca194b7eba614f9", "fusion_lon": 0.0, "lon": -77.02301033333333, "name": "fc10d12e5e6672b09ca194b7eba614f9", "is_disabled": 0, "rental_uris": {"android": "https://dc.lft.to/lastmile_qr_scan", "ios": "https://dc.lft.to/lastmile_qr_scan"}, "type": "electric_scooter", "lat": 38.91605716666667, "is_reserved": 0, "fusion_lat": 0.0}, {"bike_id": "c7cd0351716cc5a0f6dd8bd34dda9eee", "fusion_lon": 0.0, "lon": -77.05828033333333, "name": "c7cd0351716cc5a0f6dd8bd34dda9eee", "is_disabled": 0, "rental_uris": {"android": "https://dc.lft.to/lastmile_qr_scan", "ios": "https://dc.lft.to/lastmile_qr_scan"}, "type": "electric_scooter", "lat": 38.90533166666667, "is_reserved": 0, "fusion_lat": 0.0}, {"bike_id": "3c8c508be1dc44fc8fb2e05ead715626", "fusion_lon": 0.0, "lon": -77.0038825, "name": "3c8c508be1dc44fc8fb2e05ead715626", "is_disabled": 0, "rental_uris": {"android": "https://dc.lft.to/lastmile_qr_scan", "ios": "https://dc.lft.to/lastmile_qr_scan"}, "type": "electric_scooter", "lat": 38.922116833333334, "is_reserved": 0, "fusion_lat": 0.0}, {"bike_id": "59628761bd0e8a69e04ab3c57c507956", "fusion_lon": 0.0, "lon": -77.04421883333333, "name": "59628761bd0e8a69e04ab3c57c507956", "is_disabled": 0, "rental_uris": {"android": "https://dc.lft.to/lastmile_qr_scan", "ios": "https://dc.lft.to/lastmile_qr_scan"}, "type": "electric_scooter", "lat": 38.91005533333333, "is_reserved": 0, "fusion_lat": 0.0}, {"bike_id": "bffaa66f960e7f3fbc67c2e4e30f9159", "fusion_lon": 0.0, "lon": -77.02175133333333, "name": "bffaa66f960e7f3fbc67c2e4e30f9159", "is_disabled": 0, "rental_uris": {"android": "https://dc.lft.to/lastmile_qr_scan", "ios": "https://dc.lft.to/lastmile_qr_scan"}, "type": "electric_scooter", "lat": 38.906209833333335, "is_reserved": 0, "fusion_lat": 0.0}, {"bike_id": "e4e968392c17c37ab040fd3fe1aeefe3", "fusion_lon": 0.0, "lon": -77.0351175, "name": "e4e968392c17c37ab040fd3fe1aeefe3", "is_disabled": 0, "rental_uris": {"android": "https://dc.lft.to/lastmile_qr_scan", "ios": "https://dc.lft.to/lastmile_qr_scan"}, "type": "electric_scooter", "lat": 38.92330233333333, "is_reserved": 0, "fusion_lat": 0.0}, {"bike_id": "0f684f1aa4586526352ff704a225283c", "fusion_lon": 0.0, "lon": -77.02960716666666, "name": "0f684f1aa4586526352ff704a225283c", "is_disabled": 0, "rental_uris": {"android": "https://dc.lft.to/lastmile_qr_scan", "ios": "https://dc.lft.to/lastmile_qr_scan"}, "type": "electric_scooter", "lat": 38.916818666666664, "is_reserved": 0, "fusion_lat": 0.0}, {"bike_id": "2da1ff9bd93d2948fef2e5fb79d67120", "fusion_lon": 0.0, "lon": -76.99946416666667, "name": "2da1ff9bd93d2948fef2e5fb79d67120", "is_disabled": 0, "rental_uris": {"android": "https://dc.lft.to/lastmile_qr_scan", "ios": "https://dc.lft.to/lastmile_qr_scan"}, "type": "electric_scooter", "lat": 38.8429535, "is_reserved": 0, "fusion_lat": 0.0}, {"bike_id": "9b960983c1bb77b811132c50fbbce321", "fusion_lon": 0.0, "lon": -77.0297465, "name": "9b960983c1bb77b811132c50fbbce321", "is_disabled": 0, "rental_uris": {"android": "https://dc.lft.to/lastmile_qr_scan", "ios": "https://dc.lft.to/lastmile_qr_scan"}, "type": "electric_scooter", "lat": 38.91595083333333, "is_reserved": 0, "fusion_lat": 0.0}, {"bike_id": "8fe1a34f1bcc24133107a345d7ceb7c2", "fusion_lon": 0.0, "lon": -77.04475883333333, "name": "8fe1a34f1bcc24133107a345d7ceb7c2", "is_disabled": 0, "rental_uris": {"android": "https://dc.lft.to/lastmile_qr_scan", "ios": "https://dc.lft.to/lastmile_qr_scan"}, "type": "electric_scooter", "lat": 38.91108166666667, "is_reserved": 0, "fusion_lat": 0.0}, {"bike_id": "e62abe6ba660c8aca6a4bda141d5a1fe", "fusion_lon": 0.0, "lon": -77.0297635, "name": "e62abe6ba660c8aca6a4bda141d5a1fe", "is_disabled": 0, "rental_uris": {"android": "https://dc.lft.to/lastmile_qr_scan", "ios": "https://dc.lft.to/lastmile_qr_scan"}, "type": "electric_scooter", "lat": 38.91690766666667, "is_reserved": 0, "fusion_lat": 0.0}, {"bike_id": "25050703b40eaa6bf01606b021cd1e93", "fusion_lon": 0.0, "lon": -77.03314016666667, "name": "25050703b40eaa6bf01606b021cd1e93", "is_disabled": 0, "rental_uris": {"android": "https://dc.lft.to/lastmile_qr_scan", "ios": "https://dc.lft.to/lastmile_qr_scan"}, "type": "electric_scooter", "lat": 38.90333716666667, "is_reserved": 0, "fusion_lat": 0.0}, {"bike_id": "eb6f495cdd9ea33722cef1df715c0f30", "fusion_lon": 0.0, "lon": -77.03177483333333, "name": "eb6f495cdd9ea33722cef1df715c0f30", "is_disabled": 0, "rental_uris": {"android": "https://dc.lft.to/lastmile_qr_scan", "ios": "https://dc.lft.to/lastmile_qr_scan"}, "type": "electric_scooter", "lat": 38.908694833333335, "is_reserved": 0, "fusion_lat": 0.0}, {"bike_id": "180c1ae1479d8175be58a983b4b9d820", "fusion_lon": 0.0, "lon": -77.0333805, "name": "180c1ae1479d8175be58a983b4b9d820", "is_disabled": 0, "rental_uris": {"android": "https://dc.lft.to/lastmile_qr_scan", "ios": "https://dc.lft.to/lastmile_qr_scan"}, "type": "electric_scooter", "lat": 38.9028585, "is_reserved": 0, "fusion_lat": 0.0}, {"bike_id": "09b68e40381686c5bea1c5ddd1bf02e5", "fusion_lon": 0.0, "lon": -77.0635435, "name": "09b68e40381686c5bea1c5ddd1bf02e5", "is_disabled": 0, "rental_uris": {"android": "https://dc.lft.to/lastmile_qr_scan", "ios": "https://dc.lft.to/lastmile_qr_scan"}, "type": "electric_scooter", "lat": 38.9444085, "is_reserved": 0, "fusion_lat": 0.0}, {"bike_id": "8459684f7fec8a010b1388952cc6a015", "fusion_lon": 0.0, "lon": -77.02416533333333, "name": "8459684f7fec8a010b1388952cc6a015", "is_disabled": 0, "rental_uris": {"android": "https://dc.lft.to/lastmile_qr_scan", "ios": "https://dc.lft.to/lastmile_qr_scan"}, "type": "electric_scooter", "lat": 38.921956333333334, "is_reserved": 0, "fusion_lat": 0.0}, {"bike_id": "69d6cb823559841a4cb9825da076f1bc", "fusion_lon": 0.0, "lon": -76.9653605, "name": "69d6cb823559841a4cb9825da076f1bc", "is_disabled": 0, "rental_uris": {"android": "https://dc.lft.to/lastmile_qr_scan", "ios": "https://dc.lft.to/lastmile_qr_scan"}, "type": "electric_scooter", "lat": 38.91848916666667, "is_reserved": 0, "fusion_lat": 0.0}, {"bike_id": "141c3319fd29d13c57e41d1dbc893964", "fusion_lon": 0.0, "lon": -77.02907166666667, "name": "141c3319fd29d13c57e41d1dbc893964", "is_disabled": 0, "rental_uris": {"android": "https://dc.lft.to/lastmile_qr_scan", "ios": "https://dc.lft.to/lastmile_qr_scan"}, "type": "electric_scooter", "lat": 38.925735833333334, "is_reserved": 0, "fusion_lat": 0.0}, {"bike_id": "44d40e5751839ed2dca5b5ea5c0f2c88", "fusion_lon": 0.0, "lon": -77.0436695, "name": "44d40e5751839ed2dca5b5ea5c0f2c88", "is_disabled": 0, "rental_uris": {"android": "https://dc.lft.to/lastmile_qr_scan", "ios": "https://dc.lft.to/lastmile_qr_scan"}, "type": "electric_scooter", "lat": 38.89221466666667, "is_reserved": 0, "fusion_lat": 0.0}, {"bike_id": "5d4b58154dcdb468a1fcc52eaf2dcd53", "fusion_lon": 0.0, "lon": -77.02365716666667, "name": "5d4b58154dcdb468a1fcc52eaf2dcd53", "is_disabled": 0, "rental_uris": {"android": "https://dc.lft.to/lastmile_qr_scan", "ios": "https://dc.lft.to/lastmile_qr_scan"}, "type": "electric_scooter", "lat": 38.89220683333333, "is_reserved": 0, "fusion_lat": 0.0}, {"bike_id": "45804eacf737a515130494b7d7148b72", "fusion_lon": 0.0, "lon": -77.0411615, "name": "45804eacf737a515130494b7d7148b72", "is_disabled": 0, "rental_uris": {"android": "https://dc.lft.to/lastmile_qr_scan", "ios": "https://dc.lft.to/lastmile_qr_scan"}, "type": "electric_scooter", "lat": 38.9048945, "is_reserved": 0, "fusion_lat": 0.0}, {"bike_id": "39d23e4206bfda950283efce6359424a", "fusion_lon": 0.0, "lon": -77.02696483333334, "name": "39d23e4206bfda950283efce6359424a", "is_disabled": 0, "rental_uris": {"android": "https://dc.lft.to/lastmile_qr_scan", "ios": "https://dc.lft.to/lastmile_qr_scan"}, "type": "electric_scooter", "lat": 38.900877, "is_reserved": 0, "fusion_lat": 0.0}, {"bike_id": "1af0c0272740adae99e8f9ec214dc887", "fusion_lon": 0.0, "lon": -77.0309435, "name": "1af0c0272740adae99e8f9ec214dc887", "is_disabled": 0, "rental_uris": {"android": "https://dc.lft.to/lastmile_qr_scan", "ios": "https://dc.lft.to/lastmile_qr_scan"}, "type": "electric_scooter", "lat": 38.879205, "is_reserved": 0, "fusion_lat": 0.0}, {"bike_id": "27c15dc7739de294a65f74d9d9dd6d55", "fusion_lon": 0.0, "lon": -77.0321765, "name": "27c15dc7739de294a65f74d9d9dd6d55", "is_disabled": 0, "rental_uris": {"android": "https://dc.lft.to/lastmile_qr_scan", "ios": "https://dc.lft.to/lastmile_qr_scan"}, "type": "electric_scooter", "lat": 38.915518166666665, "is_reserved": 0, "fusion_lat": 0.0}, {"bike_id": "c9f65fd853236cd1451b4f650d31f0a6", "fusion_lon": 0.0, "lon": -76.9951505, "name": "c9f65fd853236cd1451b4f650d31f0a6", "is_disabled": 0, "rental_uris": {"android": "https://dc.lft.to/lastmile_qr_scan", "ios": "https://dc.lft.to/lastmile_qr_scan"}, "type": "electric_scooter", "lat": 38.897315, "is_reserved": 0, "fusion_lat": 0.0}, {"bike_id": "bc48c1aaca0cbf57122252395a376e7a", "fusion_lon": 0.0, "lon": -77.04701816666666, "name": "bc48c1aaca0cbf57122252395a376e7a", "is_disabled": 0, "rental_uris": {"android": "https://dc.lft.to/lastmile_qr_scan", "ios": "https://dc.lft.to/lastmile_qr_scan"}, "type": "electric_scooter", "lat": 38.909755833333335, "is_reserved": 0, "fusion_lat": 0.0}, {"bike_id": "4f4c4646c1192e39c4c4b57b3f61382f", "fusion_lon": 0.0, "lon": -77.10133783333333, "name": "4f4c4646c1192e39c4c4b57b3f61382f", "is_disabled": 0, "rental_uris": {"android": "https://dc.lft.to/lastmile_qr_scan", "ios": "https://dc.lft.to/lastmile_qr_scan"}, "type": "electric_bike", "lat": 38.85199566666667, "is_reserved": 0, "fusion_lat": 0.0}, {"bike_id": "4f8ac6cefedf18c46179522c2f7a94d3", "fusion_lon": 0.0, "lon": -76.9318645, "name": "4f8ac6cefedf18c46179522c2f7a94d3", "is_disabled": 0, "rental_uris": {"android": "https://dc.lft.to/lastmile_qr_scan", "ios": "https://dc.lft.to/lastmile_qr_scan"}, "type": "electric_scooter", "lat": 38.898773166666665, "is_reserved": 0, "fusion_lat": 0.0}, {"bike_id": "44bae8a8aa5a84c383ae55950e535c53", "fusion_lon": 0.0, "lon": -77.0092485, "name": "44bae8a8aa5a84c383ae55950e535c53", "is_disabled": 0, "rental_uris": {"android": "https://dc.lft.to/lastmile_qr_scan", "ios": "https://dc.lft.to/lastmile_qr_scan"}, "type": "electric_scooter", "lat": 38.918182, "is_reserved": 0, "fusion_lat": 0.0}, {"bike_id": "da20727601cf23536d5b291061ea63d3", "fusion_lon": 0.0, "lon": -76.99548516666667, "name": "da20727601cf23536d5b291061ea63d3", "is_disabled": 0, "rental_uris": {"android": "https://dc.lft.to/lastmile_qr_scan", "ios": "https://dc.lft.to/lastmile_qr_scan"}, "type": "electric_scooter", "lat": 38.9267525, "is_reserved": 0, "fusion_lat": 0.0}, {"bike_id": "35c65cbf456df6f27042e326a78ceaf6", "fusion_lon": 0.0, "lon": -77.09960266666667, "name": "35c65cbf456df6f27042e326a78ceaf6", "is_disabled": 0, "rental_uris": {"android": "https://dc.lft.to/lastmile_qr_scan", "ios": "https://dc.lft.to/lastmile_qr_scan"}, "type": "electric_bike", "lat": 38.857881666666664, "is_reserved": 0, "fusion_lat": 0.0}, {"bike_id": "6a639be53e31021019cdcd69843b642c", "fusion_lon": 0.0, "lon": -76.97947866666667, "name": "6a639be53e31021019cdcd69843b642c", "is_disabled": 0, "rental_uris": {"android": "https://dc.lft.to/lastmile_qr_scan", "ios": "https://dc.lft.to/lastmile_qr_scan"}, "type": "electric_scooter", "lat": 38.945268666666664, "is_reserved": 0, "fusion_lat": 0.0}, {"bike_id": "324c233bb34fe077ec8bfbcaed4eec0c", "fusion_lon": 0.0, "lon": -77.02658983333333, "name": "324c233bb34fe077ec8bfbcaed4eec0c", "is_disabled": 0, "rental_uris": {"android": "https://dc.lft.to/lastmile_qr_scan", "ios": "https://dc.lft.to/lastmile_qr_scan"}, "type": "electric_scooter", "lat": 38.92218866666666, "is_reserved": 0, "fusion_lat": 0.0}, {"bike_id": "b24064588ca5b271e7aedb6a02cbb29a", "fusion_lon": 0.0, "lon": -77.040371, "name": "b24064588ca5b271e7aedb6a02cbb29a", "is_disabled": 0, "rental_uris": {"android": "https://dc.lft.to/lastmile_qr_scan", "ios": "https://dc.lft.to/lastmile_qr_scan"}, "type": "electric_scooter", "lat": 38.918625, "is_reserved": 0, "fusion_lat": 0.0}, {"bike_id": "ce54bf85ff7416b60c1e6ee539383338", "fusion_lon": 0.0, "lon": -77.03591516666667, "name": "ce54bf85ff7416b60c1e6ee539383338", "is_disabled": 0, "rental_uris": {"android": "https://dc.lft.to/lastmile_qr_scan", "ios": "https://dc.lft.to/lastmile_qr_scan"}, "type": "electric_scooter", "lat": 38.912660833333334, "is_reserved": 0, "fusion_lat": 0.0}, {"bike_id": "d81e04cee6834fc5d45ddebc212a7562", "fusion_lon": 0.0, "lon": -77.09802833333333, "name": "d81e04cee6834fc5d45ddebc212a7562", "is_disabled": 0, "rental_uris": {"android": "https://dc.lft.to/lastmile_qr_scan", "ios": "https://dc.lft.to/lastmile_qr_scan"}, "type": "electric_bike", "lat": 38.85028116666667, "is_reserved": 0, "fusion_lat": 0.0}, {"bike_id": "49551d59913e4ca6a7c3a7849efc256d", "fusion_lon": 0.0, "lon": -77.03523416666667, "name": "49551d59913e4ca6a7c3a7849efc256d", "is_disabled": 0, "rental_uris": {"android": "https://dc.lft.to/lastmile_qr_scan", "ios": "https://dc.lft.to/lastmile_qr_scan"}, "type": "electric_scooter", "lat": 38.9359885, "is_reserved": 0, "fusion_lat": 0.0}, {"bike_id": "11365e41ee33176b2ff63887c186d021", "fusion_lon": 0.0, "lon": -77.02068483333333, "name": "11365e41ee33176b2ff63887c186d021", "is_disabled": 0, "rental_uris": {"android": "https://dc.lft.to/lastmile_qr_scan", "ios": "https://dc.lft.to/lastmile_qr_scan"}, "type": "electric_bike", "lat": 38.96438466666667, "is_reserved": 0, "fusion_lat": 0.0}, {"bike_id": "bc5b92b93ca5a58bcc3b0f20b9418954", "fusion_lon": 0.0, "lon": -77.03533433333334, "name": "bc5b92b93ca5a58bcc3b0f20b9418954", "is_disabled": 0, "rental_uris": {"android": "https://dc.lft.to/lastmile_qr_scan", "ios": "https://dc.lft.to/lastmile_qr_scan"}, "type": "electric_scooter", "lat": 38.92288216666667, "is_reserved": 0, "fusion_lat": 0.0}, {"bike_id": "93ff92c3d90c7a3f38a62a3d6418a038", "fusion_lon": 0.0, "lon": -76.92884666666667, "name": "93ff92c3d90c7a3f38a62a3d6418a038", "is_disabled": 0, "rental_uris": {"android": "https://dc.lft.to/lastmile_qr_scan", "ios": "https://dc.lft.to/lastmile_qr_scan"}, "type": "electric_scooter", "lat": 38.88517616666667, "is_reserved": 0, "fusion_lat": 0.0}, {"bike_id": "06086d15d44a72eb76511af3aa4fd877", "fusion_lon": 0.0, "lon": -77.02476466666667, "name": "06086d15d44a72eb76511af3aa4fd877", "is_disabled": 0, "rental_uris": {"android": "https://dc.lft.to/lastmile_qr_scan", "ios": "https://dc.lft.to/lastmile_qr_scan"}, "type": "electric_scooter", "lat": 38.90966916666667, "is_reserved": 0, "fusion_lat": 0.0}, {"bike_id": "1f843850731ed3644c2a7a7736bc3d93", "fusion_lon": 0.0, "lon": -77.04803883333334, "name": "1f843850731ed3644c2a7a7736bc3d93", "is_disabled": 0, "rental_uris": {"android": "https://dc.lft.to/lastmile_qr_scan", "ios": "https://dc.lft.to/lastmile_qr_scan"}, "type": "electric_scooter", "lat": 38.90205366666667, "is_reserved": 0, "fusion_lat": 0.0}, {"bike_id": "79984f10aefb78b6d1244dc6d3f979c3", "fusion_lon": 0.0, "lon": -77.02973683333333, "name": "79984f10aefb78b6d1244dc6d3f979c3", "is_disabled": 0, "rental_uris": {"android": "https://dc.lft.to/lastmile_qr_scan", "ios": "https://dc.lft.to/lastmile_qr_scan"}, "type": "electric_scooter", "lat": 38.91679366666666, "is_reserved": 0, "fusion_lat": 0.0}, {"bike_id": "669db52336b03f88359688aff30fdbc1", "fusion_lon": 0.0, "lon": -77.01756, "name": "669db52336b03f88359688aff30fdbc1", "is_disabled": 0, "rental_uris": {"android": "https://dc.lft.to/lastmile_qr_scan", "ios": "https://dc.lft.to/lastmile_qr_scan"}, "type": "electric_scooter", "lat": 38.8776775, "is_reserved": 0, "fusion_lat": 0.0}, {"bike_id": "0a95f36c955f2dabe5bc386b2a074e2f", "fusion_lon": 0.0, "lon": -77.02220983333333, "name": "0a95f36c955f2dabe5bc386b2a074e2f", "is_disabled": 0, "rental_uris": {"android": "https://dc.lft.to/lastmile_qr_scan", "ios": "https://dc.lft.to/lastmile_qr_scan"}, "type": "electric_scooter", "lat": 38.91561016666667, "is_reserved": 0, "fusion_lat": 0.0}, {"bike_id": "ebf6a53f67875cbbce450eb75bdb8c5f", "fusion_lon": 0.0, "lon": -77.02121033333333, "name": "ebf6a53f67875cbbce450eb75bdb8c5f", "is_disabled": 0, "rental_uris": {"android": "https://dc.lft.to/lastmile_qr_scan", "ios": "https://dc.lft.to/lastmile_qr_scan"}, "type": "electric_scooter", "lat": 38.93017833333333, "is_reserved": 0, "fusion_lat": 0.0}, {"bike_id": "672ff5219c2b265854d0f798d2f038ec", "fusion_lon": 0.0, "lon": -77.0337355, "name": "672ff5219c2b265854d0f798d2f038ec", "is_disabled": 0, "rental_uris": {"android": "https://dc.lft.to/lastmile_qr_scan", "ios": "https://dc.lft.to/lastmile_qr_scan"}, "type": "electric_scooter", "lat": 38.899772, "is_reserved": 0, "fusion_lat": 0.0}, {"bike_id": "5df467beb4738b05d0c37dc45ee6660c", "fusion_lon": 0.0, "lon": -77.029685, "name": "5df467beb4738b05d0c37dc45ee6660c", "is_disabled": 0, "rental_uris": {"android": "https://dc.lft.to/lastmile_qr_scan", "ios": "https://dc.lft.to/lastmile_qr_scan"}, "type": "electric_scooter", "lat": 38.916757, "is_reserved": 0, "fusion_lat": 0.0}, {"bike_id": "ca7b5bf04251afbd98201b3018c5f9f0", "fusion_lon": 0.0, "lon": -76.98615983333333, "name": "ca7b5bf04251afbd98201b3018c5f9f0", "is_disabled": 0, "rental_uris": {"android": "https://dc.lft.to/lastmile_qr_scan", "ios": "https://dc.lft.to/lastmile_qr_scan"}, "type": "electric_scooter", "lat": 38.9382575, "is_reserved": 0, "fusion_lat": 0.0}, {"bike_id": "17019b9d9c71b7ab6d41c343a7a64258", "fusion_lon": 0.0, "lon": -76.93734166666667, "name": "17019b9d9c71b7ab6d41c343a7a64258", "is_disabled": 0, "rental_uris": {"android": "https://dc.lft.to/lastmile_qr_scan", "ios": "https://dc.lft.to/lastmile_qr_scan"}, "type": "electric_scooter", "lat": 38.89015716666667, "is_reserved": 0, "fusion_lat": 0.0}, {"bike_id": "55c79868dae10a1f76884525d3e79488", "fusion_lon": 0.0, "lon": -77.018442, "name": "55c79868dae10a1f76884525d3e79488", "is_disabled": 0, "rental_uris": {"android": "https://dc.lft.to/lastmile_qr_scan", "ios": "https://dc.lft.to/lastmile_qr_scan"}, "type": "electric_scooter", "lat": 38.91526116666667, "is_reserved": 0, "fusion_lat": 0.0}, {"bike_id": "dee9ba4e78434d300dda9d568276e675", "fusion_lon": 0.0, "lon": -77.04802716666667, "name": "dee9ba4e78434d300dda9d568276e675", "is_disabled": 0, "rental_uris": {"android": "https://dc.lft.to/lastmile_qr_scan", "ios": "https://dc.lft.to/lastmile_qr_scan"}, "type": "electric_scooter", "lat": 38.892231333333335, "is_reserved": 0, "fusion_lat": 0.0}, {"bike_id": "527955721a661e8ae3ca5b4aa8c302df", "fusion_lon": 0.0, "lon": -77.02723533333334, "name": "527955721a661e8ae3ca5b4aa8c302df", "is_disabled": 0, "rental_uris": {"android": "https://dc.lft.to/lastmile_qr_scan", "ios": "https://dc.lft.to/lastmile_qr_scan"}, "type": "electric_scooter", "lat": 38.94957633333333, "is_reserved": 0, "fusion_lat": 0.0}, {"bike_id": "555b5b37f2e9abc11791453b560d26a8", "fusion_lon": 0.0, "lon": -76.99774583333334, "name": "555b5b37f2e9abc11791453b560d26a8", "is_disabled": 0, "rental_uris": {"android": "https://dc.lft.to/lastmile_qr_scan", "ios": "https://dc.lft.to/lastmile_qr_scan"}, "type": "electric_scooter", "lat": 38.909121666666664, "is_reserved": 0, "fusion_lat": 0.0}, {"bike_id": "feb81dc670e8c067b7b6ad5e15c23841", "fusion_lon": 0.0, "lon": -77.02512116666666, "name": "feb81dc670e8c067b7b6ad5e15c23841", "is_disabled": 0, "rental_uris": {"android": "https://dc.lft.to/lastmile_qr_scan", "ios": "https://dc.lft.to/lastmile_qr_scan"}, "type": "electric_scooter", "lat": 38.91565883333333, "is_reserved": 0, "fusion_lat": 0.0}, {"bike_id": "661438b731e4c92e1dd23eeba3204304", "fusion_lon": 0.0, "lon": -77.02671533333333, "name": "661438b731e4c92e1dd23eeba3204304", "is_disabled": 0, "rental_uris": {"android": "https://dc.lft.to/lastmile_qr_scan", "ios": "https://dc.lft.to/lastmile_qr_scan"}, "type": "electric_scooter", "lat": 38.9169955, "is_reserved": 0, "fusion_lat": 0.0}, {"bike_id": "a95d0bbfbd334fc0646fb32d235945e2", "fusion_lon": 0.0, "lon": -77.026072, "name": "a95d0bbfbd334fc0646fb32d235945e2", "is_disabled": 0, "rental_uris": {"android": "https://dc.lft.to/lastmile_qr_scan", "ios": "https://dc.lft.to/lastmile_qr_scan"}, "type": "electric_scooter", "lat": 38.905212666666664, "is_reserved": 0, "fusion_lat": 0.0}, {"bike_id": "0c136bc3b810896173080d310c6ec431", "fusion_lon": 0.0, "lon": -76.9961105, "name": "0c136bc3b810896173080d310c6ec431", "is_disabled": 0, "rental_uris": {"android": "https://dc.lft.to/lastmile_qr_scan", "ios": "https://dc.lft.to/lastmile_qr_scan"}, "type": "electric_scooter", "lat": 38.903678166666666, "is_reserved": 0, "fusion_lat": 0.0}, {"bike_id": "9c5892a77ac215d6b4adeda08ddd742d", "fusion_lon": 0.0, "lon": -77.02702983333333, "name": "9c5892a77ac215d6b4adeda08ddd742d", "is_disabled": 0, "rental_uris": {"android": "https://dc.lft.to/lastmile_qr_scan", "ios": "https://dc.lft.to/lastmile_qr_scan"}, "type": "electric_scooter", "lat": 38.90672166666667, "is_reserved": 0, "fusion_lat": 0.0}, {"bike_id": "5a98df7b2b461cfdd8fa7f9cefac8250", "fusion_lon": 0.0, "lon": -77.04406933333334, "name": "5a98df7b2b461cfdd8fa7f9cefac8250", "is_disabled": 0, "rental_uris": {"android": "https://dc.lft.to/lastmile_qr_scan", "ios": "https://dc.lft.to/lastmile_qr_scan"}, "type": "electric_scooter", "lat": 38.910570666666665, "is_reserved": 0, "fusion_lat": 0.0}, {"bike_id": "b5d2da3ce8a904c01a4537865aa003a5", "fusion_lon": 0.0, "lon": -77.04474133333333, "name": "b5d2da3ce8a904c01a4537865aa003a5", "is_disabled": 0, "rental_uris": {"android": "https://dc.lft.to/lastmile_qr_scan", "ios": "https://dc.lft.to/lastmile_qr_scan"}, "type": "electric_scooter", "lat": 38.915371666666665, "is_reserved": 0, "fusion_lat": 0.0}, {"bike_id": "db6d27d479390ad09d21c3903302de63", "fusion_lon": 0.0, "lon": -77.01799433333333, "name": "db6d27d479390ad09d21c3903302de63", "is_disabled": 0, "rental_uris": {"android": "https://dc.lft.to/lastmile_qr_scan", "ios": "https://dc.lft.to/lastmile_qr_scan"}, "type": "electric_scooter", "lat": 38.9041805, "is_reserved": 0, "fusion_lat": 0.0}, {"bike_id": "d450a580c1d49b885d47816f62fba663", "fusion_lon": 0.0, "lon": -77.05056983333333, "name": "d450a580c1d49b885d47816f62fba663", "is_disabled": 0, "rental_uris": {"android": "https://dc.lft.to/lastmile_qr_scan", "ios": "https://dc.lft.to/lastmile_qr_scan"}, "type": "electric_scooter", "lat": 38.92418766666667, "is_reserved": 0, "fusion_lat": 0.0}, {"bike_id": "f7fb44ec1f21fdefed465c9417051eb3", "fusion_lon": 0.0, "lon": -77.04179566666667, "name": "f7fb44ec1f21fdefed465c9417051eb3", "is_disabled": 0, "rental_uris": {"android": "https://dc.lft.to/lastmile_qr_scan", "ios": "https://dc.lft.to/lastmile_qr_scan"}, "type": "electric_scooter", "lat": 38.8991495, "is_reserved": 0, "fusion_lat": 0.0}, {"bike_id": "601393cc564c6913d459810d1a9e0cae", "fusion_lon": 0.0, "lon": -77.052348, "name": "601393cc564c6913d459810d1a9e0cae", "is_disabled": 0, "rental_uris": {"android": "https://dc.lft.to/lastmile_qr_scan", "ios": "https://dc.lft.to/lastmile_qr_scan"}, "type": "electric_scooter", "lat": 38.9246385, "is_reserved": 0, "fusion_lat": 0.0}, {"bike_id": "435fc67dc4542af397d6a7a7017f693c", "fusion_lon": 0.0, "lon": -76.94957016666666, "name": "435fc67dc4542af397d6a7a7017f693c", "is_disabled": 0, "rental_uris": {"android": "https://dc.lft.to/lastmile_qr_scan", "ios": "https://dc.lft.to/lastmile_qr_scan"}, "type": "electric_scooter", "lat": 38.90490066666667, "is_reserved": 0, "fusion_lat": 0.0}, {"bike_id": "ff9b3d8b319b94e37361c8a83bc11a0f", "fusion_lon": 0.0, "lon": -77.04041283333333, "name": "ff9b3d8b319b94e37361c8a83bc11a0f", "is_disabled": 0, "rental_uris": {"android": "https://dc.lft.to/lastmile_qr_scan", "ios": "https://dc.lft.to/lastmile_qr_scan"}, "type": "electric_scooter", "lat": 38.91326133333333, "is_reserved": 0, "fusion_lat": 0.0}, {"bike_id": "f10c09bcd5f36bf79da3e36c959bc74c", "fusion_lon": 0.0, "lon": -77.0382595, "name": "f10c09bcd5f36bf79da3e36c959bc74c", "is_disabled": 0, "rental_uris": {"android": "https://dc.lft.to/lastmile_qr_scan", "ios": "https://dc.lft.to/lastmile_qr_scan"}, "type": "electric_scooter", "lat": 38.918164166666664, "is_reserved": 0, "fusion_lat": 0.0}, {"bike_id": "90492a6318602b05aa5a3725dc439333", "fusion_lon": 0.0, "lon": -76.957532, "name": "90492a6318602b05aa5a3725dc439333", "is_disabled": 0, "rental_uris": {"android": "https://dc.lft.to/lastmile_qr_scan", "ios": "https://dc.lft.to/lastmile_qr_scan"}, "type": "electric_scooter", "lat": 38.884274833333336, "is_reserved": 0, "fusion_lat": 0.0}, {"bike_id": "44cbf111653eb68de37fe1ccc4058bce", "fusion_lon": 0.0, "lon": -77.03126883333333, "name": "44cbf111653eb68de37fe1ccc4058bce", "is_disabled": 0, "rental_uris": {"android": "https://dc.lft.to/lastmile_qr_scan", "ios": "https://dc.lft.to/lastmile_qr_scan"}, "type": "electric_scooter", "lat": 38.91492516666667, "is_reserved": 0, "fusion_lat": 0.0}, {"bike_id": "b3fae151c8b2f2cc2e0e6f75b24bbcd4", "fusion_lon": 0.0, "lon": -77.04400966666667, "name": "b3fae151c8b2f2cc2e0e6f75b24bbcd4", "is_disabled": 0, "rental_uris": {"android": "https://dc.lft.to/lastmile_qr_scan", "ios": "https://dc.lft.to/lastmile_qr_scan"}, "type": "electric_scooter", "lat": 38.914044833333335, "is_reserved": 0, "fusion_lat": 0.0}, {"bike_id": "3e4bb86edaf48b3f0a98421a2dcd6d69", "fusion_lon": 0.0, "lon": -77.02629366666666, "name": "3e4bb86edaf48b3f0a98421a2dcd6d69", "is_disabled": 0, "rental_uris": {"android": "https://dc.lft.to/lastmile_qr_scan", "ios": "https://dc.lft.to/lastmile_qr_scan"}, "type": "electric_bike", "lat": 38.96226683333333, "is_reserved": 0, "fusion_lat": 0.0}, {"bike_id": "f7f49576b812dba362f552565d76fe0e", "fusion_lon": 0.0, "lon": -77.04785583333333, "name": "f7f49576b812dba362f552565d76fe0e", "is_disabled": 0, "rental_uris": {"android": "https://dc.lft.to/lastmile_qr_scan", "ios": "https://dc.lft.to/lastmile_qr_scan"}, "type": "electric_scooter", "lat": 38.89365866666667, "is_reserved": 0, "fusion_lat": 0.0}, {"bike_id": "ebf58cd39b4f02ffeeeb740960ef1b82", "fusion_lon": 0.0, "lon": -77.0217125, "name": "ebf58cd39b4f02ffeeeb740960ef1b82", "is_disabled": 0, "rental_uris": {"android": "https://dc.lft.to/lastmile_qr_scan", "ios": "https://dc.lft.to/lastmile_qr_scan"}, "type": "electric_scooter", "lat": 38.9429205, "is_reserved": 0, "fusion_lat": 0.0}, {"bike_id": "63960860f22d042b259c15c2099e1c4a", "fusion_lon": 0.0, "lon": -77.04043366666667, "name": "63960860f22d042b259c15c2099e1c4a", "is_disabled": 0, "rental_uris": {"android": "https://dc.lft.to/lastmile_qr_scan", "ios": "https://dc.lft.to/lastmile_qr_scan"}, "type": "electric_scooter", "lat": 38.91860583333333, "is_reserved": 0, "fusion_lat": 0.0}, {"bike_id": "6bf5717b25e224b2e0a2b82ac4389511", "fusion_lon": 0.0, "lon": -77.00577333333334, "name": "6bf5717b25e224b2e0a2b82ac4389511", "is_disabled": 0, "rental_uris": {"android": "https://dc.lft.to/lastmile_qr_scan", "ios": "https://dc.lft.to/lastmile_qr_scan"}, "type": "electric_scooter", "lat": 38.908865166666665, "is_reserved": 0, "fusion_lat": 0.0}, {"bike_id": "199dd90168182875405f287739d9b77c", "fusion_lon": 0.0, "lon": -77.04287183333334, "name": "199dd90168182875405f287739d9b77c", "is_disabled": 0, "rental_uris": {"android": "https://dc.lft.to/lastmile_qr_scan", "ios": "https://dc.lft.to/lastmile_qr_scan"}, "type": "electric_scooter", "lat": 38.92065, "is_reserved": 0, "fusion_lat": 0.0}, {"bike_id": "4afe4921744b91d0ac36bbd4fb3276ed", "fusion_lon": 0.0, "lon": -77.02003683333334, "name": "4afe4921744b91d0ac36bbd4fb3276ed", "is_disabled": 0, "rental_uris": {"android": "https://dc.lft.to/lastmile_qr_scan", "ios": "https://dc.lft.to/lastmile_qr_scan"}, "type": "electric_scooter", "lat": 38.92406966666667, "is_reserved": 0, "fusion_lat": 0.0}, {"bike_id": "d8b90c7c7c40a11323f4f3eb22de8e61", "fusion_lon": 0.0, "lon": -76.98580833333334, "name": "d8b90c7c7c40a11323f4f3eb22de8e61", "is_disabled": 0, "rental_uris": {"android": "https://dc.lft.to/lastmile_qr_scan", "ios": "https://dc.lft.to/lastmile_qr_scan"}, "type": "electric_scooter", "lat": 38.854526166666666, "is_reserved": 0, "fusion_lat": 0.0}, {"bike_id": "5869ed6d72e833b827ff3b1e529a4158", "fusion_lon": 0.0, "lon": -76.96525483333333, "name": "5869ed6d72e833b827ff3b1e529a4158", "is_disabled": 0, "rental_uris": {"android": "https://dc.lft.to/lastmile_qr_scan", "ios": "https://dc.lft.to/lastmile_qr_scan"}, "type": "electric_scooter", "lat": 38.87628, "is_reserved": 0, "fusion_lat": 0.0}, {"bike_id": "6ad4ece71db548efa377ee3c3dd31f55", "fusion_lon": 0.0, "lon": -76.93135166666667, "name": "6ad4ece71db548efa377ee3c3dd31f55", "is_disabled": 0, "rental_uris": {"android": "https://dc.lft.to/lastmile_qr_scan", "ios": "https://dc.lft.to/lastmile_qr_scan"}, "type": "electric_scooter", "lat": 38.89335883333333, "is_reserved": 0, "fusion_lat": 0.0}, {"bike_id": "f78c07615108e2591c5e83e367e87d59", "fusion_lon": 0.0, "lon": -77.04317933333333, "name": "f78c07615108e2591c5e83e367e87d59", "is_disabled": 0, "rental_uris": {"android": "https://dc.lft.to/lastmile_qr_scan", "ios": "https://dc.lft.to/lastmile_qr_scan"}, "type": "electric_scooter", "lat": 38.923158666666666, "is_reserved": 0, "fusion_lat": 0.0}, {"bike_id": "dac018136e7739554e16fdea6fb5c8ff", "fusion_lon": 0.0, "lon": -77.027676, "name": "dac018136e7739554e16fdea6fb5c8ff", "is_disabled": 0, "rental_uris": {"android": "https://dc.lft.to/lastmile_qr_scan", "ios": "https://dc.lft.to/lastmile_qr_scan"}, "type": "electric_scooter", "lat": 38.95426666666667, "is_reserved": 0, "fusion_lat": 0.0}, {"bike_id": "89ed9b99eaf948eb0511d58e46108036", "fusion_lon": 0.0, "lon": -77.01535483333333, "name": "89ed9b99eaf948eb0511d58e46108036", "is_disabled": 0, "rental_uris": {"android": "https://dc.lft.to/lastmile_qr_scan", "ios": "https://dc.lft.to/lastmile_qr_scan"}, "type": "electric_scooter", "lat": 38.887448166666665, "is_reserved": 0, "fusion_lat": 0.0}, {"bike_id": "d0fa774bcc0907b88b69866084dceba9", "fusion_lon": 0.0, "lon": -77.028179, "name": "d0fa774bcc0907b88b69866084dceba9", "is_disabled": 0, "rental_uris": {"android": "https://dc.lft.to/lastmile_qr_scan", "ios": "https://dc.lft.to/lastmile_qr_scan"}, "type": "electric_scooter", "lat": 38.931728666666665, "is_reserved": 0, "fusion_lat": 0.0}, {"bike_id": "ed90183d48b860de8dc21eabe57b1fc7", "fusion_lon": 0.0, "lon": -77.02559, "name": "ed90183d48b860de8dc21eabe57b1fc7", "is_disabled": 0, "rental_uris": {"android": "https://dc.lft.to/lastmile_qr_scan", "ios": "https://dc.lft.to/lastmile_qr_scan"}, "type": "electric_scooter", "lat": 38.91631683333333, "is_reserved": 0, "fusion_lat": 0.0}, {"bike_id": "dd35113a00ae66bc9a4f1d04c776e9f9", "fusion_lon": 0.0, "lon": -77.02789816666666, "name": "dd35113a00ae66bc9a4f1d04c776e9f9", "is_disabled": 0, "rental_uris": {"android": "https://dc.lft.to/lastmile_qr_scan", "ios": "https://dc.lft.to/lastmile_qr_scan"}, "type": "electric_scooter", "lat": 38.96171433333333, "is_reserved": 0, "fusion_lat": 0.0}, {"bike_id": "4f26a7ac56c58078c8e0e8c1720f6dec", "fusion_lon": 0.0, "lon": -77.0176485, "name": "4f26a7ac56c58078c8e0e8c1720f6dec", "is_disabled": 0, "rental_uris": {"android": "https://dc.lft.to/lastmile_qr_scan", "ios": "https://dc.lft.to/lastmile_qr_scan"}, "type": "electric_scooter", "lat": 38.921058, "is_reserved": 0, "fusion_lat": 0.0}, {"bike_id": "c75d87f77dd1fd15b527ae88d8c95a52", "fusion_lon": 0.0, "lon": -77.02483983333333, "name": "c75d87f77dd1fd15b527ae88d8c95a52", "is_disabled": 0, "rental_uris": {"android": "https://dc.lft.to/lastmile_qr_scan", "ios": "https://dc.lft.to/lastmile_qr_scan"}, "type": "electric_scooter", "lat": 38.9140725, "is_reserved": 0, "fusion_lat": 0.0}, {"bike_id": "083031e9ddabbf38845d9fdd35b3b268", "fusion_lon": 0.0, "lon": -77.0469615, "name": "083031e9ddabbf38845d9fdd35b3b268", "is_disabled": 0, "rental_uris": {"android": "https://dc.lft.to/lastmile_qr_scan", "ios": "https://dc.lft.to/lastmile_qr_scan"}, "type": "electric_scooter", "lat": 38.90583866666667, "is_reserved": 0, "fusion_lat": 0.0}, {"bike_id": "4cec4b9c131d9fa8b47475714bdd9e0e", "fusion_lon": 0.0, "lon": -77.031665, "name": "4cec4b9c131d9fa8b47475714bdd9e0e", "is_disabled": 0, "rental_uris": {"android": "https://dc.lft.to/lastmile_qr_scan", "ios": "https://dc.lft.to/lastmile_qr_scan"}, "type": "electric_scooter", "lat": 38.896199, "is_reserved": 0, "fusion_lat": 0.0}, {"bike_id": "d28e8d7e0145004d8cb5a6055f9c7988", "fusion_lon": 0.0, "lon": -77.04981233333334, "name": "d28e8d7e0145004d8cb5a6055f9c7988", "is_disabled": 0, "rental_uris": {"android": "https://dc.lft.to/lastmile_qr_scan", "ios": "https://dc.lft.to/lastmile_qr_scan"}, "type": "electric_bike", "lat": 39.06292216666667, "is_reserved": 0, "fusion_lat": 0.0}, {"bike_id": "f613495607c4a97530a1b3bf29f13d8b", "fusion_lon": 0.0, "lon": -76.98769166666666, "name": "f613495607c4a97530a1b3bf29f13d8b", "is_disabled": 0, "rental_uris": {"android": "https://dc.lft.to/lastmile_qr_scan", "ios": "https://dc.lft.to/lastmile_qr_scan"}, "type": "electric_bike", "lat": 38.85773116666667, "is_reserved": 0, "fusion_lat": 0.0}, {"bike_id": "e8b0eaebdaab2ea15d2bbb218134e1de", "fusion_lon": 0.0, "lon": -77.00239966666666, "name": "e8b0eaebdaab2ea15d2bbb218134e1de", "is_disabled": 0, "rental_uris": {"android": "https://dc.lft.to/lastmile_qr_scan", "ios": "https://dc.lft.to/lastmile_qr_scan"}, "type": "electric_scooter", "lat": 38.885147833333335, "is_reserved": 0, "fusion_lat": 0.0}, {"bike_id": "fad5768bcf7460704fb9475542b1fef1", "fusion_lon": 0.0, "lon": -76.93990466666666, "name": "fad5768bcf7460704fb9475542b1fef1", "is_disabled": 0, "rental_uris": {"android": "https://dc.lft.to/lastmile_qr_scan", "ios": "https://dc.lft.to/lastmile_qr_scan"}, "type": "electric_scooter", "lat": 38.8998095, "is_reserved": 0, "fusion_lat": 0.0}, {"bike_id": "6abfc3abf826edae0bfc82fa49c1f316", "fusion_lon": 0.0, "lon": -77.178409, "name": "6abfc3abf826edae0bfc82fa49c1f316", "is_disabled": 0, "rental_uris": {"android": "https://dc.lft.to/lastmile_qr_scan", "ios": "https://dc.lft.to/lastmile_qr_scan"}, "type": "electric_bike", "lat": 39.08859366666667, "is_reserved": 0, "fusion_lat": 0.0}, {"bike_id": "d06ac8d2f4b3460b1f6626651a83ab14", "fusion_lon": 0.0, "lon": -77.0242215, "name": "d06ac8d2f4b3460b1f6626651a83ab14", "is_disabled": 0, "rental_uris": {"android": "https://dc.lft.to/lastmile_qr_scan", "ios": "https://dc.lft.to/lastmile_qr_scan"}, "type": "electric_scooter", "lat": 38.9140735, "is_reserved": 0, "fusion_lat": 0.0}, {"bike_id": "3ecd013447e0c321e3a3a0182e0aeff0", "fusion_lon": 0.0, "lon": -77.03187133333333, "name": "3ecd013447e0c321e3a3a0182e0aeff0", "is_disabled": 0, "rental_uris": {"android": "https://dc.lft.to/lastmile_qr_scan", "ios": "https://dc.lft.to/lastmile_qr_scan"}, "type": "electric_scooter", "lat": 38.918245666666664, "is_reserved": 0, "fusion_lat": 0.0}, {"bike_id": "bd3e7c5d0c58126bcd150fa03647677b", "fusion_lon": 0.0, "lon": -76.96529166666667, "name": "bd3e7c5d0c58126bcd150fa03647677b", "is_disabled": 0, "rental_uris": {"android": "https://dc.lft.to/lastmile_qr_scan", "ios": "https://dc.lft.to/lastmile_qr_scan"}, "type": "electric_bike", "lat": 38.874813333333336, "is_reserved": 0, "fusion_lat": 0.0}, {"bike_id": "f329f83ca54f650277c86529ea465531", "fusion_lon": 0.0, "lon": -76.9789215, "name": "f329f83ca54f650277c86529ea465531", "is_disabled": 0, "rental_uris": {"android": "https://dc.lft.to/lastmile_qr_scan", "ios": "https://dc.lft.to/lastmile_qr_scan"}, "type": "electric_bike", "lat": 38.91588466666666, "is_reserved": 0, "fusion_lat": 0.0}, {"bike_id": "4034f7a1cefe82700850410f8a000b02", "fusion_lon": 0.0, "lon": -77.0315095, "name": "4034f7a1cefe82700850410f8a000b02", "is_disabled": 0, "rental_uris": {"android": "https://dc.lft.to/lastmile_qr_scan", "ios": "https://dc.lft.to/lastmile_qr_scan"}, "type": "electric_scooter", "lat": 38.927840333333336, "is_reserved": 0, "fusion_lat": 0.0}, {"bike_id": "0a0d3c4169eb73124df1df21a308e5d5", "fusion_lon": 0.0, "lon": -77.22222183333334, "name": "0a0d3c4169eb73124df1df21a308e5d5", "is_disabled": 0, "rental_uris": {"android": "https://dc.lft.to/lastmile_qr_scan", "ios": "https://dc.lft.to/lastmile_qr_scan"}, "type": "electric_bike", "lat": 38.92856733333333, "is_reserved": 0, "fusion_lat": 0.0}, {"bike_id": "852311930d76e5eceac4f49b65f9f315", "fusion_lon": 0.0, "lon": -77.02309416666667, "name": "852311930d76e5eceac4f49b65f9f315", "is_disabled": 0, "rental_uris": {"android": "https://dc.lft.to/lastmile_qr_scan", "ios": "https://dc.lft.to/lastmile_qr_scan"}, "type": "electric_scooter", "lat": 38.896629833333336, "is_reserved": 0, "fusion_lat": 0.0}, {"bike_id": "1815866777823beba326c21269b33a42", "fusion_lon": 0.0, "lon": -77.02691283333333, "name": "1815866777823beba326c21269b33a42", "is_disabled": 0, "rental_uris": {"android": "https://dc.lft.to/lastmile_qr_scan", "ios": "https://dc.lft.to/lastmile_qr_scan"}, "type": "electric_scooter", "lat": 38.906787333333334, "is_reserved": 0, "fusion_lat": 0.0}, {"bike_id": "a35bbe3cb5abfbe2db826e190cbc8424", "fusion_lon": 0.0, "lon": -77.06532016666667, "name": "a35bbe3cb5abfbe2db826e190cbc8424", "is_disabled": 0, "rental_uris": {"android": "https://dc.lft.to/lastmile_qr_scan", "ios": "https://dc.lft.to/lastmile_qr_scan"}, "type": "electric_scooter", "lat": 38.902931833333334, "is_reserved": 0, "fusion_lat": 0.0}, {"bike_id": "a6a0f7ad0ddef7c36581ae810a2c4f54", "fusion_lon": 0.0, "lon": -77.03379433333333, "name": "a6a0f7ad0ddef7c36581ae810a2c4f54", "is_disabled": 0, "rental_uris": {"android": "https://dc.lft.to/lastmile_qr_scan", "ios": "https://dc.lft.to/lastmile_qr_scan"}, "type": "electric_scooter", "lat": 38.90958466666667, "is_reserved": 0, "fusion_lat": 0.0}, {"bike_id": "5671c42d7ef4d0a98b5469358e94e313", "fusion_lon": 0.0, "lon": -77.02007116666667, "name": "5671c42d7ef4d0a98b5469358e94e313", "is_disabled": 0, "rental_uris": {"android": "https://dc.lft.to/lastmile_qr_scan", "ios": "https://dc.lft.to/lastmile_qr_scan"}, "type": "electric_scooter", "lat": 38.899096666666665, "is_reserved": 0, "fusion_lat": 0.0}, {"bike_id": "a5e0e124c63f25619a5e902216d20857", "fusion_lon": 0.0, "lon": -77.0057305, "name": "a5e0e124c63f25619a5e902216d20857", "is_disabled": 0, "rental_uris": {"android": "https://dc.lft.to/lastmile_qr_scan", "ios": "https://dc.lft.to/lastmile_qr_scan"}, "type": "electric_scooter", "lat": 38.87253966666667, "is_reserved": 0, "fusion_lat": 0.0}, {"bike_id": "20ece38a02787cc5a099163ddb0f7b7a", "fusion_lon": 0.0, "lon": -77.02492083333334, "name": "20ece38a02787cc5a099163ddb0f7b7a", "is_disabled": 0, "rental_uris": {"android": "https://dc.lft.to/lastmile_qr_scan", "ios": "https://dc.lft.to/lastmile_qr_scan"}, "type": "electric_scooter", "lat": 38.94183966666667, "is_reserved": 0, "fusion_lat": 0.0}, {"bike_id": "60c88a98bee04caf2da965d991d32835", "fusion_lon": 0.0, "lon": -77.0321165, "name": "60c88a98bee04caf2da965d991d32835", "is_disabled": 0, "rental_uris": {"android": "https://dc.lft.to/lastmile_qr_scan", "ios": "https://dc.lft.to/lastmile_qr_scan"}, "type": "electric_scooter", "lat": 38.8973575, "is_reserved": 0, "fusion_lat": 0.0}, {"bike_id": "da163c02fbb03f6cc1aa775fb279d782", "fusion_lon": 0.0, "lon": -77.03329016666666, "name": "da163c02fbb03f6cc1aa775fb279d782", "is_disabled": 0, "rental_uris": {"android": "https://dc.lft.to/lastmile_qr_scan", "ios": "https://dc.lft.to/lastmile_qr_scan"}, "type": "electric_scooter", "lat": 38.913623, "is_reserved": 0, "fusion_lat": 0.0}, {"bike_id": "20d65e03d6c16301beae619b8a00811f", "fusion_lon": 0.0, "lon": -77.02721883333334, "name": "20d65e03d6c16301beae619b8a00811f", "is_disabled": 0, "rental_uris": {"android": "https://dc.lft.to/lastmile_qr_scan", "ios": "https://dc.lft.to/lastmile_qr_scan"}, "type": "electric_scooter", "lat": 38.91709, "is_reserved": 0, "fusion_lat": 0.0}, {"bike_id": "e3695da8cdb5d05e3e203957e3f2f808", "fusion_lon": 0.0, "lon": -77.03296866666666, "name": "e3695da8cdb5d05e3e203957e3f2f808", "is_disabled": 0, "rental_uris": {"android": "https://dc.lft.to/lastmile_qr_scan", "ios": "https://dc.lft.to/lastmile_qr_scan"}, "type": "electric_scooter", "lat": 38.94712833333333, "is_reserved": 0, "fusion_lat": 0.0}, {"bike_id": "494a4f1cab176885ae74363515f01779", "fusion_lon": 0.0, "lon": -77.01803283333334, "name": "494a4f1cab176885ae74363515f01779", "is_disabled": 0, "rental_uris": {"android": "https://dc.lft.to/lastmile_qr_scan", "ios": "https://dc.lft.to/lastmile_qr_scan"}, "type": "electric_scooter", "lat": 38.92124666666667, "is_reserved": 0, "fusion_lat": 0.0}, {"bike_id": "17b38dd3336f9e3307c353672de23f0f", "fusion_lon": 0.0, "lon": -77.04184466666666, "name": "17b38dd3336f9e3307c353672de23f0f", "is_disabled": 0, "rental_uris": {"android": "https://dc.lft.to/lastmile_qr_scan", "ios": "https://dc.lft.to/lastmile_qr_scan"}, "type": "electric_scooter", "lat": 38.892905666666664, "is_reserved": 0, "fusion_lat": 0.0}, {"bike_id": "04578229ac621e0eb25e02514d74a74b", "fusion_lon": 0.0, "lon": -76.99034033333334, "name": "04578229ac621e0eb25e02514d74a74b", "is_disabled": 0, "rental_uris": {"android": "https://dc.lft.to/lastmile_qr_scan", "ios": "https://dc.lft.to/lastmile_qr_scan"}, "type": "electric_bike", "lat": 38.898079, "is_reserved": 0, "fusion_lat": 0.0}, {"bike_id": "dda406f25b48615d4f415bdb49e9b459", "fusion_lon": 0.0, "lon": -77.02219883333333, "name": "dda406f25b48615d4f415bdb49e9b459", "is_disabled": 0, "rental_uris": {"android": "https://dc.lft.to/lastmile_qr_scan", "ios": "https://dc.lft.to/lastmile_qr_scan"}, "type": "electric_scooter", "lat": 38.89222016666667, "is_reserved": 0, "fusion_lat": 0.0}, {"bike_id": "e1f340630e117bc6ed5c8e46fb3c9275", "fusion_lon": 0.0, "lon": -77.04395216666667, "name": "e1f340630e117bc6ed5c8e46fb3c9275", "is_disabled": 0, "rental_uris": {"android": "https://dc.lft.to/lastmile_qr_scan", "ios": "https://dc.lft.to/lastmile_qr_scan"}, "type": "electric_scooter", "lat": 38.90146633333333, "is_reserved": 0, "fusion_lat": 0.0}, {"bike_id": "a988816a41dffb8392135c9039a5e720", "fusion_lon": 0.0, "lon": -77.00036783333333, "name": "a988816a41dffb8392135c9039a5e720", "is_disabled": 0, "rental_uris": {"android": "https://dc.lft.to/lastmile_qr_scan", "ios": "https://dc.lft.to/lastmile_qr_scan"}, "type": "electric_scooter", "lat": 38.873942666666665, "is_reserved": 0, "fusion_lat": 0.0}, {"bike_id": "837de963b986eb57fd5b4cf6710b8609", "fusion_lon": 0.0, "lon": -77.02091966666667, "name": "837de963b986eb57fd5b4cf6710b8609", "is_disabled": 0, "rental_uris": {"android": "https://dc.lft.to/lastmile_qr_scan", "ios": "https://dc.lft.to/lastmile_qr_scan"}, "type": "electric_scooter", "lat": 38.922095166666665, "is_reserved": 0, "fusion_lat": 0.0}, {"bike_id": "5f0a7a47af1f2e96a8020f79c20973c1", "fusion_lon": 0.0, "lon": -77.014097, "name": "5f0a7a47af1f2e96a8020f79c20973c1", "is_disabled": 0, "rental_uris": {"android": "https://dc.lft.to/lastmile_qr_scan", "ios": "https://dc.lft.to/lastmile_qr_scan"}, "type": "electric_scooter", "lat": 38.88122533333333, "is_reserved": 0, "fusion_lat": 0.0}, {"bike_id": "7c9212ced5a0ab4b9bcab5195455d030", "fusion_lon": 0.0, "lon": -76.98177333333334, "name": "7c9212ced5a0ab4b9bcab5195455d030", "is_disabled": 0, "rental_uris": {"android": "https://dc.lft.to/lastmile_qr_scan", "ios": "https://dc.lft.to/lastmile_qr_scan"}, "type": "electric_bike", "lat": 38.846273, "is_reserved": 0, "fusion_lat": 0.0}, {"bike_id": "089aa00d18ea148274d31acbf260bd43", "fusion_lon": 0.0, "lon": -77.0143565, "name": "089aa00d18ea148274d31acbf260bd43", "is_disabled": 0, "rental_uris": {"android": "https://dc.lft.to/lastmile_qr_scan", "ios": "https://dc.lft.to/lastmile_qr_scan"}, "type": "electric_scooter", "lat": 38.9196145, "is_reserved": 0, "fusion_lat": 0.0}, {"bike_id": "edf2f586a997d15082f95602987537a9", "fusion_lon": 0.0, "lon": -77.07334183333333, "name": "edf2f586a997d15082f95602987537a9", "is_disabled": 0, "rental_uris": {"android": "https://dc.lft.to/lastmile_qr_scan", "ios": "https://dc.lft.to/lastmile_qr_scan"}, "type": "electric_scooter", "lat": 38.92559966666666, "is_reserved": 0, "fusion_lat": 0.0}, {"bike_id": "326a971950d8d7c08a92be6e7d197b8b", "fusion_lon": 0.0, "lon": -77.02750383333333, "name": "326a971950d8d7c08a92be6e7d197b8b", "is_disabled": 0, "rental_uris": {"android": "https://dc.lft.to/lastmile_qr_scan", "ios": "https://dc.lft.to/lastmile_qr_scan"}, "type": "electric_scooter", "lat": 38.939604833333334, "is_reserved": 0, "fusion_lat": 0.0}, {"bike_id": "8a14636da190132bc1886241d569325c", "fusion_lon": 0.0, "lon": -77.021986, "name": "8a14636da190132bc1886241d569325c", "is_disabled": 0, "rental_uris": {"android": "https://dc.lft.to/lastmile_qr_scan", "ios": "https://dc.lft.to/lastmile_qr_scan"}, "type": "electric_scooter", "lat": 38.91479316666667, "is_reserved": 0, "fusion_lat": 0.0}, {"bike_id": "2c2fe1c5b416713b784266b34f61c971", "fusion_lon": 0.0, "lon": -77.0086045, "name": "2c2fe1c5b416713b784266b34f61c971", "is_disabled": 0, "rental_uris": {"android": "https://dc.lft.to/lastmile_qr_scan", "ios": "https://dc.lft.to/lastmile_qr_scan"}, "type": "electric_scooter", "lat": 38.87830266666667, "is_reserved": 0, "fusion_lat": 0.0}, {"bike_id": "856b8dc1809426817fa3d3bdaa1c166a", "fusion_lon": 0.0, "lon": -77.04376566666667, "name": "856b8dc1809426817fa3d3bdaa1c166a", "is_disabled": 0, "rental_uris": {"android": "https://dc.lft.to/lastmile_qr_scan", "ios": "https://dc.lft.to/lastmile_qr_scan"}, "type": "electric_scooter", "lat": 38.92071583333333, "is_reserved": 0, "fusion_lat": 0.0}, {"bike_id": "46f7132f507c0b89580ec57b1ae0a092", "fusion_lon": 0.0, "lon": -77.05759383333333, "name": "46f7132f507c0b89580ec57b1ae0a092", "is_disabled": 0, "rental_uris": {"android": "https://dc.lft.to/lastmile_qr_scan", "ios": "https://dc.lft.to/lastmile_qr_scan"}, "type": "electric_scooter", "lat": 38.92571916666667, "is_reserved": 0, "fusion_lat": 0.0}, {"bike_id": "1714ff64a455c60a688c34ffa4b8d515", "fusion_lon": 0.0, "lon": -77.03500816666667, "name": "1714ff64a455c60a688c34ffa4b8d515", "is_disabled": 0, "rental_uris": {"android": "https://dc.lft.to/lastmile_qr_scan", "ios": "https://dc.lft.to/lastmile_qr_scan"}, "type": "electric_scooter", "lat": 38.963844, "is_reserved": 0, "fusion_lat": 0.0}, {"bike_id": "0aa47bb2cb4fb53a9e6fab6dfc28161b", "fusion_lon": 0.0, "lon": -77.02577283333333, "name": "0aa47bb2cb4fb53a9e6fab6dfc28161b", "is_disabled": 0, "rental_uris": {"android": "https://dc.lft.to/lastmile_qr_scan", "ios": "https://dc.lft.to/lastmile_qr_scan"}, "type": "electric_scooter", "lat": 38.9170795, "is_reserved": 0, "fusion_lat": 0.0}, {"bike_id": "f03a94a390e3c063167412ff82de11b9", "fusion_lon": 0.0, "lon": -77.03570566666667, "name": "f03a94a390e3c063167412ff82de11b9", "is_disabled": 0, "rental_uris": {"android": "https://dc.lft.to/lastmile_qr_scan", "ios": "https://dc.lft.to/lastmile_qr_scan"}, "type": "electric_scooter", "lat": 38.923299166666666, "is_reserved": 0, "fusion_lat": 0.0}, {"bike_id": "83d8b288907f27011c60639599239328", "fusion_lon": 0.0, "lon": -76.98206766666667, "name": "83d8b288907f27011c60639599239328", "is_disabled": 0, "rental_uris": {"android": "https://dc.lft.to/lastmile_qr_scan", "ios": "https://dc.lft.to/lastmile_qr_scan"}, "type": "electric_bike", "lat": 38.98504583333333, "is_reserved": 0, "fusion_lat": 0.0}, {"bike_id": "fca5e7216281f1cf5c8e880ab601c79f", "fusion_lon": 0.0, "lon": -76.9780805, "name": "fca5e7216281f1cf5c8e880ab601c79f", "is_disabled": 0, "rental_uris": {"android": "https://dc.lft.to/lastmile_qr_scan", "ios": "https://dc.lft.to/lastmile_qr_scan"}, "type": "electric_scooter", "lat": 38.8945275, "is_reserved": 0, "fusion_lat": 0.0}, {"bike_id": "33741e2e77da6f4a85b64f0433003174", "fusion_lon": 0.0, "lon": -77.02164016666667, "name": "33741e2e77da6f4a85b64f0433003174", "is_disabled": 0, "rental_uris": {"android": "https://dc.lft.to/lastmile_qr_scan", "ios": "https://dc.lft.to/lastmile_qr_scan"}, "type": "electric_scooter", "lat": 38.94699116666666, "is_reserved": 0, "fusion_lat": 0.0}, {"bike_id": "4fb511f308ef6d40bf41bfe85238017a", "fusion_lon": 0.0, "lon": -77.04099516666666, "name": "4fb511f308ef6d40bf41bfe85238017a", "is_disabled": 0, "rental_uris": {"android": "https://dc.lft.to/lastmile_qr_scan", "ios": "https://dc.lft.to/lastmile_qr_scan"}, "type": "electric_scooter", "lat": 38.917852, "is_reserved": 0, "fusion_lat": 0.0}, {"bike_id": "27fd150efdfb3788cb5d13517cd09a8c", "fusion_lon": 0.0, "lon": -77.0184695, "name": "27fd150efdfb3788cb5d13517cd09a8c", "is_disabled": 0, "rental_uris": {"android": "https://dc.lft.to/lastmile_qr_scan", "ios": "https://dc.lft.to/lastmile_qr_scan"}, "type": "electric_scooter", "lat": 38.90391616666667, "is_reserved": 0, "fusion_lat": 0.0}, {"bike_id": "74292bc3419a9a2181b370e1f1c78c88", "fusion_lon": 0.0, "lon": -77.03250216666666, "name": "74292bc3419a9a2181b370e1f1c78c88", "is_disabled": 0, "rental_uris": {"android": "https://dc.lft.to/lastmile_qr_scan", "ios": "https://dc.lft.to/lastmile_qr_scan"}, "type": "electric_bike", "lat": 38.962809, "is_reserved": 0, "fusion_lat": 0.0}, {"bike_id": "af47ed6f72804d082cf8f58061ff6460", "fusion_lon": 0.0, "lon": -77.01771816666667, "name": "af47ed6f72804d082cf8f58061ff6460", "is_disabled": 0, "rental_uris": {"android": "https://dc.lft.to/lastmile_qr_scan", "ios": "https://dc.lft.to/lastmile_qr_scan"}, "type": "electric_bike", "lat": 38.98272, "is_reserved": 0, "fusion_lat": 0.0}, {"bike_id": "ba40f660325e243a0a07727ee32eb102", "fusion_lon": 0.0, "lon": -77.02089133333334, "name": "ba40f660325e243a0a07727ee32eb102", "is_disabled": 0, "rental_uris": {"android": "https://dc.lft.to/lastmile_qr_scan", "ios": "https://dc.lft.to/lastmile_qr_scan"}, "type": "electric_scooter", "lat": 38.94111866666667, "is_reserved": 0, "fusion_lat": 0.0}, {"bike_id": "4ff9bee4459f37b7830b09be5ca6906a", "fusion_lon": 0.0, "lon": -77.00044183333333, "name": "4ff9bee4459f37b7830b09be5ca6906a", "is_disabled": 0, "rental_uris": {"android": "https://dc.lft.to/lastmile_qr_scan", "ios": "https://dc.lft.to/lastmile_qr_scan"}, "type": "electric_bike", "lat": 38.873923, "is_reserved": 0, "fusion_lat": 0.0}, {"bike_id": "02389c2deff53514238b59c94bd28631", "fusion_lon": 0.0, "lon": -77.01689066666667, "name": "02389c2deff53514238b59c94bd28631", "is_disabled": 0, "rental_uris": {"android": "https://dc.lft.to/lastmile_qr_scan", "ios": "https://dc.lft.to/lastmile_qr_scan"}, "type": "electric_scooter", "lat": 38.906432, "is_reserved": 0, "fusion_lat": 0.0}, {"bike_id": "28ba9a99fa1005aecf95703263618dc5", "fusion_lon": 0.0, "lon": -77.005844, "name": "28ba9a99fa1005aecf95703263618dc5", "is_disabled": 0, "rental_uris": {"android": "https://dc.lft.to/lastmile_qr_scan", "ios": "https://dc.lft.to/lastmile_qr_scan"}, "type": "electric_scooter", "lat": 38.875863333333335, "is_reserved": 0, "fusion_lat": 0.0}, {"bike_id": "16de6db893a912a0760b9da1e6f809cb", "fusion_lon": 0.0, "lon": -77.0500125, "name": "16de6db893a912a0760b9da1e6f809cb", "is_disabled": 0, "rental_uris": {"android": "https://dc.lft.to/lastmile_qr_scan", "ios": "https://dc.lft.to/lastmile_qr_scan"}, "type": "electric_scooter", "lat": 38.89234033333334, "is_reserved": 0, "fusion_lat": 0.0}, {"bike_id": "ba12d967a8d6ef2855b08f0627219b4e", "fusion_lon": 0.0, "lon": -77.06858333333334, "name": "ba12d967a8d6ef2855b08f0627219b4e", "is_disabled": 0, "rental_uris": {"android": "https://dc.lft.to/lastmile_qr_scan", "ios": "https://dc.lft.to/lastmile_qr_scan"}, "type": "electric_bike", "lat": 38.80575316666667, "is_reserved": 0, "fusion_lat": 0.0}, {"bike_id": "162aa3152b2e96d26e470bbdfdca0ea5", "fusion_lon": 0.0, "lon": -77.02712666666666, "name": "162aa3152b2e96d26e470bbdfdca0ea5", "is_disabled": 0, "rental_uris": {"android": "https://dc.lft.to/lastmile_qr_scan", "ios": "https://dc.lft.to/lastmile_qr_scan"}, "type": "electric_scooter", "lat": 38.906361, "is_reserved": 0, "fusion_lat": 0.0}, {"bike_id": "5794acdc918e1e66e86a99fa55adc1d7", "fusion_lon": 0.0, "lon": -77.02495116666667, "name": "5794acdc918e1e66e86a99fa55adc1d7", "is_disabled": 0, "rental_uris": {"android": "https://dc.lft.to/lastmile_qr_scan", "ios": "https://dc.lft.to/lastmile_qr_scan"}, "type": "electric_scooter", "lat": 38.943139, "is_reserved": 0, "fusion_lat": 0.0}, {"bike_id": "8e0f823d7da204550ad609d10e730462", "fusion_lon": 0.0, "lon": -77.0141165, "name": "8e0f823d7da204550ad609d10e730462", "is_disabled": 0, "rental_uris": {"android": "https://dc.lft.to/lastmile_qr_scan", "ios": "https://dc.lft.to/lastmile_qr_scan"}, "type": "electric_scooter", "lat": 38.928194833333336, "is_reserved": 0, "fusion_lat": 0.0}, {"bike_id": "ff89f9a072fd8ba6f8a4d917fc5e37e0", "fusion_lon": 0.0, "lon": -76.93608733333333, "name": "ff89f9a072fd8ba6f8a4d917fc5e37e0", "is_disabled": 0, "rental_uris": {"android": "https://dc.lft.to/lastmile_qr_scan", "ios": "https://dc.lft.to/lastmile_qr_scan"}, "type": "electric_scooter", "lat": 38.89683516666667, "is_reserved": 0, "fusion_lat": 0.0}, {"bike_id": "916006e2e818c406dfaf4fde52b3af10", "fusion_lon": 0.0, "lon": -77.01627, "name": "916006e2e818c406dfaf4fde52b3af10", "is_disabled": 0, "rental_uris": {"android": "https://dc.lft.to/lastmile_qr_scan", "ios": "https://dc.lft.to/lastmile_qr_scan"}, "type": "electric_scooter", "lat": 38.9068575, "is_reserved": 0, "fusion_lat": 0.0}, {"bike_id": "2c18b8df46ce04ea2efd32127b8720d8", "fusion_lon": 0.0, "lon": -77.02405783333333, "name": "2c18b8df46ce04ea2efd32127b8720d8", "is_disabled": 0, "rental_uris": {"android": "https://dc.lft.to/lastmile_qr_scan", "ios": "https://dc.lft.to/lastmile_qr_scan"}, "type": "electric_scooter", "lat": 38.899853666666665, "is_reserved": 0, "fusion_lat": 0.0}, {"bike_id": "19d78af43e71a126250ee5750c153dad", "fusion_lon": 0.0, "lon": -77.06386516666667, "name": "19d78af43e71a126250ee5750c153dad", "is_disabled": 0, "rental_uris": {"android": "https://dc.lft.to/lastmile_qr_scan", "ios": "https://dc.lft.to/lastmile_qr_scan"}, "type": "electric_scooter", "lat": 38.90257016666666, "is_reserved": 0, "fusion_lat": 0.0}, {"bike_id": "378b6d383fd7af8cabe7d54abce481e2", "fusion_lon": 0.0, "lon": -76.98691133333334, "name": "378b6d383fd7af8cabe7d54abce481e2", "is_disabled": 0, "rental_uris": {"android": "https://dc.lft.to/lastmile_qr_scan", "ios": "https://dc.lft.to/lastmile_qr_scan"}, "type": "electric_bike", "lat": 38.94473816666667, "is_reserved": 0, "fusion_lat": 0.0}, {"bike_id": "84d5de67dc440949ff919dadff721e84", "fusion_lon": 0.0, "lon": -77.03162616666667, "name": "84d5de67dc440949ff919dadff721e84", "is_disabled": 0, "rental_uris": {"android": "https://dc.lft.to/lastmile_qr_scan", "ios": "https://dc.lft.to/lastmile_qr_scan"}, "type": "electric_scooter", "lat": 38.909632333333334, "is_reserved": 0, "fusion_lat": 0.0}, {"bike_id": "451fdb6da5757c0d389bd93016c72afb", "fusion_lon": 0.0, "lon": -76.9990935, "name": "451fdb6da5757c0d389bd93016c72afb", "is_disabled": 0, "rental_uris": {"android": "https://dc.lft.to/lastmile_qr_scan", "ios": "https://dc.lft.to/lastmile_qr_scan"}, "type": "electric_scooter", "lat": 38.948243833333336, "is_reserved": 0, "fusion_lat": 0.0}, {"bike_id": "8bc91deac2ff8db98cb21f8ff30b2ca2", "fusion_lon": 0.0, "lon": -77.0554385, "name": "8bc91deac2ff8db98cb21f8ff30b2ca2", "is_disabled": 0, "rental_uris": {"android": "https://dc.lft.to/lastmile_qr_scan", "ios": "https://dc.lft.to/lastmile_qr_scan"}, "type": "electric_scooter", "lat": 38.930082, "is_reserved": 0, "fusion_lat": 0.0}, {"bike_id": "7030789bce37475bd85d1667ff9ec8d4", "fusion_lon": 0.0, "lon": -77.0257015, "name": "7030789bce37475bd85d1667ff9ec8d4", "is_disabled": 0, "rental_uris": {"android": "https://dc.lft.to/lastmile_qr_scan", "ios": "https://dc.lft.to/lastmile_qr_scan"}, "type": "electric_scooter", "lat": 38.92578316666667, "is_reserved": 0, "fusion_lat": 0.0}, {"bike_id": "697e9d1dbcdc8e2229e969e40d40dd8e", "fusion_lon": 0.0, "lon": -76.99815, "name": "697e9d1dbcdc8e2229e969e40d40dd8e", "is_disabled": 0, "rental_uris": {"android": "https://dc.lft.to/lastmile_qr_scan", "ios": "https://dc.lft.to/lastmile_qr_scan"}, "type": "electric_scooter", "lat": 38.84429383333333, "is_reserved": 0, "fusion_lat": 0.0}, {"bike_id": "d53d2db0f3b8edceb03de26daef6fe8c", "fusion_lon": 0.0, "lon": -76.99050866666667, "name": "d53d2db0f3b8edceb03de26daef6fe8c", "is_disabled": 0, "rental_uris": {"android": "https://dc.lft.to/lastmile_qr_scan", "ios": "https://dc.lft.to/lastmile_qr_scan"}, "type": "electric_scooter", "lat": 38.8636205, "is_reserved": 0, "fusion_lat": 0.0}, {"bike_id": "569532ddced9676de46bfd4ad76549e1", "fusion_lon": 0.0, "lon": -77.024128, "name": "569532ddced9676de46bfd4ad76549e1", "is_disabled": 0, "rental_uris": {"android": "https://dc.lft.to/lastmile_qr_scan", "ios": "https://dc.lft.to/lastmile_qr_scan"}, "type": "electric_bike", "lat": 38.93459983333333, "is_reserved": 0, "fusion_lat": 0.0}, {"bike_id": "928c755ec162eb4d77cbdd41c3dd99b9", "fusion_lon": 0.0, "lon": -77.02966916666666, "name": "928c755ec162eb4d77cbdd41c3dd99b9", "is_disabled": 0, "rental_uris": {"android": "https://dc.lft.to/lastmile_qr_scan", "ios": "https://dc.lft.to/lastmile_qr_scan"}, "type": "electric_scooter", "lat": 38.9168225, "is_reserved": 0, "fusion_lat": 0.0}, {"bike_id": "a1541a89d6f8510b63196ff04dad8657", "fusion_lon": 0.0, "lon": -77.02817066666667, "name": "a1541a89d6f8510b63196ff04dad8657", "is_disabled": 0, "rental_uris": {"android": "https://dc.lft.to/lastmile_qr_scan", "ios": "https://dc.lft.to/lastmile_qr_scan"}, "type": "electric_scooter", "lat": 38.91428966666667, "is_reserved": 0, "fusion_lat": 0.0}, {"bike_id": "51bf4c8a2980a5cbfae8d2b0334b80a8", "fusion_lon": 0.0, "lon": -77.022603, "name": "51bf4c8a2980a5cbfae8d2b0334b80a8", "is_disabled": 0, "rental_uris": {"android": "https://dc.lft.to/lastmile_qr_scan", "ios": "https://dc.lft.to/lastmile_qr_scan"}, "type": "electric_bike", "lat": 38.937345666666666, "is_reserved": 0, "fusion_lat": 0.0}, {"bike_id": "5e9e994d5c663a3215de1db9aaad7cf9", "fusion_lon": 0.0, "lon": -77.0259755, "name": "5e9e994d5c663a3215de1db9aaad7cf9", "is_disabled": 0, "rental_uris": {"android": "https://dc.lft.to/lastmile_qr_scan", "ios": "https://dc.lft.to/lastmile_qr_scan"}, "type": "electric_scooter", "lat": 38.916965, "is_reserved": 0, "fusion_lat": 0.0}, {"bike_id": "bfd5732143040571776138f6d600af60", "fusion_lon": 0.0, "lon": -76.9949355, "name": "bfd5732143040571776138f6d600af60", "is_disabled": 0, "rental_uris": {"android": "https://dc.lft.to/lastmile_qr_scan", "ios": "https://dc.lft.to/lastmile_qr_scan"}, "type": "electric_scooter", "lat": 38.86242683333333, "is_reserved": 0, "fusion_lat": 0.0}, {"bike_id": "9602a0733287fe04fbdfe507cbef7f38", "fusion_lon": 0.0, "lon": -77.016376, "name": "9602a0733287fe04fbdfe507cbef7f38", "is_disabled": 0, "rental_uris": {"android": "https://dc.lft.to/lastmile_qr_scan", "ios": "https://dc.lft.to/lastmile_qr_scan"}, "type": "electric_scooter", "lat": 38.88121366666667, "is_reserved": 0, "fusion_lat": 0.0}, {"bike_id": "94e6b4328321e0b6942b54c8b7ad8e5f", "fusion_lon": 0.0, "lon": -77.04617233333333, "name": "94e6b4328321e0b6942b54c8b7ad8e5f", "is_disabled": 0, "rental_uris": {"android": "https://dc.lft.to/lastmile_qr_scan", "ios": "https://dc.lft.to/lastmile_qr_scan"}, "type": "electric_scooter", "lat": 38.908621, "is_reserved": 0, "fusion_lat": 0.0}, {"bike_id": "2e0290e1aaacc5036c721fb04320ceab", "fusion_lon": 0.0, "lon": -77.05235183333333, "name": "2e0290e1aaacc5036c721fb04320ceab", "is_disabled": 0, "rental_uris": {"android": "https://dc.lft.to/lastmile_qr_scan", "ios": "https://dc.lft.to/lastmile_qr_scan"}, "type": "electric_scooter", "lat": 38.926958, "is_reserved": 0, "fusion_lat": 0.0}, {"bike_id": "3147b083947ab52f9d223a56632c8194", "fusion_lon": 0.0, "lon": -77.01132616666666, "name": "3147b083947ab52f9d223a56632c8194", "is_disabled": 0, "rental_uris": {"android": "https://dc.lft.to/lastmile_qr_scan", "ios": "https://dc.lft.to/lastmile_qr_scan"}, "type": "electric_scooter", "lat": 38.8853005, "is_reserved": 0, "fusion_lat": 0.0}, {"bike_id": "08486f5b8ebfe5d5e8b0c97f4f0802f4", "fusion_lon": 0.0, "lon": -77.00856533333334, "name": "08486f5b8ebfe5d5e8b0c97f4f0802f4", "is_disabled": 0, "rental_uris": {"android": "https://dc.lft.to/lastmile_qr_scan", "ios": "https://dc.lft.to/lastmile_qr_scan"}, "type": "electric_scooter", "lat": 38.959687333333335, "is_reserved": 0, "fusion_lat": 0.0}, {"bike_id": "979a3b5e35f2b3aac0bd02820587249f", "fusion_lon": 0.0, "lon": -76.9770325, "name": "979a3b5e35f2b3aac0bd02820587249f", "is_disabled": 0, "rental_uris": {"android": "https://dc.lft.to/lastmile_qr_scan", "ios": "https://dc.lft.to/lastmile_qr_scan"}, "type": "electric_scooter", "lat": 38.90252316666667, "is_reserved": 0, "fusion_lat": 0.0}, {"bike_id": "65e26289ee54c349c7ca2c525839cc4f", "fusion_lon": 0.0, "lon": -77.03427783333333, "name": "65e26289ee54c349c7ca2c525839cc4f", "is_disabled": 0, "rental_uris": {"android": "https://dc.lft.to/lastmile_qr_scan", "ios": "https://dc.lft.to/lastmile_qr_scan"}, "type": "electric_scooter", "lat": 38.93084183333333, "is_reserved": 0, "fusion_lat": 0.0}, {"bike_id": "65e401cd4eb12dd9ba71fe7465acefdf", "fusion_lon": 0.0, "lon": -77.0466475, "name": "65e401cd4eb12dd9ba71fe7465acefdf", "is_disabled": 0, "rental_uris": {"android": "https://dc.lft.to/lastmile_qr_scan", "ios": "https://dc.lft.to/lastmile_qr_scan"}, "type": "electric_scooter", "lat": 38.9005925, "is_reserved": 0, "fusion_lat": 0.0}, {"bike_id": "f3da49606a35a052cd6d5ba7438d24d4", "fusion_lon": 0.0, "lon": -77.03890333333334, "name": "f3da49606a35a052cd6d5ba7438d24d4", "is_disabled": 0, "rental_uris": {"android": "https://dc.lft.to/lastmile_qr_scan", "ios": "https://dc.lft.to/lastmile_qr_scan"}, "type": "electric_scooter", "lat": 38.918578833333335, "is_reserved": 0, "fusion_lat": 0.0}, {"bike_id": "a93bd44d5b46a2f5faa5e2c631427b15", "fusion_lon": 0.0, "lon": -77.036619, "name": "a93bd44d5b46a2f5faa5e2c631427b15", "is_disabled": 0, "rental_uris": {"android": "https://dc.lft.to/lastmile_qr_scan", "ios": "https://dc.lft.to/lastmile_qr_scan"}, "type": "electric_scooter", "lat": 38.922890833333334, "is_reserved": 0, "fusion_lat": 0.0}, {"bike_id": "0b30c7349c5b1ab7b83e30a94f8e1a61", "fusion_lon": 0.0, "lon": -77.0102195, "name": "0b30c7349c5b1ab7b83e30a94f8e1a61", "is_disabled": 0, "rental_uris": {"android": "https://dc.lft.to/lastmile_qr_scan", "ios": "https://dc.lft.to/lastmile_qr_scan"}, "type": "electric_bike", "lat": 38.95602233333334, "is_reserved": 0, "fusion_lat": 0.0}, {"bike_id": "89bb1fbe0e942b5437b19efeb84d2dde", "fusion_lon": 0.0, "lon": -77.036041, "name": "89bb1fbe0e942b5437b19efeb84d2dde", "is_disabled": 0, "rental_uris": {"android": "https://dc.lft.to/lastmile_qr_scan", "ios": "https://dc.lft.to/lastmile_qr_scan"}, "type": "electric_scooter", "lat": 38.90755983333333, "is_reserved": 0, "fusion_lat": 0.0}, {"bike_id": "cfe882a95290b0ce49c07fc741cdc4e9", "fusion_lon": 0.0, "lon": -77.10775383333333, "name": "cfe882a95290b0ce49c07fc741cdc4e9", "is_disabled": 0, "rental_uris": {"android": "https://dc.lft.to/lastmile_qr_scan", "ios": "https://dc.lft.to/lastmile_qr_scan"}, "type": "electric_bike", "lat": 38.841491, "is_reserved": 0, "fusion_lat": 0.0}, {"bike_id": "fd522973d234c136ceb11860dcbee05f", "fusion_lon": 0.0, "lon": -77.03255916666667, "name": "fd522973d234c136ceb11860dcbee05f", "is_disabled": 0, "rental_uris": {"android": "https://dc.lft.to/lastmile_qr_scan", "ios": "https://dc.lft.to/lastmile_qr_scan"}, "type": "electric_scooter", "lat": 38.9397285, "is_reserved": 0, "fusion_lat": 0.0}, {"bike_id": "2b059491b489eaeae06c8fd5465ef0d5", "fusion_lon": 0.0, "lon": -77.021983, "name": "2b059491b489eaeae06c8fd5465ef0d5", "is_disabled": 0, "rental_uris": {"android": "https://dc.lft.to/lastmile_qr_scan", "ios": "https://dc.lft.to/lastmile_qr_scan"}, "type": "electric_scooter", "lat": 38.91845266666667, "is_reserved": 0, "fusion_lat": 0.0}, {"bike_id": "e24ba2f6822af37ab70fed1b798f8b25", "fusion_lon": 0.0, "lon": -76.99695166666666, "name": "e24ba2f6822af37ab70fed1b798f8b25", "is_disabled": 0, "rental_uris": {"android": "https://dc.lft.to/lastmile_qr_scan", "ios": "https://dc.lft.to/lastmile_qr_scan"}, "type": "electric_scooter", "lat": 38.90841066666667, "is_reserved": 0, "fusion_lat": 0.0},