{"data": {"bikes": [{"lat": 38.928833166666664, "lon": -77.032517, "is_disabled": 0, "fusion_lon": 0.0, "is_reserved": 0, "name": "fda3278b69eaf16abb257dcbb3d57724", "type": "electric_scooter", "bike_id": "fda3278b69eaf16abb257dcbb3d57724", "rental_uris": {"ios": "https://dc.lft.to/lastmile_qr_scan", "android": "https://dc.lft.to/lastmile_qr_scan"}, "fusion_lat": 0.0}, {"lat": 38.921363166666666, "lon": -77.00942283333333, "is_disabled": 0, "fusion_lon": 0.0, "is_reserved": 0, "name": "9089c3a9f915f1421bc6a57df4830835", "type": "electric_scooter", "bike_id": "9089c3a9f915f1421bc6a57df4830835", "rental_uris": {"ios": "https://dc.lft.to/lastmile_qr_scan", "android": "https://dc.lft.to/lastmile_qr_scan"}, "fusion_lat": 0.0}, {"lat": 38.92909733333333, "lon": -77.0729915, "is_disabled": 0, "fusion_lon": 0.0, "is_reserved": 0, "name": "33b0058438854302b9f36988c52f4199", "type": "electric_scooter", "bike_id": "33b0058438854302b9f36988c52f4199", "rental_uris": {"ios": "https://dc.lft.to/lastmile_qr_scan", "android": "https://dc.lft.to/lastmile_qr_scan"}, "fusion_lat": 0.0}, {"lat": 38.91965883333334, "lon": -77.00106566666666, "is_disabled": 0, "fusion_lon": 0.0, "is_reserved": 0, "name": "68a49997e5cfddf199df37c6a4c38923", "type": "electric_scooter", "bike_id": "68a49997e5cfddf199df37c6a4c38923", "rental_uris": {"ios": "https://dc.lft.to/lastmile_qr_scan", "android": "https://dc.lft.to/lastmile_qr_scan"}, "fusion_lat": 0.0}, {"lat": 38.900392333333336, "lon": -77.012868, "is_disabled": 0, "fusion_lon": 0.0, "is_reserved": 0, "name": "02335052bf5f539682df5e8c14c4f2b2", "type": "electric_scooter", "bike_id": "02335052bf5f539682df5e8c14c4f2b2", "rental_uris": {"ios": "https://dc.lft.to/lastmile_qr_scan", "android": "https://dc.lft.to/lastmile_qr_scan"}, "fusion_lat": 0.0}, {"lat": 38.910435666666665, "lon": -77.04001466666666, "is_disabled": 0, "fusion_lon": 0.0, "is_reserved": 0, "name": "24977c609981cb81ebbcbf1cf3ee0f37", "type": "electric_scooter", "bike_id": "24977c609981cb81ebbcbf1cf3ee0f37", "rental_uris": {"ios": "https://dc.lft.to/lastmile_qr_scan", "android": "https://dc.lft.to/lastmile_qr_scan"}, "fusion_lat": 0.0}, {"lat": 38.90460316666667, "lon": -76.9854015, "is_disabled": 0, "fusion_lon": 0.0, "is_reserved": 0, "name": "8dddeb77c1932a3e121fce03e141471a", "type": "electric_scooter", "bike_id": "8dddeb77c1932a3e121fce03e141471a", "rental_uris": {"ios": "https://dc.lft.to/lastmile_qr_scan", "android": "https://dc.lft.to/lastmile_qr_scan"}, "fusion_lat": 0.0}, {"lat": 38.8923605, "lon": -77.04877416666666, "is_disabled": 0, "fusion_lon": 0.0, "is_reserved": 0, "name": "e382ab4fde664e6a591a5958a4230132", "type": "electric_scooter", "bike_id": "e382ab4fde664e6a591a5958a4230132", "rental_uris": {"ios": "https://dc.lft.to/lastmile_qr_scan", "android": "https://dc.lft.to/lastmile_qr_scan"}, "fusion_lat": 0.0}, {"lat": 38.917944, "lon": -77.0270415, "is_disabled": 0, "fusion_lon": 0.0, "is_reserved": 0, "name": "1a3f864f196fcebfb812176139eb7e30", "type": "electric_scooter", "bike_id": "1a3f864f196fcebfb812176139eb7e30", "rental_uris": {"ios": "https://dc.lft.to/lastmile_qr_scan", "android": "https://dc.lft.to/lastmile_qr_scan"}, "fusion_lat": 0.0}, {"lat": 38.961465833333335, "lon": -77.02785183333333, "is_disabled": 0, "fusion_lon": 0.0, "is_reserved": 0, "name": "93aaefb68070a95618e0dbd472c3ecfd", "type": "electric_scooter", "bike_id": "93aaefb68070a95618e0dbd472c3ecfd", "rental_uris": {"ios": "https://dc.lft.to/lastmile_qr_scan", "android": "https://dc.lft.to/lastmile_qr_scan"}, "fusion_lat": 0.0}, {"lat": 38.9025625, "lon": -77.0058975, "is_disabled": 0, "fusion_lon": 0.0, "is_reserved": 0, "name": "9aa8935996e3bc4f8d41907444d5be3a", "type": "electric_scooter", "bike_id": "9aa8935996e3bc4f8d41907444d5be3a", "rental_uris": {"ios": "https://dc.lft.to/lastmile_qr_scan", "android": "https://dc.lft.to/lastmile_qr_scan"}, "fusion_lat": 0.0}, {"lat": 38.903836, "lon": -76.97617166666667, "is_disabled": 0, "fusion_lon": 0.0, "is_reserved": 0, "name": "a3c4f21011eabbfd5a06527bc3771422", "type": "electric_scooter", "bike_id": "a3c4f21011eabbfd5a06527bc3771422", "rental_uris": {"ios": "https://dc.lft.to/lastmile_qr_scan", "android": "https://dc.lft.to/lastmile_qr_scan"}, "fusion_lat": 0.0}, {"lat": 38.94205133333333, "lon": -77.018269, "is_disabled": 0, "fusion_lon": 0.0, "is_reserved": 0, "name": "d138803b12571f3dfc6d7ff409285020", "type": "electric_bike", "bike_id": "d138803b12571f3dfc6d7ff409285020", "rental_uris": {"ios": "https://dc.lft.to/lastmile_qr_scan", "android": "https://dc.lft.to/lastmile_qr_scan"}, "fusion_lat": 0.0}, {"lat": 38.90258883333333, "lon": -77.00335066666666, "is_disabled": 0, "fusion_lon": 0.0, "is_reserved": 0, "name": "e44ec31de0e5749dce2daa276cbed987", "type": "electric_scooter", "bike_id": "e44ec31de0e5749dce2daa276cbed987", "rental_uris": {"ios": "https://dc.lft.to/lastmile_qr_scan", "android": "https://dc.lft.to/lastmile_qr_scan"}, "fusion_lat": 0.0}, {"lat": 38.912827666666665, "lon": -77.04508716666666, "is_disabled": 0, "fusion_lon": 0.0, "is_reserved": 0, "name": "73118c1abfbea04a15ddaccc94b7e12a", "type": "electric_scooter", "bike_id": "73118c1abfbea04a15ddaccc94b7e12a", "rental_uris": {"ios": "https://dc.lft.to/lastmile_qr_scan", "android": "https://dc.lft.to/lastmile_qr_scan"}, "fusion_lat": 0.0}, {"lat": 38.88711933333333, "lon": -77.02824483333333, "is_disabled": 0, "fusion_lon": 0.0, "is_reserved": 0, "name": "82bf0c124ce8af46da69f6f376043be2", "type": "electric_scooter", "bike_id": "82bf0c124ce8af46da69f6f376043be2", "rental_uris": {"ios": "https://dc.lft.to/lastmile_qr_scan", "android": "https://dc.lft.to/lastmile_qr_scan"}, "fusion_lat": 0.0}, {"lat": 38.905390833333335, "lon": -77.04125683333334, "is_disabled": 0, "fusion_lon": 0.0, "is_reserved": 0, "name": "40590281a45336bf36f0b178a3085fc9", "type": "electric_scooter", "bike_id": "40590281a45336bf36f0b178a3085fc9", "rental_uris": {"ios": "https://dc.lft.to/lastmile_qr_scan", "android": "https://dc.lft.to/lastmile_qr_scan"}, "fusion_lat": 0.0}, {"lat": 38.916299, "lon": -77.02391016666667, "is_disabled": 0, "fusion_lon": 0.0, "is_reserved": 0, "name": "2dbb4c19121673b20cec437e58c89cce", "type": "electric_scooter", "bike_id": "2dbb4c19121673b20cec437e58c89cce", "rental_uris": {"ios": "https://dc.lft.to/lastmile_qr_scan", "android": "https://dc.lft.to/lastmile_qr_scan"}, "fusion_lat": 0.0}, {"lat": 38.886338, "lon": -76.92591716666666, "is_disabled": 0, "fusion_lon": 0.0, "is_reserved": 0, "name": "1a0492822c24501bc2754770469c0b79", "type": "electric_scooter", "bike_id": "1a0492822c24501bc2754770469c0b79", "rental_uris": {"ios": "https://dc.lft.to/lastmile_qr_scan", "android": "https://dc.lft.to/lastmile_qr_scan"}, "fusion_lat": 0.0}, {"lat": 38.87870133333333, "lon": -76.96251566666666, "is_disabled": 0, "fusion_lon": 0.0, "is_reserved": 0, "name": "18c8cf315705a533a269dd96f79e8808", "type": "electric_scooter", "bike_id": "18c8cf315705a533a269dd96f79e8808", "rental_uris": {"ios": "https://dc.lft.to/lastmile_qr_scan", "android": "https://dc.lft.to/lastmile_qr_scan"}, "fusion_lat": 0.0}, {"lat": 38.89929466666667, "lon": -77.05005366666667, "is_disabled": 0, "fusion_lon": 0.0, "is_reserved": 0, "name": "e5efe4cee39ed3cf150dab19c47d9e16", "type": "electric_scooter", "bike_id": "e5efe4cee39ed3cf150dab19c47d9e16", "rental_uris": {"ios": "https://dc.lft.to/lastmile_qr_scan", "android": "https://dc.lft.to/lastmile_qr_scan"}, "fusion_lat": 0.0}, {"lat": 38.9726195, "lon": -76.99278883333334, "is_disabled": 0, "fusion_lon": 0.0, "is_reserved": 0, "name": "42e75bc4a5087964adaa2f5aaf25ec61", "type": "electric_bike", "bike_id": "42e75bc4a5087964adaa2f5aaf25ec61", "rental_uris": {"ios": "https://dc.lft.to/lastmile_qr_scan", "android": "https://dc.lft.to/lastmile_qr_scan"}, "fusion_lat": 0.0}, {"lat": 38.91141616666667, "lon": -77.041992, "is_disabled": 0, "fusion_lon": 0.0, "is_reserved": 0, "name": "231afa1333ce3e05c5083af7f6063636", "type": "electric_scooter", "bike_id": "231afa1333ce3e05c5083af7f6063636", "rental_uris": {"ios": "https://dc.lft.to/lastmile_qr_scan", "android": "https://dc.lft.to/lastmile_qr_scan"}, "fusion_lat": 0.0}, {"lat": 38.8779605, "lon": -77.00121233333333, "is_disabled": 0, "fusion_lon": 0.0, "is_reserved": 0, "name": "d5511e1cc1c31d37a7e6244598defdbb", "type": "electric_scooter", "bike_id": "d5511e1cc1c31d37a7e6244598defdbb", "rental_uris": {"ios": "https://dc.lft.to/lastmile_qr_scan", "android": "https://dc.lft.to/lastmile_qr_scan"}, "fusion_lat": 0.0}, {"lat": 38.91423783333333, "lon": -77.01805883333333, "is_disabled": 0, "fusion_lon": 0.0, "is_reserved": 0, "name": "13a19c237385f90a68d82972a5799900", "type": "electric_scooter", "bike_id": "13a19c237385f90a68d82972a5799900", "rental_uris": {"ios": "https://dc.lft.to/lastmile_qr_scan", "android": "https://dc.lft.to/lastmile_qr_scan"}, "fusion_lat": 0.0}, {"lat": 38.9072595, "lon": -77.03446166666667, "is_disabled": 0, "fusion_lon": 0.0, "is_reserved": 0, "name": "7c0594e25bc9457ac9ee6104b2414eb6", "type": "electric_scooter", "bike_id": "7c0594e25bc9457ac9ee6104b2414eb6", "rental_uris": {"ios": "https://dc.lft.to/lastmile_qr_scan", "android": "https://dc.lft.to/lastmile_qr_scan"}, "fusion_lat": 0.0}, {"lat": 38.942925333333335, "lon": -77.02177483333334, "is_disabled": 0, "fusion_lon": 0.0, "is_reserved": 0, "name": "11b6adbd7ae2b5e2707befb5fd591cab", "type": "electric_scooter", "bike_id": "11b6adbd7ae2b5e2707befb5fd591cab", "rental_uris": {"ios": "https://dc.lft.to/lastmile_qr_scan", "android": "https://dc.lft.to/lastmile_qr_scan"}, "fusion_lat": 0.0}, {"lat": 38.928988833333335, "lon": -77.02738283333333, "is_disabled": 0, "fusion_lon": 0.0, "is_reserved": 0, "name": "029e290f248f2ea6af87c6557657e8eb", "type": "electric_scooter", "bike_id": "029e290f248f2ea6af87c6557657e8eb", "rental_uris": {"ios": "https://dc.lft.to/lastmile_qr_scan", "android": "https://dc.lft.to/lastmile_qr_scan"}, "fusion_lat": 0.0}, {"lat": 38.907338333333335, "lon": -77.0317535, "is_disabled": 0, "fusion_lon": 0.0, "is_reserved": 0, "name": "7a4d5ca89643901f541a1385ca620181", "type": "electric_scooter", "bike_id": "7a4d5ca89643901f541a1385ca620181", "rental_uris": {"ios": "https://dc.lft.to/lastmile_qr_scan", "android": "https://dc.lft.to/lastmile_qr_scan"}, "fusion_lat": 0.0}, {"lat": 38.89615216666667, "lon": -77.023608, "is_disabled": 0, "fusion_lon": 0.0, "is_reserved": 0, "name": "6454200ad262c44eed45e0eb1212771b", "type": "electric_scooter", "bike_id": "6454200ad262c44eed45e0eb1212771b", "rental_uris": {"ios": "https://dc.lft.to/lastmile_qr_scan", "android": "https://dc.lft.to/lastmile_qr_scan"}, "fusion_lat": 0.0}, {"lat": 38.90039, "lon": -77.01186083333333, "is_disabled": 0, "fusion_lon": 0.0, "is_reserved": 0, "name": "5772d40428578a298b95784fedea78d5", "type": "electric_scooter", "bike_id": "5772d40428578a298b95784fedea78d5", "rental_uris": {"ios": "https://dc.lft.to/lastmile_qr_scan", "android": "https://dc.lft.to/lastmile_qr_scan"}, "fusion_lat": 0.0}, {"lat": 38.917266, "lon": -77.029116, "is_disabled": 0, "fusion_lon": 0.0, "is_reserved": 0, "name": "141882a95da43c169240ed3551e594e4", "type": "electric_scooter", "bike_id": "141882a95da43c169240ed3551e594e4", "rental_uris": {"ios": "https://dc.lft.to/lastmile_qr_scan", "android": "https://dc.lft.to/lastmile_qr_scan"}, "fusion_lat": 0.0}, {"lat": 38.93098166666667, "lon": -77.02550166666667, "is_disabled": 0, "fusion_lon": 0.0, "is_reserved": 0, "name": "2e07a63b5ce4e1c6961c022883310178", "type": "electric_scooter", "bike_id": "2e07a63b5ce4e1c6961c022883310178", "rental_uris": {"ios": "https://dc.lft.to/lastmile_qr_scan", "android": "https://dc.lft.to/lastmile_qr_scan"}, "fusion_lat": 0.0}, {"lat": 38.9559495, "lon": -77.03362766666666, "is_disabled": 0, "fusion_lon": 0.0, "is_reserved": 0, "name": "3613e3de7c75027a33d4dee73133a21f", "type": "electric_scooter", "bike_id": "3613e3de7c75027a33d4dee73133a21f", "rental_uris": {"ios": "https://dc.lft.to/lastmile_qr_scan", "android": "https://dc.lft.to/lastmile_qr_scan"}, "fusion_lat": 0.0}, {"lat": 38.927398833333335, "lon": -77.02249233333333, "is_disabled": 0, "fusion_lon": 0.0, "is_reserved": 0, "name": "026198e34c6a0390a972ef691b744a9e", "type": "electric_scooter", "bike_id": "026198e34c6a0390a972ef691b744a9e", "rental_uris": {"ios": "https://dc.lft.to/lastmile_qr_scan", "android": "https://dc.lft.to/lastmile_qr_scan"}, "fusion_lat": 0.0}, {"lat": 38.94084333333333, "lon": -77.02636066666666, "is_disabled": 0, "fusion_lon": 0.0, "is_reserved": 0, "name": "0d221a90a0060fb4df740c331579478c", "type": "electric_scooter", "bike_id": "0d221a90a0060fb4df740c331579478c", "rental_uris": {"ios": "https://dc.lft.to/lastmile_qr_scan", "android": "https://dc.lft.to/lastmile_qr_scan"}, "fusion_lat": 0.0}, {"lat": 38.942962666666666, "lon": -77.0217185, "is_disabled": 0, "fusion_lon": 0.0, "is_reserved": 0, "name": "b178239e4d320f5d532a557c06123b01", "type": "electric_scooter", "bike_id": "b178239e4d320f5d532a557c06123b01", "rental_uris": {"ios": "https://dc.lft.to/lastmile_qr_scan", "android": "https://dc.lft.to/lastmile_qr_scan"}, "fusion_lat": 0.0}, {"lat": 38.9172615, "lon": -77.03065683333334, "is_disabled": 0, "fusion_lon": 0.0, "is_reserved": 0, "name": "f7a10935bbf014cc95db384dc7e400a0", "type": "electric_scooter", "bike_id": "f7a10935bbf014cc95db384dc7e400a0", "rental_uris": {"ios": "https://dc.lft.to/lastmile_qr_scan", "android": "https://dc.lft.to/lastmile_qr_scan"}, "fusion_lat": 0.0}, {"lat": 38.91546266666667, "lon": -77.03798616666667, "is_disabled": 0, "fusion_lon": 0.0, "is_reserved": 0, "name": "a8261664d94b604fb5cb3c4b61867e9d", "type": "electric_scooter", "bike_id": "a8261664d94b604fb5cb3c4b61867e9d", "rental_uris": {"ios": "https://dc.lft.to/lastmile_qr_scan", "android": "https://dc.lft.to/lastmile_qr_scan"}, "fusion_lat": 0.0}, {"lat": 38.924785, "lon": -77.02201216666667, "is_disabled": 0, "fusion_lon": 0.0, "is_reserved": 0, "name": "b8ca858c78399680ce5af03a7303ff4f", "type": "electric_scooter", "bike_id": "b8ca858c78399680ce5af03a7303ff4f", "rental_uris": {"ios": "https://dc.lft.to/lastmile_qr_scan", "android": "https://dc.lft.to/lastmile_qr_scan"}, "fusion_lat": 0.0}, {"lat": 38.83932133333333, "lon": -77.079055, "is_disabled": 0, "fusion_lon": 0.0, "is_reserved": 0, "name": "d9d6deaacd41339c17fc05e3550913f8", "type": "electric_bike", "bike_id": "d9d6deaacd41339c17fc05e3550913f8", "rental_uris": {"ios": "https://dc.lft.to/lastmile_qr_scan", "android": "https://dc.lft.to/lastmile_qr_scan"}, "fusion_lat": 0.0}, {"lat": 38.900713, "lon": -77.02691416666667, "is_disabled": 0, "fusion_lon": 0.0, "is_reserved": 0, "name": "16ba98ff82496796ad7bab881ecfbab7", "type": "electric_scooter", "bike_id": "16ba98ff82496796ad7bab881ecfbab7", "rental_uris": {"ios": "https://dc.lft.to/lastmile_qr_scan", "android": "https://dc.lft.to/lastmile_qr_scan"}, "fusion_lat": 0.0}, {"lat": 38.91675566666667, "lon": -77.02280566666667, "is_disabled": 0, "fusion_lon": 0.0, "is_reserved": 0, "name": "9412795178e19bc64803b3c4fdb888e9", "type": "electric_scooter", "bike_id": "9412795178e19bc64803b3c4fdb888e9", "rental_uris": {"ios": "https://dc.lft.to/lastmile_qr_scan", "android": "https://dc.lft.to/lastmile_qr_scan"}, "fusion_lat": 0.0}, {"lat": 38.9038145, "lon": -77.0513785, "is_disabled": 0, "fusion_lon": 0.0, "is_reserved": 0, "name": "b40ef9a0b3d8afbc891fda57e4f1b17d", "type": "electric_scooter", "bike_id": "b40ef9a0b3d8afbc891fda57e4f1b17d", "rental_uris": {"ios": "https://dc.lft.to/lastmile_qr_scan", "android": "https://dc.lft.to/lastmile_qr_scan"}, "fusion_lat": 0.0}, {"lat": 38.910009333333335, "lon": -77.03170016666667, "is_disabled": 0, "fusion_lon": 0.0, "is_reserved": 0, "name": "82a2900bb986877936240e250aa66a97", "type": "electric_scooter", "bike_id": "82a2900bb986877936240e250aa66a97", "rental_uris": {"ios": "https://dc.lft.to/lastmile_qr_scan", "android": "https://dc.lft.to/lastmile_qr_scan"}, "fusion_lat": 0.0}, {"lat": 38.93101883333333, "lon": -77.024736, "is_disabled": 0, "fusion_lon": 0.0, "is_reserved": 0, "name": "8d2fb2131a2a3dff63758212a2c8dd86", "type": "electric_scooter", "bike_id": "8d2fb2131a2a3dff63758212a2c8dd86", "rental_uris": {"ios": "https://dc.lft.to/lastmile_qr_scan", "android": "https://dc.lft.to/lastmile_qr_scan"}, "fusion_lat": 0.0}, {"lat": 38.876527833333334, "lon": -77.0158255, "is_disabled": 0, "fusion_lon": 0.0, "is_reserved": 0, "name": "622ab5d251eb3bb98d789dcf6f000402", "type": "electric_scooter", "bike_id": "622ab5d251eb3bb98d789dcf6f000402", "rental_uris": {"ios": "https://dc.lft.to/lastmile_qr_scan", "android": "https://dc.lft.to/lastmile_qr_scan"}, "fusion_lat": 0.0}, {"lat": 38.899930166666664, "lon": -77.0166095, "is_disabled": 0, "fusion_lon": 0.0, "is_reserved": 0, "name": "e572d51f61f61f5487d82b29ccc193a9", "type": "electric_scooter", "bike_id": "e572d51f61f61f5487d82b29ccc193a9", "rental_uris": {"ios": "https://dc.lft.to/lastmile_qr_scan", "android": "https://dc.lft.to/lastmile_qr_scan"}, "fusion_lat": 0.0}, {"lat": 38.906544333333336, "lon": -77.03430133333333, "is_disabled": 0, "fusion_lon": 0.0, "is_reserved": 0, "name": "0ebb9bec4187034f586a8a4c7a9981b0", "type": "electric_scooter", "bike_id": "0ebb9bec4187034f586a8a4c7a9981b0", "rental_uris": {"ios": "https://dc.lft.to/lastmile_qr_scan", "android": "https://dc.lft.to/lastmile_qr_scan"}, "fusion_lat": 0.0}, {"lat": 38.9055865, "lon": -77.00192766666666, "is_disabled": 0, "fusion_lon": 0.0, "is_reserved": 0, "name": "293078fe89eeda3630d61cd2d5e6495f", "type": "electric_scooter", "bike_id": "293078fe89eeda3630d61cd2d5e6495f", "rental_uris": {"ios": "https://dc.lft.to/lastmile_qr_scan", "android": "https://dc.lft.to/lastmile_qr_scan"}, "fusion_lat": 0.0}, {"lat": 38.890663, "lon": -76.94444466666667, "is_disabled": 0, "fusion_lon": 0.0, "is_reserved": 0, "name": "d9251b3d30e2229ae8e31c54c13f0e67", "type": "electric_scooter", "bike_id": "d9251b3d30e2229ae8e31c54c13f0e67", "rental_uris": {"ios": "https://dc.lft.to/lastmile_qr_scan", "android": "https://dc.lft.to/lastmile_qr_scan"}, "fusion_lat": 0.0}, {"lat": 38.918162833333334, "lon": -77.03200316666667, "is_disabled": 0, "fusion_lon": 0.0, "is_reserved": 0, "name": "c90ff0d034c80ced36d2f2b12937d214", "type": "electric_scooter", "bike_id": "c90ff0d034c80ced36d2f2b12937d214", "rental_uris": {"ios": "https://dc.lft.to/lastmile_qr_scan", "android": "https://dc.lft.to/lastmile_qr_scan"}, "fusion_lat": 0.0}, {"lat": 38.907626, "lon": -77.03580983333333, "is_disabled": 0, "fusion_lon": 0.0, "is_reserved": 0, "name": "210a50669b1fe634cd04c022c5ec2c56", "type": "electric_scooter", "bike_id": "210a50669b1fe634cd04c022c5ec2c56", "rental_uris": {"ios": "https://dc.lft.to/lastmile_qr_scan", "android": "https://dc.lft.to/lastmile_qr_scan"}, "fusion_lat": 0.0}, {"lat": 38.914137, "lon": -77.0187855, "is_disabled": 0, "fusion_lon": 0.0, "is_reserved": 0, "name": "d82f3932b25ae24a55666ee4e50a7bf4", "type": "electric_scooter", "bike_id": "d82f3932b25ae24a55666ee4e50a7bf4", "rental_uris": {"ios": "https://dc.lft.to/lastmile_qr_scan", "android": "https://dc.lft.to/lastmile_qr_scan"}, "fusion_lat": 0.0}, {"lat": 38.964502833333334, "lon": -77.02244816666666, "is_disabled": 0, "fusion_lon": 0.0, "is_reserved": 0, "name": "27368a1f89e230a12bec617973978e18", "type": "electric_bike", "bike_id": "27368a1f89e230a12bec617973978e18", "rental_uris": {"ios": "https://dc.lft.to/lastmile_qr_scan", "android": "https://dc.lft.to/lastmile_qr_scan"}, "fusion_lat": 0.0}, {"lat": 38.868275, "lon": -77.00979683333334, "is_disabled": 0, "fusion_lon": 0.0, "is_reserved": 0, "name": "9cd07845ef6572f9c3b0b14973fe0904", "type": "electric_scooter", "bike_id": "9cd07845ef6572f9c3b0b14973fe0904", "rental_uris": {"ios": "https://dc.lft.to/lastmile_qr_scan", "android": "https://dc.lft.to/lastmile_qr_scan"}, "fusion_lat": 0.0}, {"lat": 38.92418, "lon": -77.065257, "is_disabled": 0, "fusion_lon": 0.0, "is_reserved": 0, "name": "a73be1f491b8ac02be04a511c6f0fc8b", "type": "electric_scooter", "bike_id": "a73be1f491b8ac02be04a511c6f0fc8b", "rental_uris": {"ios": "https://dc.lft.to/lastmile_qr_scan", "android": "https://dc.lft.to/lastmile_qr_scan"}, "fusion_lat": 0.0}, {"lat": 38.87396616666667, "lon": -77.0145185, "is_disabled": 0, "fusion_lon": 0.0, "is_reserved": 0, "name": "6570fb0f30c7679b9f66b232bfe02662", "type": "electric_scooter", "bike_id": "6570fb0f30c7679b9f66b232bfe02662", "rental_uris": {"ios": "https://dc.lft.to/lastmile_qr_scan", "android": "https://dc.lft.to/lastmile_qr_scan"}, "fusion_lat": 0.0}, {"lat": 38.9168915, "lon": -77.03216333333333, "is_disabled": 0, "fusion_lon": 0.0, "is_reserved": 0, "name": "c808249452819891e60f4da0f558f19c", "type": "electric_scooter", "bike_id": "c808249452819891e60f4da0f558f19c", "rental_uris": {"ios": "https://dc.lft.to/lastmile_qr_scan", "android": "https://dc.lft.to/lastmile_qr_scan"}, "fusion_lat": 0.0}, {"lat": 38.903650999999996, "lon": -77.0161295, "is_disabled": 0, "fusion_lon": 0.0, "is_reserved": 0, "name": "80d9ebcd4cae6ad361df95b05af3cbdf", "type": "electric_scooter", "bike_id": "80d9ebcd4cae6ad361df95b05af3cbdf", "rental_uris": {"ios": "https://dc.lft.to/lastmile_qr_scan", "android": "https://dc.lft.to/lastmile_qr_scan"}, "fusion_lat": 0.0}, {"lat": 38.90734416666667, "lon": -77.0348055, "is_disabled": 0, "fusion_lon": 0.0, "is_reserved": 0, "name": "e44b97e2e36131e011fe4c842cd3f1fd", "type": "electric_scooter", "bike_id": "e44b97e2e36131e011fe4c842cd3f1fd", "rental_uris": {"ios": "https://dc.lft.to/lastmile_qr_scan", "android": "https://dc.lft.to/lastmile_qr_scan"}, "fusion_lat": 0.0}, {"lat": 38.8843565, "lon": -77.0258185, "is_disabled": 0, "fusion_lon": 0.0, "is_reserved": 0, "name": "1ee1218a1f2e67de5d6940caad53dd39", "type": "electric_scooter", "bike_id": "1ee1218a1f2e67de5d6940caad53dd39", "rental_uris": {"ios": "https://dc.lft.to/lastmile_qr_scan", "android": "https://dc.lft.to/lastmile_qr_scan"}, "fusion_lat": 0.0}, {"lat": 38.90998366666667, "lon": -77.03178916666667, "is_disabled": 0, "fusion_lon": 0.0, "is_reserved": 0, "name": "6d48ac77dc4691c594c6cb15f9c14207", "type": "electric_scooter", "bike_id": "6d48ac77dc4691c594c6cb15f9c14207", "rental_uris": {"ios": "https://dc.lft.to/lastmile_qr_scan", "android": "https://dc.lft.to/lastmile_qr_scan"}, "fusion_lat": 0.0}, {"lat": 38.91025533333333, "lon": -77.03844516666666, "is_disabled": 0, "fusion_lon": 0.0, "is_reserved": 0, "name": "f9482928052014195fa126c8fc2ea363", "type": "electric_scooter", "bike_id": "f9482928052014195fa126c8fc2ea363", "rental_uris": {"ios": "https://dc.lft.to/lastmile_qr_scan", "android": "https://dc.lft.to/lastmile_qr_scan"}, "fusion_lat": 0.0}, {"lat": 38.92321916666667, "lon": -77.04616233333333, "is_disabled": 0, "fusion_lon": 0.0, "is_reserved": 0, "name": "6a92a06a3795c7111c286cb137ab3881", "type": "electric_scooter", "bike_id": "6a92a06a3795c7111c286cb137ab3881", "rental_uris": {"ios": "https://dc.lft.to/lastmile_qr_scan", "android": "https://dc.lft.to/lastmile_qr_scan"}, "fusion_lat": 0.0}, {"lat": 38.905696, "lon": -77.02220133333333, "is_disabled": 0, "fusion_lon": 0.0, "is_reserved": 0, "name": "75c1fa257c9a3e6930a95eac11f2c0c1", "type": "electric_scooter", "bike_id": "75c1fa257c9a3e6930a95eac11f2c0c1", "rental_uris": {"ios": "https://dc.lft.to/lastmile_qr_scan", "android": "https://dc.lft.to/lastmile_qr_scan"}, "fusion_lat": 0.0}, {"lat": 38.92540966666667, "lon": -77.03385266666666, "is_disabled": 0, "fusion_lon": 0.0, "is_reserved": 0, "name": "db54b40acb18d99c1ab3bf497b96c547", "type": "electric_scooter", "bike_id": "db54b40acb18d99c1ab3bf497b96c547", "rental_uris": {"ios": "https://dc.lft.to/lastmile_qr_scan", "android": "https://dc.lft.to/lastmile_qr_scan"}, "fusion_lat": 0.0}, {"lat": 38.920681333333334, "lon": -77.02074833333333, "is_disabled": 0, "fusion_lon": 0.0, "is_reserved": 0, "name": "e0462782cb11824010807687e140f4ec", "type": "electric_scooter", "bike_id": "e0462782cb11824010807687e140f4ec", "rental_uris": {"ios": "https://dc.lft.to/lastmile_qr_scan", "android": "https://dc.lft.to/lastmile_qr_scan"}, "fusion_lat": 0.0}, {"lat": 38.900196333333334, "lon": -76.99864133333334, "is_disabled": 0, "fusion_lon": 0.0, "is_reserved": 0, "name": "4351edd2b118e065496eed5650535ea9", "type": "electric_scooter", "bike_id": "4351edd2b118e065496eed5650535ea9", "rental_uris": {"ios": "https://dc.lft.to/lastmile_qr_scan", "android": "https://dc.lft.to/lastmile_qr_scan"}, "fusion_lat": 0.0}, {"lat": 38.911211333333334, "lon": -77.04475183333334, "is_disabled": 0, "fusion_lon": 0.0, "is_reserved": 0, "name": "2f713661e6052fd2effc4c08fb13e4e0", "type": "electric_scooter", "bike_id": "2f713661e6052fd2effc4c08fb13e4e0", "rental_uris": {"ios": "https://dc.lft.to/lastmile_qr_scan", "android": "https://dc.lft.to/lastmile_qr_scan"}, "fusion_lat": 0.0}, {"lat": 38.907331166666665, "lon": -77.03177433333333, "is_disabled": 0, "fusion_lon": 0.0, "is_reserved": 0, "name": "7318d744c60ada1c5bcc115a1f22b554", "type": "electric_scooter", "bike_id": "7318d744c60ada1c5bcc115a1f22b554", "rental_uris": {"ios": "https://dc.lft.to/lastmile_qr_scan", "android": "https://dc.lft.to/lastmile_qr_scan"}, "fusion_lat": 0.0}, {"lat": 38.909682333333336, "lon": -77.034204, "is_disabled": 0, "fusion_lon": 0.0, "is_reserved": 0, "name": "aa042c4f76c73dc2f83fbb8fbe1a2a32", "type": "electric_scooter", "bike_id": "aa042c4f76c73dc2f83fbb8fbe1a2a32", "rental_uris": {"ios": "https://dc.lft.to/lastmile_qr_scan", "android": "https://dc.lft.to/lastmile_qr_scan"}, "fusion_lat": 0.0}, {"lat": 38.84824183333333, "lon": -77.079079, "is_disabled": 0, "fusion_lon": 0.0, "is_reserved": 0, "name": "fc99888d6aa72f6d56cd2259a1f31d5c", "type": "electric_bike", "bike_id": "fc99888d6aa72f6d56cd2259a1f31d5c", "rental_uris": {"ios": "https://dc.lft.to/lastmile_qr_scan", "android": "https://dc.lft.to/lastmile_qr_scan"}, "fusion_lat": 0.0}, {"lat": 38.86326366666667, "lon": -76.989359, "is_disabled": 0, "fusion_lon": 0.0, "is_reserved": 0, "name": "1a79c4a85ab6cee334b3ffedfb2d7467", "type": "electric_scooter", "bike_id": "1a79c4a85ab6cee334b3ffedfb2d7467", "rental_uris": {"ios": "https://dc.lft.to/lastmile_qr_scan", "android": "https://dc.lft.to/lastmile_qr_scan"}, "fusion_lat": 0.0}, {"lat": 38.90968133333333, "lon": -77.03854116666666, "is_disabled": 0, "fusion_lon": 0.0, "is_reserved": 0, "name": "240503afaf6cc4bba4910ac7a6e023e7", "type": "electric_scooter", "bike_id": "240503afaf6cc4bba4910ac7a6e023e7", "rental_uris": {"ios": "https://dc.lft.to/lastmile_qr_scan", "android": "https://dc.lft.to/lastmile_qr_scan"}, "fusion_lat": 0.0}, {"lat": 38.91699716666667, "lon": -77.02430383333333, "is_disabled": 0, "fusion_lon": 0.0, "is_reserved": 0, "name": "f6534d5d0b7ab3550d36f6e7be3e8418", "type": "electric_scooter", "bike_id": "f6534d5d0b7ab3550d36f6e7be3e8418", "rental_uris": {"ios": "https://dc.lft.to/lastmile_qr_scan", "android": "https://dc.lft.to/lastmile_qr_scan"}, "fusion_lat": 0.0}, {"lat": 38.90551716666667, "lon": -77.046604, "is_disabled": 0, "fusion_lon": 0.0, "is_reserved": 0, "name": "01e488adf5c0d752126819c7bef688a3", "type": "electric_scooter", "bike_id": "01e488adf5c0d752126819c7bef688a3", "rental_uris": {"ios": "https://dc.lft.to/lastmile_qr_scan", "android": "https://dc.lft.to/lastmile_qr_scan"}, "fusion_lat": 0.0}, {"lat": 38.94180883333333, "lon": -77.02532933333333, "is_disabled": 0, "fusion_lon": 0.0, "is_reserved": 0, "name": "1dcd7af74f8226a5ab7e676044f62c90", "type": "electric_scooter", "bike_id": "1dcd7af74f8226a5ab7e676044f62c90", "rental_uris": {"ios": "https://dc.lft.to/lastmile_qr_scan", "android": "https://dc.lft.to/lastmile_qr_scan"}, "fusion_lat": 0.0}, {"lat": 38.918079166666665, "lon": -77.02681916666667, "is_disabled": 0, "fusion_lon": 0.0, "is_reserved": 0, "name": "3830acfc24da38a2a8f6d89df6f54c10", "type": "electric_scooter", "bike_id": "3830acfc24da38a2a8f6d89df6f54c10", "rental_uris": {"ios": "https://dc.lft.to/lastmile_qr_scan", "android": "https://dc.lft.to/lastmile_qr_scan"}, "fusion_lat": 0.0}, {"lat": 38.91493116666667, "lon": -77.04162233333334, "is_disabled": 0, "fusion_lon": 0.0, "is_reserved": 0, "name": "8fdd0a5945bc1c32a616ab8994efe85e", "type": "electric_scooter", "bike_id": "8fdd0a5945bc1c32a616ab8994efe85e", "rental_uris": {"ios": "https://dc.lft.to/lastmile_qr_scan", "android": "https://dc.lft.to/lastmile_qr_scan"}, "fusion_lat": 0.0}, {"lat": 38.9001505, "lon": -76.98910766666667, "is_disabled": 0, "fusion_lon": 0.0, "is_reserved": 0, "name": "1aae336185ca92ec3339cb4232c67c1c", "type": "electric_scooter", "bike_id": "1aae336185ca92ec3339cb4232c67c1c", "rental_uris": {"ios": "https://dc.lft.to/lastmile_qr_scan", "android": "https://dc.lft.to/lastmile_qr_scan"}, "fusion_lat": 0.0}, {"lat": 38.877339666666664, "lon": -77.01770533333334, "is_disabled": 0, "fusion_lon": 0.0, "is_reserved": 0, "name": "872469d66eb23bcd7438d42527488e42", "type": "electric_scooter", "bike_id": "872469d66eb23bcd7438d42527488e42", "rental_uris": {"ios": "https://dc.lft.to/lastmile_qr_scan", "android": "https://dc.lft.to/lastmile_qr_scan"}, "fusion_lat": 0.0}, {"lat": 38.918835, "lon": -77.03495883333333, "is_disabled": 0, "fusion_lon": 0.0, "is_reserved": 0, "name": "427d18edb1265a7586140cae654dff10", "type": "electric_scooter", "bike_id": "427d18edb1265a7586140cae654dff10", "rental_uris": {"ios": "https://dc.lft.to/lastmile_qr_scan", "android": "https://dc.lft.to/lastmile_qr_scan"}, "fusion_lat": 0.0}, {"lat": 38.9573815, "lon": -77.0240485, "is_disabled": 0, "fusion_lon": 0.0, "is_reserved": 0, "name": "8ebdc1ad6ac14087f3685260bb2b901e", "type": "electric_scooter", "bike_id": "8ebdc1ad6ac14087f3685260bb2b901e", "rental_uris": {"ios": "https://dc.lft.to/lastmile_qr_scan", "android": "https://dc.lft.to/lastmile_qr_scan"}, "fusion_lat": 0.0}, {"lat": 38.91659333333333, "lon": -77.0385545, "is_disabled": 0, "fusion_lon": 0.0, "is_reserved": 0, "name": "4c42e39858056a802336986577bcfa1d", "type": "electric_scooter", "bike_id": "4c42e39858056a802336986577bcfa1d", "rental_uris": {"ios": "https://dc.lft.to/lastmile_qr_scan", "android": "https://dc.lft.to/lastmile_qr_scan"}, "fusion_lat": 0.0}, {"lat": 38.9207795, "lon": -77.02319583333333, "is_disabled": 0, "fusion_lon": 0.0, "is_reserved": 0, "name": "07803dcad56fbd6beaf2c8804f29b863", "type": "electric_scooter", "bike_id": "07803dcad56fbd6beaf2c8804f29b863", "rental_uris": {"ios": "https://dc.lft.to/lastmile_qr_scan", "android": "https://dc.lft.to/lastmile_qr_scan"}, "fusion_lat": 0.0}, {"lat": 38.87823566666667, "lon": -76.99608433333333, "is_disabled": 0, "fusion_lon": 0.0, "is_reserved": 0, "name": "760ab783a81618d6f8fb496e80a00aa9", "type": "electric_scooter", "bike_id": "760ab783a81618d6f8fb496e80a00aa9", "rental_uris": {"ios": "https://dc.lft.to/lastmile_qr_scan", "android": "https://dc.lft.to/lastmile_qr_scan"}, "fusion_lat": 0.0}, {"lat": 38.88733516666667, "lon": -77.02385833333334, "is_disabled": 0, "fusion_lon": 0.0, "is_reserved": 0, "name": "c04754d9edc6b48331b870edcaf2b354", "type": "electric_scooter", "bike_id": "c04754d9edc6b48331b870edcaf2b354", "rental_uris": {"ios": "https://dc.lft.to/lastmile_qr_scan", "android": "https://dc.lft.to/lastmile_qr_scan"}, "fusion_lat": 0.0}, {"lat": 38.9202815, "lon": -77.07162816666667, "is_disabled": 0, "fusion_lon": 0.0, "is_reserved": 0, "name": "f2f6bd2f3f0e9793b7ebbece7a7610ce", "type": "electric_scooter", "bike_id": "f2f6bd2f3f0e9793b7ebbece7a7610ce", "rental_uris": {"ios": "https://dc.lft.to/lastmile_qr_scan", "android": "https://dc.lft.to/lastmile_qr_scan"}, "fusion_lat": 0.0}, {"lat": 38.911176166666664, "lon": -77.03829566666667, "is_disabled": 0, "fusion_lon": 0.0, "is_reserved": 0, "name": "049c3ef6ae6223b116046063041779a2", "type": "electric_scooter", "bike_id": "049c3ef6ae6223b116046063041779a2", "rental_uris": {"ios": "https://dc.lft.to/lastmile_qr_scan", "android": "https://dc.lft.to/lastmile_qr_scan"}, "fusion_lat": 0.0}, {"lat": 38.8316055, "lon": -76.99572883333333, "is_disabled": 0, "fusion_lon": 0.0, "is_reserved": 0, "name": "07f862864a32c28aa69aebd14ffa39af", "type": "electric_bike", "bike_id": "07f862864a32c28aa69aebd14ffa39af", "rental_uris": {"ios": "https://dc.lft.to/lastmile_qr_scan", "android": "https://dc.lft.to/lastmile_qr_scan"}, "fusion_lat": 0.0}, {"lat": 38.9182305, "lon": -77.01207083333334, "is_disabled": 0, "fusion_lon": 0.0, "is_reserved": 0, "name": "d12814c5c0035de823694dcf7fd06ad4", "type": "electric_scooter", "bike_id": "d12814c5c0035de823694dcf7fd06ad4", "rental_uris": {"ios": "https://dc.lft.to/lastmile_qr_scan", "android": "https://dc.lft.to/lastmile_qr_scan"}, "fusion_lat": 0.0}, {"lat": 38.87400016666667, "lon": -77.00195633333334, "is_disabled": 0, "fusion_lon": 0.0, "is_reserved": 0, "name": "4da628a66d1ca8c0f4852bd29a68a58b", "type": "electric_scooter", "bike_id": "4da628a66d1ca8c0f4852bd29a68a58b", "rental_uris": {"ios": "https://dc.lft.to/lastmile_qr_scan", "android": "https://dc.lft.to/lastmile_qr_scan"}, "fusion_lat": 0.0}, {"lat": 38.9073025, "lon": -77.02990916666667, "is_disabled": 0, "fusion_lon": 0.0, "is_reserved": 0, "name": "39b284b160d577daa00594f82e7a7596", "type": "electric_scooter", "bike_id": "39b284b160d577daa00594f82e7a7596", "rental_uris": {"ios": "https://dc.lft.to/lastmile_qr_scan", "android": "https://dc.lft.to/lastmile_qr_scan"}, "fusion_lat": 0.0}, {"lat": 38.91601633333333, "lon": -77.04904283333333, "is_disabled": 0, "fusion_lon": 0.0, "is_reserved": 0, "name": "d71b8dbec286440dfb86a2e25b6d22fe", "type": "electric_scooter", "bike_id": "d71b8dbec286440dfb86a2e25b6d22fe", "rental_uris": {"ios": "https://dc.lft.to/lastmile_qr_scan", "android": "https://dc.lft.to/lastmile_qr_scan"}, "fusion_lat": 0.0}, {"lat": 38.928428833333335, "lon": -77.05423566666667, "is_disabled": 0, "fusion_lon": 0.0, "is_reserved": 0, "name": "c69f70268a28a0be51014c419aec23db", "type": "electric_scooter", "bike_id": "c69f70268a28a0be51014c419aec23db", "rental_uris": {"ios": "https://dc.lft.to/lastmile_qr_scan", "android": "https://dc.lft.to/lastmile_qr_scan"}, "fusion_lat": 0.0}, {"lat": 38.90701383333333, "lon": -77.00531366666667, "is_disabled": 0, "fusion_lon": 0.0, "is_reserved": 0, "name": "c443fbf8ca30b84a231e6fd32fafc0c7", "type": "electric_scooter", "bike_id": "c443fbf8ca30b84a231e6fd32fafc0c7", "rental_uris": {"ios": "https://dc.lft.to/lastmile_qr_scan", "android": "https://dc.lft.to/lastmile_qr_scan"}, "fusion_lat": 0.0}, {"lat": 38.91842616666667, "lon": -76.965417, "is_disabled": 0, "fusion_lon": 0.0, "is_reserved": 0, "name": "0bc3ca23dd983c2a0cbfd696107b0226", "type": "electric_scooter", "bike_id": "0bc3ca23dd983c2a0cbfd696107b0226", "rental_uris": {"ios": "https://dc.lft.to/lastmile_qr_scan", "android": "https://dc.lft.to/lastmile_qr_scan"}, "fusion_lat": 0.0}, {"lat": 38.92493233333333, "lon": -77.02447233333334, "is_disabled": 0, "fusion_lon": 0.0, "is_reserved": 0, "name": "2e1c1e862a5196fcf894077796e7997b", "type": "electric_scooter", "bike_id": "2e1c1e862a5196fcf894077796e7997b", "rental_uris": {"ios": "https://dc.lft.to/lastmile_qr_scan", "android": "https://dc.lft.to/lastmile_qr_scan"}, "fusion_lat": 0.0}, {"lat": 38.9226245, "lon": -77.03520183333333, "is_disabled": 0, "fusion_lon": 0.0, "is_reserved": 0, "name": "b04c48c9f2cbe2f0b21d0cbae598d96e", "type": "electric_scooter", "bike_id": "b04c48c9f2cbe2f0b21d0cbae598d96e", "rental_uris": {"ios": "https://dc.lft.to/lastmile_qr_scan", "android": "https://dc.lft.to/lastmile_qr_scan"}, "fusion_lat": 0.0}, {"lat": 38.89981016666667, "lon": -77.02708316666667, "is_disabled": 0, "fusion_lon": 0.0, "is_reserved": 0, "name": "0f3beafd60dc2504e4dfba7e65291e9a", "type": "electric_scooter", "bike_id": "0f3beafd60dc2504e4dfba7e65291e9a", "rental_uris": {"ios": "https://dc.lft.to/lastmile_qr_scan", "android": "https://dc.lft.to/lastmile_qr_scan"}, "fusion_lat": 0.0}, {"lat": 38.903083333333335, "lon": -77.061218, "is_disabled": 0, "fusion_lon": 0.0, "is_reserved": 0, "name": "4c6ede4260c3f5377f7565e732d3cb92", "type": "electric_scooter", "bike_id": "4c6ede4260c3f5377f7565e732d3cb92", "rental_uris": {"ios": "https://dc.lft.to/lastmile_qr_scan", "android": "https://dc.lft.to/lastmile_qr_scan"}, "fusion_lat": 0.0}, {"lat": 38.919847, "lon": -77.04164316666666, "is_disabled": 0, "fusion_lon": 0.0, "is_reserved": 0, "name": "117c3bfe326877f2d5f3f7a166b93ed8", "type": "electric_scooter", "bike_id": "117c3bfe326877f2d5f3f7a166b93ed8", "rental_uris": {"ios": "https://dc.lft.to/lastmile_qr_scan", "android": "https://dc.lft.to/lastmile_qr_scan"}, "fusion_lat": 0.0}, {"lat": 38.917463833333336, "lon": -77.06939416666667, "is_disabled": 0, "fusion_lon": 0.0, "is_reserved": 0, "name": "a4cbdfb6a6f2fb396bdea4c88424734b", "type": "electric_scooter", "bike_id": "a4cbdfb6a6f2fb396bdea4c88424734b", "rental_uris": {"ios": "https://dc.lft.to/lastmile_qr_scan", "android": "https://dc.lft.to/lastmile_qr_scan"}, "fusion_lat": 0.0}, {"lat": 38.87851966666667, "lon": -77.00553716666667, "is_disabled": 0, "fusion_lon": 0.0, "is_reserved": 0, "name": "66e3e69cbe30bf745bb1d20e6a51ed1f", "type": "electric_scooter", "bike_id": "66e3e69cbe30bf745bb1d20e6a51ed1f", "rental_uris": {"ios": "https://dc.lft.to/lastmile_qr_scan", "android": "https://dc.lft.to/lastmile_qr_scan"}, "fusion_lat": 0.0}, {"lat": 38.911183, "lon": -77.042245, "is_disabled": 0, "fusion_lon": 0.0, "is_reserved": 0, "name": "39e9c7c2f2ccf6a8a9a2241bd123ccf3", "type": "electric_scooter", "bike_id": "39e9c7c2f2ccf6a8a9a2241bd123ccf3", "rental_uris": {"ios": "https://dc.lft.to/lastmile_qr_scan", "android": "https://dc.lft.to/lastmile_qr_scan"}, "fusion_lat": 0.0}, {"lat": 38.878571, "lon": -77.01764083333333, "is_disabled": 0, "fusion_lon": 0.0, "is_reserved": 0, "name": "eccfa389dcec59c952a6f7386a4e0ee8", "type": "electric_scooter", "bike_id": "eccfa389dcec59c952a6f7386a4e0ee8", "rental_uris": {"ios": "https://dc.lft.to/lastmile_qr_scan", "android": "https://dc.lft.to/lastmile_qr_scan"}, "fusion_lat": 0.0}, {"lat": 38.903667666666664, "lon": -77.01751833333333, "is_disabled": 0, "fusion_lon": 0.0, "is_reserved": 0, "name": "de341b7c64b3c0b91fb447f47222fd1e", "type": "electric_scooter", "bike_id": "de341b7c64b3c0b91fb447f47222fd1e", "rental_uris": {"ios": "https://dc.lft.to/lastmile_qr_scan", "android": "https://dc.lft.to/lastmile_qr_scan"}, "fusion_lat": 0.0}, {"lat": 38.95769133333334, "lon": -77.01497583333334, "is_disabled": 0, "fusion_lon": 0.0, "is_reserved": 0, "name": "8ac48537df807305c5fd7443481d7149", "type": "electric_scooter", "bike_id": "8ac48537df807305c5fd7443481d7149", "rental_uris": {"ios": "https://dc.lft.to/lastmile_qr_scan", "android": "https://dc.lft.to/lastmile_qr_scan"}, "fusion_lat": 0.0}, {"lat": 38.89820983333333, "lon": -77.0060835, "is_disabled": 0, "fusion_lon": 0.0, "is_reserved": 0, "name": "363fa0d581c71faaf3e335387d3f8ca3", "type": "electric_bike", "bike_id": "363fa0d581c71faaf3e335387d3f8ca3", "rental_uris": {"ios": "https://dc.lft.to/lastmile_qr_scan", "android": "https://dc.lft.to/lastmile_qr_scan"}, "fusion_lat": 0.0}, {"lat": 38.900128, "lon": -77.002059, "is_disabled": 0, "fusion_lon": 0.0, "is_reserved": 0, "name": "fe7d35bd3ec3cbaa13d4dae2c1396a0d", "type": "electric_scooter", "bike_id": "fe7d35bd3ec3cbaa13d4dae2c1396a0d", "rental_uris": {"ios": "https://dc.lft.to/lastmile_qr_scan", "android": "https://dc.lft.to/lastmile_qr_scan"}, "fusion_lat": 0.0}, {"lat": 38.93197883333333, "lon": -77.028194, "is_disabled": 0, "fusion_lon": 0.0, "is_reserved": 0, "name": "d02dd182733fbed8e844e71f8d43c33f", "type": "electric_scooter", "bike_id": "d02dd182733fbed8e844e71f8d43c33f", "rental_uris": {"ios": "https://dc.lft.to/lastmile_qr_scan", "android": "https://dc.lft.to/lastmile_qr_scan"}, "fusion_lat": 0.0}, {"lat": 38.9176775, "lon": -77.03213433333333, "is_disabled": 0, "fusion_lon": 0.0, "is_reserved": 0, "name": "0bf30661cfc5e3c838334439a8c0e1af", "type": "electric_scooter", "bike_id": "0bf30661cfc5e3c838334439a8c0e1af", "rental_uris": {"ios": "https://dc.lft.to/lastmile_qr_scan", "android": "https://dc.lft.to/lastmile_qr_scan"}, "fusion_lat": 0.0}, {"lat": 38.9234115, "lon": -77.00917966666667, "is_disabled": 0, "fusion_lon": 0.0, "is_reserved": 0, "name": "a8e85c3ad1bdb38dbefda80aff9cb7bc", "type": "electric_scooter", "bike_id": "a8e85c3ad1bdb38dbefda80aff9cb7bc", "rental_uris": {"ios": "https://dc.lft.to/lastmile_qr_scan", "android": "https://dc.lft.to/lastmile_qr_scan"}, "fusion_lat": 0.0}, {"lat": 38.873911666666665, "lon": -77.00026633333333, "is_disabled": 0, "fusion_lon": 0.0, "is_reserved": 0, "name": "0c38283d915b10341c9c6f40a956c518", "type": "electric_scooter", "bike_id": "0c38283d915b10341c9c6f40a956c518", "rental_uris": {"ios": "https://dc.lft.to/lastmile_qr_scan", "android": "https://dc.lft.to/lastmile_qr_scan"}, "fusion_lat": 0.0}, {"lat": 38.922993166666664, "lon": -77.035346, "is_disabled": 0, "fusion_lon": 0.0, "is_reserved": 0, "name": "62bcadd10343572eaca457d7ccf3969c", "type": "electric_scooter", "bike_id": "62bcadd10343572eaca457d7ccf3969c", "rental_uris": {"ios": "https://dc.lft.to/lastmile_qr_scan", "android": "https://dc.lft.to/lastmile_qr_scan"}, "fusion_lat": 0.0}, {"lat": 38.92456333333333, "lon": -77.0519655, "is_disabled": 0, "fusion_lon": 0.0, "is_reserved": 0, "name": "552523f71ddaf3eeae161bc5dd86e434", "type": "electric_scooter", "bike_id": "552523f71ddaf3eeae161bc5dd86e434", "rental_uris": {"ios": "https://dc.lft.to/lastmile_qr_scan", "android": "https://dc.lft.to/lastmile_qr_scan"}, "fusion_lat": 0.0}, {"lat": 38.90681416666666, "lon": -77.036301, "is_disabled": 0, "fusion_lon": 0.0, "is_reserved": 0, "name": "6b93a4195e769de8dafac36f217aa40a", "type": "electric_scooter", "bike_id": "6b93a4195e769de8dafac36f217aa40a", "rental_uris": {"ios": "https://dc.lft.to/lastmile_qr_scan", "android": "https://dc.lft.to/lastmile_qr_scan"}, "fusion_lat": 0.0}, {"lat": 38.9086295, "lon": -76.99161133333334, "is_disabled": 0, "fusion_lon": 0.0, "is_reserved": 0, "name": "d80b1a657e495ed96aa29d2e2e384a46", "type": "electric_scooter", "bike_id": "d80b1a657e495ed96aa29d2e2e384a46", "rental_uris": {"ios": "https://dc.lft.to/lastmile_qr_scan", "android": "https://dc.lft.to/lastmile_qr_scan"}, "fusion_lat": 0.0}, {"lat": 38.910258666666664, "lon": -76.9972365, "is_disabled": 0, "fusion_lon": 0.0, "is_reserved": 0, "name": "fba53f66744c643607994986ed0b56d1", "type": "electric_scooter", "bike_id": "fba53f66744c643607994986ed0b56d1", "rental_uris": {"ios": "https://dc.lft.to/lastmile_qr_scan", "android": "https://dc.lft.to/lastmile_qr_scan"}, "fusion_lat": 0.0}, {"lat": 38.9032675, "lon": -77.01997983333334, "is_disabled": 0, "fusion_lon": 0.0, "is_reserved": 0, "name": "9e62447da15a3a5b2a64e399480dab48", "type": "electric_scooter", "bike_id": "9e62447da15a3a5b2a64e399480dab48", "rental_uris": {"ios": "https://dc.lft.to/lastmile_qr_scan", "android": "https://dc.lft.to/lastmile_qr_scan"}, "fusion_lat": 0.0}, {"lat": 38.927420833333336, "lon": -77.03418716666667, "is_disabled": 0, "fusion_lon": 0.0, "is_reserved": 0, "name": "83768e1ab81f15e8e5735b832cf56aa7", "type": "electric_scooter", "bike_id": "83768e1ab81f15e8e5735b832cf56aa7", "rental_uris": {"ios": "https://dc.lft.to/lastmile_qr_scan", "android": "https://dc.lft.to/lastmile_qr_scan"}, "fusion_lat": 0.0}, {"lat": 38.91038983333333, "lon": -77.04275166666666, "is_disabled": 0, "fusion_lon": 0.0, "is_reserved": 0, "name": "99c1557c0a96d9248dd82f81ea49eacd", "type": "electric_scooter", "bike_id": "99c1557c0a96d9248dd82f81ea49eacd", "rental_uris": {"ios": "https://dc.lft.to/lastmile_qr_scan", "android": "https://dc.lft.to/lastmile_qr_scan"}, "fusion_lat": 0.0}, {"lat": 38.915513, "lon": -77.03861783333333, "is_disabled": 0, "fusion_lon": 0.0, "is_reserved": 0, "name": "912d8c23005c0b7158f4e5d68b04d400", "type": "electric_scooter", "bike_id": "912d8c23005c0b7158f4e5d68b04d400", "rental_uris": {"ios": "https://dc.lft.to/lastmile_qr_scan", "android": "https://dc.lft.to/lastmile_qr_scan"}, "fusion_lat": 0.0}, {"lat": 38.91864433333333, "lon": -77.069965, "is_disabled": 0, "fusion_lon": 0.0, "is_reserved": 0, "name": "11cd9436c60346981f160bbd1e41b189", "type": "electric_scooter", "bike_id": "11cd9436c60346981f160bbd1e41b189", "rental_uris": {"ios": "https://dc.lft.to/lastmile_qr_scan", "android": "https://dc.lft.to/lastmile_qr_scan"}, "fusion_lat": 0.0}, {"lat": 38.87127566666667, "lon": -77.00760666666666, "is_disabled": 0, "fusion_lon": 0.0, "is_reserved": 0, "name": "5015c109ec4c2ddd9a4cebc2deecff56", "type": "electric_scooter", "bike_id": "5015c109ec4c2ddd9a4cebc2deecff56", "rental_uris": {"ios": "https://dc.lft.to/lastmile_qr_scan", "android": "https://dc.lft.to/lastmile_qr_scan"}, "fusion_lat": 0.0}, {"lat": 39.014859, "lon": -77.09949466666667, "is_disabled": 0, "fusion_lon": 0.0, "is_reserved": 0, "name": "ae35ab974934a3b7fda18df9bc7ef923", "type": "electric_bike", "bike_id": "ae35ab974934a3b7fda18df9bc7ef923", "rental_uris": {"ios": "https://dc.lft.to/lastmile_qr_scan", "android": "https://dc.lft.to/lastmile_qr_scan"}, "fusion_lat": 0.0}, {"lat": 38.874934, "lon": -76.99971816666667, "is_disabled": 0, "fusion_lon": 0.0, "is_reserved": 0, "name": "aae6c290e58b4e60789a5bb911f19e76", "type": "electric_scooter", "bike_id": "aae6c290e58b4e60789a5bb911f19e76", "rental_uris": {"ios": "https://dc.lft.to/lastmile_qr_scan", "android": "https://dc.lft.to/lastmile_qr_scan"}, "fusion_lat": 0.0}, {"lat": 38.921000666666664, "lon": -77.04699166666667, "is_disabled": 0, "fusion_lon": 0.0, "is_reserved": 0, "name": "ecc62b9933d3a274c9e4cd03b3221225", "type": "electric_scooter", "bike_id": "ecc62b9933d3a274c9e4cd03b3221225", "rental_uris": {"ios": "https://dc.lft.to/lastmile_qr_scan", "android": "https://dc.lft.to/lastmile_qr_scan"}, "fusion_lat": 0.0}, {"lat": 38.898953166666665, "lon": -77.0488165, "is_disabled": 0, "fusion_lon": 0.0, "is_reserved": 0, "name": "71dca1ad213aa3e9002ca679578a8be1", "type": "electric_scooter", "bike_id": "71dca1ad213aa3e9002ca679578a8be1", "rental_uris": {"ios": "https://dc.lft.to/lastmile_qr_scan", "android": "https://dc.lft.to/lastmile_qr_scan"}, "fusion_lat": 0.0}, {"lat": 38.91990283333333, "lon": -77.02537633333333, "is_disabled": 0, "fusion_lon": 0.0, "is_reserved": 0, "name": "69df85d85de1fd7df9c30a9937e36f84", "type": "electric_scooter", "bike_id": "69df85d85de1fd7df9c30a9937e36f84", "rental_uris": {"ios": "https://dc.lft.to/lastmile_qr_scan", "android": "https://dc.lft.to/lastmile_qr_scan"}, "fusion_lat": 0.0}, {"lat": 38.937172333333336, "lon": -77.03265866666666, "is_disabled": 0, "fusion_lon": 0.0, "is_reserved": 0, "name": "28b76f2bff77a01b08d220f71d536853", "type": "electric_scooter", "bike_id": "28b76f2bff77a01b08d220f71d536853", "rental_uris": {"ios": "https://dc.lft.to/lastmile_qr_scan", "android": "https://dc.lft.to/lastmile_qr_scan"}, "fusion_lat": 0.0}, {"lat": 38.93827133333333, "lon": -76.98991583333333, "is_disabled": 0, "fusion_lon": 0.0, "is_reserved": 0, "name": "f27fac45840073537a5c1130fd51de29", "type": "electric_scooter", "bike_id": "f27fac45840073537a5c1130fd51de29", "rental_uris": {"ios": "https://dc.lft.to/lastmile_qr_scan", "android": "https://dc.lft.to/lastmile_qr_scan"}, "fusion_lat": 0.0}, {"lat": 38.91552433333333, "lon": -77.03253216666667, "is_disabled": 0, "fusion_lon": 0.0, "is_reserved": 0, "name": "9c3b041271de7eb777d960ac3ffb72c2", "type": "electric_scooter", "bike_id": "9c3b041271de7eb777d960ac3ffb72c2", "rental_uris": {"ios": "https://dc.lft.to/lastmile_qr_scan", "android": "https://dc.lft.to/lastmile_qr_scan"}, "fusion_lat": 0.0}, {"lat": 38.92585666666667, "lon": -77.03224283333333, "is_disabled": 0, "fusion_lon": 0.0, "is_reserved": 0, "name": "862e91b74dde608be4bbdf75912da017", "type": "electric_scooter", "bike_id": "862e91b74dde608be4bbdf75912da017", "rental_uris": {"ios": "https://dc.lft.to/lastmile_qr_scan", "android": "https://dc.lft.to/lastmile_qr_scan"}, "fusion_lat": 0.0}, {"lat": 38.9123675, "lon": -77.038327, "is_disabled": 0, "fusion_lon": 0.0, "is_reserved": 0, "name": "be664aa06c090f6377bc1ccf78346d5d", "type": "electric_scooter", "bike_id": "be664aa06c090f6377bc1ccf78346d5d", "rental_uris": {"ios": "https://dc.lft.to/lastmile_qr_scan", "android": "https://dc.lft.to/lastmile_qr_scan"}, "fusion_lat": 0.0}, {"lat": 38.9126685, "lon": -77.04707516666667, "is_disabled": 0, "fusion_lon": 0.0, "is_reserved": 0, "name": "ceaaf7069d07ff543a050ed0d0ebf641", "type": "electric_scooter", "bike_id": "ceaaf7069d07ff543a050ed0d0ebf641", "rental_uris": {"ios": "https://dc.lft.to/lastmile_qr_scan", "android": "https://dc.lft.to/lastmile_qr_scan"}, "fusion_lat": 0.0}, {"lat": 38.90473466666667, "lon": -77.0188715, "is_disabled": 0, "fusion_lon": 0.0, "is_reserved": 0, "name": "e2aed7206464776223eca7d86b1ad084", "type": "electric_scooter", "bike_id": "e2aed7206464776223eca7d86b1ad084", "rental_uris": {"ios": "https://dc.lft.to/lastmile_qr_scan", "android": "https://dc.lft.to/lastmile_qr_scan"}, "fusion_lat": 0.0}, {"lat": 38.90675916666667, "lon": -77.03641533333334, "is_disabled": 0, "fusion_lon": 0.0, "is_reserved": 0, "name": "e118ef9d699cdfbbedf1285a84249292", "type": "electric_scooter", "bike_id": "e118ef9d699cdfbbedf1285a84249292", "rental_uris": {"ios": "https://dc.lft.to/lastmile_qr_scan", "android": "https://dc.lft.to/lastmile_qr_scan"}, "fusion_lat": 0.0}, {"lat": 38.877633, "lon": -77.01050883333333, "is_disabled": 0, "fusion_lon": 0.0, "is_reserved": 0, "name": "523cdae05cbe149d2e71769bfee598d0", "type": "electric_bike", "bike_id": "523cdae05cbe149d2e71769bfee598d0", "rental_uris": {"ios": "https://dc.lft.to/lastmile_qr_scan", "android": "https://dc.lft.to/lastmile_qr_scan"}, "fusion_lat": 0.0}, {"lat": 38.8838765, "lon": -77.01980066666667, "is_disabled": 0, "fusion_lon": 0.0, "is_reserved": 0, "name": "c525789ff4efab51e56c71f687c9f0fe", "type": "electric_scooter", "bike_id": "c525789ff4efab51e56c71f687c9f0fe", "rental_uris": {"ios": "https://dc.lft.to/lastmile_qr_scan", "android": "https://dc.lft.to/lastmile_qr_scan"}, "fusion_lat": 0.0}, {"lat": 38.917065, "lon": -77.04019483333333, "is_disabled": 0, "fusion_lon": 0.0, "is_reserved": 0, "name": "13f3e46f60dd471410b913e7c2864b75", "type": "electric_scooter", "bike_id": "13f3e46f60dd471410b913e7c2864b75", "rental_uris": {"ios": "https://dc.lft.to/lastmile_qr_scan", "android": "https://dc.lft.to/lastmile_qr_scan"}, "fusion_lat": 0.0}, {"lat": 38.9078335, "lon": -77.04510383333333, "is_disabled": 0, "fusion_lon": 0.0, "is_reserved": 0, "name": "88321b1d66f93043dfe018dc92dfc447", "type": "electric_scooter", "bike_id": "88321b1d66f93043dfe018dc92dfc447", "rental_uris": {"ios": "https://dc.lft.to/lastmile_qr_scan", "android": "https://dc.lft.to/lastmile_qr_scan"}, "fusion_lat": 0.0}, {"lat": 38.87793216666667, "lon": -76.9994525, "is_disabled": 0, "fusion_lon": 0.0, "is_reserved": 0, "name": "5b6677b1ffe942dafc39fde1d1508200", "type": "electric_scooter", "bike_id": "5b6677b1ffe942dafc39fde1d1508200", "rental_uris": {"ios": "https://dc.lft.to/lastmile_qr_scan", "android": "https://dc.lft.to/lastmile_qr_scan"}, "fusion_lat": 0.0}, {"lat": 38.9192215, "lon": -77.03423716666667, "is_disabled": 0, "fusion_lon": 0.0, "is_reserved": 0, "name": "08983f384a5e49d5ecdd68973139c8fb", "type": "electric_scooter", "bike_id": "08983f384a5e49d5ecdd68973139c8fb", "rental_uris": {"ios": "https://dc.lft.to/lastmile_qr_scan", "android": "https://dc.lft.to/lastmile_qr_scan"}, "fusion_lat": 0.0}, {"lat": 38.90191933333333, "lon": -77.05065033333334, "is_disabled": 0, "fusion_lon": 0.0, "is_reserved": 0, "name": "57585fe09e8c83e1c5df0efab4d2bf3b", "type": "electric_scooter", "bike_id": "57585fe09e8c83e1c5df0efab4d2bf3b", "rental_uris": {"ios": "https://dc.lft.to/lastmile_qr_scan", "android": "https://dc.lft.to/lastmile_qr_scan"}, "fusion_lat": 0.0}, {"lat": 38.930831833333336, "lon": -77.02793233333334, "is_disabled": 0, "fusion_lon": 0.0, "is_reserved": 0, "name": "85b5fc8cf2fb8bae59b4044e8730d4ad", "type": "electric_scooter", "bike_id": "85b5fc8cf2fb8bae59b4044e8730d4ad", "rental_uris": {"ios": "https://dc.lft.to/lastmile_qr_scan", "android": "https://dc.lft.to/lastmile_qr_scan"}, "fusion_lat": 0.0}, {"lat": 38.837597333333335, "lon": -77.09298, "is_disabled": 0, "fusion_lon": 0.0, "is_reserved": 0, "name": "5eb4c4850cc62d8fef7f8807905bec48", "type": "electric_bike", "bike_id": "5eb4c4850cc62d8fef7f8807905bec48", "rental_uris": {"ios": "https://dc.lft.to/lastmile_qr_scan", "android": "https://dc.lft.to/lastmile_qr_scan"}, "fusion_lat": 0.0}, {"lat": 38.978812833333336, "lon": -77.06031833333333, "is_disabled": 0, "fusion_lon": 0.0, "is_reserved": 0, "name": "c316d0bddeb0ef21b92a9672fb3d02f5", "type": "electric_bike", "bike_id": "c316d0bddeb0ef21b92a9672fb3d02f5", "rental_uris": {"ios": "https://dc.lft.to/lastmile_qr_scan", "android": "https://dc.lft.to/lastmile_qr_scan"}, "fusion_lat": 0.0}, {"lat": 38.9205, "lon": -77.025756, "is_disabled": 0, "fusion_lon": 0.0, "is_reserved": 0, "name": "76c3f9dcca6a52f91bb711b77ec39d35", "type": "electric_scooter", "bike_id": "76c3f9dcca6a52f91bb711b77ec39d35", "rental_uris": {"ios": "https://dc.lft.to/lastmile_qr_scan", "android": "https://dc.lft.to/lastmile_qr_scan"}, "fusion_lat": 0.0}, {"lat": 38.923437, "lon": -77.0517045, "is_disabled": 0, "fusion_lon": 0.0, "is_reserved": 0, "name": "2c561f0197127459c1a6cbb87be044b6", "type": "electric_scooter", "bike_id": "2c561f0197127459c1a6cbb87be044b6", "rental_uris": {"ios": "https://dc.lft.to/lastmile_qr_scan", "android": "https://dc.lft.to/lastmile_qr_scan"}, "fusion_lat": 0.0}, {"lat": 38.91698916666667, "lon": -77.02869683333333, "is_disabled": 0, "fusion_lon": 0.0, "is_reserved": 0, "name": "df66b0ef398f4b6301e8d7a163384445", "type": "electric_scooter", "bike_id": "df66b0ef398f4b6301e8d7a163384445", "rental_uris": {"ios": "https://dc.lft.to/lastmile_qr_scan", "android": "https://dc.lft.to/lastmile_qr_scan"}, "fusion_lat": 0.0}, {"lat": 38.913361, "lon": -77.03983733333334, "is_disabled": 0, "fusion_lon": 0.0, "is_reserved": 0, "name": "b8b2a4a36b30213302fd9e37b91f5824", "type": "electric_scooter", "bike_id": "b8b2a4a36b30213302fd9e37b91f5824", "rental_uris": {"ios": "https://dc.lft.to/lastmile_qr_scan", "android": "https://dc.lft.to/lastmile_qr_scan"}, "fusion_lat": 0.0}, {"lat": 38.923912333333334, "lon": -77.02652666666667, "is_disabled": 0, "fusion_lon": 0.0, "is_reserved": 0, "name": "bab0caa5194e4465b70c21749d78691f", "type": "electric_scooter", "bike_id": "bab0caa5194e4465b70c21749d78691f", "rental_uris": {"ios": "https://dc.lft.to/lastmile_qr_scan", "android": "https://dc.lft.to/lastmile_qr_scan"}, "fusion_lat": 0.0}, {"lat": 38.92081316666667, "lon": -76.994837, "is_disabled": 0, "fusion_lon": 0.0, "is_reserved": 0, "name": "820b33cfe02f1ead8681003c66dc7f6d", "type": "electric_scooter", "bike_id": "820b33cfe02f1ead8681003c66dc7f6d", "rental_uris": {"ios": "https://dc.lft.to/lastmile_qr_scan", "android": "https://dc.lft.to/lastmile_qr_scan"}, "fusion_lat": 0.0}, {"lat": 38.914165833333335, "lon": -77.0209735, "is_disabled": 0, "fusion_lon": 0.0, "is_reserved": 0, "name": "0bde301813e2b41beec9b0130146d81d", "type": "electric_scooter", "bike_id": "0bde301813e2b41beec9b0130146d81d", "rental_uris": {"ios": "https://dc.lft.to/lastmile_qr_scan", "android": "https://dc.lft.to/lastmile_qr_scan"}, "fusion_lat": 0.0}, {"lat": 38.9194895, "lon": -77.04541333333333, "is_disabled": 0, "fusion_lon": 0.0, "is_reserved": 0, "name": "90f84495f69e5021c217ba6ebdd963bc", "type": "electric_scooter", "bike_id": "90f84495f69e5021c217ba6ebdd963bc", "rental_uris": {"ios": "https://dc.lft.to/lastmile_qr_scan", "android": "https://dc.lft.to/lastmile_qr_scan"}, "fusion_lat": 0.0}, {"lat": 38.90277066666667, "lon": -77.02794116666666, "is_disabled": 0, "fusion_lon": 0.0, "is_reserved": 0, "name": "a90bb7f4745519ea9c7a4790fd7e277d", "type": "electric_scooter", "bike_id": "a90bb7f4745519ea9c7a4790fd7e277d", "rental_uris": {"ios": "https://dc.lft.to/lastmile_qr_scan", "android": "https://dc.lft.to/lastmile_qr_scan"}, "fusion_lat": 0.0}, {"lat": 38.927389833333336, "lon": -77.02707166666667, "is_disabled": 0, "fusion_lon": 0.0, "is_reserved": 0, "name": "b75327c529fbc7e40b6741aad2e35cac", "type": "electric_scooter", "bike_id": "b75327c529fbc7e40b6741aad2e35cac", "rental_uris": {"ios": "https://dc.lft.to/lastmile_qr_scan", "android": "https://dc.lft.to/lastmile_qr_scan"}, "fusion_lat": 0.0}, {"lat": 38.910695, "lon": -77.00459533333333, "is_disabled": 0, "fusion_lon": 0.0, "is_reserved": 0, "name": "b565555eae725b0c3b13b4f35224b6d1", "type": "electric_scooter", "bike_id": "b565555eae725b0c3b13b4f35224b6d1", "rental_uris": {"ios": "https://dc.lft.to/lastmile_qr_scan", "android": "https://dc.lft.to/lastmile_qr_scan"}, "fusion_lat": 0.0}, {"lat": 38.90995433333333, "lon": -77.0485815, "is_disabled": 0, "fusion_lon": 0.0, "is_reserved": 0, "name": "409d7077f8215f135fdc74e399d581ef", "type": "electric_scooter", "bike_id": "409d7077f8215f135fdc74e399d581ef", "rental_uris": {"ios": "https://dc.lft.to/lastmile_qr_scan", "android": "https://dc.lft.to/lastmile_qr_scan"}, "fusion_lat": 0.0}, {"lat": 38.88120116666666, "lon": -76.99863833333333, "is_disabled": 0, "fusion_lon": 0.0, "is_reserved": 0, "name": "fa879668608c73242ef1233dc5424e0f", "type": "electric_scooter", "bike_id": "fa879668608c73242ef1233dc5424e0f", "rental_uris": {"ios": "https://dc.lft.to/lastmile_qr_scan", "android": "https://dc.lft.to/lastmile_qr_scan"}, "fusion_lat": 0.0}, {"lat": 38.91555483333333, "lon": -77.00586316666667, "is_disabled": 0, "fusion_lon": 0.0, "is_reserved": 0, "name": "21d19a9a8b100d2f80cf73e0141e6deb", "type": "electric_scooter", "bike_id": "21d19a9a8b100d2f80cf73e0141e6deb", "rental_uris": {"ios": "https://dc.lft.to/lastmile_qr_scan", "android": "https://dc.lft.to/lastmile_qr_scan"}, "fusion_lat": 0.0}, {"lat": 38.92453783333333, "lon": -77.021668, "is_disabled": 0, "fusion_lon": 0.0, "is_reserved": 0, "name": "a438b36859491983a681b3773d6102e2", "type": "electric_scooter", "bike_id": "a438b36859491983a681b3773d6102e2", "rental_uris": {"ios": "https://dc.lft.to/lastmile_qr_scan", "android": "https://dc.lft.to/lastmile_qr_scan"}, "fusion_lat": 0.0}, {"lat": 38.92656316666667, "lon": -77.02417883333334, "is_disabled": 0, "fusion_lon": 0.0, "is_reserved": 0, "name": "f92738b40ad8633eaa559c928c3cf907", "type": "electric_scooter", "bike_id": "f92738b40ad8633eaa559c928c3cf907", "rental_uris": {"ios": "https://dc.lft.to/lastmile_qr_scan", "android": "https://dc.lft.to/lastmile_qr_scan"}, "fusion_lat": 0.0}, {"lat": 38.874690666666666, "lon": -77.004691, "is_disabled": 0, "fusion_lon": 0.0, "is_reserved": 0, "name": "807fb232464969e3ed8944885ec8fa0f", "type": "electric_scooter", "bike_id": "807fb232464969e3ed8944885ec8fa0f", "rental_uris": {"ios": "https://dc.lft.to/lastmile_qr_scan", "android": "https://dc.lft.to/lastmile_qr_scan"}, "fusion_lat": 0.0}, {"lat": 38.8739865, "lon": -77.014506, "is_disabled": 0, "fusion_lon": 0.0, "is_reserved": 0, "name": "2508495365d2564d86fade59afda91f5", "type": "electric_scooter", "bike_id": "2508495365d2564d86fade59afda91f5", "rental_uris": {"ios": "https://dc.lft.to/lastmile_qr_scan", "android": "https://dc.lft.to/lastmile_qr_scan"}, "fusion_lat": 0.0}, {"lat": 38.8952, "lon": -77.02816933333334, "is_disabled": 0, "fusion_lon": 0.0, "is_reserved": 0, "name": "2f0503e60c45e753a87e348207806cca", "type": "electric_scooter", "bike_id": "2f0503e60c45e753a87e348207806cca", "rental_uris": {"ios": "https://dc.lft.to/lastmile_qr_scan", "android": "https://dc.lft.to/lastmile_qr_scan"}, "fusion_lat": 0.0}, {"lat": 38.9026565, "lon": -77.03455883333334, "is_disabled": 0, "fusion_lon": 0.0, "is_reserved": 0, "name": "51289fcf1b9dd62c7c56ad084a799058", "type": "electric_scooter", "bike_id": "51289fcf1b9dd62c7c56ad084a799058", "rental_uris": {"ios": "https://dc.lft.to/lastmile_qr_scan", "android": "https://dc.lft.to/lastmile_qr_scan"}, "fusion_lat": 0.0}, {"lat": 38.90371416666667, "lon": -77.03552583333334, "is_disabled": 0, "fusion_lon": 0.0, "is_reserved": 0, "name": "01de24194787271eb5a63e28fed324df", "type": "electric_scooter", "bike_id": "01de24194787271eb5a63e28fed324df", "rental_uris": {"ios": "https://dc.lft.to/lastmile_qr_scan", "android": "https://dc.lft.to/lastmile_qr_scan"}, "fusion_lat": 0.0}, {"lat": 38.9177885, "lon": -77.04413716666667, "is_disabled": 0, "fusion_lon": 0.0, "is_reserved": 0, "name": "96ddea2cd966dee376c44b2bfdbd0270", "type": "electric_scooter", "bike_id": "96ddea2cd966dee376c44b2bfdbd0270", "rental_uris": {"ios": "https://dc.lft.to/lastmile_qr_scan", "android": "https://dc.lft.to/lastmile_qr_scan"}, "fusion_lat": 0.0}, {"lat": 38.889965333333336, "lon": -76.98370333333334, "is_disabled": 0, "fusion_lon": 0.0, "is_reserved": 0, "name": "1c4e49bc71d96b4db0d87da1d884bb20", "type": "electric_scooter", "bike_id": "1c4e49bc71d96b4db0d87da1d884bb20", "rental_uris": {"ios": "https://dc.lft.to/lastmile_qr_scan", "android": "https://dc.lft.to/lastmile_qr_scan"}, "fusion_lat": 0.0}, {"lat": 38.8766055, "lon": -77.0148515, "is_disabled": 0, "fusion_lon": 0.0, "is_reserved": 0, "name": "72b890885a34c1bae9ab53e428ffe084", "type": "electric_scooter", "bike_id": "72b890885a34c1bae9ab53e428ffe084", "rental_uris": {"ios": "https://dc.lft.to/lastmile_qr_scan", "android": "https://dc.lft.to/lastmile_qr_scan"}, "fusion_lat": 0.0}, {"lat": 38.8983755, "lon": -76.94639066666667, "is_disabled": 0, "fusion_lon": 0.0, "is_reserved": 0, "name": "a736cbfabf225a7bf3173838ef2ee4d9", "type": "electric_scooter", "bike_id": "a736cbfabf225a7bf3173838ef2ee4d9", "rental_uris": {"ios": "https://dc.lft.to/lastmile_qr_scan", "android": "https://dc.lft.to/lastmile_qr_scan"}, "fusion_lat": 0.0}, {"lat": 38.91315083333333, "lon": -77.041588, "is_disabled": 0, "fusion_lon": 0.0, "is_reserved": 0, "name": "a4896302fb655a02bb3dc4a6790ca65e", "type": "electric_scooter", "bike_id": "a4896302fb655a02bb3dc4a6790ca65e", "rental_uris": {"ios": "https://dc.lft.to/lastmile_qr_scan", "android": "https://dc.lft.to/lastmile_qr_scan"}, "fusion_lat": 0.0}, {"lat": 38.93217966666667, "lon": -77.032657, "is_disabled": 0, "fusion_lon": 0.0, "is_reserved": 0, "name": "4b656715e6669da636d8ce2914ec3e86", "type": "electric_scooter", "bike_id": "4b656715e6669da636d8ce2914ec3e86", "rental_uris": {"ios": "https://dc.lft.to/lastmile_qr_scan", "android": "https://dc.lft.to/lastmile_qr_scan"}, "fusion_lat": 0.0}, {"lat": 38.92638266666667, "lon": -77.03849883333334, "is_disabled": 0, "fusion_lon": 0.0, "is_reserved": 0, "name": "9018453aab2ba343a2ab5c8a3890610c", "type": "electric_scooter", "bike_id": "9018453aab2ba343a2ab5c8a3890610c", "rental_uris": {"ios": "https://dc.lft.to/lastmile_qr_scan", "android": "https://dc.lft.to/lastmile_qr_scan"}, "fusion_lat": 0.0}, {"lat": 38.909619666666664, "lon": -77.01650216666667, "is_disabled": 0, "fusion_lon": 0.0, "is_reserved": 0, "name": "737c347646b057d29c9811a50d8a5f0e", "type": "electric_scooter", "bike_id": "737c347646b057d29c9811a50d8a5f0e", "rental_uris": {"ios": "https://dc.lft.to/lastmile_qr_scan", "android": "https://dc.lft.to/lastmile_qr_scan"}, "fusion_lat": 0.0}, {"lat": 38.900300333333334, "lon": -77.0118305, "is_disabled": 0, "fusion_lon": 0.0, "is_reserved": 0, "name": "805fde011a2124d98bb38c8ebf9b6472", "type": "electric_scooter", "bike_id": "805fde011a2124d98bb38c8ebf9b6472", "rental_uris": {"ios": "https://dc.lft.to/lastmile_qr_scan", "android": "https://dc.lft.to/lastmile_qr_scan"}, "fusion_lat": 0.0}, {"lat": 38.89964766666667, "lon": -77.048206, "is_disabled": 0, "fusion_lon": 0.0, "is_reserved": 0, "name": "0b025ae5409e869ae83656d2387cbbbe", "type": "electric_scooter", "bike_id": "0b025ae5409e869ae83656d2387cbbbe", "rental_uris": {"ios": "https://dc.lft.to/lastmile_qr_scan", "android": "https://dc.lft.to/lastmile_qr_scan"}, "fusion_lat": 0.0}, {"lat": 38.909597, "lon": -77.03426, "is_disabled": 0, "fusion_lon": 0.0, "is_reserved": 0, "name": "093eebee2a63d86eb48e4d145eebc6c3", "type": "electric_scooter", "bike_id": "093eebee2a63d86eb48e4d145eebc6c3", "rental_uris": {"ios": "https://dc.lft.to/lastmile_qr_scan", "android": "https://dc.lft.to/lastmile_qr_scan"}, "fusion_lat": 0.0}, {"lat": 38.95047116666667, "lon": -77.027073, "is_disabled": 0, "fusion_lon": 0.0, "is_reserved": 0, "name": "a351a801e2d3df6eef3d25d30e4bf0c7", "type": "electric_scooter", "bike_id": "a351a801e2d3df6eef3d25d30e4bf0c7", "rental_uris": {"ios": "https://dc.lft.to/lastmile_qr_scan", "android": "https://dc.lft.to/lastmile_qr_scan"}, "fusion_lat": 0.0}, {"lat": 38.91113333333333, "lon": -77.0454675, "is_disabled": 0, "fusion_lon": 0.0, "is_reserved": 0, "name": "128007bda0538b0bc20dc742aec32a59", "type": "electric_scooter", "bike_id": "128007bda0538b0bc20dc742aec32a59", "rental_uris": {"ios": "https://dc.lft.to/lastmile_qr_scan", "android": "https://dc.lft.to/lastmile_qr_scan"}, "fusion_lat": 0.0}, {"lat": 38.918538833333336, "lon": -77.0246025, "is_disabled": 0, "fusion_lon": 0.0, "is_reserved": 0, "name": "d933480661cc718a3125c477c03918d1", "type": "electric_scooter", "bike_id": "d933480661cc718a3125c477c03918d1", "rental_uris": {"ios": "https://dc.lft.to/lastmile_qr_scan", "android": "https://dc.lft.to/lastmile_qr_scan"}, "fusion_lat": 0.0}, {"lat": 38.87559383333333, "lon": -77.00556816666666, "is_disabled": 0, "fusion_lon": 0.0, "is_reserved": 0, "name": "91b7dcac4f4fe470cc320962fcc5cef9", "type": "electric_scooter", "bike_id": "91b7dcac4f4fe470cc320962fcc5cef9", "rental_uris": {"ios": "https://dc.lft.to/lastmile_qr_scan", "android": "https://dc.lft.to/lastmile_qr_scan"}, "fusion_lat": 0.0}, {"lat": 38.89229516666666, "lon": -77.04504183333333, "is_disabled": 0, "fusion_lon": 0.0, "is_reserved": 0, "name": "60562d9efbe5ace65bb978910b00228d", "type": "electric_scooter", "bike_id": "60562d9efbe5ace65bb978910b00228d", "rental_uris": {"ios": "https://dc.lft.to/lastmile_qr_scan", "android": "https://dc.lft.to/lastmile_qr_scan"}, "fusion_lat": 0.0}, {"lat": 38.903007833333334, "lon": -77.04252883333334, "is_disabled": 0, "fusion_lon": 0.0, "is_reserved": 0, "name": "483542a3106d0f8c5501b14ad2628bd0", "type": "electric_scooter", "bike_id": "483542a3106d0f8c5501b14ad2628bd0", "rental_uris": {"ios": "https://dc.lft.to/lastmile_qr_scan", "android": "https://dc.lft.to/lastmile_qr_scan"}, "fusion_lat": 0.0}, {"lat": 38.90307766666667, "lon": -77.01602266666667, "is_disabled": 0, "fusion_lon": 0.0, "is_reserved": 0, "name": "36a82a92fadbf9054c1271d0f3dc1c8d", "type": "electric_scooter", "bike_id": "36a82a92fadbf9054c1271d0f3dc1c8d", "rental_uris": {"ios": "https://dc.lft.to/lastmile_qr_scan", "android": "https://dc.lft.to/lastmile_qr_scan"}, "fusion_lat": 0.0}, {"lat": 38.90414333333333, "lon": -76.97332516666667, "is_disabled": 0, "fusion_lon": 0.0, "is_reserved": 0, "name": "cd745398fb94d7792022ae0450396308", "type": "electric_scooter", "bike_id": "cd745398fb94d7792022ae0450396308", "rental_uris": {"ios": "https://dc.lft.to/lastmile_qr_scan", "android": "https://dc.lft.to/lastmile_qr_scan"}, "fusion_lat": 0.0}, {"lat": 38.92632, "lon": -77.03714166666667, "is_disabled": 0, "fusion_lon": 0.0, "is_reserved": 0, "name": "1f7d364f361c5e241db3c52838985a58", "type": "electric_scooter", "bike_id": "1f7d364f361c5e241db3c52838985a58", "rental_uris": {"ios": "https://dc.lft.to/lastmile_qr_scan", "android": "https://dc.lft.to/lastmile_qr_scan"}, "fusion_lat": 0.0}, {"lat": 38.91464283333333, "lon": -77.00213, "is_disabled": 0, "fusion_lon": 0.0, "is_reserved": 0, "name": "180b2c78b413cc90cbc02d6d5bbb9af9", "type": "electric_scooter", "bike_id": "180b2c78b413cc90cbc02d6d5bbb9af9", "rental_uris": {"ios": "https://dc.lft.to/lastmile_qr_scan", "android": "https://dc.lft.to/lastmile_qr_scan"}, "fusion_lat": 0.0}, {"lat": 38.9182155, "lon": -77.03658216666666, "is_disabled": 0, "fusion_lon": 0.0, "is_reserved": 0, "name": "6f37801cd800428c286d5392462eea78", "type": "electric_scooter", "bike_id": "6f37801cd800428c286d5392462eea78", "rental_uris": {"ios": "https://dc.lft.to/lastmile_qr_scan", "android": "https://dc.lft.to/lastmile_qr_scan"}, "fusion_lat": 0.0}, {"lat": 38.924886666666666, "lon": -77.05214716666667, "is_disabled": 0, "fusion_lon": 0.0, "is_reserved": 0, "name": "aebec7332e9fcbe6f7b8ea3f5a5a2fdf", "type": "electric_scooter", "bike_id": "aebec7332e9fcbe6f7b8ea3f5a5a2fdf", "rental_uris": {"ios": "https://dc.lft.to/lastmile_qr_scan", "android": "https://dc.lft.to/lastmile_qr_scan"}, "fusion_lat": 0.0}, {"lat": 38.92094866666667, "lon": -77.02513866666666, "is_disabled": 0, "fusion_lon": 0.0, "is_reserved": 0, "name": "50a66dc048024bcfe0fb907f868c617f", "type": "electric_scooter", "bike_id": "50a66dc048024bcfe0fb907f868c617f", "rental_uris": {"ios": "https://dc.lft.to/lastmile_qr_scan", "android": "https://dc.lft.to/lastmile_qr_scan"}, "fusion_lat": 0.0}, {"lat": 38.933634, "lon": -77.05734416666667, "is_disabled": 0, "fusion_lon": 0.0, "is_reserved": 0, "name": "371abc5cc624121b27b2ccc559e072d3", "type": "electric_scooter", "bike_id": "371abc5cc624121b27b2ccc559e072d3", "rental_uris": {"ios": "https://dc.lft.to/lastmile_qr_scan", "android": "https://dc.lft.to/lastmile_qr_scan"}, "fusion_lat": 0.0}, {"lat": 38.9003545, "lon": -77.01186466666667, "is_disabled": 0, "fusion_lon": 0.0, "is_reserved": 0, "name": "1ed9bccf22ac57aac448e7d18d466430", "type": "electric_scooter", "bike_id": "1ed9bccf22ac57aac448e7d18d466430", "rental_uris": {"ios": "https://dc.lft.to/lastmile_qr_scan", "android": "https://dc.lft.to/lastmile_qr_scan"}, "fusion_lat": 0.0}, {"lat": 38.901171, "lon": -77.0019845, "is_disabled": 0, "fusion_lon": 0.0, "is_reserved": 0, "name": "1a0ebbadc17d938975856d63e295331b", "type": "electric_scooter", "bike_id": "1a0ebbadc17d938975856d63e295331b", "rental_uris": {"ios": "https://dc.lft.to/lastmile_qr_scan", "android": "https://dc.lft.to/lastmile_qr_scan"}, "fusion_lat": 0.0}, {"lat": 38.906949833333336, "lon": -77.03600716666666, "is_disabled": 0, "fusion_lon": 0.0, "is_reserved": 0, "name": "993b5177ec9b7d268dec83ed1e0acedd", "type": "electric_scooter", "bike_id": "993b5177ec9b7d268dec83ed1e0acedd", "rental_uris": {"ios": "https://dc.lft.to/lastmile_qr_scan", "android": "https://dc.lft.to/lastmile_qr_scan"}, "fusion_lat": 0.0}, {"lat": 38.915986, "lon": -77.01207466666666, "is_disabled": 0, "fusion_lon": 0.0, "is_reserved": 0, "name": "1ae70bdb758bb6d18ac25c512c9fb135", "type": "electric_scooter", "bike_id": "1ae70bdb758bb6d18ac25c512c9fb135", "rental_uris": {"ios": "https://dc.lft.to/lastmile_qr_scan", "android": "https://dc.lft.to/lastmile_qr_scan"}, "fusion_lat": 0.0}, {"lat": 38.90690266666667, "lon": -77.06340266666666, "is_disabled": 0, "fusion_lon": 0.0, "is_reserved": 0, "name": "e8caeafc887f4e8bbed6a1059a0634f0", "type": "electric_scooter", "bike_id": "e8caeafc887f4e8bbed6a1059a0634f0", "rental_uris": {"ios": "https://dc.lft.to/lastmile_qr_scan", "android": "https://dc.lft.to/lastmile_qr_scan"}, "fusion_lat": 0.0}, {"lat": 38.9142615, "lon": -77.031853, "is_disabled": 0, "fusion_lon": 0.0, "is_reserved": 0, "name": "23b755598c78881040cbd7183b943167", "type": "electric_scooter", "bike_id": "23b755598c78881040cbd7183b943167", "rental_uris": {"ios": "https://dc.lft.to/lastmile_qr_scan", "android": "https://dc.lft.to/lastmile_qr_scan"}, "fusion_lat": 0.0}, {"lat": 38.924812, "lon": -77.02659016666667, "is_disabled": 0, "fusion_lon": 0.0, "is_reserved": 0, "name": "6a5388c9d008a695330b029152ec3c44", "type": "electric_scooter", "bike_id": "6a5388c9d008a695330b029152ec3c44", "rental_uris": {"ios": "https://dc.lft.to/lastmile_qr_scan", "android": "https://dc.lft.to/lastmile_qr_scan"}, "fusion_lat": 0.0}, {"lat": 38.91654066666667, "lon": -77.009452, "is_disabled": 0, "fusion_lon": 0.0, "is_reserved": 0, "name": "173bc98da6adeaf3f98b86d6fb3da320", "type": "electric_scooter", "bike_id": "173bc98da6adeaf3f98b86d6fb3da320", "rental_uris": {"ios": "https://dc.lft.to/lastmile_qr_scan", "android": "https://dc.lft.to/lastmile_qr_scan"}, "fusion_lat": 0.0}, {"lat": 38.89229266666667, "lon": -77.027558, "is_disabled": 0, "fusion_lon": 0.0, "is_reserved": 0, "name": "cacbaa4c30c09d9fe2e8496816d0678f", "type": "electric_scooter", "bike_id": "cacbaa4c30c09d9fe2e8496816d0678f", "rental_uris": {"ios": "https://dc.lft.to/lastmile_qr_scan", "android": "https://dc.lft.to/lastmile_qr_scan"}, "fusion_lat": 0.0}, {"lat": 38.90153183333334, "lon": -77.04428466666667, "is_disabled": 0, "fusion_lon": 0.0, "is_reserved": 0, "name": "e987223538c26dc782ba4f14ea28e451", "type": "electric_scooter", "bike_id": "e987223538c26dc782ba4f14ea28e451", "rental_uris": {"ios": "https://dc.lft.to/lastmile_qr_scan", "android": "https://dc.lft.to/lastmile_qr_scan"}, "fusion_lat": 0.0}, {"lat": 38.92346416666667, "lon": -77.051774, "is_disabled": 0, "fusion_lon": 0.0, "is_reserved": 0, "name": "671368a3b3866a05eac0312520873219", "type": "electric_scooter", "bike_id": "671368a3b3866a05eac0312520873219", "rental_uris": {"ios": "https://dc.lft.to/lastmile_qr_scan", "android": "https://dc.lft.to/lastmile_qr_scan"}, "fusion_lat": 0.0}, {"lat": 38.93101983333333, "lon": -77.02479, "is_disabled": 0, "fusion_lon": 0.0, "is_reserved": 0, "name": "fe580666e33f054e724904f08c1058b9", "type": "electric_scooter", "bike_id": "fe580666e33f054e724904f08c1058b9", "rental_uris": {"ios": "https://dc.lft.to/lastmile_qr_scan", "android": "https://dc.lft.to/lastmile_qr_scan"}, "fusion_lat": 0.0}, {"lat": 38.8921785, "lon": -76.99569433333333, "is_disabled": 0, "fusion_lon": 0.0, "is_reserved": 0, "name": "2cc4a279acbf6e62b0bc1c5308ad37f9", "type": "electric_bike", "bike_id": "2cc4a279acbf6e62b0bc1c5308ad37f9", "rental_uris": {"ios": "https://dc.lft.to/lastmile_qr_scan", "android": "https://dc.lft.to/lastmile_qr_scan"}, "fusion_lat": 0.0}, {"lat": 38.919229333333334, "lon": -77.03425516666667, "is_disabled": 0, "fusion_lon": 0.0, "is_reserved": 0, "name": "1c75ca123bff3d310dc5706b41c0dd2d", "type": "electric_scooter", "bike_id": "1c75ca123bff3d310dc5706b41c0dd2d", "rental_uris": {"ios": "https://dc.lft.to/lastmile_qr_scan", "android": "https://dc.lft.to/lastmile_qr_scan"}, "fusion_lat": 0.0}, {"lat": 38.91483383333333, "lon": -77.04602066666666, "is_disabled": 0, "fusion_lon": 0.0, "is_reserved": 0, "name": "ee62aac682ffcb699e20d07b0dc8010b", "type": "electric_scooter", "bike_id": "ee62aac682ffcb699e20d07b0dc8010b", "rental_uris": {"ios": "https://dc.lft.to/lastmile_qr_scan", "android": "https://dc.lft.to/lastmile_qr_scan"}, "fusion_lat": 0.0}, {"lat": 38.9391475, "lon": -77.024615, "is_disabled": 0, "fusion_lon": 0.0, "is_reserved": 0, "name": "feee51530c2f0e45656f4c4eeaea593c", "type": "electric_scooter", "bike_id": "feee51530c2f0e45656f4c4eeaea593c", "rental_uris": {"ios": "https://dc.lft.to/lastmile_qr_scan", "android": "https://dc.lft.to/lastmile_qr_scan"}, "fusion_lat": 0.0}, {"lat": 38.914033833333335, "lon": -77.0395125, "is_disabled": 0, "fusion_lon": 0.0, "is_reserved": 0, "name": "521c13baa8a2b817d91cb226104a9140", "type": "electric_scooter", "bike_id": "521c13baa8a2b817d91cb226104a9140", "rental_uris": {"ios": "https://dc.lft.to/lastmile_qr_scan", "android": "https://dc.lft.to/lastmile_qr_scan"}, "fusion_lat": 0.0}, {"lat": 38.923038, "lon": -76.9977115, "is_disabled": 0, "fusion_lon": 0.0, "is_reserved": 0, "name": "1473705464fdceb8788b145c855b8b0f", "type": "electric_scooter", "bike_id": "1473705464fdceb8788b145c855b8b0f", "rental_uris": {"ios": "https://dc.lft.to/lastmile_qr_scan", "android": "https://dc.lft.to/lastmile_qr_scan"}, "fusion_lat": 0.0}, {"lat": 38.92121933333333, "lon": -77.03658783333333, "is_disabled": 0, "fusion_lon": 0.0, "is_reserved": 0, "name": "e7d94540a2e94972cb39643c8aa393bf", "type": "electric_scooter", "bike_id": "e7d94540a2e94972cb39643c8aa393bf", "rental_uris": {"ios": "https://dc.lft.to/lastmile_qr_scan", "android": "https://dc.lft.to/lastmile_qr_scan"}, "fusion_lat": 0.0}, {"lat": 38.90347333333333, "lon": -77.00559083333333, "is_disabled": 0, "fusion_lon": 0.0, "is_reserved": 0, "name": "27459516dddc9619f7afebda9c514105", "type": "electric_scooter", "bike_id": "27459516dddc9619f7afebda9c514105", "rental_uris": {"ios": "https://dc.lft.to/lastmile_qr_scan", "android": "https://dc.lft.to/lastmile_qr_scan"}, "fusion_lat": 0.0}, {"lat": 38.9013405, "lon": -77.01665683333333, "is_disabled": 0, "fusion_lon": 0.0, "is_reserved": 0, "name": "966fe2b8ecffa6e2916a63187066075b", "type": "electric_scooter", "bike_id": "966fe2b8ecffa6e2916a63187066075b", "rental_uris": {"ios": "https://dc.lft.to/lastmile_qr_scan", "android": "https://dc.lft.to/lastmile_qr_scan"}, "fusion_lat": 0.0}, {"lat": 38.934264666666664, "lon": -77.04003, "is_disabled": 0, "fusion_lon": 0.0, "is_reserved": 0, "name": "6be829e8d7f08bca3e9f1707c53b5c36", "type": "electric_scooter", "bike_id": "6be829e8d7f08bca3e9f1707c53b5c36", "rental_uris": {"ios": "https://dc.lft.to/lastmile_qr_scan", "android": "https://dc.lft.to/lastmile_qr_scan"}, "fusion_lat": 0.0}, {"lat": 38.9010065, "lon": -76.99382983333334, "is_disabled": 0, "fusion_lon": 0.0, "is_reserved": 0, "name": "df39efddf16120e0e8aa65721a537040", "type": "electric_scooter", "bike_id": "df39efddf16120e0e8aa65721a537040", "rental_uris": {"ios": "https://dc.lft.to/lastmile_qr_scan", "android": "https://dc.lft.to/lastmile_qr_scan"}, "fusion_lat": 0.0}, {"lat": 38.91347566666666, "lon": -77.0122795, "is_disabled": 0, "fusion_lon": 0.0, "is_reserved": 0, "name": "f4aea9b6886685793a0899765493c4d7", "type": "electric_scooter", "bike_id": "f4aea9b6886685793a0899765493c4d7", "rental_uris": {"ios": "https://dc.lft.to/lastmile_qr_scan", "android": "https://dc.lft.to/lastmile_qr_scan"}, "fusion_lat": 0.0}, {"lat": 38.905664, "lon": -77.008825, "is_disabled": 0, "fusion_lon": 0.0, "is_reserved": 0, "name": "0bdb8f12486c02894134d07ad66691fe", "type": "electric_scooter", "bike_id": "0bdb8f12486c02894134d07ad66691fe", "rental_uris": {"ios": "https://dc.lft.to/lastmile_qr_scan", "android": "https://dc.lft.to/lastmile_qr_scan"}, "fusion_lat": 0.0}, {"lat": 38.892508666666664, "lon": -76.98842566666667, "is_disabled": 0, "fusion_lon": 0.0, "is_reserved": 0, "name": "758bfc7fd4cdb8528d2758b80844f58d", "type": "electric_scooter", "bike_id": "758bfc7fd4cdb8528d2758b80844f58d", "rental_uris": {"ios": "https://dc.lft.to/lastmile_qr_scan", "android": "https://dc.lft.to/lastmile_qr_scan"}, "fusion_lat": 0.0}, {"lat": 39.00483533333333, "lon": -77.02185183333333, "is_disabled": 0, "fusion_lon": 0.0, "is_reserved": 0, "name": "e624c80520d73dc1262f63f7897df158", "type": "electric_bike", "bike_id": "e624c80520d73dc1262f63f7897df158", "rental_uris": {"ios": "https://dc.lft.to/lastmile_qr_scan", "android": "https://dc.lft.to/lastmile_qr_scan"}, "fusion_lat": 0.0}, {"lat": 38.870963333333336, "lon": -76.94203883333333, "is_disabled": 0, "fusion_lon": 0.0, "is_reserved": 0, "name": "414886934f713c3a9b6b2d9992a60f8e", "type": "electric_scooter", "bike_id": "414886934f713c3a9b6b2d9992a60f8e", "rental_uris": {"ios": "https://dc.lft.to/lastmile_qr_scan", "android": "https://dc.lft.to/lastmile_qr_scan"}, "fusion_lat": 0.0}, {"lat": 38.901615666666665, "lon": -77.01602916666667, "is_disabled": 0, "fusion_lon": 0.0, "is_reserved": 0, "name": "4c6297a05116c25e57bc8c180a808000", "type": "electric_scooter", "bike_id": "4c6297a05116c25e57bc8c180a808000", "rental_uris": {"ios": "https://dc.lft.to/lastmile_qr_scan", "android": "https://dc.lft.to/lastmile_qr_scan"}, "fusion_lat": 0.0}, {"lat": 38.8840635, "lon": -76.96061516666667, "is_disabled": 0, "fusion_lon": 0.0, "is_reserved": 0, "name": "33e74f63e1dccf7afe18e2132bf501c3", "type": "electric_bike", "bike_id": "33e74f63e1dccf7afe18e2132bf501c3", "rental_uris": {"ios": "https://dc.lft.to/lastmile_qr_scan", "android": "https://dc.lft.to/lastmile_qr_scan"}, "fusion_lat": 0.0}, {"lat": 38.8980335, "lon": -77.01898216666666, "is_disabled": 0, "fusion_lon": 0.0, "is_reserved": 0, "name": "751f640bb2651660716a64a42e6cc022", "type": "electric_scooter", "bike_id": "751f640bb2651660716a64a42e6cc022", "rental_uris": {"ios": "https://dc.lft.to/lastmile_qr_scan", "android": "https://dc.lft.to/lastmile_qr_scan"}, "fusion_lat": 0.0}, {"lat": 38.8358335, "lon": -76.99010283333334, "is_disabled": 0, "fusion_lon": 0.0, "is_reserved": 0, "name": "1b18bf17dc06a9ca03ede39347827e20", "type": "electric_bike", "bike_id": "1b18bf17dc06a9ca03ede39347827e20", "rental_uris": {"ios": "https://dc.lft.to/lastmile_qr_scan", "android": "https://dc.lft.to/lastmile_qr_scan"}, "fusion_lat": 0.0}, {"lat": 38.91360566666667, "lon": -77.02055933333334, "is_disabled": 0, "fusion_lon": 0.0, "is_reserved": 0, "name": "b32e2ba85b989d0ab45ffd0dc7cb6873", "type": "electric_scooter", "bike_id": "b32e2ba85b989d0ab45ffd0dc7cb6873", "rental_uris": {"ios": "https://dc.lft.to/lastmile_qr_scan", "android": "https://dc.lft.to/lastmile_qr_scan"}, "fusion_lat": 0.0}, {"lat": 38.90343516666667, "lon": -77.03961333333334, "is_disabled": 0, "fusion_lon": 0.0, "is_reserved": 0, "name": "387508437943e895c22ab7f407f611bd", "type": "electric_scooter", "bike_id": "387508437943e895c22ab7f407f611bd", "rental_uris": {"ios": "https://dc.lft.to/lastmile_qr_scan", "android": "https://dc.lft.to/lastmile_qr_scan"}, "fusion_lat": 0.0}, {"lat": 38.927393333333335, "lon": -76.99559816666667, "is_disabled": 0, "fusion_lon": 0.0, "is_reserved": 0, "name": "e2334765074d637d36686432559fea49", "type": "electric_scooter", "bike_id": "e2334765074d637d36686432559fea49", "rental_uris": {"ios": "https://dc.lft.to/lastmile_qr_scan", "android": "https://dc.lft.to/lastmile_qr_scan"}, "fusion_lat": 0.0}, {"lat": 38.9179095, "lon": -77.04461533333334, "is_disabled": 0, "fusion_lon": 0.0, "is_reserved": 0, "name": "a646dbe333176827708e5511e5c0ce66", "type": "electric_scooter", "bike_id": "a646dbe333176827708e5511e5c0ce66", "rental_uris": {"ios": "https://dc.lft.to/lastmile_qr_scan", "android": "https://dc.lft.to/lastmile_qr_scan"}, "fusion_lat": 0.0}, {"lat": 38.89896816666667, "lon": -76.98493916666666, "is_disabled": 0, "fusion_lon": 0.0, "is_reserved": 0, "name": "1d66cb5e0fb5d7cde740792e56600250", "type": "electric_scooter", "bike_id": "1d66cb5e0fb5d7cde740792e56600250", "rental_uris": {"ios": "https://dc.lft.to/lastmile_qr_scan", "android": "https://dc.lft.to/lastmile_qr_scan"}, "fusion_lat": 0.0}, {"lat": 38.92891783333334, "lon": -77.03733033333333, "is_disabled": 0, "fusion_lon": 0.0, "is_reserved": 0, "name": "af0edd40d5c203313b27a0c55c285cd2", "type": "electric_scooter", "bike_id": "af0edd40d5c203313b27a0c55c285cd2", "rental_uris": {"ios": "https://dc.lft.to/lastmile_qr_scan", "android": "https://dc.lft.to/lastmile_qr_scan"}, "fusion_lat": 0.0}, {"lat": 38.9367715, "lon": -77.0363, "is_disabled": 0, "fusion_lon": 0.0, "is_reserved": 0, "name": "88541e905cc6783f4025b190db77c01d", "type": "electric_scooter", "bike_id": "88541e905cc6783f4025b190db77c01d", "rental_uris": {"ios": "https://dc.lft.to/lastmile_qr_scan", "android": "https://dc.lft.to/lastmile_qr_scan"}, "fusion_lat": 0.0}, {"lat": 38.899756333333336, "lon": -77.02479616666666, "is_disabled": 0, "fusion_lon": 0.0, "is_reserved": 0, "name": "8aab6e2750ac211cab8aba003c610462", "type": "electric_scooter", "bike_id": "8aab6e2750ac211cab8aba003c610462", "rental_uris": {"ios": "https://dc.lft.to/lastmile_qr_scan", "android": "https://dc.lft.to/lastmile_qr_scan"}, "fusion_lat": 0.0}, {"lat": 38.92114733333333, "lon": -77.02690366666667, "is_disabled": 0, "fusion_lon": 0.0, "is_reserved": 0, "name": "0516314c16d06264b2219614af2bd41a", "type": "electric_scooter", "bike_id": "0516314c16d06264b2219614af2bd41a", "rental_uris": {"ios": "https://dc.lft.to/lastmile_qr_scan", "android": "https://dc.lft.to/lastmile_qr_scan"}, "fusion_lat": 0.0}, {"lat": 38.93678833333333, "lon": -77.036266, "is_disabled": 0, "fusion_lon": 0.0, "is_reserved": 0, "name": "38a3785180e36fa300ff9fa885189a70", "type": "electric_scooter", "bike_id": "38a3785180e36fa300ff9fa885189a70", "rental_uris": {"ios": "https://dc.lft.to/lastmile_qr_scan", "android": "https://dc.lft.to/lastmile_qr_scan"}, "fusion_lat": 0.0}, {"lat": 38.916324833333334, "lon": -77.05071016666666, "is_disabled": 0, "fusion_lon": 0.0, "is_reserved": 0, "name": "b7e8cbcc3036ebb8ba7250d3b49827ec", "type": "electric_scooter", "bike_id": "b7e8cbcc3036ebb8ba7250d3b49827ec", "rental_uris": {"ios": "https://dc.lft.to/lastmile_qr_scan", "android": "https://dc.lft.to/lastmile_qr_scan"}, "fusion_lat": 0.0}, {"lat": 38.920196833333335, "lon": -77.0439825, "is_disabled": 0, "fusion_lon": 0.0, "is_reserved": 0, "name": "da624ad09bd7e61f32f5b6112013fda7", "type": "electric_scooter", "bike_id": "da624ad09bd7e61f32f5b6112013fda7", "rental_uris": {"ios": "https://dc.lft.to/lastmile_qr_scan", "android": "https://dc.lft.to/lastmile_qr_scan"}, "fusion_lat": 0.0}, {"lat": 38.924051166666665, "lon": -77.0254075, "is_disabled": 0, "fusion_lon": 0.0, "is_reserved": 0, "name": "6ede29b6c4d8015e0dc301a5091ba825", "type": "electric_scooter", "bike_id": "6ede29b6c4d8015e0dc301a5091ba825", "rental_uris": {"ios": "https://dc.lft.to/lastmile_qr_scan", "android": "https://dc.lft.to/lastmile_qr_scan"}, "fusion_lat": 0.0}, {"lat": 38.857697333333334, "lon": -76.98763083333333, "is_disabled": 0, "fusion_lon": 0.0, "is_reserved": 0, "name": "362c1b4a58585206435109b3e56b3105", "type": "electric_bike", "bike_id": "362c1b4a58585206435109b3e56b3105", "rental_uris": {"ios": "https://dc.lft.to/lastmile_qr_scan", "android": "https://dc.lft.to/lastmile_qr_scan"}, "fusion_lat": 0.0}, {"lat": 38.91268266666667, "lon": -77.031416, "is_disabled": 0, "fusion_lon": 0.0, "is_reserved": 0, "name": "f4cb0aae28277a7e332f281b7c08c4e2", "type": "electric_scooter", "bike_id": "f4cb0aae28277a7e332f281b7c08c4e2", "rental_uris": {"ios": "https://dc.lft.to/lastmile_qr_scan", "android": "https://dc.lft.to/lastmile_qr_scan"}, "fusion_lat": 0.0}, {"lat": 38.8875055, "lon": -77.027738, "is_disabled": 0, "fusion_lon": 0.0, "is_reserved": 0, "name": "ef1b53ca1270f134349b4041a3e306b9", "type": "electric_scooter", "bike_id": "ef1b53ca1270f134349b4041a3e306b9", "rental_uris": {"ios": "https://dc.lft.to/lastmile_qr_scan", "android": "https://dc.lft.to/lastmile_qr_scan"}, "fusion_lat": 0.0}, {"lat": 38.93611516666667, "lon": -77.0378275, "is_disabled": 0, "fusion_lon": 0.0, "is_reserved": 0, "name": "739b2b4a155bd771480c94afd1cb551f", "type": "electric_scooter", "bike_id": "739b2b4a155bd771480c94afd1cb551f", "rental_uris": {"ios": "https://dc.lft.to/lastmile_qr_scan", "android": "https://dc.lft.to/lastmile_qr_scan"}, "fusion_lat": 0.0}, {"lat": 38.9055295, "lon": -77.0505395, "is_disabled": 0, "fusion_lon": 0.0, "is_reserved": 0, "name": "24331f8c7c26cdfeb51e86b83c532594", "type": "electric_scooter", "bike_id": "24331f8c7c26cdfeb51e86b83c532594", "rental_uris": {"ios": "https://dc.lft.to/lastmile_qr_scan", "android": "https://dc.lft.to/lastmile_qr_scan"}, "fusion_lat": 0.0}, {"lat": 38.907324833333334, "lon": -77.007956, "is_disabled": 0, "fusion_lon": 0.0, "is_reserved": 0, "name": "964943943f6a4972ef597393c2fffaae", "type": "electric_scooter", "bike_id": "964943943f6a4972ef597393c2fffaae", "rental_uris": {"ios": "https://dc.lft.to/lastmile_qr_scan", "android": "https://dc.lft.to/lastmile_qr_scan"}, "fusion_lat": 0.0}, {"lat": 38.893468666666664, "lon": -76.95227916666667, "is_disabled": 0, "fusion_lon": 0.0, "is_reserved": 0, "name": "4b02fe0efd0f5201f33e592d6dcc5735", "type": "electric_scooter", "bike_id": "4b02fe0efd0f5201f33e592d6dcc5735", "rental_uris": {"ios": "https://dc.lft.to/lastmile_qr_scan", "android": "https://dc.lft.to/lastmile_qr_scan"}, "fusion_lat": 0.0}, {"lat": 38.973543, "lon": -77.0278585, "is_disabled": 0, "fusion_lon": 0.0, "is_reserved": 0, "name": "a698f658b96d98a2f31279ea7042eb73", "type": "electric_scooter", "bike_id": "a698f658b96d98a2f31279ea7042eb73", "rental_uris": {"ios": "https://dc.lft.to/lastmile_qr_scan", "android": "https://dc.lft.to/lastmile_qr_scan"}, "fusion_lat": 0.0}, {"lat": 38.908037666666665, "lon": -77.02953166666667, "is_disabled": 0, "fusion_lon": 0.0, "is_reserved": 0, "name": "e73d6e5d199c49cc643c4f0c74ef2489", "type": "electric_scooter", "bike_id": "e73d6e5d199c49cc643c4f0c74ef2489", "rental_uris": {"ios": "https://dc.lft.to/lastmile_qr_scan", "android": "https://dc.lft.to/lastmile_qr_scan"}, "fusion_lat": 0.0}, {"lat": 38.90732583333333, "lon": -77.033038, "is_disabled": 0, "fusion_lon": 0.0, "is_reserved": 0, "name": "cf91499fba01eb5e197d0aadf1cf6a00", "type": "electric_scooter", "bike_id": "cf91499fba01eb5e197d0aadf1cf6a00", "rental_uris": {"ios": "https://dc.lft.to/lastmile_qr_scan", "android": "https://dc.lft.to/lastmile_qr_scan"}, "fusion_lat": 0.0}, {"lat": 38.92550283333333, "lon": -77.00071133333333, "is_disabled": 0, "fusion_lon": 0.0, "is_reserved": 0, "name": "75bc4c57001a3e2c0ccf20676da8f6cd", "type": "electric_scooter", "bike_id": "75bc4c57001a3e2c0ccf20676da8f6cd", "rental_uris": {"ios": "https://dc.lft.to/lastmile_qr_scan", "android": "https://dc.lft.to/lastmile_qr_scan"}, "fusion_lat": 0.0}, {"lat": 38.9058845, "lon": -77.02504033333334, "is_disabled": 0, "fusion_lon": 0.0, "is_reserved": 0, "name": "cdb7609ceababcc6446e3ee326dde3cf", "type": "electric_scooter", "bike_id": "cdb7609ceababcc6446e3ee326dde3cf", "rental_uris": {"ios": "https://dc.lft.to/lastmile_qr_scan", "android": "https://dc.lft.to/lastmile_qr_scan"}, "fusion_lat": 0.0}, {"lat": 38.91794633333333, "lon": -77.03440483333334, "is_disabled": 0, "fusion_lon": 0.0, "is_reserved": 0, "name": "672093b9424786a850b92f8d21d12cd6", "type": "electric_scooter", "bike_id": "672093b9424786a850b92f8d21d12cd6", "rental_uris": {"ios": "https://dc.lft.to/lastmile_qr_scan", "android": "https://dc.lft.to/lastmile_qr_scan"}, "fusion_lat": 0.0}, {"lat": 38.921021833333334, "lon": -77.0325425, "is_disabled": 0, "fusion_lon": 0.0, "is_reserved": 0, "name": "9b71f01492faa12964720219c41d4726", "type": "electric_scooter", "bike_id": "9b71f01492faa12964720219c41d4726", "rental_uris": {"ios": "https://dc.lft.to/lastmile_qr_scan", "android": "https://dc.lft.to/lastmile_qr_scan"}, "fusion_lat": 0.0}, {"lat": 38.89632833333334, "lon": -77.01342933333333, "is_disabled": 0, "fusion_lon": 0.0, "is_reserved": 0, "name": "469803e09ab5436ef360fc2a46bad639", "type": "electric_scooter", "bike_id": "469803e09ab5436ef360fc2a46bad639", "rental_uris": {"ios": "https://dc.lft.to/lastmile_qr_scan", "android": "https://dc.lft.to/lastmile_qr_scan"}, "fusion_lat": 0.0}, {"lat": 38.909297, "lon": -76.9997715, "is_disabled": 0, "fusion_lon": 0.0, "is_reserved": 0, "name": "bbb86ba8409ab647988bc985a7248313", "type": "electric_scooter", "bike_id": "bbb86ba8409ab647988bc985a7248313", "rental_uris": {"ios": "https://dc.lft.to/lastmile_qr_scan", "android": "https://dc.lft.to/lastmile_qr_scan"}, "fusion_lat": 0.0}, {"lat": 38.900339833333334, "lon": -76.99850483333333, "is_disabled": 0, "fusion_lon": 0.0, "is_reserved": 0, "name": "bb4fba4a791dd22ee982802ff6749101", "type": "electric_scooter", "bike_id": "bb4fba4a791dd22ee982802ff6749101", "rental_uris": {"ios": "https://dc.lft.to/lastmile_qr_scan", "android": "https://dc.lft.to/lastmile_qr_scan"}, "fusion_lat": 0.0}, {"lat": 38.89497433333333, "lon": -77.00359616666667, "is_disabled": 0, "fusion_lon": 0.0, "is_reserved": 0, "name": "62b0fc32eb43f0086916049284486031", "type": "electric_scooter", "bike_id": "62b0fc32eb43f0086916049284486031", "rental_uris": {"ios": "https://dc.lft.to/lastmile_qr_scan", "android": "https://dc.lft.to/lastmile_qr_scan"}, "fusion_lat": 0.0}, {"lat": 38.91717716666667, "lon": -77.02407983333333, "is_disabled": 0, "fusion_lon": 0.0, "is_reserved": 0, "name": "0dce93840de31295f1075614cb4020d3", "type": "electric_scooter", "bike_id": "0dce93840de31295f1075614cb4020d3", "rental_uris": {"ios": "https://dc.lft.to/lastmile_qr_scan", "android": "https://dc.lft.to/lastmile_qr_scan"}, "fusion_lat": 0.0}, {"lat": 38.900827, "lon": -77.04925466666667, "is_disabled": 0, "fusion_lon": 0.0, "is_reserved": 0, "name": "c4355e27f0303acaee9570206529cc57", "type": "electric_scooter", "bike_id": "c4355e27f0303acaee9570206529cc57", "rental_uris": {"ios": "https://dc.lft.to/lastmile_qr_scan", "android": "https://dc.lft.to/lastmile_qr_scan"}, "fusion_lat": 0.0}, {"lat": 38.8976885, "lon": -77.027098, "is_disabled": 0, "fusion_lon": 0.0, "is_reserved": 0, "name": "a9cb968f4a233c946086b9b2e2672e01", "type": "electric_scooter", "bike_id": "a9cb968f4a233c946086b9b2e2672e01", "rental_uris": {"ios": "https://dc.lft.to/lastmile_qr_scan", "android": "https://dc.lft.to/lastmile_qr_scan"}, "fusion_lat": 0.0}, {"lat": 38.89241083333334, "lon": -77.048728, "is_disabled": 0, "fusion_lon": 0.0, "is_reserved": 0, "name": "a50f92f3ff2ab301f6287264d57b60ff", "type": "electric_scooter", "bike_id": "a50f92f3ff2ab301f6287264d57b60ff", "rental_uris": {"ios": "https://dc.lft.to/lastmile_qr_scan", "android": "https://dc.lft.to/lastmile_qr_scan"}, "fusion_lat": 0.0}, {"lat": 38.8826305, "lon": -77.0054705, "is_disabled": 0, "fusion_lon": 0.0, "is_reserved": 0, "name": "ebdad5bbec5fc30b11bf647e2a7ee4e8", "type": "electric_scooter", "bike_id": "ebdad5bbec5fc30b11bf647e2a7ee4e8", "rental_uris": {"ios": "https://dc.lft.to/lastmile_qr_scan", "android": "https://dc.lft.to/lastmile_qr_scan"}, "fusion_lat": 0.0}, {"lat": 38.89880333333333, "lon": -77.050049, "is_disabled": 0, "fusion_lon": 0.0, "is_reserved": 0, "name": "d37eefc75968696953f09bb7336bd5c0", "type": "electric_scooter", "bike_id": "d37eefc75968696953f09bb7336bd5c0", "rental_uris": {"ios": "https://dc.lft.to/lastmile_qr_scan", "android": "https://dc.lft.to/lastmile_qr_scan"}, "fusion_lat": 0.0}, {"lat": 38.9360025, "lon": -77.02114666666667, "is_disabled": 0, "fusion_lon": 0.0, "is_reserved": 0, "name": "2bb17a68904ae08d5dee6a504ab03fa1", "type": "electric_bike", "bike_id": "2bb17a68904ae08d5dee6a504ab03fa1", "rental_uris": {"ios": "https://dc.lft.to/lastmile_qr_scan", "android": "https://dc.lft.to/lastmile_qr_scan"}, "fusion_lat": 0.0}, {"lat": 38.87268233333333, "lon": -77.013599, "is_disabled": 0, "fusion_lon": 0.0, "is_reserved": 0, "name": "2baf914ca0bab84e60125fcadd7832ef", "type": "electric_scooter", "bike_id": "2baf914ca0bab84e60125fcadd7832ef", "rental_uris": {"ios": "https://dc.lft.to/lastmile_qr_scan", "android": "https://dc.lft.to/lastmile_qr_scan"}, "fusion_lat": 0.0}, {"lat": 38.94255016666666, "lon": -77.03630833333334, "is_disabled": 0, "fusion_lon": 0.0, "is_reserved": 0, "name": "26e34a8e1460bd68b47b8ea4ace65f0f", "type": "electric_scooter", "bike_id": "26e34a8e1460bd68b47b8ea4ace65f0f", "rental_uris": {"ios": "https://dc.lft.to/lastmile_qr_scan", "android": "https://dc.lft.to/lastmile_qr_scan"}, "fusion_lat": 0.0}, {"lat": 38.869684, "lon": -76.9785455, "is_disabled": 0, "fusion_lon": 0.0, "is_reserved": 0, "name": "1354e1d55fbbec6a6b75c07a2bf9cb6d", "type": "electric_scooter", "bike_id": "1354e1d55fbbec6a6b75c07a2bf9cb6d", "rental_uris": {"ios": "https://dc.lft.to/lastmile_qr_scan", "android": "https://dc.lft.to/lastmile_qr_scan"}, "fusion_lat": 0.0}, {"lat": 38.87386166666667, "lon": -77.00095666666667, "is_disabled": 0, "fusion_lon": 0.0, "is_reserved": 0, "name": "4adfe41810eb489475d06f6030345c7e", "type": "electric_scooter", "bike_id": "4adfe41810eb489475d06f6030345c7e", "rental_uris": {"ios": "https://dc.lft.to/lastmile_qr_scan", "android": "https://dc.lft.to/lastmile_qr_scan"}, "fusion_lat": 0.0}, {"lat": 38.919351666666664, "lon": -77.03206, "is_disabled": 0, "fusion_lon": 0.0, "is_reserved": 0, "name": "c4c5094ef64709e79ecaf7c21ad3da97", "type": "electric_scooter", "bike_id": "c4c5094ef64709e79ecaf7c21ad3da97", "rental_uris": {"ios": "https://dc.lft.to/lastmile_qr_scan", "android": "https://dc.lft.to/lastmile_qr_scan"}, "fusion_lat": 0.0}, {"lat": 38.900210666666666, "lon": -76.97401516666666, "is_disabled": 0, "fusion_lon": 0.0, "is_reserved": 0, "name": "f94b06190b46c0d243c4757f35152a30", "type": "electric_scooter", "bike_id": "f94b06190b46c0d243c4757f35152a30", "rental_uris": {"ios": "https://dc.lft.to/lastmile_qr_scan", "android": "https://dc.lft.to/lastmile_qr_scan"}, "fusion_lat": 0.0}, {"lat": 38.91782833333333, "lon": -77.02291133333334, "is_disabled": 0, "fusion_lon": 0.0, "is_reserved": 0, "name": "1371b57f3a73254bdf8499ae00af88db", "type": "electric_scooter", "bike_id": "1371b57f3a73254bdf8499ae00af88db", "rental_uris": {"ios": "https://dc.lft.to/lastmile_qr_scan", "android": "https://dc.lft.to/lastmile_qr_scan"}, "fusion_lat": 0.0}, {"lat": 38.89720116666667, "lon": -77.02563233333333, "is_disabled": 0, "fusion_lon": 0.0, "is_reserved": 0, "name": "e099fadf18ade9d951d2f9dd64e992e6", "type": "electric_scooter", "bike_id": "e099fadf18ade9d951d2f9dd64e992e6", "rental_uris": {"ios": "https://dc.lft.to/lastmile_qr_scan", "android": "https://dc.lft.to/lastmile_qr_scan"}, "fusion_lat": 0.0}, {"lat": 38.903858, "lon": -77.028989, "is_disabled": 0, "fusion_lon": 0.0, "is_reserved": 0, "name": "91f13528b4eafc1bcb1e01d272b51b6b", "type": "electric_scooter", "bike_id": "91f13528b4eafc1bcb1e01d272b51b6b", "rental_uris": {"ios": "https://dc.lft.to/lastmile_qr_scan", "android": "https://dc.lft.to/lastmile_qr_scan"}, "fusion_lat": 0.0}, {"lat": 38.92297283333333, "lon": -77.04299616666667, "is_disabled": 0, "fusion_lon": 0.0, "is_reserved": 0, "name": "1fd032349a8b04d90ecd4fed05b70f08", "type": "electric_scooter", "bike_id": "1fd032349a8b04d90ecd4fed05b70f08", "rental_uris": {"ios": "https://dc.lft.to/lastmile_qr_scan", "android": "https://dc.lft.to/lastmile_qr_scan"}, "fusion_lat": 0.0}, {"lat": 38.881221, "lon": -77.0164975, "is_disabled": 0, "fusion_lon": 0.0, "is_reserved": 0, "name": "3eaa6fe40c773e92c13de900d77469eb", "type": "electric_scooter", "bike_id": "3eaa6fe40c773e92c13de900d77469eb", "rental_uris": {"ios": "https://dc.lft.to/lastmile_qr_scan", "android": "https://dc.lft.to/lastmile_qr_scan"}, "fusion_lat": 0.0}, {"lat": 38.9112375, "lon": -77.037527, "is_disabled": 0, "fusion_lon": 0.0, "is_reserved": 0, "name": "33d7fa4b7cdf30c9eb8803d14b53820c", "type": "electric_scooter", "bike_id": "33d7fa4b7cdf30c9eb8803d14b53820c", "rental_uris": {"ios": "https://dc.lft.to/lastmile_qr_scan", "android": "https://dc.lft.to/lastmile_qr_scan"}, "fusion_lat": 0.0}, {"lat": 38.922979, "lon": -77.02327533333333, "is_disabled": 0, "fusion_lon": 0.0, "is_reserved": 0, "name": "056a729f3e575c3e804a53018481dace", "type": "electric_scooter", "bike_id": "056a729f3e575c3e804a53018481dace", "rental_uris": {"ios": "https://dc.lft.to/lastmile_qr_scan", "android": "https://dc.lft.to/lastmile_qr_scan"}, "fusion_lat": 0.0}, {"lat": 38.9027495, "lon": -77.03454166666667, "is_disabled": 0, "fusion_lon": 0.0, "is_reserved": 0, "name": "b9ce16a142d556c99d1377b92d76f186", "type": "electric_scooter", "bike_id": "b9ce16a142d556c99d1377b92d76f186", "rental_uris": {"ios": "https://dc.lft.to/lastmile_qr_scan", "android": "https://dc.lft.to/lastmile_qr_scan"}, "fusion_lat": 0.0}, {"lat": 38.89900766666667, "lon": -77.02372383333334, "is_disabled": 0, "fusion_lon": 0.0, "is_reserved": 0, "name": "da339d2f5955fbfc28f6d8802262c06d", "type": "electric_scooter", "bike_id": "da339d2f5955fbfc28f6d8802262c06d", "rental_uris": {"ios": "https://dc.lft.to/lastmile_qr_scan", "android": "https://dc.lft.to/lastmile_qr_scan"}, "fusion_lat": 0.0}, {"lat": 38.926803, "lon": -77.0226495, "is_disabled": 0, "fusion_lon": 0.0, "is_reserved": 0, "name": "19d832af432557fe57cc39a131963d2d", "type": "electric_scooter", "bike_id": "19d832af432557fe57cc39a131963d2d", "rental_uris": {"ios": "https://dc.lft.to/lastmile_qr_scan", "android": "https://dc.lft.to/lastmile_qr_scan"}, "fusion_lat": 0.0}, {"lat": 38.9081755, "lon": -77.03456583333333, "is_disabled": 0, "fusion_lon": 0.0, "is_reserved": 0, "name": "dbcda3896bf6d4309b53b339d0961900", "type": "electric_scooter", "bike_id": "dbcda3896bf6d4309b53b339d0961900", "rental_uris": {"ios": "https://dc.lft.to/lastmile_qr_scan", "android": "https://dc.lft.to/lastmile_qr_scan"}, "fusion_lat": 0.0},