{"data": {"bikes": [{"bike_id": "4152a59975e6ca1e7918ccc459b09a95", "fusion_lon": 0.0, "lon": -77.048823, "name": "4152a59975e6ca1e7918ccc459b09a95", "is_disabled": 0, "rental_uris": {"android": "https://dc.lft.to/lastmile_qr_scan", "ios": "https://dc.lft.to/lastmile_qr_scan"}, "type": "electric_scooter", "lat": 38.91340683333333, "is_reserved": 0, "fusion_lat": 0.0}, {"bike_id": "ac94de29f937f4c69cb41d552091bacb", "fusion_lon": 0.0, "lon": -77.03204033333333, "name": "ac94de29f937f4c69cb41d552091bacb", "is_disabled": 0, "rental_uris": {"android": "https://dc.lft.to/lastmile_qr_scan", "ios": "https://dc.lft.to/lastmile_qr_scan"}, "type": "electric_scooter", "lat": 38.914785333333334, "is_reserved": 0, "fusion_lat": 0.0}, {"bike_id": "26808decdb5bedc5e60c0a7ae2639416", "fusion_lon": 0.0, "lon": -77.023322, "name": "26808decdb5bedc5e60c0a7ae2639416", "is_disabled": 0, "rental_uris": {"android": "https://dc.lft.to/lastmile_qr_scan", "ios": "https://dc.lft.to/lastmile_qr_scan"}, "type": "electric_scooter", "lat": 38.92474966666666, "is_reserved": 0, "fusion_lat": 0.0}, {"bike_id": "a12c018e7d59f4eff860185329eab205", "fusion_lon": 0.0, "lon": -77.01984333333333, "name": "a12c018e7d59f4eff860185329eab205", "is_disabled": 0, "rental_uris": {"android": "https://dc.lft.to/lastmile_qr_scan", "ios": "https://dc.lft.to/lastmile_qr_scan"}, "type": "electric_scooter", "lat": 38.88480533333333, "is_reserved": 0, "fusion_lat": 0.0}, {"bike_id": "caa0bb4d83df91543bf0da76f08aa2c7", "fusion_lon": 0.0, "lon": -77.04187266666666, "name": "caa0bb4d83df91543bf0da76f08aa2c7", "is_disabled": 0, "rental_uris": {"android": "https://dc.lft.to/lastmile_qr_scan", "ios": "https://dc.lft.to/lastmile_qr_scan"}, "type": "electric_scooter", "lat": 38.90566916666667, "is_reserved": 0, "fusion_lat": 0.0}, {"bike_id": "0e50013051d392d376dfc10ada135db9", "fusion_lon": 0.0, "lon": -77.03854566666666, "name": "0e50013051d392d376dfc10ada135db9", "is_disabled": 0, "rental_uris": {"android": "https://dc.lft.to/lastmile_qr_scan", "ios": "https://dc.lft.to/lastmile_qr_scan"}, "type": "electric_scooter", "lat": 38.903742, "is_reserved": 0, "fusion_lat": 0.0}, {"bike_id": "4e77184c9d5c938b760f05c1ffd3aec9", "fusion_lon": 0.0, "lon": -77.02087283333333, "name": "4e77184c9d5c938b760f05c1ffd3aec9", "is_disabled": 0, "rental_uris": {"android": "https://dc.lft.to/lastmile_qr_scan", "ios": "https://dc.lft.to/lastmile_qr_scan"}, "type": "electric_scooter", "lat": 38.87578383333334, "is_reserved": 0, "fusion_lat": 0.0}, {"bike_id": "c42176d73677a4fc43a9c5b6982e1985", "fusion_lon": 0.0, "lon": -77.09481066666666, "name": "c42176d73677a4fc43a9c5b6982e1985", "is_disabled": 0, "rental_uris": {"android": "https://dc.lft.to/lastmile_qr_scan", "ios": "https://dc.lft.to/lastmile_qr_scan"}, "type": "electric_bike", "lat": 39.030499166666665, "is_reserved": 0, "fusion_lat": 0.0}, {"bike_id": "6ec2f61340feb3166786e11f9932a02f", "fusion_lon": 0.0, "lon": -76.98825216666667, "name": "6ec2f61340feb3166786e11f9932a02f", "is_disabled": 0, "rental_uris": {"android": "https://dc.lft.to/lastmile_qr_scan", "ios": "https://dc.lft.to/lastmile_qr_scan"}, "type": "electric_scooter", "lat": 38.90031533333333, "is_reserved": 0, "fusion_lat": 0.0}, {"bike_id": "3a1f2d84e189bf656d00dea74764ab6f", "fusion_lon": 0.0, "lon": -77.06337616666667, "name": "3a1f2d84e189bf656d00dea74764ab6f", "is_disabled": 0, "rental_uris": {"android": "https://dc.lft.to/lastmile_qr_scan", "ios": "https://dc.lft.to/lastmile_qr_scan"}, "type": "electric_scooter", "lat": 38.90680233333333, "is_reserved": 0, "fusion_lat": 0.0}, {"bike_id": "0c6b72dea59182e2be9fe74e1d26a712", "fusion_lon": 0.0, "lon": -77.04668133333334, "name": "0c6b72dea59182e2be9fe74e1d26a712", "is_disabled": 0, "rental_uris": {"android": "https://dc.lft.to/lastmile_qr_scan", "ios": "https://dc.lft.to/lastmile_qr_scan"}, "type": "electric_scooter", "lat": 38.902085166666666, "is_reserved": 0, "fusion_lat": 0.0}, {"bike_id": "79568047f81ba3db7f743dab86a331ff", "fusion_lon": 0.0, "lon": -77.0295, "name": "79568047f81ba3db7f743dab86a331ff", "is_disabled": 0, "rental_uris": {"android": "https://dc.lft.to/lastmile_qr_scan", "ios": "https://dc.lft.to/lastmile_qr_scan"}, "type": "electric_scooter", "lat": 38.9049385, "is_reserved": 0, "fusion_lat": 0.0}, {"bike_id": "d9f1d21e73600d5cc201f6d917e49cbb", "fusion_lon": 0.0, "lon": -76.99257266666666, "name": "d9f1d21e73600d5cc201f6d917e49cbb", "is_disabled": 0, "rental_uris": {"android": "https://dc.lft.to/lastmile_qr_scan", "ios": "https://dc.lft.to/lastmile_qr_scan"}, "type": "electric_scooter", "lat": 38.91973133333333, "is_reserved": 0, "fusion_lat": 0.0}, {"bike_id": "7c6f907b6c19f60363e02373ea5ca092", "fusion_lon": 0.0, "lon": -77.17841, "name": "7c6f907b6c19f60363e02373ea5ca092", "is_disabled": 0, "rental_uris": {"android": "https://dc.lft.to/lastmile_qr_scan", "ios": "https://dc.lft.to/lastmile_qr_scan"}, "type": "electric_bike", "lat": 39.08856466666667, "is_reserved": 0, "fusion_lat": 0.0}, {"bike_id": "6f5768ca555965bc5a29acd0e0b1ae9a", "fusion_lon": 0.0, "lon": -77.02522283333333, "name": "6f5768ca555965bc5a29acd0e0b1ae9a", "is_disabled": 0, "rental_uris": {"android": "https://dc.lft.to/lastmile_qr_scan", "ios": "https://dc.lft.to/lastmile_qr_scan"}, "type": "electric_scooter", "lat": 38.91478983333333, "is_reserved": 0, "fusion_lat": 0.0}, {"bike_id": "c02c0b89d05b1b66bdf0220d1a9e4787", "fusion_lon": 0.0, "lon": -77.03181866666667, "name": "c02c0b89d05b1b66bdf0220d1a9e4787", "is_disabled": 0, "rental_uris": {"android": "https://dc.lft.to/lastmile_qr_scan", "ios": "https://dc.lft.to/lastmile_qr_scan"}, "type": "electric_scooter", "lat": 38.918237500000004, "is_reserved": 0, "fusion_lat": 0.0}, {"bike_id": "d7de44cd1c1ea468010deda78dad4129", "fusion_lon": 0.0, "lon": -77.02316316666666, "name": "d7de44cd1c1ea468010deda78dad4129", "is_disabled": 0, "rental_uris": {"android": "https://dc.lft.to/lastmile_qr_scan", "ios": "https://dc.lft.to/lastmile_qr_scan"}, "type": "electric_scooter", "lat": 38.8967845, "is_reserved": 0, "fusion_lat": 0.0}, {"bike_id": "32f79875d1d91e159ec4fd2d91637337", "fusion_lon": 0.0, "lon": -77.22206466666667, "name": "32f79875d1d91e159ec4fd2d91637337", "is_disabled": 0, "rental_uris": {"android": "https://dc.lft.to/lastmile_qr_scan", "ios": "https://dc.lft.to/lastmile_qr_scan"}, "type": "electric_bike", "lat": 38.928506666666664, "is_reserved": 0, "fusion_lat": 0.0}, {"bike_id": "9d24b24c9da6ad73bfa58d19557b06df", "fusion_lon": 0.0, "lon": -76.96528633333334, "name": "9d24b24c9da6ad73bfa58d19557b06df", "is_disabled": 0, "rental_uris": {"android": "https://dc.lft.to/lastmile_qr_scan", "ios": "https://dc.lft.to/lastmile_qr_scan"}, "type": "electric_bike", "lat": 38.874796833333335, "is_reserved": 0, "fusion_lat": 0.0}, {"bike_id": "61e299c3bdb18a4bb56019e097e930a0", "fusion_lon": 0.0, "lon": -77.04186166666666, "name": "61e299c3bdb18a4bb56019e097e930a0", "is_disabled": 0, "rental_uris": {"android": "https://dc.lft.to/lastmile_qr_scan", "ios": "https://dc.lft.to/lastmile_qr_scan"}, "type": "electric_scooter", "lat": 38.916836, "is_reserved": 0, "fusion_lat": 0.0}, {"bike_id": "5ba6e800f389acbb87868ce8b4b1b96f", "fusion_lon": 0.0, "lon": -76.939871, "name": "5ba6e800f389acbb87868ce8b4b1b96f", "is_disabled": 0, "rental_uris": {"android": "https://dc.lft.to/lastmile_qr_scan", "ios": "https://dc.lft.to/lastmile_qr_scan"}, "type": "electric_scooter", "lat": 38.89976733333334, "is_reserved": 0, "fusion_lat": 0.0}, {"bike_id": "d62d5d64882f03eba620b8b2a454663a", "fusion_lon": 0.0, "lon": -76.97882633333333, "name": "d62d5d64882f03eba620b8b2a454663a", "is_disabled": 0, "rental_uris": {"android": "https://dc.lft.to/lastmile_qr_scan", "ios": "https://dc.lft.to/lastmile_qr_scan"}, "type": "electric_bike", "lat": 38.915843333333335, "is_reserved": 0, "fusion_lat": 0.0}, {"bike_id": "62d245c3e1cdbc7d8358a3a2798806f2", "fusion_lon": 0.0, "lon": -77.02702016666667, "name": "62d245c3e1cdbc7d8358a3a2798806f2", "is_disabled": 0, "rental_uris": {"android": "https://dc.lft.to/lastmile_qr_scan", "ios": "https://dc.lft.to/lastmile_qr_scan"}, "type": "electric_scooter", "lat": 38.90518316666667, "is_reserved": 0, "fusion_lat": 0.0}, {"bike_id": "16b25628a7886980b420c2aeb5372823", "fusion_lon": 0.0, "lon": -77.01111516666667, "name": "16b25628a7886980b420c2aeb5372823", "is_disabled": 0, "rental_uris": {"android": "https://dc.lft.to/lastmile_qr_scan", "ios": "https://dc.lft.to/lastmile_qr_scan"}, "type": "electric_scooter", "lat": 38.895332833333335, "is_reserved": 0, "fusion_lat": 0.0}, {"bike_id": "bc11fc3fc7f442dd3012dcc207a83a06", "fusion_lon": 0.0, "lon": -77.04496083333333, "name": "bc11fc3fc7f442dd3012dcc207a83a06", "is_disabled": 0, "rental_uris": {"android": "https://dc.lft.to/lastmile_qr_scan", "ios": "https://dc.lft.to/lastmile_qr_scan"}, "type": "electric_scooter", "lat": 38.90857533333333, "is_reserved": 0, "fusion_lat": 0.0}, {"bike_id": "9d7506b0ad76dd6819a1064543742d53", "fusion_lon": 0.0, "lon": -77.04337616666666, "name": "9d7506b0ad76dd6819a1064543742d53", "is_disabled": 0, "rental_uris": {"android": "https://dc.lft.to/lastmile_qr_scan", "ios": "https://dc.lft.to/lastmile_qr_scan"}, "type": "electric_scooter", "lat": 38.908354, "is_reserved": 0, "fusion_lat": 0.0}, {"bike_id": "889121c8c17f6bb613159bbbd151651a", "fusion_lon": 0.0, "lon": -76.957569, "name": "889121c8c17f6bb613159bbbd151651a", "is_disabled": 0, "rental_uris": {"android": "https://dc.lft.to/lastmile_qr_scan", "ios": "https://dc.lft.to/lastmile_qr_scan"}, "type": "electric_scooter", "lat": 38.884266333333336, "is_reserved": 0, "fusion_lat": 0.0}, {"bike_id": "958acc714c137108cdc4be2824911faa", "fusion_lon": 0.0, "lon": -77.0311915, "name": "958acc714c137108cdc4be2824911faa", "is_disabled": 0, "rental_uris": {"android": "https://dc.lft.to/lastmile_qr_scan", "ios": "https://dc.lft.to/lastmile_qr_scan"}, "type": "electric_scooter", "lat": 38.91561183333334, "is_reserved": 0, "fusion_lat": 0.0}, {"bike_id": "3a470af61ba14da3369239f7ff42188a", "fusion_lon": 0.0, "lon": -76.99773666666667, "name": "3a470af61ba14da3369239f7ff42188a", "is_disabled": 0, "rental_uris": {"android": "https://dc.lft.to/lastmile_qr_scan", "ios": "https://dc.lft.to/lastmile_qr_scan"}, "type": "electric_scooter", "lat": 38.84424533333333, "is_reserved": 0, "fusion_lat": 0.0}, {"bike_id": "a24ec867f134078f452b769668f84968", "fusion_lon": 0.0, "lon": -77.04865316666667, "name": "a24ec867f134078f452b769668f84968", "is_disabled": 0, "rental_uris": {"android": "https://dc.lft.to/lastmile_qr_scan", "ios": "https://dc.lft.to/lastmile_qr_scan"}, "type": "electric_scooter", "lat": 38.91519383333333, "is_reserved": 0, "fusion_lat": 0.0}, {"bike_id": "23ad026b078c2df93a6944e19ec44053", "fusion_lon": 0.0, "lon": -77.03460716666666, "name": "23ad026b078c2df93a6944e19ec44053", "is_disabled": 0, "rental_uris": {"android": "https://dc.lft.to/lastmile_qr_scan", "ios": "https://dc.lft.to/lastmile_qr_scan"}, "type": "electric_scooter", "lat": 38.90570183333333, "is_reserved": 0, "fusion_lat": 0.0}, {"bike_id": "07bd44143a7604226fe5f1f7d3849da3", "fusion_lon": 0.0, "lon": -77.10598316666666, "name": "07bd44143a7604226fe5f1f7d3849da3", "is_disabled": 0, "rental_uris": {"android": "https://dc.lft.to/lastmile_qr_scan", "ios": "https://dc.lft.to/lastmile_qr_scan"}, "type": "electric_bike", "lat": 38.92895866666667, "is_reserved": 0, "fusion_lat": 0.0}, {"bike_id": "05cbb9324864c286787d3bb92df1fef8", "fusion_lon": 0.0, "lon": -77.01577366666666, "name": "05cbb9324864c286787d3bb92df1fef8", "is_disabled": 0, "rental_uris": {"android": "https://dc.lft.to/lastmile_qr_scan", "ios": "https://dc.lft.to/lastmile_qr_scan"}, "type": "electric_scooter", "lat": 38.916829166666666, "is_reserved": 0, "fusion_lat": 0.0}, {"bike_id": "30e09be4bcdd36b90ec3628d106b8b0f", "fusion_lon": 0.0, "lon": -76.94967533333333, "name": "30e09be4bcdd36b90ec3628d106b8b0f", "is_disabled": 0, "rental_uris": {"android": "https://dc.lft.to/lastmile_qr_scan", "ios": "https://dc.lft.to/lastmile_qr_scan"}, "type": "electric_scooter", "lat": 38.893631666666664, "is_reserved": 0, "fusion_lat": 0.0}, {"bike_id": "ce453b755952fdf820c4d42e142133bf", "fusion_lon": 0.0, "lon": -76.98073083333334, "name": "ce453b755952fdf820c4d42e142133bf", "is_disabled": 0, "rental_uris": {"android": "https://dc.lft.to/lastmile_qr_scan", "ios": "https://dc.lft.to/lastmile_qr_scan"}, "type": "electric_scooter", "lat": 38.90175766666667, "is_reserved": 0, "fusion_lat": 0.0}, {"bike_id": "db254936aeb76efb9ed18484e9d0ef73", "fusion_lon": 0.0, "lon": -77.01191333333334, "name": "db254936aeb76efb9ed18484e9d0ef73", "is_disabled": 0, "rental_uris": {"android": "https://dc.lft.to/lastmile_qr_scan", "ios": "https://dc.lft.to/lastmile_qr_scan"}, "type": "electric_scooter", "lat": 38.903078666666666, "is_reserved": 0, "fusion_lat": 0.0}, {"bike_id": "1c2b53750f4216acc4da07a09d097157", "fusion_lon": 0.0, "lon": -77.0447385, "name": "1c2b53750f4216acc4da07a09d097157", "is_disabled": 0, "rental_uris": {"android": "https://dc.lft.to/lastmile_qr_scan", "ios": "https://dc.lft.to/lastmile_qr_scan"}, "type": "electric_scooter", "lat": 38.911618, "is_reserved": 0, "fusion_lat": 0.0}, {"bike_id": "ecd162b159483565ffb020f22dbb1daa", "fusion_lon": 0.0, "lon": -77.021269, "name": "ecd162b159483565ffb020f22dbb1daa", "is_disabled": 0, "rental_uris": {"android": "https://dc.lft.to/lastmile_qr_scan", "ios": "https://dc.lft.to/lastmile_qr_scan"}, "type": "electric_scooter", "lat": 38.88737166666667, "is_reserved": 0, "fusion_lat": 0.0}, {"bike_id": "3bfabcaae0137820a46e08b6ac816b5d", "fusion_lon": 0.0, "lon": -77.002785, "name": "3bfabcaae0137820a46e08b6ac816b5d", "is_disabled": 0, "rental_uris": {"android": "https://dc.lft.to/lastmile_qr_scan", "ios": "https://dc.lft.to/lastmile_qr_scan"}, "type": "electric_scooter", "lat": 38.90595066666667, "is_reserved": 0, "fusion_lat": 0.0}, {"bike_id": "0d81456ff555ee3e78106bc3357547e3", "fusion_lon": 0.0, "lon": -77.04592083333333, "name": "0d81456ff555ee3e78106bc3357547e3", "is_disabled": 0, "rental_uris": {"android": "https://dc.lft.to/lastmile_qr_scan", "ios": "https://dc.lft.to/lastmile_qr_scan"}, "type": "electric_scooter", "lat": 38.91858516666667, "is_reserved": 0, "fusion_lat": 0.0}, {"bike_id": "10b719a234b8154a33ca87d3e6dbbdb9", "fusion_lon": 0.0, "lon": -77.03639483333333, "name": "10b719a234b8154a33ca87d3e6dbbdb9", "is_disabled": 0, "rental_uris": {"android": "https://dc.lft.to/lastmile_qr_scan", "ios": "https://dc.lft.to/lastmile_qr_scan"}, "type": "electric_scooter", "lat": 38.93169733333333, "is_reserved": 0, "fusion_lat": 0.0}, {"bike_id": "224e395d502ab4ac4f92bc44e5cb05f2", "fusion_lon": 0.0, "lon": -77.0024945, "name": "224e395d502ab4ac4f92bc44e5cb05f2", "is_disabled": 0, "rental_uris": {"android": "https://dc.lft.to/lastmile_qr_scan", "ios": "https://dc.lft.to/lastmile_qr_scan"}, "type": "electric_scooter", "lat": 38.880211333333335, "is_reserved": 0, "fusion_lat": 0.0}, {"bike_id": "16f90641fcf1051394fffd8dcb2a1acc", "fusion_lon": 0.0, "lon": -77.02961866666666, "name": "16f90641fcf1051394fffd8dcb2a1acc", "is_disabled": 0, "rental_uris": {"android": "https://dc.lft.to/lastmile_qr_scan", "ios": "https://dc.lft.to/lastmile_qr_scan"}, "type": "electric_scooter", "lat": 38.923267, "is_reserved": 0, "fusion_lat": 0.0}, {"bike_id": "f40a125227ebfe736ee0c0b8e43e64d5", "fusion_lon": 0.0, "lon": -77.0199195, "name": "f40a125227ebfe736ee0c0b8e43e64d5", "is_disabled": 0, "rental_uris": {"android": "https://dc.lft.to/lastmile_qr_scan", "ios": "https://dc.lft.to/lastmile_qr_scan"}, "type": "electric_scooter", "lat": 38.8954745, "is_reserved": 0, "fusion_lat": 0.0}, {"bike_id": "0412657384960d07a190683b6cf60878", "fusion_lon": 0.0, "lon": -77.05228066666666, "name": "0412657384960d07a190683b6cf60878", "is_disabled": 0, "rental_uris": {"android": "https://dc.lft.to/lastmile_qr_scan", "ios": "https://dc.lft.to/lastmile_qr_scan"}, "type": "electric_scooter", "lat": 38.92461566666667, "is_reserved": 0, "fusion_lat": 0.0}, {"bike_id": "2d6226ccdbc5e6616f8555929e9fb584", "fusion_lon": 0.0, "lon": -77.04325233333333, "name": "2d6226ccdbc5e6616f8555929e9fb584", "is_disabled": 0, "rental_uris": {"android": "https://dc.lft.to/lastmile_qr_scan", "ios": "https://dc.lft.to/lastmile_qr_scan"}, "type": "electric_scooter", "lat": 38.899661, "is_reserved": 0, "fusion_lat": 0.0}, {"bike_id": "acc505cce85e280956f9f7af06966682", "fusion_lon": 0.0, "lon": -76.98616083333333, "name": "acc505cce85e280956f9f7af06966682", "is_disabled": 0, "rental_uris": {"android": "https://dc.lft.to/lastmile_qr_scan", "ios": "https://dc.lft.to/lastmile_qr_scan"}, "type": "electric_scooter", "lat": 38.93828033333333, "is_reserved": 0, "fusion_lat": 0.0}, {"bike_id": "6bd781ac55570e0cb6ddeb7c25c523ce", "fusion_lon": 0.0, "lon": -77.041704, "name": "6bd781ac55570e0cb6ddeb7c25c523ce", "is_disabled": 0, "rental_uris": {"android": "https://dc.lft.to/lastmile_qr_scan", "ios": "https://dc.lft.to/lastmile_qr_scan"}, "type": "electric_scooter", "lat": 38.91651066666667, "is_reserved": 0, "fusion_lat": 0.0}, {"bike_id": "13b7fb5422eb28b14d3f363cecc02283", "fusion_lon": 0.0, "lon": -76.99384633333334, "name": "13b7fb5422eb28b14d3f363cecc02283", "is_disabled": 0, "rental_uris": {"android": "https://dc.lft.to/lastmile_qr_scan", "ios": "https://dc.lft.to/lastmile_qr_scan"}, "type": "electric_scooter", "lat": 38.8972605, "is_reserved": 0, "fusion_lat": 0.0}, {"bike_id": "d601e31de4392b70d9630845384bb4c6", "fusion_lon": 0.0, "lon": -77.02719066666667, "name": "d601e31de4392b70d9630845384bb4c6", "is_disabled": 0, "rental_uris": {"android": "https://dc.lft.to/lastmile_qr_scan", "ios": "https://dc.lft.to/lastmile_qr_scan"}, "type": "electric_scooter", "lat": 38.9495715, "is_reserved": 0, "fusion_lat": 0.0}, {"bike_id": "a3219b95db13db18dd8e65b7c5342801", "fusion_lon": 0.0, "lon": -77.03462416666666, "name": "a3219b95db13db18dd8e65b7c5342801", "is_disabled": 0, "rental_uris": {"android": "https://dc.lft.to/lastmile_qr_scan", "ios": "https://dc.lft.to/lastmile_qr_scan"}, "type": "electric_scooter", "lat": 38.9055665, "is_reserved": 0, "fusion_lat": 0.0}, {"bike_id": "57d339debcf0aa0cb3f84b0fb78f8c8e", "fusion_lon": 0.0, "lon": -77.01614216666667, "name": "57d339debcf0aa0cb3f84b0fb78f8c8e", "is_disabled": 0, "rental_uris": {"android": "https://dc.lft.to/lastmile_qr_scan", "ios": "https://dc.lft.to/lastmile_qr_scan"}, "type": "electric_scooter", "lat": 38.89507233333333, "is_reserved": 0, "fusion_lat": 0.0}, {"bike_id": "344b7e0a0bae38677fd7660c1f05e835", "fusion_lon": 0.0, "lon": -77.02468333333333, "name": "344b7e0a0bae38677fd7660c1f05e835", "is_disabled": 0, "rental_uris": {"android": "https://dc.lft.to/lastmile_qr_scan", "ios": "https://dc.lft.to/lastmile_qr_scan"}, "type": "electric_scooter", "lat": 38.903258, "is_reserved": 0, "fusion_lat": 0.0}, {"bike_id": "937ea71be5cad2aa2b6c88398f202db5", "fusion_lon": 0.0, "lon": -76.99948933333333, "name": "937ea71be5cad2aa2b6c88398f202db5", "is_disabled": 0, "rental_uris": {"android": "https://dc.lft.to/lastmile_qr_scan", "ios": "https://dc.lft.to/lastmile_qr_scan"}, "type": "electric_scooter", "lat": 38.84292683333334, "is_reserved": 0, "fusion_lat": 0.0}, {"bike_id": "9bc849827b872c407a77ac5cb38cdae5", "fusion_lon": 0.0, "lon": -77.018097, "name": "9bc849827b872c407a77ac5cb38cdae5", "is_disabled": 0, "rental_uris": {"android": "https://dc.lft.to/lastmile_qr_scan", "ios": "https://dc.lft.to/lastmile_qr_scan"}, "type": "electric_scooter", "lat": 38.92132516666667, "is_reserved": 0, "fusion_lat": 0.0}, {"bike_id": "96d3f7e52490e979eb095b5925178e83", "fusion_lon": 0.0, "lon": -77.03441933333333, "name": "96d3f7e52490e979eb095b5925178e83", "is_disabled": 0, "rental_uris": {"android": "https://dc.lft.to/lastmile_qr_scan", "ios": "https://dc.lft.to/lastmile_qr_scan"}, "type": "electric_scooter", "lat": 38.930915666666664, "is_reserved": 0, "fusion_lat": 0.0}, {"bike_id": "8691c1d2b140c4f7b1cf749ace8fcf2a", "fusion_lon": 0.0, "lon": -77.06404033333334, "name": "8691c1d2b140c4f7b1cf749ace8fcf2a", "is_disabled": 0, "rental_uris": {"android": "https://dc.lft.to/lastmile_qr_scan", "ios": "https://dc.lft.to/lastmile_qr_scan"}, "type": "electric_scooter", "lat": 38.91362083333333, "is_reserved": 0, "fusion_lat": 0.0}, {"bike_id": "176fc32c618a233729f28193f12b7e64", "fusion_lon": 0.0, "lon": -77.03073983333333, "name": "176fc32c618a233729f28193f12b7e64", "is_disabled": 0, "rental_uris": {"android": "https://dc.lft.to/lastmile_qr_scan", "ios": "https://dc.lft.to/lastmile_qr_scan"}, "type": "electric_scooter", "lat": 38.91752483333333, "is_reserved": 0, "fusion_lat": 0.0}, {"bike_id": "5a092fa5a7c1938c6de7ddfbcb349a86", "fusion_lon": 0.0, "lon": -76.99695533333333, "name": "5a092fa5a7c1938c6de7ddfbcb349a86", "is_disabled": 0, "rental_uris": {"android": "https://dc.lft.to/lastmile_qr_scan", "ios": "https://dc.lft.to/lastmile_qr_scan"}, "type": "electric_scooter", "lat": 38.908325833333336, "is_reserved": 0, "fusion_lat": 0.0}, {"bike_id": "cf76752ce0ad414d3344d60fa7d78f33", "fusion_lon": 0.0, "lon": -77.02492266666667, "name": "cf76752ce0ad414d3344d60fa7d78f33", "is_disabled": 0, "rental_uris": {"android": "https://dc.lft.to/lastmile_qr_scan", "ios": "https://dc.lft.to/lastmile_qr_scan"}, "type": "electric_scooter", "lat": 38.941841, "is_reserved": 0, "fusion_lat": 0.0}, {"bike_id": "6d742fb632950237942c9fc4301b8b2c", "fusion_lon": 0.0, "lon": -77.03129466666667, "name": "6d742fb632950237942c9fc4301b8b2c", "is_disabled": 0, "rental_uris": {"android": "https://dc.lft.to/lastmile_qr_scan", "ios": "https://dc.lft.to/lastmile_qr_scan"}, "type": "electric_scooter", "lat": 38.923733666666664, "is_reserved": 0, "fusion_lat": 0.0}, {"bike_id": "32bc8babe911053bc017e07b5ef20ece", "fusion_lon": 0.0, "lon": -77.03657333333334, "name": "32bc8babe911053bc017e07b5ef20ece", "is_disabled": 0, "rental_uris": {"android": "https://dc.lft.to/lastmile_qr_scan", "ios": "https://dc.lft.to/lastmile_qr_scan"}, "type": "electric_scooter", "lat": 38.922863666666665, "is_reserved": 0, "fusion_lat": 0.0}, {"bike_id": "a550d95c00bdba1cf12c7a027529e296", "fusion_lon": 0.0, "lon": -77.04420933333333, "name": "a550d95c00bdba1cf12c7a027529e296", "is_disabled": 0, "rental_uris": {"android": "https://dc.lft.to/lastmile_qr_scan", "ios": "https://dc.lft.to/lastmile_qr_scan"}, "type": "electric_scooter", "lat": 38.917786, "is_reserved": 0, "fusion_lat": 0.0}, {"bike_id": "9fb37ae91ef05fcc6e2973f66de4022b", "fusion_lon": 0.0, "lon": -77.01711616666667, "name": "9fb37ae91ef05fcc6e2973f66de4022b", "is_disabled": 0, "rental_uris": {"android": "https://dc.lft.to/lastmile_qr_scan", "ios": "https://dc.lft.to/lastmile_qr_scan"}, "type": "electric_scooter", "lat": 38.9174185, "is_reserved": 0, "fusion_lat": 0.0}, {"bike_id": "aa810f0e873616faf05e2efb2c6a0373", "fusion_lon": 0.0, "lon": -77.04159933333334, "name": "aa810f0e873616faf05e2efb2c6a0373", "is_disabled": 0, "rental_uris": {"android": "https://dc.lft.to/lastmile_qr_scan", "ios": "https://dc.lft.to/lastmile_qr_scan"}, "type": "electric_scooter", "lat": 38.9148875, "is_reserved": 0, "fusion_lat": 0.0}, {"bike_id": "94f12d6084a5fbe9f59c596665d67bc2", "fusion_lon": 0.0, "lon": -77.0403195, "name": "94f12d6084a5fbe9f59c596665d67bc2", "is_disabled": 0, "rental_uris": {"android": "https://dc.lft.to/lastmile_qr_scan", "ios": "https://dc.lft.to/lastmile_qr_scan"}, "type": "electric_scooter", "lat": 38.899987833333334, "is_reserved": 0, "fusion_lat": 0.0}, {"bike_id": "03075289ac6aca7b0024d7e6af6c1c38", "fusion_lon": 0.0, "lon": -76.98326416666667, "name": "03075289ac6aca7b0024d7e6af6c1c38", "is_disabled": 0, "rental_uris": {"android": "https://dc.lft.to/lastmile_qr_scan", "ios": "https://dc.lft.to/lastmile_qr_scan"}, "type": "electric_scooter", "lat": 38.9086765, "is_reserved": 0, "fusion_lat": 0.0}, {"bike_id": "1ed0ae7b392d5fd2287b98628a7981e2", "fusion_lon": 0.0, "lon": -77.03469533333333, "name": "1ed0ae7b392d5fd2287b98628a7981e2", "is_disabled": 0, "rental_uris": {"android": "https://dc.lft.to/lastmile_qr_scan", "ios": "https://dc.lft.to/lastmile_qr_scan"}, "type": "electric_scooter", "lat": 38.90448166666667, "is_reserved": 0, "fusion_lat": 0.0}, {"bike_id": "6e011300c7a02245e54aff5c308343be", "fusion_lon": 0.0, "lon": -77.04604016666667, "name": "6e011300c7a02245e54aff5c308343be", "is_disabled": 0, "rental_uris": {"android": "https://dc.lft.to/lastmile_qr_scan", "ios": "https://dc.lft.to/lastmile_qr_scan"}, "type": "electric_scooter", "lat": 38.9193375, "is_reserved": 0, "fusion_lat": 0.0}, {"bike_id": "e1ee8782c80bcf7e5254ec4c0d968727", "fusion_lon": 0.0, "lon": -77.0827885, "name": "e1ee8782c80bcf7e5254ec4c0d968727", "is_disabled": 0, "rental_uris": {"android": "https://dc.lft.to/lastmile_qr_scan", "ios": "https://dc.lft.to/lastmile_qr_scan"}, "type": "electric_scooter", "lat": 38.930188333333334, "is_reserved": 0, "fusion_lat": 0.0}, {"bike_id": "21946f2476910982f3d1105883b224fe", "fusion_lon": 0.0, "lon": -77.03343316666667, "name": "21946f2476910982f3d1105883b224fe", "is_disabled": 0, "rental_uris": {"android": "https://dc.lft.to/lastmile_qr_scan", "ios": "https://dc.lft.to/lastmile_qr_scan"}, "type": "electric_scooter", "lat": 38.928811333333336, "is_reserved": 0, "fusion_lat": 0.0}, {"bike_id": "b8250f43a1d28d32bb0617086865453a", "fusion_lon": 0.0, "lon": -77.03834866666666, "name": "b8250f43a1d28d32bb0617086865453a", "is_disabled": 0, "rental_uris": {"android": "https://dc.lft.to/lastmile_qr_scan", "ios": "https://dc.lft.to/lastmile_qr_scan"}, "type": "electric_scooter", "lat": 38.908069166666664, "is_reserved": 0, "fusion_lat": 0.0}, {"bike_id": "a70f705cce998c8bfe8d35df9386e098", "fusion_lon": 0.0, "lon": -77.02723466666667, "name": "a70f705cce998c8bfe8d35df9386e098", "is_disabled": 0, "rental_uris": {"android": "https://dc.lft.to/lastmile_qr_scan", "ios": "https://dc.lft.to/lastmile_qr_scan"}, "type": "electric_scooter", "lat": 38.949582, "is_reserved": 0, "fusion_lat": 0.0}, {"bike_id": "dcc3140dac49d1af1635e885c8e19fd3", "fusion_lon": 0.0, "lon": -77.0309015, "name": "dcc3140dac49d1af1635e885c8e19fd3", "is_disabled": 0, "rental_uris": {"android": "https://dc.lft.to/lastmile_qr_scan", "ios": "https://dc.lft.to/lastmile_qr_scan"}, "type": "electric_scooter", "lat": 38.911023166666666, "is_reserved": 0, "fusion_lat": 0.0}, {"bike_id": "7726e76cddf8a7e3a968b22964d200d2", "fusion_lon": 0.0, "lon": -77.0318085, "name": "7726e76cddf8a7e3a968b22964d200d2", "is_disabled": 0, "rental_uris": {"android": "https://dc.lft.to/lastmile_qr_scan", "ios": "https://dc.lft.to/lastmile_qr_scan"}, "type": "electric_scooter", "lat": 38.91924016666667, "is_reserved": 0, "fusion_lat": 0.0}, {"bike_id": "492fb92a4c8de2cb7dfa2ae0e545b025", "fusion_lon": 0.0, "lon": -77.01301183333334, "name": "492fb92a4c8de2cb7dfa2ae0e545b025", "is_disabled": 0, "rental_uris": {"android": "https://dc.lft.to/lastmile_qr_scan", "ios": "https://dc.lft.to/lastmile_qr_scan"}, "type": "electric_scooter", "lat": 38.900603, "is_reserved": 0, "fusion_lat": 0.0}, {"bike_id": "665b07f458aac8f4be4c2d154228e863", "fusion_lon": 0.0, "lon": -77.05022916666667, "name": "665b07f458aac8f4be4c2d154228e863", "is_disabled": 0, "rental_uris": {"android": "https://dc.lft.to/lastmile_qr_scan", "ios": "https://dc.lft.to/lastmile_qr_scan"}, "type": "electric_scooter", "lat": 38.906264666666665, "is_reserved": 0, "fusion_lat": 0.0}, {"bike_id": "038dfa70b1a0d51804284d6756ea8c60", "fusion_lon": 0.0, "lon": -77.02615616666667, "name": "038dfa70b1a0d51804284d6756ea8c60", "is_disabled": 0, "rental_uris": {"android": "https://dc.lft.to/lastmile_qr_scan", "ios": "https://dc.lft.to/lastmile_qr_scan"}, "type": "electric_scooter", "lat": 38.92807283333333, "is_reserved": 0, "fusion_lat": 0.0}, {"bike_id": "b7fa4ab86ddedd109f0b964798520b39", "fusion_lon": 0.0, "lon": -77.03722183333333, "name": "b7fa4ab86ddedd109f0b964798520b39", "is_disabled": 0, "rental_uris": {"android": "https://dc.lft.to/lastmile_qr_scan", "ios": "https://dc.lft.to/lastmile_qr_scan"}, "type": "electric_scooter", "lat": 38.9037175, "is_reserved": 0, "fusion_lat": 0.0}, {"bike_id": "316c305f5350c305240b1b9d20e01d7b", "fusion_lon": 0.0, "lon": -76.99519166666667, "name": "316c305f5350c305240b1b9d20e01d7b", "is_disabled": 0, "rental_uris": {"android": "https://dc.lft.to/lastmile_qr_scan", "ios": "https://dc.lft.to/lastmile_qr_scan"}, "type": "electric_scooter", "lat": 38.909841, "is_reserved": 0, "fusion_lat": 0.0}, {"bike_id": "59cd46649c37ed7a5c78e8de39b29d51", "fusion_lon": 0.0, "lon": -77.03107183333333, "name": "59cd46649c37ed7a5c78e8de39b29d51", "is_disabled": 0, "rental_uris": {"android": "https://dc.lft.to/lastmile_qr_scan", "ios": "https://dc.lft.to/lastmile_qr_scan"}, "type": "electric_scooter", "lat": 38.9464615, "is_reserved": 0, "fusion_lat": 0.0}, {"bike_id": "2694f32b6affc5c447c86eafb6abe632", "fusion_lon": 0.0, "lon": -77.0316415, "name": "2694f32b6affc5c447c86eafb6abe632", "is_disabled": 0, "rental_uris": {"android": "https://dc.lft.to/lastmile_qr_scan", "ios": "https://dc.lft.to/lastmile_qr_scan"}, "type": "electric_scooter", "lat": 38.8922065, "is_reserved": 0, "fusion_lat": 0.0}, {"bike_id": "4652f1a28c045b5cc0eccbebed3bccec", "fusion_lon": 0.0, "lon": -77.11708466666667, "name": "4652f1a28c045b5cc0eccbebed3bccec", "is_disabled": 0, "rental_uris": {"android": "https://dc.lft.to/lastmile_qr_scan", "ios": "https://dc.lft.to/lastmile_qr_scan"}, "type": "electric_bike", "lat": 38.867456833333335, "is_reserved": 0, "fusion_lat": 0.0}, {"bike_id": "5ab74f628b95eb3290dd11cb05d608fc", "fusion_lon": 0.0, "lon": -77.00372716666666, "name": "5ab74f628b95eb3290dd11cb05d608fc", "is_disabled": 0, "rental_uris": {"android": "https://dc.lft.to/lastmile_qr_scan", "ios": "https://dc.lft.to/lastmile_qr_scan"}, "type": "electric_scooter", "lat": 38.882616666666664, "is_reserved": 0, "fusion_lat": 0.0}, {"bike_id": "7ed116d75a8a556d1021dbec3668262a", "fusion_lon": 0.0, "lon": -77.0065795, "name": "7ed116d75a8a556d1021dbec3668262a", "is_disabled": 0, "rental_uris": {"android": "https://dc.lft.to/lastmile_qr_scan", "ios": "https://dc.lft.to/lastmile_qr_scan"}, "type": "electric_scooter", "lat": 38.944636833333334, "is_reserved": 0, "fusion_lat": 0.0}, {"bike_id": "e859273d309de976e19364f2ae4501c7", "fusion_lon": 0.0, "lon": -76.9883905, "name": "e859273d309de976e19364f2ae4501c7", "is_disabled": 0, "rental_uris": {"android": "https://dc.lft.to/lastmile_qr_scan", "ios": "https://dc.lft.to/lastmile_qr_scan"}, "type": "electric_bike", "lat": 38.8427805, "is_reserved": 0, "fusion_lat": 0.0}, {"bike_id": "87afdfa5ba3b34f4c59487f14ccd173f", "fusion_lon": 0.0, "lon": -77.046038, "name": "87afdfa5ba3b34f4c59487f14ccd173f", "is_disabled": 0, "rental_uris": {"android": "https://dc.lft.to/lastmile_qr_scan", "ios": "https://dc.lft.to/lastmile_qr_scan"}, "type": "electric_scooter", "lat": 38.90268316666667, "is_reserved": 0, "fusion_lat": 0.0}, {"bike_id": "e854573e46ed69a610d0e3ab172ec905", "fusion_lon": 0.0, "lon": -77.00349916666667, "name": "e854573e46ed69a610d0e3ab172ec905", "is_disabled": 0, "rental_uris": {"android": "https://dc.lft.to/lastmile_qr_scan", "ios": "https://dc.lft.to/lastmile_qr_scan"}, "type": "electric_scooter", "lat": 38.9023785, "is_reserved": 0, "fusion_lat": 0.0}, {"bike_id": "8e7dd7bab198a3c1dd56784611ad88c2", "fusion_lon": 0.0, "lon": -77.04685833333333, "name": "8e7dd7bab198a3c1dd56784611ad88c2", "is_disabled": 0, "rental_uris": {"android": "https://dc.lft.to/lastmile_qr_scan", "ios": "https://dc.lft.to/lastmile_qr_scan"}, "type": "electric_scooter", "lat": 38.90586783333333, "is_reserved": 0, "fusion_lat": 0.0}, {"bike_id": "df0417db375538234e0fc6e96aaecae6", "fusion_lon": 0.0, "lon": -77.04469066666667, "name": "df0417db375538234e0fc6e96aaecae6", "is_disabled": 0, "rental_uris": {"android": "https://dc.lft.to/lastmile_qr_scan", "ios": "https://dc.lft.to/lastmile_qr_scan"}, "type": "electric_scooter", "lat": 38.89527983333333, "is_reserved": 0, "fusion_lat": 0.0}, {"bike_id": "269f6cdcc2aa5308132c1b19c396a78d", "fusion_lon": 0.0, "lon": -77.03168416666666, "name": "269f6cdcc2aa5308132c1b19c396a78d", "is_disabled": 0, "rental_uris": {"android": "https://dc.lft.to/lastmile_qr_scan", "ios": "https://dc.lft.to/lastmile_qr_scan"}, "type": "electric_bike", "lat": 38.999517166666664, "is_reserved": 0, "fusion_lat": 0.0}, {"bike_id": "e439123ddfb7cfc99aa48d8e9a9b94d3", "fusion_lon": 0.0, "lon": -77.03173833333334, "name": "e439123ddfb7cfc99aa48d8e9a9b94d3", "is_disabled": 0, "rental_uris": {"android": "https://dc.lft.to/lastmile_qr_scan", "ios": "https://dc.lft.to/lastmile_qr_scan"}, "type": "electric_scooter", "lat": 38.919333, "is_reserved": 0, "fusion_lat": 0.0}, {"bike_id": "b1452b73ecfe83b60def053ef54a79d1", "fusion_lon": 0.0, "lon": -76.983537, "name": "b1452b73ecfe83b60def053ef54a79d1", "is_disabled": 0, "rental_uris": {"android": "https://dc.lft.to/lastmile_qr_scan", "ios": "https://dc.lft.to/lastmile_qr_scan"}, "type": "electric_scooter", "lat": 38.88591616666667, "is_reserved": 0, "fusion_lat": 0.0}, {"bike_id": "d51bc79cf04a97789ca4c70fc4e8d752", "fusion_lon": 0.0, "lon": -77.04462916666667, "name": "d51bc79cf04a97789ca4c70fc4e8d752", "is_disabled": 0, "rental_uris": {"android": "https://dc.lft.to/lastmile_qr_scan", "ios": "https://dc.lft.to/lastmile_qr_scan"}, "type": "electric_scooter", "lat": 38.91853716666667, "is_reserved": 0, "fusion_lat": 0.0}, {"bike_id": "3c397dc2a5b06b0492dea8060b4f4e37", "fusion_lon": 0.0, "lon": -77.03552816666667, "name": "3c397dc2a5b06b0492dea8060b4f4e37", "is_disabled": 0, "rental_uris": {"android": "https://dc.lft.to/lastmile_qr_scan", "ios": "https://dc.lft.to/lastmile_qr_scan"}, "type": "electric_scooter", "lat": 38.92857683333333, "is_reserved": 0, "fusion_lat": 0.0}, {"bike_id": "93bc93edb2ce510b82b8338e822d3db8", "fusion_lon": 0.0, "lon": -77.07011133333333, "name": "93bc93edb2ce510b82b8338e822d3db8", "is_disabled": 0, "rental_uris": {"android": "https://dc.lft.to/lastmile_qr_scan", "ios": "https://dc.lft.to/lastmile_qr_scan"}, "type": "electric_bike", "lat": 38.92766566666667, "is_reserved": 0, "fusion_lat": 0.0}, {"bike_id": "50ecd65fd3fb817cecdc96b291505c2b", "fusion_lon": 0.0, "lon": -77.03288883333333, "name": "50ecd65fd3fb817cecdc96b291505c2b", "is_disabled": 0, "rental_uris": {"android": "https://dc.lft.to/lastmile_qr_scan", "ios": "https://dc.lft.to/lastmile_qr_scan"}, "type": "electric_scooter", "lat": 38.920494833333336, "is_reserved": 0, "fusion_lat": 0.0}, {"bike_id": "23224f7cdffa04c65fe442ae3bb12a58", "fusion_lon": 0.0, "lon": -77.03930266666667, "name": "23224f7cdffa04c65fe442ae3bb12a58", "is_disabled": 0, "rental_uris": {"android": "https://dc.lft.to/lastmile_qr_scan", "ios": "https://dc.lft.to/lastmile_qr_scan"}, "type": "electric_scooter", "lat": 38.92490016666667, "is_reserved": 0, "fusion_lat": 0.0}, {"bike_id": "2398532d3c77727bab88eaebe04cbd96", "fusion_lon": 0.0, "lon": -77.08588533333334, "name": "2398532d3c77727bab88eaebe04cbd96", "is_disabled": 0, "rental_uris": {"android": "https://dc.lft.to/lastmile_qr_scan", "ios": "https://dc.lft.to/lastmile_qr_scan"}, "type": "electric_bike", "lat": 38.84439533333333, "is_reserved": 0, "fusion_lat": 0.0}, {"bike_id": "8df37de7d1473fe753211f84b54b199e", "fusion_lon": 0.0, "lon": -77.02693616666667, "name": "8df37de7d1473fe753211f84b54b199e", "is_disabled": 0, "rental_uris": {"android": "https://dc.lft.to/lastmile_qr_scan", "ios": "https://dc.lft.to/lastmile_qr_scan"}, "type": "electric_scooter", "lat": 38.906840333333335, "is_reserved": 0, "fusion_lat": 0.0}, {"bike_id": "2f1c791f12a2c484124bff53f7952952", "fusion_lon": 0.0, "lon": -76.99331716666667, "name": "2f1c791f12a2c484124bff53f7952952", "is_disabled": 0, "rental_uris": {"android": "https://dc.lft.to/lastmile_qr_scan", "ios": "https://dc.lft.to/lastmile_qr_scan"}, "type": "electric_scooter", "lat": 38.924428666666664, "is_reserved": 0, "fusion_lat": 0.0}, {"bike_id": "33ab072fb46ff78d7d9f7c11feeccd92", "fusion_lon": 0.0, "lon": -77.02977016666667, "name": "33ab072fb46ff78d7d9f7c11feeccd92", "is_disabled": 0, "rental_uris": {"android": "https://dc.lft.to/lastmile_qr_scan", "ios": "https://dc.lft.to/lastmile_qr_scan"}, "type": "electric_scooter", "lat": 38.934719333333334, "is_reserved": 0, "fusion_lat": 0.0}, {"bike_id": "0800560aa095781ee9615cd9ca9bee48", "fusion_lon": 0.0, "lon": -77.05233616666666, "name": "0800560aa095781ee9615cd9ca9bee48", "is_disabled": 0, "rental_uris": {"android": "https://dc.lft.to/lastmile_qr_scan", "ios": "https://dc.lft.to/lastmile_qr_scan"}, "type": "electric_scooter", "lat": 38.92457266666667, "is_reserved": 0, "fusion_lat": 0.0}, {"bike_id": "1800eed3a2965d8b0608944b7549f57b", "fusion_lon": 0.0, "lon": -77.0401655, "name": "1800eed3a2965d8b0608944b7549f57b", "is_disabled": 0, "rental_uris": {"android": "https://dc.lft.to/lastmile_qr_scan", "ios": "https://dc.lft.to/lastmile_qr_scan"}, "type": "electric_bike", "lat": 38.793270166666666, "is_reserved": 0, "fusion_lat": 0.0}, {"bike_id": "27cfa9823945d9f56c9f92d51102c075", "fusion_lon": 0.0, "lon": -77.00135583333333, "name": "27cfa9823945d9f56c9f92d51102c075", "is_disabled": 0, "rental_uris": {"android": "https://dc.lft.to/lastmile_qr_scan", "ios": "https://dc.lft.to/lastmile_qr_scan"}, "type": "electric_scooter", "lat": 38.90533583333333, "is_reserved": 0, "fusion_lat": 0.0}, {"bike_id": "60cfb3c323bcd6cadc7fbff67d2ba7dd", "fusion_lon": 0.0, "lon": -76.97238266666666, "name": "60cfb3c323bcd6cadc7fbff67d2ba7dd", "is_disabled": 0, "rental_uris": {"android": "https://dc.lft.to/lastmile_qr_scan", "ios": "https://dc.lft.to/lastmile_qr_scan"}, "type": "electric_bike", "lat": 38.949001, "is_reserved": 0, "fusion_lat": 0.0}, {"bike_id": "40e947fd9a21c807ec5285e7dfeb2259", "fusion_lon": 0.0, "lon": -76.99938016666667, "name": "40e947fd9a21c807ec5285e7dfeb2259", "is_disabled": 0, "rental_uris": {"android": "https://dc.lft.to/lastmile_qr_scan", "ios": "https://dc.lft.to/lastmile_qr_scan"}, "type": "electric_scooter", "lat": 38.89204483333333, "is_reserved": 0, "fusion_lat": 0.0}, {"bike_id": "c9ef56ac2a299a8c5703004f401ac774", "fusion_lon": 0.0, "lon": -77.033283, "name": "c9ef56ac2a299a8c5703004f401ac774", "is_disabled": 0, "rental_uris": {"android": "https://dc.lft.to/lastmile_qr_scan", "ios": "https://dc.lft.to/lastmile_qr_scan"}, "type": "electric_scooter", "lat": 38.90122316666667, "is_reserved": 0, "fusion_lat": 0.0}, {"bike_id": "0ff2ef48be19c64efe31ce8981f8e4f3", "fusion_lon": 0.0, "lon": -77.10713633333333, "name": "0ff2ef48be19c64efe31ce8981f8e4f3", "is_disabled": 0, "rental_uris": {"android": "https://dc.lft.to/lastmile_qr_scan", "ios": "https://dc.lft.to/lastmile_qr_scan"}, "type": "electric_bike", "lat": 38.96488933333333, "is_reserved": 0, "fusion_lat": 0.0}, {"bike_id": "e08e8d68ce46e3a625362f3461c07ee1", "fusion_lon": 0.0, "lon": -77.015749, "name": "e08e8d68ce46e3a625362f3461c07ee1", "is_disabled": 0, "rental_uris": {"android": "https://dc.lft.to/lastmile_qr_scan", "ios": "https://dc.lft.to/lastmile_qr_scan"}, "type": "electric_scooter", "lat": 38.92681233333333, "is_reserved": 0, "fusion_lat": 0.0}, {"bike_id": "811e0b57ba8cba031417be1a4d65cc6b", "fusion_lon": 0.0, "lon": -77.03265133333333, "name": "811e0b57ba8cba031417be1a4d65cc6b", "is_disabled": 0, "rental_uris": {"android": "https://dc.lft.to/lastmile_qr_scan", "ios": "https://dc.lft.to/lastmile_qr_scan"}, "type": "electric_scooter", "lat": 38.91406, "is_reserved": 0, "fusion_lat": 0.0}, {"bike_id": "12c405735db5159941e7c3efe6318583", "fusion_lon": 0.0, "lon": -76.9871235, "name": "12c405735db5159941e7c3efe6318583", "is_disabled": 0, "rental_uris": {"android": "https://dc.lft.to/lastmile_qr_scan", "ios": "https://dc.lft.to/lastmile_qr_scan"}, "type": "electric_scooter", "lat": 38.866953, "is_reserved": 0, "fusion_lat": 0.0}, {"bike_id": "551422e441156fd73f58aff2ddabff48", "fusion_lon": 0.0, "lon": -77.02202683333333, "name": "551422e441156fd73f58aff2ddabff48", "is_disabled": 0, "rental_uris": {"android": "https://dc.lft.to/lastmile_qr_scan", "ios": "https://dc.lft.to/lastmile_qr_scan"}, "type": "electric_scooter", "lat": 38.896319166666665, "is_reserved": 0, "fusion_lat": 0.0}, {"bike_id": "e1d5b0b9c9287c1706aa45c42e8d78c9", "fusion_lon": 0.0, "lon": -77.02091216666666, "name": "e1d5b0b9c9287c1706aa45c42e8d78c9", "is_disabled": 0, "rental_uris": {"android": "https://dc.lft.to/lastmile_qr_scan", "ios": "https://dc.lft.to/lastmile_qr_scan"}, "type": "electric_scooter", "lat": 38.9311895, "is_reserved": 0, "fusion_lat": 0.0}, {"bike_id": "00ce12403318421dedaaabca7f125e3d", "fusion_lon": 0.0, "lon": -76.99902466666667, "name": "00ce12403318421dedaaabca7f125e3d", "is_disabled": 0, "rental_uris": {"android": "https://dc.lft.to/lastmile_qr_scan", "ios": "https://dc.lft.to/lastmile_qr_scan"}, "type": "electric_scooter", "lat": 38.946904833333335, "is_reserved": 0, "fusion_lat": 0.0}, {"bike_id": "cf8f063ce3e333ffadaab5bc9f172115", "fusion_lon": 0.0, "lon": -77.01318583333334, "name": "cf8f063ce3e333ffadaab5bc9f172115", "is_disabled": 0, "rental_uris": {"android": "https://dc.lft.to/lastmile_qr_scan", "ios": "https://dc.lft.to/lastmile_qr_scan"}, "type": "electric_scooter", "lat": 38.930266333333336, "is_reserved": 0, "fusion_lat": 0.0}, {"bike_id": "5ef7c5ffc437f987cd9fd66db8a81d54", "fusion_lon": 0.0, "lon": -77.02311583333334, "name": "5ef7c5ffc437f987cd9fd66db8a81d54", "is_disabled": 0, "rental_uris": {"android": "https://dc.lft.to/lastmile_qr_scan", "ios": "https://dc.lft.to/lastmile_qr_scan"}, "type": "electric_scooter", "lat": 38.9179, "is_reserved": 0, "fusion_lat": 0.0}, {"bike_id": "e16e7795dacdd89df94bd97b02fe47e3", "fusion_lon": 0.0, "lon": -77.07724966666666, "name": "e16e7795dacdd89df94bd97b02fe47e3", "is_disabled": 0, "rental_uris": {"android": "https://dc.lft.to/lastmile_qr_scan", "ios": "https://dc.lft.to/lastmile_qr_scan"}, "type": "electric_scooter", "lat": 38.95764, "is_reserved": 0, "fusion_lat": 0.0}, {"bike_id": "0a2a762aae5f16c386bf7e079ed41416", "fusion_lon": 0.0, "lon": -77.02712566666666, "name": "0a2a762aae5f16c386bf7e079ed41416", "is_disabled": 0, "rental_uris": {"android": "https://dc.lft.to/lastmile_qr_scan", "ios": "https://dc.lft.to/lastmile_qr_scan"}, "type": "electric_scooter", "lat": 38.90669033333333, "is_reserved": 0, "fusion_lat": 0.0}, {"bike_id": "39b561e01dba512e7a310d435446de04", "fusion_lon": 0.0, "lon": -77.02344116666667, "name": "39b561e01dba512e7a310d435446de04", "is_disabled": 0, "rental_uris": {"android": "https://dc.lft.to/lastmile_qr_scan", "ios": "https://dc.lft.to/lastmile_qr_scan"}, "type": "electric_scooter", "lat": 38.946137666666665, "is_reserved": 0, "fusion_lat": 0.0}, {"bike_id": "2d8a34608592e5615c476d7307da3bb7", "fusion_lon": 0.0, "lon": -76.985172, "name": "2d8a34608592e5615c476d7307da3bb7", "is_disabled": 0, "rental_uris": {"android": "https://dc.lft.to/lastmile_qr_scan", "ios": "https://dc.lft.to/lastmile_qr_scan"}, "type": "electric_scooter", "lat": 38.86658333333333, "is_reserved": 0, "fusion_lat": 0.0}, {"bike_id": "68ac297f0df441f214178ecb416a5665", "fusion_lon": 0.0, "lon": -77.03852, "name": "68ac297f0df441f214178ecb416a5665", "is_disabled": 0, "rental_uris": {"android": "https://dc.lft.to/lastmile_qr_scan", "ios": "https://dc.lft.to/lastmile_qr_scan"}, "type": "electric_scooter", "lat": 38.90368183333333, "is_reserved": 0, "fusion_lat": 0.0}, {"bike_id": "fd4a4baac78b93826f5239dcf0fa61b2", "fusion_lon": 0.0, "lon": -77.02946733333333, "name": "fd4a4baac78b93826f5239dcf0fa61b2", "is_disabled": 0, "rental_uris": {"android": "https://dc.lft.to/lastmile_qr_scan", "ios": "https://dc.lft.to/lastmile_qr_scan"}, "type": "electric_scooter", "lat": 38.9049515, "is_reserved": 0, "fusion_lat": 0.0}, {"bike_id": "7cc5890b9a50c8385a1e25058b784bab", "fusion_lon": 0.0, "lon": -77.05319283333333, "name": "7cc5890b9a50c8385a1e25058b784bab", "is_disabled": 0, "rental_uris": {"android": "https://dc.lft.to/lastmile_qr_scan", "ios": "https://dc.lft.to/lastmile_qr_scan"}, "type": "electric_scooter", "lat": 38.90264783333333, "is_reserved": 0, "fusion_lat": 0.0}, {"bike_id": "6cae8f988edc8b954117299fcd34215f", "fusion_lon": 0.0, "lon": -77.03026683333333, "name": "6cae8f988edc8b954117299fcd34215f", "is_disabled": 0, "rental_uris": {"android": "https://dc.lft.to/lastmile_qr_scan", "ios": "https://dc.lft.to/lastmile_qr_scan"}, "type": "electric_scooter", "lat": 38.896087, "is_reserved": 0, "fusion_lat": 0.0}, {"bike_id": "aaf1d50a173fc0b6cc8c46e48da872d2", "fusion_lon": 0.0, "lon": -76.9977785, "name": "aaf1d50a173fc0b6cc8c46e48da872d2", "is_disabled": 0, "rental_uris": {"android": "https://dc.lft.to/lastmile_qr_scan", "ios": "https://dc.lft.to/lastmile_qr_scan"}, "type": "electric_bike", "lat": 38.862112, "is_reserved": 0, "fusion_lat": 0.0}, {"bike_id": "aa31bae1102ff0c0b7d27d9c5d7711ab", "fusion_lon": 0.0, "lon": -77.024016, "name": "aa31bae1102ff0c0b7d27d9c5d7711ab", "is_disabled": 0, "rental_uris": {"android": "https://dc.lft.to/lastmile_qr_scan", "ios": "https://dc.lft.to/lastmile_qr_scan"}, "type": "electric_scooter", "lat": 38.8962185, "is_reserved": 0, "fusion_lat": 0.0}, {"bike_id": "2a576613bc50be75e518d63b9c0bf18a", "fusion_lon": 0.0, "lon": -77.01503416666667, "name": "2a576613bc50be75e518d63b9c0bf18a", "is_disabled": 0, "rental_uris": {"android": "https://dc.lft.to/lastmile_qr_scan", "ios": "https://dc.lft.to/lastmile_qr_scan"}, "type": "electric_scooter", "lat": 38.893054, "is_reserved": 0, "fusion_lat": 0.0}, {"bike_id": "4caee48550b45e7c5d44b4aee986bb13", "fusion_lon": 0.0, "lon": -77.053233, "name": "4caee48550b45e7c5d44b4aee986bb13", "is_disabled": 0, "rental_uris": {"android": "https://dc.lft.to/lastmile_qr_scan", "ios": "https://dc.lft.to/lastmile_qr_scan"}, "type": "electric_scooter", "lat": 38.92793783333333, "is_reserved": 0, "fusion_lat": 0.0}, {"bike_id": "a7fd10e00ce63a4bcf007be176496dad", "fusion_lon": 0.0, "lon": -77.02572316666667, "name": "a7fd10e00ce63a4bcf007be176496dad", "is_disabled": 0, "rental_uris": {"android": "https://dc.lft.to/lastmile_qr_scan", "ios": "https://dc.lft.to/lastmile_qr_scan"}, "type": "electric_bike", "lat": 38.89591216666667, "is_reserved": 0, "fusion_lat": 0.0}, {"bike_id": "ba860220767609c27e42c4dd8b7d00e4", "fusion_lon": 0.0, "lon": -77.04334416666667, "name": "ba860220767609c27e42c4dd8b7d00e4", "is_disabled": 0, "rental_uris": {"android": "https://dc.lft.to/lastmile_qr_scan", "ios": "https://dc.lft.to/lastmile_qr_scan"}, "type": "electric_scooter", "lat": 38.90839116666667, "is_reserved": 0, "fusion_lat": 0.0}, {"bike_id": "78adc3a20e626d2a69e8f516a0826b1b", "fusion_lon": 0.0, "lon": -76.93196783333333, "name": "78adc3a20e626d2a69e8f516a0826b1b", "is_disabled": 0, "rental_uris": {"android": "https://dc.lft.to/lastmile_qr_scan", "ios": "https://dc.lft.to/lastmile_qr_scan"}, "type": "electric_scooter", "lat": 38.8987855, "is_reserved": 0, "fusion_lat": 0.0}, {"bike_id": "b863d931ac533a8e3aa7f99c9ee99133", "fusion_lon": 0.0, "lon": -77.04478616666667, "name": "b863d931ac533a8e3aa7f99c9ee99133", "is_disabled": 0, "rental_uris": {"android": "https://dc.lft.to/lastmile_qr_scan", "ios": "https://dc.lft.to/lastmile_qr_scan"}, "type": "electric_scooter", "lat": 38.92235, "is_reserved": 0, "fusion_lat": 0.0}, {"bike_id": "bc94bcfd976bd229ce253c3744d5dc13", "fusion_lon": 0.0, "lon": -76.935406, "name": "bc94bcfd976bd229ce253c3744d5dc13", "is_disabled": 0, "rental_uris": {"android": "https://dc.lft.to/lastmile_qr_scan", "ios": "https://dc.lft.to/lastmile_qr_scan"}, "type": "electric_bike", "lat": 38.955508333333334, "is_reserved": 0, "fusion_lat": 0.0}, {"bike_id": "e330a951b6081482075deb91eb8e36dc", "fusion_lon": 0.0, "lon": -77.047163, "name": "e330a951b6081482075deb91eb8e36dc", "is_disabled": 0, "rental_uris": {"android": "https://dc.lft.to/lastmile_qr_scan", "ios": "https://dc.lft.to/lastmile_qr_scan"}, "type": "electric_scooter", "lat": 38.90601316666667, "is_reserved": 0, "fusion_lat": 0.0}, {"bike_id": "02459b221c3a33a819aa6ea847859cf2", "fusion_lon": 0.0, "lon": -77.01582516666667, "name": "02459b221c3a33a819aa6ea847859cf2", "is_disabled": 0, "rental_uris": {"android": "https://dc.lft.to/lastmile_qr_scan", "ios": "https://dc.lft.to/lastmile_qr_scan"}, "type": "electric_scooter", "lat": 38.89183, "is_reserved": 0, "fusion_lat": 0.0}, {"bike_id": "c1f976e3f3b6a87112813dd7915098d6", "fusion_lon": 0.0, "lon": -77.02803116666666, "name": "c1f976e3f3b6a87112813dd7915098d6", "is_disabled": 0, "rental_uris": {"android": "https://dc.lft.to/lastmile_qr_scan", "ios": "https://dc.lft.to/lastmile_qr_scan"}, "type": "electric_scooter", "lat": 38.89929866666667, "is_reserved": 0, "fusion_lat": 0.0}, {"bike_id": "4749753283ad6b8c9fe0409988e9aae0", "fusion_lon": 0.0, "lon": -77.00205933333334, "name": "4749753283ad6b8c9fe0409988e9aae0", "is_disabled": 0, "rental_uris": {"android": "https://dc.lft.to/lastmile_qr_scan", "ios": "https://dc.lft.to/lastmile_qr_scan"}, "type": "electric_scooter", "lat": 38.90035666666667, "is_reserved": 0, "fusion_lat": 0.0}, {"bike_id": "4359e47fa3f7c8fa995dc3de5fe94354", "fusion_lon": 0.0, "lon": -77.017585, "name": "4359e47fa3f7c8fa995dc3de5fe94354", "is_disabled": 0, "rental_uris": {"android": "https://dc.lft.to/lastmile_qr_scan", "ios": "https://dc.lft.to/lastmile_qr_scan"}, "type": "electric_scooter", "lat": 38.883999, "is_reserved": 0, "fusion_lat": 0.0}, {"bike_id": "f685698755803f4e7352836c4fc770ba", "fusion_lon": 0.0, "lon": -76.98503416666667, "name": "f685698755803f4e7352836c4fc770ba", "is_disabled": 0, "rental_uris": {"android": "https://dc.lft.to/lastmile_qr_scan", "ios": "https://dc.lft.to/lastmile_qr_scan"}, "type": "electric_scooter", "lat": 38.866685833333335, "is_reserved": 0, "fusion_lat": 0.0}, {"bike_id": "e5e44f648900006551d792bc10578808", "fusion_lon": 0.0, "lon": -77.03541066666666, "name": "e5e44f648900006551d792bc10578808", "is_disabled": 0, "rental_uris": {"android": "https://dc.lft.to/lastmile_qr_scan", "ios": "https://dc.lft.to/lastmile_qr_scan"}, "type": "electric_scooter", "lat": 38.924145, "is_reserved": 0, "fusion_lat": 0.0}, {"bike_id": "e2098fb67e41878e7039fe0ebc4b8c0a", "fusion_lon": 0.0, "lon": -77.05144116666666, "name": "e2098fb67e41878e7039fe0ebc4b8c0a", "is_disabled": 0, "rental_uris": {"android": "https://dc.lft.to/lastmile_qr_scan", "ios": "https://dc.lft.to/lastmile_qr_scan"}, "type": "electric_scooter", "lat": 38.905368333333335, "is_reserved": 0, "fusion_lat": 0.0}, {"bike_id": "254d423b9fe9cc36fb72b1c5332b865c", "fusion_lon": 0.0, "lon": -77.0449375, "name": "254d423b9fe9cc36fb72b1c5332b865c", "is_disabled": 0, "rental_uris": {"android": "https://dc.lft.to/lastmile_qr_scan", "ios": "https://dc.lft.to/lastmile_qr_scan"}, "type": "electric_scooter", "lat": 38.90863516666667, "is_reserved": 0, "fusion_lat": 0.0}, {"bike_id": "e9005be32d58d9f793872c664333759f", "fusion_lon": 0.0, "lon": -77.0385535, "name": "e9005be32d58d9f793872c664333759f", "is_disabled": 0, "rental_uris": {"android": "https://dc.lft.to/lastmile_qr_scan", "ios": "https://dc.lft.to/lastmile_qr_scan"}, "type": "electric_scooter", "lat": 38.91017216666667, "is_reserved": 0, "fusion_lat": 0.0}, {"bike_id": "6c7a93678fbf4151339759571e187dab", "fusion_lon": 0.0, "lon": -76.94189416666667, "name": "6c7a93678fbf4151339759571e187dab", "is_disabled": 0, "rental_uris": {"android": "https://dc.lft.to/lastmile_qr_scan", "ios": "https://dc.lft.to/lastmile_qr_scan"}, "type": "electric_scooter", "lat": 38.89754816666667, "is_reserved": 0, "fusion_lat": 0.0}, {"bike_id": "5d6f294ccc08515c95ebf45ad8ad5559", "fusion_lon": 0.0, "lon": -77.03511666666667, "name": "5d6f294ccc08515c95ebf45ad8ad5559", "is_disabled": 0, "rental_uris": {"android": "https://dc.lft.to/lastmile_qr_scan", "ios": "https://dc.lft.to/lastmile_qr_scan"}, "type": "electric_scooter", "lat": 38.922220333333335, "is_reserved": 0, "fusion_lat": 0.0}, {"bike_id": "5bc0bf8dfdd9f78104f01cd90fbe0d10", "fusion_lon": 0.0, "lon": -77.001961, "name": "5bc0bf8dfdd9f78104f01cd90fbe0d10", "is_disabled": 0, "rental_uris": {"android": "https://dc.lft.to/lastmile_qr_scan", "ios": "https://dc.lft.to/lastmile_qr_scan"}, "type": "electric_scooter", "lat": 38.893433333333334, "is_reserved": 0, "fusion_lat": 0.0}, {"bike_id": "81348ea9041e7033ee36eb13d8ea79a6", "fusion_lon": 0.0, "lon": -76.9883975, "name": "81348ea9041e7033ee36eb13d8ea79a6", "is_disabled": 0, "rental_uris": {"android": "https://dc.lft.to/lastmile_qr_scan", "ios": "https://dc.lft.to/lastmile_qr_scan"}, "type": "electric_scooter", "lat": 38.90032566666667, "is_reserved": 0, "fusion_lat": 0.0}, {"bike_id": "a86456b691451aba26a120f85b46617c", "fusion_lon": 0.0, "lon": -76.99733133333334, "name": "a86456b691451aba26a120f85b46617c", "is_disabled": 0, "rental_uris": {"android": "https://dc.lft.to/lastmile_qr_scan", "ios": "https://dc.lft.to/lastmile_qr_scan"}, "type": "electric_scooter", "lat": 38.90127583333334, "is_reserved": 0, "fusion_lat": 0.0}, {"bike_id": "75e0a7c4203ed1eca7936567f4a0144e", "fusion_lon": 0.0, "lon": -77.03418683333334, "name": "75e0a7c4203ed1eca7936567f4a0144e", "is_disabled": 0, "rental_uris": {"android": "https://dc.lft.to/lastmile_qr_scan", "ios": "https://dc.lft.to/lastmile_qr_scan"}, "type": "electric_scooter", "lat": 38.922413666666664, "is_reserved": 0, "fusion_lat": 0.0}, {"bike_id": "d16f49bcae8ab8845637bcef359563c3", "fusion_lon": 0.0, "lon": -77.041889, "name": "d16f49bcae8ab8845637bcef359563c3", "is_disabled": 0, "rental_uris": {"android": "https://dc.lft.to/lastmile_qr_scan", "ios": "https://dc.lft.to/lastmile_qr_scan"}, "type": "electric_scooter", "lat": 38.89358633333333, "is_reserved": 0, "fusion_lat": 0.0}, {"bike_id": "6dd0f434d52dbb99c0c99ee7e3004640", "fusion_lon": 0.0, "lon": -77.03346833333333, "name": "6dd0f434d52dbb99c0c99ee7e3004640", "is_disabled": 0, "rental_uris": {"android": "https://dc.lft.to/lastmile_qr_scan", "ios": "https://dc.lft.to/lastmile_qr_scan"}, "type": "electric_scooter", "lat": 38.90719033333333, "is_reserved": 0, "fusion_lat": 0.0}, {"bike_id": "222a4d539b80e4207ea3412a68bf2f92", "fusion_lon": 0.0, "lon": -77.12021783333333, "name": "222a4d539b80e4207ea3412a68bf2f92", "is_disabled": 0, "rental_uris": {"android": "https://dc.lft.to/lastmile_qr_scan", "ios": "https://dc.lft.to/lastmile_qr_scan"}, "type": "electric_bike", "lat": 38.855199, "is_reserved": 0, "fusion_lat": 0.0}, {"bike_id": "d41365648329e293a4a131323bf273a8", "fusion_lon": 0.0, "lon": -77.07310866666667, "name": "d41365648329e293a4a131323bf273a8", "is_disabled": 0, "rental_uris": {"android": "https://dc.lft.to/lastmile_qr_scan", "ios": "https://dc.lft.to/lastmile_qr_scan"}, "type": "electric_scooter", "lat": 38.935701333333334, "is_reserved": 0, "fusion_lat": 0.0}, {"bike_id": "8f171825e47797af35ec90d94669c8e5", "fusion_lon": 0.0, "lon": -76.99527966666666, "name": "8f171825e47797af35ec90d94669c8e5", "is_disabled": 0, "rental_uris": {"android": "https://dc.lft.to/lastmile_qr_scan", "ios": "https://dc.lft.to/lastmile_qr_scan"}, "type": "electric_scooter", "lat": 38.86246366666666, "is_reserved": 0, "fusion_lat": 0.0}, {"bike_id": "627dd89fad3ee8fc442cfffc136c235c", "fusion_lon": 0.0, "lon": -77.0433635, "name": "627dd89fad3ee8fc442cfffc136c235c", "is_disabled": 0, "rental_uris": {"android": "https://dc.lft.to/lastmile_qr_scan", "ios": "https://dc.lft.to/lastmile_qr_scan"}, "type": "electric_scooter", "lat": 38.89524633333333, "is_reserved": 0, "fusion_lat": 0.0}, {"bike_id": "663a7136fa2e0c61f57f259bce5ecb31", "fusion_lon": 0.0, "lon": -77.08585883333333, "name": "663a7136fa2e0c61f57f259bce5ecb31", "is_disabled": 0, "rental_uris": {"android": "https://dc.lft.to/lastmile_qr_scan", "ios": "https://dc.lft.to/lastmile_qr_scan"}, "type": "electric_scooter", "lat": 38.908661333333335, "is_reserved": 0, "fusion_lat": 0.0}, {"bike_id": "daf0b4e57c0a7e2b336e9304f68042ed", "fusion_lon": 0.0, "lon": -76.9994445, "name": "daf0b4e57c0a7e2b336e9304f68042ed", "is_disabled": 0, "rental_uris": {"android": "https://dc.lft.to/lastmile_qr_scan", "ios": "https://dc.lft.to/lastmile_qr_scan"}, "type": "electric_scooter", "lat": 38.8429065, "is_reserved": 0, "fusion_lat": 0.0}, {"bike_id": "b0d59b53db78891d5bdd01ced6b93ee6", "fusion_lon": 0.0, "lon": -77.043991, "name": "b0d59b53db78891d5bdd01ced6b93ee6", "is_disabled": 0, "rental_uris": {"android": "https://dc.lft.to/lastmile_qr_scan", "ios": "https://dc.lft.to/lastmile_qr_scan"}, "type": "electric_scooter", "lat": 38.910878333333336, "is_reserved": 0, "fusion_lat": 0.0}, {"bike_id": "d3e208ca1e7a43cd087dff2b953d87b1", "fusion_lon": 0.0, "lon": -77.03184316666666, "name": "d3e208ca1e7a43cd087dff2b953d87b1", "is_disabled": 0, "rental_uris": {"android": "https://dc.lft.to/lastmile_qr_scan", "ios": "https://dc.lft.to/lastmile_qr_scan"}, "type": "electric_scooter", "lat": 38.924804333333334, "is_reserved": 0, "fusion_lat": 0.0}, {"bike_id": "f57ae2e4b1d8bf873633e05bad275fcd", "fusion_lon": 0.0, "lon": -76.964657, "name": "f57ae2e4b1d8bf873633e05bad275fcd", "is_disabled": 0, "rental_uris": {"android": "https://dc.lft.to/lastmile_qr_scan", "ios": "https://dc.lft.to/lastmile_qr_scan"}, "type": "electric_scooter", "lat": 38.934465833333334, "is_reserved": 0, "fusion_lat": 0.0}, {"bike_id": "d09341b67a7c4c838b149b9a68157d99", "fusion_lon": 0.0, "lon": -77.04744583333333, "name": "d09341b67a7c4c838b149b9a68157d99", "is_disabled": 0, "rental_uris": {"android": "https://dc.lft.to/lastmile_qr_scan", "ios": "https://dc.lft.to/lastmile_qr_scan"}, "type": "electric_scooter", "lat": 38.90521183333333, "is_reserved": 0, "fusion_lat": 0.0}, {"bike_id": "10638a05963603fbc87bda5c750c9290", "fusion_lon": 0.0, "lon": -77.04454316666667, "name": "10638a05963603fbc87bda5c750c9290", "is_disabled": 0, "rental_uris": {"android": "https://dc.lft.to/lastmile_qr_scan", "ios": "https://dc.lft.to/lastmile_qr_scan"}, "type": "electric_scooter", "lat": 38.911893, "is_reserved": 0, "fusion_lat": 0.0}, {"bike_id": "fdbaad49c8e65801c34570c0b206a128", "fusion_lon": 0.0, "lon": -76.950166, "name": "fdbaad49c8e65801c34570c0b206a128", "is_disabled": 0, "rental_uris": {"android": "https://dc.lft.to/lastmile_qr_scan", "ios": "https://dc.lft.to/lastmile_qr_scan"}, "type": "electric_scooter", "lat": 38.8938695, "is_reserved": 0, "fusion_lat": 0.0}, {"bike_id": "f16f10e8b24e4eaecc8bc6c3948d867f", "fusion_lon": 0.0, "lon": -77.02373966666667, "name": "f16f10e8b24e4eaecc8bc6c3948d867f", "is_disabled": 0, "rental_uris": {"android": "https://dc.lft.to/lastmile_qr_scan", "ios": "https://dc.lft.to/lastmile_qr_scan"}, "type": "electric_scooter", "lat": 38.879242833333336, "is_reserved": 0, "fusion_lat": 0.0}, {"bike_id": "a534c0b17a3dfca00d76965d0897df2a", "fusion_lon": 0.0, "lon": -77.024702, "name": "a534c0b17a3dfca00d76965d0897df2a", "is_disabled": 0, "rental_uris": {"android": "https://dc.lft.to/lastmile_qr_scan", "ios": "https://dc.lft.to/lastmile_qr_scan"}, "type": "electric_scooter", "lat": 38.90326916666667, "is_reserved": 0, "fusion_lat": 0.0}, {"bike_id": "92cb5696fb93411a3659a1428bfcd8be", "fusion_lon": 0.0, "lon": -76.99597566666667, "name": "92cb5696fb93411a3659a1428bfcd8be", "is_disabled": 0, "rental_uris": {"android": "https://dc.lft.to/lastmile_qr_scan", "ios": "https://dc.lft.to/lastmile_qr_scan"}, "type": "electric_bike", "lat": 38.9507185, "is_reserved": 0, "fusion_lat": 0.0}, {"bike_id": "e9d2849199a01dcdc8bf77ad80c080ef", "fusion_lon": 0.0, "lon": -77.02213383333333, "name": "e9d2849199a01dcdc8bf77ad80c080ef", "is_disabled": 0, "rental_uris": {"android": "https://dc.lft.to/lastmile_qr_scan", "ios": "https://dc.lft.to/lastmile_qr_scan"}, "type": "electric_scooter", "lat": 38.915629833333334, "is_reserved": 0, "fusion_lat": 0.0}, {"bike_id": "457aae82069babf857103a10ef5f53d9", "fusion_lon": 0.0, "lon": -77.02806716666667, "name": "457aae82069babf857103a10ef5f53d9", "is_disabled": 0, "rental_uris": {"android": "https://dc.lft.to/lastmile_qr_scan", "ios": "https://dc.lft.to/lastmile_qr_scan"}, "type": "electric_scooter", "lat": 38.91684266666667, "is_reserved": 0, "fusion_lat": 0.0}, {"bike_id": "aa60722f5efc9e492d90f1930a239eaa", "fusion_lon": 0.0, "lon": -77.03961816666667, "name": "aa60722f5efc9e492d90f1930a239eaa", "is_disabled": 0, "rental_uris": {"android": "https://dc.lft.to/lastmile_qr_scan", "ios": "https://dc.lft.to/lastmile_qr_scan"}, "type": "electric_scooter", "lat": 38.9061755, "is_reserved": 0, "fusion_lat": 0.0}, {"bike_id": "ab015e5fac0036b7ee29f63f707edfbb", "fusion_lon": 0.0, "lon": -77.03454283333333, "name": "ab015e5fac0036b7ee29f63f707edfbb", "is_disabled": 0, "rental_uris": {"android": "https://dc.lft.to/lastmile_qr_scan", "ios": "https://dc.lft.to/lastmile_qr_scan"}, "type": "electric_scooter", "lat": 38.907569333333335, "is_reserved": 0, "fusion_lat": 0.0}, {"bike_id": "5cff59b6c1eb775da3de0faf873d1280", "fusion_lon": 0.0, "lon": -77.03511316666666, "name": "5cff59b6c1eb775da3de0faf873d1280", "is_disabled": 0, "rental_uris": {"android": "https://dc.lft.to/lastmile_qr_scan", "ios": "https://dc.lft.to/lastmile_qr_scan"}, "type": "electric_scooter", "lat": 38.9262905, "is_reserved": 0, "fusion_lat": 0.0}, {"bike_id": "9d2cc21a218d67999e08da38ee692aa2", "fusion_lon": 0.0, "lon": -77.0180185, "name": "9d2cc21a218d67999e08da38ee692aa2", "is_disabled": 0, "rental_uris": {"android": "https://dc.lft.to/lastmile_qr_scan", "ios": "https://dc.lft.to/lastmile_qr_scan"}, "type": "electric_scooter", "lat": 38.9082005, "is_reserved": 0, "fusion_lat": 0.0}, {"bike_id": "a760edf40892886e7afbdff360123f72", "fusion_lon": 0.0, "lon": -77.016487, "name": "a760edf40892886e7afbdff360123f72", "is_disabled": 0, "rental_uris": {"android": "https://dc.lft.to/lastmile_qr_scan", "ios": "https://dc.lft.to/lastmile_qr_scan"}, "type": "electric_scooter", "lat": 38.915894, "is_reserved": 0, "fusion_lat": 0.0}, {"bike_id": "b08627581c7482286eb3e227febb09b9", "fusion_lon": 0.0, "lon": -77.03703116666667, "name": "b08627581c7482286eb3e227febb09b9", "is_disabled": 0, "rental_uris": {"android": "https://dc.lft.to/lastmile_qr_scan", "ios": "https://dc.lft.to/lastmile_qr_scan"}, "type": "electric_scooter", "lat": 38.92644666666666, "is_reserved": 0, "fusion_lat": 0.0}, {"bike_id": "6b7a7624d4a397f514f7a9f7183118b1", "fusion_lon": 0.0, "lon": -76.99088116666667, "name": "6b7a7624d4a397f514f7a9f7183118b1", "is_disabled": 0, "rental_uris": {"android": "https://dc.lft.to/lastmile_qr_scan", "ios": "https://dc.lft.to/lastmile_qr_scan"}, "type": "electric_scooter", "lat": 38.929539, "is_reserved": 0, "fusion_lat": 0.0}, {"bike_id": "6bf20849262e42004253496793e932a3", "fusion_lon": 0.0, "lon": -77.02585466666666, "name": "6bf20849262e42004253496793e932a3", "is_disabled": 0, "rental_uris": {"android": "https://dc.lft.to/lastmile_qr_scan", "ios": "https://dc.lft.to/lastmile_qr_scan"}, "type": "electric_scooter", "lat": 38.883523, "is_reserved": 0, "fusion_lat": 0.0}, {"bike_id": "c7a905cdd997c5fd72aa9d6a4acebfc1", "fusion_lon": 0.0, "lon": -77.02330566666667, "name": "c7a905cdd997c5fd72aa9d6a4acebfc1", "is_disabled": 0, "rental_uris": {"android": "https://dc.lft.to/lastmile_qr_scan", "ios": "https://dc.lft.to/lastmile_qr_scan"}, "type": "electric_scooter", "lat": 38.927134833333334, "is_reserved": 0, "fusion_lat": 0.0}, {"bike_id": "ca99f3dc2395ed6af5920aea2d137413", "fusion_lon": 0.0, "lon": -77.0279515, "name": "ca99f3dc2395ed6af5920aea2d137413", "is_disabled": 0, "rental_uris": {"android": "https://dc.lft.to/lastmile_qr_scan", "ios": "https://dc.lft.to/lastmile_qr_scan"}, "type": "electric_scooter", "lat": 38.9296925, "is_reserved": 0, "fusion_lat": 0.0}, {"bike_id": "1072b8124c0bcca14aab401ad663e2be", "fusion_lon": 0.0, "lon": -77.03471033333334, "name": "1072b8124c0bcca14aab401ad663e2be", "is_disabled": 0, "rental_uris": {"android": "https://dc.lft.to/lastmile_qr_scan", "ios": "https://dc.lft.to/lastmile_qr_scan"}, "type": "electric_scooter", "lat": 38.91708533333333, "is_reserved": 0, "fusion_lat": 0.0}, {"bike_id": "b061e326c63093aa5875f461dbafcdf6", "fusion_lon": 0.0, "lon": -77.0318185, "name": "b061e326c63093aa5875f461dbafcdf6", "is_disabled": 0, "rental_uris": {"android": "https://dc.lft.to/lastmile_qr_scan", "ios": "https://dc.lft.to/lastmile_qr_scan"}, "type": "electric_scooter", "lat": 38.919323, "is_reserved": 0, "fusion_lat": 0.0}, {"bike_id": "dbc7770206fa83fbcce51d39c87b36fc", "fusion_lon": 0.0, "lon": -76.99017633333334, "name": "dbc7770206fa83fbcce51d39c87b36fc", "is_disabled": 0, "rental_uris": {"android": "https://dc.lft.to/lastmile_qr_scan", "ios": "https://dc.lft.to/lastmile_qr_scan"}, "type": "electric_scooter", "lat": 38.905041833333335, "is_reserved": 0, "fusion_lat": 0.0}, {"bike_id": "62df8308960d8e0d067e1cdbc0b65e4e", "fusion_lon": 0.0, "lon": -76.9687375, "name": "62df8308960d8e0d067e1cdbc0b65e4e", "is_disabled": 0, "rental_uris": {"android": "https://dc.lft.to/lastmile_qr_scan", "ios": "https://dc.lft.to/lastmile_qr_scan"}, "type": "electric_scooter", "lat": 38.870904833333334, "is_reserved": 0, "fusion_lat": 0.0}, {"bike_id": "8453241775468ff573d6f7956ab203f7", "fusion_lon": 0.0, "lon": -77.04828283333333, "name": "8453241775468ff573d6f7956ab203f7", "is_disabled": 0, "rental_uris": {"android": "https://dc.lft.to/lastmile_qr_scan", "ios": "https://dc.lft.to/lastmile_qr_scan"}, "type": "electric_scooter", "lat": 38.888887833333335, "is_reserved": 0, "fusion_lat": 0.0}, {"bike_id": "4375f4317296216a63ca15a4c0a3b85d", "fusion_lon": 0.0, "lon": -77.03201166666666, "name": "4375f4317296216a63ca15a4c0a3b85d", "is_disabled": 0, "rental_uris": {"android": "https://dc.lft.to/lastmile_qr_scan", "ios": "https://dc.lft.to/lastmile_qr_scan"}, "type": "electric_scooter", "lat": 38.8996685, "is_reserved": 0, "fusion_lat": 0.0}, {"bike_id": "97dd05ed3e0e487346160529a4069a26", "fusion_lon": 0.0, "lon": -77.02708583333333, "name": "97dd05ed3e0e487346160529a4069a26", "is_disabled": 0, "rental_uris": {"android": "https://dc.lft.to/lastmile_qr_scan", "ios": "https://dc.lft.to/lastmile_qr_scan"}, "type": "electric_scooter", "lat": 38.90670733333333, "is_reserved": 0, "fusion_lat": 0.0}, {"bike_id": "ad37901325c8fd7a7f6c640d1884381d", "fusion_lon": 0.0, "lon": -77.03441483333333, "name": "ad37901325c8fd7a7f6c640d1884381d", "is_disabled": 0, "rental_uris": {"android": "https://dc.lft.to/lastmile_qr_scan", "ios": "https://dc.lft.to/lastmile_qr_scan"}, "type": "electric_scooter", "lat": 38.90432666666667, "is_reserved": 0, "fusion_lat": 0.0}, {"bike_id": "9332905612415b7af497516cb7d65cb6", "fusion_lon": 0.0, "lon": -77.036532, "name": "9332905612415b7af497516cb7d65cb6", "is_disabled": 0, "rental_uris": {"android": "https://dc.lft.to/lastmile_qr_scan", "ios": "https://dc.lft.to/lastmile_qr_scan"}, "type": "electric_scooter", "lat": 38.918698166666665, "is_reserved": 0, "fusion_lat": 0.0}, {"bike_id": "2b5732d352224223c82148331ce9871d", "fusion_lon": 0.0, "lon": -77.027814, "name": "2b5732d352224223c82148331ce9871d", "is_disabled": 0, "rental_uris": {"android": "https://dc.lft.to/lastmile_qr_scan", "ios": "https://dc.lft.to/lastmile_qr_scan"}, "type": "electric_scooter", "lat": 38.892189333333334, "is_reserved": 0, "fusion_lat": 0.0}, {"bike_id": "772dba351f4ac0dd1f6712ab1e72296d", "fusion_lon": 0.0, "lon": -77.023258, "name": "772dba351f4ac0dd1f6712ab1e72296d", "is_disabled": 0, "rental_uris": {"android": "https://dc.lft.to/lastmile_qr_scan", "ios": "https://dc.lft.to/lastmile_qr_scan"}, "type": "electric_scooter", "lat": 38.916483, "is_reserved": 0, "fusion_lat": 0.0}, {"bike_id": "5e0958ba43c18fa3cde35624c903083d", "fusion_lon": 0.0, "lon": -76.96604366666666, "name": "5e0958ba43c18fa3cde35624c903083d", "is_disabled": 0, "rental_uris": {"android": "https://dc.lft.to/lastmile_qr_scan", "ios": "https://dc.lft.to/lastmile_qr_scan"}, "type": "electric_scooter", "lat": 38.87387483333333, "is_reserved": 0, "fusion_lat": 0.0}, {"bike_id": "bf33767fd7701b37c52fa611123d0b21", "fusion_lon": 0.0, "lon": -76.93351033333333, "name": "bf33767fd7701b37c52fa611123d0b21", "is_disabled": 0, "rental_uris": {"android": "https://dc.lft.to/lastmile_qr_scan", "ios": "https://dc.lft.to/lastmile_qr_scan"}, "type": "electric_scooter", "lat": 38.8991035, "is_reserved": 0, "fusion_lat": 0.0}, {"bike_id": "57ac214fe1968626d2992333feab572b", "fusion_lon": 0.0, "lon": -77.00222933333333, "name": "57ac214fe1968626d2992333feab572b", "is_disabled": 0, "rental_uris": {"android": "https://dc.lft.to/lastmile_qr_scan", "ios": "https://dc.lft.to/lastmile_qr_scan"}, "type": "electric_scooter", "lat": 38.925088, "is_reserved": 0, "fusion_lat": 0.0}, {"bike_id": "d3ff8d9fe3ac4c87a1b9fa79d22aadbb", "fusion_lon": 0.0, "lon": -77.03088883333334, "name": "d3ff8d9fe3ac4c87a1b9fa79d22aadbb", "is_disabled": 0, "rental_uris": {"android": "https://dc.lft.to/lastmile_qr_scan", "ios": "https://dc.lft.to/lastmile_qr_scan"}, "type": "electric_scooter", "lat": 38.93756316666666, "is_reserved": 0, "fusion_lat": 0.0}, {"bike_id": "f39a14852efa772378c9694a4cb660ed", "fusion_lon": 0.0, "lon": -76.93645083333334, "name": "f39a14852efa772378c9694a4cb660ed", "is_disabled": 0, "rental_uris": {"android": "https://dc.lft.to/lastmile_qr_scan", "ios": "https://dc.lft.to/lastmile_qr_scan"}, "type": "electric_bike", "lat": 38.87151566666667, "is_reserved": 0, "fusion_lat": 0.0}, {"bike_id": "34985892388f52250171d8a9964259f4", "fusion_lon": 0.0, "lon": -77.04620516666667, "name": "34985892388f52250171d8a9964259f4", "is_disabled": 0, "rental_uris": {"android": "https://dc.lft.to/lastmile_qr_scan", "ios": "https://dc.lft.to/lastmile_qr_scan"}, "type": "electric_scooter", "lat": 38.919324, "is_reserved": 0, "fusion_lat": 0.0}, {"bike_id": "5b31beacb80402cfeb9e04c5758f8d5a", "fusion_lon": 0.0, "lon": -77.04186883333334, "name": "5b31beacb80402cfeb9e04c5758f8d5a", "is_disabled": 0, "rental_uris": {"android": "https://dc.lft.to/lastmile_qr_scan", "ios": "https://dc.lft.to/lastmile_qr_scan"}, "type": "electric_scooter", "lat": 38.903749, "is_reserved": 0, "fusion_lat": 0.0}, {"bike_id": "120deb6fcb4151af4b7a09d14b91eec8", "fusion_lon": 0.0, "lon": -77.00633666666667, "name": "120deb6fcb4151af4b7a09d14b91eec8", "is_disabled": 0, "rental_uris": {"android": "https://dc.lft.to/lastmile_qr_scan", "ios": "https://dc.lft.to/lastmile_qr_scan"}, "type": "electric_bike", "lat": 38.9483365, "is_reserved": 0, "fusion_lat": 0.0}, {"bike_id": "18319eb6d2f3a88feccd40b15f0ba05a", "fusion_lon": 0.0, "lon": -76.98365033333333, "name": "18319eb6d2f3a88feccd40b15f0ba05a", "is_disabled": 0, "rental_uris": {"android": "https://dc.lft.to/lastmile_qr_scan", "ios": "https://dc.lft.to/lastmile_qr_scan"}, "type": "electric_scooter", "lat": 38.88589016666667, "is_reserved": 0, "fusion_lat": 0.0}, {"bike_id": "b6259731c91e466ca482bbe4113c016f", "fusion_lon": 0.0, "lon": -77.0335085, "name": "b6259731c91e466ca482bbe4113c016f", "is_disabled": 0, "rental_uris": {"android": "https://dc.lft.to/lastmile_qr_scan", "ios": "https://dc.lft.to/lastmile_qr_scan"}, "type": "electric_scooter", "lat": 38.928777333333336, "is_reserved": 0, "fusion_lat": 0.0}, {"bike_id": "8cae456bc560bf1826c5c2397cf5f833", "fusion_lon": 0.0, "lon": -77.0416475, "name": "8cae456bc560bf1826c5c2397cf5f833", "is_disabled": 0, "rental_uris": {"android": "https://dc.lft.to/lastmile_qr_scan", "ios": "https://dc.lft.to/lastmile_qr_scan"}, "type": "electric_scooter", "lat": 38.90439333333333, "is_reserved": 0, "fusion_lat": 0.0}, {"bike_id": "327a3fd81a86269d9c335b56fe08ef5a", "fusion_lon": 0.0, "lon": -77.04741116666666, "name": "327a3fd81a86269d9c335b56fe08ef5a", "is_disabled": 0, "rental_uris": {"android": "https://dc.lft.to/lastmile_qr_scan", "ios": "https://dc.lft.to/lastmile_qr_scan"}, "type": "electric_scooter", "lat": 38.9054415, "is_reserved": 0, "fusion_lat": 0.0}, {"bike_id": "c5685035186817bb9e6cb63305e63bea", "fusion_lon": 0.0, "lon": -77.03842233333333, "name": "c5685035186817bb9e6cb63305e63bea", "is_disabled": 0, "rental_uris": {"android": "https://dc.lft.to/lastmile_qr_scan", "ios": "https://dc.lft.to/lastmile_qr_scan"}, "type": "electric_scooter", "lat": 38.893247833333334, "is_reserved": 0, "fusion_lat": 0.0}, {"bike_id": "584ab63b0f5f544eb2f2b77cd0ce6d71", "fusion_lon": 0.0, "lon": -77.05124083333334, "name": "584ab63b0f5f544eb2f2b77cd0ce6d71", "is_disabled": 0, "rental_uris": {"android": "https://dc.lft.to/lastmile_qr_scan", "ios": "https://dc.lft.to/lastmile_qr_scan"}, "type": "electric_scooter", "lat": 38.923428, "is_reserved": 0, "fusion_lat": 0.0}, {"bike_id": "fcc56a3039987d33e15e3b29fe737951", "fusion_lon": 0.0, "lon": -77.03439516666667, "name": "fcc56a3039987d33e15e3b29fe737951", "is_disabled": 0, "rental_uris": {"android": "https://dc.lft.to/lastmile_qr_scan", "ios": "https://dc.lft.to/lastmile_qr_scan"}, "type": "electric_scooter", "lat": 38.934365666666665, "is_reserved": 0, "fusion_lat": 0.0}, {"bike_id": "14dfb976c44d0f7fd7ed5aef41db7920", "fusion_lon": 0.0, "lon": -77.019573, "name": "14dfb976c44d0f7fd7ed5aef41db7920", "is_disabled": 0, "rental_uris": {"android": "https://dc.lft.to/lastmile_qr_scan", "ios": "https://dc.lft.to/lastmile_qr_scan"}, "type": "electric_scooter", "lat": 38.92253916666667, "is_reserved": 0, "fusion_lat": 0.0}, {"bike_id": "425bd3bb18654eef31d1509fe24a3766", "fusion_lon": 0.0, "lon": -77.02795433333333, "name": "425bd3bb18654eef31d1509fe24a3766", "is_disabled": 0, "rental_uris": {"android": "https://dc.lft.to/lastmile_qr_scan", "ios": "https://dc.lft.to/lastmile_qr_scan"}, "type": "electric_scooter", "lat": 38.95415283333333, "is_reserved": 0, "fusion_lat": 0.0}, {"bike_id": "88955410a4f9c0bd909b116fb3aa394f", "fusion_lon": 0.0, "lon": -77.0219465, "name": "88955410a4f9c0bd909b116fb3aa394f", "is_disabled": 0, "rental_uris": {"android": "https://dc.lft.to/lastmile_qr_scan", "ios": "https://dc.lft.to/lastmile_qr_scan"}, "type": "electric_scooter", "lat": 38.89541216666667, "is_reserved": 0, "fusion_lat": 0.0}, {"bike_id": "82d49b4e2079c000fbc325f172f094b5", "fusion_lon": 0.0, "lon": -76.96502233333334, "name": "82d49b4e2079c000fbc325f172f094b5", "is_disabled": 0, "rental_uris": {"android": "https://dc.lft.to/lastmile_qr_scan", "ios": "https://dc.lft.to/lastmile_qr_scan"}, "type": "electric_bike", "lat": 38.875549666666664, "is_reserved": 0, "fusion_lat": 0.0}, {"bike_id": "1250ae9c2dae6ba6630f9e09e9ecf266", "fusion_lon": 0.0, "lon": -77.0386105, "name": "1250ae9c2dae6ba6630f9e09e9ecf266", "is_disabled": 0, "rental_uris": {"android": "https://dc.lft.to/lastmile_qr_scan", "ios": "https://dc.lft.to/lastmile_qr_scan"}, "type": "electric_scooter", "lat": 38.90782866666667, "is_reserved": 0, "fusion_lat": 0.0}, {"bike_id": "2a8823f66ea88d4e9b068a12acff444b", "fusion_lon": 0.0, "lon": -77.06214216666666, "name": "2a8823f66ea88d4e9b068a12acff444b", "is_disabled": 0, "rental_uris": {"android": "https://dc.lft.to/lastmile_qr_scan", "ios": "https://dc.lft.to/lastmile_qr_scan"}, "type": "electric_bike", "lat": 38.9203475, "is_reserved": 0, "fusion_lat": 0.0}, {"bike_id": "d99426ad2805d03face3b2b58ef63e1f", "fusion_lon": 0.0, "lon": -77.0357005, "name": "d99426ad2805d03face3b2b58ef63e1f", "is_disabled": 0, "rental_uris": {"android": "https://dc.lft.to/lastmile_qr_scan", "ios": "https://dc.lft.to/lastmile_qr_scan"}, "type": "electric_scooter", "lat": 38.92324716666667, "is_reserved": 0, "fusion_lat": 0.0}, {"bike_id": "f34a4e0f74c7739e16c464eea66189e3", "fusion_lon": 0.0, "lon": -77.05050883333334, "name": "f34a4e0f74c7739e16c464eea66189e3", "is_disabled": 0, "rental_uris": {"android": "https://dc.lft.to/lastmile_qr_scan", "ios": "https://dc.lft.to/lastmile_qr_scan"}, "type": "electric_scooter", "lat": 38.9234465, "is_reserved": 0, "fusion_lat": 0.0}, {"bike_id": "1baa911a1772de53c22c24f782ffb54f", "fusion_lon": 0.0, "lon": -77.0394235, "name": "1baa911a1772de53c22c24f782ffb54f", "is_disabled": 0, "rental_uris": {"android": "https://dc.lft.to/lastmile_qr_scan", "ios": "https://dc.lft.to/lastmile_qr_scan"}, "type": "electric_scooter", "lat": 38.9080975, "is_reserved": 0, "fusion_lat": 0.0}, {"bike_id": "f5e12e71ec07a57cb43a4057b3bad411", "fusion_lon": 0.0, "lon": -77.0318475, "name": "f5e12e71ec07a57cb43a4057b3bad411", "is_disabled": 0, "rental_uris": {"android": "https://dc.lft.to/lastmile_qr_scan", "ios": "https://dc.lft.to/lastmile_qr_scan"}, "type": "electric_scooter", "lat": 38.913476333333335, "is_reserved": 0, "fusion_lat": 0.0}, {"bike_id": "f8b4fbf523574d65f30e46203ad792f0", "fusion_lon": 0.0, "lon": -77.0175905, "name": "f8b4fbf523574d65f30e46203ad792f0", "is_disabled": 0, "rental_uris": {"android": "https://dc.lft.to/lastmile_qr_scan", "ios": "https://dc.lft.to/lastmile_qr_scan"}, "type": "electric_scooter", "lat": 38.878573, "is_reserved": 0, "fusion_lat": 0.0}, {"bike_id": "43c38d2ce2ed5b167c497f56f0481c23", "fusion_lon": 0.0, "lon": -76.97740133333333, "name": "43c38d2ce2ed5b167c497f56f0481c23", "is_disabled": 0, "rental_uris": {"android": "https://dc.lft.to/lastmile_qr_scan", "ios": "https://dc.lft.to/lastmile_qr_scan"}, "type": "electric_scooter", "lat": 38.868324666666666, "is_reserved": 0, "fusion_lat": 0.0}, {"bike_id": "d0b29108481164fe525b5de122fee72b", "fusion_lon": 0.0, "lon": -77.01763433333333, "name": "d0b29108481164fe525b5de122fee72b", "is_disabled": 0, "rental_uris": {"android": "https://dc.lft.to/lastmile_qr_scan", "ios": "https://dc.lft.to/lastmile_qr_scan"}, "type": "electric_scooter", "lat": 38.917354833333334, "is_reserved": 0, "fusion_lat": 0.0}, {"bike_id": "459ee9b3087bc5f5c6c25ac45097e770", "fusion_lon": 0.0, "lon": -77.02694766666667, "name": "459ee9b3087bc5f5c6c25ac45097e770", "is_disabled": 0, "rental_uris": {"android": "https://dc.lft.to/lastmile_qr_scan", "ios": "https://dc.lft.to/lastmile_qr_scan"}, "type": "electric_scooter", "lat": 38.91136483333333, "is_reserved": 0, "fusion_lat": 0.0}, {"bike_id": "75e5a0a98c24dc95a04593cb1fecb2d3", "fusion_lon": 0.0, "lon": -77.02718, "name": "75e5a0a98c24dc95a04593cb1fecb2d3", "is_disabled": 0, "rental_uris": {"android": "https://dc.lft.to/lastmile_qr_scan", "ios": "https://dc.lft.to/lastmile_qr_scan"}, "type": "electric_scooter", "lat": 38.909553333333335, "is_reserved": 0, "fusion_lat": 0.0}, {"bike_id": "eff2a725aebc223f45b59e5f8e579833", "fusion_lon": 0.0, "lon": -77.0297855, "name": "eff2a725aebc223f45b59e5f8e579833", "is_disabled": 0, "rental_uris": {"android": "https://dc.lft.to/lastmile_qr_scan", "ios": "https://dc.lft.to/lastmile_qr_scan"}, "type": "electric_scooter", "lat": 38.9519495, "is_reserved": 0, "fusion_lat": 0.0}, {"bike_id": "5b65fc330d925995bdddb8f4800b60a0", "fusion_lon": 0.0, "lon": -77.023768, "name": "5b65fc330d925995bdddb8f4800b60a0", "is_disabled": 0, "rental_uris": {"android": "https://dc.lft.to/lastmile_qr_scan", "ios": "https://dc.lft.to/lastmile_qr_scan"}, "type": "electric_scooter", "lat": 38.90200816666667, "is_reserved": 0, "fusion_lat": 0.0}, {"bike_id": "443bacc842a9a6386c8abacf5c327521", "fusion_lon": 0.0, "lon": -77.1252695, "name": "443bacc842a9a6386c8abacf5c327521", "is_disabled": 0, "rental_uris": {"android": "https://dc.lft.to/lastmile_qr_scan", "ios": "https://dc.lft.to/lastmile_qr_scan"}, "type": "electric_bike", "lat": 39.0563245, "is_reserved": 0, "fusion_lat": 0.0}, {"bike_id": "728102910756dde39523cd1112714b35", "fusion_lon": 0.0, "lon": -77.0467665, "name": "728102910756dde39523cd1112714b35", "is_disabled": 0, "rental_uris": {"android": "https://dc.lft.to/lastmile_qr_scan", "ios": "https://dc.lft.to/lastmile_qr_scan"}, "type": "electric_scooter", "lat": 38.905907166666665, "is_reserved": 0, "fusion_lat": 0.0}, {"bike_id": "cd9fdb6d0d54324b3544b080a9a86f07", "fusion_lon": 0.0, "lon": -77.03703183333333, "name": "cd9fdb6d0d54324b3544b080a9a86f07", "is_disabled": 0, "rental_uris": {"android": "https://dc.lft.to/lastmile_qr_scan", "ios": "https://dc.lft.to/lastmile_qr_scan"}, "type": "electric_scooter", "lat": 38.926465, "is_reserved": 0, "fusion_lat": 0.0}, {"bike_id": "a4ace9fb1b5461b47c78969ebb78d0cd", "fusion_lon": 0.0, "lon": -76.99501483333333, "name": "a4ace9fb1b5461b47c78969ebb78d0cd", "is_disabled": 0, "rental_uris": {"android": "https://dc.lft.to/lastmile_qr_scan", "ios": "https://dc.lft.to/lastmile_qr_scan"}, "type": "electric_scooter", "lat": 38.898991333333335, "is_reserved": 0, "fusion_lat": 0.0}, {"bike_id": "a74f1c48fa98542664c5f43cfc22e4a3", "fusion_lon": 0.0, "lon": -76.98838216666667, "name": "a74f1c48fa98542664c5f43cfc22e4a3", "is_disabled": 0, "rental_uris": {"android": "https://dc.lft.to/lastmile_qr_scan", "ios": "https://dc.lft.to/lastmile_qr_scan"}, "type": "electric_scooter", "lat": 38.9003635, "is_reserved": 0, "fusion_lat": 0.0}, {"bike_id": "fe1dc42061f8bfa1734bd34e077dda3d", "fusion_lon": 0.0, "lon": -76.9972885, "name": "fe1dc42061f8bfa1734bd34e077dda3d", "is_disabled": 0, "rental_uris": {"android": "https://dc.lft.to/lastmile_qr_scan", "ios": "https://dc.lft.to/lastmile_qr_scan"}, "type": "electric_scooter", "lat": 38.9079485, "is_reserved": 0, "fusion_lat": 0.0}, {"bike_id": "4dd2f87e9a0165d946c4052f2d5541e0", "fusion_lon": 0.0, "lon": -77.02591533333333, "name": "4dd2f87e9a0165d946c4052f2d5541e0", "is_disabled": 0, "rental_uris": {"android": "https://dc.lft.to/lastmile_qr_scan", "ios": "https://dc.lft.to/lastmile_qr_scan"}, "type": "electric_scooter", "lat": 38.963930833333336, "is_reserved": 0, "fusion_lat": 0.0}, {"bike_id": "b0135d2d9348bfa7cd11cc939d102426", "fusion_lon": 0.0, "lon": -77.03473066666666, "name": "b0135d2d9348bfa7cd11cc939d102426", "is_disabled": 0, "rental_uris": {"android": "https://dc.lft.to/lastmile_qr_scan", "ios": "https://dc.lft.to/lastmile_qr_scan"}, "type": "electric_scooter", "lat": 38.90275466666667, "is_reserved": 0, "fusion_lat": 0.0}, {"bike_id": "a96ecd621b380b37a4b4669df11130d1", "fusion_lon": 0.0, "lon": -77.02090566666666, "name": "a96ecd621b380b37a4b4669df11130d1", "is_disabled": 0, "rental_uris": {"android": "https://dc.lft.to/lastmile_qr_scan", "ios": "https://dc.lft.to/lastmile_qr_scan"}, "type": "electric_scooter", "lat": 38.9271, "is_reserved": 0, "fusion_lat": 0.0}, {"bike_id": "797d3c31609e4faf11a7b7e5154399e5", "fusion_lon": 0.0, "lon": -77.038403, "name": "797d3c31609e4faf11a7b7e5154399e5", "is_disabled": 0, "rental_uris": {"android": "https://dc.lft.to/lastmile_qr_scan", "ios": "https://dc.lft.to/lastmile_qr_scan"}, "type": "electric_scooter", "lat": 38.9156965, "is_reserved": 0, "fusion_lat": 0.0}, {"bike_id": "e8849e49ded28465a48b741a5bd369bb", "fusion_lon": 0.0, "lon": -76.9463925, "name": "e8849e49ded28465a48b741a5bd369bb", "is_disabled": 0, "rental_uris": {"android": "https://dc.lft.to/lastmile_qr_scan", "ios": "https://dc.lft.to/lastmile_qr_scan"}, "type": "electric_scooter", "lat": 38.898418666666664, "is_reserved": 0, "fusion_lat": 0.0}, {"bike_id": "31b09b6d7db9614bf8731f76f69d063b", "fusion_lon": 0.0, "lon": -76.9860985, "name": "31b09b6d7db9614bf8731f76f69d063b", "is_disabled": 0, "rental_uris": {"android": "https://dc.lft.to/lastmile_qr_scan", "ios": "https://dc.lft.to/lastmile_qr_scan"}, "type": "electric_scooter", "lat": 38.865259333333334, "is_reserved": 0, "fusion_lat": 0.0}, {"bike_id": "1d87e372a3fb1894b0d8721e9d904826", "fusion_lon": 0.0, "lon": -77.03959616666667, "name": "1d87e372a3fb1894b0d8721e9d904826", "is_disabled": 0, "rental_uris": {"android": "https://dc.lft.to/lastmile_qr_scan", "ios": "https://dc.lft.to/lastmile_qr_scan"}, "type": "electric_scooter", "lat": 38.908216833333334, "is_reserved": 0, "fusion_lat": 0.0}, {"bike_id": "180e9a546dde27feb50419a0ab084274", "fusion_lon": 0.0, "lon": -76.99943983333333, "name": "180e9a546dde27feb50419a0ab084274", "is_disabled": 0, "rental_uris": {"android": "https://dc.lft.to/lastmile_qr_scan", "ios": "https://dc.lft.to/lastmile_qr_scan"}, "type": "electric_scooter", "lat": 38.84295316666667, "is_reserved": 0, "fusion_lat": 0.0}, {"bike_id": "b46ab7862be15aea235963f17cda42ae", "fusion_lon": 0.0, "lon": -77.04187533333334, "name": "b46ab7862be15aea235963f17cda42ae", "is_disabled": 0, "rental_uris": {"android": "https://dc.lft.to/lastmile_qr_scan", "ios": "https://dc.lft.to/lastmile_qr_scan"}, "type": "electric_scooter", "lat": 38.926216, "is_reserved": 0, "fusion_lat": 0.0}, {"bike_id": "843b49a3fd8e4f472786921b317b5c07", "fusion_lon": 0.0, "lon": -77.03442716666666, "name": "843b49a3fd8e4f472786921b317b5c07", "is_disabled": 0, "rental_uris": {"android": "https://dc.lft.to/lastmile_qr_scan", "ios": "https://dc.lft.to/lastmile_qr_scan"}, "type": "electric_scooter", "lat": 38.904312166666664, "is_reserved": 0, "fusion_lat": 0.0}, {"bike_id": "29f5924cffc1aaa360a09fcebd5e78c2", "fusion_lon": 0.0, "lon": -77.03260133333333, "name": "29f5924cffc1aaa360a09fcebd5e78c2", "is_disabled": 0, "rental_uris": {"android": "https://dc.lft.to/lastmile_qr_scan", "ios": "https://dc.lft.to/lastmile_qr_scan"}, "type": "electric_scooter", "lat": 38.91403566666666, "is_reserved": 0, "fusion_lat": 0.0}, {"bike_id": "f0847f858d2a8d5a52bd2ba9d86f70f1", "fusion_lon": 0.0, "lon": -77.0513385, "name": "f0847f858d2a8d5a52bd2ba9d86f70f1", "is_disabled": 0, "rental_uris": {"android": "https://dc.lft.to/lastmile_qr_scan", "ios": "https://dc.lft.to/lastmile_qr_scan"}, "type": "electric_scooter", "lat": 38.905605666666666, "is_reserved": 0, "fusion_lat": 0.0}, {"bike_id": "6da5fca339b326c1db69df2ff2f65395", "fusion_lon": 0.0, "lon": -77.02399533333333, "name": "6da5fca339b326c1db69df2ff2f65395", "is_disabled": 0, "rental_uris": {"android": "https://dc.lft.to/lastmile_qr_scan", "ios": "https://dc.lft.to/lastmile_qr_scan"}, "type": "electric_scooter", "lat": 38.897187, "is_reserved": 0, "fusion_lat": 0.0}, {"bike_id": "ecd16910c8f30bd4b0d252e09fb3d7c5", "fusion_lon": 0.0, "lon": -77.02002033333333, "name": "ecd16910c8f30bd4b0d252e09fb3d7c5", "is_disabled": 0, "rental_uris": {"android": "https://dc.lft.to/lastmile_qr_scan", "ios": "https://dc.lft.to/lastmile_qr_scan"}, "type": "electric_scooter", "lat": 38.9130885, "is_reserved": 0, "fusion_lat": 0.0}, {"bike_id": "dee24dbb3d99b9b807506718b0e776ce", "fusion_lon": 0.0, "lon": -77.0034195, "name": "dee24dbb3d99b9b807506718b0e776ce", "is_disabled": 0, "rental_uris": {"android": "https://dc.lft.to/lastmile_qr_scan", "ios": "https://dc.lft.to/lastmile_qr_scan"}, "type": "electric_scooter", "lat": 38.891881833333336, "is_reserved": 0, "fusion_lat": 0.0}, {"bike_id": "d157c1432918ac96ddb51cef79647269", "fusion_lon": 0.0, "lon": -77.054156, "name": "d157c1432918ac96ddb51cef79647269", "is_disabled": 0, "rental_uris": {"android": "https://dc.lft.to/lastmile_qr_scan", "ios": "https://dc.lft.to/lastmile_qr_scan"}, "type": "electric_scooter", "lat": 38.902641833333334, "is_reserved": 0, "fusion_lat": 0.0}, {"bike_id": "aabddffb48e8b754917e58714a47213b", "fusion_lon": 0.0, "lon": -77.029485, "name": "aabddffb48e8b754917e58714a47213b", "is_disabled": 0, "rental_uris": {"android": "https://dc.lft.to/lastmile_qr_scan", "ios": "https://dc.lft.to/lastmile_qr_scan"}, "type": "electric_scooter", "lat": 38.89871616666667, "is_reserved": 0, "fusion_lat": 0.0}, {"bike_id": "9f21f8969a29f2dd8baf30f228a37560", "fusion_lon": 0.0, "lon": -77.02432683333333, "name": "9f21f8969a29f2dd8baf30f228a37560", "is_disabled": 0, "rental_uris": {"android": "https://dc.lft.to/lastmile_qr_scan", "ios": "https://dc.lft.to/lastmile_qr_scan"}, "type": "electric_scooter", "lat": 38.927446, "is_reserved": 0, "fusion_lat": 0.0}, {"bike_id": "add56550efc3513e2b85eb2aa7b2f0f6", "fusion_lon": 0.0, "lon": -77.0219025, "name": "add56550efc3513e2b85eb2aa7b2f0f6", "is_disabled": 0, "rental_uris": {"android": "https://dc.lft.to/lastmile_qr_scan", "ios": "https://dc.lft.to/lastmile_qr_scan"}, "type": "electric_scooter", "lat": 38.911436333333334, "is_reserved": 0, "fusion_lat": 0.0}, {"bike_id": "6d98b328c570eda6018760f0990d0ba8", "fusion_lon": 0.0, "lon": -76.99412033333333, "name": "6d98b328c570eda6018760f0990d0ba8", "is_disabled": 0, "rental_uris": {"android": "https://dc.lft.to/lastmile_qr_scan", "ios": "https://dc.lft.to/lastmile_qr_scan"}, "type": "electric_scooter", "lat": 38.87782416666667, "is_reserved": 0, "fusion_lat": 0.0}, {"bike_id": "5600d23a2332510bddd071b3f03b4108", "fusion_lon": 0.0, "lon": -76.91161933333333, "name": "5600d23a2332510bddd071b3f03b4108", "is_disabled": 0, "rental_uris": {"android": "https://dc.lft.to/lastmile_qr_scan", "ios": "https://dc.lft.to/lastmile_qr_scan"}, "type": "electric_scooter", "lat": 38.89427516666667, "is_reserved": 0, "fusion_lat": 0.0}, {"bike_id": "3acb2ccc6e8d00f8c1f27ca4a56970f1", "fusion_lon": 0.0, "lon": -76.98112583333334, "name": "3acb2ccc6e8d00f8c1f27ca4a56970f1", "is_disabled": 0, "rental_uris": {"android": "https://dc.lft.to/lastmile_qr_scan", "ios": "https://dc.lft.to/lastmile_qr_scan"}, "type": "electric_bike", "lat": 38.91473416666667, "is_reserved": 0, "fusion_lat": 0.0}, {"bike_id": "34fe52b02380fa4c30bf9dfc32737b48", "fusion_lon": 0.0, "lon": -77.02586316666667, "name": "34fe52b02380fa4c30bf9dfc32737b48", "is_disabled": 0, "rental_uris": {"android": "https://dc.lft.to/lastmile_qr_scan", "ios": "https://dc.lft.to/lastmile_qr_scan"}, "type": "electric_scooter", "lat": 38.88343966666667, "is_reserved": 0, "fusion_lat": 0.0}, {"bike_id": "f2f8980d624c141d5fe567bd51154bca", "fusion_lon": 0.0, "lon": -76.94633783333333, "name": "f2f8980d624c141d5fe567bd51154bca", "is_disabled": 0, "rental_uris": {"android": "https://dc.lft.to/lastmile_qr_scan", "ios": "https://dc.lft.to/lastmile_qr_scan"}, "type": "electric_scooter", "lat": 38.89843183333333, "is_reserved": 0, "fusion_lat": 0.0}, {"bike_id": "9f245c4fba530f08fb6fcf7103b6f820", "fusion_lon": 0.0, "lon": -77.04181816666667, "name": "9f245c4fba530f08fb6fcf7103b6f820", "is_disabled": 0, "rental_uris": {"android": "https://dc.lft.to/lastmile_qr_scan", "ios": "https://dc.lft.to/lastmile_qr_scan"}, "type": "electric_scooter", "lat": 38.905751, "is_reserved": 0, "fusion_lat": 0.0}, {"bike_id": "cfb85321163d5182e6cd5057f4625eaa", "fusion_lon": 0.0, "lon": -77.0439905, "name": "cfb85321163d5182e6cd5057f4625eaa", "is_disabled": 0, "rental_uris": {"android": "https://dc.lft.to/lastmile_qr_scan", "ios": "https://dc.lft.to/lastmile_qr_scan"}, "type": "electric_scooter", "lat": 38.92069516666667, "is_reserved": 0, "fusion_lat": 0.0}, {"bike_id": "57f2937e73a77abceae3f62d73d5e53d", "fusion_lon": 0.0, "lon": -77.03284, "name": "57f2937e73a77abceae3f62d73d5e53d", "is_disabled": 0, "rental_uris": {"android": "https://dc.lft.to/lastmile_qr_scan", "ios": "https://dc.lft.to/lastmile_qr_scan"}, "type": "electric_scooter", "lat": 38.92934066666667, "is_reserved": 0, "fusion_lat": 0.0}, {"bike_id": "7b6af8b490a6a16650ad1338fe79eb0b", "fusion_lon": 0.0, "lon": -77.04336733333334, "name": "7b6af8b490a6a16650ad1338fe79eb0b", "is_disabled": 0, "rental_uris": {"android": "https://dc.lft.to/lastmile_qr_scan", "ios": "https://dc.lft.to/lastmile_qr_scan"}, "type": "electric_scooter", "lat": 38.903367833333334, "is_reserved": 0, "fusion_lat": 0.0}, {"bike_id": "6ecd1936b395edda053e861e3bff7bb0", "fusion_lon": 0.0, "lon": -77.01779616666667, "name": "6ecd1936b395edda053e861e3bff7bb0", "is_disabled": 0, "rental_uris": {"android": "https://dc.lft.to/lastmile_qr_scan", "ios": "https://dc.lft.to/lastmile_qr_scan"}, "type": "electric_scooter", "lat": 38.90780783333334, "is_reserved": 0, "fusion_lat": 0.0}, {"bike_id": "6c335831a3d061115bf845618acb8091", "fusion_lon": 0.0, "lon": -77.02476016666667, "name": "6c335831a3d061115bf845618acb8091", "is_disabled": 0, "rental_uris": {"android": "https://dc.lft.to/lastmile_qr_scan", "ios": "https://dc.lft.to/lastmile_qr_scan"}, "type": "electric_scooter", "lat": 38.91815716666667, "is_reserved": 0, "fusion_lat": 0.0}, {"bike_id": "b50a01b534311ad16efecadd613916f4", "fusion_lon": 0.0, "lon": -76.95186116666666, "name": "b50a01b534311ad16efecadd613916f4", "is_disabled": 0, "rental_uris": {"android": "https://dc.lft.to/lastmile_qr_scan", "ios": "https://dc.lft.to/lastmile_qr_scan"}, "type": "electric_scooter", "lat": 38.9073885, "is_reserved": 0, "fusion_lat": 0.0}, {"bike_id": "960c87d1f62677ca4027b079c57da58a", "fusion_lon": 0.0, "lon": -77.035621, "name": "960c87d1f62677ca4027b079c57da58a", "is_disabled": 0, "rental_uris": {"android": "https://dc.lft.to/lastmile_qr_scan", "ios": "https://dc.lft.to/lastmile_qr_scan"}, "type": "electric_scooter", "lat": 38.90840566666667, "is_reserved": 0, "fusion_lat": 0.0}, {"bike_id": "653f57dc84aa35dee23b091447a13b2a", "fusion_lon": 0.0, "lon": -77.02358783333334, "name": "653f57dc84aa35dee23b091447a13b2a", "is_disabled": 0, "rental_uris": {"android": "https://dc.lft.to/lastmile_qr_scan", "ios": "https://dc.lft.to/lastmile_qr_scan"}, "type": "electric_scooter", "lat": 38.92511916666667, "is_reserved": 0, "fusion_lat": 0.0}, {"bike_id": "7e3b5f90080c6187849bf9ef3adae42f", "fusion_lon": 0.0, "lon": -77.08189533333334, "name": "7e3b5f90080c6187849bf9ef3adae42f", "is_disabled": 0, "rental_uris": {"android": "https://dc.lft.to/lastmile_qr_scan", "ios": "https://dc.lft.to/lastmile_qr_scan"}, "type": "electric_bike", "lat": 38.855656, "is_reserved": 0, "fusion_lat": 0.0}, {"bike_id": "a758c51d2853cc36765708610a048644", "fusion_lon": 0.0, "lon": -77.00569433333334, "name": "a758c51d2853cc36765708610a048644", "is_disabled": 0, "rental_uris": {"android": "https://dc.lft.to/lastmile_qr_scan", "ios": "https://dc.lft.to/lastmile_qr_scan"}, "type": "electric_scooter", "lat": 38.88500633333334, "is_reserved": 0, "fusion_lat": 0.0}, {"bike_id": "47cb5784ef29bf60a85395d7c7576cce", "fusion_lon": 0.0, "lon": -77.03985116666666, "name": "47cb5784ef29bf60a85395d7c7576cce", "is_disabled": 0, "rental_uris": {"android": "https://dc.lft.to/lastmile_qr_scan", "ios": "https://dc.lft.to/lastmile_qr_scan"}, "type": "electric_bike", "lat": 38.933267, "is_reserved": 0, "fusion_lat": 0.0}, {"bike_id": "b7ae4e875514f6f81da30c95373b4ad2", "fusion_lon": 0.0, "lon": -76.9373255, "name": "b7ae4e875514f6f81da30c95373b4ad2", "is_disabled": 0, "rental_uris": {"android": "https://dc.lft.to/lastmile_qr_scan", "ios": "https://dc.lft.to/lastmile_qr_scan"}, "type": "electric_scooter", "lat": 38.89014383333333, "is_reserved": 0, "fusion_lat": 0.0}, {"bike_id": "98a34f5cd4fbe37ac5bc1ca205c6f918", "fusion_lon": 0.0, "lon": -76.9897745, "name": "98a34f5cd4fbe37ac5bc1ca205c6f918", "is_disabled": 0, "rental_uris": {"android": "https://dc.lft.to/lastmile_qr_scan", "ios": "https://dc.lft.to/lastmile_qr_scan"}, "type": "electric_scooter", "lat": 38.86510633333333, "is_reserved": 0, "fusion_lat": 0.0}, {"bike_id": "cba344f0396a62afd056314854f44ed3", "fusion_lon": 0.0, "lon": -77.00131716666667, "name": "cba344f0396a62afd056314854f44ed3", "is_disabled": 0, "rental_uris": {"android": "https://dc.lft.to/lastmile_qr_scan", "ios": "https://dc.lft.to/lastmile_qr_scan"}, "type": "electric_scooter", "lat": 38.905139, "is_reserved": 0, "fusion_lat": 0.0}, {"bike_id": "2f254f5d1c853466f0ac4ee4c8b19169", "fusion_lon": 0.0, "lon": -77.00398866666667, "name": "2f254f5d1c853466f0ac4ee4c8b19169", "is_disabled": 0, "rental_uris": {"android": "https://dc.lft.to/lastmile_qr_scan", "ios": "https://dc.lft.to/lastmile_qr_scan"}, "type": "electric_scooter", "lat": 38.876569333333336, "is_reserved": 0, "fusion_lat": 0.0}, {"bike_id": "eec6df67ebddaf737b3cfbffb3e1c2e7", "fusion_lon": 0.0, "lon": -77.02169533333333, "name": "eec6df67ebddaf737b3cfbffb3e1c2e7", "is_disabled": 0, "rental_uris": {"android": "https://dc.lft.to/lastmile_qr_scan", "ios": "https://dc.lft.to/lastmile_qr_scan"}, "type": "electric_scooter", "lat": 38.92617966666667, "is_reserved": 0, "fusion_lat": 0.0}, {"bike_id": "cb451e93066dd2e6ced68bdf5714f1f6", "fusion_lon": 0.0, "lon": -77.05129233333334, "name": "cb451e93066dd2e6ced68bdf5714f1f6", "is_disabled": 0, "rental_uris": {"android": "https://dc.lft.to/lastmile_qr_scan", "ios": "https://dc.lft.to/lastmile_qr_scan"}, "type": "electric_scooter", "lat": 38.923619, "is_reserved": 0, "fusion_lat": 0.0}, {"bike_id": "71be832c8a06044a5194eecdb418e059", "fusion_lon": 0.0, "lon": -77.0296095, "name": "71be832c8a06044a5194eecdb418e059", "is_disabled": 0, "rental_uris": {"android": "https://dc.lft.to/lastmile_qr_scan", "ios": "https://dc.lft.to/lastmile_qr_scan"}, "type": "electric_scooter", "lat": 38.923339, "is_reserved": 0, "fusion_lat": 0.0}, {"bike_id": "7229d573cb90815a18800bc318e606c6", "fusion_lon": 0.0, "lon": -77.0152465, "name": "7229d573cb90815a18800bc318e606c6", "is_disabled": 0, "rental_uris": {"android": "https://dc.lft.to/lastmile_qr_scan", "ios": "https://dc.lft.to/lastmile_qr_scan"}, "type": "electric_scooter", "lat": 38.884051166666666, "is_reserved": 0, "fusion_lat": 0.0}, {"bike_id": "20b6b03fdf4b8aafbc99f56f55b15208", "fusion_lon": 0.0, "lon": -77.00799566666667, "name": "20b6b03fdf4b8aafbc99f56f55b15208", "is_disabled": 0, "rental_uris": {"android": "https://dc.lft.to/lastmile_qr_scan", "ios": "https://dc.lft.to/lastmile_qr_scan"}, "type": "electric_bike", "lat": 38.9491815, "is_reserved": 0, "fusion_lat": 0.0}, {"bike_id": "1070b10738f08add6a5fbe808a276628", "fusion_lon": 0.0, "lon": -77.07694916666667, "name": "1070b10738f08add6a5fbe808a276628", "is_disabled": 0, "rental_uris": {"android": "https://dc.lft.to/lastmile_qr_scan", "ios": "https://dc.lft.to/lastmile_qr_scan"}, "type": "electric_bike", "lat": 38.840895, "is_reserved": 0, "fusion_lat": 0.0}, {"bike_id": "613a8e83b186207bdb1c4476249fdfa3", "fusion_lon": 0.0, "lon": -77.04676166666667, "name": "613a8e83b186207bdb1c4476249fdfa3", "is_disabled": 0, "rental_uris": {"android": "https://dc.lft.to/lastmile_qr_scan", "ios": "https://dc.lft.to/lastmile_qr_scan"}, "type": "electric_scooter", "lat": 38.895558666666666, "is_reserved": 0, "fusion_lat": 0.0}, {"bike_id": "7de91ea4577752ecc6a47a0907c59c6d", "fusion_lon": 0.0, "lon": -77.04587583333333, "name": "7de91ea4577752ecc6a47a0907c59c6d", "is_disabled": 0, "rental_uris": {"android": "https://dc.lft.to/lastmile_qr_scan", "ios": "https://dc.lft.to/lastmile_qr_scan"}, "type": "electric_scooter", "lat": 38.917229166666665, "is_reserved": 0, "fusion_lat": 0.0}, {"bike_id": "338a3f7c541914c1a5df837db0b6c06a", "fusion_lon": 0.0, "lon": -77.0364725, "name": "338a3f7c541914c1a5df837db0b6c06a", "is_disabled": 0, "rental_uris": {"android": "https://dc.lft.to/lastmile_qr_scan", "ios": "https://dc.lft.to/lastmile_qr_scan"}, "type": "electric_scooter", "lat": 38.9234645, "is_reserved": 0, "fusion_lat": 0.0}, {"bike_id": "ef9fd73f64946f7339cb92ea5695ddaa", "fusion_lon": 0.0, "lon": -76.9902775, "name": "ef9fd73f64946f7339cb92ea5695ddaa", "is_disabled": 0, "rental_uris": {"android": "https://dc.lft.to/lastmile_qr_scan", "ios": "https://dc.lft.to/lastmile_qr_scan"}, "type": "electric_scooter", "lat": 38.90187433333333, "is_reserved": 0, "fusion_lat": 0.0}, {"bike_id": "56f3f493bb3b21fff64beb5a9137401d", "fusion_lon": 0.0, "lon": -77.00575116666667, "name": "56f3f493bb3b21fff64beb5a9137401d", "is_disabled": 0, "rental_uris": {"android": "https://dc.lft.to/lastmile_qr_scan", "ios": "https://dc.lft.to/lastmile_qr_scan"}, "type": "electric_scooter", "lat": 38.905559833333335, "is_reserved": 0, "fusion_lat": 0.0}, {"bike_id": "336b9cfeb1cbd2ef5cfdebc18790440b", "fusion_lon": 0.0, "lon": -77.0219775, "name": "336b9cfeb1cbd2ef5cfdebc18790440b", "is_disabled": 0, "rental_uris": {"android": "https://dc.lft.to/lastmile_qr_scan", "ios": "https://dc.lft.to/lastmile_qr_scan"}, "type": "electric_scooter", "lat": 38.91099966666667, "is_reserved": 0, "fusion_lat": 0.0}, {"bike_id": "99847571d0510a88b31a5ec0a92c0c6a", "fusion_lon": 0.0, "lon": -77.0253455, "name": "99847571d0510a88b31a5ec0a92c0c6a", "is_disabled": 0, "rental_uris": {"android": "https://dc.lft.to/lastmile_qr_scan", "ios": "https://dc.lft.to/lastmile_qr_scan"}, "type": "electric_scooter", "lat": 38.90961583333333, "is_reserved": 0, "fusion_lat": 0.0}, {"bike_id": "b85b960d14695141e847bd66d5b0a47e", "fusion_lon": 0.0, "lon": -77.04881216666666, "name": "b85b960d14695141e847bd66d5b0a47e", "is_disabled": 0, "rental_uris": {"android": "https://dc.lft.to/lastmile_qr_scan", "ios": "https://dc.lft.to/lastmile_qr_scan"}, "type": "electric_bike", "lat": 38.90112666666667, "is_reserved": 0, "fusion_lat": 0.0},