{"data": {"bikes": [{"lon": -77.024114, "bike_id": "42d200717ff1bd2443241af3053ae16b", "lat": 38.921588666666665, "fusion_lon": 0.0, "fusion_lat": 0.0, "type": "electric_scooter", "name": "42d200717ff1bd2443241af3053ae16b", "is_disabled": 0, "rental_uris": {"ios": "https://dc.lft.to/lastmile_qr_scan", "android": "https://dc.lft.to/lastmile_qr_scan"}, "is_reserved": 0}, {"lon": -77.02789516666667, "bike_id": "836058d9ca491e1a3b9b66eb977f88c2", "lat": 38.927666333333335, "fusion_lon": 0.0, "fusion_lat": 0.0, "type": "electric_scooter", "name": "836058d9ca491e1a3b9b66eb977f88c2", "is_disabled": 0, "rental_uris": {"ios": "https://dc.lft.to/lastmile_qr_scan", "android": "https://dc.lft.to/lastmile_qr_scan"}, "is_reserved": 0}, {"lon": -76.98660733333334, "bike_id": "9d7c8cb0bcfa2a69609eae88358a6033", "lat": 38.91250083333333, "fusion_lon": 0.0, "fusion_lat": 0.0, "type": "electric_scooter", "name": "9d7c8cb0bcfa2a69609eae88358a6033", "is_disabled": 0, "rental_uris": {"ios": "https://dc.lft.to/lastmile_qr_scan", "android": "https://dc.lft.to/lastmile_qr_scan"}, "is_reserved": 0}, {"lon": -77.03648533333333, "bike_id": "7e72ad73a2458d7b1c0ad6f41d347904", "lat": 38.903532166666665, "fusion_lon": 0.0, "fusion_lat": 0.0, "type": "electric_scooter", "name": "7e72ad73a2458d7b1c0ad6f41d347904", "is_disabled": 0, "rental_uris": {"ios": "https://dc.lft.to/lastmile_qr_scan", "android": "https://dc.lft.to/lastmile_qr_scan"}, "is_reserved": 0}, {"lon": -76.98835766666667, "bike_id": "55db544a9a18c1ca996ed5f8ad1d098c", "lat": 38.901330333333334, "fusion_lon": 0.0, "fusion_lat": 0.0, "type": "electric_scooter", "name": "55db544a9a18c1ca996ed5f8ad1d098c", "is_disabled": 0, "rental_uris": {"ios": "https://dc.lft.to/lastmile_qr_scan", "android": "https://dc.lft.to/lastmile_qr_scan"}, "is_reserved": 0}, {"lon": -77.04875333333334, "bike_id": "737994ae072cc5dda7d42e0cb79b28e0", "lat": 38.89234583333333, "fusion_lon": 0.0, "fusion_lat": 0.0, "type": "electric_scooter", "name": "737994ae072cc5dda7d42e0cb79b28e0", "is_disabled": 0, "rental_uris": {"ios": "https://dc.lft.to/lastmile_qr_scan", "android": "https://dc.lft.to/lastmile_qr_scan"}, "is_reserved": 0}, {"lon": -77.03204016666666, "bike_id": "18e15295f441421c927976abc9aad7f8", "lat": 38.93043333333333, "fusion_lon": 0.0, "fusion_lat": 0.0, "type": "electric_scooter", "name": "18e15295f441421c927976abc9aad7f8", "is_disabled": 0, "rental_uris": {"ios": "https://dc.lft.to/lastmile_qr_scan", "android": "https://dc.lft.to/lastmile_qr_scan"}, "is_reserved": 0}, {"lon": -77.02388316666666, "bike_id": "847e580c0df409849a0aa79566211580", "lat": 38.907843666666665, "fusion_lon": 0.0, "fusion_lat": 0.0, "type": "electric_scooter", "name": "847e580c0df409849a0aa79566211580", "is_disabled": 0, "rental_uris": {"ios": "https://dc.lft.to/lastmile_qr_scan", "android": "https://dc.lft.to/lastmile_qr_scan"}, "is_reserved": 0}, {"lon": -77.05510266666667, "bike_id": "c2b5bea3932fa027872362f9a289eb04", "lat": 38.899741166666665, "fusion_lon": 0.0, "fusion_lat": 0.0, "type": "electric_scooter", "name": "c2b5bea3932fa027872362f9a289eb04", "is_disabled": 0, "rental_uris": {"ios": "https://dc.lft.to/lastmile_qr_scan", "android": "https://dc.lft.to/lastmile_qr_scan"}, "is_reserved": 0}, {"lon": -77.04478933333333, "bike_id": "f0b0cbe2da6b9eace5f8bfb5a1cc9cf6", "lat": 38.9195435, "fusion_lon": 0.0, "fusion_lat": 0.0, "type": "electric_scooter", "name": "f0b0cbe2da6b9eace5f8bfb5a1cc9cf6", "is_disabled": 0, "rental_uris": {"ios": "https://dc.lft.to/lastmile_qr_scan", "android": "https://dc.lft.to/lastmile_qr_scan"}, "is_reserved": 0}, {"lon": -76.98140316666667, "bike_id": "3bdd59f984ca140d3bf8f7daaea0dd28", "lat": 38.905648166666666, "fusion_lon": 0.0, "fusion_lat": 0.0, "type": "electric_scooter", "name": "3bdd59f984ca140d3bf8f7daaea0dd28", "is_disabled": 0, "rental_uris": {"ios": "https://dc.lft.to/lastmile_qr_scan", "android": "https://dc.lft.to/lastmile_qr_scan"}, "is_reserved": 0}, {"lon": -77.0270895, "bike_id": "fbe98f46714944cd5f910420c1633c7a", "lat": 38.9067265, "fusion_lon": 0.0, "fusion_lat": 0.0, "type": "electric_scooter", "name": "fbe98f46714944cd5f910420c1633c7a", "is_disabled": 0, "rental_uris": {"ios": "https://dc.lft.to/lastmile_qr_scan", "android": "https://dc.lft.to/lastmile_qr_scan"}, "is_reserved": 0}, {"lon": -77.078193, "bike_id": "5ee07c2212bc1eb10ecd004dd6d45aff", "lat": 38.92369466666667, "fusion_lon": 0.0, "fusion_lat": 0.0, "type": "electric_scooter", "name": "5ee07c2212bc1eb10ecd004dd6d45aff", "is_disabled": 0, "rental_uris": {"ios": "https://dc.lft.to/lastmile_qr_scan", "android": "https://dc.lft.to/lastmile_qr_scan"}, "is_reserved": 0}, {"lon": -77.03424, "bike_id": "0eae16da043dfc357a7651a606493536", "lat": 38.90556516666667, "fusion_lon": 0.0, "fusion_lat": 0.0, "type": "electric_scooter", "name": "0eae16da043dfc357a7651a606493536", "is_disabled": 0, "rental_uris": {"ios": "https://dc.lft.to/lastmile_qr_scan", "android": "https://dc.lft.to/lastmile_qr_scan"}, "is_reserved": 0}, {"lon": -77.059159, "bike_id": "ce97839288519d8dc4801d1d151d878a", "lat": 38.9062725, "fusion_lon": 0.0, "fusion_lat": 0.0, "type": "electric_scooter", "name": "ce97839288519d8dc4801d1d151d878a", "is_disabled": 0, "rental_uris": {"ios": "https://dc.lft.to/lastmile_qr_scan", "android": "https://dc.lft.to/lastmile_qr_scan"}, "is_reserved": 0}, {"lon": -77.0334345, "bike_id": "0ca196709db7e276d56d704a7b23c7d1", "lat": 38.90569983333334, "fusion_lon": 0.0, "fusion_lat": 0.0, "type": "electric_scooter", "name": "0ca196709db7e276d56d704a7b23c7d1", "is_disabled": 0, "rental_uris": {"ios": "https://dc.lft.to/lastmile_qr_scan", "android": "https://dc.lft.to/lastmile_qr_scan"}, "is_reserved": 0}, {"lon": -77.03238066666667, "bike_id": "f4aaff0e4b332dee00d46215b83e8f69", "lat": 38.92994983333333, "fusion_lon": 0.0, "fusion_lat": 0.0, "type": "electric_scooter", "name": "f4aaff0e4b332dee00d46215b83e8f69", "is_disabled": 0, "rental_uris": {"ios": "https://dc.lft.to/lastmile_qr_scan", "android": "https://dc.lft.to/lastmile_qr_scan"}, "is_reserved": 0}, {"lon": -77.05561916666667, "bike_id": "b7b90dda7c66cf02ab10eeff9b84c1b3", "lat": 38.930383666666664, "fusion_lon": 0.0, "fusion_lat": 0.0, "type": "electric_scooter", "name": "b7b90dda7c66cf02ab10eeff9b84c1b3", "is_disabled": 0, "rental_uris": {"ios": "https://dc.lft.to/lastmile_qr_scan", "android": "https://dc.lft.to/lastmile_qr_scan"}, "is_reserved": 0}, {"lon": -77.00574716666667, "bike_id": "f3bb5cd039a56ab64c9bccfac6813843", "lat": 38.83000283333333, "fusion_lon": 0.0, "fusion_lat": 0.0, "type": "electric_scooter", "name": "f3bb5cd039a56ab64c9bccfac6813843", "is_disabled": 0, "rental_uris": {"ios": "https://dc.lft.to/lastmile_qr_scan", "android": "https://dc.lft.to/lastmile_qr_scan"}, "is_reserved": 0}, {"lon": -77.0365465, "bike_id": "075022bb201df9e76466fd7bda4c4a67", "lat": 38.918113166666664, "fusion_lon": 0.0, "fusion_lat": 0.0, "type": "electric_scooter", "name": "075022bb201df9e76466fd7bda4c4a67", "is_disabled": 0, "rental_uris": {"ios": "https://dc.lft.to/lastmile_qr_scan", "android": "https://dc.lft.to/lastmile_qr_scan"}, "is_reserved": 0}, {"lon": -76.99194766666666, "bike_id": "b3ad6abb0cf15755059d367d64619b3a", "lat": 38.88267483333333, "fusion_lon": 0.0, "fusion_lat": 0.0, "type": "electric_scooter", "name": "b3ad6abb0cf15755059d367d64619b3a", "is_disabled": 0, "rental_uris": {"ios": "https://dc.lft.to/lastmile_qr_scan", "android": "https://dc.lft.to/lastmile_qr_scan"}, "is_reserved": 0}, {"lon": -77.02791833333333, "bike_id": "25c5c106118423b9b7152aac9d375c12", "lat": 38.92289616666667, "fusion_lon": 0.0, "fusion_lat": 0.0, "type": "electric_scooter", "name": "25c5c106118423b9b7152aac9d375c12", "is_disabled": 0, "rental_uris": {"ios": "https://dc.lft.to/lastmile_qr_scan", "android": "https://dc.lft.to/lastmile_qr_scan"}, "is_reserved": 0}, {"lon": -77.10524933333333, "bike_id": "d007909eb87f7a1bb787cc97f362d9ac", "lat": 38.873716333333334, "fusion_lon": 0.0, "fusion_lat": 0.0, "type": "electric_bike", "name": "d007909eb87f7a1bb787cc97f362d9ac", "is_disabled": 0, "rental_uris": {"ios": "https://dc.lft.to/lastmile_qr_scan", "android": "https://dc.lft.to/lastmile_qr_scan"}, "is_reserved": 0}, {"lon": -76.9880365, "bike_id": "b31a984ceb3f4ef6c4e4ed0e273ec157", "lat": 38.89242516666667, "fusion_lon": 0.0, "fusion_lat": 0.0, "type": "electric_scooter", "name": "b31a984ceb3f4ef6c4e4ed0e273ec157", "is_disabled": 0, "rental_uris": {"ios": "https://dc.lft.to/lastmile_qr_scan", "android": "https://dc.lft.to/lastmile_qr_scan"}, "is_reserved": 0}, {"lon": -77.0229305, "bike_id": "02cfca7c3f906b9678794d1edcdd1546", "lat": 38.932953, "fusion_lon": 0.0, "fusion_lat": 0.0, "type": "electric_scooter", "name": "02cfca7c3f906b9678794d1edcdd1546", "is_disabled": 0, "rental_uris": {"ios": "https://dc.lft.to/lastmile_qr_scan", "android": "https://dc.lft.to/lastmile_qr_scan"}, "is_reserved": 0}, {"lon": -77.01884183333334, "bike_id": "b553c932f3a80ae25b7a96265af76306", "lat": 38.90612, "fusion_lon": 0.0, "fusion_lat": 0.0, "type": "electric_scooter", "name": "b553c932f3a80ae25b7a96265af76306", "is_disabled": 0, "rental_uris": {"ios": "https://dc.lft.to/lastmile_qr_scan", "android": "https://dc.lft.to/lastmile_qr_scan"}, "is_reserved": 0}, {"lon": -77.041189, "bike_id": "e1708a8c88f10aeea5927c2c8e40d10a", "lat": 38.91560283333333, "fusion_lon": 0.0, "fusion_lat": 0.0, "type": "electric_scooter", "name": "e1708a8c88f10aeea5927c2c8e40d10a", "is_disabled": 0, "rental_uris": {"ios": "https://dc.lft.to/lastmile_qr_scan", "android": "https://dc.lft.to/lastmile_qr_scan"}, "is_reserved": 0}, {"lon": -77.03217466666666, "bike_id": "2abcb47ec7e47e5e388cbe0289431c71", "lat": 38.90730716666667, "fusion_lon": 0.0, "fusion_lat": 0.0, "type": "electric_scooter", "name": "2abcb47ec7e47e5e388cbe0289431c71", "is_disabled": 0, "rental_uris": {"ios": "https://dc.lft.to/lastmile_qr_scan", "android": "https://dc.lft.to/lastmile_qr_scan"}, "is_reserved": 0}, {"lon": -77.023495, "bike_id": "b64cfe55dcb3488412e0ae96886dc39d", "lat": 38.8962815, "fusion_lon": 0.0, "fusion_lat": 0.0, "type": "electric_scooter", "name": "b64cfe55dcb3488412e0ae96886dc39d", "is_disabled": 0, "rental_uris": {"ios": "https://dc.lft.to/lastmile_qr_scan", "android": "https://dc.lft.to/lastmile_qr_scan"}, "is_reserved": 0}, {"lon": -76.9831905, "bike_id": "be4909c18ef1278e2f0d3f8461af6e18", "lat": 38.899626166666664, "fusion_lon": 0.0, "fusion_lat": 0.0, "type": "electric_scooter", "name": "be4909c18ef1278e2f0d3f8461af6e18", "is_disabled": 0, "rental_uris": {"ios": "https://dc.lft.to/lastmile_qr_scan", "android": "https://dc.lft.to/lastmile_qr_scan"}, "is_reserved": 0}, {"lon": -76.99267883333333, "bike_id": "83cb3fa6357cb229a3dd3eff72a72b56", "lat": 38.903864166666665, "fusion_lon": 0.0, "fusion_lat": 0.0, "type": "electric_scooter", "name": "83cb3fa6357cb229a3dd3eff72a72b56", "is_disabled": 0, "rental_uris": {"ios": "https://dc.lft.to/lastmile_qr_scan", "android": "https://dc.lft.to/lastmile_qr_scan"}, "is_reserved": 0}, {"lon": -77.02344733333334, "bike_id": "89a9451cbb406ca8f30188a6728b29fd", "lat": 38.922480166666666, "fusion_lon": 0.0, "fusion_lat": 0.0, "type": "electric_scooter", "name": "89a9451cbb406ca8f30188a6728b29fd", "is_disabled": 0, "rental_uris": {"ios": "https://dc.lft.to/lastmile_qr_scan", "android": "https://dc.lft.to/lastmile_qr_scan"}, "is_reserved": 0}, {"lon": -76.986826, "bike_id": "f4c0b01884a6d6f763f1aac93a79cb2e", "lat": 38.912160166666666, "fusion_lon": 0.0, "fusion_lat": 0.0, "type": "electric_scooter", "name": "f4c0b01884a6d6f763f1aac93a79cb2e", "is_disabled": 0, "rental_uris": {"ios": "https://dc.lft.to/lastmile_qr_scan", "android": "https://dc.lft.to/lastmile_qr_scan"}, "is_reserved": 0}, {"lon": -77.00511116666667, "bike_id": "a0440d21cac0b0d69c0f01639549640b", "lat": 38.90578683333333, "fusion_lon": 0.0, "fusion_lat": 0.0, "type": "electric_scooter", "name": "a0440d21cac0b0d69c0f01639549640b", "is_disabled": 0, "rental_uris": {"ios": "https://dc.lft.to/lastmile_qr_scan", "android": "https://dc.lft.to/lastmile_qr_scan"}, "is_reserved": 0}, {"lon": -77.02502166666666, "bike_id": "f0c800ca1cb0b8b33ea382f593caea2d", "lat": 38.92078633333333, "fusion_lon": 0.0, "fusion_lat": 0.0, "type": "electric_scooter", "name": "f0c800ca1cb0b8b33ea382f593caea2d", "is_disabled": 0, "rental_uris": {"ios": "https://dc.lft.to/lastmile_qr_scan", "android": "https://dc.lft.to/lastmile_qr_scan"}, "is_reserved": 0}, {"lon": -77.015083, "bike_id": "1bd415b566af20e2653c91029cf183e0", "lat": 38.90021183333333, "fusion_lon": 0.0, "fusion_lat": 0.0, "type": "electric_scooter", "name": "1bd415b566af20e2653c91029cf183e0", "is_disabled": 0, "rental_uris": {"ios": "https://dc.lft.to/lastmile_qr_scan", "android": "https://dc.lft.to/lastmile_qr_scan"}, "is_reserved": 0}, {"lon": -77.00204016666666, "bike_id": "da1165060f5cb7191f251d203195f07d", "lat": 38.8954785, "fusion_lon": 0.0, "fusion_lat": 0.0, "type": "electric_scooter", "name": "da1165060f5cb7191f251d203195f07d", "is_disabled": 0, "rental_uris": {"ios": "https://dc.lft.to/lastmile_qr_scan", "android": "https://dc.lft.to/lastmile_qr_scan"}, "is_reserved": 0}, {"lon": -77.020317, "bike_id": "5b02d64bbda99dba805d3c5ad323c534", "lat": 38.908643, "fusion_lon": 0.0, "fusion_lat": 0.0, "type": "electric_scooter", "name": "5b02d64bbda99dba805d3c5ad323c534", "is_disabled": 0, "rental_uris": {"ios": "https://dc.lft.to/lastmile_qr_scan", "android": "https://dc.lft.to/lastmile_qr_scan"}, "is_reserved": 0}, {"lon": -77.00528266666667, "bike_id": "0a87f0faf97945e69cb5ed5f33326497", "lat": 38.929824833333335, "fusion_lon": 0.0, "fusion_lat": 0.0, "type": "electric_scooter", "name": "0a87f0faf97945e69cb5ed5f33326497", "is_disabled": 0, "rental_uris": {"ios": "https://dc.lft.to/lastmile_qr_scan", "android": "https://dc.lft.to/lastmile_qr_scan"}, "is_reserved": 0}, {"lon": -76.926209, "bike_id": "347257d6c686796d5635a3e28ea0ca5c", "lat": 38.8845905, "fusion_lon": 0.0, "fusion_lat": 0.0, "type": "electric_scooter", "name": "347257d6c686796d5635a3e28ea0ca5c", "is_disabled": 0, "rental_uris": {"ios": "https://dc.lft.to/lastmile_qr_scan", "android": "https://dc.lft.to/lastmile_qr_scan"}, "is_reserved": 0}, {"lon": -77.02801383333333, "bike_id": "18f801c59a0cd672c22916778b76f4a1", "lat": 38.9168125, "fusion_lon": 0.0, "fusion_lat": 0.0, "type": "electric_scooter", "name": "18f801c59a0cd672c22916778b76f4a1", "is_disabled": 0, "rental_uris": {"ios": "https://dc.lft.to/lastmile_qr_scan", "android": "https://dc.lft.to/lastmile_qr_scan"}, "is_reserved": 0}, {"lon": -76.97599633333333, "bike_id": "56564526ee08f922fcfad9227ccb50a2", "lat": 38.905695333333334, "fusion_lon": 0.0, "fusion_lat": 0.0, "type": "electric_scooter", "name": "56564526ee08f922fcfad9227ccb50a2", "is_disabled": 0, "rental_uris": {"ios": "https://dc.lft.to/lastmile_qr_scan", "android": "https://dc.lft.to/lastmile_qr_scan"}, "is_reserved": 0}, {"lon": -77.02213233333333, "bike_id": "2bc8a51c335595177d35bdf28cb922b1", "lat": 38.89354566666667, "fusion_lon": 0.0, "fusion_lat": 0.0, "type": "electric_scooter", "name": "2bc8a51c335595177d35bdf28cb922b1", "is_disabled": 0, "rental_uris": {"ios": "https://dc.lft.to/lastmile_qr_scan", "android": "https://dc.lft.to/lastmile_qr_scan"}, "is_reserved": 0}, {"lon": -77.02266983333334, "bike_id": "a8c87e2a7f2053b8b823887f65a3a352", "lat": 38.937692166666665, "fusion_lon": 0.0, "fusion_lat": 0.0, "type": "electric_scooter", "name": "a8c87e2a7f2053b8b823887f65a3a352", "is_disabled": 0, "rental_uris": {"ios": "https://dc.lft.to/lastmile_qr_scan", "android": "https://dc.lft.to/lastmile_qr_scan"}, "is_reserved": 0}, {"lon": -77.05418516666667, "bike_id": "af252b160546f31c764accd4907f6340", "lat": 38.9505175, "fusion_lon": 0.0, "fusion_lat": 0.0, "type": "electric_scooter", "name": "af252b160546f31c764accd4907f6340", "is_disabled": 0, "rental_uris": {"ios": "https://dc.lft.to/lastmile_qr_scan", "android": "https://dc.lft.to/lastmile_qr_scan"}, "is_reserved": 0}, {"lon": -77.02948316666667, "bike_id": "7aafea6be3222b2c821948921fb54ad6", "lat": 38.8875065, "fusion_lon": 0.0, "fusion_lat": 0.0, "type": "electric_scooter", "name": "7aafea6be3222b2c821948921fb54ad6", "is_disabled": 0, "rental_uris": {"ios": "https://dc.lft.to/lastmile_qr_scan", "android": "https://dc.lft.to/lastmile_qr_scan"}, "is_reserved": 0}, {"lon": -77.02977616666666, "bike_id": "ef3a03a87bd18d8b151c98513c127750", "lat": 38.93934616666667, "fusion_lon": 0.0, "fusion_lat": 0.0, "type": "electric_scooter", "name": "ef3a03a87bd18d8b151c98513c127750", "is_disabled": 0, "rental_uris": {"ios": "https://dc.lft.to/lastmile_qr_scan", "android": "https://dc.lft.to/lastmile_qr_scan"}, "is_reserved": 0}, {"lon": -77.01471, "bike_id": "f0d667ebec1d7bcab1ac49765058e5a5", "lat": 38.940619833333336, "fusion_lon": 0.0, "fusion_lat": 0.0, "type": "electric_bike", "name": "f0d667ebec1d7bcab1ac49765058e5a5", "is_disabled": 0, "rental_uris": {"ios": "https://dc.lft.to/lastmile_qr_scan", "android": "https://dc.lft.to/lastmile_qr_scan"}, "is_reserved": 0}, {"lon": -76.98335983333334, "bike_id": "55a24ebc9349e1260bbf9266f00bf911", "lat": 38.900967666666666, "fusion_lon": 0.0, "fusion_lat": 0.0, "type": "electric_scooter", "name": "55a24ebc9349e1260bbf9266f00bf911", "is_disabled": 0, "rental_uris": {"ios": "https://dc.lft.to/lastmile_qr_scan", "android": "https://dc.lft.to/lastmile_qr_scan"}, "is_reserved": 0}, {"lon": -76.982741, "bike_id": "48a73b16fc78b43cc1b6aecf125544ef", "lat": 38.88533366666667, "fusion_lon": 0.0, "fusion_lat": 0.0, "type": "electric_scooter", "name": "48a73b16fc78b43cc1b6aecf125544ef", "is_disabled": 0, "rental_uris": {"ios": "https://dc.lft.to/lastmile_qr_scan", "android": "https://dc.lft.to/lastmile_qr_scan"}, "is_reserved": 0}, {"lon": -77.0318605, "bike_id": "32f1f80be6d42e415a576655d0ae7d97", "lat": 38.884124166666666, "fusion_lon": 0.0, "fusion_lat": 0.0, "type": "electric_scooter", "name": "32f1f80be6d42e415a576655d0ae7d97", "is_disabled": 0, "rental_uris": {"ios": "https://dc.lft.to/lastmile_qr_scan", "android": "https://dc.lft.to/lastmile_qr_scan"}, "is_reserved": 0}, {"lon": -77.0281215, "bike_id": "44c4cdad696c11e96acc3445761fdd3e", "lat": 38.941941, "fusion_lon": 0.0, "fusion_lat": 0.0, "type": "electric_scooter", "name": "44c4cdad696c11e96acc3445761fdd3e", "is_disabled": 0, "rental_uris": {"ios": "https://dc.lft.to/lastmile_qr_scan", "android": "https://dc.lft.to/lastmile_qr_scan"}, "is_reserved": 0}, {"lon": -77.02724383333333, "bike_id": "962e8fae3914268928a736c3f5e1d2e9", "lat": 38.89732883333333, "fusion_lon": 0.0, "fusion_lat": 0.0, "type": "electric_scooter", "name": "962e8fae3914268928a736c3f5e1d2e9", "is_disabled": 0, "rental_uris": {"ios": "https://dc.lft.to/lastmile_qr_scan", "android": "https://dc.lft.to/lastmile_qr_scan"}, "is_reserved": 0}, {"lon": -77.03598083333333, "bike_id": "0db7373f6832627858e210bad91df315", "lat": 38.91770016666667, "fusion_lon": 0.0, "fusion_lat": 0.0, "type": "electric_scooter", "name": "0db7373f6832627858e210bad91df315", "is_disabled": 0, "rental_uris": {"ios": "https://dc.lft.to/lastmile_qr_scan", "android": "https://dc.lft.to/lastmile_qr_scan"}, "is_reserved": 0}, {"lon": -77.02384316666667, "bike_id": "924a9072a9485fc602af9124c1b16e0c", "lat": 38.907311, "fusion_lon": 0.0, "fusion_lat": 0.0, "type": "electric_scooter", "name": "924a9072a9485fc602af9124c1b16e0c", "is_disabled": 0, "rental_uris": {"ios": "https://dc.lft.to/lastmile_qr_scan", "android": "https://dc.lft.to/lastmile_qr_scan"}, "is_reserved": 0}, {"lon": -76.978447, "bike_id": "46829120be0a425a44b925f1885e047c", "lat": 38.86570716666667, "fusion_lon": 0.0, "fusion_lat": 0.0, "type": "electric_scooter", "name": "46829120be0a425a44b925f1885e047c", "is_disabled": 0, "rental_uris": {"ios": "https://dc.lft.to/lastmile_qr_scan", "android": "https://dc.lft.to/lastmile_qr_scan"}, "is_reserved": 0}, {"lon": -76.94896366666667, "bike_id": "07cd7f7d1d285eab143e4d283c257ab8", "lat": 38.89533216666667, "fusion_lon": 0.0, "fusion_lat": 0.0, "type": "electric_scooter", "name": "07cd7f7d1d285eab143e4d283c257ab8", "is_disabled": 0, "rental_uris": {"ios": "https://dc.lft.to/lastmile_qr_scan", "android": "https://dc.lft.to/lastmile_qr_scan"}, "is_reserved": 0}, {"lon": -77.0389945, "bike_id": "8a429163a0cb34452a80c59ee7932934", "lat": 38.92347483333333, "fusion_lon": 0.0, "fusion_lat": 0.0, "type": "electric_scooter", "name": "8a429163a0cb34452a80c59ee7932934", "is_disabled": 0, "rental_uris": {"ios": "https://dc.lft.to/lastmile_qr_scan", "android": "https://dc.lft.to/lastmile_qr_scan"}, "is_reserved": 0}, {"lon": -76.97009716666666, "bike_id": "42249ebbeb334c04a320422d3cad9a5a", "lat": 38.86370516666667, "fusion_lon": 0.0, "fusion_lat": 0.0, "type": "electric_bike", "name": "42249ebbeb334c04a320422d3cad9a5a", "is_disabled": 0, "rental_uris": {"ios": "https://dc.lft.to/lastmile_qr_scan", "android": "https://dc.lft.to/lastmile_qr_scan"}, "is_reserved": 0}, {"lon": -77.0244005, "bike_id": "faf0f03c1e000d49e93db885223b67ed", "lat": 38.93596816666667, "fusion_lon": 0.0, "fusion_lat": 0.0, "type": "electric_scooter", "name": "faf0f03c1e000d49e93db885223b67ed", "is_disabled": 0, "rental_uris": {"ios": "https://dc.lft.to/lastmile_qr_scan", "android": "https://dc.lft.to/lastmile_qr_scan"}, "is_reserved": 0}, {"lon": -77.024807, "bike_id": "89b23a942d352992d3dd511e4f82fd0a", "lat": 38.92591516666667, "fusion_lon": 0.0, "fusion_lat": 0.0, "type": "electric_scooter", "name": "89b23a942d352992d3dd511e4f82fd0a", "is_disabled": 0, "rental_uris": {"ios": "https://dc.lft.to/lastmile_qr_scan", "android": "https://dc.lft.to/lastmile_qr_scan"}, "is_reserved": 0}, {"lon": -76.92994933333334, "bike_id": "7d484794ac129b55ef6f4b16b6e8a6fe", "lat": 38.901844833333335, "fusion_lon": 0.0, "fusion_lat": 0.0, "type": "electric_scooter", "name": "7d484794ac129b55ef6f4b16b6e8a6fe", "is_disabled": 0, "rental_uris": {"ios": "https://dc.lft.to/lastmile_qr_scan", "android": "https://dc.lft.to/lastmile_qr_scan"}, "is_reserved": 0}, {"lon": -77.03583383333333, "bike_id": "4e7b22ad62fe58318185971a4d8531f2", "lat": 38.91765433333333, "fusion_lon": 0.0, "fusion_lat": 0.0, "type": "electric_scooter", "name": "4e7b22ad62fe58318185971a4d8531f2", "is_disabled": 0, "rental_uris": {"ios": "https://dc.lft.to/lastmile_qr_scan", "android": "https://dc.lft.to/lastmile_qr_scan"}, "is_reserved": 0}, {"lon": -77.02289783333333, "bike_id": "7fb6847036a04446a549c93c3fb73fcd", "lat": 38.9168765, "fusion_lon": 0.0, "fusion_lat": 0.0, "type": "electric_scooter", "name": "7fb6847036a04446a549c93c3fb73fcd", "is_disabled": 0, "rental_uris": {"ios": "https://dc.lft.to/lastmile_qr_scan", "android": "https://dc.lft.to/lastmile_qr_scan"}, "is_reserved": 0}, {"lon": -77.04345266666667, "bike_id": "9aecc15607fbf49ded7637f19ce39001", "lat": 38.90721833333333, "fusion_lon": 0.0, "fusion_lat": 0.0, "type": "electric_scooter", "name": "9aecc15607fbf49ded7637f19ce39001", "is_disabled": 0, "rental_uris": {"ios": "https://dc.lft.to/lastmile_qr_scan", "android": "https://dc.lft.to/lastmile_qr_scan"}, "is_reserved": 0}, {"lon": -77.04028583333333, "bike_id": "fde9841e3d989091350d12263e448c9c", "lat": 38.911128, "fusion_lon": 0.0, "fusion_lat": 0.0, "type": "electric_scooter", "name": "fde9841e3d989091350d12263e448c9c", "is_disabled": 0, "rental_uris": {"ios": "https://dc.lft.to/lastmile_qr_scan", "android": "https://dc.lft.to/lastmile_qr_scan"}, "is_reserved": 0}, {"lon": -77.10909616666666, "bike_id": "636d70b06f70a01a597f93e5130b30a6", "lat": 39.0519895, "fusion_lon": 0.0, "fusion_lat": 0.0, "type": "electric_bike", "name": "636d70b06f70a01a597f93e5130b30a6", "is_disabled": 0, "rental_uris": {"ios": "https://dc.lft.to/lastmile_qr_scan", "android": "https://dc.lft.to/lastmile_qr_scan"}, "is_reserved": 0}, {"lon": -77.0142835, "bike_id": "c748f087367102c2495c8d9852a47173", "lat": 38.92821933333333, "fusion_lon": 0.0, "fusion_lat": 0.0, "type": "electric_scooter", "name": "c748f087367102c2495c8d9852a47173", "is_disabled": 0, "rental_uris": {"ios": "https://dc.lft.to/lastmile_qr_scan", "android": "https://dc.lft.to/lastmile_qr_scan"}, "is_reserved": 0}, {"lon": -77.02116083333334, "bike_id": "ccfa9fc2c8e90a952da40dbecc3ad5a6", "lat": 38.953037333333334, "fusion_lon": 0.0, "fusion_lat": 0.0, "type": "electric_bike", "name": "ccfa9fc2c8e90a952da40dbecc3ad5a6", "is_disabled": 0, "rental_uris": {"ios": "https://dc.lft.to/lastmile_qr_scan", "android": "https://dc.lft.to/lastmile_qr_scan"}, "is_reserved": 0}, {"lon": -77.04513633333333, "bike_id": "d37fea073d76e2fcaa8a2b64115287d3", "lat": 38.88602866666667, "fusion_lon": 0.0, "fusion_lat": 0.0, "type": "electric_scooter", "name": "d37fea073d76e2fcaa8a2b64115287d3", "is_disabled": 0, "rental_uris": {"ios": "https://dc.lft.to/lastmile_qr_scan", "android": "https://dc.lft.to/lastmile_qr_scan"}, "is_reserved": 0}, {"lon": -77.03224916666667, "bike_id": "440332fc6447f8cf55544e243c8cc63b", "lat": 38.8964055, "fusion_lon": 0.0, "fusion_lat": 0.0, "type": "electric_scooter", "name": "440332fc6447f8cf55544e243c8cc63b", "is_disabled": 0, "rental_uris": {"ios": "https://dc.lft.to/lastmile_qr_scan", "android": "https://dc.lft.to/lastmile_qr_scan"}, "is_reserved": 0}, {"lon": -77.03871633333333, "bike_id": "08d82c95400daf24b7b67ccd81ec4966", "lat": 38.920041499999996, "fusion_lon": 0.0, "fusion_lat": 0.0, "type": "electric_scooter", "name": "08d82c95400daf24b7b67ccd81ec4966", "is_disabled": 0, "rental_uris": {"ios": "https://dc.lft.to/lastmile_qr_scan", "android": "https://dc.lft.to/lastmile_qr_scan"}, "is_reserved": 0}, {"lon": -77.02711683333334, "bike_id": "7bd7eb37cfa5b92ea3e0fac351492421", "lat": 38.92770733333333, "fusion_lon": 0.0, "fusion_lat": 0.0, "type": "electric_scooter", "name": "7bd7eb37cfa5b92ea3e0fac351492421", "is_disabled": 0, "rental_uris": {"ios": "https://dc.lft.to/lastmile_qr_scan", "android": "https://dc.lft.to/lastmile_qr_scan"}, "is_reserved": 0}, {"lon": -77.0365215, "bike_id": "f3916cc96e443b9aa414e67ab0b53721", "lat": 38.91741716666667, "fusion_lon": 0.0, "fusion_lat": 0.0, "type": "electric_scooter", "name": "f3916cc96e443b9aa414e67ab0b53721", "is_disabled": 0, "rental_uris": {"ios": "https://dc.lft.to/lastmile_qr_scan", "android": "https://dc.lft.to/lastmile_qr_scan"}, "is_reserved": 0}, {"lon": -77.00225816666666, "bike_id": "39f7a4441eec4f93357ee826c0425240", "lat": 38.900112166666666, "fusion_lon": 0.0, "fusion_lat": 0.0, "type": "electric_scooter", "name": "39f7a4441eec4f93357ee826c0425240", "is_disabled": 0, "rental_uris": {"ios": "https://dc.lft.to/lastmile_qr_scan", "android": "https://dc.lft.to/lastmile_qr_scan"}, "is_reserved": 0}, {"lon": -76.974806, "bike_id": "de8b7609fd4fadb805763c8d894d1212", "lat": 38.9035355, "fusion_lon": 0.0, "fusion_lat": 0.0, "type": "electric_scooter", "name": "de8b7609fd4fadb805763c8d894d1212", "is_disabled": 0, "rental_uris": {"ios": "https://dc.lft.to/lastmile_qr_scan", "android": "https://dc.lft.to/lastmile_qr_scan"}, "is_reserved": 0}, {"lon": -77.00654383333334, "bike_id": "010d1d2bdf88cd9187a0a02c0b319ee4", "lat": 38.926251, "fusion_lon": 0.0, "fusion_lat": 0.0, "type": "electric_scooter", "name": "010d1d2bdf88cd9187a0a02c0b319ee4", "is_disabled": 0, "rental_uris": {"ios": "https://dc.lft.to/lastmile_qr_scan", "android": "https://dc.lft.to/lastmile_qr_scan"}, "is_reserved": 0}, {"lon": -77.03423416666666, "bike_id": "8c9e3de7690fc1e49401662b0f360bd9", "lat": 38.905671, "fusion_lon": 0.0, "fusion_lat": 0.0, "type": "electric_scooter", "name": "8c9e3de7690fc1e49401662b0f360bd9", "is_disabled": 0, "rental_uris": {"ios": "https://dc.lft.to/lastmile_qr_scan", "android": "https://dc.lft.to/lastmile_qr_scan"}, "is_reserved": 0}, {"lon": -77.06516616666667, "bike_id": "379656d9928b225ec6a1d8bf6bb4d704", "lat": 38.903931, "fusion_lon": 0.0, "fusion_lat": 0.0, "type": "electric_scooter", "name": "379656d9928b225ec6a1d8bf6bb4d704", "is_disabled": 0, "rental_uris": {"ios": "https://dc.lft.to/lastmile_qr_scan", "android": "https://dc.lft.to/lastmile_qr_scan"}, "is_reserved": 0}, {"lon": -77.0129335, "bike_id": "a006c69b0fe4353d5816dec9745fd01c", "lat": 38.920241833333336, "fusion_lon": 0.0, "fusion_lat": 0.0, "type": "electric_scooter", "name": "a006c69b0fe4353d5816dec9745fd01c", "is_disabled": 0, "rental_uris": {"ios": "https://dc.lft.to/lastmile_qr_scan", "android": "https://dc.lft.to/lastmile_qr_scan"}, "is_reserved": 0}, {"lon": -76.990221, "bike_id": "391123861192adb524d415b6619d3fe7", "lat": 38.866435333333335, "fusion_lon": 0.0, "fusion_lat": 0.0, "type": "electric_scooter", "name": "391123861192adb524d415b6619d3fe7", "is_disabled": 0, "rental_uris": {"ios": "https://dc.lft.to/lastmile_qr_scan", "android": "https://dc.lft.to/lastmile_qr_scan"}, "is_reserved": 0}, {"lon": -77.03870983333333, "bike_id": "9e257270540c451ad9791dffb07ac214", "lat": 38.91554383333333, "fusion_lon": 0.0, "fusion_lat": 0.0, "type": "electric_scooter", "name": "9e257270540c451ad9791dffb07ac214", "is_disabled": 0, "rental_uris": {"ios": "https://dc.lft.to/lastmile_qr_scan", "android": "https://dc.lft.to/lastmile_qr_scan"}, "is_reserved": 0}, {"lon": -76.99084583333334, "bike_id": "f30cbea7a27dd15e0839f1c30ced8c20", "lat": 38.86235416666667, "fusion_lon": 0.0, "fusion_lat": 0.0, "type": "electric_bike", "name": "f30cbea7a27dd15e0839f1c30ced8c20", "is_disabled": 0, "rental_uris": {"ios": "https://dc.lft.to/lastmile_qr_scan", "android": "https://dc.lft.to/lastmile_qr_scan"}, "is_reserved": 0}, {"lon": -76.99532316666667, "bike_id": "15f8de472b568804610659c33726dc8f", "lat": 38.88376233333334, "fusion_lon": 0.0, "fusion_lat": 0.0, "type": "electric_scooter", "name": "15f8de472b568804610659c33726dc8f", "is_disabled": 0, "rental_uris": {"ios": "https://dc.lft.to/lastmile_qr_scan", "android": "https://dc.lft.to/lastmile_qr_scan"}, "is_reserved": 0}, {"lon": -77.01939866666666, "bike_id": "c55b5f5a5796b5420dc621a50b3196c3", "lat": 38.935257166666666, "fusion_lon": 0.0, "fusion_lat": 0.0, "type": "electric_scooter", "name": "c55b5f5a5796b5420dc621a50b3196c3", "is_disabled": 0, "rental_uris": {"ios": "https://dc.lft.to/lastmile_qr_scan", "android": "https://dc.lft.to/lastmile_qr_scan"}, "is_reserved": 0}, {"lon": -77.0807245, "bike_id": "48c02f62bd6feacc028c571985b5ee70", "lat": 39.05282566666666, "fusion_lon": 0.0, "fusion_lat": 0.0, "type": "electric_bike", "name": "48c02f62bd6feacc028c571985b5ee70", "is_disabled": 0, "rental_uris": {"ios": "https://dc.lft.to/lastmile_qr_scan", "android": "https://dc.lft.to/lastmile_qr_scan"}, "is_reserved": 0}, {"lon": -77.04869283333333, "bike_id": "9d4828ba708b93adbef36757aaa040f9", "lat": 38.892224, "fusion_lon": 0.0, "fusion_lat": 0.0, "type": "electric_scooter", "name": "9d4828ba708b93adbef36757aaa040f9", "is_disabled": 0, "rental_uris": {"ios": "https://dc.lft.to/lastmile_qr_scan", "android": "https://dc.lft.to/lastmile_qr_scan"}, "is_reserved": 0}, {"lon": -77.03442333333334, "bike_id": "30b61ffc0ad517ec1a3ef2d9d7e41f2c", "lat": 38.9096965, "fusion_lon": 0.0, "fusion_lat": 0.0, "type": "electric_scooter", "name": "30b61ffc0ad517ec1a3ef2d9d7e41f2c", "is_disabled": 0, "rental_uris": {"ios": "https://dc.lft.to/lastmile_qr_scan", "android": "https://dc.lft.to/lastmile_qr_scan"}, "is_reserved": 0}, {"lon": -77.0467775, "bike_id": "f3600df575972d3fde8382895b99a7fd", "lat": 38.907185, "fusion_lon": 0.0, "fusion_lat": 0.0, "type": "electric_scooter", "name": "f3600df575972d3fde8382895b99a7fd", "is_disabled": 0, "rental_uris": {"ios": "https://dc.lft.to/lastmile_qr_scan", "android": "https://dc.lft.to/lastmile_qr_scan"}, "is_reserved": 0}, {"lon": -77.032643, "bike_id": "0ac151cbad7996dee2432248eee1a287", "lat": 38.932414666666666, "fusion_lon": 0.0, "fusion_lat": 0.0, "type": "electric_scooter", "name": "0ac151cbad7996dee2432248eee1a287", "is_disabled": 0, "rental_uris": {"ios": "https://dc.lft.to/lastmile_qr_scan", "android": "https://dc.lft.to/lastmile_qr_scan"}, "is_reserved": 0}, {"lon": -77.03578516666667, "bike_id": "abe82944b11c89b6f452bfef4a9a5f08", "lat": 38.9104415, "fusion_lon": 0.0, "fusion_lat": 0.0, "type": "electric_scooter", "name": "abe82944b11c89b6f452bfef4a9a5f08", "is_disabled": 0, "rental_uris": {"ios": "https://dc.lft.to/lastmile_qr_scan", "android": "https://dc.lft.to/lastmile_qr_scan"}, "is_reserved": 0}, {"lon": -77.0442515, "bike_id": "a92a7f0b40d1b7bc2ee2450ce28e9e2d", "lat": 38.911287, "fusion_lon": 0.0, "fusion_lat": 0.0, "type": "electric_scooter", "name": "a92a7f0b40d1b7bc2ee2450ce28e9e2d", "is_disabled": 0, "rental_uris": {"ios": "https://dc.lft.to/lastmile_qr_scan", "android": "https://dc.lft.to/lastmile_qr_scan"}, "is_reserved": 0}, {"lon": -77.032603, "bike_id": "7f18666885fae4077fbc22b7f6f56bc8", "lat": 38.937749333333336, "fusion_lon": 0.0, "fusion_lat": 0.0, "type": "electric_scooter", "name": "7f18666885fae4077fbc22b7f6f56bc8", "is_disabled": 0, "rental_uris": {"ios": "https://dc.lft.to/lastmile_qr_scan", "android": "https://dc.lft.to/lastmile_qr_scan"}, "is_reserved": 0}, {"lon": -77.03330433333333, "bike_id": "435af4913f4d7c029c6d3a3d3563c32a", "lat": 38.94715733333334, "fusion_lon": 0.0, "fusion_lat": 0.0, "type": "electric_scooter", "name": "435af4913f4d7c029c6d3a3d3563c32a", "is_disabled": 0, "rental_uris": {"ios": "https://dc.lft.to/lastmile_qr_scan", "android": "https://dc.lft.to/lastmile_qr_scan"}, "is_reserved": 0}, {"lon": -77.0319665, "bike_id": "1f61f4db75909541489f15826a8a48b0", "lat": 38.91735533333333, "fusion_lon": 0.0, "fusion_lat": 0.0, "type": "electric_scooter", "name": "1f61f4db75909541489f15826a8a48b0", "is_disabled": 0, "rental_uris": {"ios": "https://dc.lft.to/lastmile_qr_scan", "android": "https://dc.lft.to/lastmile_qr_scan"}, "is_reserved": 0}, {"lon": -77.04221533333333, "bike_id": "2224fc3b80550eec80cea439fc5304a7", "lat": 38.913365666666664, "fusion_lon": 0.0, "fusion_lat": 0.0, "type": "electric_scooter", "name": "2224fc3b80550eec80cea439fc5304a7", "is_disabled": 0, "rental_uris": {"ios": "https://dc.lft.to/lastmile_qr_scan", "android": "https://dc.lft.to/lastmile_qr_scan"}, "is_reserved": 0}, {"lon": -76.99296266666667, "bike_id": "8b3cd75c2746b4b950408bdffd801f46", "lat": 38.898895833333334, "fusion_lon": 0.0, "fusion_lat": 0.0, "type": "electric_scooter", "name": "8b3cd75c2746b4b950408bdffd801f46", "is_disabled": 0, "rental_uris": {"ios": "https://dc.lft.to/lastmile_qr_scan", "android": "https://dc.lft.to/lastmile_qr_scan"}, "is_reserved": 0}, {"lon": -77.03196733333333, "bike_id": "275ba0506f18841dc6a988bde28d960b", "lat": 38.927793, "fusion_lon": 0.0, "fusion_lat": 0.0, "type": "electric_scooter", "name": "275ba0506f18841dc6a988bde28d960b", "is_disabled": 0, "rental_uris": {"ios": "https://dc.lft.to/lastmile_qr_scan", "android": "https://dc.lft.to/lastmile_qr_scan"}, "is_reserved": 0}, {"lon": -77.0353505, "bike_id": "ba9d965a5965d2702398af8e697e6108", "lat": 38.92567483333333, "fusion_lon": 0.0, "fusion_lat": 0.0, "type": "electric_scooter", "name": "ba9d965a5965d2702398af8e697e6108", "is_disabled": 0, "rental_uris": {"ios": "https://dc.lft.to/lastmile_qr_scan", "android": "https://dc.lft.to/lastmile_qr_scan"}, "is_reserved": 0}, {"lon": -77.027437, "bike_id": "8b830488fb5f2a0a205735f5aba4c80c", "lat": 38.933353, "fusion_lon": 0.0, "fusion_lat": 0.0, "type": "electric_scooter", "name": "8b830488fb5f2a0a205735f5aba4c80c", "is_disabled": 0, "rental_uris": {"ios": "https://dc.lft.to/lastmile_qr_scan", "android": "https://dc.lft.to/lastmile_qr_scan"}, "is_reserved": 0}, {"lon": -77.04183716666667, "bike_id": "a799e488dacaa16c087071a53cc87cb1", "lat": 38.90543566666667, "fusion_lon": 0.0, "fusion_lat": 0.0, "type": "electric_scooter", "name": "a799e488dacaa16c087071a53cc87cb1", "is_disabled": 0, "rental_uris": {"ios": "https://dc.lft.to/lastmile_qr_scan", "android": "https://dc.lft.to/lastmile_qr_scan"}, "is_reserved": 0}, {"lon": -77.03763366666666, "bike_id": "8c243203b9f757e880e51014d1abe7f2", "lat": 38.92011016666667, "fusion_lon": 0.0, "fusion_lat": 0.0, "type": "electric_scooter", "name": "8c243203b9f757e880e51014d1abe7f2", "is_disabled": 0, "rental_uris": {"ios": "https://dc.lft.to/lastmile_qr_scan", "android": "https://dc.lft.to/lastmile_qr_scan"}, "is_reserved": 0}, {"lon": -77.02170466666666, "bike_id": "758163f67e0f21fdb82d65a873e239ea", "lat": 38.92997316666667, "fusion_lon": 0.0, "fusion_lat": 0.0, "type": "electric_scooter", "name": "758163f67e0f21fdb82d65a873e239ea", "is_disabled": 0, "rental_uris": {"ios": "https://dc.lft.to/lastmile_qr_scan", "android": "https://dc.lft.to/lastmile_qr_scan"}, "is_reserved": 0}, {"lon": -77.05729066666666, "bike_id": "01ccf4aa3ce8ad434f620f8bae932bf9", "lat": 38.93368816666667, "fusion_lon": 0.0, "fusion_lat": 0.0, "type": "electric_scooter", "name": "01ccf4aa3ce8ad434f620f8bae932bf9", "is_disabled": 0, "rental_uris": {"ios": "https://dc.lft.to/lastmile_qr_scan", "android": "https://dc.lft.to/lastmile_qr_scan"}, "is_reserved": 0}, {"lon": -77.03179616666667, "bike_id": "78b881e8a63d58b9fb773d4f30d5c2f7", "lat": 38.89224433333333, "fusion_lon": 0.0, "fusion_lat": 0.0, "type": "electric_scooter", "name": "78b881e8a63d58b9fb773d4f30d5c2f7", "is_disabled": 0, "rental_uris": {"ios": "https://dc.lft.to/lastmile_qr_scan", "android": "https://dc.lft.to/lastmile_qr_scan"}, "is_reserved": 0}, {"lon": -77.02175583333333, "bike_id": "b3557412723f6d135f617854611817c8", "lat": 38.9307655, "fusion_lon": 0.0, "fusion_lat": 0.0, "type": "electric_scooter", "name": "b3557412723f6d135f617854611817c8", "is_disabled": 0, "rental_uris": {"ios": "https://dc.lft.to/lastmile_qr_scan", "android": "https://dc.lft.to/lastmile_qr_scan"}, "is_reserved": 0}, {"lon": -77.04819616666667, "bike_id": "90b2b5fb690cca01c720c1ec7b6d658e", "lat": 38.897341833333336, "fusion_lon": 0.0, "fusion_lat": 0.0, "type": "electric_scooter", "name": "90b2b5fb690cca01c720c1ec7b6d658e", "is_disabled": 0, "rental_uris": {"ios": "https://dc.lft.to/lastmile_qr_scan", "android": "https://dc.lft.to/lastmile_qr_scan"}, "is_reserved": 0}, {"lon": -77.07590433333333, "bike_id": "ef703b92c9715c64d8012220b98c58c4", "lat": 38.912189, "fusion_lon": 0.0, "fusion_lat": 0.0, "type": "electric_scooter", "name": "ef703b92c9715c64d8012220b98c58c4", "is_disabled": 0, "rental_uris": {"ios": "https://dc.lft.to/lastmile_qr_scan", "android": "https://dc.lft.to/lastmile_qr_scan"}, "is_reserved": 0}, {"lon": -77.03868533333333, "bike_id": "d23b87bcd0aeda1eb140374f4b799e59", "lat": 38.914840166666664, "fusion_lon": 0.0, "fusion_lat": 0.0, "type": "electric_scooter", "name": "d23b87bcd0aeda1eb140374f4b799e59", "is_disabled": 0, "rental_uris": {"ios": "https://dc.lft.to/lastmile_qr_scan", "android": "https://dc.lft.to/lastmile_qr_scan"}, "is_reserved": 0}, {"lon": -77.01261983333333, "bike_id": "3d08dad0624d5b46f3a792fe2a7c605a", "lat": 38.864624166666665, "fusion_lon": 0.0, "fusion_lat": 0.0, "type": "electric_scooter", "name": "3d08dad0624d5b46f3a792fe2a7c605a", "is_disabled": 0, "rental_uris": {"ios": "https://dc.lft.to/lastmile_qr_scan", "android": "https://dc.lft.to/lastmile_qr_scan"}, "is_reserved": 0}, {"lon": -77.02258683333334, "bike_id": "c6d3d752f246bbc9ca34ff00b10ab88f", "lat": 38.9268235, "fusion_lon": 0.0, "fusion_lat": 0.0, "type": "electric_scooter", "name": "c6d3d752f246bbc9ca34ff00b10ab88f", "is_disabled": 0, "rental_uris": {"ios": "https://dc.lft.to/lastmile_qr_scan", "android": "https://dc.lft.to/lastmile_qr_scan"}, "is_reserved": 0}, {"lon": -76.99464533333334, "bike_id": "b5ada499b4c69ca50fdc8b4551f8dc7d", "lat": 38.90373616666667, "fusion_lon": 0.0, "fusion_lat": 0.0, "type": "electric_scooter", "name": "b5ada499b4c69ca50fdc8b4551f8dc7d", "is_disabled": 0, "rental_uris": {"ios": "https://dc.lft.to/lastmile_qr_scan", "android": "https://dc.lft.to/lastmile_qr_scan"}, "is_reserved": 0}, {"lon": -76.97245166666667, "bike_id": "47094e53dbb8447734572ea7219dd29b", "lat": 38.9034755, "fusion_lon": 0.0, "fusion_lat": 0.0, "type": "electric_scooter", "name": "47094e53dbb8447734572ea7219dd29b", "is_disabled": 0, "rental_uris": {"ios": "https://dc.lft.to/lastmile_qr_scan", "android": "https://dc.lft.to/lastmile_qr_scan"}, "is_reserved": 0}, {"lon": -77.0722295, "bike_id": "e47d95a74fd50053983279244cf69819", "lat": 38.89902216666667, "fusion_lon": 0.0, "fusion_lat": 0.0, "type": "electric_scooter", "name": "e47d95a74fd50053983279244cf69819", "is_disabled": 0, "rental_uris": {"ios": "https://dc.lft.to/lastmile_qr_scan", "android": "https://dc.lft.to/lastmile_qr_scan"}, "is_reserved": 0}, {"lon": -77.02310116666666, "bike_id": "8057a1555be0ea78e51eb5d638e2ce5e", "lat": 38.942035, "fusion_lon": 0.0, "fusion_lat": 0.0, "type": "electric_scooter", "name": "8057a1555be0ea78e51eb5d638e2ce5e", "is_disabled": 0, "rental_uris": {"ios": "https://dc.lft.to/lastmile_qr_scan", "android": "https://dc.lft.to/lastmile_qr_scan"}, "is_reserved": 0}, {"lon": -77.04920516666667, "bike_id": "8c653b4bc09d49ee6d731bc366ccbd1e", "lat": 38.908661333333335, "fusion_lon": 0.0, "fusion_lat": 0.0, "type": "electric_scooter", "name": "8c653b4bc09d49ee6d731bc366ccbd1e", "is_disabled": 0, "rental_uris": {"ios": "https://dc.lft.to/lastmile_qr_scan", "android": "https://dc.lft.to/lastmile_qr_scan"}, "is_reserved": 0}, {"lon": -77.00055733333333, "bike_id": "b65c8b4c49871e4e069ab95f2a70d18f", "lat": 38.92398583333333, "fusion_lon": 0.0, "fusion_lat": 0.0, "type": "electric_scooter", "name": "b65c8b4c49871e4e069ab95f2a70d18f", "is_disabled": 0, "rental_uris": {"ios": "https://dc.lft.to/lastmile_qr_scan", "android": "https://dc.lft.to/lastmile_qr_scan"}, "is_reserved": 0}, {"lon": -76.99837416666666, "bike_id": "438ccd7ef2892b350c55d5188a57a2ab", "lat": 38.90006016666667, "fusion_lon": 0.0, "fusion_lat": 0.0, "type": "electric_scooter", "name": "438ccd7ef2892b350c55d5188a57a2ab", "is_disabled": 0, "rental_uris": {"ios": "https://dc.lft.to/lastmile_qr_scan", "android": "https://dc.lft.to/lastmile_qr_scan"}, "is_reserved": 0}, {"lon": -77.037809, "bike_id": "fe449c6da89ad79ced4c58178ef90ee9", "lat": 38.92961733333333, "fusion_lon": 0.0, "fusion_lat": 0.0, "type": "electric_scooter", "name": "fe449c6da89ad79ced4c58178ef90ee9", "is_disabled": 0, "rental_uris": {"ios": "https://dc.lft.to/lastmile_qr_scan", "android": "https://dc.lft.to/lastmile_qr_scan"}, "is_reserved": 0}, {"lon": -77.02994033333333, "bike_id": "1ddf71777daa2908f15a45ae77df2769", "lat": 38.91257916666667, "fusion_lon": 0.0, "fusion_lat": 0.0, "type": "electric_scooter", "name": "1ddf71777daa2908f15a45ae77df2769", "is_disabled": 0, "rental_uris": {"ios": "https://dc.lft.to/lastmile_qr_scan", "android": "https://dc.lft.to/lastmile_qr_scan"}, "is_reserved": 0}, {"lon": -76.9893445, "bike_id": "37443965810448e0430a3d1eaa40379e", "lat": 38.91837783333333, "fusion_lon": 0.0, "fusion_lat": 0.0, "type": "electric_scooter", "name": "37443965810448e0430a3d1eaa40379e", "is_disabled": 0, "rental_uris": {"ios": "https://dc.lft.to/lastmile_qr_scan", "android": "https://dc.lft.to/lastmile_qr_scan"}, "is_reserved": 0}, {"lon": -77.02573383333333, "bike_id": "4100ed03a96285939ba59f40ef046504", "lat": 38.91338866666667, "fusion_lon": 0.0, "fusion_lat": 0.0, "type": "electric_scooter", "name": "4100ed03a96285939ba59f40ef046504", "is_disabled": 0, "rental_uris": {"ios": "https://dc.lft.to/lastmile_qr_scan", "android": "https://dc.lft.to/lastmile_qr_scan"}, "is_reserved": 0}, {"lon": -77.0369495, "bike_id": "cc894bf335c33a285abdd74146f7535f", "lat": 38.93528533333333, "fusion_lon": 0.0, "fusion_lat": 0.0, "type": "electric_scooter", "name": "cc894bf335c33a285abdd74146f7535f", "is_disabled": 0, "rental_uris": {"ios": "https://dc.lft.to/lastmile_qr_scan", "android": "https://dc.lft.to/lastmile_qr_scan"}, "is_reserved": 0}, {"lon": -77.02502266666667, "bike_id": "bceb2a6350256b4a174152a465e1ee97", "lat": 38.92078166666667, "fusion_lon": 0.0, "fusion_lat": 0.0, "type": "electric_scooter", "name": "bceb2a6350256b4a174152a465e1ee97", "is_disabled": 0, "rental_uris": {"ios": "https://dc.lft.to/lastmile_qr_scan", "android": "https://dc.lft.to/lastmile_qr_scan"}, "is_reserved": 0}, {"lon": -77.055886, "bike_id": "c2a204f9f529ab18edc1d246ff9dda7d", "lat": 38.89309083333333, "fusion_lon": 0.0, "fusion_lat": 0.0, "type": "electric_scooter", "name": "c2a204f9f529ab18edc1d246ff9dda7d", "is_disabled": 0, "rental_uris": {"ios": "https://dc.lft.to/lastmile_qr_scan", "android": "https://dc.lft.to/lastmile_qr_scan"}, "is_reserved": 0}, {"lon": -76.9840755, "bike_id": "e228ab944e9db78ce9502fb907058b0c", "lat": 38.90631233333333, "fusion_lon": 0.0, "fusion_lat": 0.0, "type": "electric_scooter", "name": "e228ab944e9db78ce9502fb907058b0c", "is_disabled": 0, "rental_uris": {"ios": "https://dc.lft.to/lastmile_qr_scan", "android": "https://dc.lft.to/lastmile_qr_scan"}, "is_reserved": 0}, {"lon": -76.98767766666667, "bike_id": "9dac2f4f1ded3939f7c1eaf101ffb78b", "lat": 38.866099166666665, "fusion_lon": 0.0, "fusion_lat": 0.0, "type": "electric_bike", "name": "9dac2f4f1ded3939f7c1eaf101ffb78b", "is_disabled": 0, "rental_uris": {"ios": "https://dc.lft.to/lastmile_qr_scan", "android": "https://dc.lft.to/lastmile_qr_scan"}, "is_reserved": 0}, {"lon": -77.04015633333333, "bike_id": "eeb9894c27837c88dae10d8674a8f1b8", "lat": 38.903856833333336, "fusion_lon": 0.0, "fusion_lat": 0.0, "type": "electric_scooter", "name": "eeb9894c27837c88dae10d8674a8f1b8", "is_disabled": 0, "rental_uris": {"ios": "https://dc.lft.to/lastmile_qr_scan", "android": "https://dc.lft.to/lastmile_qr_scan"}, "is_reserved": 0}, {"lon": -77.03930833333334, "bike_id": "7d3a3fa0d332c936b1c5eb9771c4b0ca", "lat": 38.921041, "fusion_lon": 0.0, "fusion_lat": 0.0, "type": "electric_scooter", "name": "7d3a3fa0d332c936b1c5eb9771c4b0ca", "is_disabled": 0, "rental_uris": {"ios": "https://dc.lft.to/lastmile_qr_scan", "android": "https://dc.lft.to/lastmile_qr_scan"}, "is_reserved": 0}, {"lon": -77.0364975, "bike_id": "70dd4e95d77c91737ce4ec3b06a9d736", "lat": 38.912266833333334, "fusion_lon": 0.0, "fusion_lat": 0.0, "type": "electric_scooter", "name": "70dd4e95d77c91737ce4ec3b06a9d736", "is_disabled": 0, "rental_uris": {"ios": "https://dc.lft.to/lastmile_qr_scan", "android": "https://dc.lft.to/lastmile_qr_scan"}, "is_reserved": 0}, {"lon": -76.990743, "bike_id": "dacf8b99c2c60617dd81cd8155a80ff8", "lat": 38.9274645, "fusion_lon": 0.0, "fusion_lat": 0.0, "type": "electric_scooter", "name": "dacf8b99c2c60617dd81cd8155a80ff8", "is_disabled": 0, "rental_uris": {"ios": "https://dc.lft.to/lastmile_qr_scan", "android": "https://dc.lft.to/lastmile_qr_scan"}, "is_reserved": 0}, {"lon": -77.03261216666667, "bike_id": "3a7230c3bb9f65c9260636d364b5d073", "lat": 38.932027, "fusion_lon": 0.0, "fusion_lat": 0.0, "type": "electric_scooter", "name": "3a7230c3bb9f65c9260636d364b5d073", "is_disabled": 0, "rental_uris": {"ios": "https://dc.lft.to/lastmile_qr_scan", "android": "https://dc.lft.to/lastmile_qr_scan"}, "is_reserved": 0}, {"lon": -77.03643783333334, "bike_id": "873fc671ec3e4fa7039a85a8678a5533", "lat": 38.902765333333335, "fusion_lon": 0.0, "fusion_lat": 0.0, "type": "electric_scooter", "name": "873fc671ec3e4fa7039a85a8678a5533", "is_disabled": 0, "rental_uris": {"ios": "https://dc.lft.to/lastmile_qr_scan", "android": "https://dc.lft.to/lastmile_qr_scan"}, "is_reserved": 0}, {"lon": -77.1159325, "bike_id": "ec539ba6ee3e148a6ea97b44aa18ffae", "lat": 39.074923, "fusion_lon": 0.0, "fusion_lat": 0.0, "type": "electric_bike", "name": "ec539ba6ee3e148a6ea97b44aa18ffae", "is_disabled": 0, "rental_uris": {"ios": "https://dc.lft.to/lastmile_qr_scan", "android": "https://dc.lft.to/lastmile_qr_scan"}, "is_reserved": 0}, {"lon": -76.96912283333333, "bike_id": "7cf01540172d404c85f973f17bb293a4", "lat": 38.846114666666665, "fusion_lon": 0.0, "fusion_lat": 0.0, "type": "electric_bike", "name": "7cf01540172d404c85f973f17bb293a4", "is_disabled": 0, "rental_uris": {"ios": "https://dc.lft.to/lastmile_qr_scan", "android": "https://dc.lft.to/lastmile_qr_scan"}, "is_reserved": 0}, {"lon": -77.026598, "bike_id": "c1e329afd54d98f17408698eae5191ee", "lat": 38.925801166666666, "fusion_lon": 0.0, "fusion_lat": 0.0, "type": "electric_scooter", "name": "c1e329afd54d98f17408698eae5191ee", "is_disabled": 0, "rental_uris": {"ios": "https://dc.lft.to/lastmile_qr_scan", "android": "https://dc.lft.to/lastmile_qr_scan"}, "is_reserved": 0}, {"lon": -77.03842716666666, "bike_id": "ca39491e7988d70e78b7640b9055f95d", "lat": 38.90352383333333, "fusion_lon": 0.0, "fusion_lat": 0.0, "type": "electric_scooter", "name": "ca39491e7988d70e78b7640b9055f95d", "is_disabled": 0, "rental_uris": {"ios": "https://dc.lft.to/lastmile_qr_scan", "android": "https://dc.lft.to/lastmile_qr_scan"}, "is_reserved": 0}, {"lon": -77.02798933333334, "bike_id": "b816cd884402fa2b1a0eefcee1d7dc91", "lat": 38.90561233333333, "fusion_lon": 0.0, "fusion_lat": 0.0, "type": "electric_scooter", "name": "b816cd884402fa2b1a0eefcee1d7dc91", "is_disabled": 0, "rental_uris": {"ios": "https://dc.lft.to/lastmile_qr_scan", "android": "https://dc.lft.to/lastmile_qr_scan"}, "is_reserved": 0}, {"lon": -76.99932466666667, "bike_id": "387f6c1c8e6d0004a0ad4973fa0645da", "lat": 38.84315333333333, "fusion_lon": 0.0, "fusion_lat": 0.0, "type": "electric_scooter", "name": "387f6c1c8e6d0004a0ad4973fa0645da", "is_disabled": 0, "rental_uris": {"ios": "https://dc.lft.to/lastmile_qr_scan", "android": "https://dc.lft.to/lastmile_qr_scan"}, "is_reserved": 0}, {"lon": -76.99052466666667, "bike_id": "17fa2ab7c4dfd68dd5aaaa9691d659bc", "lat": 38.86376716666667, "fusion_lon": 0.0, "fusion_lat": 0.0, "type": "electric_scooter", "name": "17fa2ab7c4dfd68dd5aaaa9691d659bc", "is_disabled": 0, "rental_uris": {"ios": "https://dc.lft.to/lastmile_qr_scan", "android": "https://dc.lft.to/lastmile_qr_scan"}, "is_reserved": 0}, {"lon": -77.039984, "bike_id": "884322569a82ef2fb06bf4b9f78ae957", "lat": 38.933013333333335, "fusion_lon": 0.0, "fusion_lat": 0.0, "type": "electric_scooter", "name": "884322569a82ef2fb06bf4b9f78ae957", "is_disabled": 0, "rental_uris": {"ios": "https://dc.lft.to/lastmile_qr_scan", "android": "https://dc.lft.to/lastmile_qr_scan"}, "is_reserved": 0}, {"lon": -77.04124266666666, "bike_id": "b91cb93be832a251b1ec738bd0c3931f", "lat": 38.944103, "fusion_lon": 0.0, "fusion_lat": 0.0, "type": "electric_bike", "name": "b91cb93be832a251b1ec738bd0c3931f", "is_disabled": 0, "rental_uris": {"ios": "https://dc.lft.to/lastmile_qr_scan", "android": "https://dc.lft.to/lastmile_qr_scan"}, "is_reserved": 0}, {"lon": -77.01651433333333, "bike_id": "84a8e2e992642ea56e287df9bc5323c8", "lat": 38.881153166666664, "fusion_lon": 0.0, "fusion_lat": 0.0, "type": "electric_scooter", "name": "84a8e2e992642ea56e287df9bc5323c8", "is_disabled": 0, "rental_uris": {"ios": "https://dc.lft.to/lastmile_qr_scan", "android": "https://dc.lft.to/lastmile_qr_scan"}, "is_reserved": 0}, {"lon": -77.08196616666666, "bike_id": "766b874879754339bf50720045a4fe40", "lat": 38.92211433333333, "fusion_lon": 0.0, "fusion_lat": 0.0, "type": "electric_bike", "name": "766b874879754339bf50720045a4fe40", "is_disabled": 0, "rental_uris": {"ios": "https://dc.lft.to/lastmile_qr_scan", "android": "https://dc.lft.to/lastmile_qr_scan"}, "is_reserved": 0}, {"lon": -77.033339, "bike_id": "4072f55e096e793fe9811809f52f4f1e", "lat": 38.91558366666667, "fusion_lon": 0.0, "fusion_lat": 0.0, "type": "electric_scooter", "name": "4072f55e096e793fe9811809f52f4f1e", "is_disabled": 0, "rental_uris": {"ios": "https://dc.lft.to/lastmile_qr_scan", "android": "https://dc.lft.to/lastmile_qr_scan"}, "is_reserved": 0}, {"lon": -77.04320183333333, "bike_id": "edcbb8bb97187e13c4d1228b9f32c17f", "lat": 38.90728083333333, "fusion_lon": 0.0, "fusion_lat": 0.0, "type": "electric_scooter", "name": "edcbb8bb97187e13c4d1228b9f32c17f", "is_disabled": 0, "rental_uris": {"ios": "https://dc.lft.to/lastmile_qr_scan", "android": "https://dc.lft.to/lastmile_qr_scan"}, "is_reserved": 0}, {"lon": -77.0226065, "bike_id": "e7dc7f2655a27aec4c5538b2c74950c2", "lat": 38.91281766666667, "fusion_lon": 0.0, "fusion_lat": 0.0, "type": "electric_scooter", "name": "e7dc7f2655a27aec4c5538b2c74950c2", "is_disabled": 0, "rental_uris": {"ios": "https://dc.lft.to/lastmile_qr_scan", "android": "https://dc.lft.to/lastmile_qr_scan"}, "is_reserved": 0}, {"lon": -77.0067185, "bike_id": "312c05edbc05ee76f95e9e26c62fc949", "lat": 38.94507883333333, "fusion_lon": 0.0, "fusion_lat": 0.0, "type": "electric_bike", "name": "312c05edbc05ee76f95e9e26c62fc949", "is_disabled": 0, "rental_uris": {"ios": "https://dc.lft.to/lastmile_qr_scan", "android": "https://dc.lft.to/lastmile_qr_scan"}, "is_reserved": 0}, {"lon": -77.03815333333333, "bike_id": "f4ebd8b2310a298ad8721be612be1bd0", "lat": 38.9207615, "fusion_lon": 0.0, "fusion_lat": 0.0, "type": "electric_scooter", "name": "f4ebd8b2310a298ad8721be612be1bd0", "is_disabled": 0, "rental_uris": {"ios": "https://dc.lft.to/lastmile_qr_scan", "android": "https://dc.lft.to/lastmile_qr_scan"}, "is_reserved": 0}, {"lon": -77.00583133333333, "bike_id": "6f05a558b8f9f48d4d23fcc9f15556d5", "lat": 38.87480983333333, "fusion_lon": 0.0, "fusion_lat": 0.0, "type": "electric_scooter", "name": "6f05a558b8f9f48d4d23fcc9f15556d5", "is_disabled": 0, "rental_uris": {"ios": "https://dc.lft.to/lastmile_qr_scan", "android": "https://dc.lft.to/lastmile_qr_scan"}, "is_reserved": 0}, {"lon": -77.03211616666667, "bike_id": "c974bb2f425d60f36f9d0cd863469c84", "lat": 38.917055833333336, "fusion_lon": 0.0, "fusion_lat": 0.0, "type": "electric_scooter", "name": "c974bb2f425d60f36f9d0cd863469c84", "is_disabled": 0, "rental_uris": {"ios": "https://dc.lft.to/lastmile_qr_scan", "android": "https://dc.lft.to/lastmile_qr_scan"}, "is_reserved": 0}, {"lon": -77.0635055, "bike_id": "313e75289d10bbdf6719a7a5c5e5fe8b", "lat": 38.907875833333335, "fusion_lon": 0.0, "fusion_lat": 0.0, "type": "electric_scooter", "name": "313e75289d10bbdf6719a7a5c5e5fe8b", "is_disabled": 0, "rental_uris": {"ios": "https://dc.lft.to/lastmile_qr_scan", "android": "https://dc.lft.to/lastmile_qr_scan"}, "is_reserved": 0}, {"lon": -77.02325916666666, "bike_id": "0650d56a7d379c3a0c9aa693a74908b7", "lat": 38.93530066666667, "fusion_lon": 0.0, "fusion_lat": 0.0, "type": "electric_scooter", "name": "0650d56a7d379c3a0c9aa693a74908b7", "is_disabled": 0, "rental_uris": {"ios": "https://dc.lft.to/lastmile_qr_scan", "android": "https://dc.lft.to/lastmile_qr_scan"}, "is_reserved": 0}, {"lon": -76.97559616666666, "bike_id": "174164a95eab4b8b32fe917856ef8054", "lat": 38.924594166666665, "fusion_lon": 0.0, "fusion_lat": 0.0, "type": "electric_bike", "name": "174164a95eab4b8b32fe917856ef8054", "is_disabled": 0, "rental_uris": {"ios": "https://dc.lft.to/lastmile_qr_scan", "android": "https://dc.lft.to/lastmile_qr_scan"}, "is_reserved": 0}, {"lon": -76.95003666666666, "bike_id": "434166dd44b1d35b326fa733bc50d71a", "lat": 38.8938545, "fusion_lon": 0.0, "fusion_lat": 0.0, "type": "electric_scooter", "name": "434166dd44b1d35b326fa733bc50d71a", "is_disabled": 0, "rental_uris": {"ios": "https://dc.lft.to/lastmile_qr_scan", "android": "https://dc.lft.to/lastmile_qr_scan"}, "is_reserved": 0}, {"lon": -77.0159775, "bike_id": "29bf8413f52dcebdf24b68110221af89", "lat": 38.88315016666667, "fusion_lon": 0.0, "fusion_lat": 0.0, "type": "electric_scooter", "name": "29bf8413f52dcebdf24b68110221af89", "is_disabled": 0, "rental_uris": {"ios": "https://dc.lft.to/lastmile_qr_scan", "android": "https://dc.lft.to/lastmile_qr_scan"}, "is_reserved": 0}, {"lon": -77.0326545, "bike_id": "eae72c6869a06267cc7f6a813b67301a", "lat": 38.937780833333335, "fusion_lon": 0.0, "fusion_lat": 0.0, "type": "electric_scooter", "name": "eae72c6869a06267cc7f6a813b67301a", "is_disabled": 0, "rental_uris": {"ios": "https://dc.lft.to/lastmile_qr_scan", "android": "https://dc.lft.to/lastmile_qr_scan"}, "is_reserved": 0}, {"lon": -77.03259933333334, "bike_id": "445e47bd27852c48124ddbcb091058d5", "lat": 38.93138233333333, "fusion_lon": 0.0, "fusion_lat": 0.0, "type": "electric_scooter", "name": "445e47bd27852c48124ddbcb091058d5", "is_disabled": 0, "rental_uris": {"ios": "https://dc.lft.to/lastmile_qr_scan", "android": "https://dc.lft.to/lastmile_qr_scan"}, "is_reserved": 0}, {"lon": -77.01093766666666, "bike_id": "3b0f0422953cee00f38ad19a50e01d28", "lat": 38.908683, "fusion_lon": 0.0, "fusion_lat": 0.0, "type": "electric_scooter", "name": "3b0f0422953cee00f38ad19a50e01d28", "is_disabled": 0, "rental_uris": {"ios": "https://dc.lft.to/lastmile_qr_scan", "android": "https://dc.lft.to/lastmile_qr_scan"}, "is_reserved": 0}, {"lon": -76.99755216666667, "bike_id": "4510a5656a2a27e05d6ed739789adc66", "lat": 38.950134, "fusion_lon": 0.0, "fusion_lat": 0.0, "type": "electric_bike", "name": "4510a5656a2a27e05d6ed739789adc66", "is_disabled": 0, "rental_uris": {"ios": "https://dc.lft.to/lastmile_qr_scan", "android": "https://dc.lft.to/lastmile_qr_scan"}, "is_reserved": 0}, {"lon": -77.01445266666667, "bike_id": "6fd655a7ec6e2163835cc52b4093bf56", "lat": 38.905429166666664, "fusion_lon": 0.0, "fusion_lat": 0.0, "type": "electric_scooter", "name": "6fd655a7ec6e2163835cc52b4093bf56", "is_disabled": 0, "rental_uris": {"ios": "https://dc.lft.to/lastmile_qr_scan", "android": "https://dc.lft.to/lastmile_qr_scan"}, "is_reserved": 0}, {"lon": -76.97857466666666, "bike_id": "3f26c2b618f379fec5b9075885c1722e", "lat": 38.9072265, "fusion_lon": 0.0, "fusion_lat": 0.0, "type": "electric_scooter", "name": "3f26c2b618f379fec5b9075885c1722e", "is_disabled": 0, "rental_uris": {"ios": "https://dc.lft.to/lastmile_qr_scan", "android": "https://dc.lft.to/lastmile_qr_scan"}, "is_reserved": 0}, {"lon": -77.020925, "bike_id": "f8ecdd18e0fdb8a9ea1ef4f99edca1c7", "lat": 38.929149, "fusion_lon": 0.0, "fusion_lat": 0.0, "type": "electric_scooter", "name": "f8ecdd18e0fdb8a9ea1ef4f99edca1c7", "is_disabled": 0, "rental_uris": {"ios": "https://dc.lft.to/lastmile_qr_scan", "android": "https://dc.lft.to/lastmile_qr_scan"}, "is_reserved": 0}, {"lon": -77.03445433333333, "bike_id": "413312a2f03f9af6b85003dbff21e72b", "lat": 38.9361145, "fusion_lon": 0.0, "fusion_lat": 0.0, "type": "electric_scooter", "name": "413312a2f03f9af6b85003dbff21e72b", "is_disabled": 0, "rental_uris": {"ios": "https://dc.lft.to/lastmile_qr_scan", "android": "https://dc.lft.to/lastmile_qr_scan"}, "is_reserved": 0}, {"lon": -76.985261, "bike_id": "eb31e7dd8b60f08d0ed4235d4c8aa862", "lat": 38.866858666666666, "fusion_lon": 0.0, "fusion_lat": 0.0, "type": "electric_scooter", "name": "eb31e7dd8b60f08d0ed4235d4c8aa862", "is_disabled": 0, "rental_uris": {"ios": "https://dc.lft.to/lastmile_qr_scan", "android": "https://dc.lft.to/lastmile_qr_scan"}, "is_reserved": 0}, {"lon": -77.014841, "bike_id": "73073796482ed6e897ecc62df863f1f7", "lat": 38.958687, "fusion_lon": 0.0, "fusion_lat": 0.0, "type": "electric_scooter", "name": "73073796482ed6e897ecc62df863f1f7", "is_disabled": 0, "rental_uris": {"ios": "https://dc.lft.to/lastmile_qr_scan", "android": "https://dc.lft.to/lastmile_qr_scan"}, "is_reserved": 0}, {"lon": -77.041479, "bike_id": "c196d247405f6cff9e5a8f8ff732218c", "lat": 38.9063345, "fusion_lon": 0.0, "fusion_lat": 0.0, "type": "electric_scooter", "name": "c196d247405f6cff9e5a8f8ff732218c", "is_disabled": 0, "rental_uris": {"ios": "https://dc.lft.to/lastmile_qr_scan", "android": "https://dc.lft.to/lastmile_qr_scan"}, "is_reserved": 0}, {"lon": -77.11573366666667, "bike_id": "89e5ed3f77fda22905a7134c719d9016", "lat": 38.9934275, "fusion_lon": 0.0, "fusion_lat": 0.0, "type": "electric_bike", "name": "89e5ed3f77fda22905a7134c719d9016", "is_disabled": 0, "rental_uris": {"ios": "https://dc.lft.to/lastmile_qr_scan", "android": "https://dc.lft.to/lastmile_qr_scan"}, "is_reserved": 0}, {"lon": -77.00205283333334, "bike_id": "67fc20125eefce3ef3ad7b48c2ebbe47", "lat": 38.902400666666665, "fusion_lon": 0.0, "fusion_lat": 0.0, "type": "electric_scooter", "name": "67fc20125eefce3ef3ad7b48c2ebbe47", "is_disabled": 0, "rental_uris": {"ios": "https://dc.lft.to/lastmile_qr_scan", "android": "https://dc.lft.to/lastmile_qr_scan"}, "is_reserved": 0}, {"lon": -77.0593415, "bike_id": "ef971ace143d6909b0ef1a53e9bd45ae", "lat": 38.90529683333333, "fusion_lon": 0.0, "fusion_lat": 0.0, "type": "electric_bike", "name": "ef971ace143d6909b0ef1a53e9bd45ae", "is_disabled": 0, "rental_uris": {"ios": "https://dc.lft.to/lastmile_qr_scan", "android": "https://dc.lft.to/lastmile_qr_scan"}, "is_reserved": 0}, {"lon": -77.03639283333334, "bike_id": "907dc566ec760002e9dc444e5a71ffe7", "lat": 38.918275333333334, "fusion_lon": 0.0, "fusion_lat": 0.0, "type": "electric_scooter", "name": "907dc566ec760002e9dc444e5a71ffe7", "is_disabled": 0, "rental_uris": {"ios": "https://dc.lft.to/lastmile_qr_scan", "android": "https://dc.lft.to/lastmile_qr_scan"}, "is_reserved": 0}, {"lon": -77.02911016666667, "bike_id": "d6221b8eac274296c7b8ec22b0d2c65d", "lat": 38.9169025, "fusion_lon": 0.0, "fusion_lat": 0.0, "type": "electric_scooter", "name": "d6221b8eac274296c7b8ec22b0d2c65d", "is_disabled": 0, "rental_uris": {"ios": "https://dc.lft.to/lastmile_qr_scan", "android": "https://dc.lft.to/lastmile_qr_scan"}, "is_reserved": 0}, {"lon": -77.07388366666666, "bike_id": "adf0da34530d429dfd61c7ca1afdfae5", "lat": 38.962118833333335, "fusion_lon": 0.0, "fusion_lat": 0.0, "type": "electric_scooter", "name": "adf0da34530d429dfd61c7ca1afdfae5", "is_disabled": 0, "rental_uris": {"ios": "https://dc.lft.to/lastmile_qr_scan", "android": "https://dc.lft.to/lastmile_qr_scan"}, "is_reserved": 0}, {"lon": -77.02704183333333, "bike_id": "4e6d2a542f0b4efc961ed2f31a376c61", "lat": 38.90251133333334, "fusion_lon": 0.0, "fusion_lat": 0.0, "type": "electric_scooter", "name": "4e6d2a542f0b4efc961ed2f31a376c61", "is_disabled": 0, "rental_uris": {"ios": "https://dc.lft.to/lastmile_qr_scan", "android": "https://dc.lft.to/lastmile_qr_scan"}, "is_reserved": 0}, {"lon": -77.00065883333333, "bike_id": "23f74d926e8bb174b4039bcc0abe87ee", "lat": 38.924336333333336, "fusion_lon": 0.0, "fusion_lat": 0.0, "type": "electric_scooter", "name": "23f74d926e8bb174b4039bcc0abe87ee", "is_disabled": 0, "rental_uris": {"ios": "https://dc.lft.to/lastmile_qr_scan", "android": "https://dc.lft.to/lastmile_qr_scan"}, "is_reserved": 0}, {"lon": -76.99771883333334, "bike_id": "6db7e2cc42bb57a196abdf823d4f9395", "lat": 38.922780333333336, "fusion_lon": 0.0, "fusion_lat": 0.0, "type": "electric_scooter", "name": "6db7e2cc42bb57a196abdf823d4f9395", "is_disabled": 0, "rental_uris": {"ios": "https://dc.lft.to/lastmile_qr_scan", "android": "https://dc.lft.to/lastmile_qr_scan"}, "is_reserved": 0}, {"lon": -76.96363183333334, "bike_id": "d4968fde9fd555eab6d9188e6ac0c27e", "lat": 38.935022833333335, "fusion_lon": 0.0, "fusion_lat": 0.0, "type": "electric_scooter", "name": "d4968fde9fd555eab6d9188e6ac0c27e", "is_disabled": 0, "rental_uris": {"ios": "https://dc.lft.to/lastmile_qr_scan", "android": "https://dc.lft.to/lastmile_qr_scan"}, "is_reserved": 0}, {"lon": -77.04712316666667, "bike_id": "066148ff683d8e812b6c9e5366566b71", "lat": 38.922325666666666, "fusion_lon": 0.0, "fusion_lat": 0.0, "type": "electric_scooter", "name": "066148ff683d8e812b6c9e5366566b71", "is_disabled": 0, "rental_uris": {"ios": "https://dc.lft.to/lastmile_qr_scan", "android": "https://dc.lft.to/lastmile_qr_scan"}, "is_reserved": 0}, {"lon": -77.02117416666667, "bike_id": "71777c05b3226494d1b2030cd008a404", "lat": 38.936988666666664, "fusion_lon": 0.0, "fusion_lat": 0.0, "type": "electric_scooter", "name": "71777c05b3226494d1b2030cd008a404", "is_disabled": 0, "rental_uris": {"ios": "https://dc.lft.to/lastmile_qr_scan", "android": "https://dc.lft.to/lastmile_qr_scan"}, "is_reserved": 0}, {"lon": -77.009152, "bike_id": "35a7b9869eef42a4beafe43ed92553f4", "lat": 38.82783833333333, "fusion_lon": 0.0, "fusion_lat": 0.0, "type": "electric_bike", "name": "35a7b9869eef42a4beafe43ed92553f4", "is_disabled": 0, "rental_uris": {"ios": "https://dc.lft.to/lastmile_qr_scan", "android": "https://dc.lft.to/lastmile_qr_scan"}, "is_reserved": 0}, {"lon": -77.03174416666667, "bike_id": "7cfa9ad17d3262385671492e5e2435f4", "lat": 38.919115166666664, "fusion_lon": 0.0, "fusion_lat": 0.0, "type": "electric_scooter", "name": "7cfa9ad17d3262385671492e5e2435f4", "is_disabled": 0, "rental_uris": {"ios": "https://dc.lft.to/lastmile_qr_scan", "android": "https://dc.lft.to/lastmile_qr_scan"}, "is_reserved": 0}, {"lon": -76.9761695, "bike_id": "548e6853b58e7fcf143cd82d72fa1d73", "lat": 38.90383583333333, "fusion_lon": 0.0, "fusion_lat": 0.0, "type": "electric_scooter", "name": "548e6853b58e7fcf143cd82d72fa1d73", "is_disabled": 0, "rental_uris": {"ios": "https://dc.lft.to/lastmile_qr_scan", "android": "https://dc.lft.to/lastmile_qr_scan"}, "is_reserved": 0}, {"lon": -77.032193, "bike_id": "03ad4a6a3283727d73282df874a42c8d", "lat": 38.90558716666666, "fusion_lon": 0.0, "fusion_lat": 0.0, "type": "electric_scooter", "name": "03ad4a6a3283727d73282df874a42c8d", "is_disabled": 0, "rental_uris": {"ios": "https://dc.lft.to/lastmile_qr_scan", "android": "https://dc.lft.to/lastmile_qr_scan"}, "is_reserved": 0}, {"lon": -77.05864533333333, "bike_id": "2a0572dd369759acb13ac5d53e515d3f", "lat": 38.9360525, "fusion_lon": 0.0, "fusion_lat": 0.0, "type": "electric_scooter", "name": "2a0572dd369759acb13ac5d53e515d3f", "is_disabled": 0, "rental_uris": {"ios": "https://dc.lft.to/lastmile_qr_scan", "android": "https://dc.lft.to/lastmile_qr_scan"}, "is_reserved": 0}, {"lon": -77.03834133333334, "bike_id": "6051f28a23f8403e941f4861cf9aaa0d", "lat": 38.906746, "fusion_lon": 0.0, "fusion_lat": 0.0, "type": "electric_scooter", "name": "6051f28a23f8403e941f4861cf9aaa0d", "is_disabled": 0, "rental_uris": {"ios": "https://dc.lft.to/lastmile_qr_scan", "android": "https://dc.lft.to/lastmile_qr_scan"}, "is_reserved": 0}, {"lon": -77.02759966666666, "bike_id": "b7c38baa13fb543e50043cafc23381a9", "lat": 38.944012666666666, "fusion_lon": 0.0, "fusion_lat": 0.0, "type": "electric_scooter", "name": "b7c38baa13fb543e50043cafc23381a9", "is_disabled": 0, "rental_uris": {"ios": "https://dc.lft.to/lastmile_qr_scan", "android": "https://dc.lft.to/lastmile_qr_scan"}, "is_reserved": 0}, {"lon": -77.04245866666666, "bike_id": "b4cd2147584dcf61f0af8e0082365096", "lat": 38.9148465, "fusion_lon": 0.0, "fusion_lat": 0.0, "type": "electric_scooter", "name": "b4cd2147584dcf61f0af8e0082365096", "is_disabled": 0, "rental_uris": {"ios": "https://dc.lft.to/lastmile_qr_scan", "android": "https://dc.lft.to/lastmile_qr_scan"}, "is_reserved": 0}, {"lon": -77.055079, "bike_id": "349c86e623700ecef645cc03a35cfaad", "lat": 38.9000895, "fusion_lon": 0.0, "fusion_lat": 0.0, "type": "electric_scooter", "name": "349c86e623700ecef645cc03a35cfaad", "is_disabled": 0, "rental_uris": {"ios": "https://dc.lft.to/lastmile_qr_scan", "android": "https://dc.lft.to/lastmile_qr_scan"}, "is_reserved": 0}, {"lon": -77.03079916666667, "bike_id": "b5fabce95d82fd11bdcae5169cb79f4d", "lat": 38.90272516666667, "fusion_lon": 0.0, "fusion_lat": 0.0, "type": "electric_scooter", "name": "b5fabce95d82fd11bdcae5169cb79f4d", "is_disabled": 0, "rental_uris": {"ios": "https://dc.lft.to/lastmile_qr_scan", "android": "https://dc.lft.to/lastmile_qr_scan"}, "is_reserved": 0}, {"lon": -77.02395066666666, "bike_id": "3ec39a9612ee1302f83e9185d1185e67", "lat": 38.9199355, "fusion_lon": 0.0, "fusion_lat": 0.0, "type": "electric_scooter", "name": "3ec39a9612ee1302f83e9185d1185e67", "is_disabled": 0, "rental_uris": {"ios": "https://dc.lft.to/lastmile_qr_scan", "android": "https://dc.lft.to/lastmile_qr_scan"}, "is_reserved": 0}, {"lon": -77.0331945, "bike_id": "ba90ff511b70653853cf8d79d4e562a2", "lat": 38.91564783333333, "fusion_lon": 0.0, "fusion_lat": 0.0, "type": "electric_scooter", "name": "ba90ff511b70653853cf8d79d4e562a2", "is_disabled": 0, "rental_uris": {"ios": "https://dc.lft.to/lastmile_qr_scan", "android": "https://dc.lft.to/lastmile_qr_scan"}, "is_reserved": 0}, {"lon": -77.03195083333334, "bike_id": "672435ec4c58499e618bba549618a1d0", "lat": 38.9174175, "fusion_lon": 0.0, "fusion_lat": 0.0, "type": "electric_scooter", "name": "672435ec4c58499e618bba549618a1d0", "is_disabled": 0, "rental_uris": {"ios": "https://dc.lft.to/lastmile_qr_scan", "android": "https://dc.lft.to/lastmile_qr_scan"}, "is_reserved": 0}, {"lon": -77.01997866666666, "bike_id": "f59ca8b0e68753b6235c1c037cf61b72", "lat": 38.91364016666667, "fusion_lon": 0.0, "fusion_lat": 0.0, "type": "electric_scooter", "name": "f59ca8b0e68753b6235c1c037cf61b72", "is_disabled": 0, "rental_uris": {"ios": "https://dc.lft.to/lastmile_qr_scan", "android": "https://dc.lft.to/lastmile_qr_scan"}, "is_reserved": 0}, {"lon": -77.02163, "bike_id": "48e5c9211bd8c95151e302c3a21d04ab", "lat": 38.90979333333333, "fusion_lon": 0.0, "fusion_lat": 0.0, "type": "electric_scooter", "name": "48e5c9211bd8c95151e302c3a21d04ab", "is_disabled": 0, "rental_uris": {"ios": "https://dc.lft.to/lastmile_qr_scan", "android": "https://dc.lft.to/lastmile_qr_scan"}, "is_reserved": 0}, {"lon": -77.02140866666667, "bike_id": "0fdac913e754113f836e1201c311cf2a", "lat": 38.90097333333333, "fusion_lon": 0.0, "fusion_lat": 0.0, "type": "electric_scooter", "name": "0fdac913e754113f836e1201c311cf2a", "is_disabled": 0, "rental_uris": {"ios": "https://dc.lft.to/lastmile_qr_scan", "android": "https://dc.lft.to/lastmile_qr_scan"}, "is_reserved": 0}, {"lon": -76.97535466666666, "bike_id": "841fcc7fd889303d89d1c0bb256d809d", "lat": 38.903293166666664, "fusion_lon": 0.0, "fusion_lat": 0.0, "type": "electric_bike", "name": "841fcc7fd889303d89d1c0bb256d809d", "is_disabled": 0, "rental_uris": {"ios": "https://dc.lft.to/lastmile_qr_scan", "android": "https://dc.lft.to/lastmile_qr_scan"}, "is_reserved": 0}, {"lon": -77.010096, "bike_id": "10493a46f70d834592a0d7fbf79898c5", "lat": 38.86715933333333, "fusion_lon": 0.0, "fusion_lat": 0.0, "type": "electric_scooter", "name": "10493a46f70d834592a0d7fbf79898c5", "is_disabled": 0, "rental_uris": {"ios": "https://dc.lft.to/lastmile_qr_scan", "android": "https://dc.lft.to/lastmile_qr_scan"}, "is_reserved": 0}, {"lon": -77.01155733333333, "bike_id": "466f1bab16e3265884166e0ea3bed236", "lat": 38.91416233333333, "fusion_lon": 0.0, "fusion_lat": 0.0, "type": "electric_scooter", "name": "466f1bab16e3265884166e0ea3bed236", "is_disabled": 0, "rental_uris": {"ios": "https://dc.lft.to/lastmile_qr_scan", "android": "https://dc.lft.to/lastmile_qr_scan"}, "is_reserved": 0}, {"lon": -77.01750216666667, "bike_id": "1a59507d79d21aad7fb671805f1b739c", "lat": 38.90270316666667, "fusion_lon": 0.0, "fusion_lat": 0.0, "type": "electric_scooter", "name": "1a59507d79d21aad7fb671805f1b739c", "is_disabled": 0, "rental_uris": {"ios": "https://dc.lft.to/lastmile_qr_scan", "android": "https://dc.lft.to/lastmile_qr_scan"}, "is_reserved": 0}, {"lon": -77.020304, "bike_id": "3e7456768e607dcd2fbc94ab073dc5fe", "lat": 38.899245, "fusion_lon": 0.0, "fusion_lat": 0.0, "type": "electric_scooter", "name": "3e7456768e607dcd2fbc94ab073dc5fe", "is_disabled": 0, "rental_uris": {"ios": "https://dc.lft.to/lastmile_qr_scan", "android": "https://dc.lft.to/lastmile_qr_scan"}, "is_reserved": 0}, {"lon": -77.0105325, "bike_id": "20fe7632e3335df1777097adc395a1d4", "lat": 38.9635485, "fusion_lon": 0.0, "fusion_lat": 0.0, "type": "electric_scooter", "name": "20fe7632e3335df1777097adc395a1d4", "is_disabled": 0, "rental_uris": {"ios": "https://dc.lft.to/lastmile_qr_scan", "android": "https://dc.lft.to/lastmile_qr_scan"}, "is_reserved": 0}, {"lon": -77.025911, "bike_id": "29a9aed75928e3561a859bd90755494b", "lat": 38.904900166666664, "fusion_lon": 0.0, "fusion_lat": 0.0, "type": "electric_scooter", "name": "29a9aed75928e3561a859bd90755494b", "is_disabled": 0, "rental_uris": {"ios": "https://dc.lft.to/lastmile_qr_scan", "android": "https://dc.lft.to/lastmile_qr_scan"}, "is_reserved": 0}, {"lon": -77.0099, "bike_id": "5eb3897c89c9d5b1e3c48cd7d427a807", "lat": 38.903758833333335, "fusion_lon": 0.0, "fusion_lat": 0.0, "type": "electric_scooter", "name": "5eb3897c89c9d5b1e3c48cd7d427a807", "is_disabled": 0, "rental_uris": {"ios": "https://dc.lft.to/lastmile_qr_scan", "android": "https://dc.lft.to/lastmile_qr_scan"}, "is_reserved": 0}, {"lon": -77.03993833333334, "bike_id": "3f5ca03cc78184dad1adcb034fd23d84", "lat": 38.91633566666667, "fusion_lon": 0.0, "fusion_lat": 0.0, "type": "electric_scooter", "name": "3f5ca03cc78184dad1adcb034fd23d84", "is_disabled": 0, "rental_uris": {"ios": "https://dc.lft.to/lastmile_qr_scan", "android": "https://dc.lft.to/lastmile_qr_scan"}, "is_reserved": 0}, {"lon": -77.03270033333334, "bike_id": "5f393745680030cda587df94abebbd06", "lat": 38.93668533333334, "fusion_lon": 0.0, "fusion_lat": 0.0, "type": "electric_scooter", "name": "5f393745680030cda587df94abebbd06", "is_disabled": 0, "rental_uris": {"ios": "https://dc.lft.to/lastmile_qr_scan", "android": "https://dc.lft.to/lastmile_qr_scan"}, "is_reserved": 0}, {"lon": -77.10325316666666, "bike_id": "23c9f15e53cea026b063933e169afaa5", "lat": 38.88551833333333, "fusion_lon": 0.0, "fusion_lat": 0.0, "type": "electric_bike", "name": "23c9f15e53cea026b063933e169afaa5", "is_disabled": 0, "rental_uris": {"ios": "https://dc.lft.to/lastmile_qr_scan", "android": "https://dc.lft.to/lastmile_qr_scan"}, "is_reserved": 0}, {"lon": -77.02173516666667, "bike_id": "871bc67bba28a61ece492400362ed892", "lat": 38.8973675, "fusion_lon": 0.0, "fusion_lat": 0.0, "type": "electric_scooter", "name": "871bc67bba28a61ece492400362ed892", "is_disabled": 0, "rental_uris": {"ios": "https://dc.lft.to/lastmile_qr_scan", "android": "https://dc.lft.to/lastmile_qr_scan"}, "is_reserved": 0}, {"lon": -77.00219833333334, "bike_id": "56b8d7d96cfe29ec4ec4774cc3f359cd", "lat": 38.90025766666667, "fusion_lon": 0.0, "fusion_lat": 0.0, "type": "electric_scooter", "name": "56b8d7d96cfe29ec4ec4774cc3f359cd", "is_disabled": 0, "rental_uris": {"ios": "https://dc.lft.to/lastmile_qr_scan", "android": "https://dc.lft.to/lastmile_qr_scan"}, "is_reserved": 0}, {"lon": -77.0160435, "bike_id": "d575b28a4f491b4879d06015e86e7bae", "lat": 38.899811, "fusion_lon": 0.0, "fusion_lat": 0.0, "type": "electric_scooter", "name": "d575b28a4f491b4879d06015e86e7bae", "is_disabled": 0, "rental_uris": {"ios": "https://dc.lft.to/lastmile_qr_scan", "android": "https://dc.lft.to/lastmile_qr_scan"}, "is_reserved": 0}, {"lon": -77.0028295, "bike_id": "c693d2740b76bb27cfc85a7d122a2d5b", "lat": 38.957095333333335, "fusion_lon": 0.0, "fusion_lat": 0.0, "type": "electric_bike", "name": "c693d2740b76bb27cfc85a7d122a2d5b", "is_disabled": 0, "rental_uris": {"ios": "https://dc.lft.to/lastmile_qr_scan", "android": "https://dc.lft.to/lastmile_qr_scan"}, "is_reserved": 0}, {"lon": -76.99850166666667, "bike_id": "9cbeb4d0ffa032ede40fdf44a0849a94", "lat": 38.8415625, "fusion_lon": 0.0, "fusion_lat": 0.0, "type": "electric_scooter", "name": "9cbeb4d0ffa032ede40fdf44a0849a94", "is_disabled": 0, "rental_uris": {"ios": "https://dc.lft.to/lastmile_qr_scan", "android": "https://dc.lft.to/lastmile_qr_scan"}, "is_reserved": 0}, {"lon": -77.0247705, "bike_id": "932e8f2436226023ce7bd646d89d51b3", "lat": 38.93854266666666, "fusion_lon": 0.0, "fusion_lat": 0.0, "type": "electric_scooter", "name": "932e8f2436226023ce7bd646d89d51b3", "is_disabled": 0, "rental_uris": {"ios": "https://dc.lft.to/lastmile_qr_scan", "android": "https://dc.lft.to/lastmile_qr_scan"}, "is_reserved": 0}, {"lon": -77.05768183333333, "bike_id": "b808e06a753b79c8d2b8035059ac6b03", "lat": 38.9361765, "fusion_lon": 0.0, "fusion_lat": 0.0, "type": "electric_scooter", "name": "b808e06a753b79c8d2b8035059ac6b03", "is_disabled": 0, "rental_uris": {"ios": "https://dc.lft.to/lastmile_qr_scan", "android": "https://dc.lft.to/lastmile_qr_scan"}, "is_reserved": 0}, {"lon": -77.00206216666666, "bike_id": "a335650dcb0ba78952855bd740091693", "lat": 38.90028566666667, "fusion_lon": 0.0, "fusion_lat": 0.0, "type": "electric_scooter", "name": "a335650dcb0ba78952855bd740091693", "is_disabled": 0, "rental_uris": {"ios": "https://dc.lft.to/lastmile_qr_scan", "android": "https://dc.lft.to/lastmile_qr_scan"}, "is_reserved": 0}, {"lon": -77.04502116666667, "bike_id": "1fc256fbe832ea7e66b412557c2b13d8", "lat": 38.91108466666667, "fusion_lon": 0.0, "fusion_lat": 0.0, "type": "electric_scooter", "name": "1fc256fbe832ea7e66b412557c2b13d8", "is_disabled": 0, "rental_uris": {"ios": "https://dc.lft.to/lastmile_qr_scan", "android": "https://dc.lft.to/lastmile_qr_scan"}, "is_reserved": 0}, {"lon": -77.0341605, "bike_id": "c6e7648173e7fd4caadc14556ca2e786", "lat": 38.927456, "fusion_lon": 0.0, "fusion_lat": 0.0, "type": "electric_scooter", "name": "c6e7648173e7fd4caadc14556ca2e786", "is_disabled": 0, "rental_uris": {"ios": "https://dc.lft.to/lastmile_qr_scan", "android": "https://dc.lft.to/lastmile_qr_scan"}, "is_reserved": 0}, {"lon": -77.0329755, "bike_id": "426ceff326a8300e4625bff301ea1426", "lat": 38.91112416666667, "fusion_lon": 0.0, "fusion_lat": 0.0, "type": "electric_scooter", "name": "426ceff326a8300e4625bff301ea1426", "is_disabled": 0, "rental_uris": {"ios": "https://dc.lft.to/lastmile_qr_scan", "android": "https://dc.lft.to/lastmile_qr_scan"}, "is_reserved": 0}, {"lon": -77.12486383333334, "bike_id": "b42a68a1991cd396dfa4f5021820307c", "lat": 38.827844, "fusion_lon": 0.0, "fusion_lat": 0.0, "type": "electric_bike", "name": "b42a68a1991cd396dfa4f5021820307c", "is_disabled": 0, "rental_uris": {"ios": "https://dc.lft.to/lastmile_qr_scan", "android": "https://dc.lft.to/lastmile_qr_scan"}, "is_reserved": 0}, {"lon": -76.9658385, "bike_id": "622d312f09c16f26b4f8f2092901482e", "lat": 38.87136, "fusion_lon": 0.0, "fusion_lat": 0.0, "type": "electric_scooter", "name": "622d312f09c16f26b4f8f2092901482e", "is_disabled": 0, "rental_uris": {"ios": "https://dc.lft.to/lastmile_qr_scan", "android": "https://dc.lft.to/lastmile_qr_scan"}, "is_reserved": 0}, {"lon": -77.02705483333334, "bike_id": "99a270601cf67f79dcd3f5976bd8e913", "lat": 38.934726833333336, "fusion_lon": 0.0, "fusion_lat": 0.0, "type": "electric_scooter", "name": "99a270601cf67f79dcd3f5976bd8e913", "is_disabled": 0, "rental_uris": {"ios": "https://dc.lft.to/lastmile_qr_scan", "android": "https://dc.lft.to/lastmile_qr_scan"}, "is_reserved": 0}, {"lon": -76.99612966666666, "bike_id": "21d0077f87eb44d337b747d4340648f8", "lat": 38.88715633333333, "fusion_lon": 0.0, "fusion_lat": 0.0, "type": "electric_scooter", "name": "21d0077f87eb44d337b747d4340648f8", "is_disabled": 0, "rental_uris": {"ios": "https://dc.lft.to/lastmile_qr_scan", "android": "https://dc.lft.to/lastmile_qr_scan"}, "is_reserved": 0}, {"lon": -77.028505, "bike_id": "9824a5a08a7b4b90a55defd44deb82e8", "lat": 38.92764, "fusion_lon": 0.0, "fusion_lat": 0.0, "type": "electric_scooter", "name": "9824a5a08a7b4b90a55defd44deb82e8", "is_disabled": 0, "rental_uris": {"ios": "https://dc.lft.to/lastmile_qr_scan", "android": "https://dc.lft.to/lastmile_qr_scan"}, "is_reserved": 0}, {"lon": -77.03405483333333, "bike_id": "b7cc890fa92225129c6f411acf58bccb", "lat": 38.960330666666664, "fusion_lon": 0.0, "fusion_lat": 0.0, "type": "electric_bike", "name": "b7cc890fa92225129c6f411acf58bccb", "is_disabled": 0, "rental_uris": {"ios": "https://dc.lft.to/lastmile_qr_scan", "android": "https://dc.lft.to/lastmile_qr_scan"}, "is_reserved": 0}, {"lon": -77.0642335, "bike_id": "afeb6358e1f90e5140a14989e8f23930", "lat": 38.908887666666665, "fusion_lon": 0.0, "fusion_lat": 0.0, "type": "electric_scooter", "name": "afeb6358e1f90e5140a14989e8f23930", "is_disabled": 0, "rental_uris": {"ios": "https://dc.lft.to/lastmile_qr_scan", "android": "https://dc.lft.to/lastmile_qr_scan"}, "is_reserved": 0}, {"lon": -77.0433025, "bike_id": "31f3fab338963fde38362eca77396602", "lat": 38.918910333333336, "fusion_lon": 0.0, "fusion_lat": 0.0, "type": "electric_scooter", "name": "31f3fab338963fde38362eca77396602", "is_disabled": 0, "rental_uris": {"ios": "https://dc.lft.to/lastmile_qr_scan", "android": "https://dc.lft.to/lastmile_qr_scan"}, "is_reserved": 0}, {"lon": -76.98723233333334, "bike_id": "f6c7f1e9cb224010972e1a27db4365b8", "lat": 38.866253666666665, "fusion_lon": 0.0, "fusion_lat": 0.0, "type": "electric_scooter", "name": "f6c7f1e9cb224010972e1a27db4365b8", "is_disabled": 0, "rental_uris": {"ios": "https://dc.lft.to/lastmile_qr_scan", "android": "https://dc.lft.to/lastmile_qr_scan"}, "is_reserved": 0}, {"lon": -77.03197266666666, "bike_id": "e23492c365bf6e47293ead89e478275a", "lat": 38.91349666666667, "fusion_lon": 0.0, "fusion_lat": 0.0, "type": "electric_scooter", "name": "e23492c365bf6e47293ead89e478275a", "is_disabled": 0, "rental_uris": {"ios": "https://dc.lft.to/lastmile_qr_scan", "android": "https://dc.lft.to/lastmile_qr_scan"}, "is_reserved": 0}, {"lon": -77.013688, "bike_id": "1374588df17ff2376ccc2a9bc7fed903", "lat": 38.886724, "fusion_lon": 0.0, "fusion_lat": 0.0, "type": "electric_scooter", "name": "1374588df17ff2376ccc2a9bc7fed903", "is_disabled": 0, "rental_uris": {"ios": "https://dc.lft.to/lastmile_qr_scan", "android": "https://dc.lft.to/lastmile_qr_scan"}, "is_reserved": 0}, {"lon": -77.022026, "bike_id": "6772e0a38e558a78eab5214ecef85969", "lat": 38.900259, "fusion_lon": 0.0, "fusion_lat": 0.0, "type": "electric_scooter", "name": "6772e0a38e558a78eab5214ecef85969", "is_disabled": 0, "rental_uris": {"ios": "https://dc.lft.to/lastmile_qr_scan", "android": "https://dc.lft.to/lastmile_qr_scan"}, "is_reserved": 0}, {"lon": -77.00975483333333, "bike_id": "3209d33f55e66f337622e0509eef0500", "lat": 38.89489066666667, "fusion_lon": 0.0, "fusion_lat": 0.0, "type": "electric_scooter", "name": "3209d33f55e66f337622e0509eef0500", "is_disabled": 0, "rental_uris": {"ios": "https://dc.lft.to/lastmile_qr_scan", "android": "https://dc.lft.to/lastmile_qr_scan"}, "is_reserved": 0}, {"lon": -76.98352133333333, "bike_id": "4079df7f80bd9d961b8147beb146b428", "lat": 38.90451433333333, "fusion_lon": 0.0, "fusion_lat": 0.0, "type": "electric_scooter", "name": "4079df7f80bd9d961b8147beb146b428", "is_disabled": 0, "rental_uris": {"ios": "https://dc.lft.to/lastmile_qr_scan", "android": "https://dc.lft.to/lastmile_qr_scan"}, "is_reserved": 0}, {"lon": -77.03327916666667, "bike_id": "9e9be451e2a4dff47f2cc4613ee963b7", "lat": 38.91978266666667, "fusion_lon": 0.0, "fusion_lat": 0.0, "type": "electric_scooter", "name": "9e9be451e2a4dff47f2cc4613ee963b7", "is_disabled": 0, "rental_uris": {"ios": "https://dc.lft.to/lastmile_qr_scan", "android": "https://dc.lft.to/lastmile_qr_scan"}, "is_reserved": 0}, {"lon": -77.05858866666667, "bike_id": "a4ce21114fef70798862dc3ba6fc90f6", "lat": 38.936058, "fusion_lon": 0.0, "fusion_lat": 0.0, "type": "electric_scooter", "name": "a4ce21114fef70798862dc3ba6fc90f6", "is_disabled": 0, "rental_uris": {"ios": "https://dc.lft.to/lastmile_qr_scan", "android": "https://dc.lft.to/lastmile_qr_scan"}, "is_reserved": 0}, {"lon": -76.94921983333333, "bike_id": "7531134100c6c699287704c51fd0577c", "lat": 38.893569166666666, "fusion_lon": 0.0, "fusion_lat": 0.0, "type": "electric_scooter", "name": "7531134100c6c699287704c51fd0577c", "is_disabled": 0, "rental_uris": {"ios": "https://dc.lft.to/lastmile_qr_scan", "android": "https://dc.lft.to/lastmile_qr_scan"}, "is_reserved": 0}, {"lon": -77.0402115, "bike_id": "2fa32039dfd59c71df8575e146f2d242", "lat": 38.9239545, "fusion_lon": 0.0, "fusion_lat": 0.0, "type": "electric_scooter", "name": "2fa32039dfd59c71df8575e146f2d242", "is_disabled": 0, "rental_uris": {"ios": "https://dc.lft.to/lastmile_qr_scan", "android": "https://dc.lft.to/lastmile_qr_scan"}, "is_reserved": 0}, {"lon": -77.00017266666667, "bike_id": "2a85b4a75b954b0beca69277701f5f22", "lat": 38.91975033333333, "fusion_lon": 0.0, "fusion_lat": 0.0, "type": "electric_scooter", "name": "2a85b4a75b954b0beca69277701f5f22", "is_disabled": 0, "rental_uris": {"ios": "https://dc.lft.to/lastmile_qr_scan", "android": "https://dc.lft.to/lastmile_qr_scan"}, "is_reserved": 0}, {"lon": -77.0202975, "bike_id": "630b679e5811995498e04e30d9905672", "lat": 38.92443133333333, "fusion_lon": 0.0, "fusion_lat": 0.0, "type": "electric_scooter", "name": "630b679e5811995498e04e30d9905672", "is_disabled": 0, "rental_uris": {"ios": "https://dc.lft.to/lastmile_qr_scan", "android": "https://dc.lft.to/lastmile_qr_scan"}, "is_reserved": 0}, {"lon": -77.074392, "bike_id": "0172aa4eef445ed04f3e6afd84cdbcb8", "lat": 38.99943716666667, "fusion_lon": 0.0, "fusion_lat": 0.0, "type": "electric_bike", "name": "0172aa4eef445ed04f3e6afd84cdbcb8", "is_disabled": 0, "rental_uris": {"ios": "https://dc.lft.to/lastmile_qr_scan", "android": "https://dc.lft.to/lastmile_qr_scan"}, "is_reserved": 0}, {"lon": -77.08811816666666, "bike_id": "7c86ad1188e1047c83ceb1255a10ec1d", "lat": 38.911759833333335, "fusion_lon": 0.0, "fusion_lat": 0.0, "type": "electric_bike", "name": "7c86ad1188e1047c83ceb1255a10ec1d", "is_disabled": 0, "rental_uris": {"ios": "https://dc.lft.to/lastmile_qr_scan", "android": "https://dc.lft.to/lastmile_qr_scan"}, "is_reserved": 0}, {"lon": -77.03919366666666, "bike_id": "b4b7b10899fa0445d436417e1a1a557a", "lat": 38.927964, "fusion_lon": 0.0, "fusion_lat": 0.0, "type": "electric_scooter", "name": "b4b7b10899fa0445d436417e1a1a557a", "is_disabled": 0, "rental_uris": {"ios": "https://dc.lft.to/lastmile_qr_scan", "android": "https://dc.lft.to/lastmile_qr_scan"}, "is_reserved": 0}, {"lon": -77.0069175, "bike_id": "dec2b2b261907a1ac0df3a20e8a1f67e", "lat": 38.90019516666667, "fusion_lon": 0.0, "fusion_lat": 0.0, "type": "electric_scooter", "name": "dec2b2b261907a1ac0df3a20e8a1f67e", "is_disabled": 0, "rental_uris": {"ios": "https://dc.lft.to/lastmile_qr_scan", "android": "https://dc.lft.to/lastmile_qr_scan"}, "is_reserved": 0}, {"lon": -77.03631866666667, "bike_id": "a8751a00c08f79714ed43aac39f23117", "lat": 38.92461216666667, "fusion_lon": 0.0, "fusion_lat": 0.0, "type": "electric_scooter", "name": "a8751a00c08f79714ed43aac39f23117", "is_disabled": 0, "rental_uris": {"ios": "https://dc.lft.to/lastmile_qr_scan", "android": "https://dc.lft.to/lastmile_qr_scan"}, "is_reserved": 0}, {"lon": -76.95234183333334, "bike_id": "e4fa586658e2eb2f2469f7b777c44898", "lat": 38.891025, "fusion_lon": 0.0, "fusion_lat": 0.0, "type": "electric_scooter", "name": "e4fa586658e2eb2f2469f7b777c44898", "is_disabled": 0, "rental_uris": {"ios": "https://dc.lft.to/lastmile_qr_scan", "android": "https://dc.lft.to/lastmile_qr_scan"}, "is_reserved": 0}, {"lon": -77.031819, "bike_id": "46708ef00a7c24a93651a5f3556d38a7", "lat": 38.905184, "fusion_lon": 0.0, "fusion_lat": 0.0, "type": "electric_scooter", "name": "46708ef00a7c24a93651a5f3556d38a7", "is_disabled": 0, "rental_uris": {"ios": "https://dc.lft.to/lastmile_qr_scan", "android": "https://dc.lft.to/lastmile_qr_scan"}, "is_reserved": 0}, {"lon": -76.976202, "bike_id": "269c8a3cf50a5fc002b639270458d69f", "lat": 38.926531833333335, "fusion_lon": 0.0, "fusion_lat": 0.0, "type": "electric_scooter", "name": "269c8a3cf50a5fc002b639270458d69f", "is_disabled": 0, "rental_uris": {"ios": "https://dc.lft.to/lastmile_qr_scan", "android": "https://dc.lft.to/lastmile_qr_scan"}, "is_reserved": 0}, {"lon": -77.01869133333334, "bike_id": "0e3441b8480447873c0cbbdacd8d810a", "lat": 38.95149983333334, "fusion_lon": 0.0, "fusion_lat": 0.0, "type": "electric_scooter", "name": "0e3441b8480447873c0cbbdacd8d810a", "is_disabled": 0, "rental_uris": {"ios": "https://dc.lft.to/lastmile_qr_scan", "android": "https://dc.lft.to/lastmile_qr_scan"}, "is_reserved": 0}, {"lon": -77.05966599999999, "bike_id": "fd8c24ffb7d2dd7698ce071c1981ba5f", "lat": 38.80734066666667, "fusion_lon": 0.0, "fusion_lat": 0.0, "type": "electric_bike", "name": "fd8c24ffb7d2dd7698ce071c1981ba5f", "is_disabled": 0, "rental_uris": {"ios": "https://dc.lft.to/lastmile_qr_scan", "android": "https://dc.lft.to/lastmile_qr_scan"}, "is_reserved": 0}, {"lon": -77.04189866666667, "bike_id": "4b3253d1a6d068e9b057ed50a794c37e", "lat": 38.9261515, "fusion_lon": 0.0, "fusion_lat": 0.0, "type": "electric_scooter", "name": "4b3253d1a6d068e9b057ed50a794c37e", "is_disabled": 0, "rental_uris": {"ios": "https://dc.lft.to/lastmile_qr_scan", "android": "https://dc.lft.to/lastmile_qr_scan"}, "is_reserved": 0}, {"lon": -76.99104583333333, "bike_id": "0b3ecff5fc1ededc40b6dd5c592b2bc0", "lat": 38.90319083333333, "fusion_lon": 0.0, "fusion_lat": 0.0, "type": "electric_scooter", "name": "0b3ecff5fc1ededc40b6dd5c592b2bc0", "is_disabled": 0, "rental_uris": {"ios": "https://dc.lft.to/lastmile_qr_scan", "android": "https://dc.lft.to/lastmile_qr_scan"}, "is_reserved": 0}, {"lon": -77.03263483333333, "bike_id": "c191143ed02fb4f27f7bb10b1348439c", "lat": 38.93699183333333, "fusion_lon": 0.0, "fusion_lat": 0.0, "type": "electric_scooter", "name": "c191143ed02fb4f27f7bb10b1348439c", "is_disabled": 0, "rental_uris": {"ios": "https://dc.lft.to/lastmile_qr_scan", "android": "https://dc.lft.to/lastmile_qr_scan"}, "is_reserved": 0}, {"lon": -76.99007216666666, "bike_id": "8b679d5315de1b2247e161f04ea50305", "lat": 38.86506683333333, "fusion_lon": 0.0, "fusion_lat": 0.0, "type": "electric_scooter", "name": "8b679d5315de1b2247e161f04ea50305", "is_disabled": 0, "rental_uris": {"ios": "https://dc.lft.to/lastmile_qr_scan", "android": "https://dc.lft.to/lastmile_qr_scan"}, "is_reserved": 0}, {"lon": -77.0683105, "bike_id": "5051cb36d3d6eaaad0466b1e611dde96", "lat": 38.80568916666667, "fusion_lon": 0.0, "fusion_lat": 0.0, "type": "electric_bike", "name": "5051cb36d3d6eaaad0466b1e611dde96", "is_disabled": 0, "rental_uris": {"ios": "https://dc.lft.to/lastmile_qr_scan", "android": "https://dc.lft.to/lastmile_qr_scan"}, "is_reserved": 0}, {"lon": -77.0032645, "bike_id": "417edac59e8c218847a2f5bfb3941028", "lat": 38.89723866666667, "fusion_lon": 0.0, "fusion_lat": 0.0, "type": "electric_scooter", "name": "417edac59e8c218847a2f5bfb3941028", "is_disabled": 0, "rental_uris": {"ios": "https://dc.lft.to/lastmile_qr_scan", "android": "https://dc.lft.to/lastmile_qr_scan"}, "is_reserved": 0}, {"lon": -77.00520666666667, "bike_id": "fec8c770bd8bf79e3fa060d9a83d9bb3", "lat": 38.87546116666667, "fusion_lon": 0.0, "fusion_lat": 0.0, "type": "electric_scooter", "name": "fec8c770bd8bf79e3fa060d9a83d9bb3", "is_disabled": 0, "rental_uris": {"ios": "https://dc.lft.to/lastmile_qr_scan", "android": "https://dc.lft.to/lastmile_qr_scan"}, "is_reserved": 0}, {"lon": -77.02806433333333, "bike_id": "05739bdaeb364367aad6759b5227b767", "lat": 38.930795333333336, "fusion_lon": 0.0, "fusion_lat": 0.0, "type": "electric_scooter", "name": "05739bdaeb364367aad6759b5227b767", "is_disabled": 0, "rental_uris": {"ios": "https://dc.lft.to/lastmile_qr_scan", "android": "https://dc.lft.to/lastmile_qr_scan"}, "is_reserved": 0}, {"lon": -77.02767733333333, "bike_id": "74251c207bd66ef8b17e2a8b00d51067", "lat": 38.9542925, "fusion_lon": 0.0, "fusion_lat": 0.0, "type": "electric_scooter", "name": "74251c207bd66ef8b17e2a8b00d51067", "is_disabled": 0, "rental_uris": {"ios": "https://dc.lft.to/lastmile_qr_scan", "android": "https://dc.lft.to/lastmile_qr_scan"}, "is_reserved": 0}, {"lon": -76.98086733333334, "bike_id": "a0c8dff97347b057d15b0a6c9508d141", "lat": 38.9070755, "fusion_lon": 0.0, "fusion_lat": 0.0, "type": "electric_scooter", "name": "a0c8dff97347b057d15b0a6c9508d141", "is_disabled": 0, "rental_uris": {"ios": "https://dc.lft.to/lastmile_qr_scan", "android": "https://dc.lft.to/lastmile_qr_scan"}, "is_reserved": 0}, {"lon": -77.052363, "bike_id": "5a844ac4c91cdba39498539547a2463f", "lat": 38.9234205, "fusion_lon": 0.0, "fusion_lat": 0.0, "type": "electric_scooter", "name": "5a844ac4c91cdba39498539547a2463f", "is_disabled": 0, "rental_uris": {"ios": "https://dc.lft.to/lastmile_qr_scan", "android": "https://dc.lft.to/lastmile_qr_scan"}, "is_reserved": 0}, {"lon": -77.032168, "bike_id": "31e43c7ef8d50614a46aa98706dc2132", "lat": 38.9171215, "fusion_lon": 0.0, "fusion_lat": 0.0, "type": "electric_scooter", "name": "31e43c7ef8d50614a46aa98706dc2132", "is_disabled": 0, "rental_uris": {"ios": "https://dc.lft.to/lastmile_qr_scan", "android": "https://dc.lft.to/lastmile_qr_scan"}, "is_reserved": 0}, {"lon": -76.97549033333334, "bike_id": "c0aa1f7434e212ff4f5738c797b02f68", "lat": 38.903199666666666, "fusion_lon": 0.0, "fusion_lat": 0.0, "type": "electric_scooter", "name": "c0aa1f7434e212ff4f5738c797b02f68", "is_disabled": 0, "rental_uris": {"ios": "https://dc.lft.to/lastmile_qr_scan", "android": "https://dc.lft.to/lastmile_qr_scan"}, "is_reserved": 0}, {"lon": -77.03954016666667, "bike_id": "a64bdb60b49a900eda9301b60961cbe4", "lat": 38.91564866666667, "fusion_lon": 0.0, "fusion_lat": 0.0, "type": "electric_scooter", "name": "a64bdb60b49a900eda9301b60961cbe4", "is_disabled": 0, "rental_uris": {"ios": "https://dc.lft.to/lastmile_qr_scan", "android": "https://dc.lft.to/lastmile_qr_scan"}, "is_reserved": 0}, {"lon": -76.9873745, "bike_id": "59ef17ca6e1a56dc69e009e6bad30841", "lat": 38.865818, "fusion_lon": 0.0, "fusion_lat": 0.0, "type": "electric_bike", "name": "59ef17ca6e1a56dc69e009e6bad30841", "is_disabled": 0, "rental_uris": {"ios": "https://dc.lft.to/lastmile_qr_scan", "android": "https://dc.lft.to/lastmile_qr_scan"}, "is_reserved": 0}, {"lon": -77.03793583333334, "bike_id": "cc4fb211004085e4e3108b2da1e3a929", "lat": 38.925664166666664, "fusion_lon": 0.0, "fusion_lat": 0.0, "type": "electric_scooter", "name": "cc4fb211004085e4e3108b2da1e3a929", "is_disabled": 0, "rental_uris": {"ios": "https://dc.lft.to/lastmile_qr_scan", "android": "https://dc.lft.to/lastmile_qr_scan"}, "is_reserved": 0}, {"lon": -77.02977383333334, "bike_id": "0188b1aa02014b475639072f51b57a7b", "lat": 38.939331, "fusion_lon": 0.0, "fusion_lat": 0.0, "type": "electric_scooter", "name": "0188b1aa02014b475639072f51b57a7b", "is_disabled": 0, "rental_uris": {"ios": "https://dc.lft.to/lastmile_qr_scan", "android": "https://dc.lft.to/lastmile_qr_scan"}, "is_reserved": 0}, {"lon": -77.021119, "bike_id": "8c0a526fe541a54357912e1667151649", "lat": 38.90565433333333, "fusion_lon": 0.0, "fusion_lat": 0.0, "type": "electric_scooter", "name": "8c0a526fe541a54357912e1667151649", "is_disabled": 0, "rental_uris": {"ios": "https://dc.lft.to/lastmile_qr_scan", "android": "https://dc.lft.to/lastmile_qr_scan"}, "is_reserved": 0}, {"lon": -77.064167, "bike_id": "d7ab62e1b48d195d74d945f04964eebc", "lat": 38.9933355, "fusion_lon": 0.0, "fusion_lat": 0.0, "type": "electric_scooter", "name": "d7ab62e1b48d195d74d945f04964eebc", "is_disabled": 0, "rental_uris": {"ios": "https://dc.lft.to/lastmile_qr_scan", "android": "https://dc.lft.to/lastmile_qr_scan"}, "is_reserved": 0}, {"lon": -76.96524816666667, "bike_id": "a9c425ff86d870c191a2cdd08e640615", "lat": 38.876252666666666, "fusion_lon": 0.0, "fusion_lat": 0.0, "type": "electric_scooter", "name": "a9c425ff86d870c191a2cdd08e640615", "is_disabled": 0, "rental_uris": {"ios": "https://dc.lft.to/lastmile_qr_scan", "android": "https://dc.lft.to/lastmile_qr_scan"}, "is_reserved": 0}, {"lon": -77.05550616666666, "bike_id": "2c7fa5d0ceee12291cb3daace8024ec4", "lat": 38.93008366666667, "fusion_lon": 0.0, "fusion_lat": 0.0, "type": "electric_scooter", "name": "2c7fa5d0ceee12291cb3daace8024ec4", "is_disabled": 0, "rental_uris": {"ios": "https://dc.lft.to/lastmile_qr_scan", "android": "https://dc.lft.to/lastmile_qr_scan"}, "is_reserved": 0}, {"lon": -77.0363315, "bike_id": "a8c61b021007bc5fbc5ea21cb523096e", "lat": 38.9449925, "fusion_lon": 0.0, "fusion_lat": 0.0, "type": "electric_scooter", "name": "a8c61b021007bc5fbc5ea21cb523096e", "is_disabled": 0, "rental_uris": {"ios": "https://dc.lft.to/lastmile_qr_scan", "android": "https://dc.lft.to/lastmile_qr_scan"}, "is_reserved": 0}, {"lon": -77.02319433333334, "bike_id": "0a9cadfff3f1ae9a7ee7effe25c50a41", "lat": 38.92411083333333, "fusion_lon": 0.0, "fusion_lat": 0.0, "type": "electric_scooter", "name": "0a9cadfff3f1ae9a7ee7effe25c50a41", "is_disabled": 0, "rental_uris": {"ios": "https://dc.lft.to/lastmile_qr_scan", "android": "https://dc.lft.to/lastmile_qr_scan"}, "is_reserved": 0}, {"lon": -77.03672866666666, "bike_id": "48f38be881e61f28a01b45b27406416c", "lat": 38.93945216666667, "fusion_lon": 0.0, "fusion_lat": 0.0, "type": "electric_scooter", "name": "48f38be881e61f28a01b45b27406416c", "is_disabled": 0, "rental_uris": {"ios": "https://dc.lft.to/lastmile_qr_scan", "android": "https://dc.lft.to/lastmile_qr_scan"}, "is_reserved": 0}, {"lon": -77.03523466666667, "bike_id": "d91c8f3196e8005a13845aa2b3f94983", "lat": 38.92725433333333, "fusion_lon": 0.0, "fusion_lat": 0.0, "type": "electric_scooter", "name": "d91c8f3196e8005a13845aa2b3f94983", "is_disabled": 0, "rental_uris": {"ios": "https://dc.lft.to/lastmile_qr_scan", "android": "https://dc.lft.to/lastmile_qr_scan"}, "is_reserved": 0}, {"lon": -77.0305885, "bike_id": "5db75c78554c790b6ba0a146c8e6bdbc", "lat": 38.88413, "fusion_lon": 0.0, "fusion_lat": 0.0, "type": "electric_scooter", "name": "5db75c78554c790b6ba0a146c8e6bdbc", "is_disabled": 0, "rental_uris": {"ios": "https://dc.lft.to/lastmile_qr_scan", "android": "https://dc.lft.to/lastmile_qr_scan"}, "is_reserved": 0}, {"lon": -77.04482966666667, "bike_id": "ef7bf40302b7e4212218ebfdcf7b39e4", "lat": 38.92423866666667, "fusion_lon": 0.0, "fusion_lat": 0.0, "type": "electric_scooter", "name": "ef7bf40302b7e4212218ebfdcf7b39e4", "is_disabled": 0, "rental_uris": {"ios": "https://dc.lft.to/lastmile_qr_scan", "android": "https://dc.lft.to/lastmile_qr_scan"}, "is_reserved": 0}, {"lon": -77.0323545, "bike_id": "05f87d310457568e3e91a8b207d7ed0f", "lat": 38.91480466666667, "fusion_lon": 0.0, "fusion_lat": 0.0, "type": "electric_scooter", "name": "05f87d310457568e3e91a8b207d7ed0f", "is_disabled": 0, "rental_uris": {"ios": "https://dc.lft.to/lastmile_qr_scan", "android": "https://dc.lft.to/lastmile_qr_scan"}, "is_reserved": 0}, {"lon": -77.0520155, "bike_id": "442acd45ed6da40b58ae560b1f46978a", "lat": 38.8995445, "fusion_lon": 0.0, "fusion_lat": 0.0, "type": "electric_scooter", "name": "442acd45ed6da40b58ae560b1f46978a", "is_disabled": 0, "rental_uris": {"ios": "https://dc.lft.to/lastmile_qr_scan", "android": "https://dc.lft.to/lastmile_qr_scan"}, "is_reserved": 0}, {"lon": -77.03517066666667, "bike_id": "f81ebcc18c8f7fe4a68a029c94265bf7", "lat": 38.92199733333333, "fusion_lon": 0.0, "fusion_lat": 0.0, "type": "electric_scooter", "name": "f81ebcc18c8f7fe4a68a029c94265bf7", "is_disabled": 0, "rental_uris": {"ios": "https://dc.lft.to/lastmile_qr_scan", "android": "https://dc.lft.to/lastmile_qr_scan"}, "is_reserved": 0}, {"lon": -77.00204733333334, "bike_id": "45b01569fe3a2443ae53d1e6c93330a6", "lat": 38.902398, "fusion_lon": 0.0, "fusion_lat": 0.0, "type": "electric_scooter", "name": "45b01569fe3a2443ae53d1e6c93330a6", "is_disabled": 0, "rental_uris": {"ios": "https://dc.lft.to/lastmile_qr_scan", "android": "https://dc.lft.to/lastmile_qr_scan"}, "is_reserved": 0}, {"lon": -77.02749733333333, "bike_id": "7850a0f1ead4c651beb59ea6becd5fd3", "lat": 38.941805333333335, "fusion_lon": 0.0, "fusion_lat": 0.0, "type": "electric_scooter", "name": "7850a0f1ead4c651beb59ea6becd5fd3", "is_disabled": 0, "rental_uris": {"ios": "https://dc.lft.to/lastmile_qr_scan", "android": "https://dc.lft.to/lastmile_qr_scan"}, "is_reserved": 0}, {"lon": -77.23320216666667, "bike_id": "caa4a8d3f43cfbb055991136b4b65b7d", "lat": 38.87283866666667, "fusion_lon": 0.0, "fusion_lat": 0.0, "type": "electric_bike", "name": "caa4a8d3f43cfbb055991136b4b65b7d", "is_disabled": 0, "rental_uris": {"ios": "https://dc.lft.to/lastmile_qr_scan", "android": "https://dc.lft.to/lastmile_qr_scan"}, "is_reserved": 0}, {"lon": -76.9945055, "bike_id": "37ffe76e955c8d249c8efeabf1754a84", "lat": 38.862818, "fusion_lon": 0.0, "fusion_lat": 0.0, "type": "electric_scooter", "name": "37ffe76e955c8d249c8efeabf1754a84", "is_disabled": 0, "rental_uris": {"ios": "https://dc.lft.to/lastmile_qr_scan", "android": "https://dc.lft.to/lastmile_qr_scan"}, "is_reserved": 0}, {"lon": -77.03076916666667, "bike_id": "d57acfc83f8075c6e14cc19a30301897", "lat": 38.8840435, "fusion_lon": 0.0, "fusion_lat": 0.0, "type": "electric_scooter", "name": "d57acfc83f8075c6e14cc19a30301897", "is_disabled": 0, "rental_uris": {"ios": "https://dc.lft.to/lastmile_qr_scan", "android": "https://dc.lft.to/lastmile_qr_scan"}, "is_reserved": 0},