{"data": {"bikes": [{"is_reserved": 0, "type": "electric_bike", "bike_id": "5a73d607975ada08e3345317fc5292aa", "lat": 38.898558333333334, "lon": -77.01954033333334, "rental_uris": {"android": "https://dc.lft.to/lastmile_qr_scan", "ios": "https://dc.lft.to/lastmile_qr_scan"}, "is_disabled": 0, "fusion_lat": 0.0, "name": "5a73d607975ada08e3345317fc5292aa", "fusion_lon": 0.0}, {"is_reserved": 0, "type": "electric_scooter", "bike_id": "d52d20cceaadec778435a20883c151f5", "lat": 38.89611033333333, "lon": -77.0261335, "rental_uris": {"android": "https://dc.lft.to/lastmile_qr_scan", "ios": "https://dc.lft.to/lastmile_qr_scan"}, "is_disabled": 0, "fusion_lat": 0.0, "name": "d52d20cceaadec778435a20883c151f5", "fusion_lon": 0.0}, {"is_reserved": 0, "type": "electric_bike", "bike_id": "0aa15781368e754904aa197e24a333c7", "lat": 38.9592765, "lon": -77.03122233333333, "rental_uris": {"android": "https://dc.lft.to/lastmile_qr_scan", "ios": "https://dc.lft.to/lastmile_qr_scan"}, "is_disabled": 0, "fusion_lat": 0.0, "name": "0aa15781368e754904aa197e24a333c7", "fusion_lon": 0.0}, {"is_reserved": 0, "type": "electric_scooter", "bike_id": "d80586d3c63ff1c5b122048cc831eb83", "lat": 38.88686783333333, "lon": -77.0200665, "rental_uris": {"android": "https://dc.lft.to/lastmile_qr_scan", "ios": "https://dc.lft.to/lastmile_qr_scan"}, "is_disabled": 0, "fusion_lat": 0.0, "name": "d80586d3c63ff1c5b122048cc831eb83", "fusion_lon": 0.0}, {"is_reserved": 0, "type": "electric_scooter", "bike_id": "dbc83e8a1a3ebac58e5da7c29e183d31", "lat": 38.911915, "lon": -77.00728383333333, "rental_uris": {"android": "https://dc.lft.to/lastmile_qr_scan", "ios": "https://dc.lft.to/lastmile_qr_scan"}, "is_disabled": 0, "fusion_lat": 0.0, "name": "dbc83e8a1a3ebac58e5da7c29e183d31", "fusion_lon": 0.0}, {"is_reserved": 0, "type": "electric_scooter", "bike_id": "33e8cfa59351c0e96245be8904fb5586", "lat": 38.90247633333333, "lon": -77.03938533333333, "rental_uris": {"android": "https://dc.lft.to/lastmile_qr_scan", "ios": "https://dc.lft.to/lastmile_qr_scan"}, "is_disabled": 0, "fusion_lat": 0.0, "name": "33e8cfa59351c0e96245be8904fb5586", "fusion_lon": 0.0}, {"is_reserved": 0, "type": "electric_scooter", "bike_id": "76edc2f97de0fb26c93b1f16a7ca5b73", "lat": 38.95957833333333, "lon": -77.07262916666667, "rental_uris": {"android": "https://dc.lft.to/lastmile_qr_scan", "ios": "https://dc.lft.to/lastmile_qr_scan"}, "is_disabled": 0, "fusion_lat": 0.0, "name": "76edc2f97de0fb26c93b1f16a7ca5b73", "fusion_lon": 0.0}, {"is_reserved": 0, "type": "electric_scooter", "bike_id": "9b476c4a6919031a7277e44f12dff634", "lat": 38.92490266666667, "lon": -77.02708566666666, "rental_uris": {"android": "https://dc.lft.to/lastmile_qr_scan", "ios": "https://dc.lft.to/lastmile_qr_scan"}, "is_disabled": 0, "fusion_lat": 0.0, "name": "9b476c4a6919031a7277e44f12dff634", "fusion_lon": 0.0}, {"is_reserved": 0, "type": "electric_scooter", "bike_id": "8169064b59467dc0f56c993476bf80f1", "lat": 38.895408333333336, "lon": -76.98494933333333, "rental_uris": {"android": "https://dc.lft.to/lastmile_qr_scan", "ios": "https://dc.lft.to/lastmile_qr_scan"}, "is_disabled": 0, "fusion_lat": 0.0, "name": "8169064b59467dc0f56c993476bf80f1", "fusion_lon": 0.0}, {"is_reserved": 0, "type": "electric_scooter", "bike_id": "682e399e6f4294bc8aade19b2504c195", "lat": 38.93418883333333, "lon": -77.02843133333333, "rental_uris": {"android": "https://dc.lft.to/lastmile_qr_scan", "ios": "https://dc.lft.to/lastmile_qr_scan"}, "is_disabled": 0, "fusion_lat": 0.0, "name": "682e399e6f4294bc8aade19b2504c195", "fusion_lon": 0.0}, {"is_reserved": 0, "type": "electric_scooter", "bike_id": "de8cade6fbeb6c2846b4fada9a437466", "lat": 38.895361666666666, "lon": -77.03982816666667, "rental_uris": {"android": "https://dc.lft.to/lastmile_qr_scan", "ios": "https://dc.lft.to/lastmile_qr_scan"}, "is_disabled": 0, "fusion_lat": 0.0, "name": "de8cade6fbeb6c2846b4fada9a437466", "fusion_lon": 0.0}, {"is_reserved": 0, "type": "electric_scooter", "bike_id": "74249957890121a9ef834199a4543155", "lat": 38.956299333333334, "lon": -77.02785283333333, "rental_uris": {"android": "https://dc.lft.to/lastmile_qr_scan", "ios": "https://dc.lft.to/lastmile_qr_scan"}, "is_disabled": 0, "fusion_lat": 0.0, "name": "74249957890121a9ef834199a4543155", "fusion_lon": 0.0}, {"is_reserved": 0, "type": "electric_scooter", "bike_id": "96aec60a8bd22941de7c33aa43c03871", "lat": 38.905440666666664, "lon": -77.00590033333333, "rental_uris": {"android": "https://dc.lft.to/lastmile_qr_scan", "ios": "https://dc.lft.to/lastmile_qr_scan"}, "is_disabled": 0, "fusion_lat": 0.0, "name": "96aec60a8bd22941de7c33aa43c03871", "fusion_lon": 0.0}, {"is_reserved": 0, "type": "electric_scooter", "bike_id": "2137586dd9369ed40b206d873e2d232e", "lat": 38.924501166666666, "lon": -77.044043, "rental_uris": {"android": "https://dc.lft.to/lastmile_qr_scan", "ios": "https://dc.lft.to/lastmile_qr_scan"}, "is_disabled": 0, "fusion_lat": 0.0, "name": "2137586dd9369ed40b206d873e2d232e", "fusion_lon": 0.0}, {"is_reserved": 0, "type": "electric_scooter", "bike_id": "ff5d1eb1f53938b714c139cf98641107", "lat": 38.9024005, "lon": -77.01743333333333, "rental_uris": {"android": "https://dc.lft.to/lastmile_qr_scan", "ios": "https://dc.lft.to/lastmile_qr_scan"}, "is_disabled": 0, "fusion_lat": 0.0, "name": "ff5d1eb1f53938b714c139cf98641107", "fusion_lon": 0.0}, {"is_reserved": 0, "type": "electric_bike", "bike_id": "d6e5466e8b63fd5618240e3545890126", "lat": 38.90846333333333, "lon": -77.057658, "rental_uris": {"android": "https://dc.lft.to/lastmile_qr_scan", "ios": "https://dc.lft.to/lastmile_qr_scan"}, "is_disabled": 0, "fusion_lat": 0.0, "name": "d6e5466e8b63fd5618240e3545890126", "fusion_lon": 0.0}, {"is_reserved": 0, "type": "electric_scooter", "bike_id": "c3528f681fe4425a6eedb18d69f56e48", "lat": 38.8983335, "lon": -77.0293505, "rental_uris": {"android": "https://dc.lft.to/lastmile_qr_scan", "ios": "https://dc.lft.to/lastmile_qr_scan"}, "is_disabled": 0, "fusion_lat": 0.0, "name": "c3528f681fe4425a6eedb18d69f56e48", "fusion_lon": 0.0}, {"is_reserved": 0, "type": "electric_scooter", "bike_id": "7aad69f85979f2f306edbaad130f2526", "lat": 38.9355755, "lon": -77.02220016666666, "rental_uris": {"android": "https://dc.lft.to/lastmile_qr_scan", "ios": "https://dc.lft.to/lastmile_qr_scan"}, "is_disabled": 0, "fusion_lat": 0.0, "name": "7aad69f85979f2f306edbaad130f2526", "fusion_lon": 0.0}, {"is_reserved": 0, "type": "electric_scooter", "bike_id": "815c2a842f1ecde71f5ebce634450285", "lat": 38.91811533333333, "lon": -77.03301866666666, "rental_uris": {"android": "https://dc.lft.to/lastmile_qr_scan", "ios": "https://dc.lft.to/lastmile_qr_scan"}, "is_disabled": 0, "fusion_lat": 0.0, "name": "815c2a842f1ecde71f5ebce634450285", "fusion_lon": 0.0}, {"is_reserved": 0, "type": "electric_scooter", "bike_id": "d2991d190f09c787b4c831ef7291d1aa", "lat": 38.9206255, "lon": -77.0250275, "rental_uris": {"android": "https://dc.lft.to/lastmile_qr_scan", "ios": "https://dc.lft.to/lastmile_qr_scan"}, "is_disabled": 0, "fusion_lat": 0.0, "name": "d2991d190f09c787b4c831ef7291d1aa", "fusion_lon": 0.0}, {"is_reserved": 0, "type": "electric_scooter", "bike_id": "f85d2772e41dfb3a6412e911508fe8b5", "lat": 38.89498616666667, "lon": -77.00214016666666, "rental_uris": {"android": "https://dc.lft.to/lastmile_qr_scan", "ios": "https://dc.lft.to/lastmile_qr_scan"}, "is_disabled": 0, "fusion_lat": 0.0, "name": "f85d2772e41dfb3a6412e911508fe8b5", "fusion_lon": 0.0}, {"is_reserved": 0, "type": "electric_scooter", "bike_id": "ed4e54476e81254b159fd5bf3fe0decf", "lat": 38.9086515, "lon": -77.02353016666666, "rental_uris": {"android": "https://dc.lft.to/lastmile_qr_scan", "ios": "https://dc.lft.to/lastmile_qr_scan"}, "is_disabled": 0, "fusion_lat": 0.0, "name": "ed4e54476e81254b159fd5bf3fe0decf", "fusion_lon": 0.0}, {"is_reserved": 0, "type": "electric_scooter", "bike_id": "a755404ef2e287729a4d4ee0c54caaba", "lat": 38.89882733333334, "lon": -77.04886983333333, "rental_uris": {"android": "https://dc.lft.to/lastmile_qr_scan", "ios": "https://dc.lft.to/lastmile_qr_scan"}, "is_disabled": 0, "fusion_lat": 0.0, "name": "a755404ef2e287729a4d4ee0c54caaba", "fusion_lon": 0.0}, {"is_reserved": 0, "type": "electric_scooter", "bike_id": "a73134e6b7ed0bbadd14292c9dba89ef", "lat": 38.90040333333334, "lon": -76.990415, "rental_uris": {"android": "https://dc.lft.to/lastmile_qr_scan", "ios": "https://dc.lft.to/lastmile_qr_scan"}, "is_disabled": 0, "fusion_lat": 0.0, "name": "a73134e6b7ed0bbadd14292c9dba89ef", "fusion_lon": 0.0}, {"is_reserved": 0, "type": "electric_scooter", "bike_id": "c58bd0107c142c5e557f2cf36210fb07", "lat": 38.92312016666666, "lon": -77.03641166666667, "rental_uris": {"android": "https://dc.lft.to/lastmile_qr_scan", "ios": "https://dc.lft.to/lastmile_qr_scan"}, "is_disabled": 0, "fusion_lat": 0.0, "name": "c58bd0107c142c5e557f2cf36210fb07", "fusion_lon": 0.0}, {"is_reserved": 0, "type": "electric_scooter", "bike_id": "5146a991615f6bfe550204d2da768b39", "lat": 38.92403083333333, "lon": -76.9514475, "rental_uris": {"android": "https://dc.lft.to/lastmile_qr_scan", "ios": "https://dc.lft.to/lastmile_qr_scan"}, "is_disabled": 0, "fusion_lat": 0.0, "name": "5146a991615f6bfe550204d2da768b39", "fusion_lon": 0.0}, {"is_reserved": 0, "type": "electric_scooter", "bike_id": "d4ce7d2d42560c0538fa3e6cba242b66", "lat": 38.89224933333333, "lon": -77.01608, "rental_uris": {"android": "https://dc.lft.to/lastmile_qr_scan", "ios": "https://dc.lft.to/lastmile_qr_scan"}, "is_disabled": 0, "fusion_lat": 0.0, "name": "d4ce7d2d42560c0538fa3e6cba242b66", "fusion_lon": 0.0}, {"is_reserved": 0, "type": "electric_scooter", "bike_id": "c9a4ff2a69d31afe90dd1af482aea31a", "lat": 38.900059666666664, "lon": -77.0288845, "rental_uris": {"android": "https://dc.lft.to/lastmile_qr_scan", "ios": "https://dc.lft.to/lastmile_qr_scan"}, "is_disabled": 0, "fusion_lat": 0.0, "name": "c9a4ff2a69d31afe90dd1af482aea31a", "fusion_lon": 0.0}, {"is_reserved": 0, "type": "electric_scooter", "bike_id": "fad6514da0bb0aedf16149530e558a35", "lat": 38.88754433333333, "lon": -77.02895616666666, "rental_uris": {"android": "https://dc.lft.to/lastmile_qr_scan", "ios": "https://dc.lft.to/lastmile_qr_scan"}, "is_disabled": 0, "fusion_lat": 0.0, "name": "fad6514da0bb0aedf16149530e558a35", "fusion_lon": 0.0}, {"is_reserved": 0, "type": "electric_scooter", "bike_id": "46553f9f3ef8713a7d0733b29668ad3d", "lat": 38.8974065, "lon": -77.01765533333334, "rental_uris": {"android": "https://dc.lft.to/lastmile_qr_scan", "ios": "https://dc.lft.to/lastmile_qr_scan"}, "is_disabled": 0, "fusion_lat": 0.0, "name": "46553f9f3ef8713a7d0733b29668ad3d", "fusion_lon": 0.0}, {"is_reserved": 0, "type": "electric_scooter", "bike_id": "077a83ff6e28150e22841d7332cd0a6a", "lat": 38.8963055, "lon": -77.00213783333334, "rental_uris": {"android": "https://dc.lft.to/lastmile_qr_scan", "ios": "https://dc.lft.to/lastmile_qr_scan"}, "is_disabled": 0, "fusion_lat": 0.0, "name": "077a83ff6e28150e22841d7332cd0a6a", "fusion_lon": 0.0}, {"is_reserved": 0, "type": "electric_scooter", "bike_id": "963e7213c56d26fd3f804c27fd490ca3", "lat": 38.92806216666666, "lon": -77.03637616666667, "rental_uris": {"android": "https://dc.lft.to/lastmile_qr_scan", "ios": "https://dc.lft.to/lastmile_qr_scan"}, "is_disabled": 0, "fusion_lat": 0.0, "name": "963e7213c56d26fd3f804c27fd490ca3", "fusion_lon": 0.0}, {"is_reserved": 0, "type": "electric_scooter", "bike_id": "b6c64fc03d6b82484976fa7bbb1433a3", "lat": 38.914121333333334, "lon": -77.02247983333334, "rental_uris": {"android": "https://dc.lft.to/lastmile_qr_scan", "ios": "https://dc.lft.to/lastmile_qr_scan"}, "is_disabled": 0, "fusion_lat": 0.0, "name": "b6c64fc03d6b82484976fa7bbb1433a3", "fusion_lon": 0.0}, {"is_reserved": 0, "type": "electric_scooter", "bike_id": "5779e18aceedcfb60176c23afdd8923c", "lat": 38.891714, "lon": -77.015524, "rental_uris": {"android": "https://dc.lft.to/lastmile_qr_scan", "ios": "https://dc.lft.to/lastmile_qr_scan"}, "is_disabled": 0, "fusion_lat": 0.0, "name": "5779e18aceedcfb60176c23afdd8923c", "fusion_lon": 0.0}, {"is_reserved": 0, "type": "electric_scooter", "bike_id": "6c71c46cb7ee04906a9c106aec143ec2", "lat": 38.906654333333336, "lon": -77.0270515, "rental_uris": {"android": "https://dc.lft.to/lastmile_qr_scan", "ios": "https://dc.lft.to/lastmile_qr_scan"}, "is_disabled": 0, "fusion_lat": 0.0, "name": "6c71c46cb7ee04906a9c106aec143ec2", "fusion_lon": 0.0}, {"is_reserved": 0, "type": "electric_scooter", "bike_id": "e3c5c9fedda97c13f1de84394b9741c2", "lat": 38.897373, "lon": -76.99768483333334, "rental_uris": {"android": "https://dc.lft.to/lastmile_qr_scan", "ios": "https://dc.lft.to/lastmile_qr_scan"}, "is_disabled": 0, "fusion_lat": 0.0, "name": "e3c5c9fedda97c13f1de84394b9741c2", "fusion_lon": 0.0}, {"is_reserved": 0, "type": "electric_bike", "bike_id": "8296acd831c08a61bf287f57bf566666", "lat": 38.94666, "lon": -76.99333783333333, "rental_uris": {"android": "https://dc.lft.to/lastmile_qr_scan", "ios": "https://dc.lft.to/lastmile_qr_scan"}, "is_disabled": 0, "fusion_lat": 0.0, "name": "8296acd831c08a61bf287f57bf566666", "fusion_lon": 0.0}, {"is_reserved": 0, "type": "electric_scooter", "bike_id": "294f4af0b47cd780da49971d57a292ac", "lat": 38.916429666666666, "lon": -77.023944, "rental_uris": {"android": "https://dc.lft.to/lastmile_qr_scan", "ios": "https://dc.lft.to/lastmile_qr_scan"}, "is_disabled": 0, "fusion_lat": 0.0, "name": "294f4af0b47cd780da49971d57a292ac", "fusion_lon": 0.0}, {"is_reserved": 0, "type": "electric_scooter", "bike_id": "35e2f8aac4588f8283b6d8a891356077", "lat": 38.872926, "lon": -77.01078683333333, "rental_uris": {"android": "https://dc.lft.to/lastmile_qr_scan", "ios": "https://dc.lft.to/lastmile_qr_scan"}, "is_disabled": 0, "fusion_lat": 0.0, "name": "35e2f8aac4588f8283b6d8a891356077", "fusion_lon": 0.0}, {"is_reserved": 0, "type": "electric_scooter", "bike_id": "8ad29f54880ab783043a9dbb64b68a05", "lat": 38.893092833333334, "lon": -77.012048, "rental_uris": {"android": "https://dc.lft.to/lastmile_qr_scan", "ios": "https://dc.lft.to/lastmile_qr_scan"}, "is_disabled": 0, "fusion_lat": 0.0, "name": "8ad29f54880ab783043a9dbb64b68a05", "fusion_lon": 0.0}, {"is_reserved": 0, "type": "electric_scooter", "bike_id": "8e3a0eae6bc2ceb602361145100df0b0", "lat": 38.89339433333333, "lon": -77.04874, "rental_uris": {"android": "https://dc.lft.to/lastmile_qr_scan", "ios": "https://dc.lft.to/lastmile_qr_scan"}, "is_disabled": 0, "fusion_lat": 0.0, "name": "8e3a0eae6bc2ceb602361145100df0b0", "fusion_lon": 0.0}, {"is_reserved": 0, "type": "electric_scooter", "bike_id": "cf8ff85a45af88fd3ce7e2ac16831757", "lat": 38.89643, "lon": -77.00921583333333, "rental_uris": {"android": "https://dc.lft.to/lastmile_qr_scan", "ios": "https://dc.lft.to/lastmile_qr_scan"}, "is_disabled": 0, "fusion_lat": 0.0, "name": "cf8ff85a45af88fd3ce7e2ac16831757", "fusion_lon": 0.0}, {"is_reserved": 0, "type": "electric_scooter", "bike_id": "0133a8ba4510f505c8e255d42127a2ae", "lat": 38.89635583333333, "lon": -76.92799516666666, "rental_uris": {"android": "https://dc.lft.to/lastmile_qr_scan", "ios": "https://dc.lft.to/lastmile_qr_scan"}, "is_disabled": 0, "fusion_lat": 0.0, "name": "0133a8ba4510f505c8e255d42127a2ae", "fusion_lon": 0.0}, {"is_reserved": 0, "type": "electric_bike", "bike_id": "9d4460234f688c1df60c104fdea574c4", "lat": 38.87336333333333, "lon": -77.01858283333334, "rental_uris": {"android": "https://dc.lft.to/lastmile_qr_scan", "ios": "https://dc.lft.to/lastmile_qr_scan"}, "is_disabled": 0, "fusion_lat": 0.0, "name": "9d4460234f688c1df60c104fdea574c4", "fusion_lon": 0.0}, {"is_reserved": 0, "type": "electric_bike", "bike_id": "7ff5db03605132ad7793194d63b97d7c", "lat": 38.942614666666664, "lon": -76.99069833333333, "rental_uris": {"android": "https://dc.lft.to/lastmile_qr_scan", "ios": "https://dc.lft.to/lastmile_qr_scan"}, "is_disabled": 0, "fusion_lat": 0.0, "name": "7ff5db03605132ad7793194d63b97d7c", "fusion_lon": 0.0}, {"is_reserved": 0, "type": "electric_scooter", "bike_id": "5894269821feb02ad8b389d3acde3923", "lat": 38.9009765, "lon": -77.05786283333333, "rental_uris": {"android": "https://dc.lft.to/lastmile_qr_scan", "ios": "https://dc.lft.to/lastmile_qr_scan"}, "is_disabled": 0, "fusion_lat": 0.0, "name": "5894269821feb02ad8b389d3acde3923", "fusion_lon": 0.0}, {"is_reserved": 0, "type": "electric_scooter", "bike_id": "9ca6afc1eafacef12d760a75e0b43dab", "lat": 38.90764333333333, "lon": -77.03207066666667, "rental_uris": {"android": "https://dc.lft.to/lastmile_qr_scan", "ios": "https://dc.lft.to/lastmile_qr_scan"}, "is_disabled": 0, "fusion_lat": 0.0, "name": "9ca6afc1eafacef12d760a75e0b43dab", "fusion_lon": 0.0}, {"is_reserved": 0, "type": "electric_scooter", "bike_id": "b1e89589acb8afffc8edd1fc914482a6", "lat": 38.89599233333333, "lon": -77.029931, "rental_uris": {"android": "https://dc.lft.to/lastmile_qr_scan", "ios": "https://dc.lft.to/lastmile_qr_scan"}, "is_disabled": 0, "fusion_lat": 0.0, "name": "b1e89589acb8afffc8edd1fc914482a6", "fusion_lon": 0.0}, {"is_reserved": 0, "type": "electric_scooter", "bike_id": "a304f92d385fc69a00acf44e6452fede", "lat": 38.95909833333333, "lon": -77.00019616666667, "rental_uris": {"android": "https://dc.lft.to/lastmile_qr_scan", "ios": "https://dc.lft.to/lastmile_qr_scan"}, "is_disabled": 0, "fusion_lat": 0.0, "name": "a304f92d385fc69a00acf44e6452fede", "fusion_lon": 0.0}, {"is_reserved": 0, "type": "electric_scooter", "bike_id": "961b8067e270f074d9aeff783174548f", "lat": 38.945918166666665, "lon": -77.020348, "rental_uris": {"android": "https://dc.lft.to/lastmile_qr_scan", "ios": "https://dc.lft.to/lastmile_qr_scan"}, "is_disabled": 0, "fusion_lat": 0.0, "name": "961b8067e270f074d9aeff783174548f", "fusion_lon": 0.0}, {"is_reserved": 0, "type": "electric_scooter", "bike_id": "710c5e4f06725364d1d38b4480625dae", "lat": 38.90192583333334, "lon": -77.02183416666666, "rental_uris": {"android": "https://dc.lft.to/lastmile_qr_scan", "ios": "https://dc.lft.to/lastmile_qr_scan"}, "is_disabled": 0, "fusion_lat": 0.0, "name": "710c5e4f06725364d1d38b4480625dae", "fusion_lon": 0.0}, {"is_reserved": 0, "type": "electric_scooter", "bike_id": "72fe08c48932890e992d629f4c80165d", "lat": 38.92676566666667, "lon": -77.0320395, "rental_uris": {"android": "https://dc.lft.to/lastmile_qr_scan", "ios": "https://dc.lft.to/lastmile_qr_scan"}, "is_disabled": 0, "fusion_lat": 0.0, "name": "72fe08c48932890e992d629f4c80165d", "fusion_lon": 0.0}, {"is_reserved": 0, "type": "electric_scooter", "bike_id": "f477bdf57742b7716cf3f3314e36b777", "lat": 38.885188166666666, "lon": -76.99624416666667, "rental_uris": {"android": "https://dc.lft.to/lastmile_qr_scan", "ios": "https://dc.lft.to/lastmile_qr_scan"}, "is_disabled": 0, "fusion_lat": 0.0, "name": "f477bdf57742b7716cf3f3314e36b777", "fusion_lon": 0.0}, {"is_reserved": 0, "type": "electric_scooter", "bike_id": "57fdd1b0383b3feb46d7f2e486ecc28e", "lat": 38.89878183333333, "lon": -76.93182783333333, "rental_uris": {"android": "https://dc.lft.to/lastmile_qr_scan", "ios": "https://dc.lft.to/lastmile_qr_scan"}, "is_disabled": 0, "fusion_lat": 0.0, "name": "57fdd1b0383b3feb46d7f2e486ecc28e", "fusion_lon": 0.0}, {"is_reserved": 0, "type": "electric_scooter", "bike_id": "9158debc436686541006466f3986a461", "lat": 38.92871933333333, "lon": -77.01364466666666, "rental_uris": {"android": "https://dc.lft.to/lastmile_qr_scan", "ios": "https://dc.lft.to/lastmile_qr_scan"}, "is_disabled": 0, "fusion_lat": 0.0, "name": "9158debc436686541006466f3986a461", "fusion_lon": 0.0}, {"is_reserved": 0, "type": "electric_scooter", "bike_id": "eff5fbb0ff7b023102f4eae7f6b489ea", "lat": 38.906851833333334, "lon": -77.06252, "rental_uris": {"android": "https://dc.lft.to/lastmile_qr_scan", "ios": "https://dc.lft.to/lastmile_qr_scan"}, "is_disabled": 0, "fusion_lat": 0.0, "name": "eff5fbb0ff7b023102f4eae7f6b489ea", "fusion_lon": 0.0}, {"is_reserved": 0, "type": "electric_scooter", "bike_id": "ce8693ce6816b8ff2fec240dd45fbf14", "lat": 38.90722516666666, "lon": -77.01680583333334, "rental_uris": {"android": "https://dc.lft.to/lastmile_qr_scan", "ios": "https://dc.lft.to/lastmile_qr_scan"}, "is_disabled": 0, "fusion_lat": 0.0, "name": "ce8693ce6816b8ff2fec240dd45fbf14", "fusion_lon": 0.0}, {"is_reserved": 0, "type": "electric_scooter", "bike_id": "1a3fd78c1d0f32f251a278ee60b4ff24", "lat": 38.906763166666664, "lon": -77.00903016666666, "rental_uris": {"android": "https://dc.lft.to/lastmile_qr_scan", "ios": "https://dc.lft.to/lastmile_qr_scan"}, "is_disabled": 0, "fusion_lat": 0.0, "name": "1a3fd78c1d0f32f251a278ee60b4ff24", "fusion_lon": 0.0}, {"is_reserved": 0, "type": "electric_scooter", "bike_id": "bdcb00b97f41db1fc94b592e1c8c600f", "lat": 38.927700333333334, "lon": -77.02778483333333, "rental_uris": {"android": "https://dc.lft.to/lastmile_qr_scan", "ios": "https://dc.lft.to/lastmile_qr_scan"}, "is_disabled": 0, "fusion_lat": 0.0, "name": "bdcb00b97f41db1fc94b592e1c8c600f", "fusion_lon": 0.0}, {"is_reserved": 0, "type": "electric_scooter", "bike_id": "7c3cc7cd3bb17ac05db682a1ecfbb0ae", "lat": 38.91704716666667, "lon": -77.02414333333333, "rental_uris": {"android": "https://dc.lft.to/lastmile_qr_scan", "ios": "https://dc.lft.to/lastmile_qr_scan"}, "is_disabled": 0, "fusion_lat": 0.0, "name": "7c3cc7cd3bb17ac05db682a1ecfbb0ae", "fusion_lon": 0.0}, {"is_reserved": 0, "type": "electric_scooter", "bike_id": "fe06b4202357b308a7fa7827f10641f4", "lat": 38.91745783333333, "lon": -77.02806483333333, "rental_uris": {"android": "https://dc.lft.to/lastmile_qr_scan", "ios": "https://dc.lft.to/lastmile_qr_scan"}, "is_disabled": 0, "fusion_lat": 0.0, "name": "fe06b4202357b308a7fa7827f10641f4", "fusion_lon": 0.0}, {"is_reserved": 0, "type": "electric_scooter", "bike_id": "81076ac4c3c1843547faf426eaa78626", "lat": 38.9284325, "lon": -77.05512433333334, "rental_uris": {"android": "https://dc.lft.to/lastmile_qr_scan", "ios": "https://dc.lft.to/lastmile_qr_scan"}, "is_disabled": 0, "fusion_lat": 0.0, "name": "81076ac4c3c1843547faf426eaa78626", "fusion_lon": 0.0}, {"is_reserved": 0, "type": "electric_scooter", "bike_id": "ad3e949febb1168129d322b1d992e963", "lat": 38.92246933333333, "lon": -77.04253466666667, "rental_uris": {"android": "https://dc.lft.to/lastmile_qr_scan", "ios": "https://dc.lft.to/lastmile_qr_scan"}, "is_disabled": 0, "fusion_lat": 0.0, "name": "ad3e949febb1168129d322b1d992e963", "fusion_lon": 0.0}, {"is_reserved": 0, "type": "electric_scooter", "bike_id": "edfbea448eb8a7e5da28bfe3c68c0f4a", "lat": 38.940809333333334, "lon": -77.05493983333334, "rental_uris": {"android": "https://dc.lft.to/lastmile_qr_scan", "ios": "https://dc.lft.to/lastmile_qr_scan"}, "is_disabled": 0, "fusion_lat": 0.0, "name": "edfbea448eb8a7e5da28bfe3c68c0f4a", "fusion_lon": 0.0}, {"is_reserved": 0, "type": "electric_scooter", "bike_id": "bee23ddb5169f1345e0ba6ee667b36c5", "lat": 38.9238165, "lon": -77.02691216666666, "rental_uris": {"android": "https://dc.lft.to/lastmile_qr_scan", "ios": "https://dc.lft.to/lastmile_qr_scan"}, "is_disabled": 0, "fusion_lat": 0.0, "name": "bee23ddb5169f1345e0ba6ee667b36c5", "fusion_lon": 0.0}, {"is_reserved": 0, "type": "electric_scooter", "bike_id": "d60ca9c2167d9d71925579aba3fe95d6", "lat": 38.9243255, "lon": -77.00321433333333, "rental_uris": {"android": "https://dc.lft.to/lastmile_qr_scan", "ios": "https://dc.lft.to/lastmile_qr_scan"}, "is_disabled": 0, "fusion_lat": 0.0, "name": "d60ca9c2167d9d71925579aba3fe95d6", "fusion_lon": 0.0}, {"is_reserved": 0, "type": "electric_scooter", "bike_id": "4f9db314568c36ab140d793f18689182", "lat": 38.90188333333333, "lon": -77.0486745, "rental_uris": {"android": "https://dc.lft.to/lastmile_qr_scan", "ios": "https://dc.lft.to/lastmile_qr_scan"}, "is_disabled": 0, "fusion_lat": 0.0, "name": "4f9db314568c36ab140d793f18689182", "fusion_lon": 0.0}, {"is_reserved": 0, "type": "electric_scooter", "bike_id": "6cf22491ecc1df1c353be1456326d21d", "lat": 38.92487033333333, "lon": -77.02709916666667, "rental_uris": {"android": "https://dc.lft.to/lastmile_qr_scan", "ios": "https://dc.lft.to/lastmile_qr_scan"}, "is_disabled": 0, "fusion_lat": 0.0, "name": "6cf22491ecc1df1c353be1456326d21d", "fusion_lon": 0.0}, {"is_reserved": 0, "type": "electric_scooter", "bike_id": "48926ac9b5417502e3ab9ba5fb938c17", "lat": 38.893076666666666, "lon": -77.0298445, "rental_uris": {"android": "https://dc.lft.to/lastmile_qr_scan", "ios": "https://dc.lft.to/lastmile_qr_scan"}, "is_disabled": 0, "fusion_lat": 0.0, "name": "48926ac9b5417502e3ab9ba5fb938c17", "fusion_lon": 0.0}, {"is_reserved": 0, "type": "electric_scooter", "bike_id": "559a5af958cc73c446914a64f47845f1", "lat": 38.92215383333333, "lon": -77.04239116666666, "rental_uris": {"android": "https://dc.lft.to/lastmile_qr_scan", "ios": "https://dc.lft.to/lastmile_qr_scan"}, "is_disabled": 0, "fusion_lat": 0.0, "name": "559a5af958cc73c446914a64f47845f1", "fusion_lon": 0.0}, {"is_reserved": 0, "type": "electric_scooter", "bike_id": "cbe49b145665d9ebdaa571d9088d144e", "lat": 38.87936933333334, "lon": -77.016645, "rental_uris": {"android": "https://dc.lft.to/lastmile_qr_scan", "ios": "https://dc.lft.to/lastmile_qr_scan"}, "is_disabled": 0, "fusion_lat": 0.0, "name": "cbe49b145665d9ebdaa571d9088d144e", "fusion_lon": 0.0}, {"is_reserved": 0, "type": "electric_scooter", "bike_id": "4044d90cc207c9690576d5b1d15d957d", "lat": 38.92755866666667, "lon": -77.02111316666667, "rental_uris": {"android": "https://dc.lft.to/lastmile_qr_scan", "ios": "https://dc.lft.to/lastmile_qr_scan"}, "is_disabled": 0, "fusion_lat": 0.0, "name": "4044d90cc207c9690576d5b1d15d957d", "fusion_lon": 0.0}, {"is_reserved": 0, "type": "electric_scooter", "bike_id": "c61d3f130daf265e51287df89e3e827c", "lat": 38.924527, "lon": -77.0519635, "rental_uris": {"android": "https://dc.lft.to/lastmile_qr_scan", "ios": "https://dc.lft.to/lastmile_qr_scan"}, "is_disabled": 0, "fusion_lat": 0.0, "name": "c61d3f130daf265e51287df89e3e827c", "fusion_lon": 0.0}, {"is_reserved": 0, "type": "electric_bike", "bike_id": "b3d69d088fced1dbc56d1a2575933693", "lat": 38.98917333333333, "lon": -77.02537383333333, "rental_uris": {"android": "https://dc.lft.to/lastmile_qr_scan", "ios": "https://dc.lft.to/lastmile_qr_scan"}, "is_disabled": 0, "fusion_lat": 0.0, "name": "b3d69d088fced1dbc56d1a2575933693", "fusion_lon": 0.0}, {"is_reserved": 0, "type": "electric_scooter", "bike_id": "c1f6303d579dc5996b30e80d96c5eeb9", "lat": 38.958258666666666, "lon": -77.076489, "rental_uris": {"android": "https://dc.lft.to/lastmile_qr_scan", "ios": "https://dc.lft.to/lastmile_qr_scan"}, "is_disabled": 0, "fusion_lat": 0.0, "name": "c1f6303d579dc5996b30e80d96c5eeb9", "fusion_lon": 0.0}, {"is_reserved": 0, "type": "electric_scooter", "bike_id": "aad923f39235f70b1517edcc06fa841a", "lat": 38.9202925, "lon": -77.04178616666667, "rental_uris": {"android": "https://dc.lft.to/lastmile_qr_scan", "ios": "https://dc.lft.to/lastmile_qr_scan"}, "is_disabled": 0, "fusion_lat": 0.0, "name": "aad923f39235f70b1517edcc06fa841a", "fusion_lon": 0.0}, {"is_reserved": 0, "type": "electric_bike", "bike_id": "9b5635bb0ff5d6e995513ff6a872fde4", "lat": 38.89848416666667, "lon": -77.1186445, "rental_uris": {"android": "https://dc.lft.to/lastmile_qr_scan", "ios": "https://dc.lft.to/lastmile_qr_scan"}, "is_disabled": 0, "fusion_lat": 0.0, "name": "9b5635bb0ff5d6e995513ff6a872fde4", "fusion_lon": 0.0}, {"is_reserved": 0, "type": "electric_scooter", "bike_id": "d2ffeea125e347656ce392b227dc48f0", "lat": 38.9217, "lon": -77.03212916666666, "rental_uris": {"android": "https://dc.lft.to/lastmile_qr_scan", "ios": "https://dc.lft.to/lastmile_qr_scan"}, "is_disabled": 0, "fusion_lat": 0.0, "name": "d2ffeea125e347656ce392b227dc48f0", "fusion_lon": 0.0}, {"is_reserved": 0, "type": "electric_scooter", "bike_id": "0a1b630790ae649018ea294c623c074c", "lat": 38.914053333333335, "lon": -77.0468165, "rental_uris": {"android": "https://dc.lft.to/lastmile_qr_scan", "ios": "https://dc.lft.to/lastmile_qr_scan"}, "is_disabled": 0, "fusion_lat": 0.0, "name": "0a1b630790ae649018ea294c623c074c", "fusion_lon": 0.0}, {"is_reserved": 0, "type": "electric_scooter", "bike_id": "b8bfbc32741314f3d06a9fec89d4b5b7", "lat": 38.903867, "lon": -77.0330235, "rental_uris": {"android": "https://dc.lft.to/lastmile_qr_scan", "ios": "https://dc.lft.to/lastmile_qr_scan"}, "is_disabled": 0, "fusion_lat": 0.0, "name": "b8bfbc32741314f3d06a9fec89d4b5b7", "fusion_lon": 0.0}, {"is_reserved": 0, "type": "electric_scooter", "bike_id": "0c4f12ee0f83c404ab37cb2e85db814a", "lat": 38.88376916666667, "lon": -76.99519466666666, "rental_uris": {"android": "https://dc.lft.to/lastmile_qr_scan", "ios": "https://dc.lft.to/lastmile_qr_scan"}, "is_disabled": 0, "fusion_lat": 0.0, "name": "0c4f12ee0f83c404ab37cb2e85db814a", "fusion_lon": 0.0}, {"is_reserved": 0, "type": "electric_scooter", "bike_id": "ead4989f9af6d1d310672f5c69d45435", "lat": 38.915314, "lon": -77.020015, "rental_uris": {"android": "https://dc.lft.to/lastmile_qr_scan", "ios": "https://dc.lft.to/lastmile_qr_scan"}, "is_disabled": 0, "fusion_lat": 0.0, "name": "ead4989f9af6d1d310672f5c69d45435", "fusion_lon": 0.0}, {"is_reserved": 0, "type": "electric_scooter", "bike_id": "9cff876bcfbf4379ef545290a6c5b2df", "lat": 38.927989, "lon": -77.040674, "rental_uris": {"android": "https://dc.lft.to/lastmile_qr_scan", "ios": "https://dc.lft.to/lastmile_qr_scan"}, "is_disabled": 0, "fusion_lat": 0.0, "name": "9cff876bcfbf4379ef545290a6c5b2df", "fusion_lon": 0.0}, {"is_reserved": 0, "type": "electric_scooter", "bike_id": "6fde8ba9648118ed445438e8a2b063b5", "lat": 38.91740033333333, "lon": -77.01711, "rental_uris": {"android": "https://dc.lft.to/lastmile_qr_scan", "ios": "https://dc.lft.to/lastmile_qr_scan"}, "is_disabled": 0, "fusion_lat": 0.0, "name": "6fde8ba9648118ed445438e8a2b063b5", "fusion_lon": 0.0}, {"is_reserved": 0, "type": "electric_scooter", "bike_id": "9912f0b6a22cbf38f10856a48a659ab9", "lat": 38.8845015, "lon": -77.0251655, "rental_uris": {"android": "https://dc.lft.to/lastmile_qr_scan", "ios": "https://dc.lft.to/lastmile_qr_scan"}, "is_disabled": 0, "fusion_lat": 0.0, "name": "9912f0b6a22cbf38f10856a48a659ab9", "fusion_lon": 0.0}, {"is_reserved": 0, "type": "electric_scooter", "bike_id": "19929859b120c2f749f5aa31f30ac42f", "lat": 38.9070035, "lon": -77.045034, "rental_uris": {"android": "https://dc.lft.to/lastmile_qr_scan", "ios": "https://dc.lft.to/lastmile_qr_scan"}, "is_disabled": 0, "fusion_lat": 0.0, "name": "19929859b120c2f749f5aa31f30ac42f", "fusion_lon": 0.0}, {"is_reserved": 0, "type": "electric_scooter", "bike_id": "d562504abaf561892fc98f67cdc4fcd9", "lat": 38.9072395, "lon": -77.02940466666666, "rental_uris": {"android": "https://dc.lft.to/lastmile_qr_scan", "ios": "https://dc.lft.to/lastmile_qr_scan"}, "is_disabled": 0, "fusion_lat": 0.0, "name": "d562504abaf561892fc98f67cdc4fcd9", "fusion_lon": 0.0}, {"is_reserved": 0, "type": "electric_scooter", "bike_id": "db36bca2aa8338050584f7ddfed6969f", "lat": 38.927366166666665, "lon": -77.05361866666667, "rental_uris": {"android": "https://dc.lft.to/lastmile_qr_scan", "ios": "https://dc.lft.to/lastmile_qr_scan"}, "is_disabled": 0, "fusion_lat": 0.0, "name": "db36bca2aa8338050584f7ddfed6969f", "fusion_lon": 0.0}, {"is_reserved": 0, "type": "electric_scooter", "bike_id": "c7059e27fc3e055ff779e242930657d5", "lat": 38.912760166666665, "lon": -77.03666616666666, "rental_uris": {"android": "https://dc.lft.to/lastmile_qr_scan", "ios": "https://dc.lft.to/lastmile_qr_scan"}, "is_disabled": 0, "fusion_lat": 0.0, "name": "c7059e27fc3e055ff779e242930657d5", "fusion_lon": 0.0}, {"is_reserved": 0, "type": "electric_scooter", "bike_id": "a5b38f3b531dea33cf1a5fa98fbf3501", "lat": 38.878346666666665, "lon": -77.02277316666667, "rental_uris": {"android": "https://dc.lft.to/lastmile_qr_scan", "ios": "https://dc.lft.to/lastmile_qr_scan"}, "is_disabled": 0, "fusion_lat": 0.0, "name": "a5b38f3b531dea33cf1a5fa98fbf3501", "fusion_lon": 0.0}, {"is_reserved": 0, "type": "electric_scooter", "bike_id": "5b71b07c9c566add48b59a1615b4d622", "lat": 38.89672933333333, "lon": -77.0052255, "rental_uris": {"android": "https://dc.lft.to/lastmile_qr_scan", "ios": "https://dc.lft.to/lastmile_qr_scan"}, "is_disabled": 0, "fusion_lat": 0.0, "name": "5b71b07c9c566add48b59a1615b4d622", "fusion_lon": 0.0}, {"is_reserved": 0, "type": "electric_scooter", "bike_id": "48f824c5688708cce51204818d34430e", "lat": 38.88434516666667, "lon": -77.029686, "rental_uris": {"android": "https://dc.lft.to/lastmile_qr_scan", "ios": "https://dc.lft.to/lastmile_qr_scan"}, "is_disabled": 0, "fusion_lat": 0.0, "name": "48f824c5688708cce51204818d34430e", "fusion_lon": 0.0}, {"is_reserved": 0, "type": "electric_scooter", "bike_id": "81c45a2fde123cd032647a20e2969b19", "lat": 38.9337055, "lon": -77.03467683333334, "rental_uris": {"android": "https://dc.lft.to/lastmile_qr_scan", "ios": "https://dc.lft.to/lastmile_qr_scan"}, "is_disabled": 0, "fusion_lat": 0.0, "name": "81c45a2fde123cd032647a20e2969b19", "fusion_lon": 0.0}, {"is_reserved": 0, "type": "electric_scooter", "bike_id": "898e40e712aca2b343790fcdf3403601", "lat": 38.9187175, "lon": -77.02603183333333, "rental_uris": {"android": "https://dc.lft.to/lastmile_qr_scan", "ios": "https://dc.lft.to/lastmile_qr_scan"}, "is_disabled": 0, "fusion_lat": 0.0, "name": "898e40e712aca2b343790fcdf3403601", "fusion_lon": 0.0}, {"is_reserved": 0, "type": "electric_scooter", "bike_id": "b036372957eb26cb2a18c1a8781c2834", "lat": 38.898883166666664, "lon": -76.99361633333334, "rental_uris": {"android": "https://dc.lft.to/lastmile_qr_scan", "ios": "https://dc.lft.to/lastmile_qr_scan"}, "is_disabled": 0, "fusion_lat": 0.0, "name": "b036372957eb26cb2a18c1a8781c2834", "fusion_lon": 0.0}, {"is_reserved": 0, "type": "electric_bike", "bike_id": "9be9efd1e606eff470da1601e88e0e1e", "lat": 38.880848666666665, "lon": -77.02573816666667, "rental_uris": {"android": "https://dc.lft.to/lastmile_qr_scan", "ios": "https://dc.lft.to/lastmile_qr_scan"}, "is_disabled": 0, "fusion_lat": 0.0, "name": "9be9efd1e606eff470da1601e88e0e1e", "fusion_lon": 0.0}, {"is_reserved": 0, "type": "electric_scooter", "bike_id": "b9edbbadcd76b208f5940f73f97fc0d4", "lat": 38.914720833333334, "lon": -77.0319395, "rental_uris": {"android": "https://dc.lft.to/lastmile_qr_scan", "ios": "https://dc.lft.to/lastmile_qr_scan"}, "is_disabled": 0, "fusion_lat": 0.0, "name": "b9edbbadcd76b208f5940f73f97fc0d4", "fusion_lon": 0.0}, {"is_reserved": 0, "type": "electric_scooter", "bike_id": "b16ec6f0861a120a45e5d08c04578f5f", "lat": 38.884407833333334, "lon": -76.95768583333333, "rental_uris": {"android": "https://dc.lft.to/lastmile_qr_scan", "ios": "https://dc.lft.to/lastmile_qr_scan"}, "is_disabled": 0, "fusion_lat": 0.0, "name": "b16ec6f0861a120a45e5d08c04578f5f", "fusion_lon": 0.0}, {"is_reserved": 0, "type": "electric_scooter", "bike_id": "51ca753d6792d4da1204f02f3cddb8f7", "lat": 38.915636, "lon": -77.030915, "rental_uris": {"android": "https://dc.lft.to/lastmile_qr_scan", "ios": "https://dc.lft.to/lastmile_qr_scan"}, "is_disabled": 0, "fusion_lat": 0.0, "name": "51ca753d6792d4da1204f02f3cddb8f7", "fusion_lon": 0.0}, {"is_reserved": 0, "type": "electric_scooter", "bike_id": "fc04622341fdddf3cb65bc42160b2773", "lat": 38.90869516666667, "lon": -77.04447966666666, "rental_uris": {"android": "https://dc.lft.to/lastmile_qr_scan", "ios": "https://dc.lft.to/lastmile_qr_scan"}, "is_disabled": 0, "fusion_lat": 0.0, "name": "fc04622341fdddf3cb65bc42160b2773", "fusion_lon": 0.0}, {"is_reserved": 0, "type": "electric_scooter", "bike_id": "cb9c79b354c4a286ff9d3cf40b6d0621", "lat": 38.90483, "lon": -77.03235016666666, "rental_uris": {"android": "https://dc.lft.to/lastmile_qr_scan", "ios": "https://dc.lft.to/lastmile_qr_scan"}, "is_disabled": 0, "fusion_lat": 0.0, "name": "cb9c79b354c4a286ff9d3cf40b6d0621", "fusion_lon": 0.0}, {"is_reserved": 0, "type": "electric_bike", "bike_id": "f71e7e8fcac92a94e57dbb7d3e16e241", "lat": 38.95951083333333, "lon": -77.0198975, "rental_uris": {"android": "https://dc.lft.to/lastmile_qr_scan", "ios": "https://dc.lft.to/lastmile_qr_scan"}, "is_disabled": 0, "fusion_lat": 0.0, "name": "f71e7e8fcac92a94e57dbb7d3e16e241", "fusion_lon": 0.0}, {"is_reserved": 0, "type": "electric_bike", "bike_id": "e3214032a06d9c91f3b44da4d24296cd", "lat": 38.832953833333335, "lon": -77.084101, "rental_uris": {"android": "https://dc.lft.to/lastmile_qr_scan", "ios": "https://dc.lft.to/lastmile_qr_scan"}, "is_disabled": 0, "fusion_lat": 0.0, "name": "e3214032a06d9c91f3b44da4d24296cd", "fusion_lon": 0.0}, {"is_reserved": 0, "type": "electric_scooter", "bike_id": "b26eb2395a72b02c276fc661cb3102d2", "lat": 38.897457, "lon": -77.007625, "rental_uris": {"android": "https://dc.lft.to/lastmile_qr_scan", "ios": "https://dc.lft.to/lastmile_qr_scan"}, "is_disabled": 0, "fusion_lat": 0.0, "name": "b26eb2395a72b02c276fc661cb3102d2", "fusion_lon": 0.0}, {"is_reserved": 0, "type": "electric_scooter", "bike_id": "6c99887e8a52b32d315d7f7b3a1cbadd", "lat": 38.929891833333336, "lon": -77.02643033333334, "rental_uris": {"android": "https://dc.lft.to/lastmile_qr_scan", "ios": "https://dc.lft.to/lastmile_qr_scan"}, "is_disabled": 0, "fusion_lat": 0.0, "name": "6c99887e8a52b32d315d7f7b3a1cbadd", "fusion_lon": 0.0}, {"is_reserved": 0, "type": "electric_scooter", "bike_id": "b4debbbab843eaeb5a1b764f57477649", "lat": 38.86615666666667, "lon": -76.98206466666667, "rental_uris": {"android": "https://dc.lft.to/lastmile_qr_scan", "ios": "https://dc.lft.to/lastmile_qr_scan"}, "is_disabled": 0, "fusion_lat": 0.0, "name": "b4debbbab843eaeb5a1b764f57477649", "fusion_lon": 0.0}, {"is_reserved": 0, "type": "electric_scooter", "bike_id": "948bbec34a42fdb91901806b2624279e", "lat": 38.928357, "lon": -77.00604466666667, "rental_uris": {"android": "https://dc.lft.to/lastmile_qr_scan", "ios": "https://dc.lft.to/lastmile_qr_scan"}, "is_disabled": 0, "fusion_lat": 0.0, "name": "948bbec34a42fdb91901806b2624279e", "fusion_lon": 0.0}, {"is_reserved": 0, "type": "electric_scooter", "bike_id": "510b8926d1bf82ad4c58befb4dc0e822", "lat": 38.92602883333333, "lon": -77.02156333333333, "rental_uris": {"android": "https://dc.lft.to/lastmile_qr_scan", "ios": "https://dc.lft.to/lastmile_qr_scan"}, "is_disabled": 0, "fusion_lat": 0.0, "name": "510b8926d1bf82ad4c58befb4dc0e822", "fusion_lon": 0.0}, {"is_reserved": 0, "type": "electric_scooter", "bike_id": "4930275720663328c9b0819b1e630bcf", "lat": 38.93524716666667, "lon": -77.01938566666666, "rental_uris": {"android": "https://dc.lft.to/lastmile_qr_scan", "ios": "https://dc.lft.to/lastmile_qr_scan"}, "is_disabled": 0, "fusion_lat": 0.0, "name": "4930275720663328c9b0819b1e630bcf", "fusion_lon": 0.0}, {"is_reserved": 0, "type": "electric_scooter", "bike_id": "ace608c6235a077f259c238250a4d8a8", "lat": 38.9013215, "lon": -77.0278455, "rental_uris": {"android": "https://dc.lft.to/lastmile_qr_scan", "ios": "https://dc.lft.to/lastmile_qr_scan"}, "is_disabled": 0, "fusion_lat": 0.0, "name": "ace608c6235a077f259c238250a4d8a8", "fusion_lon": 0.0}, {"is_reserved": 0, "type": "electric_scooter", "bike_id": "54da76ef9ef21971c23643f1b3fa28b8", "lat": 38.88607783333333, "lon": -76.98817433333333, "rental_uris": {"android": "https://dc.lft.to/lastmile_qr_scan", "ios": "https://dc.lft.to/lastmile_qr_scan"}, "is_disabled": 0, "fusion_lat": 0.0, "name": "54da76ef9ef21971c23643f1b3fa28b8", "fusion_lon": 0.0}, {"is_reserved": 0, "type": "electric_scooter", "bike_id": "17d0fdffd938dc5c6020bc80bfb49ab0", "lat": 38.92701566666667, "lon": -77.03260366666666, "rental_uris": {"android": "https://dc.lft.to/lastmile_qr_scan", "ios": "https://dc.lft.to/lastmile_qr_scan"}, "is_disabled": 0, "fusion_lat": 0.0, "name": "17d0fdffd938dc5c6020bc80bfb49ab0", "fusion_lon": 0.0}, {"is_reserved": 0, "type": "electric_scooter", "bike_id": "3ab7c9add8bb33b71bd0762a35ae70c4", "lat": 38.93116633333333, "lon": -77.02101366666666, "rental_uris": {"android": "https://dc.lft.to/lastmile_qr_scan", "ios": "https://dc.lft.to/lastmile_qr_scan"}, "is_disabled": 0, "fusion_lat": 0.0, "name": "3ab7c9add8bb33b71bd0762a35ae70c4", "fusion_lon": 0.0}, {"is_reserved": 0, "type": "electric_scooter", "bike_id": "d5d61bfd8b72a1aaf6c099e9d1c99e67", "lat": 38.955334666666666, "lon": -77.0205675, "rental_uris": {"android": "https://dc.lft.to/lastmile_qr_scan", "ios": "https://dc.lft.to/lastmile_qr_scan"}, "is_disabled": 0, "fusion_lat": 0.0, "name": "d5d61bfd8b72a1aaf6c099e9d1c99e67", "fusion_lon": 0.0}, {"is_reserved": 0, "type": "electric_scooter", "bike_id": "055ea0d8f1739fd8fc40cf045f77797f", "lat": 38.905792, "lon": -77.03649833333333, "rental_uris": {"android": "https://dc.lft.to/lastmile_qr_scan", "ios": "https://dc.lft.to/lastmile_qr_scan"}, "is_disabled": 0, "fusion_lat": 0.0, "name": "055ea0d8f1739fd8fc40cf045f77797f", "fusion_lon": 0.0}, {"is_reserved": 0, "type": "electric_scooter", "bike_id": "fa3c0d0775335315cc77244c56dc08df", "lat": 38.9141105, "lon": -77.0314315, "rental_uris": {"android": "https://dc.lft.to/lastmile_qr_scan", "ios": "https://dc.lft.to/lastmile_qr_scan"}, "is_disabled": 0, "fusion_lat": 0.0, "name": "fa3c0d0775335315cc77244c56dc08df", "fusion_lon": 0.0}, {"is_reserved": 0, "type": "electric_bike", "bike_id": "cae3c41dcd62dc3deadbe4e810274e2e", "lat": 38.85597716666667, "lon": -76.97459183333333, "rental_uris": {"android": "https://dc.lft.to/lastmile_qr_scan", "ios": "https://dc.lft.to/lastmile_qr_scan"}, "is_disabled": 0, "fusion_lat": 0.0, "name": "cae3c41dcd62dc3deadbe4e810274e2e", "fusion_lon": 0.0}, {"is_reserved": 0, "type": "electric_scooter", "bike_id": "90688fa65a34b4b7085d089a0ed401ba", "lat": 38.88506233333333, "lon": -77.01773666666666, "rental_uris": {"android": "https://dc.lft.to/lastmile_qr_scan", "ios": "https://dc.lft.to/lastmile_qr_scan"}, "is_disabled": 0, "fusion_lat": 0.0, "name": "90688fa65a34b4b7085d089a0ed401ba", "fusion_lon": 0.0}, {"is_reserved": 0, "type": "electric_scooter", "bike_id": "1c7a43d8c4ef7ff22fe0f3f4ecfc1821", "lat": 38.91920666666667, "lon": -77.03113416666666, "rental_uris": {"android": "https://dc.lft.to/lastmile_qr_scan", "ios": "https://dc.lft.to/lastmile_qr_scan"}, "is_disabled": 0, "fusion_lat": 0.0, "name": "1c7a43d8c4ef7ff22fe0f3f4ecfc1821", "fusion_lon": 0.0}, {"is_reserved": 0, "type": "electric_bike", "bike_id": "07fe99010d7c364269012d27ad6e2d4c", "lat": 38.857843833333334, "lon": -76.987611, "rental_uris": {"android": "https://dc.lft.to/lastmile_qr_scan", "ios": "https://dc.lft.to/lastmile_qr_scan"}, "is_disabled": 0, "fusion_lat": 0.0, "name": "07fe99010d7c364269012d27ad6e2d4c", "fusion_lon": 0.0}, {"is_reserved": 0, "type": "electric_scooter", "bike_id": "49675afdeb750b1b2db9b41b6829d580", "lat": 38.91750033333334, "lon": -77.041627, "rental_uris": {"android": "https://dc.lft.to/lastmile_qr_scan", "ios": "https://dc.lft.to/lastmile_qr_scan"}, "is_disabled": 0, "fusion_lat": 0.0, "name": "49675afdeb750b1b2db9b41b6829d580", "fusion_lon": 0.0}, {"is_reserved": 0, "type": "electric_scooter", "bike_id": "b69f143f0c358a88f36261060bc42ef8", "lat": 38.919640666666666, "lon": -77.01438483333334, "rental_uris": {"android": "https://dc.lft.to/lastmile_qr_scan", "ios": "https://dc.lft.to/lastmile_qr_scan"}, "is_disabled": 0, "fusion_lat": 0.0, "name": "b69f143f0c358a88f36261060bc42ef8", "fusion_lon": 0.0}, {"is_reserved": 0, "type": "electric_scooter", "bike_id": "81f0b3fa6b7f91d0abe0677882b34dd7", "lat": 38.898610833333336, "lon": -76.97762266666666, "rental_uris": {"android": "https://dc.lft.to/lastmile_qr_scan", "ios": "https://dc.lft.to/lastmile_qr_scan"}, "is_disabled": 0, "fusion_lat": 0.0, "name": "81f0b3fa6b7f91d0abe0677882b34dd7", "fusion_lon": 0.0}, {"is_reserved": 0, "type": "electric_scooter", "bike_id": "d3e278a98e3904d48ad684761b0e2d5c", "lat": 38.899998833333335, "lon": -77.0188445, "rental_uris": {"android": "https://dc.lft.to/lastmile_qr_scan", "ios": "https://dc.lft.to/lastmile_qr_scan"}, "is_disabled": 0, "fusion_lat": 0.0, "name": "d3e278a98e3904d48ad684761b0e2d5c", "fusion_lon": 0.0}, {"is_reserved": 0, "type": "electric_scooter", "bike_id": "b06ae510c2a0062295db79982a235ffd", "lat": 38.90562833333333, "lon": -77.00703983333334, "rental_uris": {"android": "https://dc.lft.to/lastmile_qr_scan", "ios": "https://dc.lft.to/lastmile_qr_scan"}, "is_disabled": 0, "fusion_lat": 0.0, "name": "b06ae510c2a0062295db79982a235ffd", "fusion_lon": 0.0}, {"is_reserved": 0, "type": "electric_scooter", "bike_id": "603a72c415e1bd306db349318b9c536f", "lat": 38.9102565, "lon": -77.00757066666667, "rental_uris": {"android": "https://dc.lft.to/lastmile_qr_scan", "ios": "https://dc.lft.to/lastmile_qr_scan"}, "is_disabled": 0, "fusion_lat": 0.0, "name": "603a72c415e1bd306db349318b9c536f", "fusion_lon": 0.0}, {"is_reserved": 0, "type": "electric_scooter", "bike_id": "868cfa856da52f32e63335aa2bdbae22", "lat": 38.9049405, "lon": -76.988683, "rental_uris": {"android": "https://dc.lft.to/lastmile_qr_scan", "ios": "https://dc.lft.to/lastmile_qr_scan"}, "is_disabled": 0, "fusion_lat": 0.0, "name": "868cfa856da52f32e63335aa2bdbae22", "fusion_lon": 0.0}, {"is_reserved": 0, "type": "electric_bike", "bike_id": "90c151cdc78d744a341078d15f1f8235", "lat": 38.806689666666664, "lon": -77.08757583333333, "rental_uris": {"android": "https://dc.lft.to/lastmile_qr_scan", "ios": "https://dc.lft.to/lastmile_qr_scan"}, "is_disabled": 0, "fusion_lat": 0.0, "name": "90c151cdc78d744a341078d15f1f8235", "fusion_lon": 0.0}, {"is_reserved": 0, "type": "electric_bike", "bike_id": "2d86163cab43076aaf60aedb71dfea8e", "lat": 38.943150333333335, "lon": -76.990242, "rental_uris": {"android": "https://dc.lft.to/lastmile_qr_scan", "ios": "https://dc.lft.to/lastmile_qr_scan"}, "is_disabled": 0, "fusion_lat": 0.0, "name": "2d86163cab43076aaf60aedb71dfea8e", "fusion_lon": 0.0}, {"is_reserved": 0, "type": "electric_bike", "bike_id": "80d0e32ab14e2c0f0ead8ae5861da854", "lat": 38.872082166666665, "lon": -77.11743533333333, "rental_uris": {"android": "https://dc.lft.to/lastmile_qr_scan", "ios": "https://dc.lft.to/lastmile_qr_scan"}, "is_disabled": 0, "fusion_lat": 0.0, "name": "80d0e32ab14e2c0f0ead8ae5861da854", "fusion_lon": 0.0}, {"is_reserved": 0, "type": "electric_scooter", "bike_id": "164387561296580c3d81871b92081f0b", "lat": 38.8948425, "lon": -77.02697683333334, "rental_uris": {"android": "https://dc.lft.to/lastmile_qr_scan", "ios": "https://dc.lft.to/lastmile_qr_scan"}, "is_disabled": 0, "fusion_lat": 0.0, "name": "164387561296580c3d81871b92081f0b", "fusion_lon": 0.0}, {"is_reserved": 0, "type": "electric_scooter", "bike_id": "6af671d6f5369d1ab6261f5bc6246a06", "lat": 38.92871866666667, "lon": -77.03243, "rental_uris": {"android": "https://dc.lft.to/lastmile_qr_scan", "ios": "https://dc.lft.to/lastmile_qr_scan"}, "is_disabled": 0, "fusion_lat": 0.0, "name": "6af671d6f5369d1ab6261f5bc6246a06", "fusion_lon": 0.0}, {"is_reserved": 0, "type": "electric_bike", "bike_id": "deeb2a27689a77b96e72b443ce26de80", "lat": 39.084937333333336, "lon": -76.95061483333333, "rental_uris": {"android": "https://dc.lft.to/lastmile_qr_scan", "ios": "https://dc.lft.to/lastmile_qr_scan"}, "is_disabled": 0, "fusion_lat": 0.0, "name": "deeb2a27689a77b96e72b443ce26de80", "fusion_lon": 0.0}, {"is_reserved": 0, "type": "electric_scooter", "bike_id": "497efbd255b46778f8c005e1d649f0ad", "lat": 38.93047166666667, "lon": -77.03621766666667, "rental_uris": {"android": "https://dc.lft.to/lastmile_qr_scan", "ios": "https://dc.lft.to/lastmile_qr_scan"}, "is_disabled": 0, "fusion_lat": 0.0, "name": "497efbd255b46778f8c005e1d649f0ad", "fusion_lon": 0.0}, {"is_reserved": 0, "type": "electric_scooter", "bike_id": "fe5bada5aed1e5b1b7fa1f8025f6fa82", "lat": 38.89221716666667, "lon": -77.026913, "rental_uris": {"android": "https://dc.lft.to/lastmile_qr_scan", "ios": "https://dc.lft.to/lastmile_qr_scan"}, "is_disabled": 0, "fusion_lat": 0.0, "name": "fe5bada5aed1e5b1b7fa1f8025f6fa82", "fusion_lon": 0.0}, {"is_reserved": 0, "type": "electric_scooter", "bike_id": "429354f9e0c6d4518400cf4e8bb0d317", "lat": 38.89527966666667, "lon": -77.04473033333333, "rental_uris": {"android": "https://dc.lft.to/lastmile_qr_scan", "ios": "https://dc.lft.to/lastmile_qr_scan"}, "is_disabled": 0, "fusion_lat": 0.0, "name": "429354f9e0c6d4518400cf4e8bb0d317", "fusion_lon": 0.0}, {"is_reserved": 0, "type": "electric_scooter", "bike_id": "0370aba476beec1c131aa7c441ee46a7", "lat": 38.944349, "lon": -76.97963483333334, "rental_uris": {"android": "https://dc.lft.to/lastmile_qr_scan", "ios": "https://dc.lft.to/lastmile_qr_scan"}, "is_disabled": 0, "fusion_lat": 0.0, "name": "0370aba476beec1c131aa7c441ee46a7", "fusion_lon": 0.0}, {"is_reserved": 0, "type": "electric_scooter", "bike_id": "2f201d2f334d86c18c7fd1bed0661020", "lat": 38.9261855, "lon": -77.04333566666666, "rental_uris": {"android": "https://dc.lft.to/lastmile_qr_scan", "ios": "https://dc.lft.to/lastmile_qr_scan"}, "is_disabled": 0, "fusion_lat": 0.0, "name": "2f201d2f334d86c18c7fd1bed0661020", "fusion_lon": 0.0}, {"is_reserved": 0, "type": "electric_bike", "bike_id": "2486bf122c5fdb624ce19794b5c42c3e", "lat": 38.90520633333333, "lon": -77.06092983333333, "rental_uris": {"android": "https://dc.lft.to/lastmile_qr_scan", "ios": "https://dc.lft.to/lastmile_qr_scan"}, "is_disabled": 0, "fusion_lat": 0.0, "name": "2486bf122c5fdb624ce19794b5c42c3e", "fusion_lon": 0.0}, {"is_reserved": 0, "type": "electric_scooter", "bike_id": "e11fcff76c6a55e9b38d902d6b261ff3", "lat": 38.91814333333333, "lon": -77.041682, "rental_uris": {"android": "https://dc.lft.to/lastmile_qr_scan", "ios": "https://dc.lft.to/lastmile_qr_scan"}, "is_disabled": 0, "fusion_lat": 0.0, "name": "e11fcff76c6a55e9b38d902d6b261ff3", "fusion_lon": 0.0}, {"is_reserved": 0, "type": "electric_scooter", "bike_id": "3bd1d5d42ee481804075dbf714bf3489", "lat": 38.914921, "lon": -77.03231916666667, "rental_uris": {"android": "https://dc.lft.to/lastmile_qr_scan", "ios": "https://dc.lft.to/lastmile_qr_scan"}, "is_disabled": 0, "fusion_lat": 0.0, "name": "3bd1d5d42ee481804075dbf714bf3489", "fusion_lon": 0.0}, {"is_reserved": 0, "type": "electric_scooter", "bike_id": "ca28c187b31274bea38a802276d44d9e", "lat": 38.93995666666667, "lon": -77.01958933333333, "rental_uris": {"android": "https://dc.lft.to/lastmile_qr_scan", "ios": "https://dc.lft.to/lastmile_qr_scan"}, "is_disabled": 0, "fusion_lat": 0.0, "name": "ca28c187b31274bea38a802276d44d9e", "fusion_lon": 0.0}, {"is_reserved": 0, "type": "electric_scooter", "bike_id": "a930b44cd3f77c3fefb29f3f4e7be966", "lat": 38.91253316666667, "lon": -77.0083035, "rental_uris": {"android": "https://dc.lft.to/lastmile_qr_scan", "ios": "https://dc.lft.to/lastmile_qr_scan"}, "is_disabled": 0, "fusion_lat": 0.0, "name": "a930b44cd3f77c3fefb29f3f4e7be966", "fusion_lon": 0.0}, {"is_reserved": 0, "type": "electric_scooter", "bike_id": "12c37856c7fe361c0933fa3a45049d4d", "lat": 38.9058125, "lon": -77.00921016666666, "rental_uris": {"android": "https://dc.lft.to/lastmile_qr_scan", "ios": "https://dc.lft.to/lastmile_qr_scan"}, "is_disabled": 0, "fusion_lat": 0.0, "name": "12c37856c7fe361c0933fa3a45049d4d", "fusion_lon": 0.0}, {"is_reserved": 0, "type": "electric_scooter", "bike_id": "d5ebd009342b2d7183c7a7d9872294e7", "lat": 38.9101705, "lon": -76.99371566666667, "rental_uris": {"android": "https://dc.lft.to/lastmile_qr_scan", "ios": "https://dc.lft.to/lastmile_qr_scan"}, "is_disabled": 0, "fusion_lat": 0.0, "name": "d5ebd009342b2d7183c7a7d9872294e7", "fusion_lon": 0.0}, {"is_reserved": 0, "type": "electric_scooter", "bike_id": "b9944be3de8bd48779675df44042b041", "lat": 38.92379566666666, "lon": -77.031334, "rental_uris": {"android": "https://dc.lft.to/lastmile_qr_scan", "ios": "https://dc.lft.to/lastmile_qr_scan"}, "is_disabled": 0, "fusion_lat": 0.0, "name": "b9944be3de8bd48779675df44042b041", "fusion_lon": 0.0}, {"is_reserved": 0, "type": "electric_scooter", "bike_id": "639f3d293607f067d2cba7e450147320", "lat": 38.905486, "lon": -77.04607633333333, "rental_uris": {"android": "https://dc.lft.to/lastmile_qr_scan", "ios": "https://dc.lft.to/lastmile_qr_scan"}, "is_disabled": 0, "fusion_lat": 0.0, "name": "639f3d293607f067d2cba7e450147320", "fusion_lon": 0.0}, {"is_reserved": 0, "type": "electric_scooter", "bike_id": "dde21d0c842ade3979b1d904920ca893", "lat": 38.918272, "lon": -77.03161333333334, "rental_uris": {"android": "https://dc.lft.to/lastmile_qr_scan", "ios": "https://dc.lft.to/lastmile_qr_scan"}, "is_disabled": 0, "fusion_lat": 0.0, "name": "dde21d0c842ade3979b1d904920ca893", "fusion_lon": 0.0}, {"is_reserved": 0, "type": "electric_scooter", "bike_id": "9bbdb00a97d452086bf03686d478bd74", "lat": 38.922061, "lon": -77.02034566666667, "rental_uris": {"android": "https://dc.lft.to/lastmile_qr_scan", "ios": "https://dc.lft.to/lastmile_qr_scan"}, "is_disabled": 0, "fusion_lat": 0.0, "name": "9bbdb00a97d452086bf03686d478bd74", "fusion_lon": 0.0}, {"is_reserved": 0, "type": "electric_scooter", "bike_id": "0c043d993a2aa4f4cc938fc86cf3f87b", "lat": 38.905301, "lon": -77.05680683333334, "rental_uris": {"android": "https://dc.lft.to/lastmile_qr_scan", "ios": "https://dc.lft.to/lastmile_qr_scan"}, "is_disabled": 0, "fusion_lat": 0.0, "name": "0c043d993a2aa4f4cc938fc86cf3f87b", "fusion_lon": 0.0}, {"is_reserved": 0, "type": "electric_scooter", "bike_id": "716f282245c84b1300bd68c7da0e2ff6", "lat": 38.88725866666667, "lon": -77.02825533333333, "rental_uris": {"android": "https://dc.lft.to/lastmile_qr_scan", "ios": "https://dc.lft.to/lastmile_qr_scan"}, "is_disabled": 0, "fusion_lat": 0.0, "name": "716f282245c84b1300bd68c7da0e2ff6", "fusion_lon": 0.0}, {"is_reserved": 0, "type": "electric_scooter", "bike_id": "8f5d752fa76c3ffdba1f8be79f259ad1", "lat": 38.893628, "lon": -76.9867915, "rental_uris": {"android": "https://dc.lft.to/lastmile_qr_scan", "ios": "https://dc.lft.to/lastmile_qr_scan"}, "is_disabled": 0, "fusion_lat": 0.0, "name": "8f5d752fa76c3ffdba1f8be79f259ad1", "fusion_lon": 0.0}, {"is_reserved": 0, "type": "electric_scooter", "bike_id": "7180292e4c70e74e8b0e6580d45a3073", "lat": 38.93491933333333, "lon": -77.04446866666666, "rental_uris": {"android": "https://dc.lft.to/lastmile_qr_scan", "ios": "https://dc.lft.to/lastmile_qr_scan"}, "is_disabled": 0, "fusion_lat": 0.0, "name": "7180292e4c70e74e8b0e6580d45a3073", "fusion_lon": 0.0}, {"is_reserved": 0, "type": "electric_scooter", "bike_id": "f2c62c6cd9fea139b8986327f4d56294", "lat": 38.887441333333335, "lon": -77.01405566666666, "rental_uris": {"android": "https://dc.lft.to/lastmile_qr_scan", "ios": "https://dc.lft.to/lastmile_qr_scan"}, "is_disabled": 0, "fusion_lat": 0.0, "name": "f2c62c6cd9fea139b8986327f4d56294", "fusion_lon": 0.0}, {"is_reserved": 0, "type": "electric_bike", "bike_id": "407dbe7b4ce212c8adcf07c49601fc14", "lat": 38.961320666666666, "lon": -77.02982316666667, "rental_uris": {"android": "https://dc.lft.to/lastmile_qr_scan", "ios": "https://dc.lft.to/lastmile_qr_scan"}, "is_disabled": 0, "fusion_lat": 0.0, "name": "407dbe7b4ce212c8adcf07c49601fc14", "fusion_lon": 0.0}, {"is_reserved": 0, "type": "electric_scooter", "bike_id": "ea3e975d12d7b2d499be394b82724eef", "lat": 38.904808833333334, "lon": -77.00719466666666, "rental_uris": {"android": "https://dc.lft.to/lastmile_qr_scan", "ios": "https://dc.lft.to/lastmile_qr_scan"}, "is_disabled": 0, "fusion_lat": 0.0, "name": "ea3e975d12d7b2d499be394b82724eef", "fusion_lon": 0.0}, {"is_reserved": 0, "type": "electric_scooter", "bike_id": "00ad99db453d8fb03f96bd1f2a5c912d", "lat": 38.93202566666667, "lon": -77.023523, "rental_uris": {"android": "https://dc.lft.to/lastmile_qr_scan", "ios": "https://dc.lft.to/lastmile_qr_scan"}, "is_disabled": 0, "fusion_lat": 0.0, "name": "00ad99db453d8fb03f96bd1f2a5c912d", "fusion_lon": 0.0}, {"is_reserved": 0, "type": "electric_scooter", "bike_id": "5f4fd204bbd8e9c5fa2cb319e3dffc50", "lat": 38.9898905, "lon": -77.0336235, "rental_uris": {"android": "https://dc.lft.to/lastmile_qr_scan", "ios": "https://dc.lft.to/lastmile_qr_scan"}, "is_disabled": 0, "fusion_lat": 0.0, "name": "5f4fd204bbd8e9c5fa2cb319e3dffc50", "fusion_lon": 0.0}, {"is_reserved": 0, "type": "electric_scooter", "bike_id": "b9676f67f22f1eee67f92d0777d48cce", "lat": 38.92553316666667, "lon": -77.05321066666667, "rental_uris": {"android": "https://dc.lft.to/lastmile_qr_scan", "ios": "https://dc.lft.to/lastmile_qr_scan"}, "is_disabled": 0, "fusion_lat": 0.0, "name": "b9676f67f22f1eee67f92d0777d48cce", "fusion_lon": 0.0}, {"is_reserved": 0, "type": "electric_scooter", "bike_id": "468e6227484505215e826a4027a677a1", "lat": 38.90724, "lon": -77.00702033333333, "rental_uris": {"android": "https://dc.lft.to/lastmile_qr_scan", "ios": "https://dc.lft.to/lastmile_qr_scan"}, "is_disabled": 0, "fusion_lat": 0.0, "name": "468e6227484505215e826a4027a677a1", "fusion_lon": 0.0}, {"is_reserved": 0, "type": "electric_scooter", "bike_id": "240730a07012c07544eae76a6948ec98", "lat": 38.92279166666667, "lon": -77.0428915, "rental_uris": {"android": "https://dc.lft.to/lastmile_qr_scan", "ios": "https://dc.lft.to/lastmile_qr_scan"}, "is_disabled": 0, "fusion_lat": 0.0, "name": "240730a07012c07544eae76a6948ec98", "fusion_lon": 0.0}, {"is_reserved": 0, "type": "electric_scooter", "bike_id": "a52eec74d57c116a1c83782e1dcf9bbd", "lat": 38.89883016666667, "lon": -76.98836966666667, "rental_uris": {"android": "https://dc.lft.to/lastmile_qr_scan", "ios": "https://dc.lft.to/lastmile_qr_scan"}, "is_disabled": 0, "fusion_lat": 0.0, "name": "a52eec74d57c116a1c83782e1dcf9bbd", "fusion_lon": 0.0}, {"is_reserved": 0, "type": "electric_scooter", "bike_id": "939a82c18246cf0954e315c4cf52db63", "lat": 38.91378383333333, "lon": -77.04609583333334, "rental_uris": {"android": "https://dc.lft.to/lastmile_qr_scan", "ios": "https://dc.lft.to/lastmile_qr_scan"}, "is_disabled": 0, "fusion_lat": 0.0, "name": "939a82c18246cf0954e315c4cf52db63", "fusion_lon": 0.0}, {"is_reserved": 0, "type": "electric_scooter", "bike_id": "c94537f71f907aad6d675724b19a513f", "lat": 38.890657166666664, "lon": -76.93824233333333, "rental_uris": {"android": "https://dc.lft.to/lastmile_qr_scan", "ios": "https://dc.lft.to/lastmile_qr_scan"}, "is_disabled": 0, "fusion_lat": 0.0, "name": "c94537f71f907aad6d675724b19a513f", "fusion_lon": 0.0}, {"is_reserved": 0, "type": "electric_scooter", "bike_id": "ef22cbdfab550dc9996c1f271154bbe6", "lat": 38.92170983333333, "lon": -77.04353433333333, "rental_uris": {"android": "https://dc.lft.to/lastmile_qr_scan", "ios": "https://dc.lft.to/lastmile_qr_scan"}, "is_disabled": 0, "fusion_lat": 0.0, "name": "ef22cbdfab550dc9996c1f271154bbe6", "fusion_lon": 0.0}, {"is_reserved": 0, "type": "electric_bike", "bike_id": "589efa2ccff0af841a4e9872092da6c4", "lat": 38.93944366666667, "lon": -77.0250575, "rental_uris": {"android": "https://dc.lft.to/lastmile_qr_scan", "ios": "https://dc.lft.to/lastmile_qr_scan"}, "is_disabled": 0, "fusion_lat": 0.0, "name": "589efa2ccff0af841a4e9872092da6c4", "fusion_lon": 0.0}, {"is_reserved": 0, "type": "electric_scooter", "bike_id": "1d55fe7a6a442eedec2e9b95ec75fd07", "lat": 38.945198, "lon": -77.02979933333333, "rental_uris": {"android": "https://dc.lft.to/lastmile_qr_scan", "ios": "https://dc.lft.to/lastmile_qr_scan"}, "is_disabled": 0, "fusion_lat": 0.0, "name": "1d55fe7a6a442eedec2e9b95ec75fd07", "fusion_lon": 0.0}, {"is_reserved": 0, "type": "electric_scooter", "bike_id": "d944dabb31dd207ec78ed9993a820fca", "lat": 38.912184833333335, "lon": -76.987035, "rental_uris": {"android": "https://dc.lft.to/lastmile_qr_scan", "ios": "https://dc.lft.to/lastmile_qr_scan"}, "is_disabled": 0, "fusion_lat": 0.0, "name": "d944dabb31dd207ec78ed9993a820fca", "fusion_lon": 0.0}, {"is_reserved": 0, "type": "electric_scooter", "bike_id": "f19d042f4795457e7718a99b77983a70", "lat": 38.9236495, "lon": -77.01915266666667, "rental_uris": {"android": "https://dc.lft.to/lastmile_qr_scan", "ios": "https://dc.lft.to/lastmile_qr_scan"}, "is_disabled": 0, "fusion_lat": 0.0, "name": "f19d042f4795457e7718a99b77983a70", "fusion_lon": 0.0}, {"is_reserved": 0, "type": "electric_scooter", "bike_id": "1b51f2b0b3f2166584340ae13caf6332", "lat": 38.93060783333333, "lon": -77.02966116666667, "rental_uris": {"android": "https://dc.lft.to/lastmile_qr_scan", "ios": "https://dc.lft.to/lastmile_qr_scan"}, "is_disabled": 0, "fusion_lat": 0.0, "name": "1b51f2b0b3f2166584340ae13caf6332", "fusion_lon": 0.0}, {"is_reserved": 0, "type": "electric_scooter", "bike_id": "156533ae8326da682cb1be1ea5b20061", "lat": 38.904024, "lon": -77.00184366666667, "rental_uris": {"android": "https://dc.lft.to/lastmile_qr_scan", "ios": "https://dc.lft.to/lastmile_qr_scan"}, "is_disabled": 0, "fusion_lat": 0.0, "name": "156533ae8326da682cb1be1ea5b20061", "fusion_lon": 0.0}, {"is_reserved": 0, "type": "electric_scooter", "bike_id": "da5048d11af57f9a9d6f40e164377ff4", "lat": 38.8976905, "lon": -77.00901833333333, "rental_uris": {"android": "https://dc.lft.to/lastmile_qr_scan", "ios": "https://dc.lft.to/lastmile_qr_scan"}, "is_disabled": 0, "fusion_lat": 0.0, "name": "da5048d11af57f9a9d6f40e164377ff4", "fusion_lon": 0.0}, {"is_reserved": 0, "type": "electric_scooter", "bike_id": "c244167e8ca96a79a3b15835e638ab3e", "lat": 38.911389666666665, "lon": -77.03665916666667, "rental_uris": {"android": "https://dc.lft.to/lastmile_qr_scan", "ios": "https://dc.lft.to/lastmile_qr_scan"}, "is_disabled": 0, "fusion_lat": 0.0, "name": "c244167e8ca96a79a3b15835e638ab3e", "fusion_lon": 0.0}, {"is_reserved": 0, "type": "electric_scooter", "bike_id": "faf5e72ca68330ef5e60abe8e882a44d", "lat": 38.914031333333334, "lon": -77.03187866666667, "rental_uris": {"android": "https://dc.lft.to/lastmile_qr_scan", "ios": "https://dc.lft.to/lastmile_qr_scan"}, "is_disabled": 0, "fusion_lat": 0.0, "name": "faf5e72ca68330ef5e60abe8e882a44d", "fusion_lon": 0.0}, {"is_reserved": 0, "type": "electric_scooter", "bike_id": "803bb328473401bba555192774652cf5", "lat": 38.916518833333335, "lon": -77.0390065, "rental_uris": {"android": "https://dc.lft.to/lastmile_qr_scan", "ios": "https://dc.lft.to/lastmile_qr_scan"}, "is_disabled": 0, "fusion_lat": 0.0, "name": "803bb328473401bba555192774652cf5", "fusion_lon": 0.0}, {"is_reserved": 0, "type": "electric_scooter", "bike_id": "8ba967ebe60543427b2d0115234e6317", "lat": 38.93302116666667, "lon": -77.0214035, "rental_uris": {"android": "https://dc.lft.to/lastmile_qr_scan", "ios": "https://dc.lft.to/lastmile_qr_scan"}, "is_disabled": 0, "fusion_lat": 0.0, "name": "8ba967ebe60543427b2d0115234e6317", "fusion_lon": 0.0}, {"is_reserved": 0, "type": "electric_scooter", "bike_id": "14efe27b192352af45e30afeb234e0a7", "lat": 38.90728633333333, "lon": -76.93447366666666, "rental_uris": {"android": "https://dc.lft.to/lastmile_qr_scan", "ios": "https://dc.lft.to/lastmile_qr_scan"}, "is_disabled": 0, "fusion_lat": 0.0, "name": "14efe27b192352af45e30afeb234e0a7", "fusion_lon": 0.0}, {"is_reserved": 0, "type": "electric_scooter", "bike_id": "86c6128b28829f6c49b778475e830ee5", "lat": 38.935256833333334, "lon": -77.01939316666666, "rental_uris": {"android": "https://dc.lft.to/lastmile_qr_scan", "ios": "https://dc.lft.to/lastmile_qr_scan"}, "is_disabled": 0, "fusion_lat": 0.0, "name": "86c6128b28829f6c49b778475e830ee5", "fusion_lon": 0.0}, {"is_reserved": 0, "type": "electric_scooter", "bike_id": "af6907d782b1fa14d9f76c73c99860ef", "lat": 38.924704166666665, "lon": -77.039341, "rental_uris": {"android": "https://dc.lft.to/lastmile_qr_scan", "ios": "https://dc.lft.to/lastmile_qr_scan"}, "is_disabled": 0, "fusion_lat": 0.0, "name": "af6907d782b1fa14d9f76c73c99860ef", "fusion_lon": 0.0}, {"is_reserved": 0, "type": "electric_scooter", "bike_id": "d698b38dca01d765e8d0b70093935a88", "lat": 38.8634475, "lon": -76.98675133333333, "rental_uris": {"android": "https://dc.lft.to/lastmile_qr_scan", "ios": "https://dc.lft.to/lastmile_qr_scan"}, "is_disabled": 0, "fusion_lat": 0.0, "name": "d698b38dca01d765e8d0b70093935a88", "fusion_lon": 0.0}, {"is_reserved": 0, "type": "electric_scooter", "bike_id": "a56dbce374c251a2c5ab7399c0d3cd11", "lat": 38.92676316666667, "lon": -77.03199633333334, "rental_uris": {"android": "https://dc.lft.to/lastmile_qr_scan", "ios": "https://dc.lft.to/lastmile_qr_scan"}, "is_disabled": 0, "fusion_lat": 0.0, "name": "a56dbce374c251a2c5ab7399c0d3cd11", "fusion_lon": 0.0}, {"is_reserved": 0, "type": "electric_scooter", "bike_id": "4766017c89d5d9df1736d0249d406986", "lat": 38.89952383333333, "lon": -76.97911633333334, "rental_uris": {"android": "https://dc.lft.to/lastmile_qr_scan", "ios": "https://dc.lft.to/lastmile_qr_scan"}, "is_disabled": 0, "fusion_lat": 0.0, "name": "4766017c89d5d9df1736d0249d406986", "fusion_lon": 0.0}, {"is_reserved": 0, "type": "electric_scooter", "bike_id": "046d6c8ac43d09a739b88e42b08b937d", "lat": 38.905154833333334, "lon": -77.06457583333334, "rental_uris": {"android": "https://dc.lft.to/lastmile_qr_scan", "ios": "https://dc.lft.to/lastmile_qr_scan"}, "is_disabled": 0, "fusion_lat": 0.0, "name": "046d6c8ac43d09a739b88e42b08b937d", "fusion_lon": 0.0}, {"is_reserved": 0, "type": "electric_scooter", "bike_id": "a3a0e8352697424abf58c893600ebdfa", "lat": 38.90647883333333, "lon": -76.98376, "rental_uris": {"android": "https://dc.lft.to/lastmile_qr_scan", "ios": "https://dc.lft.to/lastmile_qr_scan"}, "is_disabled": 0, "fusion_lat": 0.0, "name": "a3a0e8352697424abf58c893600ebdfa", "fusion_lon": 0.0}, {"is_reserved": 0, "type": "electric_bike", "bike_id": "aa33093461e4fd5f6c026a155d07d0e5", "lat": 38.929100166666665, "lon": -77.09743916666666, "rental_uris": {"android": "https://dc.lft.to/lastmile_qr_scan", "ios": "https://dc.lft.to/lastmile_qr_scan"}, "is_disabled": 0, "fusion_lat": 0.0, "name": "aa33093461e4fd5f6c026a155d07d0e5", "fusion_lon": 0.0}, {"is_reserved": 0, "type": "electric_scooter", "bike_id": "a53741569d52e5c887b48a1c5daab012", "lat": 38.909085833333336, "lon": -77.04503366666667, "rental_uris": {"android": "https://dc.lft.to/lastmile_qr_scan", "ios": "https://dc.lft.to/lastmile_qr_scan"}, "is_disabled": 0, "fusion_lat": 0.0, "name": "a53741569d52e5c887b48a1c5daab012", "fusion_lon": 0.0}, {"is_reserved": 0, "type": "electric_scooter", "bike_id": "d2527a9e7423eac9ae4bf818c71ea945", "lat": 38.88724, "lon": -76.9837935, "rental_uris": {"android": "https://dc.lft.to/lastmile_qr_scan", "ios": "https://dc.lft.to/lastmile_qr_scan"}, "is_disabled": 0, "fusion_lat": 0.0, "name": "d2527a9e7423eac9ae4bf818c71ea945", "fusion_lon": 0.0}, {"is_reserved": 0, "type": "electric_scooter", "bike_id": "0eb7b37f6ad9c6517f335f182c200a96", "lat": 38.9008035, "lon": -77.0507305, "rental_uris": {"android": "https://dc.lft.to/lastmile_qr_scan", "ios": "https://dc.lft.to/lastmile_qr_scan"}, "is_disabled": 0, "fusion_lat": 0.0, "name": "0eb7b37f6ad9c6517f335f182c200a96", "fusion_lon": 0.0}, {"is_reserved": 0, "type": "electric_scooter", "bike_id": "fba614e16ce6fd66101bcc29e4ce4a72", "lat": 38.9003285, "lon": -77.01232783333333, "rental_uris": {"android": "https://dc.lft.to/lastmile_qr_scan", "ios": "https://dc.lft.to/lastmile_qr_scan"}, "is_disabled": 0, "fusion_lat": 0.0, "name": "fba614e16ce6fd66101bcc29e4ce4a72", "fusion_lon": 0.0}, {"is_reserved": 0, "type": "electric_scooter", "bike_id": "5d6b8070f638ce607735c3db8dfc2b92", "lat": 38.90587133333333, "lon": -77.00923933333333, "rental_uris": {"android": "https://dc.lft.to/lastmile_qr_scan", "ios": "https://dc.lft.to/lastmile_qr_scan"}, "is_disabled": 0, "fusion_lat": 0.0, "name": "5d6b8070f638ce607735c3db8dfc2b92", "fusion_lon": 0.0}, {"is_reserved": 0, "type": "electric_scooter", "bike_id": "11537b5229b7ccc3b169a33c31a96764", "lat": 38.92390566666667, "lon": -77.05057916666667, "rental_uris": {"android": "https://dc.lft.to/lastmile_qr_scan", "ios": "https://dc.lft.to/lastmile_qr_scan"}, "is_disabled": 0, "fusion_lat": 0.0, "name": "11537b5229b7ccc3b169a33c31a96764", "fusion_lon": 0.0}, {"is_reserved": 0, "type": "electric_scooter", "bike_id": "a46426651561d1e72d7130a74cfdd290", "lat": 38.919164, "lon": -77.04813516666667, "rental_uris": {"android": "https://dc.lft.to/lastmile_qr_scan", "ios": "https://dc.lft.to/lastmile_qr_scan"}, "is_disabled": 0, "fusion_lat": 0.0, "name": "a46426651561d1e72d7130a74cfdd290", "fusion_lon": 0.0}, {"is_reserved": 0, "type": "electric_scooter", "bike_id": "6f7625f8898cd4b55c41b28d33079f7c", "lat": 38.908038833333336, "lon": -77.04356383333334, "rental_uris": {"android": "https://dc.lft.to/lastmile_qr_scan", "ios": "https://dc.lft.to/lastmile_qr_scan"}, "is_disabled": 0, "fusion_lat": 0.0, "name": "6f7625f8898cd4b55c41b28d33079f7c", "fusion_lon": 0.0}, {"is_reserved": 0, "type": "electric_scooter", "bike_id": "fb99caeb87dec5edac2e88ced1c21473", "lat": 38.931267166666665, "lon": -77.02306933333334, "rental_uris": {"android": "https://dc.lft.to/lastmile_qr_scan", "ios": "https://dc.lft.to/lastmile_qr_scan"}, "is_disabled": 0, "fusion_lat": 0.0, "name": "fb99caeb87dec5edac2e88ced1c21473", "fusion_lon": 0.0}, {"is_reserved": 0, "type": "electric_scooter", "bike_id": "e4fa9e90a6e54a9603728a3758fbcd11", "lat": 38.9603005, "lon": -77.07159966666667, "rental_uris": {"android": "https://dc.lft.to/lastmile_qr_scan", "ios": "https://dc.lft.to/lastmile_qr_scan"}, "is_disabled": 0, "fusion_lat": 0.0, "name": "e4fa9e90a6e54a9603728a3758fbcd11", "fusion_lon": 0.0}, {"is_reserved": 0, "type": "electric_bike", "bike_id": "1cc384a96de2806e2559ff812c5af53f", "lat": 38.94471933333333, "lon": -76.98693433333334, "rental_uris": {"android": "https://dc.lft.to/lastmile_qr_scan", "ios": "https://dc.lft.to/lastmile_qr_scan"}, "is_disabled": 0, "fusion_lat": 0.0, "name": "1cc384a96de2806e2559ff812c5af53f", "fusion_lon": 0.0}, {"is_reserved": 0, "type": "electric_scooter", "bike_id": "1405f4907bf541cd8094559ec01cbe2b", "lat": 38.90244, "lon": -77.01957316666666, "rental_uris": {"android": "https://dc.lft.to/lastmile_qr_scan", "ios": "https://dc.lft.to/lastmile_qr_scan"}, "is_disabled": 0, "fusion_lat": 0.0, "name": "1405f4907bf541cd8094559ec01cbe2b", "fusion_lon": 0.0}, {"is_reserved": 0, "type": "electric_scooter", "bike_id": "a64db3161d1457374b6189daa51b397f", "lat": 38.908369666666665, "lon": -77.00111083333333, "rental_uris": {"android": "https://dc.lft.to/lastmile_qr_scan", "ios": "https://dc.lft.to/lastmile_qr_scan"}, "is_disabled": 0, "fusion_lat": 0.0, "name": "a64db3161d1457374b6189daa51b397f", "fusion_lon": 0.0}, {"is_reserved": 0, "type": "electric_scooter", "bike_id": "ca1d1f9d3a52d9968623f121fff94a8d", "lat": 38.90487666666667, "lon": -77.04188633333334, "rental_uris": {"android": "https://dc.lft.to/lastmile_qr_scan", "ios": "https://dc.lft.to/lastmile_qr_scan"}, "is_disabled": 0, "fusion_lat": 0.0, "name": "ca1d1f9d3a52d9968623f121fff94a8d", "fusion_lon": 0.0}, {"is_reserved": 0, "type": "electric_scooter", "bike_id": "585b55ab2b831782726487383fa6f574", "lat": 38.9001245, "lon": -77.00676966666667, "rental_uris": {"android": "https://dc.lft.to/lastmile_qr_scan", "ios": "https://dc.lft.to/lastmile_qr_scan"}, "is_disabled": 0, "fusion_lat": 0.0, "name": "585b55ab2b831782726487383fa6f574", "fusion_lon": 0.0}, {"is_reserved": 0, "type": "electric_scooter", "bike_id": "de986b87b0da414e9309eace8cc05b18", "lat": 38.932475, "lon": -77.02970566666667, "rental_uris": {"android": "https://dc.lft.to/lastmile_qr_scan", "ios": "https://dc.lft.to/lastmile_qr_scan"}, "is_disabled": 0, "fusion_lat": 0.0, "name": "de986b87b0da414e9309eace8cc05b18", "fusion_lon": 0.0}, {"is_reserved": 0, "type": "electric_bike", "bike_id": "b7c36d1236ae2abed8098956abbd279c", "lat": 38.88388666666667, "lon": -76.954459, "rental_uris": {"android": "https://dc.lft.to/lastmile_qr_scan", "ios": "https://dc.lft.to/lastmile_qr_scan"}, "is_disabled": 0, "fusion_lat": 0.0, "name": "b7c36d1236ae2abed8098956abbd279c", "fusion_lon": 0.0}, {"is_reserved": 0, "type": "electric_bike", "bike_id": "fc47e9adc836add931ab97ec0993556d", "lat": 38.8233725, "lon": -77.058204, "rental_uris": {"android": "https://dc.lft.to/lastmile_qr_scan", "ios": "https://dc.lft.to/lastmile_qr_scan"}, "is_disabled": 0, "fusion_lat": 0.0, "name": "fc47e9adc836add931ab97ec0993556d", "fusion_lon": 0.0}, {"is_reserved": 0, "type": "electric_scooter", "bike_id": "152e3ec82b49b66f7343eae9fa7fb97e", "lat": 38.933526666666666, "lon": -77.02420866666667, "rental_uris": {"android": "https://dc.lft.to/lastmile_qr_scan", "ios": "https://dc.lft.to/lastmile_qr_scan"}, "is_disabled": 0, "fusion_lat": 0.0, "name": "152e3ec82b49b66f7343eae9fa7fb97e", "fusion_lon": 0.0}, {"is_reserved": 0, "type": "electric_scooter", "bike_id": "6beb0999125b532d0f28f6f4d4c99a0f", "lat": 38.9054105, "lon": -77.0583345, "rental_uris": {"android": "https://dc.lft.to/lastmile_qr_scan", "ios": "https://dc.lft.to/lastmile_qr_scan"}, "is_disabled": 0, "fusion_lat": 0.0, "name": "6beb0999125b532d0f28f6f4d4c99a0f", "fusion_lon": 0.0}, {"is_reserved": 0, "type": "electric_bike", "bike_id": "cbd2c6f405904fe0b4e49637f8433b1e", "lat": 38.83232783333333, "lon": -76.94623766666666, "rental_uris": {"android": "https://dc.lft.to/lastmile_qr_scan", "ios": "https://dc.lft.to/lastmile_qr_scan"}, "is_disabled": 0, "fusion_lat": 0.0, "name": "cbd2c6f405904fe0b4e49637f8433b1e", "fusion_lon": 0.0}, {"is_reserved": 0, "type": "electric_scooter", "bike_id": "5e5690e0bca519f56789dddecc8e8648", "lat": 38.8837345, "lon": -76.99518033333334, "rental_uris": {"android": "https://dc.lft.to/lastmile_qr_scan", "ios": "https://dc.lft.to/lastmile_qr_scan"}, "is_disabled": 0, "fusion_lat": 0.0, "name": "5e5690e0bca519f56789dddecc8e8648", "fusion_lon": 0.0}, {"is_reserved": 0, "type": "electric_scooter", "bike_id": "f69d680f0addb11f1e8e23026b21ee5c", "lat": 38.93691416666667, "lon": -77.02716866666667, "rental_uris": {"android": "https://dc.lft.to/lastmile_qr_scan", "ios": "https://dc.lft.to/lastmile_qr_scan"}, "is_disabled": 0, "fusion_lat": 0.0, "name": "f69d680f0addb11f1e8e23026b21ee5c", "fusion_lon": 0.0}, {"is_reserved": 0, "type": "electric_scooter", "bike_id": "e367455c15d6c1c9b16aaf8979c6e091", "lat": 38.896261333333335, "lon": -76.98317233333333, "rental_uris": {"android": "https://dc.lft.to/lastmile_qr_scan", "ios": "https://dc.lft.to/lastmile_qr_scan"}, "is_disabled": 0, "fusion_lat": 0.0, "name": "e367455c15d6c1c9b16aaf8979c6e091", "fusion_lon": 0.0}, {"is_reserved": 0, "type": "electric_scooter", "bike_id": "5c14e1821b4e7e0cf9800d209faf42a0", "lat": 38.944426666666665, "lon": -77.02910433333334, "rental_uris": {"android": "https://dc.lft.to/lastmile_qr_scan", "ios": "https://dc.lft.to/lastmile_qr_scan"}, "is_disabled": 0, "fusion_lat": 0.0, "name": "5c14e1821b4e7e0cf9800d209faf42a0", "fusion_lon": 0.0}, {"is_reserved": 0, "type": "electric_scooter", "bike_id": "dbb26c27c89f0b0288fd72b5f6f78d55", "lat": 38.8984845, "lon": -76.92752833333333, "rental_uris": {"android": "https://dc.lft.to/lastmile_qr_scan", "ios": "https://dc.lft.to/lastmile_qr_scan"}, "is_disabled": 0, "fusion_lat": 0.0, "name": "dbb26c27c89f0b0288fd72b5f6f78d55", "fusion_lon": 0.0}, {"is_reserved": 0, "type": "electric_scooter", "bike_id": "4793422fae2643b823cfdace45d2311b", "lat": 38.918322833333335, "lon": -77.022959, "rental_uris": {"android": "https://dc.lft.to/lastmile_qr_scan", "ios": "https://dc.lft.to/lastmile_qr_scan"}, "is_disabled": 0, "fusion_lat": 0.0, "name": "4793422fae2643b823cfdace45d2311b", "fusion_lon": 0.0}, {"is_reserved": 0, "type": "electric_scooter", "bike_id": "d42db55f608c3198bdd6dd83000aa5e2", "lat": 38.925611833333335, "lon": -76.97002033333334, "rental_uris": {"android": "https://dc.lft.to/lastmile_qr_scan", "ios": "https://dc.lft.to/lastmile_qr_scan"}, "is_disabled": 0, "fusion_lat": 0.0, "name": "d42db55f608c3198bdd6dd83000aa5e2", "fusion_lon": 0.0}, {"is_reserved": 0, "type": "electric_scooter", "bike_id": "da64787a24f4ab93455ca177a5f86f98", "lat": 38.871591, "lon": -77.013549, "rental_uris": {"android": "https://dc.lft.to/lastmile_qr_scan", "ios": "https://dc.lft.to/lastmile_qr_scan"}, "is_disabled": 0, "fusion_lat": 0.0, "name": "da64787a24f4ab93455ca177a5f86f98", "fusion_lon": 0.0}, {"is_reserved": 0, "type": "electric_scooter", "bike_id": "c1df65c1377ab36971a555c0509ae4f2", "lat": 38.90624833333333, "lon": -77.026062, "rental_uris": {"android": "https://dc.lft.to/lastmile_qr_scan", "ios": "https://dc.lft.to/lastmile_qr_scan"}, "is_disabled": 0, "fusion_lat": 0.0, "name": "c1df65c1377ab36971a555c0509ae4f2", "fusion_lon": 0.0}, {"is_reserved": 0, "type": "electric_scooter", "bike_id": "d593e7434b62a5a440af3def9197fafc", "lat": 38.899882166666664, "lon": -76.9948645, "rental_uris": {"android": "https://dc.lft.to/lastmile_qr_scan", "ios": "https://dc.lft.to/lastmile_qr_scan"}, "is_disabled": 0, "fusion_lat": 0.0, "name": "d593e7434b62a5a440af3def9197fafc", "fusion_lon": 0.0}, {"is_reserved": 0, "type": "electric_scooter", "bike_id": "e9a1556705e662493a266832abc7cec4", "lat": 38.900716333333335, "lon": -77.04919283333334, "rental_uris": {"android": "https://dc.lft.to/lastmile_qr_scan", "ios": "https://dc.lft.to/lastmile_qr_scan"}, "is_disabled": 0, "fusion_lat": 0.0, "name": "e9a1556705e662493a266832abc7cec4", "fusion_lon": 0.0}, {"is_reserved": 0, "type": "electric_scooter", "bike_id": "11cebd09934d0e82ddb0c8097017527c", "lat": 38.9312115, "lon": -77.03878533333334, "rental_uris": {"android": "https://dc.lft.to/lastmile_qr_scan", "ios": "https://dc.lft.to/lastmile_qr_scan"}, "is_disabled": 0, "fusion_lat": 0.0, "name": "11cebd09934d0e82ddb0c8097017527c", "fusion_lon": 0.0}, {"is_reserved": 0, "type": "electric_scooter", "bike_id": "81c10c63eadf3745abad064f7d9bfdd7", "lat": 38.9534145, "lon": -77.069299, "rental_uris": {"android": "https://dc.lft.to/lastmile_qr_scan", "ios": "https://dc.lft.to/lastmile_qr_scan"}, "is_disabled": 0, "fusion_lat": 0.0, "name": "81c10c63eadf3745abad064f7d9bfdd7", "fusion_lon": 0.0}, {"is_reserved": 0, "type": "electric_scooter", "bike_id": "9f97f3fc1e3134043a8c730d61da0478", "lat": 38.926698, "lon": -77.01513083333333, "rental_uris": {"android": "https://dc.lft.to/lastmile_qr_scan", "ios": "https://dc.lft.to/lastmile_qr_scan"}, "is_disabled": 0, "fusion_lat": 0.0, "name": "9f97f3fc1e3134043a8c730d61da0478", "fusion_lon": 0.0}, {"is_reserved": 0, "type": "electric_scooter", "bike_id": "a6c39058678d9ada9cdfd38904bffe2a", "lat": 38.925555333333335, "lon": -77.02255866666667, "rental_uris": {"android": "https://dc.lft.to/lastmile_qr_scan", "ios": "https://dc.lft.to/lastmile_qr_scan"}, "is_disabled": 0, "fusion_lat": 0.0, "name": "a6c39058678d9ada9cdfd38904bffe2a", "fusion_lon": 0.0}, {"is_reserved": 0, "type": "electric_bike", "bike_id": "9eb2f38a485114540c55e6ed0dfa2c03", "lat": 38.8587165, "lon": -77.09561266666667, "rental_uris": {"android": "https://dc.lft.to/lastmile_qr_scan", "ios": "https://dc.lft.to/lastmile_qr_scan"}, "is_disabled": 0, "fusion_lat": 0.0, "name": "9eb2f38a485114540c55e6ed0dfa2c03", "fusion_lon": 0.0}, {"is_reserved": 0, "type": "electric_scooter", "bike_id": "38f5ed663832e14f97ca61d893cbeb4c", "lat": 38.887448166666665, "lon": -77.025972, "rental_uris": {"android": "https://dc.lft.to/lastmile_qr_scan", "ios": "https://dc.lft.to/lastmile_qr_scan"}, "is_disabled": 0, "fusion_lat": 0.0, "name": "38f5ed663832e14f97ca61d893cbeb4c", "fusion_lon": 0.0}, {"is_reserved": 0, "type": "electric_scooter", "bike_id": "48013837969247c49a0eeea9929f56ba", "lat": 38.921541166666664, "lon": -77.07219, "rental_uris": {"android": "https://dc.lft.to/lastmile_qr_scan", "ios": "https://dc.lft.to/lastmile_qr_scan"}, "is_disabled": 0, "fusion_lat": 0.0, "name": "48013837969247c49a0eeea9929f56ba", "fusion_lon": 0.0}, {"is_reserved": 0, "type": "electric_bike", "bike_id": "762d0a6c65a0d4a99973f89761a188e2", "lat": 38.880098, "lon": -76.99833033333333, "rental_uris": {"android": "https://dc.lft.to/lastmile_qr_scan", "ios": "https://dc.lft.to/lastmile_qr_scan"}, "is_disabled": 0, "fusion_lat": 0.0, "name": "762d0a6c65a0d4a99973f89761a188e2", "fusion_lon": 0.0}, {"is_reserved": 0, "type": "electric_scooter", "bike_id": "c2a50308cc16ad7623cd6159afa6e0cd", "lat": 38.90182, "lon": -76.930064, "rental_uris": {"android": "https://dc.lft.to/lastmile_qr_scan", "ios": "https://dc.lft.to/lastmile_qr_scan"}, "is_disabled": 0, "fusion_lat": 0.0, "name": "c2a50308cc16ad7623cd6159afa6e0cd", "fusion_lon": 0.0}, {"is_reserved": 0, "type": "electric_scooter", "bike_id": "21e0d0d4a00ebd484a7d6337412d9181", "lat": 38.9353065, "lon": -77.02355916666667, "rental_uris": {"android": "https://dc.lft.to/lastmile_qr_scan", "ios": "https://dc.lft.to/lastmile_qr_scan"}, "is_disabled": 0, "fusion_lat": 0.0, "name": "21e0d0d4a00ebd484a7d6337412d9181", "fusion_lon": 0.0}, {"is_reserved": 0, "type": "electric_scooter", "bike_id": "618da085c93b955d718f478d45d81723", "lat": 38.89979233333333, "lon": -76.98369533333333, "rental_uris": {"android": "https://dc.lft.to/lastmile_qr_scan", "ios": "https://dc.lft.to/lastmile_qr_scan"}, "is_disabled": 0, "fusion_lat": 0.0, "name": "618da085c93b955d718f478d45d81723", "fusion_lon": 0.0}, {"is_reserved": 0, "type": "electric_scooter", "bike_id": "be2cf85a7e4112e9d03649468ae6e7ba", "lat": 38.90562333333333, "lon": -77.01769033333333, "rental_uris": {"android": "https://dc.lft.to/lastmile_qr_scan", "ios": "https://dc.lft.to/lastmile_qr_scan"}, "is_disabled": 0, "fusion_lat": 0.0, "name": "be2cf85a7e4112e9d03649468ae6e7ba", "fusion_lon": 0.0}, {"is_reserved": 0, "type": "electric_scooter", "bike_id": "2b26e12d1be4414991451defabf45604", "lat": 38.90143916666667, "lon": -77.0417255, "rental_uris": {"android": "https://dc.lft.to/lastmile_qr_scan", "ios": "https://dc.lft.to/lastmile_qr_scan"}, "is_disabled": 0, "fusion_lat": 0.0, "name": "2b26e12d1be4414991451defabf45604", "fusion_lon": 0.0}, {"is_reserved": 0, "type": "electric_scooter", "bike_id": "3c086e3a02207ada954140405c041e0e", "lat": 38.925033666666664, "lon": -77.02144516666667, "rental_uris": {"android": "https://dc.lft.to/lastmile_qr_scan", "ios": "https://dc.lft.to/lastmile_qr_scan"}, "is_disabled": 0, "fusion_lat": 0.0, "name": "3c086e3a02207ada954140405c041e0e", "fusion_lon": 0.0}, {"is_reserved": 0, "type": "electric_scooter", "bike_id": "60547683ed2bb31652a515aca309ec67", "lat": 38.88507416666667, "lon": -77.021052, "rental_uris": {"android": "https://dc.lft.to/lastmile_qr_scan", "ios": "https://dc.lft.to/lastmile_qr_scan"}, "is_disabled": 0, "fusion_lat": 0.0, "name": "60547683ed2bb31652a515aca309ec67", "fusion_lon": 0.0}, {"is_reserved": 0, "type": "electric_scooter", "bike_id": "5b37b622ac527ad82f338fd0bf3a5d70", "lat": 38.91710833333333, "lon": -77.04156233333333, "rental_uris": {"android": "https://dc.lft.to/lastmile_qr_scan", "ios": "https://dc.lft.to/lastmile_qr_scan"}, "is_disabled": 0, "fusion_lat": 0.0, "name": "5b37b622ac527ad82f338fd0bf3a5d70", "fusion_lon": 0.0}, {"is_reserved": 0, "type": "electric_scooter", "bike_id": "d252485981d95157385ffa96dc9ce70d", "lat": 38.887141666666665, "lon": -77.01379283333333, "rental_uris": {"android": "https://dc.lft.to/lastmile_qr_scan", "ios": "https://dc.lft.to/lastmile_qr_scan"}, "is_disabled": 0, "fusion_lat": 0.0, "name": "d252485981d95157385ffa96dc9ce70d", "fusion_lon": 0.0}, {"is_reserved": 0, "type": "electric_scooter", "bike_id": "8cafc5c901ea1dd07001d078cd96bc4b", "lat": 38.88638783333333, "lon": -77.01284216666667, "rental_uris": {"android": "https://dc.lft.to/lastmile_qr_scan", "ios": "https://dc.lft.to/lastmile_qr_scan"}, "is_disabled": 0, "fusion_lat": 0.0, "name": "8cafc5c901ea1dd07001d078cd96bc4b", "fusion_lon": 0.0}, {"is_reserved": 0, "type": "electric_scooter", "bike_id": "36f2e9042152c5fe402f32e9ff7a18f3", "lat": 38.916849, "lon": -77.0363785, "rental_uris": {"android": "https://dc.lft.to/lastmile_qr_scan", "ios": "https://dc.lft.to/lastmile_qr_scan"}, "is_disabled": 0, "fusion_lat": 0.0, "name": "36f2e9042152c5fe402f32e9ff7a18f3", "fusion_lon": 0.0}, {"is_reserved": 0, "type": "electric_scooter", "bike_id": "eb74f76e0e724e12e667669d0584097d", "lat": 38.92705183333333, "lon": -77.00267766666667, "rental_uris": {"android": "https://dc.lft.to/lastmile_qr_scan", "ios": "https://dc.lft.to/lastmile_qr_scan"}, "is_disabled": 0, "fusion_lat": 0.0, "name": "eb74f76e0e724e12e667669d0584097d", "fusion_lon": 0.0}, {"is_reserved": 0, "type": "electric_scooter", "bike_id": "6c6eeea0c03cd654b70734c3475c04bc", "lat": 38.9015295, "lon": -77.05920083333334, "rental_uris": {"android": "https://dc.lft.to/lastmile_qr_scan", "ios": "https://dc.lft.to/lastmile_qr_scan"}, "is_disabled": 0, "fusion_lat": 0.0, "name": "6c6eeea0c03cd654b70734c3475c04bc", "fusion_lon": 0.0}, {"is_reserved": 0, "type": "electric_scooter", "bike_id": "2f7d3deb44e80552c5e9c7f34e85d5f4", "lat": 38.9038535, "lon": -77.03140716666667, "rental_uris": {"android": "https://dc.lft.to/lastmile_qr_scan", "ios": "https://dc.lft.to/lastmile_qr_scan"}, "is_disabled": 0, "fusion_lat": 0.0, "name": "2f7d3deb44e80552c5e9c7f34e85d5f4", "fusion_lon": 0.0}, {"is_reserved": 0, "type": "electric_scooter", "bike_id": "0327722942e30f5f7fb88c04d7bc8b5e", "lat": 38.89239366666666, "lon": -77.0489475, "rental_uris": {"android": "https://dc.lft.to/lastmile_qr_scan", "ios": "https://dc.lft.to/lastmile_qr_scan"}, "is_disabled": 0, "fusion_lat": 0.0, "name": "0327722942e30f5f7fb88c04d7bc8b5e", "fusion_lon": 0.0}, {"is_reserved": 0, "type": "electric_scooter", "bike_id": "d2b6dd81832609fd859fee72ca05108a", "lat": 38.922753666666665, "lon": -77.04244216666666, "rental_uris": {"android": "https://dc.lft.to/lastmile_qr_scan", "ios": "https://dc.lft.to/lastmile_qr_scan"}, "is_disabled": 0, "fusion_lat": 0.0, "name": "d2b6dd81832609fd859fee72ca05108a", "fusion_lon": 0.0}, {"is_reserved": 0, "type": "electric_scooter", "bike_id": "02e3cba37208f20bc4ab16264a1ba9ce", "lat": 38.8734045, "lon": -76.99172516666667, "rental_uris": {"android": "https://dc.lft.to/lastmile_qr_scan", "ios": "https://dc.lft.to/lastmile_qr_scan"}, "is_disabled": 0, "fusion_lat": 0.0, "name": "02e3cba37208f20bc4ab16264a1ba9ce", "fusion_lon": 0.0}, {"is_reserved": 0, "type": "electric_scooter", "bike_id": "3456b1464857bd04548374c0bed8f5f8", "lat": 38.89673633333334, "lon": -77.01225983333333, "rental_uris": {"android": "https://dc.lft.to/lastmile_qr_scan", "ios": "https://dc.lft.to/lastmile_qr_scan"}, "is_disabled": 0, "fusion_lat": 0.0, "name": "3456b1464857bd04548374c0bed8f5f8", "fusion_lon": 0.0}, {"is_reserved": 0, "type": "electric_scooter", "bike_id": "10fcf8f184b0fecc7f5cb018ae3b82fa", "lat": 38.911395166666665, "lon": -77.03662916666667, "rental_uris": {"android": "https://dc.lft.to/lastmile_qr_scan", "ios": "https://dc.lft.to/lastmile_qr_scan"}, "is_disabled": 0, "fusion_lat": 0.0, "name": "10fcf8f184b0fecc7f5cb018ae3b82fa", "fusion_lon": 0.0}, {"is_reserved": 0, "type": "electric_scooter", "bike_id": "6ea60be171c9ad32f4681c5e2ca1eddc", "lat": 38.897504166666664, "lon": -77.027109, "rental_uris": {"android": "https://dc.lft.to/lastmile_qr_scan", "ios": "https://dc.lft.to/lastmile_qr_scan"}, "is_disabled": 0, "fusion_lat": 0.0, "name": "6ea60be171c9ad32f4681c5e2ca1eddc", "fusion_lon": 0.0}, {"is_reserved": 0, "type": "electric_bike", "bike_id": "8dc8d4d613fd254c02427520d1552877", "lat": 38.895895333333335, "lon": -76.906913, "rental_uris": {"android": "https://dc.lft.to/lastmile_qr_scan", "ios": "https://dc.lft.to/lastmile_qr_scan"}, "is_disabled": 0, "fusion_lat": 0.0, "name": "8dc8d4d613fd254c02427520d1552877", "fusion_lon": 0.0}, {"is_reserved": 0, "type": "electric_scooter", "bike_id": "7bcd4f1632074aacf7148cdc79ce13e3", "lat": 38.86593083333333, "lon": -76.97450383333333, "rental_uris": {"android": "https://dc.lft.to/lastmile_qr_scan", "ios": "https://dc.lft.to/lastmile_qr_scan"}, "is_disabled": 0, "fusion_lat": 0.0, "name": "7bcd4f1632074aacf7148cdc79ce13e3", "fusion_lon": 0.0}, {"is_reserved": 0, "type": "electric_scooter", "bike_id": "cad2e5e3471bdb0c1b571120d38c7563", "lat": 38.8867285, "lon": -77.0019895, "rental_uris": {"android": "https://dc.lft.to/lastmile_qr_scan", "ios": "https://dc.lft.to/lastmile_qr_scan"}, "is_disabled": 0, "fusion_lat": 0.0, "name": "cad2e5e3471bdb0c1b571120d38c7563", "fusion_lon": 0.0}, {"is_reserved": 0, "type": "electric_scooter", "bike_id": "3f343fe91fb92d2fd7bfee8dd04ce7bf", "lat": 38.89223716666667, "lon": -77.05000983333333, "rental_uris": {"android": "https://dc.lft.to/lastmile_qr_scan", "ios": "https://dc.lft.to/lastmile_qr_scan"}, "is_disabled": 0, "fusion_lat": 0.0, "name": "3f343fe91fb92d2fd7bfee8dd04ce7bf", "fusion_lon": 0.0}, {"is_reserved": 0, "type": "electric_scooter", "bike_id": "28a5ad4ce51a0ce1220d375e1bfa85ee", "lat": 38.9010735, "lon": -77.0320755, "rental_uris": {"android": "https://dc.lft.to/lastmile_qr_scan", "ios": "https://dc.lft.to/lastmile_qr_scan"}, "is_disabled": 0, "fusion_lat": 0.0, "name": "28a5ad4ce51a0ce1220d375e1bfa85ee", "fusion_lon": 0.0}, {"is_reserved": 0, "type": "electric_scooter", "bike_id": "48d689fb0fa2c3430a94f53f4de9ffae", "lat": 38.91958733333333, "lon": -77.04367433333333, "rental_uris": {"android": "https://dc.lft.to/lastmile_qr_scan", "ios": "https://dc.lft.to/lastmile_qr_scan"}, "is_disabled": 0, "fusion_lat": 0.0, "name": "48d689fb0fa2c3430a94f53f4de9ffae", "fusion_lon": 0.0}, {"is_reserved": 0, "type": "electric_bike", "bike_id": "25bbdb59faad3320cf3a1dd18d58fa4d", "lat": 38.95640366666667, "lon": -77.03304616666667, "rental_uris": {"android": "https://dc.lft.to/lastmile_qr_scan", "ios": "https://dc.lft.to/lastmile_qr_scan"}, "is_disabled": 0, "fusion_lat": 0.0, "name": "25bbdb59faad3320cf3a1dd18d58fa4d", "fusion_lon": 0.0}, {"is_reserved": 0, "type": "electric_scooter", "bike_id": "d1baea09c4b0704b67e3a2f1f896f657", "lat": 38.910630833333336, "lon": -77.031988, "rental_uris": {"android": "https://dc.lft.to/lastmile_qr_scan", "ios": "https://dc.lft.to/lastmile_qr_scan"}, "is_disabled": 0, "fusion_lat": 0.0, "name": "d1baea09c4b0704b67e3a2f1f896f657", "fusion_lon": 0.0}, {"is_reserved": 0, "type": "electric_scooter", "bike_id": "4212c8efed36cbe25191300ad7ad7549", "lat": 38.901993833333336, "lon": -76.98219116666667, "rental_uris": {"android": "https://dc.lft.to/lastmile_qr_scan", "ios": "https://dc.lft.to/lastmile_qr_scan"}, "is_disabled": 0, "fusion_lat": 0.0, "name": "4212c8efed36cbe25191300ad7ad7549", "fusion_lon": 0.0}, {"is_reserved": 0, "type": "electric_scooter", "bike_id": "a116759b695a09de6393a96eb15837ef", "lat": 38.916607166666665, "lon": -77.024795, "rental_uris": {"android": "https://dc.lft.to/lastmile_qr_scan", "ios": "https://dc.lft.to/lastmile_qr_scan"}, "is_disabled": 0, "fusion_lat": 0.0, "name": "a116759b695a09de6393a96eb15837ef", "fusion_lon": 0.0}, {"is_reserved": 0, "type": "electric_scooter", "bike_id": "899907d05a1fb62d1c954f36a3abb74e", "lat": 38.92560866666667, "lon": -77.0228185, "rental_uris": {"android": "https://dc.lft.to/lastmile_qr_scan", "ios": "https://dc.lft.to/lastmile_qr_scan"}, "is_disabled": 0, "fusion_lat": 0.0, "name": "899907d05a1fb62d1c954f36a3abb74e", "fusion_lon": 0.0}, {"is_reserved": 0, "type": "electric_scooter", "bike_id": "4286a2f1ec33e8a5f8e234fc0f6b23fb", "lat": 38.91221866666667, "lon": -77.03210766666666, "rental_uris": {"android": "https://dc.lft.to/lastmile_qr_scan", "ios": "https://dc.lft.to/lastmile_qr_scan"}, "is_disabled": 0, "fusion_lat": 0.0, "name": "4286a2f1ec33e8a5f8e234fc0f6b23fb", "fusion_lon": 0.0}, {"is_reserved": 0, "type": "electric_scooter", "bike_id": "bbabf59afc017df097892efa8e27c7f3", "lat": 38.867158, "lon": -76.98070166666666, "rental_uris": {"android": "https://dc.lft.to/lastmile_qr_scan", "ios": "https://dc.lft.to/lastmile_qr_scan"}, "is_disabled": 0, "fusion_lat": 0.0, "name": "bbabf59afc017df097892efa8e27c7f3", "fusion_lon": 0.0}, {"is_reserved": 0, "type": "electric_scooter", "bike_id": "e9fa122cd3ee7f1df8f5b44932d273d3", "lat": 38.881117833333334, "lon": -76.995032, "rental_uris": {"android": "https://dc.lft.to/lastmile_qr_scan", "ios": "https://dc.lft.to/lastmile_qr_scan"}, "is_disabled": 0, "fusion_lat": 0.0, "name": "e9fa122cd3ee7f1df8f5b44932d273d3", "fusion_lon": 0.0}, {"is_reserved": 0, "type": "electric_scooter", "bike_id": "5603b9412022df925e0e403f332dece1", "lat": 38.88093516666667, "lon": -76.9949775, "rental_uris": {"android": "https://dc.lft.to/lastmile_qr_scan", "ios": "https://dc.lft.to/lastmile_qr_scan"}, "is_disabled": 0, "fusion_lat": 0.0, "name": "5603b9412022df925e0e403f332dece1", "fusion_lon": 0.0}, {"is_reserved": 0, "type": "electric_scooter", "bike_id": "aef0f5d5a9e14d180fd8a30c046f71ae", "lat": 38.908506, "lon": -77.00176033333334, "rental_uris": {"android": "https://dc.lft.to/lastmile_qr_scan", "ios": "https://dc.lft.to/lastmile_qr_scan"}, "is_disabled": 0, "fusion_lat": 0.0, "name": "aef0f5d5a9e14d180fd8a30c046f71ae", "fusion_lon": 0.0}, {"is_reserved": 0, "type": "electric_scooter", "bike_id": "19ded90634ee6f187f2e11072ce3b38e", "lat": 38.89479033333333, "lon": -76.99578666666666, "rental_uris": {"android": "https://dc.lft.to/lastmile_qr_scan", "ios": "https://dc.lft.to/lastmile_qr_scan"}, "is_disabled": 0, "fusion_lat": 0.0, "name": "19ded90634ee6f187f2e11072ce3b38e", "fusion_lon": 0.0}, {"is_reserved": 0, "type": "electric_scooter", "bike_id": "c3650415ad200fc2bd6cd77d50f73256", "lat": 38.8648855, "lon": -76.97746483333333, "rental_uris": {"android": "https://dc.lft.to/lastmile_qr_scan", "ios": "https://dc.lft.to/lastmile_qr_scan"}, "is_disabled": 0, "fusion_lat": 0.0, "name": "c3650415ad200fc2bd6cd77d50f73256", "fusion_lon": 0.0}, {"is_reserved": 0, "type": "electric_bike", "bike_id": "7f10890350c02b3cff3d0e5ff61d7ab9", "lat": 38.89614866666667, "lon": -76.90734716666667, "rental_uris": {"android": "https://dc.lft.to/lastmile_qr_scan", "ios": "https://dc.lft.to/lastmile_qr_scan"}, "is_disabled": 0, "fusion_lat": 0.0, "name": "7f10890350c02b3cff3d0e5ff61d7ab9", "fusion_lon": 0.0}, {"is_reserved": 0, "type": "electric_scooter", "bike_id": "9b09187969a047ac1fa0486ff33d1cd5", "lat": 38.92671266666667, "lon": -77.02596416666667, "rental_uris": {"android": "https://dc.lft.to/lastmile_qr_scan", "ios": "https://dc.lft.to/lastmile_qr_scan"}, "is_disabled": 0, "fusion_lat": 0.0, "name": "9b09187969a047ac1fa0486ff33d1cd5", "fusion_lon": 0.0}, {"is_reserved": 0, "type": "electric_scooter", "bike_id": "30f1a2eed3e1b95d033bcee502de5556", "lat": 38.8934105, "lon": -77.04872016666667, "rental_uris": {"android": "https://dc.lft.to/lastmile_qr_scan", "ios": "https://dc.lft.to/lastmile_qr_scan"}, "is_disabled": 0, "fusion_lat": 0.0, "name": "30f1a2eed3e1b95d033bcee502de5556", "fusion_lon": 0.0}, {"is_reserved": 0, "type": "electric_scooter", "bike_id": "c58cc295c2d27ec8e707df6cdee64302", "lat": 38.89426016666667, "lon": -77.05599416666666, "rental_uris": {"android": "https://dc.lft.to/lastmile_qr_scan", "ios": "https://dc.lft.to/lastmile_qr_scan"}, "is_disabled": 0, "fusion_lat": 0.0, "name": "c58cc295c2d27ec8e707df6cdee64302", "fusion_lon": 0.0}, {"is_reserved": 0, "type": "electric_scooter", "bike_id": "cc120f906d5804409ec45778593e3a97", "lat": 38.8935415, "lon": -77.017322, "rental_uris": {"android": "https://dc.lft.to/lastmile_qr_scan", "ios": "https://dc.lft.to/lastmile_qr_scan"}, "is_disabled": 0, "fusion_lat": 0.0, "name": "cc120f906d5804409ec45778593e3a97", "fusion_lon": 0.0}, {"is_reserved": 0, "type": "electric_scooter", "bike_id": "789867515974fe6d489acfa09dd5745a", "lat": 38.904218166666666, "lon": -77.024084, "rental_uris": {"android": "https://dc.lft.to/lastmile_qr_scan", "ios": "https://dc.lft.to/lastmile_qr_scan"}, "is_disabled": 0, "fusion_lat": 0.0, "name": "789867515974fe6d489acfa09dd5745a", "fusion_lon": 0.0}, {"is_reserved": 0, "type": "electric_scooter", "bike_id": "1efea8a1e265414862ec30e007aeb23a", "lat": 38.885298666666664, "lon": -76.997113, "rental_uris": {"android": "https://dc.lft.to/lastmile_qr_scan", "ios": "https://dc.lft.to/lastmile_qr_scan"}, "is_disabled": 0, "fusion_lat": 0.0, "name": "1efea8a1e265414862ec30e007aeb23a", "fusion_lon": 0.0}, {"is_reserved": 0, "type": "electric_scooter", "bike_id": "315179a004d6d23f7f71be071f25762e", "lat": 38.911864666666666, "lon": -77.032203, "rental_uris": {"android": "https://dc.lft.to/lastmile_qr_scan", "ios": "https://dc.lft.to/lastmile_qr_scan"}, "is_disabled": 0, "fusion_lat": 0.0, "name": "315179a004d6d23f7f71be071f25762e", "fusion_lon": 0.0}, {"is_reserved": 0, "type": "electric_scooter", "bike_id": "ef1424272efc2c5afaf7aa613a04a0b1", "lat": 38.920465666666665, "lon": -77.0257385, "rental_uris": {"android": "https://dc.lft.to/lastmile_qr_scan", "ios": "https://dc.lft.to/lastmile_qr_scan"}, "is_disabled": 0, "fusion_lat": 0.0, "name": "ef1424272efc2c5afaf7aa613a04a0b1", "fusion_lon": 0.0}, {"is_reserved": 0, "type": "electric_scooter", "bike_id": "8822fb133e5a9b8c7606e7f824a97a49", "lat": 38.900263833333334, "lon": -76.98874133333334, "rental_uris": {"android": "https://dc.lft.to/lastmile_qr_scan", "ios": "https://dc.lft.to/lastmile_qr_scan"}, "is_disabled": 0, "fusion_lat": 0.0, "name": "8822fb133e5a9b8c7606e7f824a97a49", "fusion_lon": 0.0}, {"is_reserved": 0, "type": "electric_bike", "bike_id": "cac4bbf14727a7ace3e5bff78b57858e", "lat": 38.945398, "lon": -77.34456333333333, "rental_uris": {"android": "https://dc.lft.to/lastmile_qr_scan", "ios": "https://dc.lft.to/lastmile_qr_scan"}, "is_disabled": 0, "fusion_lat": 0.0, "name": "cac4bbf14727a7ace3e5bff78b57858e", "fusion_lon": 0.0}, {"is_reserved": 0, "type": "electric_scooter", "bike_id": "11632415c10d51e7ab25585bf80f0a49", "lat": 38.88661033333333, "lon": -76.93672183333334, "rental_uris": {"android": "https://dc.lft.to/lastmile_qr_scan", "ios": "https://dc.lft.to/lastmile_qr_scan"}, "is_disabled": 0, "fusion_lat": 0.0, "name": "11632415c10d51e7ab25585bf80f0a49", "fusion_lon": 0.0}, {"is_reserved": 0, "type": "electric_bike", "bike_id": "d0beaad597708712743182a43e930046", "lat": 38.819403333333334, "lon": -77.00204583333333, "rental_uris": {"android": "https://dc.lft.to/lastmile_qr_scan", "ios": "https://dc.lft.to/lastmile_qr_scan"}, "is_disabled": 0, "fusion_lat": 0.0, "name": "d0beaad597708712743182a43e930046", "fusion_lon": 0.0}, {"is_reserved": 0, "type": "electric_scooter", "bike_id": "74f8fcc32bfdee87bb0fe311ba45b092", "lat": 38.93012433333333, "lon": -77.02770383333333, "rental_uris": {"android": "https://dc.lft.to/lastmile_qr_scan", "ios": "https://dc.lft.to/lastmile_qr_scan"}, "is_disabled": 0, "fusion_lat": 0.0, "name": "74f8fcc32bfdee87bb0fe311ba45b092", "fusion_lon": 0.0}, {"is_reserved": 0, "type": "electric_scooter", "bike_id": "e8af8f1ad738abae394d1b55ad81cd54", "lat": 38.88282233333334, "lon": -76.99489766666667, "rental_uris": {"android": "https://dc.lft.to/lastmile_qr_scan", "ios": "https://dc.lft.to/lastmile_qr_scan"}, "is_disabled": 0, "fusion_lat": 0.0, "name": "e8af8f1ad738abae394d1b55ad81cd54", "fusion_lon": 0.0}, {"is_reserved": 0, "type": "electric_scooter", "bike_id": "bad474eba5f75313f38b1f2f50cb3616", "lat": 38.9052745, "lon": -77.04008716666667, "rental_uris": {"android": "https://dc.lft.to/lastmile_qr_scan", "ios": "https://dc.lft.to/lastmile_qr_scan"}, "is_disabled": 0, "fusion_lat": 0.0, "name": "bad474eba5f75313f38b1f2f50cb3616", "fusion_lon": 0.0}, {"is_reserved": 0, "type": "electric_scooter", "bike_id": "ea09516b868d244fbb060aab61d08c13", "lat": 38.861150333333335, "lon": -76.9838305, "rental_uris": {"android": "https://dc.lft.to/lastmile_qr_scan", "ios": "https://dc.lft.to/lastmile_qr_scan"}, "is_disabled": 0, "fusion_lat": 0.0, "name": "ea09516b868d244fbb060aab61d08c13", "fusion_lon": 0.0}, {"is_reserved": 0, "type": "electric_scooter", "bike_id": "e63801739edb7367369a04302e831f5c", "lat": 38.899946, "lon": -76.990097, "rental_uris": {"android": "https://dc.lft.to/lastmile_qr_scan", "ios": "https://dc.lft.to/lastmile_qr_scan"}, "is_disabled": 0, "fusion_lat": 0.0, "name": "e63801739edb7367369a04302e831f5c", "fusion_lon": 0.0}, {"is_reserved": 0, "type": "electric_scooter", "bike_id": "6783506165ef7ea2bbcae0adc3123af3", "lat": 38.924567, "lon": -77.021602, "rental_uris": {"android": "https://dc.lft.to/lastmile_qr_scan", "ios": "https://dc.lft.to/lastmile_qr_scan"}, "is_disabled": 0, "fusion_lat": 0.0, "name": "6783506165ef7ea2bbcae0adc3123af3", "fusion_lon": 0.0},