{"data": {"bikes": [{"bike_id": "93ff07fdceabc19fa1b190f7d71c69f5", "fusion_lon": 0.0, "lon": -77.05061666666667, "name": "93ff07fdceabc19fa1b190f7d71c69f5", "is_disabled": 0, "rental_uris": {"android": "https://dc.lft.to/lastmile_qr_scan", "ios": "https://dc.lft.to/lastmile_qr_scan"}, "type": "electric_scooter", "lat": 38.923399333333336, "is_reserved": 0, "fusion_lat": 0.0}, {"bike_id": "32256f112543c9dc5a45eca1a7717818", "fusion_lon": 0.0, "lon": -77.0415445, "name": "32256f112543c9dc5a45eca1a7717818", "is_disabled": 0, "rental_uris": {"android": "https://dc.lft.to/lastmile_qr_scan", "ios": "https://dc.lft.to/lastmile_qr_scan"}, "type": "electric_scooter", "lat": 38.916517166666665, "is_reserved": 0, "fusion_lat": 0.0}, {"bike_id": "d79287e727e1e4791ab782bc707111d5", "fusion_lon": 0.0, "lon": -77.020841, "name": "d79287e727e1e4791ab782bc707111d5", "is_disabled": 0, "rental_uris": {"android": "https://dc.lft.to/lastmile_qr_scan", "ios": "https://dc.lft.to/lastmile_qr_scan"}, "type": "electric_scooter", "lat": 38.92714483333334, "is_reserved": 0, "fusion_lat": 0.0}, {"bike_id": "97bd3259e395e7a6fba81aca5935efe4", "fusion_lon": 0.0, "lon": -77.04228333333333, "name": "97bd3259e395e7a6fba81aca5935efe4", "is_disabled": 0, "rental_uris": {"android": "https://dc.lft.to/lastmile_qr_scan", "ios": "https://dc.lft.to/lastmile_qr_scan"}, "type": "electric_scooter", "lat": 38.92166566666667, "is_reserved": 0, "fusion_lat": 0.0}, {"bike_id": "2d0eda4efcd76bd2277bde6eb2a9ff6a", "fusion_lon": 0.0, "lon": -76.99384716666667, "name": "2d0eda4efcd76bd2277bde6eb2a9ff6a", "is_disabled": 0, "rental_uris": {"android": "https://dc.lft.to/lastmile_qr_scan", "ios": "https://dc.lft.to/lastmile_qr_scan"}, "type": "electric_scooter", "lat": 38.89731333333334, "is_reserved": 0, "fusion_lat": 0.0}, {"bike_id": "c3fa5548074fbe78dbeb0fbb2307d4bc", "fusion_lon": 0.0, "lon": -77.027241, "name": "c3fa5548074fbe78dbeb0fbb2307d4bc", "is_disabled": 0, "rental_uris": {"android": "https://dc.lft.to/lastmile_qr_scan", "ios": "https://dc.lft.to/lastmile_qr_scan"}, "type": "electric_scooter", "lat": 38.949568, "is_reserved": 0, "fusion_lat": 0.0}, {"bike_id": "84b9fa0f396e481a1c774af79b4b0264", "fusion_lon": 0.0, "lon": -77.06072133333333, "name": "84b9fa0f396e481a1c774af79b4b0264", "is_disabled": 0, "rental_uris": {"android": "https://dc.lft.to/lastmile_qr_scan", "ios": "https://dc.lft.to/lastmile_qr_scan"}, "type": "electric_scooter", "lat": 38.901440666666666, "is_reserved": 0, "fusion_lat": 0.0}, {"bike_id": "92ed5170affb8ddd2bd0edd85b66840e", "fusion_lon": 0.0, "lon": -77.004914, "name": "92ed5170affb8ddd2bd0edd85b66840e", "is_disabled": 0, "rental_uris": {"android": "https://dc.lft.to/lastmile_qr_scan", "ios": "https://dc.lft.to/lastmile_qr_scan"}, "type": "electric_scooter", "lat": 38.896837166666664, "is_reserved": 0, "fusion_lat": 0.0}, {"bike_id": "61b6da70a39a802dd927e239ee249d78", "fusion_lon": 0.0, "lon": -77.04215666666667, "name": "61b6da70a39a802dd927e239ee249d78", "is_disabled": 0, "rental_uris": {"android": "https://dc.lft.to/lastmile_qr_scan", "ios": "https://dc.lft.to/lastmile_qr_scan"}, "type": "electric_scooter", "lat": 38.90736416666667, "is_reserved": 0, "fusion_lat": 0.0}, {"bike_id": "3481cd6fed254a671a8e8ee1d33bf421", "fusion_lon": 0.0, "lon": -76.9994705, "name": "3481cd6fed254a671a8e8ee1d33bf421", "is_disabled": 0, "rental_uris": {"android": "https://dc.lft.to/lastmile_qr_scan", "ios": "https://dc.lft.to/lastmile_qr_scan"}, "type": "electric_scooter", "lat": 38.84294333333333, "is_reserved": 0, "fusion_lat": 0.0}, {"bike_id": "86aed8221a1d28c3a46610867e29c6e3", "fusion_lon": 0.0, "lon": -76.98612266666666, "name": "86aed8221a1d28c3a46610867e29c6e3", "is_disabled": 0, "rental_uris": {"android": "https://dc.lft.to/lastmile_qr_scan", "ios": "https://dc.lft.to/lastmile_qr_scan"}, "type": "electric_scooter", "lat": 38.93827483333333, "is_reserved": 0, "fusion_lat": 0.0}, {"bike_id": "ad42ca8afe99e5685ac4409c9cd6592a", "fusion_lon": 0.0, "lon": -77.0160735, "name": "ad42ca8afe99e5685ac4409c9cd6592a", "is_disabled": 0, "rental_uris": {"android": "https://dc.lft.to/lastmile_qr_scan", "ios": "https://dc.lft.to/lastmile_qr_scan"}, "type": "electric_scooter", "lat": 38.89508, "is_reserved": 0, "fusion_lat": 0.0}, {"bike_id": "b092ddc20b194ab1089e06f067afeae2", "fusion_lon": 0.0, "lon": -77.02206766666667, "name": "b092ddc20b194ab1089e06f067afeae2", "is_disabled": 0, "rental_uris": {"android": "https://dc.lft.to/lastmile_qr_scan", "ios": "https://dc.lft.to/lastmile_qr_scan"}, "type": "electric_scooter", "lat": 38.88747433333333, "is_reserved": 0, "fusion_lat": 0.0}, {"bike_id": "aa63a0329b5c6a48251a0a480520e3db", "fusion_lon": 0.0, "lon": -77.03072383333334, "name": "aa63a0329b5c6a48251a0a480520e3db", "is_disabled": 0, "rental_uris": {"android": "https://dc.lft.to/lastmile_qr_scan", "ios": "https://dc.lft.to/lastmile_qr_scan"}, "type": "electric_scooter", "lat": 38.91762133333334, "is_reserved": 0, "fusion_lat": 0.0}, {"bike_id": "fb549a136682ae879d0fca6960fe8d62", "fusion_lon": 0.0, "lon": -77.0297285, "name": "fb549a136682ae879d0fca6960fe8d62", "is_disabled": 0, "rental_uris": {"android": "https://dc.lft.to/lastmile_qr_scan", "ios": "https://dc.lft.to/lastmile_qr_scan"}, "type": "electric_scooter", "lat": 38.923275, "is_reserved": 0, "fusion_lat": 0.0}, {"bike_id": "881ddc83b830de2db8c5d2dbd49119fd", "fusion_lon": 0.0, "lon": -77.03952766666667, "name": "881ddc83b830de2db8c5d2dbd49119fd", "is_disabled": 0, "rental_uris": {"android": "https://dc.lft.to/lastmile_qr_scan", "ios": "https://dc.lft.to/lastmile_qr_scan"}, "type": "electric_scooter", "lat": 38.9155375, "is_reserved": 0, "fusion_lat": 0.0}, {"bike_id": "044779fe5b833ee6842dad92495029f1", "fusion_lon": 0.0, "lon": -77.04329366666667, "name": "044779fe5b833ee6842dad92495029f1", "is_disabled": 0, "rental_uris": {"android": "https://dc.lft.to/lastmile_qr_scan", "ios": "https://dc.lft.to/lastmile_qr_scan"}, "type": "electric_scooter", "lat": 38.899507, "is_reserved": 0, "fusion_lat": 0.0}, {"bike_id": "3a97fc326ef57774fae106a5d0385e81", "fusion_lon": 0.0, "lon": -77.01207716666667, "name": "3a97fc326ef57774fae106a5d0385e81", "is_disabled": 0, "rental_uris": {"android": "https://dc.lft.to/lastmile_qr_scan", "ios": "https://dc.lft.to/lastmile_qr_scan"}, "type": "electric_scooter", "lat": 38.9212065, "is_reserved": 0, "fusion_lat": 0.0}, {"bike_id": "8eeb9e3319e400435198a76ed05028c3", "fusion_lon": 0.0, "lon": -76.97187033333333, "name": "8eeb9e3319e400435198a76ed05028c3", "is_disabled": 0, "rental_uris": {"android": "https://dc.lft.to/lastmile_qr_scan", "ios": "https://dc.lft.to/lastmile_qr_scan"}, "type": "electric_bike", "lat": 38.9332025, "is_reserved": 0, "fusion_lat": 0.0}, {"bike_id": "7b7788d2cee8c699e95ffa127ffe61f9", "fusion_lon": 0.0, "lon": -77.003436, "name": "7b7788d2cee8c699e95ffa127ffe61f9", "is_disabled": 0, "rental_uris": {"android": "https://dc.lft.to/lastmile_qr_scan", "ios": "https://dc.lft.to/lastmile_qr_scan"}, "type": "electric_scooter", "lat": 38.8899275, "is_reserved": 0, "fusion_lat": 0.0}, {"bike_id": "37dca2bce1d4ab0671b97df4098aa0b9", "fusion_lon": 0.0, "lon": -77.04874266666667, "name": "37dca2bce1d4ab0671b97df4098aa0b9", "is_disabled": 0, "rental_uris": {"android": "https://dc.lft.to/lastmile_qr_scan", "ios": "https://dc.lft.to/lastmile_qr_scan"}, "type": "electric_scooter", "lat": 38.90648183333333, "is_reserved": 0, "fusion_lat": 0.0}, {"bike_id": "fb2d44a3aeed5edcfc24f2e8fb2c551d", "fusion_lon": 0.0, "lon": -77.05499933333333, "name": "fb2d44a3aeed5edcfc24f2e8fb2c551d", "is_disabled": 0, "rental_uris": {"android": "https://dc.lft.to/lastmile_qr_scan", "ios": "https://dc.lft.to/lastmile_qr_scan"}, "type": "electric_scooter", "lat": 38.92970833333333, "is_reserved": 0, "fusion_lat": 0.0}, {"bike_id": "4182c0557ee367ed564c8d24738c0638", "fusion_lon": 0.0, "lon": -77.03255283333333, "name": "4182c0557ee367ed564c8d24738c0638", "is_disabled": 0, "rental_uris": {"android": "https://dc.lft.to/lastmile_qr_scan", "ios": "https://dc.lft.to/lastmile_qr_scan"}, "type": "electric_scooter", "lat": 38.91403566666666, "is_reserved": 0, "fusion_lat": 0.0}, {"bike_id": "5eba037c48cd0d5c4166ba33952b336d", "fusion_lon": 0.0, "lon": -77.02962933333333, "name": "5eba037c48cd0d5c4166ba33952b336d", "is_disabled": 0, "rental_uris": {"android": "https://dc.lft.to/lastmile_qr_scan", "ios": "https://dc.lft.to/lastmile_qr_scan"}, "type": "electric_scooter", "lat": 38.93192716666667, "is_reserved": 0, "fusion_lat": 0.0}, {"bike_id": "1109069cc91c8c7faaa87c3354a6b91f", "fusion_lon": 0.0, "lon": -77.07820133333334, "name": "1109069cc91c8c7faaa87c3354a6b91f", "is_disabled": 0, "rental_uris": {"android": "https://dc.lft.to/lastmile_qr_scan", "ios": "https://dc.lft.to/lastmile_qr_scan"}, "type": "electric_scooter", "lat": 38.912748666666666, "is_reserved": 0, "fusion_lat": 0.0}, {"bike_id": "def13d5f7b3cd597b7cfaa8fbcfd9bc9", "fusion_lon": 0.0, "lon": -77.029596, "name": "def13d5f7b3cd597b7cfaa8fbcfd9bc9", "is_disabled": 0, "rental_uris": {"android": "https://dc.lft.to/lastmile_qr_scan", "ios": "https://dc.lft.to/lastmile_qr_scan"}, "type": "electric_bike", "lat": 38.95069, "is_reserved": 0, "fusion_lat": 0.0}, {"bike_id": "594e8ae5e041161f036b4fd5762fc958", "fusion_lon": 0.0, "lon": -76.982832, "name": "594e8ae5e041161f036b4fd5762fc958", "is_disabled": 0, "rental_uris": {"android": "https://dc.lft.to/lastmile_qr_scan", "ios": "https://dc.lft.to/lastmile_qr_scan"}, "type": "electric_scooter", "lat": 38.899868833333336, "is_reserved": 0, "fusion_lat": 0.0}, {"bike_id": "428971b34d865c7fb6a3b9a6e7ecaa1b", "fusion_lon": 0.0, "lon": -77.03261733333333, "name": "428971b34d865c7fb6a3b9a6e7ecaa1b", "is_disabled": 0, "rental_uris": {"android": "https://dc.lft.to/lastmile_qr_scan", "ios": "https://dc.lft.to/lastmile_qr_scan"}, "type": "electric_scooter", "lat": 38.933264666666666, "is_reserved": 0, "fusion_lat": 0.0}, {"bike_id": "c8c66d018c7caadfd00110075239564c", "fusion_lon": 0.0, "lon": -77.026945, "name": "c8c66d018c7caadfd00110075239564c", "is_disabled": 0, "rental_uris": {"android": "https://dc.lft.to/lastmile_qr_scan", "ios": "https://dc.lft.to/lastmile_qr_scan"}, "type": "electric_scooter", "lat": 38.90870183333333, "is_reserved": 0, "fusion_lat": 0.0}, {"bike_id": "443086ff3caf4d27c417c9d7bc9a6537", "fusion_lon": 0.0, "lon": -77.04335816666666, "name": "443086ff3caf4d27c417c9d7bc9a6537", "is_disabled": 0, "rental_uris": {"android": "https://dc.lft.to/lastmile_qr_scan", "ios": "https://dc.lft.to/lastmile_qr_scan"}, "type": "electric_scooter", "lat": 38.905658833333334, "is_reserved": 0, "fusion_lat": 0.0}, {"bike_id": "7639306d6ddb2850535c1b04d27ae3bc", "fusion_lon": 0.0, "lon": -77.01305883333333, "name": "7639306d6ddb2850535c1b04d27ae3bc", "is_disabled": 0, "rental_uris": {"android": "https://dc.lft.to/lastmile_qr_scan", "ios": "https://dc.lft.to/lastmile_qr_scan"}, "type": "electric_scooter", "lat": 38.914102666666665, "is_reserved": 0, "fusion_lat": 0.0}, {"bike_id": "4973a2ea47c2e54b8619fb7e907f6b15", "fusion_lon": 0.0, "lon": -76.923308, "name": "4973a2ea47c2e54b8619fb7e907f6b15", "is_disabled": 0, "rental_uris": {"android": "https://dc.lft.to/lastmile_qr_scan", "ios": "https://dc.lft.to/lastmile_qr_scan"}, "type": "electric_bike", "lat": 38.8710915, "is_reserved": 0, "fusion_lat": 0.0}, {"bike_id": "12a78c9ecebf71d9d48d68386208814d", "fusion_lon": 0.0, "lon": -77.057978, "name": "12a78c9ecebf71d9d48d68386208814d", "is_disabled": 0, "rental_uris": {"android": "https://dc.lft.to/lastmile_qr_scan", "ios": "https://dc.lft.to/lastmile_qr_scan"}, "type": "electric_bike", "lat": 38.901225333333336, "is_reserved": 0, "fusion_lat": 0.0}, {"bike_id": "e4e1761cd5ef02aea7681af5cd5d4f39", "fusion_lon": 0.0, "lon": -77.03177883333333, "name": "e4e1761cd5ef02aea7681af5cd5d4f39", "is_disabled": 0, "rental_uris": {"android": "https://dc.lft.to/lastmile_qr_scan", "ios": "https://dc.lft.to/lastmile_qr_scan"}, "type": "electric_scooter", "lat": 38.915840833333334, "is_reserved": 0, "fusion_lat": 0.0}, {"bike_id": "128e5686b14af0d14ad51ff239785205", "fusion_lon": 0.0, "lon": -77.04183166666667, "name": "128e5686b14af0d14ad51ff239785205", "is_disabled": 0, "rental_uris": {"android": "https://dc.lft.to/lastmile_qr_scan", "ios": "https://dc.lft.to/lastmile_qr_scan"}, "type": "electric_scooter", "lat": 38.91122266666667, "is_reserved": 0, "fusion_lat": 0.0}, {"bike_id": "b4c119c71fe91b25c6db980ded894db6", "fusion_lon": 0.0, "lon": -77.023813, "name": "b4c119c71fe91b25c6db980ded894db6", "is_disabled": 0, "rental_uris": {"android": "https://dc.lft.to/lastmile_qr_scan", "ios": "https://dc.lft.to/lastmile_qr_scan"}, "type": "electric_scooter", "lat": 38.90386733333333, "is_reserved": 0, "fusion_lat": 0.0}, {"bike_id": "306f58b7b58e8cd21c3689c690b54cbc", "fusion_lon": 0.0, "lon": -77.02891766666667, "name": "306f58b7b58e8cd21c3689c690b54cbc", "is_disabled": 0, "rental_uris": {"android": "https://dc.lft.to/lastmile_qr_scan", "ios": "https://dc.lft.to/lastmile_qr_scan"}, "type": "electric_scooter", "lat": 38.90423783333333, "is_reserved": 0, "fusion_lat": 0.0}, {"bike_id": "35f9b9ebc17c6ef70e0fba6792dca0e2", "fusion_lon": 0.0, "lon": -77.02725816666667, "name": "35f9b9ebc17c6ef70e0fba6792dca0e2", "is_disabled": 0, "rental_uris": {"android": "https://dc.lft.to/lastmile_qr_scan", "ios": "https://dc.lft.to/lastmile_qr_scan"}, "type": "electric_bike", "lat": 38.9455385, "is_reserved": 0, "fusion_lat": 0.0}, {"bike_id": "639be2aff2c7d4f8be602d2761d118d7", "fusion_lon": 0.0, "lon": -77.032377, "name": "639be2aff2c7d4f8be602d2761d118d7", "is_disabled": 0, "rental_uris": {"android": "https://dc.lft.to/lastmile_qr_scan", "ios": "https://dc.lft.to/lastmile_qr_scan"}, "type": "electric_scooter", "lat": 38.923611, "is_reserved": 0, "fusion_lat": 0.0}, {"bike_id": "728a30b647ddc772484520d630f65179", "fusion_lon": 0.0, "lon": -77.023416, "name": "728a30b647ddc772484520d630f65179", "is_disabled": 0, "rental_uris": {"android": "https://dc.lft.to/lastmile_qr_scan", "ios": "https://dc.lft.to/lastmile_qr_scan"}, "type": "electric_scooter", "lat": 38.94615983333333, "is_reserved": 0, "fusion_lat": 0.0}, {"bike_id": "345f82e0b7246adc25da1ec122011bc1", "fusion_lon": 0.0, "lon": -76.96709133333333, "name": "345f82e0b7246adc25da1ec122011bc1", "is_disabled": 0, "rental_uris": {"android": "https://dc.lft.to/lastmile_qr_scan", "ios": "https://dc.lft.to/lastmile_qr_scan"}, "type": "electric_scooter", "lat": 38.847971, "is_reserved": 0, "fusion_lat": 0.0}, {"bike_id": "c30c5c51d3fb790364376176a589461a", "fusion_lon": 0.0, "lon": -77.02392283333333, "name": "c30c5c51d3fb790364376176a589461a", "is_disabled": 0, "rental_uris": {"android": "https://dc.lft.to/lastmile_qr_scan", "ios": "https://dc.lft.to/lastmile_qr_scan"}, "type": "electric_scooter", "lat": 38.917496, "is_reserved": 0, "fusion_lat": 0.0}, {"bike_id": "52228942ffd34aee4d2ba89c872baeda", "fusion_lon": 0.0, "lon": -77.0470565, "name": "52228942ffd34aee4d2ba89c872baeda", "is_disabled": 0, "rental_uris": {"android": "https://dc.lft.to/lastmile_qr_scan", "ios": "https://dc.lft.to/lastmile_qr_scan"}, "type": "electric_scooter", "lat": 38.90258166666667, "is_reserved": 0, "fusion_lat": 0.0}, {"bike_id": "732a3ae2b58c2063b49c77fec8b0491d", "fusion_lon": 0.0, "lon": -77.07361566666667, "name": "732a3ae2b58c2063b49c77fec8b0491d", "is_disabled": 0, "rental_uris": {"android": "https://dc.lft.to/lastmile_qr_scan", "ios": "https://dc.lft.to/lastmile_qr_scan"}, "type": "electric_bike", "lat": 38.9305655, "is_reserved": 0, "fusion_lat": 0.0}, {"bike_id": "913db5763638b07c86d7d09a645d61f5", "fusion_lon": 0.0, "lon": -77.04039116666667, "name": "913db5763638b07c86d7d09a645d61f5", "is_disabled": 0, "rental_uris": {"android": "https://dc.lft.to/lastmile_qr_scan", "ios": "https://dc.lft.to/lastmile_qr_scan"}, "type": "electric_scooter", "lat": 38.918510166666664, "is_reserved": 0, "fusion_lat": 0.0}, {"bike_id": "fdd620cd5bca4f033111f75973a0faf7", "fusion_lon": 0.0, "lon": -77.01739333333333, "name": "fdd620cd5bca4f033111f75973a0faf7", "is_disabled": 0, "rental_uris": {"android": "https://dc.lft.to/lastmile_qr_scan", "ios": "https://dc.lft.to/lastmile_qr_scan"}, "type": "electric_scooter", "lat": 38.88333466666667, "is_reserved": 0, "fusion_lat": 0.0}, {"bike_id": "786e43ae2fdbf3da1c4e635e84c62751", "fusion_lon": 0.0, "lon": -77.03353583333333, "name": "786e43ae2fdbf3da1c4e635e84c62751", "is_disabled": 0, "rental_uris": {"android": "https://dc.lft.to/lastmile_qr_scan", "ios": "https://dc.lft.to/lastmile_qr_scan"}, "type": "electric_scooter", "lat": 38.928795, "is_reserved": 0, "fusion_lat": 0.0}, {"bike_id": "7451738af1aef71d998b8541ef0ce570", "fusion_lon": 0.0, "lon": -77.0310125, "name": "7451738af1aef71d998b8541ef0ce570", "is_disabled": 0, "rental_uris": {"android": "https://dc.lft.to/lastmile_qr_scan", "ios": "https://dc.lft.to/lastmile_qr_scan"}, "type": "electric_scooter", "lat": 38.926683, "is_reserved": 0, "fusion_lat": 0.0}, {"bike_id": "e0126d32ef897932b7b2f9ce7ae3e2b3", "fusion_lon": 0.0, "lon": -77.0276305, "name": "e0126d32ef897932b7b2f9ce7ae3e2b3", "is_disabled": 0, "rental_uris": {"android": "https://dc.lft.to/lastmile_qr_scan", "ios": "https://dc.lft.to/lastmile_qr_scan"}, "type": "electric_scooter", "lat": 38.954221, "is_reserved": 0, "fusion_lat": 0.0}, {"bike_id": "46f9fc3931c4506d27e272c7b95b1ad2", "fusion_lon": 0.0, "lon": -77.04919133333334, "name": "46f9fc3931c4506d27e272c7b95b1ad2", "is_disabled": 0, "rental_uris": {"android": "https://dc.lft.to/lastmile_qr_scan", "ios": "https://dc.lft.to/lastmile_qr_scan"}, "type": "electric_scooter", "lat": 38.90534366666667, "is_reserved": 0, "fusion_lat": 0.0}, {"bike_id": "85f0616d307698237ee908f034ea73c0", "fusion_lon": 0.0, "lon": -76.99502616666666, "name": "85f0616d307698237ee908f034ea73c0", "is_disabled": 0, "rental_uris": {"android": "https://dc.lft.to/lastmile_qr_scan", "ios": "https://dc.lft.to/lastmile_qr_scan"}, "type": "electric_scooter", "lat": 38.882513833333334, "is_reserved": 0, "fusion_lat": 0.0}, {"bike_id": "c8926ea6f0221130342d123501c421d8", "fusion_lon": 0.0, "lon": -77.031301, "name": "c8926ea6f0221130342d123501c421d8", "is_disabled": 0, "rental_uris": {"android": "https://dc.lft.to/lastmile_qr_scan", "ios": "https://dc.lft.to/lastmile_qr_scan"}, "type": "electric_scooter", "lat": 38.923706333333335, "is_reserved": 0, "fusion_lat": 0.0}, {"bike_id": "de39f5925d0cf8ae0cfe5128a5267cfc", "fusion_lon": 0.0, "lon": -77.05339483333333, "name": "de39f5925d0cf8ae0cfe5128a5267cfc", "is_disabled": 0, "rental_uris": {"android": "https://dc.lft.to/lastmile_qr_scan", "ios": "https://dc.lft.to/lastmile_qr_scan"}, "type": "electric_scooter", "lat": 38.9235005, "is_reserved": 0, "fusion_lat": 0.0}, {"bike_id": "f3bc17f64d0a1984ac640be5a38b0cbb", "fusion_lon": 0.0, "lon": -77.04999383333333, "name": "f3bc17f64d0a1984ac640be5a38b0cbb", "is_disabled": 0, "rental_uris": {"android": "https://dc.lft.to/lastmile_qr_scan", "ios": "https://dc.lft.to/lastmile_qr_scan"}, "type": "electric_scooter", "lat": 38.89232583333333, "is_reserved": 0, "fusion_lat": 0.0}, {"bike_id": "b7266581347687eac4f3a4d1ad2bcaf7", "fusion_lon": 0.0, "lon": -77.00641233333333, "name": "b7266581347687eac4f3a4d1ad2bcaf7", "is_disabled": 0, "rental_uris": {"android": "https://dc.lft.to/lastmile_qr_scan", "ios": "https://dc.lft.to/lastmile_qr_scan"}, "type": "electric_scooter", "lat": 38.90095616666667, "is_reserved": 0, "fusion_lat": 0.0}, {"bike_id": "eb59446456f536e324e1b3540b97d6ee", "fusion_lon": 0.0, "lon": -77.04011883333334, "name": "eb59446456f536e324e1b3540b97d6ee", "is_disabled": 0, "rental_uris": {"android": "https://dc.lft.to/lastmile_qr_scan", "ios": "https://dc.lft.to/lastmile_qr_scan"}, "type": "electric_scooter", "lat": 38.924357666666666, "is_reserved": 0, "fusion_lat": 0.0}, {"bike_id": "ad861b70168dafebb434dbe8d2c56856", "fusion_lon": 0.0, "lon": -77.0465675, "name": "ad861b70168dafebb434dbe8d2c56856", "is_disabled": 0, "rental_uris": {"android": "https://dc.lft.to/lastmile_qr_scan", "ios": "https://dc.lft.to/lastmile_qr_scan"}, "type": "electric_scooter", "lat": 38.892498833333335, "is_reserved": 0, "fusion_lat": 0.0}, {"bike_id": "37fd519261999be12d99f96817226be2", "fusion_lon": 0.0, "lon": -77.02299383333333, "name": "37fd519261999be12d99f96817226be2", "is_disabled": 0, "rental_uris": {"android": "https://dc.lft.to/lastmile_qr_scan", "ios": "https://dc.lft.to/lastmile_qr_scan"}, "type": "electric_scooter", "lat": 38.89563116666667, "is_reserved": 0, "fusion_lat": 0.0}, {"bike_id": "7e64f1470ffc4b7c0ba8b5ca51f01155", "fusion_lon": 0.0, "lon": -77.013626, "name": "7e64f1470ffc4b7c0ba8b5ca51f01155", "is_disabled": 0, "rental_uris": {"android": "https://dc.lft.to/lastmile_qr_scan", "ios": "https://dc.lft.to/lastmile_qr_scan"}, "type": "electric_scooter", "lat": 38.92883, "is_reserved": 0, "fusion_lat": 0.0}, {"bike_id": "7ce7116542638da4978a8b0a91d4efc7", "fusion_lon": 0.0, "lon": -76.98697466666667, "name": "7ce7116542638da4978a8b0a91d4efc7", "is_disabled": 0, "rental_uris": {"android": "https://dc.lft.to/lastmile_qr_scan", "ios": "https://dc.lft.to/lastmile_qr_scan"}, "type": "electric_scooter", "lat": 38.8625645, "is_reserved": 0, "fusion_lat": 0.0}, {"bike_id": "5cca10a91b29ac0ca2491c7b7cd1de30", "fusion_lon": 0.0, "lon": -77.031702, "name": "5cca10a91b29ac0ca2491c7b7cd1de30", "is_disabled": 0, "rental_uris": {"android": "https://dc.lft.to/lastmile_qr_scan", "ios": "https://dc.lft.to/lastmile_qr_scan"}, "type": "electric_scooter", "lat": 38.909581333333335, "is_reserved": 0, "fusion_lat": 0.0}, {"bike_id": "6d330d66f4399377656fdfbd26fb0329", "fusion_lon": 0.0, "lon": -77.01604616666667, "name": "6d330d66f4399377656fdfbd26fb0329", "is_disabled": 0, "rental_uris": {"android": "https://dc.lft.to/lastmile_qr_scan", "ios": "https://dc.lft.to/lastmile_qr_scan"}, "type": "electric_scooter", "lat": 38.9181175, "is_reserved": 0, "fusion_lat": 0.0}, {"bike_id": "ed3017e40bece82f0d88784c8f8e198d", "fusion_lon": 0.0, "lon": -77.03133033333333, "name": "ed3017e40bece82f0d88784c8f8e198d", "is_disabled": 0, "rental_uris": {"android": "https://dc.lft.to/lastmile_qr_scan", "ios": "https://dc.lft.to/lastmile_qr_scan"}, "type": "electric_scooter", "lat": 38.923719166666665, "is_reserved": 0, "fusion_lat": 0.0}, {"bike_id": "16a6947c535d30d4a214ef4a4934d4bf", "fusion_lon": 0.0, "lon": -77.021899, "name": "16a6947c535d30d4a214ef4a4934d4bf", "is_disabled": 0, "rental_uris": {"android": "https://dc.lft.to/lastmile_qr_scan", "ios": "https://dc.lft.to/lastmile_qr_scan"}, "type": "electric_scooter", "lat": 38.919792666666666, "is_reserved": 0, "fusion_lat": 0.0}, {"bike_id": "ac39286cfc9db4361744a653112f2811", "fusion_lon": 0.0, "lon": -77.03157133333333, "name": "ac39286cfc9db4361744a653112f2811", "is_disabled": 0, "rental_uris": {"android": "https://dc.lft.to/lastmile_qr_scan", "ios": "https://dc.lft.to/lastmile_qr_scan"}, "type": "electric_scooter", "lat": 38.903635333333334, "is_reserved": 0, "fusion_lat": 0.0}, {"bike_id": "8d4de91d2f323ed882ef855bc097556d", "fusion_lon": 0.0, "lon": -77.04652033333333, "name": "8d4de91d2f323ed882ef855bc097556d", "is_disabled": 0, "rental_uris": {"android": "https://dc.lft.to/lastmile_qr_scan", "ios": "https://dc.lft.to/lastmile_qr_scan"}, "type": "electric_bike", "lat": 39.05500816666667, "is_reserved": 0, "fusion_lat": 0.0}, {"bike_id": "3baac699e3acc8b67a0d163a58d76799", "fusion_lon": 0.0, "lon": -76.93735616666666, "name": "3baac699e3acc8b67a0d163a58d76799", "is_disabled": 0, "rental_uris": {"android": "https://dc.lft.to/lastmile_qr_scan", "ios": "https://dc.lft.to/lastmile_qr_scan"}, "type": "electric_scooter", "lat": 38.89017483333333, "is_reserved": 0, "fusion_lat": 0.0}, {"bike_id": "af3071e739817ff0bd540b4960646f6e", "fusion_lon": 0.0, "lon": -77.02877716666667, "name": "af3071e739817ff0bd540b4960646f6e", "is_disabled": 0, "rental_uris": {"android": "https://dc.lft.to/lastmile_qr_scan", "ios": "https://dc.lft.to/lastmile_qr_scan"}, "type": "electric_bike", "lat": 38.9990335, "is_reserved": 0, "fusion_lat": 0.0}, {"bike_id": "d118aeb2665ceb4e427911e1c2d32dd6", "fusion_lon": 0.0, "lon": -77.03012483333333, "name": "d118aeb2665ceb4e427911e1c2d32dd6", "is_disabled": 0, "rental_uris": {"android": "https://dc.lft.to/lastmile_qr_scan", "ios": "https://dc.lft.to/lastmile_qr_scan"}, "type": "electric_scooter", "lat": 38.9050115, "is_reserved": 0, "fusion_lat": 0.0}, {"bike_id": "6679b4e372e73028b33e33e6d563f019", "fusion_lon": 0.0, "lon": -77.0419065, "name": "6679b4e372e73028b33e33e6d563f019", "is_disabled": 0, "rental_uris": {"android": "https://dc.lft.to/lastmile_qr_scan", "ios": "https://dc.lft.to/lastmile_qr_scan"}, "type": "electric_scooter", "lat": 38.90723416666667, "is_reserved": 0, "fusion_lat": 0.0}, {"bike_id": "598a2c63f91400690f00c98a3b0c729d", "fusion_lon": 0.0, "lon": -77.02156933333333, "name": "598a2c63f91400690f00c98a3b0c729d", "is_disabled": 0, "rental_uris": {"android": "https://dc.lft.to/lastmile_qr_scan", "ios": "https://dc.lft.to/lastmile_qr_scan"}, "type": "electric_scooter", "lat": 38.92498233333333, "is_reserved": 0, "fusion_lat": 0.0}, {"bike_id": "fed30092845995eecc40c55aa836badf", "fusion_lon": 0.0, "lon": -77.04869516666666, "name": "fed30092845995eecc40c55aa836badf", "is_disabled": 0, "rental_uris": {"android": "https://dc.lft.to/lastmile_qr_scan", "ios": "https://dc.lft.to/lastmile_qr_scan"}, "type": "electric_scooter", "lat": 38.9046765, "is_reserved": 0, "fusion_lat": 0.0}, {"bike_id": "b2b31f23315e0a582b2448c292868575", "fusion_lon": 0.0, "lon": -76.98876116666666, "name": "b2b31f23315e0a582b2448c292868575", "is_disabled": 0, "rental_uris": {"android": "https://dc.lft.to/lastmile_qr_scan", "ios": "https://dc.lft.to/lastmile_qr_scan"}, "type": "electric_scooter", "lat": 38.866611666666664, "is_reserved": 0, "fusion_lat": 0.0}, {"bike_id": "288092b391f540cbb3f2671298f2a5b8", "fusion_lon": 0.0, "lon": -77.02207766666666, "name": "288092b391f540cbb3f2671298f2a5b8", "is_disabled": 0, "rental_uris": {"android": "https://dc.lft.to/lastmile_qr_scan", "ios": "https://dc.lft.to/lastmile_qr_scan"}, "type": "electric_scooter", "lat": 38.9018865, "is_reserved": 0, "fusion_lat": 0.0}, {"bike_id": "f281805ab4dae53a1ec4f9bbe23c8b92", "fusion_lon": 0.0, "lon": -77.21644716666667, "name": "f281805ab4dae53a1ec4f9bbe23c8b92", "is_disabled": 0, "rental_uris": {"android": "https://dc.lft.to/lastmile_qr_scan", "ios": "https://dc.lft.to/lastmile_qr_scan"}, "type": "electric_bike", "lat": 38.9301305, "is_reserved": 0, "fusion_lat": 0.0}, {"bike_id": "151ef9a562e1249945a23511acdbf359", "fusion_lon": 0.0, "lon": -77.02372466666667, "name": "151ef9a562e1249945a23511acdbf359", "is_disabled": 0, "rental_uris": {"android": "https://dc.lft.to/lastmile_qr_scan", "ios": "https://dc.lft.to/lastmile_qr_scan"}, "type": "electric_scooter", "lat": 38.91961883333333, "is_reserved": 0, "fusion_lat": 0.0}, {"bike_id": "e7bb859182f71464a8c5957e6692fd94", "fusion_lon": 0.0, "lon": -77.05870683333333, "name": "e7bb859182f71464a8c5957e6692fd94", "is_disabled": 0, "rental_uris": {"android": "https://dc.lft.to/lastmile_qr_scan", "ios": "https://dc.lft.to/lastmile_qr_scan"}, "type": "electric_bike", "lat": 38.9589585, "is_reserved": 0, "fusion_lat": 0.0}, {"bike_id": "c14921a395d2f88e5c4bcb6121379150", "fusion_lon": 0.0, "lon": -77.034097, "name": "c14921a395d2f88e5c4bcb6121379150", "is_disabled": 0, "rental_uris": {"android": "https://dc.lft.to/lastmile_qr_scan", "ios": "https://dc.lft.to/lastmile_qr_scan"}, "type": "electric_scooter", "lat": 38.90724733333333, "is_reserved": 0, "fusion_lat": 0.0}, {"bike_id": "0a2af3d3c79c7c1f77ab58f8be44744e", "fusion_lon": 0.0, "lon": -77.03856333333333, "name": "0a2af3d3c79c7c1f77ab58f8be44744e", "is_disabled": 0, "rental_uris": {"android": "https://dc.lft.to/lastmile_qr_scan", "ios": "https://dc.lft.to/lastmile_qr_scan"}, "type": "electric_scooter", "lat": 38.916926333333336, "is_reserved": 0, "fusion_lat": 0.0}, {"bike_id": "6ca0bae34705a4651aa81da0064f6233", "fusion_lon": 0.0, "lon": -77.01667483333334, "name": "6ca0bae34705a4651aa81da0064f6233", "is_disabled": 0, "rental_uris": {"android": "https://dc.lft.to/lastmile_qr_scan", "ios": "https://dc.lft.to/lastmile_qr_scan"}, "type": "electric_scooter", "lat": 38.88116683333333, "is_reserved": 0, "fusion_lat": 0.0}, {"bike_id": "02179a9a923e9628ca3a81d6baf8115e", "fusion_lon": 0.0, "lon": -76.987734, "name": "02179a9a923e9628ca3a81d6baf8115e", "is_disabled": 0, "rental_uris": {"android": "https://dc.lft.to/lastmile_qr_scan", "ios": "https://dc.lft.to/lastmile_qr_scan"}, "type": "electric_bike", "lat": 38.8659735, "is_reserved": 0, "fusion_lat": 0.0}, {"bike_id": "003f45dfd76d93f7aa269c480cd5bade", "fusion_lon": 0.0, "lon": -77.01202616666667, "name": "003f45dfd76d93f7aa269c480cd5bade", "is_disabled": 0, "rental_uris": {"android": "https://dc.lft.to/lastmile_qr_scan", "ios": "https://dc.lft.to/lastmile_qr_scan"}, "type": "electric_scooter", "lat": 38.87092766666667, "is_reserved": 0, "fusion_lat": 0.0}, {"bike_id": "75d26c0f0c8ab948ad5d017ab3e410ed", "fusion_lon": 0.0, "lon": -77.00887833333333, "name": "75d26c0f0c8ab948ad5d017ab3e410ed", "is_disabled": 0, "rental_uris": {"android": "https://dc.lft.to/lastmile_qr_scan", "ios": "https://dc.lft.to/lastmile_qr_scan"}, "type": "electric_scooter", "lat": 38.924847, "is_reserved": 0, "fusion_lat": 0.0}, {"bike_id": "0dbb077f3bc4bb79edb6ab5ed0b2f6a4", "fusion_lon": 0.0, "lon": -76.9939985, "name": "0dbb077f3bc4bb79edb6ab5ed0b2f6a4", "is_disabled": 0, "rental_uris": {"android": "https://dc.lft.to/lastmile_qr_scan", "ios": "https://dc.lft.to/lastmile_qr_scan"}, "type": "electric_scooter", "lat": 38.921659166666664, "is_reserved": 0, "fusion_lat": 0.0}, {"bike_id": "a3ee540b6235a87ec8cb1e94f84639be", "fusion_lon": 0.0, "lon": -77.04503783333334, "name": "a3ee540b6235a87ec8cb1e94f84639be", "is_disabled": 0, "rental_uris": {"android": "https://dc.lft.to/lastmile_qr_scan", "ios": "https://dc.lft.to/lastmile_qr_scan"}, "type": "electric_scooter", "lat": 38.903837333333335, "is_reserved": 0, "fusion_lat": 0.0}, {"bike_id": "8a0556fad15782bb925d1351c5976d38", "fusion_lon": 0.0, "lon": -77.04620333333334, "name": "8a0556fad15782bb925d1351c5976d38", "is_disabled": 0, "rental_uris": {"android": "https://dc.lft.to/lastmile_qr_scan", "ios": "https://dc.lft.to/lastmile_qr_scan"}, "type": "electric_scooter", "lat": 38.919232666666666, "is_reserved": 0, "fusion_lat": 0.0}, {"bike_id": "eb2e5ef2a05802fcd59d141f482198d0", "fusion_lon": 0.0, "lon": -76.9958925, "name": "eb2e5ef2a05802fcd59d141f482198d0", "is_disabled": 0, "rental_uris": {"android": "https://dc.lft.to/lastmile_qr_scan", "ios": "https://dc.lft.to/lastmile_qr_scan"}, "type": "electric_scooter", "lat": 38.88434516666667, "is_reserved": 0, "fusion_lat": 0.0}, {"bike_id": "7a2967ead4a8a891e41819289c988647", "fusion_lon": 0.0, "lon": -77.04365633333333, "name": "7a2967ead4a8a891e41819289c988647", "is_disabled": 0, "rental_uris": {"android": "https://dc.lft.to/lastmile_qr_scan", "ios": "https://dc.lft.to/lastmile_qr_scan"}, "type": "electric_scooter", "lat": 38.92144166666667, "is_reserved": 0, "fusion_lat": 0.0}, {"bike_id": "000d96eb7740a05c9a5445e8354b1296", "fusion_lon": 0.0, "lon": -77.04889783333333, "name": "000d96eb7740a05c9a5445e8354b1296", "is_disabled": 0, "rental_uris": {"android": "https://dc.lft.to/lastmile_qr_scan", "ios": "https://dc.lft.to/lastmile_qr_scan"}, "type": "electric_scooter", "lat": 38.905772666666664, "is_reserved": 0, "fusion_lat": 0.0}, {"bike_id": "320acb2d22dc4d8b2596f505f2dca52a", "fusion_lon": 0.0, "lon": -77.03860816666666, "name": "320acb2d22dc4d8b2596f505f2dca52a", "is_disabled": 0, "rental_uris": {"android": "https://dc.lft.to/lastmile_qr_scan", "ios": "https://dc.lft.to/lastmile_qr_scan"}, "type": "electric_scooter", "lat": 38.90722316666667, "is_reserved": 0, "fusion_lat": 0.0}, {"bike_id": "b862e4568d9c7a30a95ced99c7f352cc", "fusion_lon": 0.0, "lon": -77.03290566666666, "name": "b862e4568d9c7a30a95ced99c7f352cc", "is_disabled": 0, "rental_uris": {"android": "https://dc.lft.to/lastmile_qr_scan", "ios": "https://dc.lft.to/lastmile_qr_scan"}, "type": "electric_scooter", "lat": 38.92058333333333, "is_reserved": 0, "fusion_lat": 0.0}, {"bike_id": "d0b5f830bb8571f7ee6ead9e91bcc9af", "fusion_lon": 0.0, "lon": -77.02782783333333, "name": "d0b5f830bb8571f7ee6ead9e91bcc9af", "is_disabled": 0, "rental_uris": {"android": "https://dc.lft.to/lastmile_qr_scan", "ios": "https://dc.lft.to/lastmile_qr_scan"}, "type": "electric_scooter", "lat": 38.901391, "is_reserved": 0, "fusion_lat": 0.0}, {"bike_id": "7948a1466829596e93fe1f6c65ca16ae", "fusion_lon": 0.0, "lon": -77.03370533333333, "name": "7948a1466829596e93fe1f6c65ca16ae", "is_disabled": 0, "rental_uris": {"android": "https://dc.lft.to/lastmile_qr_scan", "ios": "https://dc.lft.to/lastmile_qr_scan"}, "type": "electric_scooter", "lat": 38.903778, "is_reserved": 0, "fusion_lat": 0.0}, {"bike_id": "87d9046e4f0b58c735c1994af153f78d", "fusion_lon": 0.0, "lon": -77.02078383333334, "name": "87d9046e4f0b58c735c1994af153f78d", "is_disabled": 0, "rental_uris": {"android": "https://dc.lft.to/lastmile_qr_scan", "ios": "https://dc.lft.to/lastmile_qr_scan"}, "type": "electric_scooter", "lat": 38.91119416666667, "is_reserved": 0, "fusion_lat": 0.0}, {"bike_id": "3b29b3f653d8c5bbee3680b46a4aa760", "fusion_lon": 0.0, "lon": -77.021834, "name": "3b29b3f653d8c5bbee3680b46a4aa760", "is_disabled": 0, "rental_uris": {"android": "https://dc.lft.to/lastmile_qr_scan", "ios": "https://dc.lft.to/lastmile_qr_scan"}, "type": "electric_scooter", "lat": 38.905788333333334, "is_reserved": 0, "fusion_lat": 0.0}, {"bike_id": "3d0906e54c31010e4116b715a1e7b0d3", "fusion_lon": 0.0, "lon": -77.072493, "name": "3d0906e54c31010e4116b715a1e7b0d3", "is_disabled": 0, "rental_uris": {"android": "https://dc.lft.to/lastmile_qr_scan", "ios": "https://dc.lft.to/lastmile_qr_scan"}, "type": "electric_scooter", "lat": 38.907816833333335, "is_reserved": 0, "fusion_lat": 0.0}, {"bike_id": "df7014c8cce38f31955ef3df9fefb2eb", "fusion_lon": 0.0, "lon": -77.02164783333333, "name": "df7014c8cce38f31955ef3df9fefb2eb", "is_disabled": 0, "rental_uris": {"android": "https://dc.lft.to/lastmile_qr_scan", "ios": "https://dc.lft.to/lastmile_qr_scan"}, "type": "electric_scooter", "lat": 38.8847505, "is_reserved": 0, "fusion_lat": 0.0}, {"bike_id": "83e45eeec9cbb901b5cc374bee483ad3", "fusion_lon": 0.0, "lon": -77.0257345, "name": "83e45eeec9cbb901b5cc374bee483ad3", "is_disabled": 0, "rental_uris": {"android": "https://dc.lft.to/lastmile_qr_scan", "ios": "https://dc.lft.to/lastmile_qr_scan"}, "type": "electric_scooter", "lat": 38.916015333333334, "is_reserved": 0, "fusion_lat": 0.0}, {"bike_id": "55129860ef4992914819757ffa5a940f", "fusion_lon": 0.0, "lon": -77.07933, "name": "55129860ef4992914819757ffa5a940f", "is_disabled": 0, "rental_uris": {"android": "https://dc.lft.to/lastmile_qr_scan", "ios": "https://dc.lft.to/lastmile_qr_scan"}, "type": "electric_scooter", "lat": 38.947649, "is_reserved": 0, "fusion_lat": 0.0}, {"bike_id": "80903359b60858c3b70084d5a3cd4117", "fusion_lon": 0.0, "lon": -77.02552433333334, "name": "80903359b60858c3b70084d5a3cd4117", "is_disabled": 0, "rental_uris": {"android": "https://dc.lft.to/lastmile_qr_scan", "ios": "https://dc.lft.to/lastmile_qr_scan"}, "type": "electric_scooter", "lat": 38.915558833333336, "is_reserved": 0, "fusion_lat": 0.0}, {"bike_id": "ab56bf937a3e7462e4d27fa2e0ae8fde", "fusion_lon": 0.0, "lon": -77.02332333333334, "name": "ab56bf937a3e7462e4d27fa2e0ae8fde", "is_disabled": 0, "rental_uris": {"android": "https://dc.lft.to/lastmile_qr_scan", "ios": "https://dc.lft.to/lastmile_qr_scan"}, "type": "electric_scooter", "lat": 38.92612583333333, "is_reserved": 0, "fusion_lat": 0.0}, {"bike_id": "3abce2108978e00c7e31daffefbbd6fe", "fusion_lon": 0.0, "lon": -77.02772633333333, "name": "3abce2108978e00c7e31daffefbbd6fe", "is_disabled": 0, "rental_uris": {"android": "https://dc.lft.to/lastmile_qr_scan", "ios": "https://dc.lft.to/lastmile_qr_scan"}, "type": "electric_scooter", "lat": 38.93962116666667, "is_reserved": 0, "fusion_lat": 0.0}, {"bike_id": "077462c5cb14023c8501496eb22c4684", "fusion_lon": 0.0, "lon": -77.00118816666667, "name": "077462c5cb14023c8501496eb22c4684", "is_disabled": 0, "rental_uris": {"android": "https://dc.lft.to/lastmile_qr_scan", "ios": "https://dc.lft.to/lastmile_qr_scan"}, "type": "electric_scooter", "lat": 38.905606666666664, "is_reserved": 0, "fusion_lat": 0.0}, {"bike_id": "1567fd6e76c4525c86296623109890ac", "fusion_lon": 0.0, "lon": -77.0434205, "name": "1567fd6e76c4525c86296623109890ac", "is_disabled": 0, "rental_uris": {"android": "https://dc.lft.to/lastmile_qr_scan", "ios": "https://dc.lft.to/lastmile_qr_scan"}, "type": "electric_scooter", "lat": 38.906301, "is_reserved": 0, "fusion_lat": 0.0}, {"bike_id": "281f96be2f8c77d8129f86cd9c0de0d5", "fusion_lon": 0.0, "lon": -76.977028, "name": "281f96be2f8c77d8129f86cd9c0de0d5", "is_disabled": 0, "rental_uris": {"android": "https://dc.lft.to/lastmile_qr_scan", "ios": "https://dc.lft.to/lastmile_qr_scan"}, "type": "electric_scooter", "lat": 38.902594, "is_reserved": 0, "fusion_lat": 0.0}, {"bike_id": "93517aafe9f79d7a2361b30a12ce28e7", "fusion_lon": 0.0, "lon": -77.03668066666667, "name": "93517aafe9f79d7a2361b30a12ce28e7", "is_disabled": 0, "rental_uris": {"android": "https://dc.lft.to/lastmile_qr_scan", "ios": "https://dc.lft.to/lastmile_qr_scan"}, "type": "electric_scooter", "lat": 38.92724616666667, "is_reserved": 0, "fusion_lat": 0.0}, {"bike_id": "65656241e226a45d5807957d7fc9cc1c", "fusion_lon": 0.0, "lon": -77.023689, "name": "65656241e226a45d5807957d7fc9cc1c", "is_disabled": 0, "rental_uris": {"android": "https://dc.lft.to/lastmile_qr_scan", "ios": "https://dc.lft.to/lastmile_qr_scan"}, "type": "electric_scooter", "lat": 38.8922045, "is_reserved": 0, "fusion_lat": 0.0}, {"bike_id": "20c1c292c1375ee4e3bc8bb82bedd992", "fusion_lon": 0.0, "lon": -77.01029033333333, "name": "20c1c292c1375ee4e3bc8bb82bedd992", "is_disabled": 0, "rental_uris": {"android": "https://dc.lft.to/lastmile_qr_scan", "ios": "https://dc.lft.to/lastmile_qr_scan"}, "type": "electric_bike", "lat": 38.95883666666667, "is_reserved": 0, "fusion_lat": 0.0}, {"bike_id": "a0526186d9caab8de7a6d2821d0acd06", "fusion_lon": 0.0, "lon": -77.03048533333333, "name": "a0526186d9caab8de7a6d2821d0acd06", "is_disabled": 0, "rental_uris": {"android": "https://dc.lft.to/lastmile_qr_scan", "ios": "https://dc.lft.to/lastmile_qr_scan"}, "type": "electric_scooter", "lat": 38.93460833333334, "is_reserved": 0, "fusion_lat": 0.0}, {"bike_id": "9879ed2bb3672ea613ce0981349b4126", "fusion_lon": 0.0, "lon": -77.0215055, "name": "9879ed2bb3672ea613ce0981349b4126", "is_disabled": 0, "rental_uris": {"android": "https://dc.lft.to/lastmile_qr_scan", "ios": "https://dc.lft.to/lastmile_qr_scan"}, "type": "electric_scooter", "lat": 38.926031333333334, "is_reserved": 0, "fusion_lat": 0.0}, {"bike_id": "371f2babe916a11d3624ac30729668b9", "fusion_lon": 0.0, "lon": -77.04659466666666, "name": "371f2babe916a11d3624ac30729668b9", "is_disabled": 0, "rental_uris": {"android": "https://dc.lft.to/lastmile_qr_scan", "ios": "https://dc.lft.to/lastmile_qr_scan"}, "type": "electric_scooter", "lat": 38.9005285, "is_reserved": 0, "fusion_lat": 0.0}, {"bike_id": "d0499d7fc835d19cef0873952c9a8957", "fusion_lon": 0.0, "lon": -77.037805, "name": "d0499d7fc835d19cef0873952c9a8957", "is_disabled": 0, "rental_uris": {"android": "https://dc.lft.to/lastmile_qr_scan", "ios": "https://dc.lft.to/lastmile_qr_scan"}, "type": "electric_scooter", "lat": 38.92201216666667, "is_reserved": 0, "fusion_lat": 0.0}, {"bike_id": "fc5cbec2045bf4abd27029acfc3ab48d", "fusion_lon": 0.0, "lon": -77.02105883333333, "name": "fc5cbec2045bf4abd27029acfc3ab48d", "is_disabled": 0, "rental_uris": {"android": "https://dc.lft.to/lastmile_qr_scan", "ios": "https://dc.lft.to/lastmile_qr_scan"}, "type": "electric_scooter", "lat": 38.885149, "is_reserved": 0, "fusion_lat": 0.0}, {"bike_id": "b11eddab4578a9a2d22709691e4f2f1f", "fusion_lon": 0.0, "lon": -77.01576666666666, "name": "b11eddab4578a9a2d22709691e4f2f1f", "is_disabled": 0, "rental_uris": {"android": "https://dc.lft.to/lastmile_qr_scan", "ios": "https://dc.lft.to/lastmile_qr_scan"}, "type": "electric_scooter", "lat": 38.91681533333333, "is_reserved": 0, "fusion_lat": 0.0}, {"bike_id": "93cf2d73ed6b51e61262b15beeb08b31", "fusion_lon": 0.0, "lon": -77.04861433333333, "name": "93cf2d73ed6b51e61262b15beeb08b31", "is_disabled": 0, "rental_uris": {"android": "https://dc.lft.to/lastmile_qr_scan", "ios": "https://dc.lft.to/lastmile_qr_scan"}, "type": "electric_scooter", "lat": 38.915247, "is_reserved": 0, "fusion_lat": 0.0}, {"bike_id": "e03e03d10b75f59d46fcbf704c096a0a", "fusion_lon": 0.0, "lon": -77.10602166666666, "name": "e03e03d10b75f59d46fcbf704c096a0a", "is_disabled": 0, "rental_uris": {"android": "https://dc.lft.to/lastmile_qr_scan", "ios": "https://dc.lft.to/lastmile_qr_scan"}, "type": "electric_bike", "lat": 38.9289765, "is_reserved": 0, "fusion_lat": 0.0}, {"bike_id": "425a5ae43069a192ff949aaf22e39fe1", "fusion_lon": 0.0, "lon": -77.01194483333333, "name": "425a5ae43069a192ff949aaf22e39fe1", "is_disabled": 0, "rental_uris": {"android": "https://dc.lft.to/lastmile_qr_scan", "ios": "https://dc.lft.to/lastmile_qr_scan"}, "type": "electric_scooter", "lat": 38.897677, "is_reserved": 0, "fusion_lat": 0.0}, {"bike_id": "17f3bce63db2b2fe4cf78cee6528c846", "fusion_lon": 0.0, "lon": -76.95749633333334, "name": "17f3bce63db2b2fe4cf78cee6528c846", "is_disabled": 0, "rental_uris": {"android": "https://dc.lft.to/lastmile_qr_scan", "ios": "https://dc.lft.to/lastmile_qr_scan"}, "type": "electric_scooter", "lat": 38.8843505, "is_reserved": 0, "fusion_lat": 0.0}, {"bike_id": "68fb2978afb96d7e7d8b76e95abb11be", "fusion_lon": 0.0, "lon": -77.0025755, "name": "68fb2978afb96d7e7d8b76e95abb11be", "is_disabled": 0, "rental_uris": {"android": "https://dc.lft.to/lastmile_qr_scan", "ios": "https://dc.lft.to/lastmile_qr_scan"}, "type": "electric_scooter", "lat": 38.9057715, "is_reserved": 0, "fusion_lat": 0.0}, {"bike_id": "8d577722472fa948fcbfbe03bea5f1bf", "fusion_lon": 0.0, "lon": -76.98073566666666, "name": "8d577722472fa948fcbfbe03bea5f1bf", "is_disabled": 0, "rental_uris": {"android": "https://dc.lft.to/lastmile_qr_scan", "ios": "https://dc.lft.to/lastmile_qr_scan"}, "type": "electric_scooter", "lat": 38.90160733333333, "is_reserved": 0, "fusion_lat": 0.0}, {"bike_id": "fb08ae3cdeaced5084f4733cacf64e15", "fusion_lon": 0.0, "lon": -77.04345733333334, "name": "fb08ae3cdeaced5084f4733cacf64e15", "is_disabled": 0, "rental_uris": {"android": "https://dc.lft.to/lastmile_qr_scan", "ios": "https://dc.lft.to/lastmile_qr_scan"}, "type": "electric_scooter", "lat": 38.908513666666664, "is_reserved": 0, "fusion_lat": 0.0}, {"bike_id": "bab3ee014d3957a6111fbe25d50158c5", "fusion_lon": 0.0, "lon": -77.034601, "name": "bab3ee014d3957a6111fbe25d50158c5", "is_disabled": 0, "rental_uris": {"android": "https://dc.lft.to/lastmile_qr_scan", "ios": "https://dc.lft.to/lastmile_qr_scan"}, "type": "electric_scooter", "lat": 38.905581, "is_reserved": 0, "fusion_lat": 0.0}, {"bike_id": "edf7bedf8e19bfe9cb0fb5466288c1e6", "fusion_lon": 0.0, "lon": -77.04476233333334, "name": "edf7bedf8e19bfe9cb0fb5466288c1e6", "is_disabled": 0, "rental_uris": {"android": "https://dc.lft.to/lastmile_qr_scan", "ios": "https://dc.lft.to/lastmile_qr_scan"}, "type": "electric_scooter", "lat": 38.91160083333333, "is_reserved": 0, "fusion_lat": 0.0}, {"bike_id": "eaa140394815ab61f9c83ce4add71ba6", "fusion_lon": 0.0, "lon": -77.04485433333333, "name": "eaa140394815ab61f9c83ce4add71ba6", "is_disabled": 0, "rental_uris": {"android": "https://dc.lft.to/lastmile_qr_scan", "ios": "https://dc.lft.to/lastmile_qr_scan"}, "type": "electric_scooter", "lat": 38.90862216666667, "is_reserved": 0, "fusion_lat": 0.0}, {"bike_id": "bb656cf1cad3b360579be2db171b72a3", "fusion_lon": 0.0, "lon": -76.99781216666666, "name": "bb656cf1cad3b360579be2db171b72a3", "is_disabled": 0, "rental_uris": {"android": "https://dc.lft.to/lastmile_qr_scan", "ios": "https://dc.lft.to/lastmile_qr_scan"}, "type": "electric_scooter", "lat": 38.84425816666667, "is_reserved": 0, "fusion_lat": 0.0}, {"bike_id": "9a02791bff4387664f9390f0fd3438e1", "fusion_lon": 0.0, "lon": -77.031223, "name": "9a02791bff4387664f9390f0fd3438e1", "is_disabled": 0, "rental_uris": {"android": "https://dc.lft.to/lastmile_qr_scan", "ios": "https://dc.lft.to/lastmile_qr_scan"}, "type": "electric_scooter", "lat": 38.9155945, "is_reserved": 0, "fusion_lat": 0.0}, {"bike_id": "c95297492ff768da389405e5eb9f714b", "fusion_lon": 0.0, "lon": -76.94971183333334, "name": "c95297492ff768da389405e5eb9f714b", "is_disabled": 0, "rental_uris": {"android": "https://dc.lft.to/lastmile_qr_scan", "ios": "https://dc.lft.to/lastmile_qr_scan"}, "type": "electric_scooter", "lat": 38.8935955, "is_reserved": 0, "fusion_lat": 0.0}, {"bike_id": "33676794e1f91983c47375deaff69bdd", "fusion_lon": 0.0, "lon": -77.011855, "name": "33676794e1f91983c47375deaff69bdd", "is_disabled": 0, "rental_uris": {"android": "https://dc.lft.to/lastmile_qr_scan", "ios": "https://dc.lft.to/lastmile_qr_scan"}, "type": "electric_scooter", "lat": 38.903225666666664, "is_reserved": 0, "fusion_lat": 0.0}, {"bike_id": "57f0a9719fb13ae8018d66d3703fb65f", "fusion_lon": 0.0, "lon": -77.02295433333333, "name": "57f0a9719fb13ae8018d66d3703fb65f", "is_disabled": 0, "rental_uris": {"android": "https://dc.lft.to/lastmile_qr_scan", "ios": "https://dc.lft.to/lastmile_qr_scan"}, "type": "electric_scooter", "lat": 38.916088, "is_reserved": 0, "fusion_lat": 0.0}, {"bike_id": "cd4b333424b18dd070620332b6b42783", "fusion_lon": 0.0, "lon": -77.02170983333333, "name": "cd4b333424b18dd070620332b6b42783", "is_disabled": 0, "rental_uris": {"android": "https://dc.lft.to/lastmile_qr_scan", "ios": "https://dc.lft.to/lastmile_qr_scan"}, "type": "electric_scooter", "lat": 38.89739983333333, "is_reserved": 0, "fusion_lat": 0.0}, {"bike_id": "a04832d5e85b7199d2efa4670fdabe4b", "fusion_lon": 0.0, "lon": -76.98718866666667, "name": "a04832d5e85b7199d2efa4670fdabe4b", "is_disabled": 0, "rental_uris": {"android": "https://dc.lft.to/lastmile_qr_scan", "ios": "https://dc.lft.to/lastmile_qr_scan"}, "type": "electric_scooter", "lat": 38.866346166666666, "is_reserved": 0, "fusion_lat": 0.0}, {"bike_id": "cbf290d171a354411e2ce243791dca74", "fusion_lon": 0.0, "lon": -77.03334316666667, "name": "cbf290d171a354411e2ce243791dca74", "is_disabled": 0, "rental_uris": {"android": "https://dc.lft.to/lastmile_qr_scan", "ios": "https://dc.lft.to/lastmile_qr_scan"}, "type": "electric_scooter", "lat": 38.92880816666667, "is_reserved": 0, "fusion_lat": 0.0}, {"bike_id": "d74c60a216187ba03af24d8aaccbc2a4", "fusion_lon": 0.0, "lon": -77.046337, "name": "d74c60a216187ba03af24d8aaccbc2a4", "is_disabled": 0, "rental_uris": {"android": "https://dc.lft.to/lastmile_qr_scan", "ios": "https://dc.lft.to/lastmile_qr_scan"}, "type": "electric_scooter", "lat": 38.895333666666666, "is_reserved": 0, "fusion_lat": 0.0}, {"bike_id": "a49001525974d5a907715de15eb0345e", "fusion_lon": 0.0, "lon": -76.946343, "name": "a49001525974d5a907715de15eb0345e", "is_disabled": 0, "rental_uris": {"android": "https://dc.lft.to/lastmile_qr_scan", "ios": "https://dc.lft.to/lastmile_qr_scan"}, "type": "electric_scooter", "lat": 38.89844133333333, "is_reserved": 0, "fusion_lat": 0.0}, {"bike_id": "e1e69f32718689a0842002e69f1c680c", "fusion_lon": 0.0, "lon": -76.96862233333333, "name": "e1e69f32718689a0842002e69f1c680c", "is_disabled": 0, "rental_uris": {"android": "https://dc.lft.to/lastmile_qr_scan", "ios": "https://dc.lft.to/lastmile_qr_scan"}, "type": "electric_scooter", "lat": 38.870954833333336, "is_reserved": 0, "fusion_lat": 0.0}, {"bike_id": "c7f7fcecfaa29e1cabdd119daf0e9240", "fusion_lon": 0.0, "lon": -76.9901815, "name": "c7f7fcecfaa29e1cabdd119daf0e9240", "is_disabled": 0, "rental_uris": {"android": "https://dc.lft.to/lastmile_qr_scan", "ios": "https://dc.lft.to/lastmile_qr_scan"}, "type": "electric_scooter", "lat": 38.9050035, "is_reserved": 0, "fusion_lat": 0.0}, {"bike_id": "e96f191030f0037adccaf44dc9443e69", "fusion_lon": 0.0, "lon": -77.03202766666666, "name": "e96f191030f0037adccaf44dc9443e69", "is_disabled": 0, "rental_uris": {"android": "https://dc.lft.to/lastmile_qr_scan", "ios": "https://dc.lft.to/lastmile_qr_scan"}, "type": "electric_scooter", "lat": 38.8996595, "is_reserved": 0, "fusion_lat": 0.0}, {"bike_id": "1ccca774d586cb1e9b6bd9d5947a08ee", "fusion_lon": 0.0, "lon": -77.048294, "name": "1ccca774d586cb1e9b6bd9d5947a08ee", "is_disabled": 0, "rental_uris": {"android": "https://dc.lft.to/lastmile_qr_scan", "ios": "https://dc.lft.to/lastmile_qr_scan"}, "type": "electric_scooter", "lat": 38.88894483333333, "is_reserved": 0, "fusion_lat": 0.0}, {"bike_id": "840c154038a8b11af8a3e34fe34cb3ef", "fusion_lon": 0.0, "lon": -77.03472166666667, "name": "840c154038a8b11af8a3e34fe34cb3ef", "is_disabled": 0, "rental_uris": {"android": "https://dc.lft.to/lastmile_qr_scan", "ios": "https://dc.lft.to/lastmile_qr_scan"}, "type": "electric_scooter", "lat": 38.917116, "is_reserved": 0, "fusion_lat": 0.0}, {"bike_id": "3ee269c45e074b75ae805d4af1c7df13", "fusion_lon": 0.0, "lon": -77.05074516666667, "name": "3ee269c45e074b75ae805d4af1c7df13", "is_disabled": 0, "rental_uris": {"android": "https://dc.lft.to/lastmile_qr_scan", "ios": "https://dc.lft.to/lastmile_qr_scan"}, "type": "electric_scooter", "lat": 38.90373233333333, "is_reserved": 0, "fusion_lat": 0.0}, {"bike_id": "6f5fc8aa65d1b716c4b6ca49c0102353", "fusion_lon": 0.0, "lon": -77.03674516666666, "name": "6f5fc8aa65d1b716c4b6ca49c0102353", "is_disabled": 0, "rental_uris": {"android": "https://dc.lft.to/lastmile_qr_scan", "ios": "https://dc.lft.to/lastmile_qr_scan"}, "type": "electric_scooter", "lat": 38.918724, "is_reserved": 0, "fusion_lat": 0.0}, {"bike_id": "cf3620000db080e4d34b4049a0357046", "fusion_lon": 0.0, "lon": -76.93345166666667, "name": "cf3620000db080e4d34b4049a0357046", "is_disabled": 0, "rental_uris": {"android": "https://dc.lft.to/lastmile_qr_scan", "ios": "https://dc.lft.to/lastmile_qr_scan"}, "type": "electric_scooter", "lat": 38.899150666666664, "is_reserved": 0, "fusion_lat": 0.0}, {"bike_id": "69f25b2945fe2a23f1f7c926cd6362de", "fusion_lon": 0.0, "lon": -77.0308815, "name": "69f25b2945fe2a23f1f7c926cd6362de", "is_disabled": 0, "rental_uris": {"android": "https://dc.lft.to/lastmile_qr_scan", "ios": "https://dc.lft.to/lastmile_qr_scan"}, "type": "electric_scooter", "lat": 38.93758483333333, "is_reserved": 0, "fusion_lat": 0.0}, {"bike_id": "3baaca1b452b8365d257afd15b49de6e", "fusion_lon": 0.0, "lon": -77.02615416666667, "name": "3baaca1b452b8365d257afd15b49de6e", "is_disabled": 0, "rental_uris": {"android": "https://dc.lft.to/lastmile_qr_scan", "ios": "https://dc.lft.to/lastmile_qr_scan"}, "type": "electric_scooter", "lat": 38.89977233333333, "is_reserved": 0, "fusion_lat": 0.0}, {"bike_id": "e6d3b8641b4226917d9eed94a6086c5a", "fusion_lon": 0.0, "lon": -77.00222833333333, "name": "e6d3b8641b4226917d9eed94a6086c5a", "is_disabled": 0, "rental_uris": {"android": "https://dc.lft.to/lastmile_qr_scan", "ios": "https://dc.lft.to/lastmile_qr_scan"}, "type": "electric_scooter", "lat": 38.92509366666667, "is_reserved": 0, "fusion_lat": 0.0}, {"bike_id": "74508dc5b0247ed69dbdfdd75b96b475", "fusion_lon": 0.0, "lon": -76.96599566666667, "name": "74508dc5b0247ed69dbdfdd75b96b475", "is_disabled": 0, "rental_uris": {"android": "https://dc.lft.to/lastmile_qr_scan", "ios": "https://dc.lft.to/lastmile_qr_scan"}, "type": "electric_scooter", "lat": 38.87387833333333, "is_reserved": 0, "fusion_lat": 0.0}, {"bike_id": "53e81d17d2553eafa9018d0b93db5000", "fusion_lon": 0.0, "lon": -77.01665616666666, "name": "53e81d17d2553eafa9018d0b93db5000", "is_disabled": 0, "rental_uris": {"android": "https://dc.lft.to/lastmile_qr_scan", "ios": "https://dc.lft.to/lastmile_qr_scan"}, "type": "electric_scooter", "lat": 38.910424, "is_reserved": 0, "fusion_lat": 0.0}, {"bike_id": "2b9d5685031166a0726adbbc24f00bb1", "fusion_lon": 0.0, "lon": -77.01535416666667, "name": "2b9d5685031166a0726adbbc24f00bb1", "is_disabled": 0, "rental_uris": {"android": "https://dc.lft.to/lastmile_qr_scan", "ios": "https://dc.lft.to/lastmile_qr_scan"}, "type": "electric_scooter", "lat": 38.88741383333333, "is_reserved": 0, "fusion_lat": 0.0}, {"bike_id": "a02214440a969ab809d64107aa9804b8", "fusion_lon": 0.0, "lon": -76.9837245, "name": "a02214440a969ab809d64107aa9804b8", "is_disabled": 0, "rental_uris": {"android": "https://dc.lft.to/lastmile_qr_scan", "ios": "https://dc.lft.to/lastmile_qr_scan"}, "type": "electric_scooter", "lat": 38.88585616666667, "is_reserved": 0, "fusion_lat": 0.0}, {"bike_id": "862711aab62e746a282995365d67ca9d", "fusion_lon": 0.0, "lon": -76.93646150000001, "name": "862711aab62e746a282995365d67ca9d", "is_disabled": 0, "rental_uris": {"android": "https://dc.lft.to/lastmile_qr_scan", "ios": "https://dc.lft.to/lastmile_qr_scan"}, "type": "electric_bike", "lat": 38.8715105, "is_reserved": 0, "fusion_lat": 0.0}, {"bike_id": "8bef94cab96910574d74ab58f23128b5", "fusion_lon": 0.0, "lon": -77.03333516666666, "name": "8bef94cab96910574d74ab58f23128b5", "is_disabled": 0, "rental_uris": {"android": "https://dc.lft.to/lastmile_qr_scan", "ios": "https://dc.lft.to/lastmile_qr_scan"}, "type": "electric_scooter", "lat": 38.92878833333333, "is_reserved": 0, "fusion_lat": 0.0}, {"bike_id": "a438db6b4c5e84cda6b633b42f90cc8f", "fusion_lon": 0.0, "lon": -77.04621916666666, "name": "a438db6b4c5e84cda6b633b42f90cc8f", "is_disabled": 0, "rental_uris": {"android": "https://dc.lft.to/lastmile_qr_scan", "ios": "https://dc.lft.to/lastmile_qr_scan"}, "type": "electric_scooter", "lat": 38.919312, "is_reserved": 0, "fusion_lat": 0.0}, {"bike_id": "dbdba1d1be27feff74cbf7bcbb03111d", "fusion_lon": 0.0, "lon": -77.0334565, "name": "dbdba1d1be27feff74cbf7bcbb03111d", "is_disabled": 0, "rental_uris": {"android": "https://dc.lft.to/lastmile_qr_scan", "ios": "https://dc.lft.to/lastmile_qr_scan"}, "type": "electric_scooter", "lat": 38.917146833333334, "is_reserved": 0, "fusion_lat": 0.0}, {"bike_id": "a989b857c3fb199def2711e4e411368f", "fusion_lon": 0.0, "lon": -77.00629216666667, "name": "a989b857c3fb199def2711e4e411368f", "is_disabled": 0, "rental_uris": {"android": "https://dc.lft.to/lastmile_qr_scan", "ios": "https://dc.lft.to/lastmile_qr_scan"}, "type": "electric_bike", "lat": 38.948372166666665, "is_reserved": 0, "fusion_lat": 0.0}, {"bike_id": "49961a4d995e267c64799c9a1b2315b1", "fusion_lon": 0.0, "lon": -77.031767, "name": "49961a4d995e267c64799c9a1b2315b1", "is_disabled": 0, "rental_uris": {"android": "https://dc.lft.to/lastmile_qr_scan", "ios": "https://dc.lft.to/lastmile_qr_scan"}, "type": "electric_scooter", "lat": 38.919274, "is_reserved": 0, "fusion_lat": 0.0}, {"bike_id": "3d606e2044eba4bc2f4ec1f76f5d1930", "fusion_lon": 0.0, "lon": -77.0058665, "name": "3d606e2044eba4bc2f4ec1f76f5d1930", "is_disabled": 0, "rental_uris": {"android": "https://dc.lft.to/lastmile_qr_scan", "ios": "https://dc.lft.to/lastmile_qr_scan"}, "type": "electric_scooter", "lat": 38.906273166666665, "is_reserved": 0, "fusion_lat": 0.0}, {"bike_id": "dc507f0c383f357f31fbf40f34fcedb9", "fusion_lon": 0.0, "lon": -77.032138, "name": "dc507f0c383f357f31fbf40f34fcedb9", "is_disabled": 0, "rental_uris": {"android": "https://dc.lft.to/lastmile_qr_scan", "ios": "https://dc.lft.to/lastmile_qr_scan"}, "type": "electric_scooter", "lat": 38.90974933333333, "is_reserved": 0, "fusion_lat": 0.0}, {"bike_id": "d2ee9348ed094298136590b85bf604fc", "fusion_lon": 0.0, "lon": -76.99502766666667, "name": "d2ee9348ed094298136590b85bf604fc", "is_disabled": 0, "rental_uris": {"android": "https://dc.lft.to/lastmile_qr_scan", "ios": "https://dc.lft.to/lastmile_qr_scan"}, "type": "electric_scooter", "lat": 38.89163216666667, "is_reserved": 0, "fusion_lat": 0.0}, {"bike_id": "4d7f2d4a50f61cce0afd14ca182116c1", "fusion_lon": 0.0, "lon": -77.03184916666666, "name": "4d7f2d4a50f61cce0afd14ca182116c1", "is_disabled": 0, "rental_uris": {"android": "https://dc.lft.to/lastmile_qr_scan", "ios": "https://dc.lft.to/lastmile_qr_scan"}, "type": "electric_scooter", "lat": 38.92495433333333, "is_reserved": 0, "fusion_lat": 0.0}, {"bike_id": "aa7010e4613fed2cf03b2a1f89918fb0", "fusion_lon": 0.0, "lon": -77.02899866666667, "name": "aa7010e4613fed2cf03b2a1f89918fb0", "is_disabled": 0, "rental_uris": {"android": "https://dc.lft.to/lastmile_qr_scan", "ios": "https://dc.lft.to/lastmile_qr_scan"}, "type": "electric_scooter", "lat": 38.92815433333333, "is_reserved": 0, "fusion_lat": 0.0}, {"bike_id": "aa87cbd619138d0138516dadf4a2aaab", "fusion_lon": 0.0, "lon": -76.9981585, "name": "aa87cbd619138d0138516dadf4a2aaab", "is_disabled": 0, "rental_uris": {"android": "https://dc.lft.to/lastmile_qr_scan", "ios": "https://dc.lft.to/lastmile_qr_scan"}, "type": "electric_bike", "lat": 38.910156666666666, "is_reserved": 0, "fusion_lat": 0.0}, {"bike_id": "cb333da9da6475ec81e9f124ebd53ec7", "fusion_lon": 0.0, "lon": -77.04254466666667, "name": "cb333da9da6475ec81e9f124ebd53ec7", "is_disabled": 0, "rental_uris": {"android": "https://dc.lft.to/lastmile_qr_scan", "ios": "https://dc.lft.to/lastmile_qr_scan"}, "type": "electric_scooter", "lat": 38.9079595, "is_reserved": 0, "fusion_lat": 0.0}, {"bike_id": "a1a441665e8e5e71188c4b3d16fa1beb", "fusion_lon": 0.0, "lon": -77.00915266666667, "name": "a1a441665e8e5e71188c4b3d16fa1beb", "is_disabled": 0, "rental_uris": {"android": "https://dc.lft.to/lastmile_qr_scan", "ios": "https://dc.lft.to/lastmile_qr_scan"}, "type": "electric_scooter", "lat": 38.82784783333334, "is_reserved": 0, "fusion_lat": 0.0}, {"bike_id": "e4c365c6b215854bb305a40411258b95", "fusion_lon": 0.0, "lon": -76.98653566666667, "name": "e4c365c6b215854bb305a40411258b95", "is_disabled": 0, "rental_uris": {"android": "https://dc.lft.to/lastmile_qr_scan", "ios": "https://dc.lft.to/lastmile_qr_scan"}, "type": "electric_scooter", "lat": 38.867366833333335, "is_reserved": 0, "fusion_lat": 0.0}, {"bike_id": "10411fdeec97237222ee660701519e6b", "fusion_lon": 0.0, "lon": -77.024594, "name": "10411fdeec97237222ee660701519e6b", "is_disabled": 0, "rental_uris": {"android": "https://dc.lft.to/lastmile_qr_scan", "ios": "https://dc.lft.to/lastmile_qr_scan"}, "type": "electric_scooter", "lat": 38.938761666666664, "is_reserved": 0, "fusion_lat": 0.0}, {"bike_id": "730e82815994d07b339839eea63f8276", "fusion_lon": 0.0, "lon": -77.03466116666667, "name": "730e82815994d07b339839eea63f8276", "is_disabled": 0, "rental_uris": {"android": "https://dc.lft.to/lastmile_qr_scan", "ios": "https://dc.lft.to/lastmile_qr_scan"}, "type": "electric_scooter", "lat": 38.909737166666666, "is_reserved": 0, "fusion_lat": 0.0}, {"bike_id": "000f1d89299496796f160e6246e6b818", "fusion_lon": 0.0, "lon": -76.99599183333333, "name": "000f1d89299496796f160e6246e6b818", "is_disabled": 0, "rental_uris": {"android": "https://dc.lft.to/lastmile_qr_scan", "ios": "https://dc.lft.to/lastmile_qr_scan"}, "type": "electric_scooter", "lat": 38.85694683333333, "is_reserved": 0, "fusion_lat": 0.0}, {"bike_id": "25c1e0340ac200e30ccc5005035e1dd1", "fusion_lon": 0.0, "lon": -76.95502216666667, "name": "25c1e0340ac200e30ccc5005035e1dd1", "is_disabled": 0, "rental_uris": {"android": "https://dc.lft.to/lastmile_qr_scan", "ios": "https://dc.lft.to/lastmile_qr_scan"}, "type": "electric_scooter", "lat": 38.887321666666665, "is_reserved": 0, "fusion_lat": 0.0}, {"bike_id": "5d7aba5fec29f30066d0c8c92a0bf7ac", "fusion_lon": 0.0, "lon": -76.9573955, "name": "5d7aba5fec29f30066d0c8c92a0bf7ac", "is_disabled": 0, "rental_uris": {"android": "https://dc.lft.to/lastmile_qr_scan", "ios": "https://dc.lft.to/lastmile_qr_scan"}, "type": "electric_scooter", "lat": 38.896336, "is_reserved": 0, "fusion_lat": 0.0}, {"bike_id": "e787f74f4d276dfe0d75c871ce601f61", "fusion_lon": 0.0, "lon": -77.04350866666667, "name": "e787f74f4d276dfe0d75c871ce601f61", "is_disabled": 0, "rental_uris": {"android": "https://dc.lft.to/lastmile_qr_scan", "ios": "https://dc.lft.to/lastmile_qr_scan"}, "type": "electric_scooter", "lat": 38.91043966666667, "is_reserved": 0, "fusion_lat": 0.0}, {"bike_id": "253ad8165e69672f17a0f503287de426", "fusion_lon": 0.0, "lon": -77.0434645, "name": "253ad8165e69672f17a0f503287de426", "is_disabled": 0, "rental_uris": {"android": "https://dc.lft.to/lastmile_qr_scan", "ios": "https://dc.lft.to/lastmile_qr_scan"}, "type": "electric_scooter", "lat": 38.912561833333335, "is_reserved": 0, "fusion_lat": 0.0}, {"bike_id": "96f94d45889b353f6fdcde3b6d79b320", "fusion_lon": 0.0, "lon": -76.99009266666667, "name": "96f94d45889b353f6fdcde3b6d79b320", "is_disabled": 0, "rental_uris": {"android": "https://dc.lft.to/lastmile_qr_scan", "ios": "https://dc.lft.to/lastmile_qr_scan"}, "type": "electric_scooter", "lat": 38.85880266666667, "is_reserved": 0, "fusion_lat": 0.0}, {"bike_id": "5b8aca86f185ca05ad9508666cb4677d", "fusion_lon": 0.0, "lon": -77.00560166666666, "name": "5b8aca86f185ca05ad9508666cb4677d", "is_disabled": 0, "rental_uris": {"android": "https://dc.lft.to/lastmile_qr_scan", "ios": "https://dc.lft.to/lastmile_qr_scan"}, "type": "electric_scooter", "lat": 38.905758166666665, "is_reserved": 0, "fusion_lat": 0.0}, {"bike_id": "33f81840f6336fc578a7b50059ee9187", "fusion_lon": 0.0, "lon": -77.0238785, "name": "33f81840f6336fc578a7b50059ee9187", "is_disabled": 0, "rental_uris": {"android": "https://dc.lft.to/lastmile_qr_scan", "ios": "https://dc.lft.to/lastmile_qr_scan"}, "type": "electric_scooter", "lat": 38.9569995, "is_reserved": 0, "fusion_lat": 0.0}, {"bike_id": "28e6090fe2177fb9b942d2c22b06a2f6", "fusion_lon": 0.0, "lon": -77.032521, "name": "28e6090fe2177fb9b942d2c22b06a2f6", "is_disabled": 0, "rental_uris": {"android": "https://dc.lft.to/lastmile_qr_scan", "ios": "https://dc.lft.to/lastmile_qr_scan"}, "type": "electric_scooter", "lat": 38.937394833333336, "is_reserved": 0, "fusion_lat": 0.0}, {"bike_id": "c17078b2a6ea5e4678ddf2f127db836d", "fusion_lon": 0.0, "lon": -77.01188583333334, "name": "c17078b2a6ea5e4678ddf2f127db836d", "is_disabled": 0, "rental_uris": {"android": "https://dc.lft.to/lastmile_qr_scan", "ios": "https://dc.lft.to/lastmile_qr_scan"}, "type": "electric_scooter", "lat": 38.9032485, "is_reserved": 0, "fusion_lat": 0.0}, {"bike_id": "a7271e31a8bef2357a2230376447814b", "fusion_lon": 0.0, "lon": -77.03514383333334, "name": "a7271e31a8bef2357a2230376447814b", "is_disabled": 0, "rental_uris": {"android": "https://dc.lft.to/lastmile_qr_scan", "ios": "https://dc.lft.to/lastmile_qr_scan"}, "type": "electric_bike", "lat": 38.96204383333333, "is_reserved": 0, "fusion_lat": 0.0}, {"bike_id": "4c3fdc39b733f0cf25b954fb2c119c9a", "fusion_lon": 0.0, "lon": -77.0218345, "name": "4c3fdc39b733f0cf25b954fb2c119c9a", "is_disabled": 0, "rental_uris": {"android": "https://dc.lft.to/lastmile_qr_scan", "ios": "https://dc.lft.to/lastmile_qr_scan"}, "type": "electric_scooter", "lat": 38.9199025, "is_reserved": 0, "fusion_lat": 0.0}, {"bike_id": "2a250a31d300284b696b8e6bc5d64541", "fusion_lon": 0.0, "lon": -77.02805733333334, "name": "2a250a31d300284b696b8e6bc5d64541", "is_disabled": 0, "rental_uris": {"android": "https://dc.lft.to/lastmile_qr_scan", "ios": "https://dc.lft.to/lastmile_qr_scan"}, "type": "electric_scooter", "lat": 38.93084833333333, "is_reserved": 0, "fusion_lat": 0.0}, {"bike_id": "56f5e0c145ecba6e406c65f3f82c3dcf", "fusion_lon": 0.0, "lon": -77.02394333333334, "name": "56f5e0c145ecba6e406c65f3f82c3dcf", "is_disabled": 0, "rental_uris": {"android": "https://dc.lft.to/lastmile_qr_scan", "ios": "https://dc.lft.to/lastmile_qr_scan"}, "type": "electric_scooter", "lat": 38.917479, "is_reserved": 0, "fusion_lat": 0.0}, {"bike_id": "663df61f2f764d3ba0735f5412db620e", "fusion_lon": 0.0, "lon": -77.015346, "name": "663df61f2f764d3ba0735f5412db620e", "is_disabled": 0, "rental_uris": {"android": "https://dc.lft.to/lastmile_qr_scan", "ios": "https://dc.lft.to/lastmile_qr_scan"}, "type": "electric_scooter", "lat": 38.887364166666664, "is_reserved": 0, "fusion_lat": 0.0}, {"bike_id": "915ff4df0e41759637cc815c3cfadf85", "fusion_lon": 0.0, "lon": -77.04541366666666, "name": "915ff4df0e41759637cc815c3cfadf85", "is_disabled": 0, "rental_uris": {"android": "https://dc.lft.to/lastmile_qr_scan", "ios": "https://dc.lft.to/lastmile_qr_scan"}, "type": "electric_scooter", "lat": 38.93407766666667, "is_reserved": 0, "fusion_lat": 0.0}, {"bike_id": "bed57aeacf76d51b97b0702d8ffed9d2", "fusion_lon": 0.0, "lon": -77.0456465, "name": "bed57aeacf76d51b97b0702d8ffed9d2", "is_disabled": 0, "rental_uris": {"android": "https://dc.lft.to/lastmile_qr_scan", "ios": "https://dc.lft.to/lastmile_qr_scan"}, "type": "electric_scooter", "lat": 38.914014, "is_reserved": 0, "fusion_lat": 0.0}, {"bike_id": "61d37734d9a69c520b22266bd521c2ea", "fusion_lon": 0.0, "lon": -77.04886733333333, "name": "61d37734d9a69c520b22266bd521c2ea", "is_disabled": 0, "rental_uris": {"android": "https://dc.lft.to/lastmile_qr_scan", "ios": "https://dc.lft.to/lastmile_qr_scan"}, "type": "electric_bike", "lat": 38.8899795, "is_reserved": 0, "fusion_lat": 0.0}, {"bike_id": "5c20197eb618d035522b1ceaf7882e7b", "fusion_lon": 0.0, "lon": -77.04742166666666, "name": "5c20197eb618d035522b1ceaf7882e7b", "is_disabled": 0, "rental_uris": {"android": "https://dc.lft.to/lastmile_qr_scan", "ios": "https://dc.lft.to/lastmile_qr_scan"}, "type": "electric_scooter", "lat": 38.9166065, "is_reserved": 0, "fusion_lat": 0.0}, {"bike_id": "de3daa847d52f94e1d8d49b92ac2b1dd", "fusion_lon": 0.0, "lon": -77.05859733333334, "name": "de3daa847d52f94e1d8d49b92ac2b1dd", "is_disabled": 0, "rental_uris": {"android": "https://dc.lft.to/lastmile_qr_scan", "ios": "https://dc.lft.to/lastmile_qr_scan"}, "type": "electric_scooter", "lat": 38.93606183333333, "is_reserved": 0, "fusion_lat": 0.0}, {"bike_id": "261c620dbbac42a05710e0b985a9fb61", "fusion_lon": 0.0, "lon": -77.04181216666667, "name": "261c620dbbac42a05710e0b985a9fb61", "is_disabled": 0, "rental_uris": {"android": "https://dc.lft.to/lastmile_qr_scan", "ios": "https://dc.lft.to/lastmile_qr_scan"}, "type": "electric_scooter", "lat": 38.905603666666664, "is_reserved": 0, "fusion_lat": 0.0}, {"bike_id": "6deeec4224c34d6b1ec87a2573d51730", "fusion_lon": 0.0, "lon": -77.007145, "name": "6deeec4224c34d6b1ec87a2573d51730", "is_disabled": 0, "rental_uris": {"android": "https://dc.lft.to/lastmile_qr_scan", "ios": "https://dc.lft.to/lastmile_qr_scan"}, "type": "electric_scooter", "lat": 38.91189083333333, "is_reserved": 0, "fusion_lat": 0.0}, {"bike_id": "9f1241b369a3385f3cb7dce3814aa19f", "fusion_lon": 0.0, "lon": -77.02929783333333, "name": "9f1241b369a3385f3cb7dce3814aa19f", "is_disabled": 0, "rental_uris": {"android": "https://dc.lft.to/lastmile_qr_scan", "ios": "https://dc.lft.to/lastmile_qr_scan"}, "type": "electric_scooter", "lat": 38.8982395, "is_reserved": 0, "fusion_lat": 0.0}, {"bike_id": "436dc19c65a54261ebeeb2c085ccefcf", "fusion_lon": 0.0, "lon": -77.038675, "name": "436dc19c65a54261ebeeb2c085ccefcf", "is_disabled": 0, "rental_uris": {"android": "https://dc.lft.to/lastmile_qr_scan", "ios": "https://dc.lft.to/lastmile_qr_scan"}, "type": "electric_scooter", "lat": 38.918228666666664, "is_reserved": 0, "fusion_lat": 0.0}, {"bike_id": "7c101d4d12f5265757db2ba0f70f7f22", "fusion_lon": 0.0, "lon": -77.01294716666666, "name": "7c101d4d12f5265757db2ba0f70f7f22", "is_disabled": 0, "rental_uris": {"android": "https://dc.lft.to/lastmile_qr_scan", "ios": "https://dc.lft.to/lastmile_qr_scan"}, "type": "electric_scooter", "lat": 38.91396966666667, "is_reserved": 0, "fusion_lat": 0.0}, {"bike_id": "25406c704d6b637722c94a258817c28e", "fusion_lon": 0.0, "lon": -77.02178083333334, "name": "25406c704d6b637722c94a258817c28e", "is_disabled": 0, "rental_uris": {"android": "https://dc.lft.to/lastmile_qr_scan", "ios": "https://dc.lft.to/lastmile_qr_scan"}, "type": "electric_scooter", "lat": 38.910513333333334, "is_reserved": 0, "fusion_lat": 0.0}, {"bike_id": "e391ef948948c9594ec75dbad6e063cf", "fusion_lon": 0.0, "lon": -77.03480733333333, "name": "e391ef948948c9594ec75dbad6e063cf", "is_disabled": 0, "rental_uris": {"android": "https://dc.lft.to/lastmile_qr_scan", "ios": "https://dc.lft.to/lastmile_qr_scan"}, "type": "electric_scooter", "lat": 38.90069283333333, "is_reserved": 0, "fusion_lat": 0.0}, {"bike_id": "5cd48b5952986bb08fa5f6cec4febb20", "fusion_lon": 0.0, "lon": -77.00681716666666, "name": "5cd48b5952986bb08fa5f6cec4febb20", "is_disabled": 0, "rental_uris": {"android": "https://dc.lft.to/lastmile_qr_scan", "ios": "https://dc.lft.to/lastmile_qr_scan"}, "type": "electric_scooter", "lat": 38.90012483333334, "is_reserved": 0, "fusion_lat": 0.0}, {"bike_id": "ff25a16906884f7de3c8ec95d6c9b36a", "fusion_lon": 0.0, "lon": -77.018163, "name": "ff25a16906884f7de3c8ec95d6c9b36a", "is_disabled": 0, "rental_uris": {"android": "https://dc.lft.to/lastmile_qr_scan", "ios": "https://dc.lft.to/lastmile_qr_scan"}, "type": "electric_scooter", "lat": 38.923686333333336, "is_reserved": 0, "fusion_lat": 0.0}, {"bike_id": "9fbfbb6ed471114cbfab806ee84fa0c5", "fusion_lon": 0.0, "lon": -77.05094033333333, "name": "9fbfbb6ed471114cbfab806ee84fa0c5", "is_disabled": 0, "rental_uris": {"android": "https://dc.lft.to/lastmile_qr_scan", "ios": "https://dc.lft.to/lastmile_qr_scan"}, "type": "electric_scooter", "lat": 38.923406, "is_reserved": 0, "fusion_lat": 0.0}, {"bike_id": "c404e1a27f24e2b7622d2438729259f6", "fusion_lon": 0.0, "lon": -77.011995, "name": "c404e1a27f24e2b7622d2438729259f6", "is_disabled": 0, "rental_uris": {"android": "https://dc.lft.to/lastmile_qr_scan", "ios": "https://dc.lft.to/lastmile_qr_scan"}, "type": "electric_scooter", "lat": 38.90009516666667, "is_reserved": 0, "fusion_lat": 0.0}, {"bike_id": "6b7a0d203fd07032cd00f8e445da693b", "fusion_lon": 0.0, "lon": -77.028156, "name": "6b7a0d203fd07032cd00f8e445da693b", "is_disabled": 0, "rental_uris": {"android": "https://dc.lft.to/lastmile_qr_scan", "ios": "https://dc.lft.to/lastmile_qr_scan"}, "type": "electric_scooter", "lat": 38.916879, "is_reserved": 0, "fusion_lat": 0.0}, {"bike_id": "dec8f834eda53bed7c1cb1c9c2c58c7f", "fusion_lon": 0.0, "lon": -76.99775633333333, "name": "dec8f834eda53bed7c1cb1c9c2c58c7f", "is_disabled": 0, "rental_uris": {"android": "https://dc.lft.to/lastmile_qr_scan", "ios": "https://dc.lft.to/lastmile_qr_scan"}, "type": "electric_bike", "lat": 38.862139, "is_reserved": 0, "fusion_lat": 0.0}, {"bike_id": "4180f8ec5ace3fe4d6a7357908a7a603", "fusion_lon": 0.0, "lon": -77.06504666666666, "name": "4180f8ec5ace3fe4d6a7357908a7a603", "is_disabled": 0, "rental_uris": {"android": "https://dc.lft.to/lastmile_qr_scan", "ios": "https://dc.lft.to/lastmile_qr_scan"}, "type": "electric_bike", "lat": 38.968725166666665, "is_reserved": 0, "fusion_lat": 0.0}, {"bike_id": "1c695ea08ac349522aaeaf97bfa1a9b3", "fusion_lon": 0.0, "lon": -77.03891283333333, "name": "1c695ea08ac349522aaeaf97bfa1a9b3", "is_disabled": 0, "rental_uris": {"android": "https://dc.lft.to/lastmile_qr_scan", "ios": "https://dc.lft.to/lastmile_qr_scan"}, "type": "electric_scooter", "lat": 38.906493166666664, "is_reserved": 0, "fusion_lat": 0.0}, {"bike_id": "d6b013e2ff21a9649ab0bd6c5c0eafc7", "fusion_lon": 0.0, "lon": -77.013647, "name": "d6b013e2ff21a9649ab0bd6c5c0eafc7", "is_disabled": 0, "rental_uris": {"android": "https://dc.lft.to/lastmile_qr_scan", "ios": "https://dc.lft.to/lastmile_qr_scan"}, "type": "electric_scooter", "lat": 38.928905666666665, "is_reserved": 0, "fusion_lat": 0.0}, {"bike_id": "d02282b526126ff7be297e606ead0ce7", "fusion_lon": 0.0, "lon": -76.949316, "name": "d02282b526126ff7be297e606ead0ce7", "is_disabled": 0, "rental_uris": {"android": "https://dc.lft.to/lastmile_qr_scan", "ios": "https://dc.lft.to/lastmile_qr_scan"}, "type": "electric_scooter", "lat": 38.89348533333333, "is_reserved": 0, "fusion_lat": 0.0}, {"bike_id": "67f37bd651c321bccd3cf7770ca78d40", "fusion_lon": 0.0, "lon": -77.0220835, "name": "67f37bd651c321bccd3cf7770ca78d40", "is_disabled": 0, "rental_uris": {"android": "https://dc.lft.to/lastmile_qr_scan", "ios": "https://dc.lft.to/lastmile_qr_scan"}, "type": "electric_scooter", "lat": 38.8874945, "is_reserved": 0, "fusion_lat": 0.0}, {"bike_id": "c5158eeca0d2ca66f820b52ac9f529eb", "fusion_lon": 0.0, "lon": -77.03233166666666, "name": "c5158eeca0d2ca66f820b52ac9f529eb", "is_disabled": 0, "rental_uris": {"android": "https://dc.lft.to/lastmile_qr_scan", "ios": "https://dc.lft.to/lastmile_qr_scan"}, "type": "electric_scooter", "lat": 38.89997483333333, "is_reserved": 0, "fusion_lat": 0.0}, {"bike_id": "5f6a4a742dd726c97af2460089a0e3c0", "fusion_lon": 0.0, "lon": -77.04685316666666, "name": "5f6a4a742dd726c97af2460089a0e3c0", "is_disabled": 0, "rental_uris": {"android": "https://dc.lft.to/lastmile_qr_scan", "ios": "https://dc.lft.to/lastmile_qr_scan"}, "type": "electric_scooter", "lat": 38.89222633333333, "is_reserved": 0, "fusion_lat": 0.0}, {"bike_id": "05a8b11b6b17856f6fc9a765debfef6f", "fusion_lon": 0.0, "lon": -77.021754, "name": "05a8b11b6b17856f6fc9a765debfef6f", "is_disabled": 0, "rental_uris": {"android": "https://dc.lft.to/lastmile_qr_scan", "ios": "https://dc.lft.to/lastmile_qr_scan"}, "type": "electric_scooter", "lat": 38.92493416666667, "is_reserved": 0, "fusion_lat": 0.0}, {"bike_id": "acdfe615d9edae4441d5fbbc0b283de5", "fusion_lon": 0.0, "lon": -76.96906033333333, "name": "acdfe615d9edae4441d5fbbc0b283de5", "is_disabled": 0, "rental_uris": {"android": "https://dc.lft.to/lastmile_qr_scan", "ios": "https://dc.lft.to/lastmile_qr_scan"}, "type": "electric_bike", "lat": 38.846104, "is_reserved": 0, "fusion_lat": 0.0}, {"bike_id": "6010eab4b8ab29e0180befc5f9396264", "fusion_lon": 0.0, "lon": -77.0451535, "name": "6010eab4b8ab29e0180befc5f9396264", "is_disabled": 0, "rental_uris": {"android": "https://dc.lft.to/lastmile_qr_scan", "ios": "https://dc.lft.to/lastmile_qr_scan"}, "type": "electric_bike", "lat": 38.84285366666667, "is_reserved": 0, "fusion_lat": 0.0}, {"bike_id": "9796218aefb0baeb2c038e05ac4fb259", "fusion_lon": 0.0, "lon": -77.026272, "name": "9796218aefb0baeb2c038e05ac4fb259", "is_disabled": 0, "rental_uris": {"android": "https://dc.lft.to/lastmile_qr_scan", "ios": "https://dc.lft.to/lastmile_qr_scan"}, "type": "electric_scooter", "lat": 38.89220366666667, "is_reserved": 0, "fusion_lat": 0.0}, {"bike_id": "ca82ab50938aedf0271c31cf61c0cd50", "fusion_lon": 0.0, "lon": -77.04277933333333, "name": "ca82ab50938aedf0271c31cf61c0cd50", "is_disabled": 0, "rental_uris": {"android": "https://dc.lft.to/lastmile_qr_scan", "ios": "https://dc.lft.to/lastmile_qr_scan"}, "type": "electric_scooter", "lat": 38.90861, "is_reserved": 0, "fusion_lat": 0.0}, {"bike_id": "a609364416ffe223a596f7d7bf4bc7a8", "fusion_lon": 0.0, "lon": -77.0426935, "name": "a609364416ffe223a596f7d7bf4bc7a8", "is_disabled": 0, "rental_uris": {"android": "https://dc.lft.to/lastmile_qr_scan", "ios": "https://dc.lft.to/lastmile_qr_scan"}, "type": "electric_scooter", "lat": 38.92302383333333, "is_reserved": 0, "fusion_lat": 0.0}, {"bike_id": "e76e1e28a0c346ff19663613b71541a4", "fusion_lon": 0.0, "lon": -77.05922333333334, "name": "e76e1e28a0c346ff19663613b71541a4", "is_disabled": 0, "rental_uris": {"android": "https://dc.lft.to/lastmile_qr_scan", "ios": "https://dc.lft.to/lastmile_qr_scan"}, "type": "electric_scooter", "lat": 38.91139066666667, "is_reserved": 0, "fusion_lat": 0.0}, {"bike_id": "03d43e90e1610d4c5ad91967eb4e24a8", "fusion_lon": 0.0, "lon": -76.986046, "name": "03d43e90e1610d4c5ad91967eb4e24a8", "is_disabled": 0, "rental_uris": {"android": "https://dc.lft.to/lastmile_qr_scan", "ios": "https://dc.lft.to/lastmile_qr_scan"}, "type": "electric_scooter", "lat": 38.87833066666666, "is_reserved": 0, "fusion_lat": 0.0}, {"bike_id": "f37873e4a3887b0f5f387a1cf42b8f66", "fusion_lon": 0.0, "lon": -77.03101816666667, "name": "f37873e4a3887b0f5f387a1cf42b8f66", "is_disabled": 0, "rental_uris": {"android": "https://dc.lft.to/lastmile_qr_scan", "ios": "https://dc.lft.to/lastmile_qr_scan"}, "type": "electric_scooter", "lat": 38.950793833333336, "is_reserved": 0, "fusion_lat": 0.0}, {"bike_id": "5398dc5ff1896d7c7dd704d602c82c0b", "fusion_lon": 0.0, "lon": -77.08394033333333, "name": "5398dc5ff1896d7c7dd704d602c82c0b", "is_disabled": 0, "rental_uris": {"android": "https://dc.lft.to/lastmile_qr_scan", "ios": "https://dc.lft.to/lastmile_qr_scan"}, "type": "electric_scooter", "lat": 38.908057166666666, "is_reserved": 0, "fusion_lat": 0.0}, {"bike_id": "da1dddcceab5de8e8dcbeddfa54c1114", "fusion_lon": 0.0, "lon": -76.99850483333333, "name": "da1dddcceab5de8e8dcbeddfa54c1114", "is_disabled": 0, "rental_uris": {"android": "https://dc.lft.to/lastmile_qr_scan", "ios": "https://dc.lft.to/lastmile_qr_scan"}, "type": "electric_scooter", "lat": 38.900720166666666, "is_reserved": 0, "fusion_lat": 0.0}, {"bike_id": "27262734cf6f33be6f224df8a0cd8079", "fusion_lon": 0.0, "lon": -76.98828283333333, "name": "27262734cf6f33be6f224df8a0cd8079", "is_disabled": 0, "rental_uris": {"android": "https://dc.lft.to/lastmile_qr_scan", "ios": "https://dc.lft.to/lastmile_qr_scan"}, "type": "electric_scooter", "lat": 38.90033533333333, "is_reserved": 0, "fusion_lat": 0.0}, {"bike_id": "51401fcd33cb91c3054d49911be6d995", "fusion_lon": 0.0, "lon": -77.03853983333333, "name": "51401fcd33cb91c3054d49911be6d995", "is_disabled": 0, "rental_uris": {"android": "https://dc.lft.to/lastmile_qr_scan", "ios": "https://dc.lft.to/lastmile_qr_scan"}, "type": "electric_scooter", "lat": 38.90388683333333, "is_reserved": 0, "fusion_lat": 0.0}, {"bike_id": "69998fb6ca2af5e7867904ed85bb610a", "fusion_lon": 0.0, "lon": -77.04678566666666, "name": "69998fb6ca2af5e7867904ed85bb610a", "is_disabled": 0, "rental_uris": {"android": "https://dc.lft.to/lastmile_qr_scan", "ios": "https://dc.lft.to/lastmile_qr_scan"}, "type": "electric_scooter", "lat": 38.90207683333333, "is_reserved": 0, "fusion_lat": 0.0}, {"bike_id": "ed15dd03c2fa436e05110d864f9530e8", "fusion_lon": 0.0, "lon": -77.04488383333333, "name": "ed15dd03c2fa436e05110d864f9530e8", "is_disabled": 0, "rental_uris": {"android": "https://dc.lft.to/lastmile_qr_scan", "ios": "https://dc.lft.to/lastmile_qr_scan"}, "type": "electric_scooter", "lat": 38.911130666666665, "is_reserved": 0, "fusion_lat": 0.0}, {"bike_id": "164eccba8c519be60fcb3b686b4fd2e8", "fusion_lon": 0.0, "lon": -76.974166, "name": "164eccba8c519be60fcb3b686b4fd2e8", "is_disabled": 0, "rental_uris": {"android": "https://dc.lft.to/lastmile_qr_scan", "ios": "https://dc.lft.to/lastmile_qr_scan"}, "type": "electric_scooter", "lat": 38.9044985, "is_reserved": 0, "fusion_lat": 0.0}, {"bike_id": "1d0704a585daedf91392f8519516dc80", "fusion_lon": 0.0, "lon": -77.0948195, "name": "1d0704a585daedf91392f8519516dc80", "is_disabled": 0, "rental_uris": {"android": "https://dc.lft.to/lastmile_qr_scan", "ios": "https://dc.lft.to/lastmile_qr_scan"}, "type": "electric_bike", "lat": 39.0304635, "is_reserved": 0, "fusion_lat": 0.0}, {"bike_id": "543f73782278d80174f89c178bf8f5c5", "fusion_lon": 0.0, "lon": -77.02068216666666, "name": "543f73782278d80174f89c178bf8f5c5", "is_disabled": 0, "rental_uris": {"android": "https://dc.lft.to/lastmile_qr_scan", "ios": "https://dc.lft.to/lastmile_qr_scan"}, "type": "electric_scooter", "lat": 38.87573716666667, "is_reserved": 0, "fusion_lat": 0.0}, {"bike_id": "6bf2c5492dfdacc3123f1fe64ad901a7", "fusion_lon": 0.0, "lon": -77.0294325, "name": "6bf2c5492dfdacc3123f1fe64ad901a7", "is_disabled": 0, "rental_uris": {"android": "https://dc.lft.to/lastmile_qr_scan", "ios": "https://dc.lft.to/lastmile_qr_scan"}, "type": "electric_scooter", "lat": 38.905017666666666, "is_reserved": 0, "fusion_lat": 0.0}, {"bike_id": "13d024360afd231b933109964798d0e3", "fusion_lon": 0.0, "lon": -77.03210833333333, "name": "13d024360afd231b933109964798d0e3", "is_disabled": 0, "rental_uris": {"android": "https://dc.lft.to/lastmile_qr_scan", "ios": "https://dc.lft.to/lastmile_qr_scan"}, "type": "electric_scooter", "lat": 38.914862, "is_reserved": 0, "fusion_lat": 0.0}, {"bike_id": "db189801781eecd54613befc671c54d3", "fusion_lon": 0.0, "lon": -77.01995383333333, "name": "db189801781eecd54613befc671c54d3", "is_disabled": 0, "rental_uris": {"android": "https://dc.lft.to/lastmile_qr_scan", "ios": "https://dc.lft.to/lastmile_qr_scan"}, "type": "electric_scooter", "lat": 38.8848115, "is_reserved": 0, "fusion_lat": 0.0}, {"bike_id": "a781541a752345613436e141f28c6c48", "fusion_lon": 0.0, "lon": -77.0269215, "name": "a781541a752345613436e141f28c6c48", "is_disabled": 0, "rental_uris": {"android": "https://dc.lft.to/lastmile_qr_scan", "ios": "https://dc.lft.to/lastmile_qr_scan"}, "type": "electric_scooter", "lat": 38.908667333333334, "is_reserved": 0, "fusion_lat": 0.0}, {"bike_id": "9db55b43fb73dade02a0a8f07148e222", "fusion_lon": 0.0, "lon": -77.02332916666667, "name": "9db55b43fb73dade02a0a8f07148e222", "is_disabled": 0, "rental_uris": {"android": "https://dc.lft.to/lastmile_qr_scan", "ios": "https://dc.lft.to/lastmile_qr_scan"}, "type": "electric_scooter", "lat": 38.92477083333333, "is_reserved": 0, "fusion_lat": 0.0}, {"bike_id": "a3364687ac19267a2266f47c60f5d748", "fusion_lon": 0.0, "lon": -77.04383533333333, "name": "a3364687ac19267a2266f47c60f5d748", "is_disabled": 0, "rental_uris": {"android": "https://dc.lft.to/lastmile_qr_scan", "ios": "https://dc.lft.to/lastmile_qr_scan"}, "type": "electric_scooter", "lat": 38.92052016666667, "is_reserved": 0, "fusion_lat": 0.0}, {"bike_id": "4f40a0b9179b299334155ccd03a83ea5", "fusion_lon": 0.0, "lon": -77.02716266666667, "name": "4f40a0b9179b299334155ccd03a83ea5", "is_disabled": 0, "rental_uris": {"android": "https://dc.lft.to/lastmile_qr_scan", "ios": "https://dc.lft.to/lastmile_qr_scan"}, "type": "electric_scooter", "lat": 38.9068765, "is_reserved": 0, "fusion_lat": 0.0}, {"bike_id": "6a594f9fa69a129f66d51e0027a8d0bd", "fusion_lon": 0.0, "lon": -77.04535616666666, "name": "6a594f9fa69a129f66d51e0027a8d0bd", "is_disabled": 0, "rental_uris": {"android": "https://dc.lft.to/lastmile_qr_scan", "ios": "https://dc.lft.to/lastmile_qr_scan"}, "type": "electric_scooter", "lat": 38.90275883333333, "is_reserved": 0, "fusion_lat": 0.0}, {"bike_id": "15d727d314709d668deaa5a9c9246148", "fusion_lon": 0.0, "lon": -77.029625, "name": "15d727d314709d668deaa5a9c9246148", "is_disabled": 0, "rental_uris": {"android": "https://dc.lft.to/lastmile_qr_scan", "ios": "https://dc.lft.to/lastmile_qr_scan"}, "type": "electric_scooter", "lat": 38.90721283333333, "is_reserved": 0, "fusion_lat": 0.0}, {"bike_id": "b2ec5d1ab2e7aa1e2fb64b8dece28774", "fusion_lon": 0.0, "lon": -77.016055, "name": "b2ec5d1ab2e7aa1e2fb64b8dece28774", "is_disabled": 0, "rental_uris": {"android": "https://dc.lft.to/lastmile_qr_scan", "ios": "https://dc.lft.to/lastmile_qr_scan"}, "type": "electric_scooter", "lat": 38.912766833333336, "is_reserved": 0, "fusion_lat": 0.0}, {"bike_id": "210bc6b0fcc489da74c6bae3c76fc1e8", "fusion_lon": 0.0, "lon": -77.02711733333334, "name": "210bc6b0fcc489da74c6bae3c76fc1e8", "is_disabled": 0, "rental_uris": {"android": "https://dc.lft.to/lastmile_qr_scan", "ios": "https://dc.lft.to/lastmile_qr_scan"}, "type": "electric_scooter", "lat": 38.900774166666665, "is_reserved": 0, "fusion_lat": 0.0}, {"bike_id": "1fee17092572900a17074127deea121d", "fusion_lon": 0.0, "lon": -77.04137333333334, "name": "1fee17092572900a17074127deea121d", "is_disabled": 0, "rental_uris": {"android": "https://dc.lft.to/lastmile_qr_scan", "ios": "https://dc.lft.to/lastmile_qr_scan"}, "type": "electric_scooter", "lat": 38.90131733333333, "is_reserved": 0, "fusion_lat": 0.0}, {"bike_id": "f3d040e1972bb64eea61ed6384808804", "fusion_lon": 0.0, "lon": -77.02609416666667, "name": "f3d040e1972bb64eea61ed6384808804", "is_disabled": 0, "rental_uris": {"android": "https://dc.lft.to/lastmile_qr_scan", "ios": "https://dc.lft.to/lastmile_qr_scan"}, "type": "electric_scooter", "lat": 38.8944035, "is_reserved": 0, "fusion_lat": 0.0}, {"bike_id": "52c83c3b590bbb27b942f9d3f4169631", "fusion_lon": 0.0, "lon": -77.04596816666667, "name": "52c83c3b590bbb27b942f9d3f4169631", "is_disabled": 0, "rental_uris": {"android": "https://dc.lft.to/lastmile_qr_scan", "ios": "https://dc.lft.to/lastmile_qr_scan"}, "type": "electric_scooter", "lat": 38.91688583333333, "is_reserved": 0, "fusion_lat": 0.0}, {"bike_id": "5b1ea0cec8ff2864bab577a795b2c401", "fusion_lon": 0.0, "lon": -77.03474416666667, "name": "5b1ea0cec8ff2864bab577a795b2c401", "is_disabled": 0, "rental_uris": {"android": "https://dc.lft.to/lastmile_qr_scan", "ios": "https://dc.lft.to/lastmile_qr_scan"}, "type": "electric_scooter", "lat": 38.90568716666667, "is_reserved": 0, "fusion_lat": 0.0}, {"bike_id": "f497b9a249bda5f0d80caba4f4860e72", "fusion_lon": 0.0, "lon": -76.9594365, "name": "f497b9a249bda5f0d80caba4f4860e72", "is_disabled": 0, "rental_uris": {"android": "https://dc.lft.to/lastmile_qr_scan", "ios": "https://dc.lft.to/lastmile_qr_scan"}, "type": "electric_scooter", "lat": 38.890015166666664, "is_reserved": 0, "fusion_lat": 0.0}, {"bike_id": "939ccb1254b16f4f1187ee65f48cb254", "fusion_lon": 0.0, "lon": -77.01760283333333, "name": "939ccb1254b16f4f1187ee65f48cb254", "is_disabled": 0, "rental_uris": {"android": "https://dc.lft.to/lastmile_qr_scan", "ios": "https://dc.lft.to/lastmile_qr_scan"}, "type": "electric_scooter", "lat": 38.902596, "is_reserved": 0, "fusion_lat": 0.0}, {"bike_id": "17ada30cc6188739f7ec0d0c34395154", "fusion_lon": 0.0, "lon": -77.03895016666667, "name": "17ada30cc6188739f7ec0d0c34395154", "is_disabled": 0, "rental_uris": {"android": "https://dc.lft.to/lastmile_qr_scan", "ios": "https://dc.lft.to/lastmile_qr_scan"}, "type": "electric_scooter", "lat": 38.92203, "is_reserved": 0, "fusion_lat": 0.0}, {"bike_id": "35da0da7b55daff02d52f2aecc4dfb53", "fusion_lon": 0.0, "lon": -77.052644, "name": "35da0da7b55daff02d52f2aecc4dfb53", "is_disabled": 0, "rental_uris": {"android": "https://dc.lft.to/lastmile_qr_scan", "ios": "https://dc.lft.to/lastmile_qr_scan"}, "type": "electric_scooter", "lat": 38.939390333333336, "is_reserved": 0, "fusion_lat": 0.0}, {"bike_id": "083eb2756dc6f262558cbf3d1d65aeac", "fusion_lon": 0.0, "lon": -77.02246166666667, "name": "083eb2756dc6f262558cbf3d1d65aeac", "is_disabled": 0, "rental_uris": {"android": "https://dc.lft.to/lastmile_qr_scan", "ios": "https://dc.lft.to/lastmile_qr_scan"}, "type": "electric_scooter", "lat": 38.8961245, "is_reserved": 0, "fusion_lat": 0.0}, {"bike_id": "08b4b64f64f6cc1e34e8dc730d2313a4", "fusion_lon": 0.0, "lon": -77.016836, "name": "08b4b64f64f6cc1e34e8dc730d2313a4", "is_disabled": 0, "rental_uris": {"android": "https://dc.lft.to/lastmile_qr_scan", "ios": "https://dc.lft.to/lastmile_qr_scan"}, "type": "electric_scooter", "lat": 38.911482666666664, "is_reserved": 0, "fusion_lat": 0.0}, {"bike_id": "ce4aca0e2715b65212c90474e9d2147f", "fusion_lon": 0.0, "lon": -77.023633, "name": "ce4aca0e2715b65212c90474e9d2147f", "is_disabled": 0, "rental_uris": {"android": "https://dc.lft.to/lastmile_qr_scan", "ios": "https://dc.lft.to/lastmile_qr_scan"}, "type": "electric_scooter", "lat": 38.91946733333333, "is_reserved": 0, "fusion_lat": 0.0}, {"bike_id": "7a22c9e62a131b807681d01dd252d944", "fusion_lon": 0.0, "lon": -77.02145816666666, "name": "7a22c9e62a131b807681d01dd252d944", "is_disabled": 0, "rental_uris": {"android": "https://dc.lft.to/lastmile_qr_scan", "ios": "https://dc.lft.to/lastmile_qr_scan"}, "type": "electric_scooter", "lat": 38.9096005, "is_reserved": 0, "fusion_lat": 0.0}, {"bike_id": "8bbd34aa2dba957a7590003d63fc0dad", "fusion_lon": 0.0, "lon": -76.99689416666666, "name": "8bbd34aa2dba957a7590003d63fc0dad", "is_disabled": 0, "rental_uris": {"android": "https://dc.lft.to/lastmile_qr_scan", "ios": "https://dc.lft.to/lastmile_qr_scan"}, "type": "electric_bike", "lat": 38.838642166666666, "is_reserved": 0, "fusion_lat": 0.0}, {"bike_id": "f7754f7653d57d95a28318a089528f46", "fusion_lon": 0.0, "lon": -77.04893216666666, "name": "f7754f7653d57d95a28318a089528f46", "is_disabled": 0, "rental_uris": {"android": "https://dc.lft.to/lastmile_qr_scan", "ios": "https://dc.lft.to/lastmile_qr_scan"}, "type": "electric_scooter", "lat": 38.900720666666665, "is_reserved": 0, "fusion_lat": 0.0}, {"bike_id": "2099b40a1bebd1b618842d31a96ac00b", "fusion_lon": 0.0, "lon": -77.02365916666666, "name": "2099b40a1bebd1b618842d31a96ac00b", "is_disabled": 0, "rental_uris": {"android": "https://dc.lft.to/lastmile_qr_scan", "ios": "https://dc.lft.to/lastmile_qr_scan"}, "type": "electric_scooter", "lat": 38.892228333333335, "is_reserved": 0, "fusion_lat": 0.0}, {"bike_id": "1aa1dad2e30d796c4cdb14d351f8ed04", "fusion_lon": 0.0, "lon": -77.02516483333333, "name": "1aa1dad2e30d796c4cdb14d351f8ed04", "is_disabled": 0, "rental_uris": {"android": "https://dc.lft.to/lastmile_qr_scan", "ios": "https://dc.lft.to/lastmile_qr_scan"}, "type": "electric_scooter", "lat": 38.946252333333334, "is_reserved": 0, "fusion_lat": 0.0}, {"bike_id": "9cf033dac7e98643581eedfccfc171b5", "fusion_lon": 0.0, "lon": -76.953666, "name": "9cf033dac7e98643581eedfccfc171b5", "is_disabled": 0, "rental_uris": {"android": "https://dc.lft.to/lastmile_qr_scan", "ios": "https://dc.lft.to/lastmile_qr_scan"}, "type": "electric_scooter", "lat": 38.89208, "is_reserved": 0, "fusion_lat": 0.0}, {"bike_id": "db84fc632de5aea83a734100bfa2d1d0", "fusion_lon": 0.0, "lon": -77.05394583333333, "name": "db84fc632de5aea83a734100bfa2d1d0", "is_disabled": 0, "rental_uris": {"android": "https://dc.lft.to/lastmile_qr_scan", "ios": "https://dc.lft.to/lastmile_qr_scan"}, "type": "electric_scooter", "lat": 38.928121166666664, "is_reserved": 0, "fusion_lat": 0.0}, {"bike_id": "13ba29251d0600c6df00b6c23b15a4b3", "fusion_lon": 0.0, "lon": -77.03193616666667, "name": "13ba29251d0600c6df00b6c23b15a4b3", "is_disabled": 0, "rental_uris": {"android": "https://dc.lft.to/lastmile_qr_scan", "ios": "https://dc.lft.to/lastmile_qr_scan"}, "type": "electric_scooter", "lat": 38.93067716666667, "is_reserved": 0, "fusion_lat": 0.0}, {"bike_id": "502be5788f241c6404c1de13d6cdfa73", "fusion_lon": 0.0, "lon": -77.019437, "name": "502be5788f241c6404c1de13d6cdfa73", "is_disabled": 0, "rental_uris": {"android": "https://dc.lft.to/lastmile_qr_scan", "ios": "https://dc.lft.to/lastmile_qr_scan"}, "type": "electric_scooter", "lat": 38.92419566666667, "is_reserved": 0, "fusion_lat": 0.0}, {"bike_id": "4d38a88efb60701c825e713aca877af3", "fusion_lon": 0.0, "lon": -76.98710133333333, "name": "4d38a88efb60701c825e713aca877af3", "is_disabled": 0, "rental_uris": {"android": "https://dc.lft.to/lastmile_qr_scan", "ios": "https://dc.lft.to/lastmile_qr_scan"}, "type": "electric_scooter", "lat": 38.867001333333334, "is_reserved": 0, "fusion_lat": 0.0}, {"bike_id": "3bb96489ad103acc4bbc206a5b871b63", "fusion_lon": 0.0, "lon": -77.01185233333334, "name": "3bb96489ad103acc4bbc206a5b871b63", "is_disabled": 0, "rental_uris": {"android": "https://dc.lft.to/lastmile_qr_scan", "ios": "https://dc.lft.to/lastmile_qr_scan"}, "type": "electric_scooter", "lat": 38.915436166666666, "is_reserved": 0, "fusion_lat": 0.0}, {"bike_id": "9fad9a858e6bc738bf88cb188684abe0", "fusion_lon": 0.0, "lon": -76.99847233333334, "name": "9fad9a858e6bc738bf88cb188684abe0", "is_disabled": 0, "rental_uris": {"android": "https://dc.lft.to/lastmile_qr_scan", "ios": "https://dc.lft.to/lastmile_qr_scan"}, "type": "electric_scooter", "lat": 38.907342, "is_reserved": 0, "fusion_lat": 0.0}, {"bike_id": "d65e7886f88ba30e879d311f04bdf266", "fusion_lon": 0.0, "lon": -77.03652366666667, "name": "d65e7886f88ba30e879d311f04bdf266", "is_disabled": 0, "rental_uris": {"android": "https://dc.lft.to/lastmile_qr_scan", "ios": "https://dc.lft.to/lastmile_qr_scan"}, "type": "electric_scooter", "lat": 38.92981533333333, "is_reserved": 0, "fusion_lat": 0.0}, {"bike_id": "8da7d13ff64c400dccd9b294135beef8", "fusion_lon": 0.0, "lon": -76.9978005, "name": "8da7d13ff64c400dccd9b294135beef8", "is_disabled": 0, "rental_uris": {"android": "https://dc.lft.to/lastmile_qr_scan", "ios": "https://dc.lft.to/lastmile_qr_scan"}, "type": "electric_scooter", "lat": 38.90906366666667, "is_reserved": 0, "fusion_lat": 0.0}, {"bike_id": "c43006e2bc5f7fc9e0805e30211e3b8a", "fusion_lon": 0.0, "lon": -77.08938166666667, "name": "c43006e2bc5f7fc9e0805e30211e3b8a", "is_disabled": 0, "rental_uris": {"android": "https://dc.lft.to/lastmile_qr_scan", "ios": "https://dc.lft.to/lastmile_qr_scan"}, "type": "electric_bike", "lat": 38.84100983333333, "is_reserved": 0, "fusion_lat": 0.0}, {"bike_id": "c6c5f6264d28a276069462fa4832303e", "fusion_lon": 0.0, "lon": -77.00357233333334, "name": "c6c5f6264d28a276069462fa4832303e", "is_disabled": 0, "rental_uris": {"android": "https://dc.lft.to/lastmile_qr_scan", "ios": "https://dc.lft.to/lastmile_qr_scan"}, "type": "electric_scooter", "lat": 38.886042333333336, "is_reserved": 0, "fusion_lat": 0.0}, {"bike_id": "b3c2217b2395166c1022465fe20bec90", "fusion_lon": 0.0, "lon": -77.04672, "name": "b3c2217b2395166c1022465fe20bec90", "is_disabled": 0, "rental_uris": {"android": "https://dc.lft.to/lastmile_qr_scan", "ios": "https://dc.lft.to/lastmile_qr_scan"}, "type": "electric_scooter", "lat": 38.89948366666667, "is_reserved": 0, "fusion_lat": 0.0}, {"bike_id": "72dd8808701da927da5e0d2d0bbeea65", "fusion_lon": 0.0, "lon": -77.021966, "name": "72dd8808701da927da5e0d2d0bbeea65", "is_disabled": 0, "rental_uris": {"android": "https://dc.lft.to/lastmile_qr_scan", "ios": "https://dc.lft.to/lastmile_qr_scan"}, "type": "electric_scooter", "lat": 38.91014, "is_reserved": 0, "fusion_lat": 0.0}, {"bike_id": "71696a8440736f5ad8df0f7a87485444", "fusion_lon": 0.0, "lon": -77.034426, "name": "71696a8440736f5ad8df0f7a87485444", "is_disabled": 0, "rental_uris": {"android": "https://dc.lft.to/lastmile_qr_scan", "ios": "https://dc.lft.to/lastmile_qr_scan"}, "type": "electric_scooter", "lat": 38.909476833333336, "is_reserved": 0, "fusion_lat": 0.0}, {"bike_id": "105e892c468d45a2d96d7e07dbb473db", "fusion_lon": 0.0, "lon": -77.1159645, "name": "105e892c468d45a2d96d7e07dbb473db", "is_disabled": 0, "rental_uris": {"android": "https://dc.lft.to/lastmile_qr_scan", "ios": "https://dc.lft.to/lastmile_qr_scan"}, "type": "electric_bike", "lat": 39.074951166666665, "is_reserved": 0, "fusion_lat": 0.0}, {"bike_id": "e501458e0154a05f1dbe9c72165ca79b", "fusion_lon": 0.0, "lon": -77.05086366666667, "name": "e501458e0154a05f1dbe9c72165ca79b", "is_disabled": 0, "rental_uris": {"android": "https://dc.lft.to/lastmile_qr_scan", "ios": "https://dc.lft.to/lastmile_qr_scan"}, "type": "electric_bike", "lat": 38.813355666666666, "is_reserved": 0, "fusion_lat": 0.0}, {"bike_id": "e8c8203df172902c35f5211f094dbb3b", "fusion_lon": 0.0, "lon": -77.01654633333334, "name": "e8c8203df172902c35f5211f094dbb3b", "is_disabled": 0, "rental_uris": {"android": "https://dc.lft.to/lastmile_qr_scan", "ios": "https://dc.lft.to/lastmile_qr_scan"}, "type": "electric_scooter", "lat": 38.88115033333333, "is_reserved": 0, "fusion_lat": 0.0}, {"bike_id": "8329224e95d26a2c598992525017f0f6", "fusion_lon": 0.0, "lon": -77.02711316666667, "name": "8329224e95d26a2c598992525017f0f6", "is_disabled": 0, "rental_uris": {"android": "https://dc.lft.to/lastmile_qr_scan", "ios": "https://dc.lft.to/lastmile_qr_scan"}, "type": "electric_scooter", "lat": 38.881336833333336, "is_reserved": 0, "fusion_lat": 0.0}, {"bike_id": "13726b11c0441622334d17fc493f14c7", "fusion_lon": 0.0, "lon": -77.03136866666667, "name": "13726b11c0441622334d17fc493f14c7", "is_disabled": 0, "rental_uris": {"android": "https://dc.lft.to/lastmile_qr_scan", "ios": "https://dc.lft.to/lastmile_qr_scan"}, "type": "electric_scooter", "lat": 38.923719166666665, "is_reserved": 0, "fusion_lat": 0.0}, {"bike_id": "e1defc3cd0254f59cf5bb343825e7321", "fusion_lon": 0.0, "lon": -77.02835166666667, "name": "e1defc3cd0254f59cf5bb343825e7321", "is_disabled": 0, "rental_uris": {"android": "https://dc.lft.to/lastmile_qr_scan", "ios": "https://dc.lft.to/lastmile_qr_scan"}, "type": "electric_scooter", "lat": 38.924850666666664, "is_reserved": 0, "fusion_lat": 0.0}, {"bike_id": "6fc2791ae20f3bd98da75547e21a6311", "fusion_lon": 0.0, "lon": -77.01881883333333, "name": "6fc2791ae20f3bd98da75547e21a6311", "is_disabled": 0, "rental_uris": {"android": "https://dc.lft.to/lastmile_qr_scan", "ios": "https://dc.lft.to/lastmile_qr_scan"}, "type": "electric_scooter", "lat": 38.92264633333333, "is_reserved": 0, "fusion_lat": 0.0}, {"bike_id": "98671a9907a1226cb1f177e01805bd19", "fusion_lon": 0.0, "lon": -77.04861133333333, "name": "98671a9907a1226cb1f177e01805bd19", "is_disabled": 0, "rental_uris": {"android": "https://dc.lft.to/lastmile_qr_scan", "ios": "https://dc.lft.to/lastmile_qr_scan"}, "type": "electric_scooter", "lat": 38.8922195, "is_reserved": 0, "fusion_lat": 0.0}, {"bike_id": "17dfe1cee6eaf802e3e0d78700663d86", "fusion_lon": 0.0, "lon": -77.05901483333334, "name": "17dfe1cee6eaf802e3e0d78700663d86", "is_disabled": 0, "rental_uris": {"android": "https://dc.lft.to/lastmile_qr_scan", "ios": "https://dc.lft.to/lastmile_qr_scan"}, "type": "electric_scooter", "lat": 38.903109, "is_reserved": 0, "fusion_lat": 0.0}, {"bike_id": "2da6dca42e440bc0c8eae944345b0381", "fusion_lon": 0.0, "lon": -76.99000583333333, "name": "2da6dca42e440bc0c8eae944345b0381", "is_disabled": 0, "rental_uris": {"android": "https://dc.lft.to/lastmile_qr_scan", "ios": "https://dc.lft.to/lastmile_qr_scan"}, "type": "electric_scooter", "lat": 38.86419733333334, "is_reserved": 0, "fusion_lat": 0.0}, {"bike_id": "18587bab1ae99dfa7b27e502950415eb", "fusion_lon": 0.0, "lon": -77.00403566666667, "name": "18587bab1ae99dfa7b27e502950415eb", "is_disabled": 0, "rental_uris": {"android": "https://dc.lft.to/lastmile_qr_scan", "ios": "https://dc.lft.to/lastmile_qr_scan"}, "type": "electric_scooter", "lat": 38.9213495, "is_reserved": 0, "fusion_lat": 0.0}, {"bike_id": "045f6274a98df181c173c2960d5c8246", "fusion_lon": 0.0, "lon": -77.05761833333334, "name": "045f6274a98df181c173c2960d5c8246", "is_disabled": 0, "rental_uris": {"android": "https://dc.lft.to/lastmile_qr_scan", "ios": "https://dc.lft.to/lastmile_qr_scan"}, "type": "electric_scooter", "lat": 38.90529633333333, "is_reserved": 0, "fusion_lat": 0.0}, {"bike_id": "2138ee3e655470ff3512a10014775378", "fusion_lon": 0.0, "lon": -77.02182783333333, "name": "2138ee3e655470ff3512a10014775378", "is_disabled": 0, "rental_uris": {"android": "https://dc.lft.to/lastmile_qr_scan", "ios": "https://dc.lft.to/lastmile_qr_scan"}, "type": "electric_scooter", "lat": 38.910565, "is_reserved": 0, "fusion_lat": 0.0}, {"bike_id": "bfbca0326fc56402d6276864c1bf9f4b", "fusion_lon": 0.0, "lon": -77.0372895, "name": "bfbca0326fc56402d6276864c1bf9f4b", "is_disabled": 0, "rental_uris": {"android": "https://dc.lft.to/lastmile_qr_scan", "ios": "https://dc.lft.to/lastmile_qr_scan"}, "type": "electric_scooter", "lat": 38.9357175, "is_reserved": 0, "fusion_lat": 0.0}, {"bike_id": "a77dd52aef877b518239495bdea83524", "fusion_lon": 0.0, "lon": -77.00577866666667, "name": "a77dd52aef877b518239495bdea83524", "is_disabled": 0, "rental_uris": {"android": "https://dc.lft.to/lastmile_qr_scan", "ios": "https://dc.lft.to/lastmile_qr_scan"}, "type": "electric_scooter", "lat": 38.9036805, "is_reserved": 0, "fusion_lat": 0.0}, {"bike_id": "1049c11f4d03affd31e00aec2ffdf017", "fusion_lon": 0.0, "lon": -77.20849183333333, "name": "1049c11f4d03affd31e00aec2ffdf017", "is_disabled": 0, "rental_uris": {"android": "https://dc.lft.to/lastmile_qr_scan", "ios": "https://dc.lft.to/lastmile_qr_scan"}, "type": "electric_bike", "lat": 38.92473016666667, "is_reserved": 0, "fusion_lat": 0.0}, {"bike_id": "5b706cd700266209f755ce0875e026b0", "fusion_lon": 0.0, "lon": -77.02773416666666, "name": "5b706cd700266209f755ce0875e026b0", "is_disabled": 0, "rental_uris": {"android": "https://dc.lft.to/lastmile_qr_scan", "ios": "https://dc.lft.to/lastmile_qr_scan"}, "type": "electric_scooter", "lat": 38.892172, "is_reserved": 0, "fusion_lat": 0.0},