{"data": {"bikes": [{"lat": 38.92969766666667, "is_disabled": 0, "type": "electric_scooter", "lon": -77.03200383333333, "bike_id": "6bbef0bbb618f1e73772522842b85931", "fusion_lat": 0.0, "name": "6bbef0bbb618f1e73772522842b85931", "is_reserved": 0, "rental_uris": {"android": "https://dc.lft.to/lastmile_qr_scan", "ios": "https://dc.lft.to/lastmile_qr_scan"}, "fusion_lon": 0.0}, {"lat": 38.89640966666666, "is_disabled": 0, "type": "electric_scooter", "lon": -77.04667716666667, "bike_id": "ab72b55338ed61d23a92a3a5d231c4d5", "fusion_lat": 0.0, "name": "ab72b55338ed61d23a92a3a5d231c4d5", "is_reserved": 0, "rental_uris": {"android": "https://dc.lft.to/lastmile_qr_scan", "ios": "https://dc.lft.to/lastmile_qr_scan"}, "fusion_lon": 0.0}, {"lat": 38.881345, "is_disabled": 0, "type": "electric_scooter", "lon": -76.98720916666667, "bike_id": "65ec7afa8fcbe895ec2087c4cd96a8cd", "fusion_lat": 0.0, "name": "65ec7afa8fcbe895ec2087c4cd96a8cd", "is_reserved": 0, "rental_uris": {"android": "https://dc.lft.to/lastmile_qr_scan", "ios": "https://dc.lft.to/lastmile_qr_scan"}, "fusion_lon": 0.0}, {"lat": 38.9097335, "is_disabled": 0, "type": "electric_scooter", "lon": -77.0526885, "bike_id": "05a30f0f9280476ad388e4afd3974b4b", "fusion_lat": 0.0, "name": "05a30f0f9280476ad388e4afd3974b4b", "is_reserved": 0, "rental_uris": {"android": "https://dc.lft.to/lastmile_qr_scan", "ios": "https://dc.lft.to/lastmile_qr_scan"}, "fusion_lon": 0.0}, {"lat": 38.92839633333333, "is_disabled": 0, "type": "electric_scooter", "lon": -77.0542015, "bike_id": "ff66adf380a1518ac1e879f295875c15", "fusion_lat": 0.0, "name": "ff66adf380a1518ac1e879f295875c15", "is_reserved": 0, "rental_uris": {"android": "https://dc.lft.to/lastmile_qr_scan", "ios": "https://dc.lft.to/lastmile_qr_scan"}, "fusion_lon": 0.0}, {"lat": 38.9101035, "is_disabled": 0, "type": "electric_scooter", "lon": -77.03016566666666, "bike_id": "9f302a96b32999cd7860ed7544684e69", "fusion_lat": 0.0, "name": "9f302a96b32999cd7860ed7544684e69", "is_reserved": 0, "rental_uris": {"android": "https://dc.lft.to/lastmile_qr_scan", "ios": "https://dc.lft.to/lastmile_qr_scan"}, "fusion_lon": 0.0}, {"lat": 38.917212666666664, "is_disabled": 0, "type": "electric_scooter", "lon": -77.02895066666666, "bike_id": "5ca35436eadbcd683316a10189d0735c", "fusion_lat": 0.0, "name": "5ca35436eadbcd683316a10189d0735c", "is_reserved": 0, "rental_uris": {"android": "https://dc.lft.to/lastmile_qr_scan", "ios": "https://dc.lft.to/lastmile_qr_scan"}, "fusion_lon": 0.0}, {"lat": 38.93058683333334, "is_disabled": 0, "type": "electric_scooter", "lon": -77.03679066666666, "bike_id": "08f83c23cc911cb0b5f199b426d764c6", "fusion_lat": 0.0, "name": "08f83c23cc911cb0b5f199b426d764c6", "is_reserved": 0, "rental_uris": {"android": "https://dc.lft.to/lastmile_qr_scan", "ios": "https://dc.lft.to/lastmile_qr_scan"}, "fusion_lon": 0.0}, {"lat": 38.86661216666667, "is_disabled": 0, "type": "electric_scooter", "lon": -76.98912833333333, "bike_id": "bf87150109665d30099931933115cc26", "fusion_lat": 0.0, "name": "bf87150109665d30099931933115cc26", "is_reserved": 0, "rental_uris": {"android": "https://dc.lft.to/lastmile_qr_scan", "ios": "https://dc.lft.to/lastmile_qr_scan"}, "fusion_lon": 0.0}, {"lat": 38.906463333333335, "is_disabled": 0, "type": "electric_scooter", "lon": -77.00834166666667, "bike_id": "71e6f217b26970bb54fe4685d3527b00", "fusion_lat": 0.0, "name": "71e6f217b26970bb54fe4685d3527b00", "is_reserved": 0, "rental_uris": {"android": "https://dc.lft.to/lastmile_qr_scan", "ios": "https://dc.lft.to/lastmile_qr_scan"}, "fusion_lon": 0.0}, {"lat": 38.938384, "is_disabled": 0, "type": "electric_scooter", "lon": -77.03386783333333, "bike_id": "37334fc397b16bc2688ba70503ae1069", "fusion_lat": 0.0, "name": "37334fc397b16bc2688ba70503ae1069", "is_reserved": 0, "rental_uris": {"android": "https://dc.lft.to/lastmile_qr_scan", "ios": "https://dc.lft.to/lastmile_qr_scan"}, "fusion_lon": 0.0}, {"lat": 38.91706283333333, "is_disabled": 0, "type": "electric_scooter", "lon": -77.03055016666667, "bike_id": "c6d2052eef9d55a2772751e015d4ec7a", "fusion_lat": 0.0, "name": "c6d2052eef9d55a2772751e015d4ec7a", "is_reserved": 0, "rental_uris": {"android": "https://dc.lft.to/lastmile_qr_scan", "ios": "https://dc.lft.to/lastmile_qr_scan"}, "fusion_lon": 0.0}, {"lat": 38.90036383333333, "is_disabled": 0, "type": "electric_scooter", "lon": -77.01612333333334, "bike_id": "91ae08e71b636ec34430351b08dbf8e5", "fusion_lat": 0.0, "name": "91ae08e71b636ec34430351b08dbf8e5", "is_reserved": 0, "rental_uris": {"android": "https://dc.lft.to/lastmile_qr_scan", "ios": "https://dc.lft.to/lastmile_qr_scan"}, "fusion_lon": 0.0}, {"lat": 38.8983945, "is_disabled": 0, "type": "electric_scooter", "lon": -76.931028, "bike_id": "cdab3c3713d398fe3acd3a130a9c6078", "fusion_lat": 0.0, "name": "cdab3c3713d398fe3acd3a130a9c6078", "is_reserved": 0, "rental_uris": {"android": "https://dc.lft.to/lastmile_qr_scan", "ios": "https://dc.lft.to/lastmile_qr_scan"}, "fusion_lon": 0.0}, {"lat": 38.902277, "is_disabled": 0, "type": "electric_scooter", "lon": -77.053325, "bike_id": "fdc9b5e2d2ff66352e78ebbbd5cb63a0", "fusion_lat": 0.0, "name": "fdc9b5e2d2ff66352e78ebbbd5cb63a0", "is_reserved": 0, "rental_uris": {"android": "https://dc.lft.to/lastmile_qr_scan", "ios": "https://dc.lft.to/lastmile_qr_scan"}, "fusion_lon": 0.0}, {"lat": 38.93667416666667, "is_disabled": 0, "type": "electric_scooter", "lon": -77.036502, "bike_id": "8f715fdda2b6b8b680e4f138cf2ae3c6", "fusion_lat": 0.0, "name": "8f715fdda2b6b8b680e4f138cf2ae3c6", "is_reserved": 0, "rental_uris": {"android": "https://dc.lft.to/lastmile_qr_scan", "ios": "https://dc.lft.to/lastmile_qr_scan"}, "fusion_lon": 0.0}, {"lat": 38.9660435, "is_disabled": 0, "type": "electric_bike", "lon": -76.98336133333333, "bike_id": "8bf94d0a6a05c767da60ff9da2f1b4e3", "fusion_lat": 0.0, "name": "8bf94d0a6a05c767da60ff9da2f1b4e3", "is_reserved": 0, "rental_uris": {"android": "https://dc.lft.to/lastmile_qr_scan", "ios": "https://dc.lft.to/lastmile_qr_scan"}, "fusion_lon": 0.0}, {"lat": 38.933556, "is_disabled": 0, "type": "electric_scooter", "lon": -77.07376316666667, "bike_id": "bf94bd371a1c075c21b1ca37886bb842", "fusion_lat": 0.0, "name": "bf94bd371a1c075c21b1ca37886bb842", "is_reserved": 0, "rental_uris": {"android": "https://dc.lft.to/lastmile_qr_scan", "ios": "https://dc.lft.to/lastmile_qr_scan"}, "fusion_lon": 0.0}, {"lat": 38.89246083333333, "is_disabled": 0, "type": "electric_scooter", "lon": -77.04896483333333, "bike_id": "419403702d5568fb4e7340e2baecdf33", "fusion_lat": 0.0, "name": "419403702d5568fb4e7340e2baecdf33", "is_reserved": 0, "rental_uris": {"android": "https://dc.lft.to/lastmile_qr_scan", "ios": "https://dc.lft.to/lastmile_qr_scan"}, "fusion_lon": 0.0}, {"lat": 38.89979366666667, "is_disabled": 0, "type": "electric_bike", "lon": -76.9854605, "bike_id": "11dc9c03d80e546aeeb1b6efc9114635", "fusion_lat": 0.0, "name": "11dc9c03d80e546aeeb1b6efc9114635", "is_reserved": 0, "rental_uris": {"android": "https://dc.lft.to/lastmile_qr_scan", "ios": "https://dc.lft.to/lastmile_qr_scan"}, "fusion_lon": 0.0}, {"lat": 38.92320633333333, "is_disabled": 0, "type": "electric_scooter", "lon": -77.02973583333333, "bike_id": "bd226749f867fef81b310d9cf67dea30", "fusion_lat": 0.0, "name": "bd226749f867fef81b310d9cf67dea30", "is_reserved": 0, "rental_uris": {"android": "https://dc.lft.to/lastmile_qr_scan", "ios": "https://dc.lft.to/lastmile_qr_scan"}, "fusion_lon": 0.0}, {"lat": 38.93828233333333, "is_disabled": 0, "type": "electric_scooter", "lon": -77.06047933333333, "bike_id": "2a925339e0645bcbd90e007ad60171c5", "fusion_lat": 0.0, "name": "2a925339e0645bcbd90e007ad60171c5", "is_reserved": 0, "rental_uris": {"android": "https://dc.lft.to/lastmile_qr_scan", "ios": "https://dc.lft.to/lastmile_qr_scan"}, "fusion_lon": 0.0}, {"lat": 38.8848515, "is_disabled": 0, "type": "electric_scooter", "lon": -76.9452715, "bike_id": "188e55513fcef2286b32190dbed5689e", "fusion_lat": 0.0, "name": "188e55513fcef2286b32190dbed5689e", "is_reserved": 0, "rental_uris": {"android": "https://dc.lft.to/lastmile_qr_scan", "ios": "https://dc.lft.to/lastmile_qr_scan"}, "fusion_lon": 0.0}, {"lat": 38.907620333333334, "is_disabled": 0, "type": "electric_scooter", "lon": -77.0435145, "bike_id": "0036caa495df35322093771b4445008d", "fusion_lat": 0.0, "name": "0036caa495df35322093771b4445008d", "is_reserved": 0, "rental_uris": {"android": "https://dc.lft.to/lastmile_qr_scan", "ios": "https://dc.lft.to/lastmile_qr_scan"}, "fusion_lon": 0.0}, {"lat": 38.9247105, "is_disabled": 0, "type": "electric_scooter", "lon": -77.03376333333334, "bike_id": "74a7c7554e47970f69f19f3b0afe9863", "fusion_lat": 0.0, "name": "74a7c7554e47970f69f19f3b0afe9863", "is_reserved": 0, "rental_uris": {"android": "https://dc.lft.to/lastmile_qr_scan", "ios": "https://dc.lft.to/lastmile_qr_scan"}, "fusion_lon": 0.0}, {"lat": 38.9026665, "is_disabled": 0, "type": "electric_scooter", "lon": -77.0396135, "bike_id": "5eccb52caaf310b5abc90fb5a8a2591f", "fusion_lat": 0.0, "name": "5eccb52caaf310b5abc90fb5a8a2591f", "is_reserved": 0, "rental_uris": {"android": "https://dc.lft.to/lastmile_qr_scan", "ios": "https://dc.lft.to/lastmile_qr_scan"}, "fusion_lon": 0.0}, {"lat": 38.91732733333333, "is_disabled": 0, "type": "electric_scooter", "lon": -77.02403166666667, "bike_id": "82f2e8d05966f192e2da149f3da6b1f9", "fusion_lat": 0.0, "name": "82f2e8d05966f192e2da149f3da6b1f9", "is_reserved": 0, "rental_uris": {"android": "https://dc.lft.to/lastmile_qr_scan", "ios": "https://dc.lft.to/lastmile_qr_scan"}, "fusion_lon": 0.0}, {"lat": 38.906818666666666, "is_disabled": 0, "type": "electric_scooter", "lon": -77.01362033333334, "bike_id": "7deea120ed69d56970e95333e92f74f4", "fusion_lat": 0.0, "name": "7deea120ed69d56970e95333e92f74f4", "is_reserved": 0, "rental_uris": {"android": "https://dc.lft.to/lastmile_qr_scan", "ios": "https://dc.lft.to/lastmile_qr_scan"}, "fusion_lon": 0.0}, {"lat": 38.90539716666667, "is_disabled": 0, "type": "electric_scooter", "lon": -77.00559833333334, "bike_id": "e1bb535cff7ba9b3b10fc435227ee26a", "fusion_lat": 0.0, "name": "e1bb535cff7ba9b3b10fc435227ee26a", "is_reserved": 0, "rental_uris": {"android": "https://dc.lft.to/lastmile_qr_scan", "ios": "https://dc.lft.to/lastmile_qr_scan"}, "fusion_lon": 0.0}, {"lat": 38.89597933333334, "is_disabled": 0, "type": "electric_scooter", "lon": -76.95519433333334, "bike_id": "54037017fb318af06fb74bc44226a282", "fusion_lat": 0.0, "name": "54037017fb318af06fb74bc44226a282", "is_reserved": 0, "rental_uris": {"android": "https://dc.lft.to/lastmile_qr_scan", "ios": "https://dc.lft.to/lastmile_qr_scan"}, "fusion_lon": 0.0}, {"lat": 38.905561166666665, "is_disabled": 0, "type": "electric_scooter", "lon": -77.0028905, "bike_id": "00ffa0f068dab3f3903506677cbecc4e", "fusion_lat": 0.0, "name": "00ffa0f068dab3f3903506677cbecc4e", "is_reserved": 0, "rental_uris": {"android": "https://dc.lft.to/lastmile_qr_scan", "ios": "https://dc.lft.to/lastmile_qr_scan"}, "fusion_lon": 0.0}, {"lat": 38.908122666666664, "is_disabled": 0, "type": "electric_scooter", "lon": -76.98292166666667, "bike_id": "b6c7a2822dbc843c3903d0b223963d09", "fusion_lat": 0.0, "name": "b6c7a2822dbc843c3903d0b223963d09", "is_reserved": 0, "rental_uris": {"android": "https://dc.lft.to/lastmile_qr_scan", "ios": "https://dc.lft.to/lastmile_qr_scan"}, "fusion_lon": 0.0}, {"lat": 38.95074866666667, "is_disabled": 0, "type": "electric_bike", "lon": -77.0119885, "bike_id": "10c4fc8ddcb704664217a85a9993c744", "fusion_lat": 0.0, "name": "10c4fc8ddcb704664217a85a9993c744", "is_reserved": 0, "rental_uris": {"android": "https://dc.lft.to/lastmile_qr_scan", "ios": "https://dc.lft.to/lastmile_qr_scan"}, "fusion_lon": 0.0}, {"lat": 38.919893333333334, "is_disabled": 0, "type": "electric_scooter", "lon": -77.023972, "bike_id": "8b4c3ff0dcb14ad72df785ad2b797c93", "fusion_lat": 0.0, "name": "8b4c3ff0dcb14ad72df785ad2b797c93", "is_reserved": 0, "rental_uris": {"android": "https://dc.lft.to/lastmile_qr_scan", "ios": "https://dc.lft.to/lastmile_qr_scan"}, "fusion_lon": 0.0}, {"lat": 38.90338216666667, "is_disabled": 0, "type": "electric_scooter", "lon": -76.9705695, "bike_id": "2bff7e213d0250f464175fce840dc584", "fusion_lat": 0.0, "name": "2bff7e213d0250f464175fce840dc584", "is_reserved": 0, "rental_uris": {"android": "https://dc.lft.to/lastmile_qr_scan", "ios": "https://dc.lft.to/lastmile_qr_scan"}, "fusion_lon": 0.0}, {"lat": 38.892243, "is_disabled": 0, "type": "electric_scooter", "lon": -77.048653, "bike_id": "2d678d9d441a23d4ded7aa3c86ff45f9", "fusion_lat": 0.0, "name": "2d678d9d441a23d4ded7aa3c86ff45f9", "is_reserved": 0, "rental_uris": {"android": "https://dc.lft.to/lastmile_qr_scan", "ios": "https://dc.lft.to/lastmile_qr_scan"}, "fusion_lon": 0.0}, {"lat": 38.879192833333335, "is_disabled": 0, "type": "electric_scooter", "lon": -77.00744566666667, "bike_id": "dad7230f0b32ecbc6bcb99adc59b3aa8", "fusion_lat": 0.0, "name": "dad7230f0b32ecbc6bcb99adc59b3aa8", "is_reserved": 0, "rental_uris": {"android": "https://dc.lft.to/lastmile_qr_scan", "ios": "https://dc.lft.to/lastmile_qr_scan"}, "fusion_lon": 0.0}, {"lat": 38.898629166666666, "is_disabled": 0, "type": "electric_scooter", "lon": -77.02935183333334, "bike_id": "9748b82a75d5fe478bd0a7c548be5316", "fusion_lat": 0.0, "name": "9748b82a75d5fe478bd0a7c548be5316", "is_reserved": 0, "rental_uris": {"android": "https://dc.lft.to/lastmile_qr_scan", "ios": "https://dc.lft.to/lastmile_qr_scan"}, "fusion_lon": 0.0}, {"lat": 38.940837333333334, "is_disabled": 0, "type": "electric_bike", "lon": -77.02122433333334, "bike_id": "4017d2e0a5062ed414b66482372b5af5", "fusion_lat": 0.0, "name": "4017d2e0a5062ed414b66482372b5af5", "is_reserved": 0, "rental_uris": {"android": "https://dc.lft.to/lastmile_qr_scan", "ios": "https://dc.lft.to/lastmile_qr_scan"}, "fusion_lon": 0.0}, {"lat": 38.924380666666664, "is_disabled": 0, "type": "electric_scooter", "lon": -77.04020333333334, "bike_id": "7f9eaf28e95e7af28f8ab41fb8220511", "fusion_lat": 0.0, "name": "7f9eaf28e95e7af28f8ab41fb8220511", "is_reserved": 0, "rental_uris": {"android": "https://dc.lft.to/lastmile_qr_scan", "ios": "https://dc.lft.to/lastmile_qr_scan"}, "fusion_lon": 0.0}, {"lat": 38.916818, "is_disabled": 0, "type": "electric_scooter", "lon": -77.02951416666667, "bike_id": "604b2b17da0dd34100ff2ef0d4af3d00", "fusion_lat": 0.0, "name": "604b2b17da0dd34100ff2ef0d4af3d00", "is_reserved": 0, "rental_uris": {"android": "https://dc.lft.to/lastmile_qr_scan", "ios": "https://dc.lft.to/lastmile_qr_scan"}, "fusion_lon": 0.0}, {"lat": 38.882800833333334, "is_disabled": 0, "type": "electric_bike", "lon": -76.93242666666667, "bike_id": "6e10ee4e118f4dd8de04a5de610dcefd", "fusion_lat": 0.0, "name": "6e10ee4e118f4dd8de04a5de610dcefd", "is_reserved": 0, "rental_uris": {"android": "https://dc.lft.to/lastmile_qr_scan", "ios": "https://dc.lft.to/lastmile_qr_scan"}, "fusion_lon": 0.0}, {"lat": 38.86229, "is_disabled": 0, "type": "electric_scooter", "lon": -76.98366716666666, "bike_id": "759d844768171c017bb48f959a414a12", "fusion_lat": 0.0, "name": "759d844768171c017bb48f959a414a12", "is_reserved": 0, "rental_uris": {"android": "https://dc.lft.to/lastmile_qr_scan", "ios": "https://dc.lft.to/lastmile_qr_scan"}, "fusion_lon": 0.0}, {"lat": 38.866169166666666, "is_disabled": 0, "type": "electric_scooter", "lon": -76.986647, "bike_id": "948e6ce7ffea04f67e5b296fdb84e7e0", "fusion_lat": 0.0, "name": "948e6ce7ffea04f67e5b296fdb84e7e0", "is_reserved": 0, "rental_uris": {"android": "https://dc.lft.to/lastmile_qr_scan", "ios": "https://dc.lft.to/lastmile_qr_scan"}, "fusion_lon": 0.0}, {"lat": 38.91556933333333, "is_disabled": 0, "type": "electric_scooter", "lon": -77.00982883333333, "bike_id": "75c4d0e2219f4ff4471a7cfae1ff5c13", "fusion_lat": 0.0, "name": "75c4d0e2219f4ff4471a7cfae1ff5c13", "is_reserved": 0, "rental_uris": {"android": "https://dc.lft.to/lastmile_qr_scan", "ios": "https://dc.lft.to/lastmile_qr_scan"}, "fusion_lon": 0.0}, {"lat": 38.9224005, "is_disabled": 0, "type": "electric_scooter", "lon": -77.02912983333333, "bike_id": "0313f0cdf7bd3701e8e7caa0ca377dc1", "fusion_lat": 0.0, "name": "0313f0cdf7bd3701e8e7caa0ca377dc1", "is_reserved": 0, "rental_uris": {"android": "https://dc.lft.to/lastmile_qr_scan", "ios": "https://dc.lft.to/lastmile_qr_scan"}, "fusion_lon": 0.0}, {"lat": 38.908851166666665, "is_disabled": 0, "type": "electric_scooter", "lon": -77.0366535, "bike_id": "b8efda5425bfb1784ad901e53cfc24ad", "fusion_lat": 0.0, "name": "b8efda5425bfb1784ad901e53cfc24ad", "is_reserved": 0, "rental_uris": {"android": "https://dc.lft.to/lastmile_qr_scan", "ios": "https://dc.lft.to/lastmile_qr_scan"}, "fusion_lon": 0.0}, {"lat": 38.93565016666667, "is_disabled": 0, "type": "electric_scooter", "lon": -77.037401, "bike_id": "1e239e76386a46acdff857625de72deb", "fusion_lat": 0.0, "name": "1e239e76386a46acdff857625de72deb", "is_reserved": 0, "rental_uris": {"android": "https://dc.lft.to/lastmile_qr_scan", "ios": "https://dc.lft.to/lastmile_qr_scan"}, "fusion_lon": 0.0}, {"lat": 38.9170435, "is_disabled": 0, "type": "electric_scooter", "lon": -77.02975533333333, "bike_id": "d812093a23c90c586a858823b85dc8aa", "fusion_lat": 0.0, "name": "d812093a23c90c586a858823b85dc8aa", "is_reserved": 0, "rental_uris": {"android": "https://dc.lft.to/lastmile_qr_scan", "ios": "https://dc.lft.to/lastmile_qr_scan"}, "fusion_lon": 0.0}, {"lat": 38.90563783333333, "is_disabled": 0, "type": "electric_scooter", "lon": -77.056989, "bike_id": "8a7ae86fd6d8205055f35e9c5691444a", "fusion_lat": 0.0, "name": "8a7ae86fd6d8205055f35e9c5691444a", "is_reserved": 0, "rental_uris": {"android": "https://dc.lft.to/lastmile_qr_scan", "ios": "https://dc.lft.to/lastmile_qr_scan"}, "fusion_lon": 0.0}, {"lat": 38.96161933333333, "is_disabled": 0, "type": "electric_scooter", "lon": -77.027935, "bike_id": "07de3434706bb4d0b62ff83264d99947", "fusion_lat": 0.0, "name": "07de3434706bb4d0b62ff83264d99947", "is_reserved": 0, "rental_uris": {"android": "https://dc.lft.to/lastmile_qr_scan", "ios": "https://dc.lft.to/lastmile_qr_scan"}, "fusion_lon": 0.0}, {"lat": 38.904182166666665, "is_disabled": 0, "type": "electric_scooter", "lon": -77.02084166666667, "bike_id": "7d5e4ea441a5e5d546d93d20471b51c5", "fusion_lat": 0.0, "name": "7d5e4ea441a5e5d546d93d20471b51c5", "is_reserved": 0, "rental_uris": {"android": "https://dc.lft.to/lastmile_qr_scan", "ios": "https://dc.lft.to/lastmile_qr_scan"}, "fusion_lon": 0.0}, {"lat": 38.897643333333335, "is_disabled": 0, "type": "electric_scooter", "lon": -77.0319675, "bike_id": "23a234b4eefacd5c2d932a8deaf6c486", "fusion_lat": 0.0, "name": "23a234b4eefacd5c2d932a8deaf6c486", "is_reserved": 0, "rental_uris": {"android": "https://dc.lft.to/lastmile_qr_scan", "ios": "https://dc.lft.to/lastmile_qr_scan"}, "fusion_lon": 0.0}, {"lat": 38.8852035, "is_disabled": 0, "type": "electric_scooter", "lon": -77.03347466666666, "bike_id": "6775fa873beed638ae3d70f3250206b7", "fusion_lat": 0.0, "name": "6775fa873beed638ae3d70f3250206b7", "is_reserved": 0, "rental_uris": {"android": "https://dc.lft.to/lastmile_qr_scan", "ios": "https://dc.lft.to/lastmile_qr_scan"}, "fusion_lon": 0.0}, {"lat": 38.85810716666667, "is_disabled": 0, "type": "electric_scooter", "lon": -76.98992816666667, "bike_id": "ff690dcef81225708d33f8426c1698c7", "fusion_lat": 0.0, "name": "ff690dcef81225708d33f8426c1698c7", "is_reserved": 0, "rental_uris": {"android": "https://dc.lft.to/lastmile_qr_scan", "ios": "https://dc.lft.to/lastmile_qr_scan"}, "fusion_lon": 0.0}, {"lat": 38.939909, "is_disabled": 0, "type": "electric_scooter", "lon": -77.07178033333334, "bike_id": "58ae97696ce68739f661f36891e1c0fc", "fusion_lat": 0.0, "name": "58ae97696ce68739f661f36891e1c0fc", "is_reserved": 0, "rental_uris": {"android": "https://dc.lft.to/lastmile_qr_scan", "ios": "https://dc.lft.to/lastmile_qr_scan"}, "fusion_lon": 0.0}, {"lat": 38.90672883333333, "is_disabled": 0, "type": "electric_scooter", "lon": -77.02705166666667, "bike_id": "f5719d7e8f050ef89b6bcd0dba62e96c", "fusion_lat": 0.0, "name": "f5719d7e8f050ef89b6bcd0dba62e96c", "is_reserved": 0, "rental_uris": {"android": "https://dc.lft.to/lastmile_qr_scan", "ios": "https://dc.lft.to/lastmile_qr_scan"}, "fusion_lon": 0.0}, {"lat": 38.89753816666666, "is_disabled": 0, "type": "electric_scooter", "lon": -77.03266266666667, "bike_id": "af7725cc9d5f4505053f85431de2d1c4", "fusion_lat": 0.0, "name": "af7725cc9d5f4505053f85431de2d1c4", "is_reserved": 0, "rental_uris": {"android": "https://dc.lft.to/lastmile_qr_scan", "ios": "https://dc.lft.to/lastmile_qr_scan"}, "fusion_lon": 0.0}, {"lat": 38.90876683333333, "is_disabled": 0, "type": "electric_scooter", "lon": -77.03184033333334, "bike_id": "6c77a392f9f41ff5bf1cd6104ed9673f", "fusion_lat": 0.0, "name": "6c77a392f9f41ff5bf1cd6104ed9673f", "is_reserved": 0, "rental_uris": {"android": "https://dc.lft.to/lastmile_qr_scan", "ios": "https://dc.lft.to/lastmile_qr_scan"}, "fusion_lon": 0.0}, {"lat": 38.91542116666667, "is_disabled": 0, "type": "electric_scooter", "lon": -77.03178683333333, "bike_id": "18848d9be3d03b3b25473ff3d6bf5b23", "fusion_lat": 0.0, "name": "18848d9be3d03b3b25473ff3d6bf5b23", "is_reserved": 0, "rental_uris": {"android": "https://dc.lft.to/lastmile_qr_scan", "ios": "https://dc.lft.to/lastmile_qr_scan"}, "fusion_lon": 0.0}, {"lat": 38.89261616666667, "is_disabled": 0, "type": "electric_scooter", "lon": -76.94155466666666, "bike_id": "b223e7a6104abc7c60ac4bbbc0323cb2", "fusion_lat": 0.0, "name": "b223e7a6104abc7c60ac4bbbc0323cb2", "is_reserved": 0, "rental_uris": {"android": "https://dc.lft.to/lastmile_qr_scan", "ios": "https://dc.lft.to/lastmile_qr_scan"}, "fusion_lon": 0.0}, {"lat": 38.897547, "is_disabled": 0, "type": "electric_scooter", "lon": -77.045434, "bike_id": "97590ee006792bb73e4004117a3bb00f", "fusion_lat": 0.0, "name": "97590ee006792bb73e4004117a3bb00f", "is_reserved": 0, "rental_uris": {"android": "https://dc.lft.to/lastmile_qr_scan", "ios": "https://dc.lft.to/lastmile_qr_scan"}, "fusion_lon": 0.0}, {"lat": 38.87342783333333, "is_disabled": 0, "type": "electric_scooter", "lon": -76.99163566666667, "bike_id": "2f1cc8374b82d40609f7106a58d4011d", "fusion_lat": 0.0, "name": "2f1cc8374b82d40609f7106a58d4011d", "is_reserved": 0, "rental_uris": {"android": "https://dc.lft.to/lastmile_qr_scan", "ios": "https://dc.lft.to/lastmile_qr_scan"}, "fusion_lon": 0.0}, {"lat": 38.900104, "is_disabled": 0, "type": "electric_scooter", "lon": -76.988061, "bike_id": "f57697b0d9a5ea9cad4ffb41006dcf6e", "fusion_lat": 0.0, "name": "f57697b0d9a5ea9cad4ffb41006dcf6e", "is_reserved": 0, "rental_uris": {"android": "https://dc.lft.to/lastmile_qr_scan", "ios": "https://dc.lft.to/lastmile_qr_scan"}, "fusion_lon": 0.0}, {"lat": 38.8973925, "is_disabled": 0, "type": "electric_scooter", "lon": -77.00862233333334, "bike_id": "68811a340d45cf3907956b31b38c9858", "fusion_lat": 0.0, "name": "68811a340d45cf3907956b31b38c9858", "is_reserved": 0, "rental_uris": {"android": "https://dc.lft.to/lastmile_qr_scan", "ios": "https://dc.lft.to/lastmile_qr_scan"}, "fusion_lon": 0.0}, {"lat": 38.805682166666664, "is_disabled": 0, "type": "electric_bike", "lon": -77.13240183333333, "bike_id": "828c7fc97db9c25da15981ba0c119d14", "fusion_lat": 0.0, "name": "828c7fc97db9c25da15981ba0c119d14", "is_reserved": 0, "rental_uris": {"android": "https://dc.lft.to/lastmile_qr_scan", "ios": "https://dc.lft.to/lastmile_qr_scan"}, "fusion_lon": 0.0}, {"lat": 38.92807366666667, "is_disabled": 0, "type": "electric_scooter", "lon": -77.04316016666667, "bike_id": "857032cf882d3a2d0aa9bdf8e69aad8b", "fusion_lat": 0.0, "name": "857032cf882d3a2d0aa9bdf8e69aad8b", "is_reserved": 0, "rental_uris": {"android": "https://dc.lft.to/lastmile_qr_scan", "ios": "https://dc.lft.to/lastmile_qr_scan"}, "fusion_lon": 0.0}, {"lat": 38.88608, "is_disabled": 0, "type": "electric_scooter", "lon": -76.9882175, "bike_id": "0132afffb3fb1200d88fa0f6b2b98418", "fusion_lat": 0.0, "name": "0132afffb3fb1200d88fa0f6b2b98418", "is_reserved": 0, "rental_uris": {"android": "https://dc.lft.to/lastmile_qr_scan", "ios": "https://dc.lft.to/lastmile_qr_scan"}, "fusion_lon": 0.0}, {"lat": 38.907396166666665, "is_disabled": 0, "type": "electric_bike", "lon": -77.069059, "bike_id": "cce53d0848a0378af86be2fa6be5385c", "fusion_lat": 0.0, "name": "cce53d0848a0378af86be2fa6be5385c", "is_reserved": 0, "rental_uris": {"android": "https://dc.lft.to/lastmile_qr_scan", "ios": "https://dc.lft.to/lastmile_qr_scan"}, "fusion_lon": 0.0}, {"lat": 38.904228, "is_disabled": 0, "type": "electric_scooter", "lon": -77.053158, "bike_id": "d7946954374b3693b9f37aac51f208ef", "fusion_lat": 0.0, "name": "d7946954374b3693b9f37aac51f208ef", "is_reserved": 0, "rental_uris": {"android": "https://dc.lft.to/lastmile_qr_scan", "ios": "https://dc.lft.to/lastmile_qr_scan"}, "fusion_lon": 0.0}, {"lat": 38.8991025, "is_disabled": 0, "type": "electric_scooter", "lon": -76.93351116666666, "bike_id": "6627fe153febb9c0327d7322156ee165", "fusion_lat": 0.0, "name": "6627fe153febb9c0327d7322156ee165", "is_reserved": 0, "rental_uris": {"android": "https://dc.lft.to/lastmile_qr_scan", "ios": "https://dc.lft.to/lastmile_qr_scan"}, "fusion_lon": 0.0}, {"lat": 38.91679366666666, "is_disabled": 0, "type": "electric_scooter", "lon": -77.02962616666667, "bike_id": "a31e12ccdf2de6cf0b9f2a40d80b3eb2", "fusion_lat": 0.0, "name": "a31e12ccdf2de6cf0b9f2a40d80b3eb2", "is_reserved": 0, "rental_uris": {"android": "https://dc.lft.to/lastmile_qr_scan", "ios": "https://dc.lft.to/lastmile_qr_scan"}, "fusion_lon": 0.0}, {"lat": 38.917167666666664, "is_disabled": 0, "type": "electric_scooter", "lon": -77.0312105, "bike_id": "95533fc0ed57f41847b6b9d1c2b2b2ec", "fusion_lat": 0.0, "name": "95533fc0ed57f41847b6b9d1c2b2b2ec", "is_reserved": 0, "rental_uris": {"android": "https://dc.lft.to/lastmile_qr_scan", "ios": "https://dc.lft.to/lastmile_qr_scan"}, "fusion_lon": 0.0}, {"lat": 38.874729333333335, "is_disabled": 0, "type": "electric_scooter", "lon": -77.00936983333334, "bike_id": "23bb9249b679a2a81cdb42f85bf6dfa7", "fusion_lat": 0.0, "name": "23bb9249b679a2a81cdb42f85bf6dfa7", "is_reserved": 0, "rental_uris": {"android": "https://dc.lft.to/lastmile_qr_scan", "ios": "https://dc.lft.to/lastmile_qr_scan"}, "fusion_lon": 0.0}, {"lat": 38.87064866666667, "is_disabled": 0, "type": "electric_scooter", "lon": -77.0083895, "bike_id": "7223a0d420a30d557de04df0324bb4fc", "fusion_lat": 0.0, "name": "7223a0d420a30d557de04df0324bb4fc", "is_reserved": 0, "rental_uris": {"android": "https://dc.lft.to/lastmile_qr_scan", "ios": "https://dc.lft.to/lastmile_qr_scan"}, "fusion_lon": 0.0}, {"lat": 38.897201833333334, "is_disabled": 0, "type": "electric_scooter", "lon": -77.02128633333334, "bike_id": "b79d30f4a1d24668b895403e5333ee3a", "fusion_lat": 0.0, "name": "b79d30f4a1d24668b895403e5333ee3a", "is_reserved": 0, "rental_uris": {"android": "https://dc.lft.to/lastmile_qr_scan", "ios": "https://dc.lft.to/lastmile_qr_scan"}, "fusion_lon": 0.0}, {"lat": 38.918890833333336, "is_disabled": 0, "type": "electric_scooter", "lon": -77.04123416666667, "bike_id": "4881db04f4e26a8d759e7ced8f2508d2", "fusion_lat": 0.0, "name": "4881db04f4e26a8d759e7ced8f2508d2", "is_reserved": 0, "rental_uris": {"android": "https://dc.lft.to/lastmile_qr_scan", "ios": "https://dc.lft.to/lastmile_qr_scan"}, "fusion_lon": 0.0}, {"lat": 38.9172725, "is_disabled": 0, "type": "electric_scooter", "lon": -77.03658983333334, "bike_id": "5624dd3847a3574c5183c827969fcb40", "fusion_lat": 0.0, "name": "5624dd3847a3574c5183c827969fcb40", "is_reserved": 0, "rental_uris": {"android": "https://dc.lft.to/lastmile_qr_scan", "ios": "https://dc.lft.to/lastmile_qr_scan"}, "fusion_lon": 0.0}, {"lat": 38.91959266666667, "is_disabled": 0, "type": "electric_scooter", "lon": -77.02362733333334, "bike_id": "b15a9a4423131a0e8ee6d5f40686aff3", "fusion_lat": 0.0, "name": "b15a9a4423131a0e8ee6d5f40686aff3", "is_reserved": 0, "rental_uris": {"android": "https://dc.lft.to/lastmile_qr_scan", "ios": "https://dc.lft.to/lastmile_qr_scan"}, "fusion_lon": 0.0}, {"lat": 38.914165, "is_disabled": 0, "type": "electric_scooter", "lon": -77.03175616666667, "bike_id": "9cbeb457ee066010f111543bd8f61c94", "fusion_lat": 0.0, "name": "9cbeb457ee066010f111543bd8f61c94", "is_reserved": 0, "rental_uris": {"android": "https://dc.lft.to/lastmile_qr_scan", "ios": "https://dc.lft.to/lastmile_qr_scan"}, "fusion_lon": 0.0}, {"lat": 38.9027515, "is_disabled": 0, "type": "electric_scooter", "lon": -76.97408733333333, "bike_id": "de0401e5049eb9ea59d288428c122995", "fusion_lat": 0.0, "name": "de0401e5049eb9ea59d288428c122995", "is_reserved": 0, "rental_uris": {"android": "https://dc.lft.to/lastmile_qr_scan", "ios": "https://dc.lft.to/lastmile_qr_scan"}, "fusion_lon": 0.0}, {"lat": 38.917741166666666, "is_disabled": 0, "type": "electric_scooter", "lon": -77.02263966666666, "bike_id": "b34a8b4b59f3b0526f11bfc3dd202119", "fusion_lat": 0.0, "name": "b34a8b4b59f3b0526f11bfc3dd202119", "is_reserved": 0, "rental_uris": {"android": "https://dc.lft.to/lastmile_qr_scan", "ios": "https://dc.lft.to/lastmile_qr_scan"}, "fusion_lon": 0.0}, {"lat": 38.9039185, "is_disabled": 0, "type": "electric_scooter", "lon": -77.04466933333333, "bike_id": "ead4f6bc3cc97d9cd75fc92b75c1e245", "fusion_lat": 0.0, "name": "ead4f6bc3cc97d9cd75fc92b75c1e245", "is_reserved": 0, "rental_uris": {"android": "https://dc.lft.to/lastmile_qr_scan", "ios": "https://dc.lft.to/lastmile_qr_scan"}, "fusion_lon": 0.0}, {"lat": 38.91404816666667, "is_disabled": 0, "type": "electric_scooter", "lon": -77.03259716666666, "bike_id": "9cc270f5899c8727ffbc095c7068fb0e", "fusion_lat": 0.0, "name": "9cc270f5899c8727ffbc095c7068fb0e", "is_reserved": 0, "rental_uris": {"android": "https://dc.lft.to/lastmile_qr_scan", "ios": "https://dc.lft.to/lastmile_qr_scan"}, "fusion_lon": 0.0}, {"lat": 38.9096495, "is_disabled": 0, "type": "electric_scooter", "lon": -77.02270583333333, "bike_id": "eecc34dd5378880153290c8ac8b6f669", "fusion_lat": 0.0, "name": "eecc34dd5378880153290c8ac8b6f669", "is_reserved": 0, "rental_uris": {"android": "https://dc.lft.to/lastmile_qr_scan", "ios": "https://dc.lft.to/lastmile_qr_scan"}, "fusion_lon": 0.0}, {"lat": 38.913237333333335, "is_disabled": 0, "type": "electric_scooter", "lon": -77.03649066666667, "bike_id": "d6f075a62056c2cb26af616c32e41d4e", "fusion_lat": 0.0, "name": "d6f075a62056c2cb26af616c32e41d4e", "is_reserved": 0, "rental_uris": {"android": "https://dc.lft.to/lastmile_qr_scan", "ios": "https://dc.lft.to/lastmile_qr_scan"}, "fusion_lon": 0.0}, {"lat": 38.89853516666667, "is_disabled": 0, "type": "electric_scooter", "lon": -76.99030966666666, "bike_id": "79331a8e5022e192db5a91a7d7719319", "fusion_lat": 0.0, "name": "79331a8e5022e192db5a91a7d7719319", "is_reserved": 0, "rental_uris": {"android": "https://dc.lft.to/lastmile_qr_scan", "ios": "https://dc.lft.to/lastmile_qr_scan"}, "fusion_lon": 0.0}, {"lat": 38.90214916666667, "is_disabled": 0, "type": "electric_scooter", "lon": -76.94587383333334, "bike_id": "06b78e98e72f2e50d8aac2041d09c7ff", "fusion_lat": 0.0, "name": "06b78e98e72f2e50d8aac2041d09c7ff", "is_reserved": 0, "rental_uris": {"android": "https://dc.lft.to/lastmile_qr_scan", "ios": "https://dc.lft.to/lastmile_qr_scan"}, "fusion_lon": 0.0}, {"lat": 38.89774466666667, "is_disabled": 0, "type": "electric_scooter", "lon": -77.043339, "bike_id": "79de4f7814ff1e8e51479506e23a5b2c", "fusion_lat": 0.0, "name": "79de4f7814ff1e8e51479506e23a5b2c", "is_reserved": 0, "rental_uris": {"android": "https://dc.lft.to/lastmile_qr_scan", "ios": "https://dc.lft.to/lastmile_qr_scan"}, "fusion_lon": 0.0}, {"lat": 38.955406333333336, "is_disabled": 0, "type": "electric_bike", "lon": -77.01789866666667, "bike_id": "e914d3f3c69951f19028fef9f96bc23a", "fusion_lat": 0.0, "name": "e914d3f3c69951f19028fef9f96bc23a", "is_reserved": 0, "rental_uris": {"android": "https://dc.lft.to/lastmile_qr_scan", "ios": "https://dc.lft.to/lastmile_qr_scan"}, "fusion_lon": 0.0}, {"lat": 38.9157665, "is_disabled": 0, "type": "electric_scooter", "lon": -77.04675916666666, "bike_id": "aea2136cb7e2e64cef31a3127463f8ba", "fusion_lat": 0.0, "name": "aea2136cb7e2e64cef31a3127463f8ba", "is_reserved": 0, "rental_uris": {"android": "https://dc.lft.to/lastmile_qr_scan", "ios": "https://dc.lft.to/lastmile_qr_scan"}, "fusion_lon": 0.0}, {"lat": 38.93014, "is_disabled": 0, "type": "electric_bike", "lon": -77.21649983333333, "bike_id": "1701c15c69722ea4ad05b3343d7ce2cc", "fusion_lat": 0.0, "name": "1701c15c69722ea4ad05b3343d7ce2cc", "is_reserved": 0, "rental_uris": {"android": "https://dc.lft.to/lastmile_qr_scan", "ios": "https://dc.lft.to/lastmile_qr_scan"}, "fusion_lon": 0.0}, {"lat": 38.956135, "is_disabled": 0, "type": "electric_scooter", "lon": -77.02779316666667, "bike_id": "abecb4e1b502c1be9cce533a0c42f724", "fusion_lat": 0.0, "name": "abecb4e1b502c1be9cce533a0c42f724", "is_reserved": 0, "rental_uris": {"android": "https://dc.lft.to/lastmile_qr_scan", "ios": "https://dc.lft.to/lastmile_qr_scan"}, "fusion_lon": 0.0}, {"lat": 38.96285816666666, "is_disabled": 0, "type": "electric_bike", "lon": -77.03251216666666, "bike_id": "7f2e8726b19a7b35b77cdd35af47e37a", "fusion_lat": 0.0, "name": "7f2e8726b19a7b35b77cdd35af47e37a", "is_reserved": 0, "rental_uris": {"android": "https://dc.lft.to/lastmile_qr_scan", "ios": "https://dc.lft.to/lastmile_qr_scan"}, "fusion_lon": 0.0}, {"lat": 38.923324, "is_disabled": 0, "type": "electric_bike", "lon": -77.05682316666666, "bike_id": "bc771df4b3f1636fdcaa46fef0080fad", "fusion_lat": 0.0, "name": "bc771df4b3f1636fdcaa46fef0080fad", "is_reserved": 0, "rental_uris": {"android": "https://dc.lft.to/lastmile_qr_scan", "ios": "https://dc.lft.to/lastmile_qr_scan"}, "fusion_lon": 0.0}, {"lat": 38.91350833333333, "is_disabled": 0, "type": "electric_scooter", "lon": -77.03186416666667, "bike_id": "b35fa755fe95d0c80e0b66a218d1a373", "fusion_lat": 0.0, "name": "b35fa755fe95d0c80e0b66a218d1a373", "is_reserved": 0, "rental_uris": {"android": "https://dc.lft.to/lastmile_qr_scan", "ios": "https://dc.lft.to/lastmile_qr_scan"}, "fusion_lon": 0.0}, {"lat": 38.9248115, "is_disabled": 0, "type": "electric_scooter", "lon": -77.05212816666666, "bike_id": "9ee2a3a4532b52a5ea788a2e3b62bac3", "fusion_lat": 0.0, "name": "9ee2a3a4532b52a5ea788a2e3b62bac3", "is_reserved": 0, "rental_uris": {"android": "https://dc.lft.to/lastmile_qr_scan", "ios": "https://dc.lft.to/lastmile_qr_scan"}, "fusion_lon": 0.0}, {"lat": 38.921885, "is_disabled": 0, "type": "electric_scooter", "lon": -77.02980083333334, "bike_id": "1a4818af631c8c4d9b6e354dea9d958b", "fusion_lat": 0.0, "name": "1a4818af631c8c4d9b6e354dea9d958b", "is_reserved": 0, "rental_uris": {"android": "https://dc.lft.to/lastmile_qr_scan", "ios": "https://dc.lft.to/lastmile_qr_scan"}, "fusion_lon": 0.0}, {"lat": 38.930667666666665, "is_disabled": 0, "type": "electric_scooter", "lon": -77.02817066666667, "bike_id": "92575a4a7c736b2cc4934eb65fc9fecd", "fusion_lat": 0.0, "name": "92575a4a7c736b2cc4934eb65fc9fecd", "is_reserved": 0, "rental_uris": {"android": "https://dc.lft.to/lastmile_qr_scan", "ios": "https://dc.lft.to/lastmile_qr_scan"}, "fusion_lon": 0.0}, {"lat": 38.92132333333333, "is_disabled": 0, "type": "electric_scooter", "lon": -77.01827583333333, "bike_id": "d6f52e9698d715fced6937d566ee9900", "fusion_lat": 0.0, "name": "d6f52e9698d715fced6937d566ee9900", "is_reserved": 0, "rental_uris": {"android": "https://dc.lft.to/lastmile_qr_scan", "ios": "https://dc.lft.to/lastmile_qr_scan"}, "fusion_lon": 0.0}, {"lat": 38.909089, "is_disabled": 0, "type": "electric_scooter", "lon": -77.02713516666667, "bike_id": "a27087b37a81c81a37da7a905aa60800", "fusion_lat": 0.0, "name": "a27087b37a81c81a37da7a905aa60800", "is_reserved": 0, "rental_uris": {"android": "https://dc.lft.to/lastmile_qr_scan", "ios": "https://dc.lft.to/lastmile_qr_scan"}, "fusion_lon": 0.0}, {"lat": 38.90085216666667, "is_disabled": 0, "type": "electric_scooter", "lon": -77.05027866666667, "bike_id": "63b67c0ffbda8b42f64dbe020a82a0ae", "fusion_lat": 0.0, "name": "63b67c0ffbda8b42f64dbe020a82a0ae", "is_reserved": 0, "rental_uris": {"android": "https://dc.lft.to/lastmile_qr_scan", "ios": "https://dc.lft.to/lastmile_qr_scan"}, "fusion_lon": 0.0}, {"lat": 38.898522, "is_disabled": 0, "type": "electric_scooter", "lon": -77.01879833333334, "bike_id": "c397ecad24396569c377a7c7015e3667", "fusion_lat": 0.0, "name": "c397ecad24396569c377a7c7015e3667", "is_reserved": 0, "rental_uris": {"android": "https://dc.lft.to/lastmile_qr_scan", "ios": "https://dc.lft.to/lastmile_qr_scan"}, "fusion_lon": 0.0}, {"lat": 38.89745816666667, "is_disabled": 0, "type": "electric_scooter", "lon": -77.0086735, "bike_id": "58768e14b7b02f120c6ece6f4a2093c0", "fusion_lat": 0.0, "name": "58768e14b7b02f120c6ece6f4a2093c0", "is_reserved": 0, "rental_uris": {"android": "https://dc.lft.to/lastmile_qr_scan", "ios": "https://dc.lft.to/lastmile_qr_scan"}, "fusion_lon": 0.0}, {"lat": 38.91263633333333, "is_disabled": 0, "type": "electric_scooter", "lon": -77.0381605, "bike_id": "77e4b777f696a1cce588e059ed2dc1f4", "fusion_lat": 0.0, "name": "77e4b777f696a1cce588e059ed2dc1f4", "is_reserved": 0, "rental_uris": {"android": "https://dc.lft.to/lastmile_qr_scan", "ios": "https://dc.lft.to/lastmile_qr_scan"}, "fusion_lon": 0.0}, {"lat": 38.944950166666665, "is_disabled": 0, "type": "electric_scooter", "lon": -77.0154875, "bike_id": "1b2e12c62f299989e86c1af0c5b5ae99", "fusion_lat": 0.0, "name": "1b2e12c62f299989e86c1af0c5b5ae99", "is_reserved": 0, "rental_uris": {"android": "https://dc.lft.to/lastmile_qr_scan", "ios": "https://dc.lft.to/lastmile_qr_scan"}, "fusion_lon": 0.0}, {"lat": 38.90880416666667, "is_disabled": 0, "type": "electric_scooter", "lon": -77.04334483333334, "bike_id": "028adfe01031085c35442be88782f841", "fusion_lat": 0.0, "name": "028adfe01031085c35442be88782f841", "is_reserved": 0, "rental_uris": {"android": "https://dc.lft.to/lastmile_qr_scan", "ios": "https://dc.lft.to/lastmile_qr_scan"}, "fusion_lon": 0.0}, {"lat": 38.917164, "is_disabled": 0, "type": "electric_scooter", "lon": -77.0386, "bike_id": "6ce607bd355d864657b78f700ea18d3a", "fusion_lat": 0.0, "name": "6ce607bd355d864657b78f700ea18d3a", "is_reserved": 0, "rental_uris": {"android": "https://dc.lft.to/lastmile_qr_scan", "ios": "https://dc.lft.to/lastmile_qr_scan"}, "fusion_lon": 0.0}, {"lat": 38.900922333333334, "is_disabled": 0, "type": "electric_scooter", "lon": -77.04991583333333, "bike_id": "5e81585ff71dadfa347d939f3d736f86", "fusion_lat": 0.0, "name": "5e81585ff71dadfa347d939f3d736f86", "is_reserved": 0, "rental_uris": {"android": "https://dc.lft.to/lastmile_qr_scan", "ios": "https://dc.lft.to/lastmile_qr_scan"}, "fusion_lon": 0.0}, {"lat": 38.94296816666667, "is_disabled": 0, "type": "electric_scooter", "lon": -77.07709266666667, "bike_id": "9375f012cc0d4acb41b5f61cb745720a", "fusion_lat": 0.0, "name": "9375f012cc0d4acb41b5f61cb745720a", "is_reserved": 0, "rental_uris": {"android": "https://dc.lft.to/lastmile_qr_scan", "ios": "https://dc.lft.to/lastmile_qr_scan"}, "fusion_lon": 0.0}, {"lat": 38.891009833333335, "is_disabled": 0, "type": "electric_scooter", "lon": -76.9525595, "bike_id": "79f442b74a13c05165fcdfd0fcbb9ae2", "fusion_lat": 0.0, "name": "79f442b74a13c05165fcdfd0fcbb9ae2", "is_reserved": 0, "rental_uris": {"android": "https://dc.lft.to/lastmile_qr_scan", "ios": "https://dc.lft.to/lastmile_qr_scan"}, "fusion_lon": 0.0}, {"lat": 38.90511133333333, "is_disabled": 0, "type": "electric_scooter", "lon": -77.06773116666666, "bike_id": "149c1170602c08b6cc7ce7e7b85a2a93", "fusion_lat": 0.0, "name": "149c1170602c08b6cc7ce7e7b85a2a93", "is_reserved": 0, "rental_uris": {"android": "https://dc.lft.to/lastmile_qr_scan", "ios": "https://dc.lft.to/lastmile_qr_scan"}, "fusion_lon": 0.0}, {"lat": 38.9006245, "is_disabled": 0, "type": "electric_scooter", "lon": -76.9338385, "bike_id": "5d93b8b55c6f49a3802f02d6427586a4", "fusion_lat": 0.0, "name": "5d93b8b55c6f49a3802f02d6427586a4", "is_reserved": 0, "rental_uris": {"android": "https://dc.lft.to/lastmile_qr_scan", "ios": "https://dc.lft.to/lastmile_qr_scan"}, "fusion_lon": 0.0}, {"lat": 39.0000025, "is_disabled": 0, "type": "electric_bike", "lon": -76.92496533333333, "bike_id": "927e9a3f81e0a91292e41de7baa03bc8", "fusion_lat": 0.0, "name": "927e9a3f81e0a91292e41de7baa03bc8", "is_reserved": 0, "rental_uris": {"android": "https://dc.lft.to/lastmile_qr_scan", "ios": "https://dc.lft.to/lastmile_qr_scan"}, "fusion_lon": 0.0}, {"lat": 38.892244166666664, "is_disabled": 0, "type": "electric_scooter", "lon": -77.03190166666667, "bike_id": "5330390bdccb963b2407f976c7d137b8", "fusion_lat": 0.0, "name": "5330390bdccb963b2407f976c7d137b8", "is_reserved": 0, "rental_uris": {"android": "https://dc.lft.to/lastmile_qr_scan", "ios": "https://dc.lft.to/lastmile_qr_scan"}, "fusion_lon": 0.0}, {"lat": 38.91686583333333, "is_disabled": 0, "type": "electric_scooter", "lon": -77.02958583333333, "bike_id": "68e39bdadc3718e83876fbaa42a44425", "fusion_lat": 0.0, "name": "68e39bdadc3718e83876fbaa42a44425", "is_reserved": 0, "rental_uris": {"android": "https://dc.lft.to/lastmile_qr_scan", "ios": "https://dc.lft.to/lastmile_qr_scan"}, "fusion_lon": 0.0}, {"lat": 38.9365325, "is_disabled": 0, "type": "electric_scooter", "lon": -77.0239335, "bike_id": "2e36a58a771f05e3bce07dae578c0417", "fusion_lat": 0.0, "name": "2e36a58a771f05e3bce07dae578c0417", "is_reserved": 0, "rental_uris": {"android": "https://dc.lft.to/lastmile_qr_scan", "ios": "https://dc.lft.to/lastmile_qr_scan"}, "fusion_lon": 0.0}, {"lat": 38.93188983333334, "is_disabled": 0, "type": "electric_scooter", "lon": -77.02834816666666, "bike_id": "1abae8847879064c241f0c8b9b682d87", "fusion_lat": 0.0, "name": "1abae8847879064c241f0c8b9b682d87", "is_reserved": 0, "rental_uris": {"android": "https://dc.lft.to/lastmile_qr_scan", "ios": "https://dc.lft.to/lastmile_qr_scan"}, "fusion_lon": 0.0}, {"lat": 38.899619666666666, "is_disabled": 0, "type": "electric_scooter", "lon": -77.05132816666666, "bike_id": "691be1cc3d34f5d52bc9973a7763d2c0", "fusion_lat": 0.0, "name": "691be1cc3d34f5d52bc9973a7763d2c0", "is_reserved": 0, "rental_uris": {"android": "https://dc.lft.to/lastmile_qr_scan", "ios": "https://dc.lft.to/lastmile_qr_scan"}, "fusion_lon": 0.0}, {"lat": 38.955643333333335, "is_disabled": 0, "type": "electric_scooter", "lon": -77.02235283333333, "bike_id": "dde12901de0c9e42b08863251980a4c4", "fusion_lat": 0.0, "name": "dde12901de0c9e42b08863251980a4c4", "is_reserved": 0, "rental_uris": {"android": "https://dc.lft.to/lastmile_qr_scan", "ios": "https://dc.lft.to/lastmile_qr_scan"}, "fusion_lon": 0.0}, {"lat": 38.88185333333333, "is_disabled": 0, "type": "electric_scooter", "lon": -76.9950145, "bike_id": "ab21cd27cba309668a26c8f3f561414a", "fusion_lat": 0.0, "name": "ab21cd27cba309668a26c8f3f561414a", "is_reserved": 0, "rental_uris": {"android": "https://dc.lft.to/lastmile_qr_scan", "ios": "https://dc.lft.to/lastmile_qr_scan"}, "fusion_lon": 0.0}, {"lat": 38.887353166666664, "is_disabled": 0, "type": "electric_scooter", "lon": -77.032124, "bike_id": "5d20a421ef6100523fa34e3c4dcc7475", "fusion_lat": 0.0, "name": "5d20a421ef6100523fa34e3c4dcc7475", "is_reserved": 0, "rental_uris": {"android": "https://dc.lft.to/lastmile_qr_scan", "ios": "https://dc.lft.to/lastmile_qr_scan"}, "fusion_lon": 0.0}, {"lat": 38.86562466666667, "is_disabled": 0, "type": "electric_scooter", "lon": -76.98952983333334, "bike_id": "d719862ff3c327d4643e473b0ea601ea", "fusion_lat": 0.0, "name": "d719862ff3c327d4643e473b0ea601ea", "is_reserved": 0, "rental_uris": {"android": "https://dc.lft.to/lastmile_qr_scan", "ios": "https://dc.lft.to/lastmile_qr_scan"}, "fusion_lon": 0.0}, {"lat": 38.9091065, "is_disabled": 0, "type": "electric_scooter", "lon": -77.03646733333333, "bike_id": "76b6679e04fc9cdd539684b609bb0285", "fusion_lat": 0.0, "name": "76b6679e04fc9cdd539684b609bb0285", "is_reserved": 0, "rental_uris": {"android": "https://dc.lft.to/lastmile_qr_scan", "ios": "https://dc.lft.to/lastmile_qr_scan"}, "fusion_lon": 0.0}, {"lat": 38.938694, "is_disabled": 0, "type": "electric_scooter", "lon": -77.024456, "bike_id": "8908780130ed728302448624d70a05f3", "fusion_lat": 0.0, "name": "8908780130ed728302448624d70a05f3", "is_reserved": 0, "rental_uris": {"android": "https://dc.lft.to/lastmile_qr_scan", "ios": "https://dc.lft.to/lastmile_qr_scan"}, "fusion_lon": 0.0}, {"lat": 38.90253583333333, "is_disabled": 0, "type": "electric_scooter", "lon": -77.02693166666667, "bike_id": "f132ceb1c3ee1fa03f2d06ac3cfff67a", "fusion_lat": 0.0, "name": "f132ceb1c3ee1fa03f2d06ac3cfff67a", "is_reserved": 0, "rental_uris": {"android": "https://dc.lft.to/lastmile_qr_scan", "ios": "https://dc.lft.to/lastmile_qr_scan"}, "fusion_lon": 0.0}, {"lat": 38.902444333333335, "is_disabled": 0, "type": "electric_scooter", "lon": -77.0179395, "bike_id": "da3896210250ef4fdf266487c5694805", "fusion_lat": 0.0, "name": "da3896210250ef4fdf266487c5694805", "is_reserved": 0, "rental_uris": {"android": "https://dc.lft.to/lastmile_qr_scan", "ios": "https://dc.lft.to/lastmile_qr_scan"}, "fusion_lon": 0.0}, {"lat": 38.950976, "is_disabled": 0, "type": "electric_scooter", "lon": -77.02338116666667, "bike_id": "7665c4c3fb63d2afb9a42278b9d72bf6", "fusion_lat": 0.0, "name": "7665c4c3fb63d2afb9a42278b9d72bf6", "is_reserved": 0, "rental_uris": {"android": "https://dc.lft.to/lastmile_qr_scan", "ios": "https://dc.lft.to/lastmile_qr_scan"}, "fusion_lon": 0.0}, {"lat": 38.921490666666664, "is_disabled": 0, "type": "electric_scooter", "lon": -77.03392783333334, "bike_id": "d67d673103705b836635068847ca7846", "fusion_lat": 0.0, "name": "d67d673103705b836635068847ca7846", "is_reserved": 0, "rental_uris": {"android": "https://dc.lft.to/lastmile_qr_scan", "ios": "https://dc.lft.to/lastmile_qr_scan"}, "fusion_lon": 0.0}, {"lat": 38.872262666666664, "is_disabled": 0, "type": "electric_bike", "lon": -77.01175483333333, "bike_id": "3cddb1708c28d4cbba69db31a451aa3f", "fusion_lat": 0.0, "name": "3cddb1708c28d4cbba69db31a451aa3f", "is_reserved": 0, "rental_uris": {"android": "https://dc.lft.to/lastmile_qr_scan", "ios": "https://dc.lft.to/lastmile_qr_scan"}, "fusion_lon": 0.0}, {"lat": 38.91013016666667, "is_disabled": 0, "type": "electric_scooter", "lon": -77.088977, "bike_id": "2bb8edb310c7f8f2880877abc571f9e4", "fusion_lat": 0.0, "name": "2bb8edb310c7f8f2880877abc571f9e4", "is_reserved": 0, "rental_uris": {"android": "https://dc.lft.to/lastmile_qr_scan", "ios": "https://dc.lft.to/lastmile_qr_scan"}, "fusion_lon": 0.0}, {"lat": 38.924560166666666, "is_disabled": 0, "type": "electric_bike", "lon": -76.9756245, "bike_id": "0fe0e06aa73f0e465533e12be859d397", "fusion_lat": 0.0, "name": "0fe0e06aa73f0e465533e12be859d397", "is_reserved": 0, "rental_uris": {"android": "https://dc.lft.to/lastmile_qr_scan", "ios": "https://dc.lft.to/lastmile_qr_scan"}, "fusion_lon": 0.0}, {"lat": 38.90096583333333, "is_disabled": 0, "type": "electric_scooter", "lon": -77.0034755, "bike_id": "24797f1144cce50fbbb0143515f75ca4", "fusion_lat": 0.0, "name": "24797f1144cce50fbbb0143515f75ca4", "is_reserved": 0, "rental_uris": {"android": "https://dc.lft.to/lastmile_qr_scan", "ios": "https://dc.lft.to/lastmile_qr_scan"}, "fusion_lon": 0.0}, {"lat": 38.89699983333333, "is_disabled": 0, "type": "electric_scooter", "lon": -77.024086, "bike_id": "e8572b6a0680a1fb4715945024e79e18", "fusion_lat": 0.0, "name": "e8572b6a0680a1fb4715945024e79e18", "is_reserved": 0, "rental_uris": {"android": "https://dc.lft.to/lastmile_qr_scan", "ios": "https://dc.lft.to/lastmile_qr_scan"}, "fusion_lon": 0.0}, {"lat": 38.861671, "is_disabled": 0, "type": "electric_bike", "lon": -77.13144733333333, "bike_id": "de058e507c3fb1101ef06305f5ebad78", "fusion_lat": 0.0, "name": "de058e507c3fb1101ef06305f5ebad78", "is_reserved": 0, "rental_uris": {"android": "https://dc.lft.to/lastmile_qr_scan", "ios": "https://dc.lft.to/lastmile_qr_scan"}, "fusion_lon": 0.0}, {"lat": 38.92905566666667, "is_disabled": 0, "type": "electric_scooter", "lon": -77.03243566666667, "bike_id": "4314f6d28779c71689c7afb3f2c54ad6", "fusion_lat": 0.0, "name": "4314f6d28779c71689c7afb3f2c54ad6", "is_reserved": 0, "rental_uris": {"android": "https://dc.lft.to/lastmile_qr_scan", "ios": "https://dc.lft.to/lastmile_qr_scan"}, "fusion_lon": 0.0}, {"lat": 38.946289666666665, "is_disabled": 0, "type": "electric_scooter", "lon": -77.01848466666667, "bike_id": "8c5fee08ab3529d05830097cd70bee27", "fusion_lat": 0.0, "name": "8c5fee08ab3529d05830097cd70bee27", "is_reserved": 0, "rental_uris": {"android": "https://dc.lft.to/lastmile_qr_scan", "ios": "https://dc.lft.to/lastmile_qr_scan"}, "fusion_lon": 0.0}, {"lat": 38.922027, "is_disabled": 0, "type": "electric_scooter", "lon": -77.04250933333333, "bike_id": "c600e89b5deb6fabbe06a220cd42a465", "fusion_lat": 0.0, "name": "c600e89b5deb6fabbe06a220cd42a465", "is_reserved": 0, "rental_uris": {"android": "https://dc.lft.to/lastmile_qr_scan", "ios": "https://dc.lft.to/lastmile_qr_scan"}, "fusion_lon": 0.0}, {"lat": 38.8951855, "is_disabled": 0, "type": "electric_scooter", "lon": -77.04362533333334, "bike_id": "861dfce070da92dc447705c4fac81573", "fusion_lat": 0.0, "name": "861dfce070da92dc447705c4fac81573", "is_reserved": 0, "rental_uris": {"android": "https://dc.lft.to/lastmile_qr_scan", "ios": "https://dc.lft.to/lastmile_qr_scan"}, "fusion_lon": 0.0}, {"lat": 39.030418833333336, "is_disabled": 0, "type": "electric_bike", "lon": -77.09476066666667, "bike_id": "3fb295de02611a386404d60a377843d2", "fusion_lat": 0.0, "name": "3fb295de02611a386404d60a377843d2", "is_reserved": 0, "rental_uris": {"android": "https://dc.lft.to/lastmile_qr_scan", "ios": "https://dc.lft.to/lastmile_qr_scan"}, "fusion_lon": 0.0}, {"lat": 38.90961133333333, "is_disabled": 0, "type": "electric_scooter", "lon": -77.045115, "bike_id": "1a55d567269529a710eaf86632a32e0e", "fusion_lat": 0.0, "name": "1a55d567269529a710eaf86632a32e0e", "is_reserved": 0, "rental_uris": {"android": "https://dc.lft.to/lastmile_qr_scan", "ios": "https://dc.lft.to/lastmile_qr_scan"}, "fusion_lon": 0.0}, {"lat": 38.9073055, "is_disabled": 0, "type": "electric_scooter", "lon": -77.04832716666667, "bike_id": "71a07b2822e3fed9ddafddcfdaa85b8f", "fusion_lat": 0.0, "name": "71a07b2822e3fed9ddafddcfdaa85b8f", "is_reserved": 0, "rental_uris": {"android": "https://dc.lft.to/lastmile_qr_scan", "ios": "https://dc.lft.to/lastmile_qr_scan"}, "fusion_lon": 0.0}, {"lat": 38.921814166666664, "is_disabled": 0, "type": "electric_scooter", "lon": -77.0423265, "bike_id": "7bb7648e9bc89743b57d57c92e0e49c3", "fusion_lat": 0.0, "name": "7bb7648e9bc89743b57d57c92e0e49c3", "is_reserved": 0, "rental_uris": {"android": "https://dc.lft.to/lastmile_qr_scan", "ios": "https://dc.lft.to/lastmile_qr_scan"}, "fusion_lon": 0.0}, {"lat": 38.9232315, "is_disabled": 0, "type": "electric_scooter", "lon": -77.03903366666667, "bike_id": "a9e798ce96e08d45ab40c018293f096a", "fusion_lat": 0.0, "name": "a9e798ce96e08d45ab40c018293f096a", "is_reserved": 0, "rental_uris": {"android": "https://dc.lft.to/lastmile_qr_scan", "ios": "https://dc.lft.to/lastmile_qr_scan"}, "fusion_lon": 0.0}, {"lat": 38.90136666666667, "is_disabled": 0, "type": "electric_scooter", "lon": -77.0007025, "bike_id": "34fe7a30b741466903b261522214d07f", "fusion_lat": 0.0, "name": "34fe7a30b741466903b261522214d07f", "is_reserved": 0, "rental_uris": {"android": "https://dc.lft.to/lastmile_qr_scan", "ios": "https://dc.lft.to/lastmile_qr_scan"}, "fusion_lon": 0.0}, {"lat": 38.93681183333333, "is_disabled": 0, "type": "electric_scooter", "lon": -77.03575783333334, "bike_id": "836597bc2608696fa8b9d972f1ce3803", "fusion_lat": 0.0, "name": "836597bc2608696fa8b9d972f1ce3803", "is_reserved": 0, "rental_uris": {"android": "https://dc.lft.to/lastmile_qr_scan", "ios": "https://dc.lft.to/lastmile_qr_scan"}, "fusion_lon": 0.0}, {"lat": 38.885158, "is_disabled": 0, "type": "electric_scooter", "lon": -77.00574416666667, "bike_id": "992842e91b80754ad83277a8c8c0e90e", "fusion_lat": 0.0, "name": "992842e91b80754ad83277a8c8c0e90e", "is_reserved": 0, "rental_uris": {"android": "https://dc.lft.to/lastmile_qr_scan", "ios": "https://dc.lft.to/lastmile_qr_scan"}, "fusion_lon": 0.0}, {"lat": 38.906675166666666, "is_disabled": 0, "type": "electric_scooter", "lon": -77.03865266666666, "bike_id": "bc806b436e00975346c9b6c4d16654bb", "fusion_lat": 0.0, "name": "bc806b436e00975346c9b6c4d16654bb", "is_reserved": 0, "rental_uris": {"android": "https://dc.lft.to/lastmile_qr_scan", "ios": "https://dc.lft.to/lastmile_qr_scan"}, "fusion_lon": 0.0}, {"lat": 38.928994333333335, "is_disabled": 0, "type": "electric_scooter", "lon": -77.03232983333334, "bike_id": "383cf7aa15ecba551d839684a4d7f957", "fusion_lat": 0.0, "name": "383cf7aa15ecba551d839684a4d7f957", "is_reserved": 0, "rental_uris": {"android": "https://dc.lft.to/lastmile_qr_scan", "ios": "https://dc.lft.to/lastmile_qr_scan"}, "fusion_lon": 0.0}, {"lat": 38.8969715, "is_disabled": 0, "type": "electric_scooter", "lon": -77.02788216666667, "bike_id": "48c01bdd75f7788e5a27cb162ad4de41", "fusion_lat": 0.0, "name": "48c01bdd75f7788e5a27cb162ad4de41", "is_reserved": 0, "rental_uris": {"android": "https://dc.lft.to/lastmile_qr_scan", "ios": "https://dc.lft.to/lastmile_qr_scan"}, "fusion_lon": 0.0}, {"lat": 38.827843, "is_disabled": 0, "type": "electric_bike", "lon": -77.00914283333333, "bike_id": "69b25653d4a857231930e91720f5d5db", "fusion_lat": 0.0, "name": "69b25653d4a857231930e91720f5d5db", "is_reserved": 0, "rental_uris": {"android": "https://dc.lft.to/lastmile_qr_scan", "ios": "https://dc.lft.to/lastmile_qr_scan"}, "fusion_lon": 0.0}, {"lat": 38.90973416666667, "is_disabled": 0, "type": "electric_scooter", "lon": -77.03862333333333, "bike_id": "e1bee7aed89b3a9552d2bcf3af1e1484", "fusion_lat": 0.0, "name": "e1bee7aed89b3a9552d2bcf3af1e1484", "is_reserved": 0, "rental_uris": {"android": "https://dc.lft.to/lastmile_qr_scan", "ios": "https://dc.lft.to/lastmile_qr_scan"}, "fusion_lon": 0.0}, {"lat": 38.938990833333335, "is_disabled": 0, "type": "electric_scooter", "lon": -77.03320133333334, "bike_id": "5403ea0059ec44f6fcd697cf9c6e813a", "fusion_lat": 0.0, "name": "5403ea0059ec44f6fcd697cf9c6e813a", "is_reserved": 0, "rental_uris": {"android": "https://dc.lft.to/lastmile_qr_scan", "ios": "https://dc.lft.to/lastmile_qr_scan"}, "fusion_lon": 0.0}, {"lat": 38.88794383333333, "is_disabled": 0, "type": "electric_scooter", "lon": -76.93360683333333, "bike_id": "d52bab59d397c43cad18b74f059aae76", "fusion_lat": 0.0, "name": "d52bab59d397c43cad18b74f059aae76", "is_reserved": 0, "rental_uris": {"android": "https://dc.lft.to/lastmile_qr_scan", "ios": "https://dc.lft.to/lastmile_qr_scan"}, "fusion_lon": 0.0}, {"lat": 38.880921, "is_disabled": 0, "type": "electric_scooter", "lon": -76.9925285, "bike_id": "21c6ad6e001329481817740b2daebc80", "fusion_lat": 0.0, "name": "21c6ad6e001329481817740b2daebc80", "is_reserved": 0, "rental_uris": {"android": "https://dc.lft.to/lastmile_qr_scan", "ios": "https://dc.lft.to/lastmile_qr_scan"}, "fusion_lon": 0.0}, {"lat": 38.8952965, "is_disabled": 0, "type": "electric_scooter", "lon": -77.03353316666667, "bike_id": "c2c74e718ab71b2d685f1f53c4ba66f5", "fusion_lat": 0.0, "name": "c2c74e718ab71b2d685f1f53c4ba66f5", "is_reserved": 0, "rental_uris": {"android": "https://dc.lft.to/lastmile_qr_scan", "ios": "https://dc.lft.to/lastmile_qr_scan"}, "fusion_lon": 0.0}, {"lat": 38.96606466666667, "is_disabled": 0, "type": "electric_scooter", "lon": -77.02330266666667, "bike_id": "36306d7ae8444cec764f5db4c53e1e7d", "fusion_lat": 0.0, "name": "36306d7ae8444cec764f5db4c53e1e7d", "is_reserved": 0, "rental_uris": {"android": "https://dc.lft.to/lastmile_qr_scan", "ios": "https://dc.lft.to/lastmile_qr_scan"}, "fusion_lon": 0.0}, {"lat": 38.9843, "is_disabled": 0, "type": "electric_scooter", "lon": -77.02675083333334, "bike_id": "68f4216415447bbc08554ed76863bd33", "fusion_lat": 0.0, "name": "68f4216415447bbc08554ed76863bd33", "is_reserved": 0, "rental_uris": {"android": "https://dc.lft.to/lastmile_qr_scan", "ios": "https://dc.lft.to/lastmile_qr_scan"}, "fusion_lon": 0.0}, {"lat": 38.9318815, "is_disabled": 0, "type": "electric_scooter", "lon": -77.02564266666667, "bike_id": "699009aff2ac63638fa69102fd19b79f", "fusion_lat": 0.0, "name": "699009aff2ac63638fa69102fd19b79f", "is_reserved": 0, "rental_uris": {"android": "https://dc.lft.to/lastmile_qr_scan", "ios": "https://dc.lft.to/lastmile_qr_scan"}, "fusion_lon": 0.0}, {"lat": 38.92252916666666, "is_disabled": 0, "type": "electric_scooter", "lon": -77.01972816666667, "bike_id": "3ad55c5a5f428f7d6a28c86fc7c6320c", "fusion_lat": 0.0, "name": "3ad55c5a5f428f7d6a28c86fc7c6320c", "is_reserved": 0, "rental_uris": {"android": "https://dc.lft.to/lastmile_qr_scan", "ios": "https://dc.lft.to/lastmile_qr_scan"}, "fusion_lon": 0.0}, {"lat": 38.900391666666664, "is_disabled": 0, "type": "electric_scooter", "lon": -77.0074955, "bike_id": "82f7fd37e9b280388ef40a8952f0d764", "fusion_lat": 0.0, "name": "82f7fd37e9b280388ef40a8952f0d764", "is_reserved": 0, "rental_uris": {"android": "https://dc.lft.to/lastmile_qr_scan", "ios": "https://dc.lft.to/lastmile_qr_scan"}, "fusion_lon": 0.0}, {"lat": 38.883658, "is_disabled": 0, "type": "electric_scooter", "lon": -76.9950515, "bike_id": "e6b15cc86ed384b3c16af979a116cdc2", "fusion_lat": 0.0, "name": "e6b15cc86ed384b3c16af979a116cdc2", "is_reserved": 0, "rental_uris": {"android": "https://dc.lft.to/lastmile_qr_scan", "ios": "https://dc.lft.to/lastmile_qr_scan"}, "fusion_lon": 0.0}, {"lat": 38.89975166666667, "is_disabled": 0, "type": "electric_scooter", "lon": -77.02111233333333, "bike_id": "deb0b01be3ba93d28d0d6458b6004621", "fusion_lat": 0.0, "name": "deb0b01be3ba93d28d0d6458b6004621", "is_reserved": 0, "rental_uris": {"android": "https://dc.lft.to/lastmile_qr_scan", "ios": "https://dc.lft.to/lastmile_qr_scan"}, "fusion_lon": 0.0}, {"lat": 38.911153, "is_disabled": 0, "type": "electric_scooter", "lon": -77.03835383333333, "bike_id": "e6da517865416cec9715bed37da59cd1", "fusion_lat": 0.0, "name": "e6da517865416cec9715bed37da59cd1", "is_reserved": 0, "rental_uris": {"android": "https://dc.lft.to/lastmile_qr_scan", "ios": "https://dc.lft.to/lastmile_qr_scan"}, "fusion_lon": 0.0}, {"lat": 38.902282166666666, "is_disabled": 0, "type": "electric_scooter", "lon": -77.053384, "bike_id": "6390671b958778e474072566ea25ef16", "fusion_lat": 0.0, "name": "6390671b958778e474072566ea25ef16", "is_reserved": 0, "rental_uris": {"android": "https://dc.lft.to/lastmile_qr_scan", "ios": "https://dc.lft.to/lastmile_qr_scan"}, "fusion_lon": 0.0}, {"lat": 38.929502, "is_disabled": 0, "type": "electric_bike", "lon": -77.03769, "bike_id": "a5298c6ec3f3595b77d346aa8a40cd80", "fusion_lat": 0.0, "name": "a5298c6ec3f3595b77d346aa8a40cd80", "is_reserved": 0, "rental_uris": {"android": "https://dc.lft.to/lastmile_qr_scan", "ios": "https://dc.lft.to/lastmile_qr_scan"}, "fusion_lon": 0.0}, {"lat": 38.932379, "is_disabled": 0, "type": "electric_bike", "lon": -76.97422333333333, "bike_id": "3dc50b697ff2f133436f15ea58b5917c", "fusion_lat": 0.0, "name": "3dc50b697ff2f133436f15ea58b5917c", "is_reserved": 0, "rental_uris": {"android": "https://dc.lft.to/lastmile_qr_scan", "ios": "https://dc.lft.to/lastmile_qr_scan"}, "fusion_lon": 0.0}, {"lat": 38.89814416666667, "is_disabled": 0, "type": "electric_scooter", "lon": -77.03167166666667, "bike_id": "057b02c5ad992b877694523b6dedadbd", "fusion_lat": 0.0, "name": "057b02c5ad992b877694523b6dedadbd", "is_reserved": 0, "rental_uris": {"android": "https://dc.lft.to/lastmile_qr_scan", "ios": "https://dc.lft.to/lastmile_qr_scan"}, "fusion_lon": 0.0}, {"lat": 38.907986, "is_disabled": 0, "type": "electric_scooter", "lon": -77.0365245, "bike_id": "d81faf14d6fbedfec454ed9d7e894e0b", "fusion_lat": 0.0, "name": "d81faf14d6fbedfec454ed9d7e894e0b", "is_reserved": 0, "rental_uris": {"android": "https://dc.lft.to/lastmile_qr_scan", "ios": "https://dc.lft.to/lastmile_qr_scan"}, "fusion_lon": 0.0}, {"lat": 38.80573566666666, "is_disabled": 0, "type": "electric_bike", "lon": -77.068595, "bike_id": "0fe7802f9bbace157becf3f4be0aadef", "fusion_lat": 0.0, "name": "0fe7802f9bbace157becf3f4be0aadef", "is_reserved": 0, "rental_uris": {"android": "https://dc.lft.to/lastmile_qr_scan", "ios": "https://dc.lft.to/lastmile_qr_scan"}, "fusion_lon": 0.0}, {"lat": 38.880206666666666, "is_disabled": 0, "type": "electric_scooter", "lon": -77.0247955, "bike_id": "e4c8826948baa4fd8897a80074d1107d", "fusion_lat": 0.0, "name": "e4c8826948baa4fd8897a80074d1107d", "is_reserved": 0, "rental_uris": {"android": "https://dc.lft.to/lastmile_qr_scan", "ios": "https://dc.lft.to/lastmile_qr_scan"}, "fusion_lon": 0.0}, {"lat": 38.928279, "is_disabled": 0, "type": "electric_scooter", "lon": -77.02191133333334, "bike_id": "d36ade4cca0666065fd9534d83f80c63", "fusion_lat": 0.0, "name": "d36ade4cca0666065fd9534d83f80c63", "is_reserved": 0, "rental_uris": {"android": "https://dc.lft.to/lastmile_qr_scan", "ios": "https://dc.lft.to/lastmile_qr_scan"}, "fusion_lon": 0.0}, {"lat": 38.8226495, "is_disabled": 0, "type": "electric_bike", "lon": -77.058054, "bike_id": "a8a452b076c7f3215b801dee4c8c3801", "fusion_lat": 0.0, "name": "a8a452b076c7f3215b801dee4c8c3801", "is_reserved": 0, "rental_uris": {"android": "https://dc.lft.to/lastmile_qr_scan", "ios": "https://dc.lft.to/lastmile_qr_scan"}, "fusion_lon": 0.0}, {"lat": 38.98507566666667, "is_disabled": 0, "type": "electric_bike", "lon": -76.98207183333334, "bike_id": "be057cd3ee332d64540dd2af69c6f9d2", "fusion_lat": 0.0, "name": "be057cd3ee332d64540dd2af69c6f9d2", "is_reserved": 0, "rental_uris": {"android": "https://dc.lft.to/lastmile_qr_scan", "ios": "https://dc.lft.to/lastmile_qr_scan"}, "fusion_lon": 0.0}, {"lat": 38.910999333333336, "is_disabled": 0, "type": "electric_scooter", "lon": -77.0318255, "bike_id": "8f9f8e1d3ad4df4e282f607d2467d62f", "fusion_lat": 0.0, "name": "8f9f8e1d3ad4df4e282f607d2467d62f", "is_reserved": 0, "rental_uris": {"android": "https://dc.lft.to/lastmile_qr_scan", "ios": "https://dc.lft.to/lastmile_qr_scan"}, "fusion_lon": 0.0}, {"lat": 38.9351495, "is_disabled": 0, "type": "electric_scooter", "lon": -77.03332866666666, "bike_id": "adad71806805384716b7905e5a237d03", "fusion_lat": 0.0, "name": "adad71806805384716b7905e5a237d03", "is_reserved": 0, "rental_uris": {"android": "https://dc.lft.to/lastmile_qr_scan", "ios": "https://dc.lft.to/lastmile_qr_scan"}, "fusion_lon": 0.0}, {"lat": 38.9142735, "is_disabled": 0, "type": "electric_scooter", "lon": -77.03187666666666, "bike_id": "33189c74651eb5388cd1b47c3c04b382", "fusion_lat": 0.0, "name": "33189c74651eb5388cd1b47c3c04b382", "is_reserved": 0, "rental_uris": {"android": "https://dc.lft.to/lastmile_qr_scan", "ios": "https://dc.lft.to/lastmile_qr_scan"}, "fusion_lon": 0.0}, {"lat": 38.86988866666667, "is_disabled": 0, "type": "electric_bike", "lon": -76.95983533333333, "bike_id": "29099ada6af18131dd73b2016be91aa7", "fusion_lat": 0.0, "name": "29099ada6af18131dd73b2016be91aa7", "is_reserved": 0, "rental_uris": {"android": "https://dc.lft.to/lastmile_qr_scan", "ios": "https://dc.lft.to/lastmile_qr_scan"}, "fusion_lon": 0.0}, {"lat": 38.9686275, "is_disabled": 0, "type": "electric_scooter", "lon": -77.01754733333334, "bike_id": "4bd8d74daf2f42013e519b8230357caf", "fusion_lat": 0.0, "name": "4bd8d74daf2f42013e519b8230357caf", "is_reserved": 0, "rental_uris": {"android": "https://dc.lft.to/lastmile_qr_scan", "ios": "https://dc.lft.to/lastmile_qr_scan"}, "fusion_lon": 0.0}, {"lat": 38.90965583333333, "is_disabled": 0, "type": "electric_scooter", "lon": -77.0406605, "bike_id": "aef5e873797392268d1b303487d4572f", "fusion_lat": 0.0, "name": "aef5e873797392268d1b303487d4572f", "is_reserved": 0, "rental_uris": {"android": "https://dc.lft.to/lastmile_qr_scan", "ios": "https://dc.lft.to/lastmile_qr_scan"}, "fusion_lon": 0.0}, {"lat": 38.90031316666666, "is_disabled": 0, "type": "electric_scooter", "lon": -77.00198766666666, "bike_id": "17b936258c5db16eeadc94aa1d8607ca", "fusion_lat": 0.0, "name": "17b936258c5db16eeadc94aa1d8607ca", "is_reserved": 0, "rental_uris": {"android": "https://dc.lft.to/lastmile_qr_scan", "ios": "https://dc.lft.to/lastmile_qr_scan"}, "fusion_lon": 0.0}, {"lat": 38.91731516666667, "is_disabled": 0, "type": "electric_scooter", "lon": -77.03663366666666, "bike_id": "a51950680b8713070ba2cacd3f3ec66f", "fusion_lat": 0.0, "name": "a51950680b8713070ba2cacd3f3ec66f", "is_reserved": 0, "rental_uris": {"android": "https://dc.lft.to/lastmile_qr_scan", "ios": "https://dc.lft.to/lastmile_qr_scan"}, "fusion_lon": 0.0}, {"lat": 38.91681916666667, "is_disabled": 0, "type": "electric_scooter", "lon": -77.04149133333334, "bike_id": "071f6fe1794af47f6824bcddbba636e1", "fusion_lat": 0.0, "name": "071f6fe1794af47f6824bcddbba636e1", "is_reserved": 0, "rental_uris": {"android": "https://dc.lft.to/lastmile_qr_scan", "ios": "https://dc.lft.to/lastmile_qr_scan"}, "fusion_lon": 0.0}, {"lat": 38.957414, "is_disabled": 0, "type": "electric_bike", "lon": -77.0233005, "bike_id": "2ad78f079754b6df5a5b9ef81e7b3755", "fusion_lat": 0.0, "name": "2ad78f079754b6df5a5b9ef81e7b3755", "is_reserved": 0, "rental_uris": {"android": "https://dc.lft.to/lastmile_qr_scan", "ios": "https://dc.lft.to/lastmile_qr_scan"}, "fusion_lon": 0.0}, {"lat": 38.90820383333333, "is_disabled": 0, "type": "electric_scooter", "lon": -76.99677416666667, "bike_id": "5910eeef5eccc59ed9077dee4dc50095", "fusion_lat": 0.0, "name": "5910eeef5eccc59ed9077dee4dc50095", "is_reserved": 0, "rental_uris": {"android": "https://dc.lft.to/lastmile_qr_scan", "ios": "https://dc.lft.to/lastmile_qr_scan"}, "fusion_lon": 0.0}, {"lat": 38.90036033333333, "is_disabled": 0, "type": "electric_scooter", "lon": -77.00537783333333, "bike_id": "2a55e4338351b8c2d4008c48f5a47af9", "fusion_lat": 0.0, "name": "2a55e4338351b8c2d4008c48f5a47af9", "is_reserved": 0, "rental_uris": {"android": "https://dc.lft.to/lastmile_qr_scan", "ios": "https://dc.lft.to/lastmile_qr_scan"}, "fusion_lon": 0.0}, {"lat": 38.891448, "is_disabled": 0, "type": "electric_bike", "lon": -77.11303983333333, "bike_id": "71d79fcf173ee1b10513e60b23b1e557", "fusion_lat": 0.0, "name": "71d79fcf173ee1b10513e60b23b1e557", "is_reserved": 0, "rental_uris": {"android": "https://dc.lft.to/lastmile_qr_scan", "ios": "https://dc.lft.to/lastmile_qr_scan"}, "fusion_lon": 0.0}, {"lat": 38.92675716666667, "is_disabled": 0, "type": "electric_scooter", "lon": -77.00741833333333, "bike_id": "a0255baca02cb07b71dccd3212f6a055", "fusion_lat": 0.0, "name": "a0255baca02cb07b71dccd3212f6a055", "is_reserved": 0, "rental_uris": {"android": "https://dc.lft.to/lastmile_qr_scan", "ios": "https://dc.lft.to/lastmile_qr_scan"}, "fusion_lon": 0.0}, {"lat": 38.88462283333333, "is_disabled": 0, "type": "electric_scooter", "lon": -77.01526383333334, "bike_id": "1f067eaf16b4bbc7264a338ce5ced26b", "fusion_lat": 0.0, "name": "1f067eaf16b4bbc7264a338ce5ced26b", "is_reserved": 0, "rental_uris": {"android": "https://dc.lft.to/lastmile_qr_scan", "ios": "https://dc.lft.to/lastmile_qr_scan"}, "fusion_lon": 0.0}, {"lat": 38.89222616666667, "is_disabled": 0, "type": "electric_bike", "lon": -77.107851, "bike_id": "59c4ae085294bdafe677d541647cb69f", "fusion_lat": 0.0, "name": "59c4ae085294bdafe677d541647cb69f", "is_reserved": 0, "rental_uris": {"android": "https://dc.lft.to/lastmile_qr_scan", "ios": "https://dc.lft.to/lastmile_qr_scan"}, "fusion_lon": 0.0}, {"lat": 38.9304435, "is_disabled": 0, "type": "electric_scooter", "lon": -77.03247283333333, "bike_id": "14eeb2d8bc1a888a1345949eb203260d", "fusion_lat": 0.0, "name": "14eeb2d8bc1a888a1345949eb203260d", "is_reserved": 0, "rental_uris": {"android": "https://dc.lft.to/lastmile_qr_scan", "ios": "https://dc.lft.to/lastmile_qr_scan"}, "fusion_lon": 0.0}, {"lat": 38.88427316666667, "is_disabled": 0, "type": "electric_bike", "lon": -76.98090133333334, "bike_id": "705ff63d47b4adbf9284ce875c153279", "fusion_lat": 0.0, "name": "705ff63d47b4adbf9284ce875c153279", "is_reserved": 0, "rental_uris": {"android": "https://dc.lft.to/lastmile_qr_scan", "ios": "https://dc.lft.to/lastmile_qr_scan"}, "fusion_lon": 0.0}, {"lat": 38.9147085, "is_disabled": 0, "type": "electric_scooter", "lon": -77.018988, "bike_id": "bc145c1e12490309abc3817f26ce1808", "fusion_lat": 0.0, "name": "bc145c1e12490309abc3817f26ce1808", "is_reserved": 0, "rental_uris": {"android": "https://dc.lft.to/lastmile_qr_scan", "ios": "https://dc.lft.to/lastmile_qr_scan"}, "fusion_lon": 0.0}, {"lat": 38.89203216666667, "is_disabled": 0, "type": "electric_bike", "lon": -76.97051033333334, "bike_id": "5b27c54ee2409b7c94c433c7b644d5ab", "fusion_lat": 0.0, "name": "5b27c54ee2409b7c94c433c7b644d5ab", "is_reserved": 0, "rental_uris": {"android": "https://dc.lft.to/lastmile_qr_scan", "ios": "https://dc.lft.to/lastmile_qr_scan"}, "fusion_lon": 0.0}, {"lat": 38.91679466666667, "is_disabled": 0, "type": "electric_scooter", "lon": -77.0296595, "bike_id": "8852a7ab640d443b971320c541f5b612", "fusion_lat": 0.0, "name": "8852a7ab640d443b971320c541f5b612", "is_reserved": 0, "rental_uris": {"android": "https://dc.lft.to/lastmile_qr_scan", "ios": "https://dc.lft.to/lastmile_qr_scan"}, "fusion_lon": 0.0}, {"lat": 38.906099, "is_disabled": 0, "type": "electric_scooter", "lon": -77.0585675, "bike_id": "76276c40c63a5ea441e4cfd7fb2ede2a", "fusion_lat": 0.0, "name": "76276c40c63a5ea441e4cfd7fb2ede2a", "is_reserved": 0, "rental_uris": {"android": "https://dc.lft.to/lastmile_qr_scan", "ios": "https://dc.lft.to/lastmile_qr_scan"}, "fusion_lon": 0.0}, {"lat": 38.8929125, "is_disabled": 0, "type": "electric_bike", "lon": -77.00142866666667, "bike_id": "75532f001fb50317e1e375e949fa8b4e", "fusion_lat": 0.0, "name": "75532f001fb50317e1e375e949fa8b4e", "is_reserved": 0, "rental_uris": {"android": "https://dc.lft.to/lastmile_qr_scan", "ios": "https://dc.lft.to/lastmile_qr_scan"}, "fusion_lon": 0.0}, {"lat": 38.904535333333335, "is_disabled": 0, "type": "electric_scooter", "lon": -77.02884566666667, "bike_id": "f521417f45c04ca696fbd94261bef4a6", "fusion_lat": 0.0, "name": "f521417f45c04ca696fbd94261bef4a6", "is_reserved": 0, "rental_uris": {"android": "https://dc.lft.to/lastmile_qr_scan", "ios": "https://dc.lft.to/lastmile_qr_scan"}, "fusion_lon": 0.0}, {"lat": 38.92440583333333, "is_disabled": 0, "type": "electric_scooter", "lon": -77.04022816666667, "bike_id": "bb8fedf424d4d7c93b86bc550a82f157", "fusion_lat": 0.0, "name": "bb8fedf424d4d7c93b86bc550a82f157", "is_reserved": 0, "rental_uris": {"android": "https://dc.lft.to/lastmile_qr_scan", "ios": "https://dc.lft.to/lastmile_qr_scan"}, "fusion_lon": 0.0}, {"lat": 38.8953965, "is_disabled": 0, "type": "electric_scooter", "lon": -77.01115483333334, "bike_id": "4b2ca72092ba508bf80a9625d1ec18b2", "fusion_lat": 0.0, "name": "4b2ca72092ba508bf80a9625d1ec18b2", "is_reserved": 0, "rental_uris": {"android": "https://dc.lft.to/lastmile_qr_scan", "ios": "https://dc.lft.to/lastmile_qr_scan"}, "fusion_lon": 0.0}, {"lat": 38.88660483333334, "is_disabled": 0, "type": "electric_scooter", "lon": -76.99629566666667, "bike_id": "6f5e8b4b56928cf18973161615f4ebd0", "fusion_lat": 0.0, "name": "6f5e8b4b56928cf18973161615f4ebd0", "is_reserved": 0, "rental_uris": {"android": "https://dc.lft.to/lastmile_qr_scan", "ios": "https://dc.lft.to/lastmile_qr_scan"}, "fusion_lon": 0.0}, {"lat": 38.923686000000004, "is_disabled": 0, "type": "electric_scooter", "lon": -77.07683866666666, "bike_id": "53055b881809ed14a19d6ed4bdfe99be", "fusion_lat": 0.0, "name": "53055b881809ed14a19d6ed4bdfe99be", "is_reserved": 0, "rental_uris": {"android": "https://dc.lft.to/lastmile_qr_scan", "ios": "https://dc.lft.to/lastmile_qr_scan"}, "fusion_lon": 0.0}, {"lat": 38.918624666666666, "is_disabled": 0, "type": "electric_scooter", "lon": -77.074242, "bike_id": "c27a54672a375a1c4f7756bc803347f9", "fusion_lat": 0.0, "name": "c27a54672a375a1c4f7756bc803347f9", "is_reserved": 0, "rental_uris": {"android": "https://dc.lft.to/lastmile_qr_scan", "ios": "https://dc.lft.to/lastmile_qr_scan"}, "fusion_lon": 0.0}, {"lat": 38.905114166666664, "is_disabled": 0, "type": "electric_scooter", "lon": -77.050473, "bike_id": "c8181504ddd0ebf20f6bf15a7a3fbbd4", "fusion_lat": 0.0, "name": "c8181504ddd0ebf20f6bf15a7a3fbbd4", "is_reserved": 0, "rental_uris": {"android": "https://dc.lft.to/lastmile_qr_scan", "ios": "https://dc.lft.to/lastmile_qr_scan"}, "fusion_lon": 0.0}, {"lat": 38.8996055, "is_disabled": 0, "type": "electric_scooter", "lon": -77.04089366666666, "bike_id": "f632c050964c00181facddf52830dcf9", "fusion_lat": 0.0, "name": "f632c050964c00181facddf52830dcf9", "is_reserved": 0, "rental_uris": {"android": "https://dc.lft.to/lastmile_qr_scan", "ios": "https://dc.lft.to/lastmile_qr_scan"}, "fusion_lon": 0.0}, {"lat": 38.86000166666667, "is_disabled": 0, "type": "electric_scooter", "lon": -76.98553333333334, "bike_id": "fbeee16e448d87f73e3d3f5cf1f40f7b", "fusion_lat": 0.0, "name": "fbeee16e448d87f73e3d3f5cf1f40f7b", "is_reserved": 0, "rental_uris": {"android": "https://dc.lft.to/lastmile_qr_scan", "ios": "https://dc.lft.to/lastmile_qr_scan"}, "fusion_lon": 0.0}, {"lat": 38.912224, "is_disabled": 0, "type": "electric_scooter", "lon": -77.0344175, "bike_id": "9b1c6f761c8b13dfbf7d2b6a1d6e1077", "fusion_lat": 0.0, "name": "9b1c6f761c8b13dfbf7d2b6a1d6e1077", "is_reserved": 0, "rental_uris": {"android": "https://dc.lft.to/lastmile_qr_scan", "ios": "https://dc.lft.to/lastmile_qr_scan"}, "fusion_lon": 0.0}, {"lat": 38.90037183333333, "is_disabled": 0, "type": "electric_scooter", "lon": -77.0020515, "bike_id": "793fc846a6d19818ad6b26a13225c847", "fusion_lat": 0.0, "name": "793fc846a6d19818ad6b26a13225c847", "is_reserved": 0, "rental_uris": {"android": "https://dc.lft.to/lastmile_qr_scan", "ios": "https://dc.lft.to/lastmile_qr_scan"}, "fusion_lon": 0.0}, {"lat": 38.87630566666667, "is_disabled": 0, "type": "electric_scooter", "lon": -76.96524283333333, "bike_id": "210cb2f7755eade12e1e4ee08b299357", "fusion_lat": 0.0, "name": "210cb2f7755eade12e1e4ee08b299357", "is_reserved": 0, "rental_uris": {"android": "https://dc.lft.to/lastmile_qr_scan", "ios": "https://dc.lft.to/lastmile_qr_scan"}, "fusion_lon": 0.0}, {"lat": 38.940952833333334, "is_disabled": 0, "type": "electric_scooter", "lon": -77.03283933333333, "bike_id": "367cb0d1a86bf02db37edfad1e6a2567", "fusion_lat": 0.0, "name": "367cb0d1a86bf02db37edfad1e6a2567", "is_reserved": 0, "rental_uris": {"android": "https://dc.lft.to/lastmile_qr_scan", "ios": "https://dc.lft.to/lastmile_qr_scan"}, "fusion_lon": 0.0}, {"lat": 38.90574016666667, "is_disabled": 0, "type": "electric_scooter", "lon": -77.02211833333334, "bike_id": "a690aaabbbbc2f908ce81b736a9d9100", "fusion_lat": 0.0, "name": "a690aaabbbbc2f908ce81b736a9d9100", "is_reserved": 0, "rental_uris": {"android": "https://dc.lft.to/lastmile_qr_scan", "ios": "https://dc.lft.to/lastmile_qr_scan"}, "fusion_lon": 0.0}, {"lat": 38.9057305, "is_disabled": 0, "type": "electric_scooter", "lon": -77.04676166666667, "bike_id": "522ef3cc9d2231e81aebd43e45055b9d", "fusion_lat": 0.0, "name": "522ef3cc9d2231e81aebd43e45055b9d", "is_reserved": 0, "rental_uris": {"android": "https://dc.lft.to/lastmile_qr_scan", "ios": "https://dc.lft.to/lastmile_qr_scan"}, "fusion_lon": 0.0}, {"lat": 38.950782, "is_disabled": 0, "type": "electric_scooter", "lon": -77.06656166666667, "bike_id": "cfe115ecbab08506e6df6bb52e51ca9e", "fusion_lat": 0.0, "name": "cfe115ecbab08506e6df6bb52e51ca9e", "is_reserved": 0, "rental_uris": {"android": "https://dc.lft.to/lastmile_qr_scan", "ios": "https://dc.lft.to/lastmile_qr_scan"}, "fusion_lon": 0.0}, {"lat": 38.9287425, "is_disabled": 0, "type": "electric_scooter", "lon": -77.0334005, "bike_id": "451fef2855d79f37e18266625e0663b9", "fusion_lat": 0.0, "name": "451fef2855d79f37e18266625e0663b9", "is_reserved": 0, "rental_uris": {"android": "https://dc.lft.to/lastmile_qr_scan", "ios": "https://dc.lft.to/lastmile_qr_scan"}, "fusion_lon": 0.0}, {"lat": 38.92888966666666, "is_disabled": 0, "type": "electric_scooter", "lon": -77.03254733333333, "bike_id": "bf5cac31d925ebdba402efd54f3956ba", "fusion_lat": 0.0, "name": "bf5cac31d925ebdba402efd54f3956ba", "is_reserved": 0, "rental_uris": {"android": "https://dc.lft.to/lastmile_qr_scan", "ios": "https://dc.lft.to/lastmile_qr_scan"}, "fusion_lon": 0.0}, {"lat": 38.8923995, "is_disabled": 0, "type": "electric_scooter", "lon": -77.0395995, "bike_id": "4c6647e8ce712bb3884ca8e67bcde2ba", "fusion_lat": 0.0, "name": "4c6647e8ce712bb3884ca8e67bcde2ba", "is_reserved": 0, "rental_uris": {"android": "https://dc.lft.to/lastmile_qr_scan", "ios": "https://dc.lft.to/lastmile_qr_scan"}, "fusion_lon": 0.0}, {"lat": 38.898491166666666, "is_disabled": 0, "type": "electric_scooter", "lon": -77.024451, "bike_id": "2180ea0750d24604aab1b2e769fa112b", "fusion_lat": 0.0, "name": "2180ea0750d24604aab1b2e769fa112b", "is_reserved": 0, "rental_uris": {"android": "https://dc.lft.to/lastmile_qr_scan", "ios": "https://dc.lft.to/lastmile_qr_scan"}, "fusion_lon": 0.0}, {"lat": 38.871858833333334, "is_disabled": 0, "type": "electric_bike", "lon": -77.005884, "bike_id": "b096903dccc4ec992eca1e8adc3c7980", "fusion_lat": 0.0, "name": "b096903dccc4ec992eca1e8adc3c7980", "is_reserved": 0, "rental_uris": {"android": "https://dc.lft.to/lastmile_qr_scan", "ios": "https://dc.lft.to/lastmile_qr_scan"}, "fusion_lon": 0.0}, {"lat": 38.90731433333333, "is_disabled": 0, "type": "electric_scooter", "lon": -77.04783083333334, "bike_id": "08431925a0fcdfee9a68ca33c1e2bed6", "fusion_lat": 0.0, "name": "08431925a0fcdfee9a68ca33c1e2bed6", "is_reserved": 0, "rental_uris": {"android": "https://dc.lft.to/lastmile_qr_scan", "ios": "https://dc.lft.to/lastmile_qr_scan"}, "fusion_lon": 0.0}, {"lat": 38.84291616666667, "is_disabled": 0, "type": "electric_scooter", "lon": -76.99946316666667, "bike_id": "76c0c91e2774cb83623c7faa5945862f", "fusion_lat": 0.0, "name": "76c0c91e2774cb83623c7faa5945862f", "is_reserved": 0, "rental_uris": {"android": "https://dc.lft.to/lastmile_qr_scan", "ios": "https://dc.lft.to/lastmile_qr_scan"}, "fusion_lon": 0.0}, {"lat": 38.9007585, "is_disabled": 0, "type": "electric_scooter", "lon": -77.04394333333333, "bike_id": "f3b969b585f6a210bd4d3755ff94887f", "fusion_lat": 0.0, "name": "f3b969b585f6a210bd4d3755ff94887f", "is_reserved": 0, "rental_uris": {"android": "https://dc.lft.to/lastmile_qr_scan", "ios": "https://dc.lft.to/lastmile_qr_scan"}, "fusion_lon": 0.0}, {"lat": 38.9037805, "is_disabled": 0, "type": "electric_scooter", "lon": -77.04458, "bike_id": "3fb054c16a264f63d315af9ff0ae2bd5", "fusion_lat": 0.0, "name": "3fb054c16a264f63d315af9ff0ae2bd5", "is_reserved": 0, "rental_uris": {"android": "https://dc.lft.to/lastmile_qr_scan", "ios": "https://dc.lft.to/lastmile_qr_scan"}, "fusion_lon": 0.0}, {"lat": 38.887550166666664, "is_disabled": 0, "type": "electric_scooter", "lon": -77.02836666666667, "bike_id": "42e8e522a89352ad2480eabb2566ed57", "fusion_lat": 0.0, "name": "42e8e522a89352ad2480eabb2566ed57", "is_reserved": 0, "rental_uris": {"android": "https://dc.lft.to/lastmile_qr_scan", "ios": "https://dc.lft.to/lastmile_qr_scan"}, "fusion_lon": 0.0}, {"lat": 38.898287833333335, "is_disabled": 0, "type": "electric_scooter", "lon": -77.030271, "bike_id": "1f3cb40349291ab2e1d4d9a0c053cfb8", "fusion_lat": 0.0, "name": "1f3cb40349291ab2e1d4d9a0c053cfb8", "is_reserved": 0, "rental_uris": {"android": "https://dc.lft.to/lastmile_qr_scan", "ios": "https://dc.lft.to/lastmile_qr_scan"}, "fusion_lon": 0.0}, {"lat": 38.8981775, "is_disabled": 0, "type": "electric_scooter", "lon": -77.04337183333334, "bike_id": "f5677ea891394f1e950fe506ad72ef10", "fusion_lat": 0.0, "name": "f5677ea891394f1e950fe506ad72ef10", "is_reserved": 0, "rental_uris": {"android": "https://dc.lft.to/lastmile_qr_scan", "ios": "https://dc.lft.to/lastmile_qr_scan"}, "fusion_lon": 0.0}, {"lat": 38.9170845, "is_disabled": 0, "type": "electric_scooter", "lon": -77.03503033333334, "bike_id": "79ac785743f21f41d547ab8c08e86727", "fusion_lat": 0.0, "name": "79ac785743f21f41d547ab8c08e86727", "is_reserved": 0, "rental_uris": {"android": "https://dc.lft.to/lastmile_qr_scan", "ios": "https://dc.lft.to/lastmile_qr_scan"}, "fusion_lon": 0.0}, {"lat": 38.8962895, "is_disabled": 0, "type": "electric_scooter", "lon": -76.99857233333333, "bike_id": "601a6f8aa5433272783a81c3bb1a3f70", "fusion_lat": 0.0, "name": "601a6f8aa5433272783a81c3bb1a3f70", "is_reserved": 0, "rental_uris": {"android": "https://dc.lft.to/lastmile_qr_scan", "ios": "https://dc.lft.to/lastmile_qr_scan"}, "fusion_lon": 0.0}, {"lat": 38.90212866666667, "is_disabled": 0, "type": "electric_scooter", "lon": -77.023719, "bike_id": "f36d5b52e5e2cfbcebdf684c8995b878", "fusion_lat": 0.0, "name": "f36d5b52e5e2cfbcebdf684c8995b878", "is_reserved": 0, "rental_uris": {"android": "https://dc.lft.to/lastmile_qr_scan", "ios": "https://dc.lft.to/lastmile_qr_scan"}, "fusion_lon": 0.0}, {"lat": 38.893265166666666, "is_disabled": 0, "type": "electric_scooter", "lon": -76.92990683333333, "bike_id": "cad32340033914dd3410704c6163c97c", "fusion_lat": 0.0, "name": "cad32340033914dd3410704c6163c97c", "is_reserved": 0, "rental_uris": {"android": "https://dc.lft.to/lastmile_qr_scan", "ios": "https://dc.lft.to/lastmile_qr_scan"}, "fusion_lon": 0.0}, {"lat": 38.9172545, "is_disabled": 0, "type": "electric_bike", "lon": -77.00800666666666, "bike_id": "76adf6947ae233090630f1c497e2e863", "fusion_lat": 0.0, "name": "76adf6947ae233090630f1c497e2e863", "is_reserved": 0, "rental_uris": {"android": "https://dc.lft.to/lastmile_qr_scan", "ios": "https://dc.lft.to/lastmile_qr_scan"}, "fusion_lon": 0.0}, {"lat": 38.900983, "is_disabled": 0, "type": "electric_scooter", "lon": -77.013641, "bike_id": "6cfdc2b3e52b014dc642505b4b2d9d37", "fusion_lat": 0.0, "name": "6cfdc2b3e52b014dc642505b4b2d9d37", "is_reserved": 0, "rental_uris": {"android": "https://dc.lft.to/lastmile_qr_scan", "ios": "https://dc.lft.to/lastmile_qr_scan"}, "fusion_lon": 0.0}, {"lat": 38.94637766666666, "is_disabled": 0, "type": "electric_scooter", "lon": -77.01935883333333, "bike_id": "2371e98e0d8012a34916b8c3d3a922f4", "fusion_lat": 0.0, "name": "2371e98e0d8012a34916b8c3d3a922f4", "is_reserved": 0, "rental_uris": {"android": "https://dc.lft.to/lastmile_qr_scan", "ios": "https://dc.lft.to/lastmile_qr_scan"}, "fusion_lon": 0.0}, {"lat": 38.91419916666667, "is_disabled": 0, "type": "electric_scooter", "lon": -77.03173833333334, "bike_id": "73a4ff7f240bbb89de4fa9b86bb503ba", "fusion_lat": 0.0, "name": "73a4ff7f240bbb89de4fa9b86bb503ba", "is_reserved": 0, "rental_uris": {"android": "https://dc.lft.to/lastmile_qr_scan", "ios": "https://dc.lft.to/lastmile_qr_scan"}, "fusion_lon": 0.0}, {"lat": 38.903203, "is_disabled": 0, "type": "electric_scooter", "lon": -77.0205905, "bike_id": "a830fca0271bb8efdd91e031c6a2f021", "fusion_lat": 0.0, "name": "a830fca0271bb8efdd91e031c6a2f021", "is_reserved": 0, "rental_uris": {"android": "https://dc.lft.to/lastmile_qr_scan", "ios": "https://dc.lft.to/lastmile_qr_scan"}, "fusion_lon": 0.0}, {"lat": 38.909694, "is_disabled": 0, "type": "electric_scooter", "lon": -76.98474133333333, "bike_id": "6f9e1c3b31b4cf0e61a7a9694ef7bb81", "fusion_lat": 0.0, "name": "6f9e1c3b31b4cf0e61a7a9694ef7bb81", "is_reserved": 0, "rental_uris": {"android": "https://dc.lft.to/lastmile_qr_scan", "ios": "https://dc.lft.to/lastmile_qr_scan"}, "fusion_lon": 0.0}, {"lat": 38.88110783333333, "is_disabled": 0, "type": "electric_scooter", "lon": -77.02645633333333, "bike_id": "635e5c7c86b26aa7b0b838e1111f3f4a", "fusion_lat": 0.0, "name": "635e5c7c86b26aa7b0b838e1111f3f4a", "is_reserved": 0, "rental_uris": {"android": "https://dc.lft.to/lastmile_qr_scan", "ios": "https://dc.lft.to/lastmile_qr_scan"}, "fusion_lon": 0.0}, {"lat": 39.03411416666667, "is_disabled": 0, "type": "electric_bike", "lon": -77.042118, "bike_id": "d825ebf819de9380a13ba36cd98576dd", "fusion_lat": 0.0, "name": "d825ebf819de9380a13ba36cd98576dd", "is_reserved": 0, "rental_uris": {"android": "https://dc.lft.to/lastmile_qr_scan", "ios": "https://dc.lft.to/lastmile_qr_scan"}, "fusion_lon": 0.0}, {"lat": 38.87630733333334, "is_disabled": 0, "type": "electric_scooter", "lon": -76.96524233333334, "bike_id": "00aa03615d69301485f5627a6215c8c3", "fusion_lat": 0.0, "name": "00aa03615d69301485f5627a6215c8c3", "is_reserved": 0, "rental_uris": {"android": "https://dc.lft.to/lastmile_qr_scan", "ios": "https://dc.lft.to/lastmile_qr_scan"}, "fusion_lon": 0.0}, {"lat": 38.91232183333334, "is_disabled": 0, "type": "electric_scooter", "lon": -77.0412735, "bike_id": "dc3e0c02fd52efdeb3519b94e1fdb6c7", "fusion_lat": 0.0, "name": "dc3e0c02fd52efdeb3519b94e1fdb6c7", "is_reserved": 0, "rental_uris": {"android": "https://dc.lft.to/lastmile_qr_scan", "ios": "https://dc.lft.to/lastmile_qr_scan"}, "fusion_lon": 0.0}, {"lat": 38.9258315, "is_disabled": 0, "type": "electric_scooter", "lon": -77.05762466666667, "bike_id": "a46903b2b03c1583df7cd503d5613114", "fusion_lat": 0.0, "name": "a46903b2b03c1583df7cd503d5613114", "is_reserved": 0, "rental_uris": {"android": "https://dc.lft.to/lastmile_qr_scan", "ios": "https://dc.lft.to/lastmile_qr_scan"}, "fusion_lon": 0.0}, {"lat": 38.9290395, "is_disabled": 0, "type": "electric_scooter", "lon": -77.07452916666666, "bike_id": "c2f95bbedaec8b5afef184fd550071b6", "fusion_lat": 0.0, "name": "c2f95bbedaec8b5afef184fd550071b6", "is_reserved": 0, "rental_uris": {"android": "https://dc.lft.to/lastmile_qr_scan", "ios": "https://dc.lft.to/lastmile_qr_scan"}, "fusion_lon": 0.0}, {"lat": 38.9287315, "is_disabled": 0, "type": "electric_scooter", "lon": -77.033423, "bike_id": "3451369616edaa347bddf5d5f956bbb1", "fusion_lat": 0.0, "name": "3451369616edaa347bddf5d5f956bbb1", "is_reserved": 0, "rental_uris": {"android": "https://dc.lft.to/lastmile_qr_scan", "ios": "https://dc.lft.to/lastmile_qr_scan"}, "fusion_lon": 0.0}, {"lat": 38.93665083333333, "is_disabled": 0, "type": "electric_scooter", "lon": -77.03629816666667, "bike_id": "932b56d4a3816bf88e457b4811ddb53c", "fusion_lat": 0.0, "name": "932b56d4a3816bf88e457b4811ddb53c", "is_reserved": 0, "rental_uris": {"android": "https://dc.lft.to/lastmile_qr_scan", "ios": "https://dc.lft.to/lastmile_qr_scan"}, "fusion_lon": 0.0}, {"lat": 38.884406, "is_disabled": 0, "type": "electric_scooter", "lon": -77.0303885, "bike_id": "5d60a2e877758a072b1c1f77e7952b5d", "fusion_lat": 0.0, "name": "5d60a2e877758a072b1c1f77e7952b5d", "is_reserved": 0, "rental_uris": {"android": "https://dc.lft.to/lastmile_qr_scan", "ios": "https://dc.lft.to/lastmile_qr_scan"}, "fusion_lon": 0.0}, {"lat": 38.90296166666667, "is_disabled": 0, "type": "electric_scooter", "lon": -77.0206505, "bike_id": "4b281854a991358b093140f401384264", "fusion_lat": 0.0, "name": "4b281854a991358b093140f401384264", "is_reserved": 0, "rental_uris": {"android": "https://dc.lft.to/lastmile_qr_scan", "ios": "https://dc.lft.to/lastmile_qr_scan"}, "fusion_lon": 0.0}, {"lat": 38.902428666666665, "is_disabled": 0, "type": "electric_scooter", "lon": -77.0173625, "bike_id": "660a0c8ad88ff30774e06ade04c5d506", "fusion_lat": 0.0, "name": "660a0c8ad88ff30774e06ade04c5d506", "is_reserved": 0, "rental_uris": {"android": "https://dc.lft.to/lastmile_qr_scan", "ios": "https://dc.lft.to/lastmile_qr_scan"}, "fusion_lon": 0.0}, {"lat": 38.90161, "is_disabled": 0, "type": "electric_scooter", "lon": -76.98041916666666, "bike_id": "115d9318929fd836e278284f62b86a7a", "fusion_lat": 0.0, "name": "115d9318929fd836e278284f62b86a7a", "is_reserved": 0, "rental_uris": {"android": "https://dc.lft.to/lastmile_qr_scan", "ios": "https://dc.lft.to/lastmile_qr_scan"}, "fusion_lon": 0.0}, {"lat": 38.91666766666667, "is_disabled": 0, "type": "electric_scooter", "lon": -77.0066985, "bike_id": "c25d2c92a7e57decddc0b9dd8a948f81", "fusion_lat": 0.0, "name": "c25d2c92a7e57decddc0b9dd8a948f81", "is_reserved": 0, "rental_uris": {"android": "https://dc.lft.to/lastmile_qr_scan", "ios": "https://dc.lft.to/lastmile_qr_scan"}, "fusion_lon": 0.0}, {"lat": 38.876544833333334, "is_disabled": 0, "type": "electric_scooter", "lon": -77.00407166666666, "bike_id": "4ecca3d58dea6cbcd31e9ed16974a035", "fusion_lat": 0.0, "name": "4ecca3d58dea6cbcd31e9ed16974a035", "is_reserved": 0, "rental_uris": {"android": "https://dc.lft.to/lastmile_qr_scan", "ios": "https://dc.lft.to/lastmile_qr_scan"}, "fusion_lon": 0.0}, {"lat": 38.92089033333333, "is_disabled": 0, "type": "electric_scooter", "lon": -77.02197683333333, "bike_id": "44c34655259a7c304d3ce7dd1320c806", "fusion_lat": 0.0, "name": "44c34655259a7c304d3ce7dd1320c806", "is_reserved": 0, "rental_uris": {"android": "https://dc.lft.to/lastmile_qr_scan", "ios": "https://dc.lft.to/lastmile_qr_scan"}, "fusion_lon": 0.0}, {"lat": 38.8429135, "is_disabled": 0, "type": "electric_scooter", "lon": -76.99951433333334, "bike_id": "e1142bec6aa4e60d912089a03f25f427", "fusion_lat": 0.0, "name": "e1142bec6aa4e60d912089a03f25f427", "is_reserved": 0, "rental_uris": {"android": "https://dc.lft.to/lastmile_qr_scan", "ios": "https://dc.lft.to/lastmile_qr_scan"}, "fusion_lon": 0.0}, {"lat": 38.91974066666667, "is_disabled": 0, "type": "electric_scooter", "lon": -77.0396825, "bike_id": "4c4009b88e308260eb66a6e365698b41", "fusion_lat": 0.0, "name": "4c4009b88e308260eb66a6e365698b41", "is_reserved": 0, "rental_uris": {"android": "https://dc.lft.to/lastmile_qr_scan", "ios": "https://dc.lft.to/lastmile_qr_scan"}, "fusion_lon": 0.0}, {"lat": 38.906557666666664, "is_disabled": 0, "type": "electric_scooter", "lon": -77.04666133333333, "bike_id": "13ddb37ed04b4beb6509b71513ea32bf", "fusion_lat": 0.0, "name": "13ddb37ed04b4beb6509b71513ea32bf", "is_reserved": 0, "rental_uris": {"android": "https://dc.lft.to/lastmile_qr_scan", "ios": "https://dc.lft.to/lastmile_qr_scan"}, "fusion_lon": 0.0}, {"lat": 38.92193266666666, "is_disabled": 0, "type": "electric_scooter", "lon": -76.99626233333333, "bike_id": "395bda74b29b7b314fbead4294d0eaa6", "fusion_lat": 0.0, "name": "395bda74b29b7b314fbead4294d0eaa6", "is_reserved": 0, "rental_uris": {"android": "https://dc.lft.to/lastmile_qr_scan", "ios": "https://dc.lft.to/lastmile_qr_scan"}, "fusion_lon": 0.0}, {"lat": 38.925267, "is_disabled": 0, "type": "electric_scooter", "lon": -77.00760983333333, "bike_id": "4a72cab64d8119dbad8bf8d23c33496f", "fusion_lat": 0.0, "name": "4a72cab64d8119dbad8bf8d23c33496f", "is_reserved": 0, "rental_uris": {"android": "https://dc.lft.to/lastmile_qr_scan", "ios": "https://dc.lft.to/lastmile_qr_scan"}, "fusion_lon": 0.0}, {"lat": 38.895003, "is_disabled": 0, "type": "electric_bike", "lon": -77.07375083333334, "bike_id": "65e2837079e55f09eb631363596f67ba", "fusion_lat": 0.0, "name": "65e2837079e55f09eb631363596f67ba", "is_reserved": 0, "rental_uris": {"android": "https://dc.lft.to/lastmile_qr_scan", "ios": "https://dc.lft.to/lastmile_qr_scan"}, "fusion_lon": 0.0}, {"lat": 38.944322166666666, "is_disabled": 0, "type": "electric_scooter", "lon": -76.99210716666667, "bike_id": "d6097dfbae2602a72c5ed74b5a5a72fb", "fusion_lat": 0.0, "name": "d6097dfbae2602a72c5ed74b5a5a72fb", "is_reserved": 0, "rental_uris": {"android": "https://dc.lft.to/lastmile_qr_scan", "ios": "https://dc.lft.to/lastmile_qr_scan"}, "fusion_lon": 0.0}, {"lat": 38.898534166666664, "is_disabled": 0, "type": "electric_bike", "lon": -76.93189733333334, "bike_id": "ce8001065929f81147efa367405af6b4", "fusion_lat": 0.0, "name": "ce8001065929f81147efa367405af6b4", "is_reserved": 0, "rental_uris": {"android": "https://dc.lft.to/lastmile_qr_scan", "ios": "https://dc.lft.to/lastmile_qr_scan"}, "fusion_lon": 0.0}, {"lat": 38.91695433333334, "is_disabled": 0, "type": "electric_scooter", "lon": -77.03138516666667, "bike_id": "cc4b9214be02dcaeef17eb4b2b5fc710", "fusion_lat": 0.0, "name": "cc4b9214be02dcaeef17eb4b2b5fc710", "is_reserved": 0, "rental_uris": {"android": "https://dc.lft.to/lastmile_qr_scan", "ios": "https://dc.lft.to/lastmile_qr_scan"}, "fusion_lon": 0.0}, {"lat": 38.915412, "is_disabled": 0, "type": "electric_scooter", "lon": -77.03190116666667, "bike_id": "5a5c720534e759ae3b1aec5561e69569", "fusion_lat": 0.0, "name": "5a5c720534e759ae3b1aec5561e69569", "is_reserved": 0, "rental_uris": {"android": "https://dc.lft.to/lastmile_qr_scan", "ios": "https://dc.lft.to/lastmile_qr_scan"}, "fusion_lon": 0.0}, {"lat": 38.886170666666665, "is_disabled": 0, "type": "electric_scooter", "lon": -77.02173183333333, "bike_id": "f59b2cbf372fa28bd25d9aa6ad47fe2c", "fusion_lat": 0.0, "name": "f59b2cbf372fa28bd25d9aa6ad47fe2c", "is_reserved": 0, "rental_uris": {"android": "https://dc.lft.to/lastmile_qr_scan", "ios": "https://dc.lft.to/lastmile_qr_scan"}, "fusion_lon": 0.0}, {"lat": 38.90517416666667, "is_disabled": 0, "type": "electric_scooter", "lon": -77.02607216666667, "bike_id": "192b3959fe86aa5554176d11de469538", "fusion_lat": 0.0, "name": "192b3959fe86aa5554176d11de469538", "is_reserved": 0, "rental_uris": {"android": "https://dc.lft.to/lastmile_qr_scan", "ios": "https://dc.lft.to/lastmile_qr_scan"}, "fusion_lon": 0.0}, {"lat": 38.9233155, "is_disabled": 0, "type": "electric_scooter", "lon": -77.04307966666667, "bike_id": "79ce33e175a63d5009582d7a19c0dc43", "fusion_lat": 0.0, "name": "79ce33e175a63d5009582d7a19c0dc43", "is_reserved": 0, "rental_uris": {"android": "https://dc.lft.to/lastmile_qr_scan", "ios": "https://dc.lft.to/lastmile_qr_scan"}, "fusion_lon": 0.0}, {"lat": 38.90326783333333, "is_disabled": 0, "type": "electric_scooter", "lon": -77.03867666666666, "bike_id": "ed434352c539e9f3d0cefdd4738784b3", "fusion_lat": 0.0, "name": "ed434352c539e9f3d0cefdd4738784b3", "is_reserved": 0, "rental_uris": {"android": "https://dc.lft.to/lastmile_qr_scan", "ios": "https://dc.lft.to/lastmile_qr_scan"}, "fusion_lon": 0.0}, {"lat": 38.90968483333333, "is_disabled": 0, "type": "electric_scooter", "lon": -77.00921933333333, "bike_id": "6e62c17f92a38c04304dd5145e8fb40c", "fusion_lat": 0.0, "name": "6e62c17f92a38c04304dd5145e8fb40c", "is_reserved": 0, "rental_uris": {"android": "https://dc.lft.to/lastmile_qr_scan", "ios": "https://dc.lft.to/lastmile_qr_scan"}, "fusion_lon": 0.0}, {"lat": 38.905448666666665, "is_disabled": 0, "type": "electric_scooter", "lon": -77.03404666666667, "bike_id": "40c14857b5a702297ae7318937661af0", "fusion_lat": 0.0, "name": "40c14857b5a702297ae7318937661af0", "is_reserved": 0, "rental_uris": {"android": "https://dc.lft.to/lastmile_qr_scan", "ios": "https://dc.lft.to/lastmile_qr_scan"}, "fusion_lon": 0.0}, {"lat": 38.893472, "is_disabled": 0, "type": "electric_scooter", "lon": -76.94935483333333, "bike_id": "ee66de3e0ac82d013a6c0269f06c6315", "fusion_lat": 0.0, "name": "ee66de3e0ac82d013a6c0269f06c6315", "is_reserved": 0, "rental_uris": {"android": "https://dc.lft.to/lastmile_qr_scan", "ios": "https://dc.lft.to/lastmile_qr_scan"}, "fusion_lon": 0.0}, {"lat": 38.92422466666667, "is_disabled": 0, "type": "electric_scooter", "lon": -77.05180466666667, "bike_id": "c3dc5de914c5dc4d86cc9334be7d2d25", "fusion_lat": 0.0, "name": "c3dc5de914c5dc4d86cc9334be7d2d25", "is_reserved": 0, "rental_uris": {"android": "https://dc.lft.to/lastmile_qr_scan", "ios": "https://dc.lft.to/lastmile_qr_scan"}, "fusion_lon": 0.0}, {"lat": 38.906139333333336, "is_disabled": 0, "type": "electric_scooter", "lon": -77.06520533333334, "bike_id": "2852516fcb1903b1539c070fc4ff519c", "fusion_lat": 0.0, "name": "2852516fcb1903b1539c070fc4ff519c", "is_reserved": 0, "rental_uris": {"android": "https://dc.lft.to/lastmile_qr_scan", "ios": "https://dc.lft.to/lastmile_qr_scan"}, "fusion_lon": 0.0}, {"lat": 38.904997, "is_disabled": 0, "type": "electric_scooter", "lon": -77.05809633333334, "bike_id": "25360cd32b8d771dc284d7b3a269d327", "fusion_lat": 0.0, "name": "25360cd32b8d771dc284d7b3a269d327", "is_reserved": 0, "rental_uris": {"android": "https://dc.lft.to/lastmile_qr_scan", "ios": "https://dc.lft.to/lastmile_qr_scan"}, "fusion_lon": 0.0}, {"lat": 38.902734, "is_disabled": 0, "type": "electric_scooter", "lon": -77.03957866666667, "bike_id": "de3de5ae2e3611f11efe64b3a52fb279", "fusion_lat": 0.0, "name": "de3de5ae2e3611f11efe64b3a52fb279", "is_reserved": 0, "rental_uris": {"android": "https://dc.lft.to/lastmile_qr_scan", "ios": "https://dc.lft.to/lastmile_qr_scan"}, "fusion_lon": 0.0}, {"lat": 38.928517666666664, "is_disabled": 0, "type": "electric_bike", "lon": -77.10679183333333, "bike_id": "b5ff05be1febfee0679753ab8ae73c9c", "fusion_lat": 0.0, "name": "b5ff05be1febfee0679753ab8ae73c9c", "is_reserved": 0, "rental_uris": {"android": "https://dc.lft.to/lastmile_qr_scan", "ios": "https://dc.lft.to/lastmile_qr_scan"}, "fusion_lon": 0.0}, {"lat": 38.913866, "is_disabled": 0, "type": "electric_scooter", "lon": -77.036621, "bike_id": "de8e0a6c62a70024971ad915fe2ec8e6", "fusion_lat": 0.0, "name": "de8e0a6c62a70024971ad915fe2ec8e6", "is_reserved": 0, "rental_uris": {"android": "https://dc.lft.to/lastmile_qr_scan", "ios": "https://dc.lft.to/lastmile_qr_scan"}, "fusion_lon": 0.0}, {"lat": 38.80745266666667, "is_disabled": 0, "type": "electric_bike", "lon": -77.0942755, "bike_id": "2d8af85739856a4ddf8f38fa015e38e1", "fusion_lat": 0.0, "name": "2d8af85739856a4ddf8f38fa015e38e1", "is_reserved": 0, "rental_uris": {"android": "https://dc.lft.to/lastmile_qr_scan", "ios": "https://dc.lft.to/lastmile_qr_scan"}, "fusion_lon": 0.0}, {"lat": 38.9101785, "is_disabled": 0, "type": "electric_scooter", "lon": -77.03855166666666, "bike_id": "2d28b3b4b1b933b8a8148715b358f0f9", "fusion_lat": 0.0, "name": "2d28b3b4b1b933b8a8148715b358f0f9", "is_reserved": 0, "rental_uris": {"android": "https://dc.lft.to/lastmile_qr_scan", "ios": "https://dc.lft.to/lastmile_qr_scan"}, "fusion_lon": 0.0}, {"lat": 38.90028616666667, "is_disabled": 0, "type": "electric_scooter", "lon": -76.99820883333334, "bike_id": "235774a6ae73bea02f6f0653a79780d5", "fusion_lat": 0.0, "name": "235774a6ae73bea02f6f0653a79780d5", "is_reserved": 0, "rental_uris": {"android": "https://dc.lft.to/lastmile_qr_scan", "ios": "https://dc.lft.to/lastmile_qr_scan"}, "fusion_lon": 0.0}, {"lat": 38.884603, "is_disabled": 0, "type": "electric_scooter", "lon": -76.92621283333334, "bike_id": "ebe47c700317da625625394008586937", "fusion_lat": 0.0, "name": "ebe47c700317da625625394008586937", "is_reserved": 0, "rental_uris": {"android": "https://dc.lft.to/lastmile_qr_scan", "ios": "https://dc.lft.to/lastmile_qr_scan"}, "fusion_lon": 0.0}, {"lat": 38.906122, "is_disabled": 0, "type": "electric_scooter", "lon": -77.06297566666667, "bike_id": "4bae3b85b7eb9d203f34f4cb94884aa0", "fusion_lat": 0.0, "name": "4bae3b85b7eb9d203f34f4cb94884aa0", "is_reserved": 0, "rental_uris": {"android": "https://dc.lft.to/lastmile_qr_scan", "ios": "https://dc.lft.to/lastmile_qr_scan"}, "fusion_lon": 0.0}, {"lat": 38.937615, "is_disabled": 0, "type": "electric_scooter", "lon": -77.0314455, "bike_id": "d0c76b1c16b6a73310e1cdb98c64b659", "fusion_lat": 0.0, "name": "d0c76b1c16b6a73310e1cdb98c64b659", "is_reserved": 0, "rental_uris": {"android": "https://dc.lft.to/lastmile_qr_scan", "ios": "https://dc.lft.to/lastmile_qr_scan"}, "fusion_lon": 0.0}, {"lat": 38.93871583333333, "is_disabled": 0, "type": "electric_scooter", "lon": -77.024412, "bike_id": "869a46d2e5b6060ed5bdfc5670f97124", "fusion_lat": 0.0, "name": "869a46d2e5b6060ed5bdfc5670f97124", "is_reserved": 0, "rental_uris": {"android": "https://dc.lft.to/lastmile_qr_scan", "ios": "https://dc.lft.to/lastmile_qr_scan"}, "fusion_lon": 0.0}, {"lat": 38.93177633333333, "is_disabled": 0, "type": "electric_scooter", "lon": -77.031554, "bike_id": "711fea5c764b780226ec8b6f219c5a59", "fusion_lat": 0.0, "name": "711fea5c764b780226ec8b6f219c5a59", "is_reserved": 0, "rental_uris": {"android": "https://dc.lft.to/lastmile_qr_scan", "ios": "https://dc.lft.to/lastmile_qr_scan"}, "fusion_lon": 0.0}, {"lat": 38.89742833333333, "is_disabled": 0, "type": "electric_scooter", "lon": -77.02458083333333, "bike_id": "99c1a4b3f259bdd6c2c3abe3e7b0ee64", "fusion_lat": 0.0, "name": "99c1a4b3f259bdd6c2c3abe3e7b0ee64", "is_reserved": 0, "rental_uris": {"android": "https://dc.lft.to/lastmile_qr_scan", "ios": "https://dc.lft.to/lastmile_qr_scan"}, "fusion_lon": 0.0},