{"data": {"bikes": [{"fusion_lon": 0.0, "bike_id": "a421d5c7093895f3a2494a57b332de10", "name": "a421d5c7093895f3a2494a57b332de10", "type": "electric_scooter", "lon": -77.06211833333333, "rental_uris": {"android": "https://dc.lft.to/lastmile_qr_scan", "ios": "https://dc.lft.to/lastmile_qr_scan"}, "lat": 38.9052615, "is_reserved": 0, "is_disabled": 0, "fusion_lat": 0.0}, {"fusion_lon": 0.0, "bike_id": "f9717e641e2c6b58e03c52f76edb2840", "name": "f9717e641e2c6b58e03c52f76edb2840", "type": "electric_scooter", "lon": -76.99681483333333, "rental_uris": {"android": "https://dc.lft.to/lastmile_qr_scan", "ios": "https://dc.lft.to/lastmile_qr_scan"}, "lat": 38.88699416666667, "is_reserved": 0, "is_disabled": 0, "fusion_lat": 0.0}, {"fusion_lon": 0.0, "bike_id": "011d7ab91a13a910d656c319deb3bd48", "name": "011d7ab91a13a910d656c319deb3bd48", "type": "electric_scooter", "lon": -77.0260915, "rental_uris": {"android": "https://dc.lft.to/lastmile_qr_scan", "ios": "https://dc.lft.to/lastmile_qr_scan"}, "lat": 38.924440833333335, "is_reserved": 0, "is_disabled": 0, "fusion_lat": 0.0}, {"fusion_lon": 0.0, "bike_id": "5bd244c52e874e8e4ef614cef5b69712", "name": "5bd244c52e874e8e4ef614cef5b69712", "type": "electric_scooter", "lon": -77.0311275, "rental_uris": {"android": "https://dc.lft.to/lastmile_qr_scan", "ios": "https://dc.lft.to/lastmile_qr_scan"}, "lat": 38.92981183333333, "is_reserved": 0, "is_disabled": 0, "fusion_lat": 0.0}, {"fusion_lon": 0.0, "bike_id": "2a04c06e311c3ec14c1eb96a701f9303", "name": "2a04c06e311c3ec14c1eb96a701f9303", "type": "electric_scooter", "lon": -77.000534, "rental_uris": {"android": "https://dc.lft.to/lastmile_qr_scan", "ios": "https://dc.lft.to/lastmile_qr_scan"}, "lat": 38.88903883333333, "is_reserved": 0, "is_disabled": 0, "fusion_lat": 0.0}, {"fusion_lon": 0.0, "bike_id": "21b40faee07fae3dfec49f755c3e8b6e", "name": "21b40faee07fae3dfec49f755c3e8b6e", "type": "electric_scooter", "lon": -77.030979, "rental_uris": {"android": "https://dc.lft.to/lastmile_qr_scan", "ios": "https://dc.lft.to/lastmile_qr_scan"}, "lat": 38.91866, "is_reserved": 0, "is_disabled": 0, "fusion_lat": 0.0}, {"fusion_lon": 0.0, "bike_id": "8504e7ce7c58c191a4788b3b3be844b3", "name": "8504e7ce7c58c191a4788b3b3be844b3", "type": "electric_scooter", "lon": -76.965259, "rental_uris": {"android": "https://dc.lft.to/lastmile_qr_scan", "ios": "https://dc.lft.to/lastmile_qr_scan"}, "lat": 38.87629916666667, "is_reserved": 0, "is_disabled": 0, "fusion_lat": 0.0}, {"fusion_lon": 0.0, "bike_id": "3905c6d7180453209ff26f93c55bb8b7", "name": "3905c6d7180453209ff26f93c55bb8b7", "type": "electric_bike", "lon": -76.94574366666667, "rental_uris": {"android": "https://dc.lft.to/lastmile_qr_scan", "ios": "https://dc.lft.to/lastmile_qr_scan"}, "lat": 38.8662375, "is_reserved": 0, "is_disabled": 0, "fusion_lat": 0.0}, {"fusion_lon": 0.0, "bike_id": "fbef8586605f7079b0495297702cbacc", "name": "fbef8586605f7079b0495297702cbacc", "type": "electric_scooter", "lon": -77.02636166666667, "rental_uris": {"android": "https://dc.lft.to/lastmile_qr_scan", "ios": "https://dc.lft.to/lastmile_qr_scan"}, "lat": 38.98057383333333, "is_reserved": 0, "is_disabled": 0, "fusion_lat": 0.0}, {"fusion_lon": 0.0, "bike_id": "97b597243de02f2bcb1238a5b662c31d", "name": "97b597243de02f2bcb1238a5b662c31d", "type": "electric_scooter", "lon": -77.0688655, "rental_uris": {"android": "https://dc.lft.to/lastmile_qr_scan", "ios": "https://dc.lft.to/lastmile_qr_scan"}, "lat": 38.9051615, "is_reserved": 0, "is_disabled": 0, "fusion_lat": 0.0}, {"fusion_lon": 0.0, "bike_id": "cb65125699d0af8c406e60106bdba1d3", "name": "cb65125699d0af8c406e60106bdba1d3", "type": "electric_scooter", "lon": -77.03831683333334, "rental_uris": {"android": "https://dc.lft.to/lastmile_qr_scan", "ios": "https://dc.lft.to/lastmile_qr_scan"}, "lat": 38.9157015, "is_reserved": 0, "is_disabled": 0, "fusion_lat": 0.0}, {"fusion_lon": 0.0, "bike_id": "7685932c37a211f00a0b8cf34ff1140b", "name": "7685932c37a211f00a0b8cf34ff1140b", "type": "electric_scooter", "lon": -77.017611, "rental_uris": {"android": "https://dc.lft.to/lastmile_qr_scan", "ios": "https://dc.lft.to/lastmile_qr_scan"}, "lat": 38.87721066666667, "is_reserved": 0, "is_disabled": 0, "fusion_lat": 0.0}, {"fusion_lon": 0.0, "bike_id": "b8a3abfecf5e848057df3fc02f0a18fd", "name": "b8a3abfecf5e848057df3fc02f0a18fd", "type": "electric_scooter", "lon": -77.002946, "rental_uris": {"android": "https://dc.lft.to/lastmile_qr_scan", "ios": "https://dc.lft.to/lastmile_qr_scan"}, "lat": 38.901233833333336, "is_reserved": 0, "is_disabled": 0, "fusion_lat": 0.0}, {"fusion_lon": 0.0, "bike_id": "e6f319c14300104fcda02ff02aba8e98", "name": "e6f319c14300104fcda02ff02aba8e98", "type": "electric_scooter", "lon": -76.97542583333333, "rental_uris": {"android": "https://dc.lft.to/lastmile_qr_scan", "ios": "https://dc.lft.to/lastmile_qr_scan"}, "lat": 38.90254933333333, "is_reserved": 0, "is_disabled": 0, "fusion_lat": 0.0}, {"fusion_lon": 0.0, "bike_id": "91990800354e3757d2cb0cfa0262aefd", "name": "91990800354e3757d2cb0cfa0262aefd", "type": "electric_scooter", "lon": -77.04822716666666, "rental_uris": {"android": "https://dc.lft.to/lastmile_qr_scan", "ios": "https://dc.lft.to/lastmile_qr_scan"}, "lat": 38.91055, "is_reserved": 0, "is_disabled": 0, "fusion_lat": 0.0}, {"fusion_lon": 0.0, "bike_id": "7cf1a7357ba75ed47a6d966f782a2b9a", "name": "7cf1a7357ba75ed47a6d966f782a2b9a", "type": "electric_bike", "lon": -77.0067685, "rental_uris": {"android": "https://dc.lft.to/lastmile_qr_scan", "ios": "https://dc.lft.to/lastmile_qr_scan"}, "lat": 38.94512316666667, "is_reserved": 0, "is_disabled": 0, "fusion_lat": 0.0}, {"fusion_lon": 0.0, "bike_id": "da84007e9e80ec7dc7204381e9166a6c", "name": "da84007e9e80ec7dc7204381e9166a6c", "type": "electric_scooter", "lon": -76.9833135, "rental_uris": {"android": "https://dc.lft.to/lastmile_qr_scan", "ios": "https://dc.lft.to/lastmile_qr_scan"}, "lat": 38.88990116666667, "is_reserved": 0, "is_disabled": 0, "fusion_lat": 0.0}, {"fusion_lon": 0.0, "bike_id": "296573a6558e5e345786b29ea372e65e", "name": "296573a6558e5e345786b29ea372e65e", "type": "electric_scooter", "lon": -77.023696, "rental_uris": {"android": "https://dc.lft.to/lastmile_qr_scan", "ios": "https://dc.lft.to/lastmile_qr_scan"}, "lat": 38.95201483333334, "is_reserved": 0, "is_disabled": 0, "fusion_lat": 0.0}, {"fusion_lon": 0.0, "bike_id": "9aefd12b111d673a25c37b83c4d6ed99", "name": "9aefd12b111d673a25c37b83c4d6ed99", "type": "electric_scooter", "lon": -77.01950283333333, "rental_uris": {"android": "https://dc.lft.to/lastmile_qr_scan", "ios": "https://dc.lft.to/lastmile_qr_scan"}, "lat": 38.905736, "is_reserved": 0, "is_disabled": 0, "fusion_lat": 0.0}, {"fusion_lon": 0.0, "bike_id": "680350e0bfb59d0637e2a054f42a348a", "name": "680350e0bfb59d0637e2a054f42a348a", "type": "electric_scooter", "lon": -77.0275665, "rental_uris": {"android": "https://dc.lft.to/lastmile_qr_scan", "ios": "https://dc.lft.to/lastmile_qr_scan"}, "lat": 38.925811833333334, "is_reserved": 0, "is_disabled": 0, "fusion_lat": 0.0}, {"fusion_lon": 0.0, "bike_id": "9e26b596643bcd85d81739b04a4a9190", "name": "9e26b596643bcd85d81739b04a4a9190", "type": "electric_scooter", "lon": -77.07243866666667, "rental_uris": {"android": "https://dc.lft.to/lastmile_qr_scan", "ios": "https://dc.lft.to/lastmile_qr_scan"}, "lat": 38.90780683333333, "is_reserved": 0, "is_disabled": 0, "fusion_lat": 0.0}, {"fusion_lon": 0.0, "bike_id": "0a7c6e9853e2ac5a599bbe7461d8851c", "name": "0a7c6e9853e2ac5a599bbe7461d8851c", "type": "electric_scooter", "lon": -77.0013915, "rental_uris": {"android": "https://dc.lft.to/lastmile_qr_scan", "ios": "https://dc.lft.to/lastmile_qr_scan"}, "lat": 38.873928666666664, "is_reserved": 0, "is_disabled": 0, "fusion_lat": 0.0}, {"fusion_lon": 0.0, "bike_id": "9c5a1ba7d1ee39462a9deaa9a5139341", "name": "9c5a1ba7d1ee39462a9deaa9a5139341", "type": "electric_scooter", "lon": -77.03840966666667, "rental_uris": {"android": "https://dc.lft.to/lastmile_qr_scan", "ios": "https://dc.lft.to/lastmile_qr_scan"}, "lat": 38.91564433333333, "is_reserved": 0, "is_disabled": 0, "fusion_lat": 0.0}, {"fusion_lon": 0.0, "bike_id": "f2edb8e4b3b2c89e0bf96602807f12b4", "name": "f2edb8e4b3b2c89e0bf96602807f12b4", "type": "electric_scooter", "lon": -77.02717333333334, "rental_uris": {"android": "https://dc.lft.to/lastmile_qr_scan", "ios": "https://dc.lft.to/lastmile_qr_scan"}, "lat": 38.90981633333333, "is_reserved": 0, "is_disabled": 0, "fusion_lat": 0.0}, {"fusion_lon": 0.0, "bike_id": "6328a7a48458f481606dc1541427eecd", "name": "6328a7a48458f481606dc1541427eecd", "type": "electric_scooter", "lon": -77.02223933333333, "rental_uris": {"android": "https://dc.lft.to/lastmile_qr_scan", "ios": "https://dc.lft.to/lastmile_qr_scan"}, "lat": 38.9126975, "is_reserved": 0, "is_disabled": 0, "fusion_lat": 0.0}, {"fusion_lon": 0.0, "bike_id": "50ff5cf131ad38ebb94131403f966b55", "name": "50ff5cf131ad38ebb94131403f966b55", "type": "electric_scooter", "lon": -77.017557, "rental_uris": {"android": "https://dc.lft.to/lastmile_qr_scan", "ios": "https://dc.lft.to/lastmile_qr_scan"}, "lat": 38.902692, "is_reserved": 0, "is_disabled": 0, "fusion_lat": 0.0}, {"fusion_lon": 0.0, "bike_id": "e79faf58342a7bbeae8e649b54c10a0e", "name": "e79faf58342a7bbeae8e649b54c10a0e", "type": "electric_bike", "lon": -77.0894305, "rental_uris": {"android": "https://dc.lft.to/lastmile_qr_scan", "ios": "https://dc.lft.to/lastmile_qr_scan"}, "lat": 38.841046166666665, "is_reserved": 0, "is_disabled": 0, "fusion_lat": 0.0}, {"fusion_lon": 0.0, "bike_id": "c8687651b3b0b8956af234794920e9c9", "name": "c8687651b3b0b8956af234794920e9c9", "type": "electric_scooter", "lon": -76.9833985, "rental_uris": {"android": "https://dc.lft.to/lastmile_qr_scan", "ios": "https://dc.lft.to/lastmile_qr_scan"}, "lat": 38.86254, "is_reserved": 0, "is_disabled": 0, "fusion_lat": 0.0}, {"fusion_lon": 0.0, "bike_id": "2611704055bcad5ba8f052c4e8260ea9", "name": "2611704055bcad5ba8f052c4e8260ea9", "type": "electric_scooter", "lon": -77.03464183333334, "rental_uris": {"android": "https://dc.lft.to/lastmile_qr_scan", "ios": "https://dc.lft.to/lastmile_qr_scan"}, "lat": 38.91720566666667, "is_reserved": 0, "is_disabled": 0, "fusion_lat": 0.0}, {"fusion_lon": 0.0, "bike_id": "3fb2461f8920e10faf1a0baec55c1785", "name": "3fb2461f8920e10faf1a0baec55c1785", "type": "electric_scooter", "lon": -77.03833366666667, "rental_uris": {"android": "https://dc.lft.to/lastmile_qr_scan", "ios": "https://dc.lft.to/lastmile_qr_scan"}, "lat": 38.91565683333334, "is_reserved": 0, "is_disabled": 0, "fusion_lat": 0.0}, {"fusion_lon": 0.0, "bike_id": "5c9f949135f124cfa48b73b70f114308", "name": "5c9f949135f124cfa48b73b70f114308", "type": "electric_scooter", "lon": -76.942843, "rental_uris": {"android": "https://dc.lft.to/lastmile_qr_scan", "ios": "https://dc.lft.to/lastmile_qr_scan"}, "lat": 38.883047, "is_reserved": 0, "is_disabled": 0, "fusion_lat": 0.0}, {"fusion_lon": 0.0, "bike_id": "d3b1ce5bfb1f7583d2253ebb1f8f54ed", "name": "d3b1ce5bfb1f7583d2253ebb1f8f54ed", "type": "electric_scooter", "lon": -77.038023, "rental_uris": {"android": "https://dc.lft.to/lastmile_qr_scan", "ios": "https://dc.lft.to/lastmile_qr_scan"}, "lat": 38.9103855, "is_reserved": 0, "is_disabled": 0, "fusion_lat": 0.0}, {"fusion_lon": 0.0, "bike_id": "baadc248dc9a0fd5d61f916e838cccaa", "name": "baadc248dc9a0fd5d61f916e838cccaa", "type": "electric_bike", "lon": -77.10125766666667, "rental_uris": {"android": "https://dc.lft.to/lastmile_qr_scan", "ios": "https://dc.lft.to/lastmile_qr_scan"}, "lat": 38.85209283333333, "is_reserved": 0, "is_disabled": 0, "fusion_lat": 0.0}, {"fusion_lon": 0.0, "bike_id": "d581d22b76f05081df4342f33eca1c2c", "name": "d581d22b76f05081df4342f33eca1c2c", "type": "electric_scooter", "lon": -77.02310083333333, "rental_uris": {"android": "https://dc.lft.to/lastmile_qr_scan", "ios": "https://dc.lft.to/lastmile_qr_scan"}, "lat": 38.917723333333335, "is_reserved": 0, "is_disabled": 0, "fusion_lat": 0.0}, {"fusion_lon": 0.0, "bike_id": "ebe72285e7690569a19cf5d7ca1a881e", "name": "ebe72285e7690569a19cf5d7ca1a881e", "type": "electric_scooter", "lon": -77.04232583333334, "rental_uris": {"android": "https://dc.lft.to/lastmile_qr_scan", "ios": "https://dc.lft.to/lastmile_qr_scan"}, "lat": 38.921575, "is_reserved": 0, "is_disabled": 0, "fusion_lat": 0.0}, {"fusion_lon": 0.0, "bike_id": "3509a6e1bd729b1e678e6f2496504b85", "name": "3509a6e1bd729b1e678e6f2496504b85", "type": "electric_scooter", "lon": -77.0183665, "rental_uris": {"android": "https://dc.lft.to/lastmile_qr_scan", "ios": "https://dc.lft.to/lastmile_qr_scan"}, "lat": 38.9025975, "is_reserved": 0, "is_disabled": 0, "fusion_lat": 0.0}, {"fusion_lon": 0.0, "bike_id": "f3ba403981cbbc87d018960c9d3305ad", "name": "f3ba403981cbbc87d018960c9d3305ad", "type": "electric_scooter", "lon": -77.03513033333333, "rental_uris": {"android": "https://dc.lft.to/lastmile_qr_scan", "ios": "https://dc.lft.to/lastmile_qr_scan"}, "lat": 38.932877500000004, "is_reserved": 0, "is_disabled": 0, "fusion_lat": 0.0}, {"fusion_lon": 0.0, "bike_id": "6ee1952fa2432e09a37dc47e972ce4ef", "name": "6ee1952fa2432e09a37dc47e972ce4ef", "type": "electric_scooter", "lon": -77.04511483333333, "rental_uris": {"android": "https://dc.lft.to/lastmile_qr_scan", "ios": "https://dc.lft.to/lastmile_qr_scan"}, "lat": 38.88609566666667, "is_reserved": 0, "is_disabled": 0, "fusion_lat": 0.0}, {"fusion_lon": 0.0, "bike_id": "349f4b9aab182e1d3d201511c8b03b95", "name": "349f4b9aab182e1d3d201511c8b03b95", "type": "electric_scooter", "lon": -77.03862516666666, "rental_uris": {"android": "https://dc.lft.to/lastmile_qr_scan", "ios": "https://dc.lft.to/lastmile_qr_scan"}, "lat": 38.915532, "is_reserved": 0, "is_disabled": 0, "fusion_lat": 0.0}, {"fusion_lon": 0.0, "bike_id": "020454f72639cbe313e3332ae84a5412", "name": "020454f72639cbe313e3332ae84a5412", "type": "electric_bike", "lon": -76.98204083333333, "rental_uris": {"android": "https://dc.lft.to/lastmile_qr_scan", "ios": "https://dc.lft.to/lastmile_qr_scan"}, "lat": 38.985036, "is_reserved": 0, "is_disabled": 0, "fusion_lat": 0.0}, {"fusion_lon": 0.0, "bike_id": "5e09c9248db328ccfa48af79fb8cbe88", "name": "5e09c9248db328ccfa48af79fb8cbe88", "type": "electric_scooter", "lon": -77.02583016666667, "rental_uris": {"android": "https://dc.lft.to/lastmile_qr_scan", "ios": "https://dc.lft.to/lastmile_qr_scan"}, "lat": 38.94213666666667, "is_reserved": 0, "is_disabled": 0, "fusion_lat": 0.0}, {"fusion_lon": 0.0, "bike_id": "518fe7402e9eab9afcdb179970d8e807", "name": "518fe7402e9eab9afcdb179970d8e807", "type": "electric_scooter", "lon": -77.0314605, "rental_uris": {"android": "https://dc.lft.to/lastmile_qr_scan", "ios": "https://dc.lft.to/lastmile_qr_scan"}, "lat": 38.92728266666667, "is_reserved": 0, "is_disabled": 0, "fusion_lat": 0.0}, {"fusion_lon": 0.0, "bike_id": "ddbdc090cc9daa033e2452c8f60b70f1", "name": "ddbdc090cc9daa033e2452c8f60b70f1", "type": "electric_scooter", "lon": -77.038588, "rental_uris": {"android": "https://dc.lft.to/lastmile_qr_scan", "ios": "https://dc.lft.to/lastmile_qr_scan"}, "lat": 38.91808783333333, "is_reserved": 0, "is_disabled": 0, "fusion_lat": 0.0}, {"fusion_lon": 0.0, "bike_id": "8e09f3f8036eaf23e984bf729aa034cc", "name": "8e09f3f8036eaf23e984bf729aa034cc", "type": "electric_scooter", "lon": -77.02687516666667, "rental_uris": {"android": "https://dc.lft.to/lastmile_qr_scan", "ios": "https://dc.lft.to/lastmile_qr_scan"}, "lat": 38.907376, "is_reserved": 0, "is_disabled": 0, "fusion_lat": 0.0}, {"fusion_lon": 0.0, "bike_id": "7e876c3062f803ef6a43262bf3209700", "name": "7e876c3062f803ef6a43262bf3209700", "type": "electric_scooter", "lon": -77.00749016666667, "rental_uris": {"android": "https://dc.lft.to/lastmile_qr_scan", "ios": "https://dc.lft.to/lastmile_qr_scan"}, "lat": 38.876537666666664, "is_reserved": 0, "is_disabled": 0, "fusion_lat": 0.0}, {"fusion_lon": 0.0, "bike_id": "12f29781aea56411d9d15d02eb852eb0", "name": "12f29781aea56411d9d15d02eb852eb0", "type": "electric_scooter", "lon": -77.03265566666667, "rental_uris": {"android": "https://dc.lft.to/lastmile_qr_scan", "ios": "https://dc.lft.to/lastmile_qr_scan"}, "lat": 38.9321465, "is_reserved": 0, "is_disabled": 0, "fusion_lat": 0.0}, {"fusion_lon": 0.0, "bike_id": "b96d08810fbbaf6e700b49dc929001fe", "name": "b96d08810fbbaf6e700b49dc929001fe", "type": "electric_scooter", "lon": -77.05428483333333, "rental_uris": {"android": "https://dc.lft.to/lastmile_qr_scan", "ios": "https://dc.lft.to/lastmile_qr_scan"}, "lat": 38.92803683333333, "is_reserved": 0, "is_disabled": 0, "fusion_lat": 0.0}, {"fusion_lon": 0.0, "bike_id": "d24d007214d7dd0fcaa7e24827bbceee", "name": "d24d007214d7dd0fcaa7e24827bbceee", "type": "electric_scooter", "lon": -77.00641616666667, "rental_uris": {"android": "https://dc.lft.to/lastmile_qr_scan", "ios": "https://dc.lft.to/lastmile_qr_scan"}, "lat": 38.911839, "is_reserved": 0, "is_disabled": 0, "fusion_lat": 0.0}, {"fusion_lon": 0.0, "bike_id": "6ef59428bc83f1d6462af51aa26a980b", "name": "6ef59428bc83f1d6462af51aa26a980b", "type": "electric_scooter", "lon": -77.00918616666667, "rental_uris": {"android": "https://dc.lft.to/lastmile_qr_scan", "ios": "https://dc.lft.to/lastmile_qr_scan"}, "lat": 38.912902, "is_reserved": 0, "is_disabled": 0, "fusion_lat": 0.0}, {"fusion_lon": 0.0, "bike_id": "156d82e9a8acb7a4233d21b336d8d064", "name": "156d82e9a8acb7a4233d21b336d8d064", "type": "electric_scooter", "lon": -77.01967233333333, "rental_uris": {"android": "https://dc.lft.to/lastmile_qr_scan", "ios": "https://dc.lft.to/lastmile_qr_scan"}, "lat": 38.902594, "is_reserved": 0, "is_disabled": 0, "fusion_lat": 0.0}, {"fusion_lon": 0.0, "bike_id": "b349f27306e04ab8795200b85ab481c3", "name": "b349f27306e04ab8795200b85ab481c3", "type": "electric_scooter", "lon": -77.03574316666666, "rental_uris": {"android": "https://dc.lft.to/lastmile_qr_scan", "ios": "https://dc.lft.to/lastmile_qr_scan"}, "lat": 38.88183766666667, "is_reserved": 0, "is_disabled": 0, "fusion_lat": 0.0}, {"fusion_lon": 0.0, "bike_id": "9b8d0dc76106cfee6e124b729cc343b0", "name": "9b8d0dc76106cfee6e124b729cc343b0", "type": "electric_scooter", "lon": -77.03888433333333, "rental_uris": {"android": "https://dc.lft.to/lastmile_qr_scan", "ios": "https://dc.lft.to/lastmile_qr_scan"}, "lat": 38.9202525, "is_reserved": 0, "is_disabled": 0, "fusion_lat": 0.0}, {"fusion_lon": 0.0, "bike_id": "520340f84f75f0a21099181619b6f2ec", "name": "520340f84f75f0a21099181619b6f2ec", "type": "electric_scooter", "lon": -77.04110466666667, "rental_uris": {"android": "https://dc.lft.to/lastmile_qr_scan", "ios": "https://dc.lft.to/lastmile_qr_scan"}, "lat": 38.910395333333334, "is_reserved": 0, "is_disabled": 0, "fusion_lat": 0.0}, {"fusion_lon": 0.0, "bike_id": "70159beb78723983b52814690db7c1e5", "name": "70159beb78723983b52814690db7c1e5", "type": "electric_scooter", "lon": -76.97666666666667, "rental_uris": {"android": "https://dc.lft.to/lastmile_qr_scan", "ios": "https://dc.lft.to/lastmile_qr_scan"}, "lat": 38.840542, "is_reserved": 0, "is_disabled": 0, "fusion_lat": 0.0}, {"fusion_lon": 0.0, "bike_id": "e37d5afe242241ac69b9ca76cc8e56e0", "name": "e37d5afe242241ac69b9ca76cc8e56e0", "type": "electric_scooter", "lon": -77.0112015, "rental_uris": {"android": "https://dc.lft.to/lastmile_qr_scan", "ios": "https://dc.lft.to/lastmile_qr_scan"}, "lat": 38.92029183333333, "is_reserved": 0, "is_disabled": 0, "fusion_lat": 0.0}, {"fusion_lon": 0.0, "bike_id": "36294e74d3098f1e8fdb907e59eed009", "name": "36294e74d3098f1e8fdb907e59eed009", "type": "electric_scooter", "lon": -76.98330483333334, "rental_uris": {"android": "https://dc.lft.to/lastmile_qr_scan", "ios": "https://dc.lft.to/lastmile_qr_scan"}, "lat": 38.907464833333336, "is_reserved": 0, "is_disabled": 0, "fusion_lat": 0.0}, {"fusion_lon": 0.0, "bike_id": "4128be9530eb16c1dca66038b772256c", "name": "4128be9530eb16c1dca66038b772256c", "type": "electric_scooter", "lon": -77.04860433333333, "rental_uris": {"android": "https://dc.lft.to/lastmile_qr_scan", "ios": "https://dc.lft.to/lastmile_qr_scan"}, "lat": 38.89224216666667, "is_reserved": 0, "is_disabled": 0, "fusion_lat": 0.0}, {"fusion_lon": 0.0, "bike_id": "7b4f168ab86265f5477d13cd7873c301", "name": "7b4f168ab86265f5477d13cd7873c301", "type": "electric_scooter", "lon": -76.98696533333333, "rental_uris": {"android": "https://dc.lft.to/lastmile_qr_scan", "ios": "https://dc.lft.to/lastmile_qr_scan"}, "lat": 38.907044666666664, "is_reserved": 0, "is_disabled": 0, "fusion_lat": 0.0}, {"fusion_lon": 0.0, "bike_id": "b3af5448bca2599219a766aad14ba0f6", "name": "b3af5448bca2599219a766aad14ba0f6", "type": "electric_scooter", "lon": -77.02852066666667, "rental_uris": {"android": "https://dc.lft.to/lastmile_qr_scan", "ios": "https://dc.lft.to/lastmile_qr_scan"}, "lat": 38.922355, "is_reserved": 0, "is_disabled": 0, "fusion_lat": 0.0}, {"fusion_lon": 0.0, "bike_id": "0dab56a913875258e747b4db04328bbb", "name": "0dab56a913875258e747b4db04328bbb", "type": "electric_scooter", "lon": -77.02295566666666, "rental_uris": {"android": "https://dc.lft.to/lastmile_qr_scan", "ios": "https://dc.lft.to/lastmile_qr_scan"}, "lat": 38.91679833333333, "is_reserved": 0, "is_disabled": 0, "fusion_lat": 0.0}, {"fusion_lon": 0.0, "bike_id": "b5229162d30135e8887cf573f25aa347", "name": "b5229162d30135e8887cf573f25aa347", "type": "electric_scooter", "lon": -77.00627733333333, "rental_uris": {"android": "https://dc.lft.to/lastmile_qr_scan", "ios": "https://dc.lft.to/lastmile_qr_scan"}, "lat": 38.8770015, "is_reserved": 0, "is_disabled": 0, "fusion_lat": 0.0}, {"fusion_lon": 0.0, "bike_id": "0abe8d94e737c6f868f78cad7ec39b26", "name": "0abe8d94e737c6f868f78cad7ec39b26", "type": "electric_scooter", "lon": -77.053037, "rental_uris": {"android": "https://dc.lft.to/lastmile_qr_scan", "ios": "https://dc.lft.to/lastmile_qr_scan"}, "lat": 38.92780966666667, "is_reserved": 0, "is_disabled": 0, "fusion_lat": 0.0}, {"fusion_lon": 0.0, "bike_id": "010ba8a29c5169bdf0e129737a7e7d1a", "name": "010ba8a29c5169bdf0e129737a7e7d1a", "type": "electric_scooter", "lon": -77.024781, "rental_uris": {"android": "https://dc.lft.to/lastmile_qr_scan", "ios": "https://dc.lft.to/lastmile_qr_scan"}, "lat": 38.919576666666664, "is_reserved": 0, "is_disabled": 0, "fusion_lat": 0.0}, {"fusion_lon": 0.0, "bike_id": "46e5f1b622c13a2e7059b493ecbe730e", "name": "46e5f1b622c13a2e7059b493ecbe730e", "type": "electric_scooter", "lon": -77.02497566666666, "rental_uris": {"android": "https://dc.lft.to/lastmile_qr_scan", "ios": "https://dc.lft.to/lastmile_qr_scan"}, "lat": 38.91806016666666, "is_reserved": 0, "is_disabled": 0, "fusion_lat": 0.0}, {"fusion_lon": 0.0, "bike_id": "04a90577b44ea6dbda95dc4354d90aee", "name": "04a90577b44ea6dbda95dc4354d90aee", "type": "electric_bike", "lon": -76.983287, "rental_uris": {"android": "https://dc.lft.to/lastmile_qr_scan", "ios": "https://dc.lft.to/lastmile_qr_scan"}, "lat": 38.966066, "is_reserved": 0, "is_disabled": 0, "fusion_lat": 0.0}, {"fusion_lon": 0.0, "bike_id": "9e6b6f6048eec7a2ce3251e598c75b6a", "name": "9e6b6f6048eec7a2ce3251e598c75b6a", "type": "electric_scooter", "lon": -76.99001483333333, "rental_uris": {"android": "https://dc.lft.to/lastmile_qr_scan", "ios": "https://dc.lft.to/lastmile_qr_scan"}, "lat": 38.86506133333334, "is_reserved": 0, "is_disabled": 0, "fusion_lat": 0.0}, {"fusion_lon": 0.0, "bike_id": "c3e9dac6b46f5b53c64038d4a3ba38eb", "name": "c3e9dac6b46f5b53c64038d4a3ba38eb", "type": "electric_scooter", "lon": -76.99843683333333, "rental_uris": {"android": "https://dc.lft.to/lastmile_qr_scan", "ios": "https://dc.lft.to/lastmile_qr_scan"}, "lat": 38.900241, "is_reserved": 0, "is_disabled": 0, "fusion_lat": 0.0}, {"fusion_lon": 0.0, "bike_id": "a99bc076d39f3f8c67cec60ec16f7360", "name": "a99bc076d39f3f8c67cec60ec16f7360", "type": "electric_scooter", "lon": -76.93431, "rental_uris": {"android": "https://dc.lft.to/lastmile_qr_scan", "ios": "https://dc.lft.to/lastmile_qr_scan"}, "lat": 38.8996675, "is_reserved": 0, "is_disabled": 0, "fusion_lat": 0.0}, {"fusion_lon": 0.0, "bike_id": "8d27ab164156f8ca3067ae7ddff8094c", "name": "8d27ab164156f8ca3067ae7ddff8094c", "type": "electric_bike", "lon": -77.05108516666667, "rental_uris": {"android": "https://dc.lft.to/lastmile_qr_scan", "ios": "https://dc.lft.to/lastmile_qr_scan"}, "lat": 38.945663833333334, "is_reserved": 0, "is_disabled": 0, "fusion_lat": 0.0}, {"fusion_lon": 0.0, "bike_id": "8a295b44717b26d52ed31ca76caa7a9a", "name": "8a295b44717b26d52ed31ca76caa7a9a", "type": "electric_bike", "lon": -77.00004333333334, "rental_uris": {"android": "https://dc.lft.to/lastmile_qr_scan", "ios": "https://dc.lft.to/lastmile_qr_scan"}, "lat": 38.9239365, "is_reserved": 0, "is_disabled": 0, "fusion_lat": 0.0}, {"fusion_lon": 0.0, "bike_id": "e9fb7a965b30afcecad0f0862692e6b4", "name": "e9fb7a965b30afcecad0f0862692e6b4", "type": "electric_scooter", "lon": -76.9891985, "rental_uris": {"android": "https://dc.lft.to/lastmile_qr_scan", "ios": "https://dc.lft.to/lastmile_qr_scan"}, "lat": 38.882113333333336, "is_reserved": 0, "is_disabled": 0, "fusion_lat": 0.0}, {"fusion_lon": 0.0, "bike_id": "a72e9e8fd8a8af08e69dde725e91f4d3", "name": "a72e9e8fd8a8af08e69dde725e91f4d3", "type": "electric_bike", "lon": -77.0541315, "rental_uris": {"android": "https://dc.lft.to/lastmile_qr_scan", "ios": "https://dc.lft.to/lastmile_qr_scan"}, "lat": 38.848913, "is_reserved": 0, "is_disabled": 0, "fusion_lat": 0.0}, {"fusion_lon": 0.0, "bike_id": "c84e6ad92d1d2be876c43308509e0205", "name": "c84e6ad92d1d2be876c43308509e0205", "type": "electric_bike", "lon": -77.10720516666666, "rental_uris": {"android": "https://dc.lft.to/lastmile_qr_scan", "ios": "https://dc.lft.to/lastmile_qr_scan"}, "lat": 38.855525, "is_reserved": 0, "is_disabled": 0, "fusion_lat": 0.0}, {"fusion_lon": 0.0, "bike_id": "7314a975edcca0a6c316371ae5fb3266", "name": "7314a975edcca0a6c316371ae5fb3266", "type": "electric_scooter", "lon": -77.03928883333333, "rental_uris": {"android": "https://dc.lft.to/lastmile_qr_scan", "ios": "https://dc.lft.to/lastmile_qr_scan"}, "lat": 38.92494166666667, "is_reserved": 0, "is_disabled": 0, "fusion_lat": 0.0}, {"fusion_lon": 0.0, "bike_id": "278f446ffbeca686774b9f8a0c675009", "name": "278f446ffbeca686774b9f8a0c675009", "type": "electric_scooter", "lon": -77.06362633333333, "rental_uris": {"android": "https://dc.lft.to/lastmile_qr_scan", "ios": "https://dc.lft.to/lastmile_qr_scan"}, "lat": 38.9441635, "is_reserved": 0, "is_disabled": 0, "fusion_lat": 0.0}, {"fusion_lon": 0.0, "bike_id": "bb8d81dbb9175b953dcc7621d289ddc9", "name": "bb8d81dbb9175b953dcc7621d289ddc9", "type": "electric_scooter", "lon": -77.03208883333333, "rental_uris": {"android": "https://dc.lft.to/lastmile_qr_scan", "ios": "https://dc.lft.to/lastmile_qr_scan"}, "lat": 38.91261566666667, "is_reserved": 0, "is_disabled": 0, "fusion_lat": 0.0}, {"fusion_lon": 0.0, "bike_id": "53836ba2162ddf391d7d355f7eec5595", "name": "53836ba2162ddf391d7d355f7eec5595", "type": "electric_scooter", "lon": -77.044439, "rental_uris": {"android": "https://dc.lft.to/lastmile_qr_scan", "ios": "https://dc.lft.to/lastmile_qr_scan"}, "lat": 38.90993683333333, "is_reserved": 0, "is_disabled": 0, "fusion_lat": 0.0}, {"fusion_lon": 0.0, "bike_id": "e722ba53684feba7d8204446469de99f", "name": "e722ba53684feba7d8204446469de99f", "type": "electric_scooter", "lon": -77.04153983333333, "rental_uris": {"android": "https://dc.lft.to/lastmile_qr_scan", "ios": "https://dc.lft.to/lastmile_qr_scan"}, "lat": 38.91558066666666, "is_reserved": 0, "is_disabled": 0, "fusion_lat": 0.0}, {"fusion_lon": 0.0, "bike_id": "c1b39e1834b740bcac86fb6c0de231d2", "name": "c1b39e1834b740bcac86fb6c0de231d2", "type": "electric_scooter", "lon": -77.02781533333334, "rental_uris": {"android": "https://dc.lft.to/lastmile_qr_scan", "ios": "https://dc.lft.to/lastmile_qr_scan"}, "lat": 38.892217333333335, "is_reserved": 0, "is_disabled": 0, "fusion_lat": 0.0}, {"fusion_lon": 0.0, "bike_id": "1014e3c45c386a85802909553d3ae8e9", "name": "1014e3c45c386a85802909553d3ae8e9", "type": "electric_scooter", "lon": -76.96432566666667, "rental_uris": {"android": "https://dc.lft.to/lastmile_qr_scan", "ios": "https://dc.lft.to/lastmile_qr_scan"}, "lat": 38.934664, "is_reserved": 0, "is_disabled": 0, "fusion_lat": 0.0}, {"fusion_lon": 0.0, "bike_id": "7a9e838e2892536fc3fc18154a579274", "name": "7a9e838e2892536fc3fc18154a579274", "type": "electric_scooter", "lon": -77.0388205, "rental_uris": {"android": "https://dc.lft.to/lastmile_qr_scan", "ios": "https://dc.lft.to/lastmile_qr_scan"}, "lat": 38.934291333333334, "is_reserved": 0, "is_disabled": 0, "fusion_lat": 0.0}, {"fusion_lon": 0.0, "bike_id": "f4d1a80801934758b437c8d8c622e8e0", "name": "f4d1a80801934758b437c8d8c622e8e0", "type": "electric_scooter", "lon": -77.01690283333333, "rental_uris": {"android": "https://dc.lft.to/lastmile_qr_scan", "ios": "https://dc.lft.to/lastmile_qr_scan"}, "lat": 38.975100833333336, "is_reserved": 0, "is_disabled": 0, "fusion_lat": 0.0}, {"fusion_lon": 0.0, "bike_id": "ad5a37591b6e49064bf8d6a5b4da3646", "name": "ad5a37591b6e49064bf8d6a5b4da3646", "type": "electric_scooter", "lon": -77.016949, "rental_uris": {"android": "https://dc.lft.to/lastmile_qr_scan", "ios": "https://dc.lft.to/lastmile_qr_scan"}, "lat": 38.975038, "is_reserved": 0, "is_disabled": 0, "fusion_lat": 0.0}, {"fusion_lon": 0.0, "bike_id": "280f597b4f309194bf25a179ca54caf6", "name": "280f597b4f309194bf25a179ca54caf6", "type": "electric_scooter", "lon": -77.02154066666667, "rental_uris": {"android": "https://dc.lft.to/lastmile_qr_scan", "ios": "https://dc.lft.to/lastmile_qr_scan"}, "lat": 38.92604466666667, "is_reserved": 0, "is_disabled": 0, "fusion_lat": 0.0}, {"fusion_lon": 0.0, "bike_id": "b2e43d1dab1b158c79abf3e02f7611c9", "name": "b2e43d1dab1b158c79abf3e02f7611c9", "type": "electric_scooter", "lon": -77.02154116666667, "rental_uris": {"android": "https://dc.lft.to/lastmile_qr_scan", "ios": "https://dc.lft.to/lastmile_qr_scan"}, "lat": 38.92604683333333, "is_reserved": 0, "is_disabled": 0, "fusion_lat": 0.0}, {"fusion_lon": 0.0, "bike_id": "55bc1df445b4972246627756f200c076", "name": "55bc1df445b4972246627756f200c076", "type": "electric_scooter", "lon": -77.02799183333333, "rental_uris": {"android": "https://dc.lft.to/lastmile_qr_scan", "ios": "https://dc.lft.to/lastmile_qr_scan"}, "lat": 38.91682383333333, "is_reserved": 0, "is_disabled": 0, "fusion_lat": 0.0}, {"fusion_lon": 0.0, "bike_id": "8936ad72620866956f61b7b6365b6993", "name": "8936ad72620866956f61b7b6365b6993", "type": "electric_bike", "lon": -77.00368533333334, "rental_uris": {"android": "https://dc.lft.to/lastmile_qr_scan", "ios": "https://dc.lft.to/lastmile_qr_scan"}, "lat": 38.879432333333334, "is_reserved": 0, "is_disabled": 0, "fusion_lat": 0.0}, {"fusion_lon": 0.0, "bike_id": "df8bb44fc8f9260c9668af9e8252a3c4", "name": "df8bb44fc8f9260c9668af9e8252a3c4", "type": "electric_bike", "lon": -76.97217366666666, "rental_uris": {"android": "https://dc.lft.to/lastmile_qr_scan", "ios": "https://dc.lft.to/lastmile_qr_scan"}, "lat": 38.84479533333333, "is_reserved": 0, "is_disabled": 0, "fusion_lat": 0.0}, {"fusion_lon": 0.0, "bike_id": "b58b8ebb4e3ad089e0e802a8b4248263", "name": "b58b8ebb4e3ad089e0e802a8b4248263", "type": "electric_scooter", "lon": -77.06756016666667, "rental_uris": {"android": "https://dc.lft.to/lastmile_qr_scan", "ios": "https://dc.lft.to/lastmile_qr_scan"}, "lat": 38.94969783333333, "is_reserved": 0, "is_disabled": 0, "fusion_lat": 0.0}, {"fusion_lon": 0.0, "bike_id": "96b71cb24ccad622e1b0ea076c283f1a", "name": "96b71cb24ccad622e1b0ea076c283f1a", "type": "electric_scooter", "lon": -76.97338366666666, "rental_uris": {"android": "https://dc.lft.to/lastmile_qr_scan", "ios": "https://dc.lft.to/lastmile_qr_scan"}, "lat": 38.86516833333334, "is_reserved": 0, "is_disabled": 0, "fusion_lat": 0.0}, {"fusion_lon": 0.0, "bike_id": "ae5b4d69e3425823477fcbd7452e7979", "name": "ae5b4d69e3425823477fcbd7452e7979", "type": "electric_scooter", "lon": -77.04175266666667, "rental_uris": {"android": "https://dc.lft.to/lastmile_qr_scan", "ios": "https://dc.lft.to/lastmile_qr_scan"}, "lat": 38.91550866666667, "is_reserved": 0, "is_disabled": 0, "fusion_lat": 0.0}, {"fusion_lon": 0.0, "bike_id": "fa43046ec284ff931747e12a3c220831", "name": "fa43046ec284ff931747e12a3c220831", "type": "electric_scooter", "lon": -77.0582475, "rental_uris": {"android": "https://dc.lft.to/lastmile_qr_scan", "ios": "https://dc.lft.to/lastmile_qr_scan"}, "lat": 38.93532366666667, "is_reserved": 0, "is_disabled": 0, "fusion_lat": 0.0}, {"fusion_lon": 0.0, "bike_id": "e63b0cf7fb5061dd957e181d9b3ac4b6", "name": "e63b0cf7fb5061dd957e181d9b3ac4b6", "type": "electric_scooter", "lon": -77.02690633333333, "rental_uris": {"android": "https://dc.lft.to/lastmile_qr_scan", "ios": "https://dc.lft.to/lastmile_qr_scan"}, "lat": 38.90870233333333, "is_reserved": 0, "is_disabled": 0, "fusion_lat": 0.0}, {"fusion_lon": 0.0, "bike_id": "2a27b520c875fe08266db61e643f75d4", "name": "2a27b520c875fe08266db61e643f75d4", "type": "electric_scooter", "lon": -77.03460016666666, "rental_uris": {"android": "https://dc.lft.to/lastmile_qr_scan", "ios": "https://dc.lft.to/lastmile_qr_scan"}, "lat": 38.906713333333336, "is_reserved": 0, "is_disabled": 0, "fusion_lat": 0.0}, {"fusion_lon": 0.0, "bike_id": "dcc88bf54037873f52816801f33f5843", "name": "dcc88bf54037873f52816801f33f5843", "type": "electric_scooter", "lon": -77.0335875, "rental_uris": {"android": "https://dc.lft.to/lastmile_qr_scan", "ios": "https://dc.lft.to/lastmile_qr_scan"}, "lat": 38.9119475, "is_reserved": 0, "is_disabled": 0, "fusion_lat": 0.0}, {"fusion_lon": 0.0, "bike_id": "031d7d239458071cd6498ada74375a5d", "name": "031d7d239458071cd6498ada74375a5d", "type": "electric_scooter", "lon": -76.98070116666666, "rental_uris": {"android": "https://dc.lft.to/lastmile_qr_scan", "ios": "https://dc.lft.to/lastmile_qr_scan"}, "lat": 38.91675866666667, "is_reserved": 0, "is_disabled": 0, "fusion_lat": 0.0}, {"fusion_lon": 0.0, "bike_id": "f9a0f3b0dc0417878038530fe112d01f", "name": "f9a0f3b0dc0417878038530fe112d01f", "type": "electric_scooter", "lon": -77.02300933333333, "rental_uris": {"android": "https://dc.lft.to/lastmile_qr_scan", "ios": "https://dc.lft.to/lastmile_qr_scan"}, "lat": 38.92069633333333, "is_reserved": 0, "is_disabled": 0, "fusion_lat": 0.0}, {"fusion_lon": 0.0, "bike_id": "8f69f2d53db2c7becd69a058111c3e6a", "name": "8f69f2d53db2c7becd69a058111c3e6a", "type": "electric_bike", "lon": -77.02496316666667, "rental_uris": {"android": "https://dc.lft.to/lastmile_qr_scan", "ios": "https://dc.lft.to/lastmile_qr_scan"}, "lat": 38.9740695, "is_reserved": 0, "is_disabled": 0, "fusion_lat": 0.0}, {"fusion_lon": 0.0, "bike_id": "8e4308d0cbd2ef4cde5bfe6c1b2ffcaa", "name": "8e4308d0cbd2ef4cde5bfe6c1b2ffcaa", "type": "electric_bike", "lon": -77.00082966666666, "rental_uris": {"android": "https://dc.lft.to/lastmile_qr_scan", "ios": "https://dc.lft.to/lastmile_qr_scan"}, "lat": 38.885998666666666, "is_reserved": 0, "is_disabled": 0, "fusion_lat": 0.0}, {"fusion_lon": 0.0, "bike_id": "edf31ebac26a660e6f117dd37bce4210", "name": "edf31ebac26a660e6f117dd37bce4210", "type": "electric_scooter", "lon": -77.02167983333334, "rental_uris": {"android": "https://dc.lft.to/lastmile_qr_scan", "ios": "https://dc.lft.to/lastmile_qr_scan"}, "lat": 38.94293666666667, "is_reserved": 0, "is_disabled": 0, "fusion_lat": 0.0}, {"fusion_lon": 0.0, "bike_id": "0245a7c3692871619fd43ade2495eb4f", "name": "0245a7c3692871619fd43ade2495eb4f", "type": "electric_scooter", "lon": -76.9907595, "rental_uris": {"android": "https://dc.lft.to/lastmile_qr_scan", "ios": "https://dc.lft.to/lastmile_qr_scan"}, "lat": 38.904251333333335, "is_reserved": 0, "is_disabled": 0, "fusion_lat": 0.0}, {"fusion_lon": 0.0, "bike_id": "58941f9e07027315b808e14c371d4d6a", "name": "58941f9e07027315b808e14c371d4d6a", "type": "electric_scooter", "lon": -77.05439666666666, "rental_uris": {"android": "https://dc.lft.to/lastmile_qr_scan", "ios": "https://dc.lft.to/lastmile_qr_scan"}, "lat": 38.89605133333333, "is_reserved": 0, "is_disabled": 0, "fusion_lat": 0.0}, {"fusion_lon": 0.0, "bike_id": "28405e2fa89027c22a58d645485d77a8", "name": "28405e2fa89027c22a58d645485d77a8", "type": "electric_scooter", "lon": -77.01731316666667, "rental_uris": {"android": "https://dc.lft.to/lastmile_qr_scan", "ios": "https://dc.lft.to/lastmile_qr_scan"}, "lat": 38.87485366666667, "is_reserved": 0, "is_disabled": 0, "fusion_lat": 0.0}, {"fusion_lon": 0.0, "bike_id": "966553b0c6c83b8fc079b453a75c0f1c", "name": "966553b0c6c83b8fc079b453a75c0f1c", "type": "electric_scooter", "lon": -77.00866383333333, "rental_uris": {"android": "https://dc.lft.to/lastmile_qr_scan", "ios": "https://dc.lft.to/lastmile_qr_scan"}, "lat": 38.90569766666667, "is_reserved": 0, "is_disabled": 0, "fusion_lat": 0.0}, {"fusion_lon": 0.0, "bike_id": "955283122c2e1f6cf24301a121c256da", "name": "955283122c2e1f6cf24301a121c256da", "type": "electric_scooter", "lon": -77.0074735, "rental_uris": {"android": "https://dc.lft.to/lastmile_qr_scan", "ios": "https://dc.lft.to/lastmile_qr_scan"}, "lat": 38.876365166666666, "is_reserved": 0, "is_disabled": 0, "fusion_lat": 0.0}, {"fusion_lon": 0.0, "bike_id": "a235f07a3650d9994509ce4e5c9f36fb", "name": "a235f07a3650d9994509ce4e5c9f36fb", "type": "electric_scooter", "lon": -76.9318285, "rental_uris": {"android": "https://dc.lft.to/lastmile_qr_scan", "ios": "https://dc.lft.to/lastmile_qr_scan"}, "lat": 38.898772666666666, "is_reserved": 0, "is_disabled": 0, "fusion_lat": 0.0}, {"fusion_lon": 0.0, "bike_id": "cd2c9404e7424767a1040e57d32c79f2", "name": "cd2c9404e7424767a1040e57d32c79f2", "type": "electric_scooter", "lon": -77.04138916666666, "rental_uris": {"android": "https://dc.lft.to/lastmile_qr_scan", "ios": "https://dc.lft.to/lastmile_qr_scan"}, "lat": 38.91963633333334, "is_reserved": 0, "is_disabled": 0, "fusion_lat": 0.0}, {"fusion_lon": 0.0, "bike_id": "895146af4dea51de563dd01e88368b6d", "name": "895146af4dea51de563dd01e88368b6d", "type": "electric_scooter", "lon": -77.0260485, "rental_uris": {"android": "https://dc.lft.to/lastmile_qr_scan", "ios": "https://dc.lft.to/lastmile_qr_scan"}, "lat": 38.899938, "is_reserved": 0, "is_disabled": 0, "fusion_lat": 0.0}, {"fusion_lon": 0.0, "bike_id": "1d267754c29b863f530242b505e260bc", "name": "1d267754c29b863f530242b505e260bc", "type": "electric_scooter", "lon": -77.004132, "rental_uris": {"android": "https://dc.lft.to/lastmile_qr_scan", "ios": "https://dc.lft.to/lastmile_qr_scan"}, "lat": 38.911304, "is_reserved": 0, "is_disabled": 0, "fusion_lat": 0.0}, {"fusion_lon": 0.0, "bike_id": "afa10c8cb8f674ae50506fd74436ad1b", "name": "afa10c8cb8f674ae50506fd74436ad1b", "type": "electric_scooter", "lon": -77.03089533333333, "rental_uris": {"android": "https://dc.lft.to/lastmile_qr_scan", "ios": "https://dc.lft.to/lastmile_qr_scan"}, "lat": 38.94678533333333, "is_reserved": 0, "is_disabled": 0, "fusion_lat": 0.0}, {"fusion_lon": 0.0, "bike_id": "187a71bb9f130c4852306b9b39225ca5", "name": "187a71bb9f130c4852306b9b39225ca5", "type": "electric_scooter", "lon": -77.02957216666667, "rental_uris": {"android": "https://dc.lft.to/lastmile_qr_scan", "ios": "https://dc.lft.to/lastmile_qr_scan"}, "lat": 38.92145166666667, "is_reserved": 0, "is_disabled": 0, "fusion_lat": 0.0}, {"fusion_lon": 0.0, "bike_id": "9b72986dcd36056ba9daee6a8a67d50e", "name": "9b72986dcd36056ba9daee6a8a67d50e", "type": "electric_scooter", "lon": -76.98568233333333, "rental_uris": {"android": "https://dc.lft.to/lastmile_qr_scan", "ios": "https://dc.lft.to/lastmile_qr_scan"}, "lat": 38.86064783333333, "is_reserved": 0, "is_disabled": 0, "fusion_lat": 0.0}, {"fusion_lon": 0.0, "bike_id": "1b006939c314a13bc440b53d0a9ade7d", "name": "1b006939c314a13bc440b53d0a9ade7d", "type": "electric_scooter", "lon": -77.03479183333333, "rental_uris": {"android": "https://dc.lft.to/lastmile_qr_scan", "ios": "https://dc.lft.to/lastmile_qr_scan"}, "lat": 38.911100166666664, "is_reserved": 0, "is_disabled": 0, "fusion_lat": 0.0}, {"fusion_lon": 0.0, "bike_id": "d090c13e23f13af87b775a0bc56d9821", "name": "d090c13e23f13af87b775a0bc56d9821", "type": "electric_bike", "lon": -76.99061266666666, "rental_uris": {"android": "https://dc.lft.to/lastmile_qr_scan", "ios": "https://dc.lft.to/lastmile_qr_scan"}, "lat": 38.898121, "is_reserved": 0, "is_disabled": 0, "fusion_lat": 0.0}, {"fusion_lon": 0.0, "bike_id": "059de3940fd43d7cfa3dfd1e028b88a2", "name": "059de3940fd43d7cfa3dfd1e028b88a2", "type": "electric_scooter", "lon": -77.04324283333334, "rental_uris": {"android": "https://dc.lft.to/lastmile_qr_scan", "ios": "https://dc.lft.to/lastmile_qr_scan"}, "lat": 38.914558, "is_reserved": 0, "is_disabled": 0, "fusion_lat": 0.0}, {"fusion_lon": 0.0, "bike_id": "d9ed917f4ba1faa28b257ecdd961dcfa", "name": "d9ed917f4ba1faa28b257ecdd961dcfa", "type": "electric_scooter", "lon": -77.0482055, "rental_uris": {"android": "https://dc.lft.to/lastmile_qr_scan", "ios": "https://dc.lft.to/lastmile_qr_scan"}, "lat": 38.914904166666666, "is_reserved": 0, "is_disabled": 0, "fusion_lat": 0.0}, {"fusion_lon": 0.0, "bike_id": "5bc98b9b32cc183004f815c7ca4bfa1f", "name": "5bc98b9b32cc183004f815c7ca4bfa1f", "type": "electric_scooter", "lon": -77.02659333333334, "rental_uris": {"android": "https://dc.lft.to/lastmile_qr_scan", "ios": "https://dc.lft.to/lastmile_qr_scan"}, "lat": 38.902500333333336, "is_reserved": 0, "is_disabled": 0, "fusion_lat": 0.0}, {"fusion_lon": 0.0, "bike_id": "1207944f6f0fda85ec1d5fadd7856a9c", "name": "1207944f6f0fda85ec1d5fadd7856a9c", "type": "electric_scooter", "lon": -77.01763233333334, "rental_uris": {"android": "https://dc.lft.to/lastmile_qr_scan", "ios": "https://dc.lft.to/lastmile_qr_scan"}, "lat": 38.902438833333335, "is_reserved": 0, "is_disabled": 0, "fusion_lat": 0.0}, {"fusion_lon": 0.0, "bike_id": "85f057cae5696d02a8d47d42b3b60d9e", "name": "85f057cae5696d02a8d47d42b3b60d9e", "type": "electric_scooter", "lon": -77.01373883333333, "rental_uris": {"android": "https://dc.lft.to/lastmile_qr_scan", "ios": "https://dc.lft.to/lastmile_qr_scan"}, "lat": 38.88639033333333, "is_reserved": 0, "is_disabled": 0, "fusion_lat": 0.0}, {"fusion_lon": 0.0, "bike_id": "8a87514997eb9332e602ecdd105ddc5b", "name": "8a87514997eb9332e602ecdd105ddc5b", "type": "electric_bike", "lon": -77.34412633333334, "rental_uris": {"android": "https://dc.lft.to/lastmile_qr_scan", "ios": "https://dc.lft.to/lastmile_qr_scan"}, "lat": 38.945901666666664, "is_reserved": 0, "is_disabled": 0, "fusion_lat": 0.0}, {"fusion_lon": 0.0, "bike_id": "1bc22333eb84516af56263e0df182565", "name": "1bc22333eb84516af56263e0df182565", "type": "electric_scooter", "lon": -77.06189933333333, "rental_uris": {"android": "https://dc.lft.to/lastmile_qr_scan", "ios": "https://dc.lft.to/lastmile_qr_scan"}, "lat": 38.930170333333336, "is_reserved": 0, "is_disabled": 0, "fusion_lat": 0.0}, {"fusion_lon": 0.0, "bike_id": "99b70fe965515a884bef1feb5073bde3", "name": "99b70fe965515a884bef1feb5073bde3", "type": "electric_bike", "lon": -77.14326333333334, "rental_uris": {"android": "https://dc.lft.to/lastmile_qr_scan", "ios": "https://dc.lft.to/lastmile_qr_scan"}, "lat": 39.05457466666667, "is_reserved": 0, "is_disabled": 0, "fusion_lat": 0.0}, {"fusion_lon": 0.0, "bike_id": "eaf3bd85d4add52cf1b97641056e988d", "name": "eaf3bd85d4add52cf1b97641056e988d", "type": "electric_scooter", "lon": -77.03414133333334, "rental_uris": {"android": "https://dc.lft.to/lastmile_qr_scan", "ios": "https://dc.lft.to/lastmile_qr_scan"}, "lat": 38.919230666666664, "is_reserved": 0, "is_disabled": 0, "fusion_lat": 0.0}, {"fusion_lon": 0.0, "bike_id": "8348e2da070a19e10051787fd5711ed9", "name": "8348e2da070a19e10051787fd5711ed9", "type": "electric_scooter", "lon": -77.0352055, "rental_uris": {"android": "https://dc.lft.to/lastmile_qr_scan", "ios": "https://dc.lft.to/lastmile_qr_scan"}, "lat": 38.9273815, "is_reserved": 0, "is_disabled": 0, "fusion_lat": 0.0}, {"fusion_lon": 0.0, "bike_id": "eefe282edc0f5bf9844603bf8886073d", "name": "eefe282edc0f5bf9844603bf8886073d", "type": "electric_scooter", "lon": -77.02844216666666, "rental_uris": {"android": "https://dc.lft.to/lastmile_qr_scan", "ios": "https://dc.lft.to/lastmile_qr_scan"}, "lat": 38.923810333333336, "is_reserved": 0, "is_disabled": 0, "fusion_lat": 0.0}, {"fusion_lon": 0.0, "bike_id": "d107df59bf4569820ded5591c4613871", "name": "d107df59bf4569820ded5591c4613871", "type": "electric_scooter", "lon": -77.0060635, "rental_uris": {"android": "https://dc.lft.to/lastmile_qr_scan", "ios": "https://dc.lft.to/lastmile_qr_scan"}, "lat": 38.911157, "is_reserved": 0, "is_disabled": 0, "fusion_lat": 0.0}, {"fusion_lon": 0.0, "bike_id": "f2d5d0d1936499ab5aa2f4d3f4194ea5", "name": "f2d5d0d1936499ab5aa2f4d3f4194ea5", "type": "electric_scooter", "lon": -77.037577, "rental_uris": {"android": "https://dc.lft.to/lastmile_qr_scan", "ios": "https://dc.lft.to/lastmile_qr_scan"}, "lat": 38.9358675, "is_reserved": 0, "is_disabled": 0, "fusion_lat": 0.0}, {"fusion_lon": 0.0, "bike_id": "fcda4f967ec8f25fdd4f37ebb9aadfb5", "name": "fcda4f967ec8f25fdd4f37ebb9aadfb5", "type": "electric_scooter", "lon": -76.9888375, "rental_uris": {"android": "https://dc.lft.to/lastmile_qr_scan", "ios": "https://dc.lft.to/lastmile_qr_scan"}, "lat": 38.866735, "is_reserved": 0, "is_disabled": 0, "fusion_lat": 0.0}, {"fusion_lon": 0.0, "bike_id": "1a44373486c39de10e4f7bb3587bd13c", "name": "1a44373486c39de10e4f7bb3587bd13c", "type": "electric_scooter", "lon": -77.002015, "rental_uris": {"android": "https://dc.lft.to/lastmile_qr_scan", "ios": "https://dc.lft.to/lastmile_qr_scan"}, "lat": 38.911730166666665, "is_reserved": 0, "is_disabled": 0, "fusion_lat": 0.0}, {"fusion_lon": 0.0, "bike_id": "fb8a77003dad7cf0cb50fa30782065db", "name": "fb8a77003dad7cf0cb50fa30782065db", "type": "electric_scooter", "lon": -76.9485185, "rental_uris": {"android": "https://dc.lft.to/lastmile_qr_scan", "ios": "https://dc.lft.to/lastmile_qr_scan"}, "lat": 38.88298666666667, "is_reserved": 0, "is_disabled": 0, "fusion_lat": 0.0}, {"fusion_lon": 0.0, "bike_id": "4ef08f9d875bebb2d681922224b15fd6", "name": "4ef08f9d875bebb2d681922224b15fd6", "type": "electric_scooter", "lon": -76.99026283333333, "rental_uris": {"android": "https://dc.lft.to/lastmile_qr_scan", "ios": "https://dc.lft.to/lastmile_qr_scan"}, "lat": 38.860767333333335, "is_reserved": 0, "is_disabled": 0, "fusion_lat": 0.0}, {"fusion_lon": 0.0, "bike_id": "9f252ba7c0086f05badf836892f03a60", "name": "9f252ba7c0086f05badf836892f03a60", "type": "electric_scooter", "lon": -77.03269016666667, "rental_uris": {"android": "https://dc.lft.to/lastmile_qr_scan", "ios": "https://dc.lft.to/lastmile_qr_scan"}, "lat": 38.937447666666664, "is_reserved": 0, "is_disabled": 0, "fusion_lat": 0.0}, {"fusion_lon": 0.0, "bike_id": "543c97559e905d7ace88f68ca79fa406", "name": "543c97559e905d7ace88f68ca79fa406", "type": "electric_scooter", "lon": -77.0072745, "rental_uris": {"android": "https://dc.lft.to/lastmile_qr_scan", "ios": "https://dc.lft.to/lastmile_qr_scan"}, "lat": 38.9035585, "is_reserved": 0, "is_disabled": 0, "fusion_lat": 0.0}, {"fusion_lon": 0.0, "bike_id": "6281b61a94d686c11eacfed5dc9ee26a", "name": "6281b61a94d686c11eacfed5dc9ee26a", "type": "electric_scooter", "lon": -77.0418535, "rental_uris": {"android": "https://dc.lft.to/lastmile_qr_scan", "ios": "https://dc.lft.to/lastmile_qr_scan"}, "lat": 38.923386, "is_reserved": 0, "is_disabled": 0, "fusion_lat": 0.0}, {"fusion_lon": 0.0, "bike_id": "a323ba6dfce2ec3419e5ea11aa1a9dae", "name": "a323ba6dfce2ec3419e5ea11aa1a9dae", "type": "electric_scooter", "lon": -77.03641016666667, "rental_uris": {"android": "https://dc.lft.to/lastmile_qr_scan", "ios": "https://dc.lft.to/lastmile_qr_scan"}, "lat": 38.9176285, "is_reserved": 0, "is_disabled": 0, "fusion_lat": 0.0}, {"fusion_lon": 0.0, "bike_id": "a96da851e4761c0fcc9f69d23014b29c", "name": "a96da851e4761c0fcc9f69d23014b29c", "type": "electric_scooter", "lon": -77.03197816666666, "rental_uris": {"android": "https://dc.lft.to/lastmile_qr_scan", "ios": "https://dc.lft.to/lastmile_qr_scan"}, "lat": 38.905265, "is_reserved": 0, "is_disabled": 0, "fusion_lat": 0.0}, {"fusion_lon": 0.0, "bike_id": "e0ec7b0771fed9397340c0c93bb2d1fb", "name": "e0ec7b0771fed9397340c0c93bb2d1fb", "type": "electric_scooter", "lon": -77.05521166666666, "rental_uris": {"android": "https://dc.lft.to/lastmile_qr_scan", "ios": "https://dc.lft.to/lastmile_qr_scan"}, "lat": 38.944120833333336, "is_reserved": 0, "is_disabled": 0, "fusion_lat": 0.0}, {"fusion_lon": 0.0, "bike_id": "816ea86aa011307d621e66fa46c64286", "name": "816ea86aa011307d621e66fa46c64286", "type": "electric_scooter", "lon": -77.02951766666666, "rental_uris": {"android": "https://dc.lft.to/lastmile_qr_scan", "ios": "https://dc.lft.to/lastmile_qr_scan"}, "lat": 38.905023166666666, "is_reserved": 0, "is_disabled": 0, "fusion_lat": 0.0}, {"fusion_lon": 0.0, "bike_id": "fdd73a2c2a4109283e51f9f8db0056f8", "name": "fdd73a2c2a4109283e51f9f8db0056f8", "type": "electric_scooter", "lon": -77.011896, "rental_uris": {"android": "https://dc.lft.to/lastmile_qr_scan", "ios": "https://dc.lft.to/lastmile_qr_scan"}, "lat": 38.88769516666667, "is_reserved": 0, "is_disabled": 0, "fusion_lat": 0.0}, {"fusion_lon": 0.0, "bike_id": "2172f3dde4920d0f4e8421aad036748c", "name": "2172f3dde4920d0f4e8421aad036748c", "type": "electric_scooter", "lon": -76.98917183333333, "rental_uris": {"android": "https://dc.lft.to/lastmile_qr_scan", "ios": "https://dc.lft.to/lastmile_qr_scan"}, "lat": 38.90222833333333, "is_reserved": 0, "is_disabled": 0, "fusion_lat": 0.0}, {"fusion_lon": 0.0, "bike_id": "6f26395995bf815e9976cb5e4ddf027b", "name": "6f26395995bf815e9976cb5e4ddf027b", "type": "electric_scooter", "lon": -77.04178933333333, "rental_uris": {"android": "https://dc.lft.to/lastmile_qr_scan", "ios": "https://dc.lft.to/lastmile_qr_scan"}, "lat": 38.90513133333333, "is_reserved": 0, "is_disabled": 0, "fusion_lat": 0.0}, {"fusion_lon": 0.0, "bike_id": "9dba74e8bbfeb3562caa117d653e3ef8", "name": "9dba74e8bbfeb3562caa117d653e3ef8", "type": "electric_scooter", "lon": -77.0020395, "rental_uris": {"android": "https://dc.lft.to/lastmile_qr_scan", "ios": "https://dc.lft.to/lastmile_qr_scan"}, "lat": 38.900032, "is_reserved": 0, "is_disabled": 0, "fusion_lat": 0.0}, {"fusion_lon": 0.0, "bike_id": "ff3251f90bcacf9a7841028436e0777a", "name": "ff3251f90bcacf9a7841028436e0777a", "type": "electric_scooter", "lon": -77.03149216666667, "rental_uris": {"android": "https://dc.lft.to/lastmile_qr_scan", "ios": "https://dc.lft.to/lastmile_qr_scan"}, "lat": 38.887386666666664, "is_reserved": 0, "is_disabled": 0, "fusion_lat": 0.0}, {"fusion_lon": 0.0, "bike_id": "e9c29de414b661352d517b06d695809a", "name": "e9c29de414b661352d517b06d695809a", "type": "electric_bike", "lon": -76.9838195, "rental_uris": {"android": "https://dc.lft.to/lastmile_qr_scan", "ios": "https://dc.lft.to/lastmile_qr_scan"}, "lat": 38.91473916666666, "is_reserved": 0, "is_disabled": 0, "fusion_lat": 0.0}, {"fusion_lon": 0.0, "bike_id": "3db05cba08cf3dcf8352ad7591af088e", "name": "3db05cba08cf3dcf8352ad7591af088e", "type": "electric_scooter", "lon": -77.02448633333333, "rental_uris": {"android": "https://dc.lft.to/lastmile_qr_scan", "ios": "https://dc.lft.to/lastmile_qr_scan"}, "lat": 38.92896566666667, "is_reserved": 0, "is_disabled": 0, "fusion_lat": 0.0}, {"fusion_lon": 0.0, "bike_id": "3c94633254c6311d493e782cded221ba", "name": "3c94633254c6311d493e782cded221ba", "type": "electric_scooter", "lon": -77.04225116666667, "rental_uris": {"android": "https://dc.lft.to/lastmile_qr_scan", "ios": "https://dc.lft.to/lastmile_qr_scan"}, "lat": 38.91700516666667, "is_reserved": 0, "is_disabled": 0, "fusion_lat": 0.0}, {"fusion_lon": 0.0, "bike_id": "ca7e5de88406946757c92549144bcb90", "name": "ca7e5de88406946757c92549144bcb90", "type": "electric_scooter", "lon": -77.03834616666667, "rental_uris": {"android": "https://dc.lft.to/lastmile_qr_scan", "ios": "https://dc.lft.to/lastmile_qr_scan"}, "lat": 38.915686, "is_reserved": 0, "is_disabled": 0, "fusion_lat": 0.0}, {"fusion_lon": 0.0, "bike_id": "e1375a1aab4b1e7d992b8974a7d19989", "name": "e1375a1aab4b1e7d992b8974a7d19989", "type": "electric_scooter", "lon": -77.0505915, "rental_uris": {"android": "https://dc.lft.to/lastmile_qr_scan", "ios": "https://dc.lft.to/lastmile_qr_scan"}, "lat": 38.905232833333336, "is_reserved": 0, "is_disabled": 0, "fusion_lat": 0.0}, {"fusion_lon": 0.0, "bike_id": "88e5dadcd9f1d936638d125b4e1bccd8", "name": "88e5dadcd9f1d936638d125b4e1bccd8", "type": "electric_scooter", "lon": -77.06029416666667, "rental_uris": {"android": "https://dc.lft.to/lastmile_qr_scan", "ios": "https://dc.lft.to/lastmile_qr_scan"}, "lat": 38.93922883333333, "is_reserved": 0, "is_disabled": 0, "fusion_lat": 0.0}, {"fusion_lon": 0.0, "bike_id": "e00ba316cca1d3bb1463adc329a87771", "name": "e00ba316cca1d3bb1463adc329a87771", "type": "electric_bike", "lon": -77.02099533333333, "rental_uris": {"android": "https://dc.lft.to/lastmile_qr_scan", "ios": "https://dc.lft.to/lastmile_qr_scan"}, "lat": 39.02299816666667, "is_reserved": 0, "is_disabled": 0, "fusion_lat": 0.0}, {"fusion_lon": 0.0, "bike_id": "b92dde8d59513e3d04444489a715d662", "name": "b92dde8d59513e3d04444489a715d662", "type": "electric_bike", "lon": -77.12896516666666, "rental_uris": {"android": "https://dc.lft.to/lastmile_qr_scan", "ios": "https://dc.lft.to/lastmile_qr_scan"}, "lat": 38.86381633333333, "is_reserved": 0, "is_disabled": 0, "fusion_lat": 0.0}, {"fusion_lon": 0.0, "bike_id": "da3269c102d87780cdb3bf9499341437", "name": "da3269c102d87780cdb3bf9499341437", "type": "electric_scooter", "lon": -77.0393265, "rental_uris": {"android": "https://dc.lft.to/lastmile_qr_scan", "ios": "https://dc.lft.to/lastmile_qr_scan"}, "lat": 38.9096235, "is_reserved": 0, "is_disabled": 0, "fusion_lat": 0.0}, {"fusion_lon": 0.0, "bike_id": "f1286fc70cd1a1b252aa1a2c1d1c38e0", "name": "f1286fc70cd1a1b252aa1a2c1d1c38e0", "type": "electric_scooter", "lon": -77.0271675, "rental_uris": {"android": "https://dc.lft.to/lastmile_qr_scan", "ios": "https://dc.lft.to/lastmile_qr_scan"}, "lat": 38.94089016666667, "is_reserved": 0, "is_disabled": 0, "fusion_lat": 0.0}, {"fusion_lon": 0.0, "bike_id": "61cfe938ed0cf8fe447b0ff52f360c5f", "name": "61cfe938ed0cf8fe447b0ff52f360c5f", "type": "electric_scooter", "lon": -77.0744925, "rental_uris": {"android": "https://dc.lft.to/lastmile_qr_scan", "ios": "https://dc.lft.to/lastmile_qr_scan"}, "lat": 38.9109595, "is_reserved": 0, "is_disabled": 0, "fusion_lat": 0.0}, {"fusion_lon": 0.0, "bike_id": "96001c47722f591fe5e7da966810b10f", "name": "96001c47722f591fe5e7da966810b10f", "type": "electric_scooter", "lon": -77.04759616666666, "rental_uris": {"android": "https://dc.lft.to/lastmile_qr_scan", "ios": "https://dc.lft.to/lastmile_qr_scan"}, "lat": 38.90214, "is_reserved": 0, "is_disabled": 0, "fusion_lat": 0.0}, {"fusion_lon": 0.0, "bike_id": "8a44e27c734e5a2a14e75906bf66fc42", "name": "8a44e27c734e5a2a14e75906bf66fc42", "type": "electric_scooter", "lon": -77.00917733333333, "rental_uris": {"android": "https://dc.lft.to/lastmile_qr_scan", "ios": "https://dc.lft.to/lastmile_qr_scan"}, "lat": 38.959503833333336, "is_reserved": 0, "is_disabled": 0, "fusion_lat": 0.0}, {"fusion_lon": 0.0, "bike_id": "472b59212b7809f7450cc772cbb9bd4e", "name": "472b59212b7809f7450cc772cbb9bd4e", "type": "electric_scooter", "lon": -77.03089616666666, "rental_uris": {"android": "https://dc.lft.to/lastmile_qr_scan", "ios": "https://dc.lft.to/lastmile_qr_scan"}, "lat": 38.916824166666665, "is_reserved": 0, "is_disabled": 0, "fusion_lat": 0.0}, {"fusion_lon": 0.0, "bike_id": "ff9cbe52458dc24f9d825ee76d80c794", "name": "ff9cbe52458dc24f9d825ee76d80c794", "type": "electric_scooter", "lon": -76.99956233333333, "rental_uris": {"android": "https://dc.lft.to/lastmile_qr_scan", "ios": "https://dc.lft.to/lastmile_qr_scan"}, "lat": 38.90382066666667, "is_reserved": 0, "is_disabled": 0, "fusion_lat": 0.0}, {"fusion_lon": 0.0, "bike_id": "a85142a126cfcc850a0aac6ff2a89419", "name": "a85142a126cfcc850a0aac6ff2a89419", "type": "electric_scooter", "lon": -77.0468945, "rental_uris": {"android": "https://dc.lft.to/lastmile_qr_scan", "ios": "https://dc.lft.to/lastmile_qr_scan"}, "lat": 38.916769333333335, "is_reserved": 0, "is_disabled": 0, "fusion_lat": 0.0}, {"fusion_lon": 0.0, "bike_id": "f3188d217cf013c893657955f019ba98", "name": "f3188d217cf013c893657955f019ba98", "type": "electric_scooter", "lon": -77.02900433333333, "rental_uris": {"android": "https://dc.lft.to/lastmile_qr_scan", "ios": "https://dc.lft.to/lastmile_qr_scan"}, "lat": 38.90454016666666, "is_reserved": 0, "is_disabled": 0, "fusion_lat": 0.0}, {"fusion_lon": 0.0, "bike_id": "1d9ffc8bd9b2dac8a5c1ea1c18a826f4", "name": "1d9ffc8bd9b2dac8a5c1ea1c18a826f4", "type": "electric_scooter", "lon": -77.0352095, "rental_uris": {"android": "https://dc.lft.to/lastmile_qr_scan", "ios": "https://dc.lft.to/lastmile_qr_scan"}, "lat": 38.9184225, "is_reserved": 0, "is_disabled": 0, "fusion_lat": 0.0}, {"fusion_lon": 0.0, "bike_id": "d1e69514e460873f6724df4bde4f4408", "name": "d1e69514e460873f6724df4bde4f4408", "type": "electric_scooter", "lon": -77.01142066666667, "rental_uris": {"android": "https://dc.lft.to/lastmile_qr_scan", "ios": "https://dc.lft.to/lastmile_qr_scan"}, "lat": 38.895959500000004, "is_reserved": 0, "is_disabled": 0, "fusion_lat": 0.0}, {"fusion_lon": 0.0, "bike_id": "17a4c845e137099ef11da92b1147f2c8", "name": "17a4c845e137099ef11da92b1147f2c8", "type": "electric_scooter", "lon": -76.99631716666667, "rental_uris": {"android": "https://dc.lft.to/lastmile_qr_scan", "ios": "https://dc.lft.to/lastmile_qr_scan"}, "lat": 38.8462195, "is_reserved": 0, "is_disabled": 0, "fusion_lat": 0.0}, {"fusion_lon": 0.0, "bike_id": "4155ea6e79fd4e9c3111c88c2e9063f9", "name": "4155ea6e79fd4e9c3111c88c2e9063f9", "type": "electric_bike", "lon": -77.024898, "rental_uris": {"android": "https://dc.lft.to/lastmile_qr_scan", "ios": "https://dc.lft.to/lastmile_qr_scan"}, "lat": 38.9737035, "is_reserved": 0, "is_disabled": 0, "fusion_lat": 0.0}, {"fusion_lon": 0.0, "bike_id": "e3b60bab032bc4c3a08a0e87f2b4addb", "name": "e3b60bab032bc4c3a08a0e87f2b4addb", "type": "electric_scooter", "lon": -77.0239065, "rental_uris": {"android": "https://dc.lft.to/lastmile_qr_scan", "ios": "https://dc.lft.to/lastmile_qr_scan"}, "lat": 38.919605, "is_reserved": 0, "is_disabled": 0, "fusion_lat": 0.0}, {"fusion_lon": 0.0, "bike_id": "6ad6f5d2a47f19acdb78d2b942b2273c", "name": "6ad6f5d2a47f19acdb78d2b942b2273c", "type": "electric_scooter", "lon": -76.957536, "rental_uris": {"android": "https://dc.lft.to/lastmile_qr_scan", "ios": "https://dc.lft.to/lastmile_qr_scan"}, "lat": 38.884329, "is_reserved": 0, "is_disabled": 0, "fusion_lat": 0.0}, {"fusion_lon": 0.0, "bike_id": "3c8ac20a8e58cb1e551f2d894b968982", "name": "3c8ac20a8e58cb1e551f2d894b968982", "type": "electric_scooter", "lon": -77.04223216666666, "rental_uris": {"android": "https://dc.lft.to/lastmile_qr_scan", "ios": "https://dc.lft.to/lastmile_qr_scan"}, "lat": 38.9206825, "is_reserved": 0, "is_disabled": 0, "fusion_lat": 0.0}, {"fusion_lon": 0.0, "bike_id": "7b322586e22ed506969f8ded3fa1de8a", "name": "7b322586e22ed506969f8ded3fa1de8a", "type": "electric_scooter", "lon": -77.02491416666666, "rental_uris": {"android": "https://dc.lft.to/lastmile_qr_scan", "ios": "https://dc.lft.to/lastmile_qr_scan"}, "lat": 38.941835166666664, "is_reserved": 0, "is_disabled": 0, "fusion_lat": 0.0}, {"fusion_lon": 0.0, "bike_id": "bb6a7699d495ddf17613550c2da521d4", "name": "bb6a7699d495ddf17613550c2da521d4", "type": "electric_scooter", "lon": -77.04508133333333, "rental_uris": {"android": "https://dc.lft.to/lastmile_qr_scan", "ios": "https://dc.lft.to/lastmile_qr_scan"}, "lat": 38.90780766666666, "is_reserved": 0, "is_disabled": 0, "fusion_lat": 0.0}, {"fusion_lon": 0.0, "bike_id": "e9b27b18757d1c3b60fc36675d82f296", "name": "e9b27b18757d1c3b60fc36675d82f296", "type": "electric_scooter", "lon": -76.99013416666666, "rental_uris": {"android": "https://dc.lft.to/lastmile_qr_scan", "ios": "https://dc.lft.to/lastmile_qr_scan"}, "lat": 38.861079333333336, "is_reserved": 0, "is_disabled": 0, "fusion_lat": 0.0}, {"fusion_lon": 0.0, "bike_id": "e5c32604e4f30b165138834beaceece6", "name": "e5c32604e4f30b165138834beaceece6", "type": "electric_scooter", "lon": -76.99389916666667, "rental_uris": {"android": "https://dc.lft.to/lastmile_qr_scan", "ios": "https://dc.lft.to/lastmile_qr_scan"}, "lat": 38.88451333333333, "is_reserved": 0, "is_disabled": 0, "fusion_lat": 0.0}, {"fusion_lon": 0.0, "bike_id": "8cb61a6b4cec6ce150fc4ce4d70b8373", "name": "8cb61a6b4cec6ce150fc4ce4d70b8373", "type": "electric_scooter", "lon": -77.07116666666667, "rental_uris": {"android": "https://dc.lft.to/lastmile_qr_scan", "ios": "https://dc.lft.to/lastmile_qr_scan"}, "lat": 38.91980383333333, "is_reserved": 0, "is_disabled": 0, "fusion_lat": 0.0}, {"fusion_lon": 0.0, "bike_id": "799d4021e59196dafb043cae708842e1", "name": "799d4021e59196dafb043cae708842e1", "type": "electric_scooter", "lon": -77.0384965, "rental_uris": {"android": "https://dc.lft.to/lastmile_qr_scan", "ios": "https://dc.lft.to/lastmile_qr_scan"}, "lat": 38.921658666666666, "is_reserved": 0, "is_disabled": 0, "fusion_lat": 0.0}, {"fusion_lon": 0.0, "bike_id": "b3aeb533479f84c01004c03005df89c1", "name": "b3aeb533479f84c01004c03005df89c1", "type": "electric_scooter", "lon": -76.96573416666666, "rental_uris": {"android": "https://dc.lft.to/lastmile_qr_scan", "ios": "https://dc.lft.to/lastmile_qr_scan"}, "lat": 38.87133983333333, "is_reserved": 0, "is_disabled": 0, "fusion_lat": 0.0}, {"fusion_lon": 0.0, "bike_id": "6c1d415316269a4e19d2da1f6436363d", "name": "6c1d415316269a4e19d2da1f6436363d", "type": "electric_scooter", "lon": -76.99159383333334, "rental_uris": {"android": "https://dc.lft.to/lastmile_qr_scan", "ios": "https://dc.lft.to/lastmile_qr_scan"}, "lat": 38.897734666666665, "is_reserved": 0, "is_disabled": 0, "fusion_lat": 0.0}, {"fusion_lon": 0.0, "bike_id": "3965905c1efcbb42d6a774772913643a", "name": "3965905c1efcbb42d6a774772913643a", "type": "electric_scooter", "lon": -77.03662966666667, "rental_uris": {"android": "https://dc.lft.to/lastmile_qr_scan", "ios": "https://dc.lft.to/lastmile_qr_scan"}, "lat": 38.927050333333334, "is_reserved": 0, "is_disabled": 0, "fusion_lat": 0.0}, {"fusion_lon": 0.0, "bike_id": "64989775bdb859b2db3d2b6583e3abf0", "name": "64989775bdb859b2db3d2b6583e3abf0", "type": "electric_scooter", "lon": -76.994487, "rental_uris": {"android": "https://dc.lft.to/lastmile_qr_scan", "ios": "https://dc.lft.to/lastmile_qr_scan"}, "lat": 38.922807666666664, "is_reserved": 0, "is_disabled": 0, "fusion_lat": 0.0}, {"fusion_lon": 0.0, "bike_id": "3df5b46d728e4519ad8b94f15386dd08", "name": "3df5b46d728e4519ad8b94f15386dd08", "type": "electric_scooter", "lon": -77.04673966666667, "rental_uris": {"android": "https://dc.lft.to/lastmile_qr_scan", "ios": "https://dc.lft.to/lastmile_qr_scan"}, "lat": 38.907232, "is_reserved": 0, "is_disabled": 0, "fusion_lat": 0.0}, {"fusion_lon": 0.0, "bike_id": "455cd05b7bf70185c32520caacf17332", "name": "455cd05b7bf70185c32520caacf17332", "type": "electric_scooter", "lon": -76.98766133333334, "rental_uris": {"android": "https://dc.lft.to/lastmile_qr_scan", "ios": "https://dc.lft.to/lastmile_qr_scan"}, "lat": 38.883180333333335, "is_reserved": 0, "is_disabled": 0, "fusion_lat": 0.0}, {"fusion_lon": 0.0, "bike_id": "9980b1de227f34e27308d394779a3bff", "name": "9980b1de227f34e27308d394779a3bff", "type": "electric_scooter", "lon": -77.03778916666667, "rental_uris": {"android": "https://dc.lft.to/lastmile_qr_scan", "ios": "https://dc.lft.to/lastmile_qr_scan"}, "lat": 38.93325683333333, "is_reserved": 0, "is_disabled": 0, "fusion_lat": 0.0}, {"fusion_lon": 0.0, "bike_id": "2766a0c1575f5e929b5d9cff5381f17c", "name": "2766a0c1575f5e929b5d9cff5381f17c", "type": "electric_scooter", "lon": -77.07085533333333, "rental_uris": {"android": "https://dc.lft.to/lastmile_qr_scan", "ios": "https://dc.lft.to/lastmile_qr_scan"}, "lat": 38.919778, "is_reserved": 0, "is_disabled": 0, "fusion_lat": 0.0}, {"fusion_lon": 0.0, "bike_id": "db5e464743715e46128589a230b3da75", "name": "db5e464743715e46128589a230b3da75", "type": "electric_bike", "lon": -76.94617683333334, "rental_uris": {"android": "https://dc.lft.to/lastmile_qr_scan", "ios": "https://dc.lft.to/lastmile_qr_scan"}, "lat": 38.83234516666667, "is_reserved": 0, "is_disabled": 0, "fusion_lat": 0.0}, {"fusion_lon": 0.0, "bike_id": "73578ce5e35064e2f888525d92e3ba90", "name": "73578ce5e35064e2f888525d92e3ba90", "type": "electric_scooter", "lon": -77.01695383333333, "rental_uris": {"android": "https://dc.lft.to/lastmile_qr_scan", "ios": "https://dc.lft.to/lastmile_qr_scan"}, "lat": 38.97503866666667, "is_reserved": 0, "is_disabled": 0, "fusion_lat": 0.0}, {"fusion_lon": 0.0, "bike_id": "54e3750784548ff912112db57bed406c", "name": "54e3750784548ff912112db57bed406c", "type": "electric_scooter", "lon": -76.985869, "rental_uris": {"android": "https://dc.lft.to/lastmile_qr_scan", "ios": "https://dc.lft.to/lastmile_qr_scan"}, "lat": 38.88402983333334, "is_reserved": 0, "is_disabled": 0, "fusion_lat": 0.0}, {"fusion_lon": 0.0, "bike_id": "e64db30fa4bc7a59568beb68af3cee91", "name": "e64db30fa4bc7a59568beb68af3cee91", "type": "electric_scooter", "lon": -77.02174333333333, "rental_uris": {"android": "https://dc.lft.to/lastmile_qr_scan", "ios": "https://dc.lft.to/lastmile_qr_scan"}, "lat": 38.942915, "is_reserved": 0, "is_disabled": 0, "fusion_lat": 0.0}, {"fusion_lon": 0.0, "bike_id": "b98c988d749f42d947a7d68d6b95c4f9", "name": "b98c988d749f42d947a7d68d6b95c4f9", "type": "electric_scooter", "lon": -77.0318085, "rental_uris": {"android": "https://dc.lft.to/lastmile_qr_scan", "ios": "https://dc.lft.to/lastmile_qr_scan"}, "lat": 38.91354883333333, "is_reserved": 0, "is_disabled": 0, "fusion_lat": 0.0}, {"fusion_lon": 0.0, "bike_id": "b9e82f87866007078be7f75da581eb76", "name": "b9e82f87866007078be7f75da581eb76", "type": "electric_scooter", "lon": -77.02220366666667, "rental_uris": {"android": "https://dc.lft.to/lastmile_qr_scan", "ios": "https://dc.lft.to/lastmile_qr_scan"}, "lat": 38.8922105, "is_reserved": 0, "is_disabled": 0, "fusion_lat": 0.0}, {"fusion_lon": 0.0, "bike_id": "3070473c279e4680daee6f6a9ed8feae", "name": "3070473c279e4680daee6f6a9ed8feae", "type": "electric_scooter", "lon": -77.0328335, "rental_uris": {"android": "https://dc.lft.to/lastmile_qr_scan", "ios": "https://dc.lft.to/lastmile_qr_scan"}, "lat": 38.900227, "is_reserved": 0, "is_disabled": 0, "fusion_lat": 0.0}, {"fusion_lon": 0.0, "bike_id": "65d136a92242b093a1bb11895c27743e", "name": "65d136a92242b093a1bb11895c27743e", "type": "electric_scooter", "lon": -77.037878, "rental_uris": {"android": "https://dc.lft.to/lastmile_qr_scan", "ios": "https://dc.lft.to/lastmile_qr_scan"}, "lat": 38.9263095, "is_reserved": 0, "is_disabled": 0, "fusion_lat": 0.0}, {"fusion_lon": 0.0, "bike_id": "546f5808ee5bd8f0e641d2f920cb3442", "name": "546f5808ee5bd8f0e641d2f920cb3442", "type": "electric_scooter", "lon": -77.03047883333333, "rental_uris": {"android": "https://dc.lft.to/lastmile_qr_scan", "ios": "https://dc.lft.to/lastmile_qr_scan"}, "lat": 38.939817, "is_reserved": 0, "is_disabled": 0, "fusion_lat": 0.0}, {"fusion_lon": 0.0, "bike_id": "a259bd6100c781834be77585ad5482fd", "name": "a259bd6100c781834be77585ad5482fd", "type": "electric_scooter", "lon": -77.03057483333333, "rental_uris": {"android": "https://dc.lft.to/lastmile_qr_scan", "ios": "https://dc.lft.to/lastmile_qr_scan"}, "lat": 38.93983683333333, "is_reserved": 0, "is_disabled": 0, "fusion_lat": 0.0}, {"fusion_lon": 0.0, "bike_id": "b6e360401cc72937b84939c8337e6b17", "name": "b6e360401cc72937b84939c8337e6b17", "type": "electric_scooter", "lon": -77.03445016666667, "rental_uris": {"android": "https://dc.lft.to/lastmile_qr_scan", "ios": "https://dc.lft.to/lastmile_qr_scan"}, "lat": 38.90733183333333, "is_reserved": 0, "is_disabled": 0, "fusion_lat": 0.0}, {"fusion_lon": 0.0, "bike_id": "a8d4a967a603500f8f19616d7ced215c", "name": "a8d4a967a603500f8f19616d7ced215c", "type": "electric_scooter", "lon": -77.02539833333333, "rental_uris": {"android": "https://dc.lft.to/lastmile_qr_scan", "ios": "https://dc.lft.to/lastmile_qr_scan"}, "lat": 38.930961, "is_reserved": 0, "is_disabled": 0, "fusion_lat": 0.0}, {"fusion_lon": 0.0, "bike_id": "f999ea60a5a5c40d03a5796f65bc27d4", "name": "f999ea60a5a5c40d03a5796f65bc27d4", "type": "electric_scooter", "lon": -77.01403966666666, "rental_uris": {"android": "https://dc.lft.to/lastmile_qr_scan", "ios": "https://dc.lft.to/lastmile_qr_scan"}, "lat": 38.879115, "is_reserved": 0, "is_disabled": 0, "fusion_lat": 0.0}, {"fusion_lon": 0.0, "bike_id": "bb479d89a8e032856a10b613804fca74", "name": "bb479d89a8e032856a10b613804fca74", "type": "electric_bike", "lon": -77.3608935, "rental_uris": {"android": "https://dc.lft.to/lastmile_qr_scan", "ios": "https://dc.lft.to/lastmile_qr_scan"}, "lat": 38.9396445, "is_reserved": 0, "is_disabled": 0, "fusion_lat": 0.0}, {"fusion_lon": 0.0, "bike_id": "bf43b08e766a57494434bf2bccfa7831", "name": "bf43b08e766a57494434bf2bccfa7831", "type": "electric_scooter", "lon": -77.02278233333334, "rental_uris": {"android": "https://dc.lft.to/lastmile_qr_scan", "ios": "https://dc.lft.to/lastmile_qr_scan"}, "lat": 38.9166335, "is_reserved": 0, "is_disabled": 0, "fusion_lat": 0.0}, {"fusion_lon": 0.0, "bike_id": "7e93fd24bd171dcb4de822c4c0717907", "name": "7e93fd24bd171dcb4de822c4c0717907", "type": "electric_scooter", "lon": -77.0362765, "rental_uris": {"android": "https://dc.lft.to/lastmile_qr_scan", "ios": "https://dc.lft.to/lastmile_qr_scan"}, "lat": 38.928519333333334, "is_reserved": 0, "is_disabled": 0, "fusion_lat": 0.0}, {"fusion_lon": 0.0, "bike_id": "21af7382a1d5cdbd1e719805978562a2", "name": "21af7382a1d5cdbd1e719805978562a2", "type": "electric_scooter", "lon": -77.031525, "rental_uris": {"android": "https://dc.lft.to/lastmile_qr_scan", "ios": "https://dc.lft.to/lastmile_qr_scan"}, "lat": 38.92724316666666, "is_reserved": 0, "is_disabled": 0, "fusion_lat": 0.0}, {"fusion_lon": 0.0, "bike_id": "c6d92cd814aa3d414e51c19eaed51276", "name": "c6d92cd814aa3d414e51c19eaed51276", "type": "electric_bike", "lon": -76.97990533333333, "rental_uris": {"android": "https://dc.lft.to/lastmile_qr_scan", "ios": "https://dc.lft.to/lastmile_qr_scan"}, "lat": 38.877563333333335, "is_reserved": 0, "is_disabled": 0, "fusion_lat": 0.0}, {"fusion_lon": 0.0, "bike_id": "86e10ca988982b7f9bf2f2786b2db8a8", "name": "86e10ca988982b7f9bf2f2786b2db8a8", "type": "electric_scooter", "lon": -77.04208933333334, "rental_uris": {"android": "https://dc.lft.to/lastmile_qr_scan", "ios": "https://dc.lft.to/lastmile_qr_scan"}, "lat": 38.923226, "is_reserved": 0, "is_disabled": 0, "fusion_lat": 0.0}, {"fusion_lon": 0.0, "bike_id": "d93129948dd769fafbe81a1f314d6a2e", "name": "d93129948dd769fafbe81a1f314d6a2e", "type": "electric_scooter", "lon": -76.999574, "rental_uris": {"android": "https://dc.lft.to/lastmile_qr_scan", "ios": "https://dc.lft.to/lastmile_qr_scan"}, "lat": 38.8932125, "is_reserved": 0, "is_disabled": 0, "fusion_lat": 0.0}, {"fusion_lon": 0.0, "bike_id": "7ec0e0f442483978da7eeb7b3dc94997", "name": "7ec0e0f442483978da7eeb7b3dc94997", "type": "electric_scooter", "lon": -77.04171666666667, "rental_uris": {"android": "https://dc.lft.to/lastmile_qr_scan", "ios": "https://dc.lft.to/lastmile_qr_scan"}, "lat": 38.91551783333333, "is_reserved": 0, "is_disabled": 0, "fusion_lat": 0.0}, {"fusion_lon": 0.0, "bike_id": "503e68d4cf324f45def6382db2161591", "name": "503e68d4cf324f45def6382db2161591", "type": "electric_bike", "lon": -77.00326566666666, "rental_uris": {"android": "https://dc.lft.to/lastmile_qr_scan", "ios": "https://dc.lft.to/lastmile_qr_scan"}, "lat": 38.91164833333333, "is_reserved": 0, "is_disabled": 0, "fusion_lat": 0.0}, {"fusion_lon": 0.0, "bike_id": "833ca5ffc8b3247359e05ae4d8e87802", "name": "833ca5ffc8b3247359e05ae4d8e87802", "type": "electric_scooter", "lon": -77.04674433333334, "rental_uris": {"android": "https://dc.lft.to/lastmile_qr_scan", "ios": "https://dc.lft.to/lastmile_qr_scan"}, "lat": 38.915796666666665, "is_reserved": 0, "is_disabled": 0, "fusion_lat": 0.0}, {"fusion_lon": 0.0, "bike_id": "62e7427109ac7d78f92658b9d7cf9bfc", "name": "62e7427109ac7d78f92658b9d7cf9bfc", "type": "electric_scooter", "lon": -77.01766133333334, "rental_uris": {"android": "https://dc.lft.to/lastmile_qr_scan", "ios": "https://dc.lft.to/lastmile_qr_scan"}, "lat": 38.8858835, "is_reserved": 0, "is_disabled": 0, "fusion_lat": 0.0}, {"fusion_lon": 0.0, "bike_id": "9da7ca7850f8f4f6d43e1ae5ac339d27", "name": "9da7ca7850f8f4f6d43e1ae5ac339d27", "type": "electric_bike", "lon": -77.0497665, "rental_uris": {"android": "https://dc.lft.to/lastmile_qr_scan", "ios": "https://dc.lft.to/lastmile_qr_scan"}, "lat": 38.99242616666667, "is_reserved": 0, "is_disabled": 0, "fusion_lat": 0.0}, {"fusion_lon": 0.0, "bike_id": "07c9643468b8555b2a866de5b3ce6c7e", "name": "07c9643468b8555b2a866de5b3ce6c7e", "type": "electric_scooter", "lon": -77.05599266666667, "rental_uris": {"android": "https://dc.lft.to/lastmile_qr_scan", "ios": "https://dc.lft.to/lastmile_qr_scan"}, "lat": 38.93699983333333, "is_reserved": 0, "is_disabled": 0, "fusion_lat": 0.0}, {"fusion_lon": 0.0, "bike_id": "810cb2d22ed0cfda3afaf6a6c7c98932", "name": "810cb2d22ed0cfda3afaf6a6c7c98932", "type": "electric_scooter", "lon": -77.00201316666667, "rental_uris": {"android": "https://dc.lft.to/lastmile_qr_scan", "ios": "https://dc.lft.to/lastmile_qr_scan"}, "lat": 38.900405666666664, "is_reserved": 0, "is_disabled": 0, "fusion_lat": 0.0}, {"fusion_lon": 0.0, "bike_id": "a9a60e142c96175143aa8bbe79db21ae", "name": "a9a60e142c96175143aa8bbe79db21ae", "type": "electric_bike", "lon": -77.19546266666667, "rental_uris": {"android": "https://dc.lft.to/lastmile_qr_scan", "ios": "https://dc.lft.to/lastmile_qr_scan"}, "lat": 39.11509433333333, "is_reserved": 0, "is_disabled": 0, "fusion_lat": 0.0}, {"fusion_lon": 0.0, "bike_id": "6400465d7c13ae7cf898629ab126b553", "name": "6400465d7c13ae7cf898629ab126b553", "type": "electric_bike", "lon": -76.96698566666667, "rental_uris": {"android": "https://dc.lft.to/lastmile_qr_scan", "ios": "https://dc.lft.to/lastmile_qr_scan"}, "lat": 38.8686205, "is_reserved": 0, "is_disabled": 0, "fusion_lat": 0.0}, {"fusion_lon": 0.0, "bike_id": "7937609ef9bdf9f45b5c29746fa4b9b7", "name": "7937609ef9bdf9f45b5c29746fa4b9b7", "type": "electric_scooter", "lon": -77.01764616666667, "rental_uris": {"android": "https://dc.lft.to/lastmile_qr_scan", "ios": "https://dc.lft.to/lastmile_qr_scan"}, "lat": 38.877254666666666, "is_reserved": 0, "is_disabled": 0, "fusion_lat": 0.0}, {"fusion_lon": 0.0, "bike_id": "505f3db127e7990a4b37f0409a815633", "name": "505f3db127e7990a4b37f0409a815633", "type": "electric_scooter", "lon": -77.03026216666666, "rental_uris": {"android": "https://dc.lft.to/lastmile_qr_scan", "ios": "https://dc.lft.to/lastmile_qr_scan"}, "lat": 38.93117933333333, "is_reserved": 0, "is_disabled": 0, "fusion_lat": 0.0}, {"fusion_lon": 0.0, "bike_id": "0e7288af9d043ac76110d0f528ed2157", "name": "0e7288af9d043ac76110d0f528ed2157", "type": "electric_scooter", "lon": -77.01488683333334, "rental_uris": {"android": "https://dc.lft.to/lastmile_qr_scan", "ios": "https://dc.lft.to/lastmile_qr_scan"}, "lat": 38.899218166666664, "is_reserved": 0, "is_disabled": 0, "fusion_lat": 0.0}, {"fusion_lon": 0.0, "bike_id": "b967c631d2fe3794d58163bc97ee4b5a", "name": "b967c631d2fe3794d58163bc97ee4b5a", "type": "electric_bike", "lon": -76.94946, "rental_uris": {"android": "https://dc.lft.to/lastmile_qr_scan", "ios": "https://dc.lft.to/lastmile_qr_scan"}, "lat": 38.935060666666665, "is_reserved": 0, "is_disabled": 0, "fusion_lat": 0.0}, {"fusion_lon": 0.0, "bike_id": "1861a8a8e7e33108c1230b3660b2cc01", "name": "1861a8a8e7e33108c1230b3660b2cc01", "type": "electric_scooter", "lon": -76.9896955, "rental_uris": {"android": "https://dc.lft.to/lastmile_qr_scan", "ios": "https://dc.lft.to/lastmile_qr_scan"}, "lat": 38.90249933333333, "is_reserved": 0, "is_disabled": 0, "fusion_lat": 0.0}, {"fusion_lon": 0.0, "bike_id": "62517e051db4515cbe326e218daa5644", "name": "62517e051db4515cbe326e218daa5644", "type": "electric_scooter", "lon": -76.99954883333334, "rental_uris": {"android": "https://dc.lft.to/lastmile_qr_scan", "ios": "https://dc.lft.to/lastmile_qr_scan"}, "lat": 38.84285216666667, "is_reserved": 0, "is_disabled": 0, "fusion_lat": 0.0}, {"fusion_lon": 0.0, "bike_id": "5a5880c2ce23b79845df8968f8a5f000", "name": "5a5880c2ce23b79845df8968f8a5f000", "type": "electric_scooter", "lon": -77.00882516666667, "rental_uris": {"android": "https://dc.lft.to/lastmile_qr_scan", "ios": "https://dc.lft.to/lastmile_qr_scan"}, "lat": 38.88267116666667, "is_reserved": 0, "is_disabled": 0, "fusion_lat": 0.0}, {"fusion_lon": 0.0, "bike_id": "66c3094b06d24def2b1813769f613b3a", "name": "66c3094b06d24def2b1813769f613b3a", "type": "electric_scooter", "lon": -77.00754633333334, "rental_uris": {"android": "https://dc.lft.to/lastmile_qr_scan", "ios": "https://dc.lft.to/lastmile_qr_scan"}, "lat": 38.876482333333335, "is_reserved": 0, "is_disabled": 0, "fusion_lat": 0.0}, {"fusion_lon": 0.0, "bike_id": "8f0598a113d315d0c73c8f5f82dd16f8", "name": "8f0598a113d315d0c73c8f5f82dd16f8", "type": "electric_scooter", "lon": -77.07926416666666, "rental_uris": {"android": "https://dc.lft.to/lastmile_qr_scan", "ios": "https://dc.lft.to/lastmile_qr_scan"}, "lat": 38.91926433333333, "is_reserved": 0, "is_disabled": 0, "fusion_lat": 0.0}, {"fusion_lon": 0.0, "bike_id": "602e7e721e276bdeb6d44fc646b10d37", "name": "602e7e721e276bdeb6d44fc646b10d37", "type": "electric_scooter", "lon": -77.03753616666667, "rental_uris": {"android": "https://dc.lft.to/lastmile_qr_scan", "ios": "https://dc.lft.to/lastmile_qr_scan"}, "lat": 38.91272633333333, "is_reserved": 0, "is_disabled": 0, "fusion_lat": 0.0}, {"fusion_lon": 0.0, "bike_id": "3d7299230794d41a873254aaf588363f", "name": "3d7299230794d41a873254aaf588363f", "type": "electric_scooter", "lon": -77.01080133333333, "rental_uris": {"android": "https://dc.lft.to/lastmile_qr_scan", "ios": "https://dc.lft.to/lastmile_qr_scan"}, "lat": 38.90350766666667, "is_reserved": 0, "is_disabled": 0, "fusion_lat": 0.0}, {"fusion_lon": 0.0, "bike_id": "d50b76becb7624b10e53566dcd1093e9", "name": "d50b76becb7624b10e53566dcd1093e9", "type": "electric_scooter", "lon": -77.043996, "rental_uris": {"android": "https://dc.lft.to/lastmile_qr_scan", "ios": "https://dc.lft.to/lastmile_qr_scan"}, "lat": 38.91080983333333, "is_reserved": 0, "is_disabled": 0, "fusion_lat": 0.0}, {"fusion_lon": 0.0, "bike_id": "5e73e1e364b7dc659822f1db1b70632e", "name": "5e73e1e364b7dc659822f1db1b70632e", "type": "electric_scooter", "lon": -77.04895283333333, "rental_uris": {"android": "https://dc.lft.to/lastmile_qr_scan", "ios": "https://dc.lft.to/lastmile_qr_scan"}, "lat": 38.89231916666667, "is_reserved": 0, "is_disabled": 0, "fusion_lat": 0.0}, {"fusion_lon": 0.0, "bike_id": "fa5e0316ddc37e5010fa07987548dc22", "name": "fa5e0316ddc37e5010fa07987548dc22", "type": "electric_scooter", "lon": -77.04085916666666, "rental_uris": {"android": "https://dc.lft.to/lastmile_qr_scan", "ios": "https://dc.lft.to/lastmile_qr_scan"}, "lat": 38.90795816666667, "is_reserved": 0, "is_disabled": 0, "fusion_lat": 0.0}, {"fusion_lon": 0.0, "bike_id": "0851bb44665bef9dc75cb42b9001de04", "name": "0851bb44665bef9dc75cb42b9001de04", "type": "electric_bike", "lon": -76.96560133333334, "rental_uris": {"android": "https://dc.lft.to/lastmile_qr_scan", "ios": "https://dc.lft.to/lastmile_qr_scan"}, "lat": 38.95089266666667, "is_reserved": 0, "is_disabled": 0, "fusion_lat": 0.0}, {"fusion_lon": 0.0, "bike_id": "1503e856ae1766dab2b9c380be21aac0", "name": "1503e856ae1766dab2b9c380be21aac0", "type": "electric_scooter", "lon": -77.0333575, "rental_uris": {"android": "https://dc.lft.to/lastmile_qr_scan", "ios": "https://dc.lft.to/lastmile_qr_scan"}, "lat": 38.900224333333334, "is_reserved": 0, "is_disabled": 0, "fusion_lat": 0.0}, {"fusion_lon": 0.0, "bike_id": "e61b479f673de6972ec1e6af5c394333", "name": "e61b479f673de6972ec1e6af5c394333", "type": "electric_scooter", "lon": -77.072299, "rental_uris": {"android": "https://dc.lft.to/lastmile_qr_scan", "ios": "https://dc.lft.to/lastmile_qr_scan"}, "lat": 38.93458566666666, "is_reserved": 0, "is_disabled": 0, "fusion_lat": 0.0}, {"fusion_lon": 0.0, "bike_id": "2aab229f39c99c0c6e4ca2cb25c7df59", "name": "2aab229f39c99c0c6e4ca2cb25c7df59", "type": "electric_scooter", "lon": -77.04613033333334, "rental_uris": {"android": "https://dc.lft.to/lastmile_qr_scan", "ios": "https://dc.lft.to/lastmile_qr_scan"}, "lat": 38.916879, "is_reserved": 0, "is_disabled": 0, "fusion_lat": 0.0}, {"fusion_lon": 0.0, "bike_id": "4c5f7423e1d1660fced831127a598b94", "name": "4c5f7423e1d1660fced831127a598b94", "type": "electric_scooter", "lon": -77.02285866666666, "rental_uris": {"android": "https://dc.lft.to/lastmile_qr_scan", "ios": "https://dc.lft.to/lastmile_qr_scan"}, "lat": 38.91717766666667, "is_reserved": 0, "is_disabled": 0, "fusion_lat": 0.0}, {"fusion_lon": 0.0, "bike_id": "7311cc6c2367e6c3d7d9281e9dcc6b11", "name": "7311cc6c2367e6c3d7d9281e9dcc6b11", "type": "electric_scooter", "lon": -77.02304183333334, "rental_uris": {"android": "https://dc.lft.to/lastmile_qr_scan", "ios": "https://dc.lft.to/lastmile_qr_scan"}, "lat": 38.91841683333333, "is_reserved": 0, "is_disabled": 0, "fusion_lat": 0.0}, {"fusion_lon": 0.0, "bike_id": "fe1572027f5b5345b84f0f6fee33a497", "name": "fe1572027f5b5345b84f0f6fee33a497", "type": "electric_scooter", "lon": -77.02946183333333, "rental_uris": {"android": "https://dc.lft.to/lastmile_qr_scan", "ios": "https://dc.lft.to/lastmile_qr_scan"}, "lat": 38.904988833333334, "is_reserved": 0, "is_disabled": 0, "fusion_lat": 0.0}, {"fusion_lon": 0.0, "bike_id": "25376fec4031db5f831bfac2f3e18f4b", "name": "25376fec4031db5f831bfac2f3e18f4b", "type": "electric_scooter", "lon": -76.9654575, "rental_uris": {"android": "https://dc.lft.to/lastmile_qr_scan", "ios": "https://dc.lft.to/lastmile_qr_scan"}, "lat": 38.91877783333333, "is_reserved": 0, "is_disabled": 0, "fusion_lat": 0.0}, {"fusion_lon": 0.0, "bike_id": "bfa2938a91fd2d657b151cc38393b868", "name": "bfa2938a91fd2d657b151cc38393b868", "type": "electric_scooter", "lon": -77.02219383333333, "rental_uris": {"android": "https://dc.lft.to/lastmile_qr_scan", "ios": "https://dc.lft.to/lastmile_qr_scan"}, "lat": 38.93550466666667, "is_reserved": 0, "is_disabled": 0, "fusion_lat": 0.0}, {"fusion_lon": 0.0, "bike_id": "6edaa84d892f13b3c2e6cdbdbd4da11f", "name": "6edaa84d892f13b3c2e6cdbdbd4da11f", "type": "electric_scooter", "lon": -77.012564, "rental_uris": {"android": "https://dc.lft.to/lastmile_qr_scan", "ios": "https://dc.lft.to/lastmile_qr_scan"}, "lat": 38.876326666666664, "is_reserved": 0, "is_disabled": 0, "fusion_lat": 0.0}, {"fusion_lon": 0.0, "bike_id": "895d00425898ae87085b5c3155ab5b49", "name": "895d00425898ae87085b5c3155ab5b49", "type": "electric_scooter", "lon": -77.0122425, "rental_uris": {"android": "https://dc.lft.to/lastmile_qr_scan", "ios": "https://dc.lft.to/lastmile_qr_scan"}, "lat": 38.867215333333334, "is_reserved": 0, "is_disabled": 0, "fusion_lat": 0.0}, {"fusion_lon": 0.0, "bike_id": "cd3b3d737596c941da43ec085070cf0f", "name": "cd3b3d737596c941da43ec085070cf0f", "type": "electric_scooter", "lon": -77.02755366666666, "rental_uris": {"android": "https://dc.lft.to/lastmile_qr_scan", "ios": "https://dc.lft.to/lastmile_qr_scan"}, "lat": 38.95418316666667, "is_reserved": 0, "is_disabled": 0, "fusion_lat": 0.0}, {"fusion_lon": 0.0, "bike_id": "53a3b44aa2ece593ca33865ef8b4431a", "name": "53a3b44aa2ece593ca33865ef8b4431a", "type": "electric_scooter", "lon": -77.040158, "rental_uris": {"android": "https://dc.lft.to/lastmile_qr_scan", "ios": "https://dc.lft.to/lastmile_qr_scan"}, "lat": 38.913245833333335, "is_reserved": 0, "is_disabled": 0, "fusion_lat": 0.0}, {"fusion_lon": 0.0, "bike_id": "2e99e91e1ee903aeeb3a65c81dedb021", "name": "2e99e91e1ee903aeeb3a65c81dedb021", "type": "electric_bike", "lon": -76.934128, "rental_uris": {"android": "https://dc.lft.to/lastmile_qr_scan", "ios": "https://dc.lft.to/lastmile_qr_scan"}, "lat": 38.946261, "is_reserved": 0, "is_disabled": 0, "fusion_lat": 0.0}, {"fusion_lon": 0.0, "bike_id": "32ac1e9cda60d50400d966f565701c25", "name": "32ac1e9cda60d50400d966f565701c25", "type": "electric_scooter", "lon": -77.00213266666667, "rental_uris": {"android": "https://dc.lft.to/lastmile_qr_scan", "ios": "https://dc.lft.to/lastmile_qr_scan"}, "lat": 38.8908795, "is_reserved": 0, "is_disabled": 0, "fusion_lat": 0.0}, {"fusion_lon": 0.0, "bike_id": "f3f6af12223e9946f85b29bb5fe4c4b4", "name": "f3f6af12223e9946f85b29bb5fe4c4b4", "type": "electric_scooter", "lon": -77.03996483333333, "rental_uris": {"android": "https://dc.lft.to/lastmile_qr_scan", "ios": "https://dc.lft.to/lastmile_qr_scan"}, "lat": 38.91338783333333, "is_reserved": 0, "is_disabled": 0, "fusion_lat": 0.0}, {"fusion_lon": 0.0, "bike_id": "2d75745df58930fbaf002d70124add64", "name": "2d75745df58930fbaf002d70124add64", "type": "electric_scooter", "lon": -77.026006, "rental_uris": {"android": "https://dc.lft.to/lastmile_qr_scan", "ios": "https://dc.lft.to/lastmile_qr_scan"}, "lat": 38.89500316666667, "is_reserved": 0, "is_disabled": 0, "fusion_lat": 0.0}, {"fusion_lon": 0.0, "bike_id": "408094f9b756a58ca5d5add00dea639a", "name": "408094f9b756a58ca5d5add00dea639a", "type": "electric_scooter", "lon": -77.04191666666667, "rental_uris": {"android": "https://dc.lft.to/lastmile_qr_scan", "ios": "https://dc.lft.to/lastmile_qr_scan"}, "lat": 38.92330916666667, "is_reserved": 0, "is_disabled": 0, "fusion_lat": 0.0}, {"fusion_lon": 0.0, "bike_id": "ed5967c9ae6f320bb17ace9a81877f24", "name": "ed5967c9ae6f320bb17ace9a81877f24", "type": "electric_bike", "lon": -77.02299866666667, "rental_uris": {"android": "https://dc.lft.to/lastmile_qr_scan", "ios": "https://dc.lft.to/lastmile_qr_scan"}, "lat": 38.96560183333333, "is_reserved": 0, "is_disabled": 0, "fusion_lat": 0.0}, {"fusion_lon": 0.0, "bike_id": "aa66ad2d5bca5d0fdbb001069953b123", "name": "aa66ad2d5bca5d0fdbb001069953b123", "type": "electric_scooter", "lon": -77.048828, "rental_uris": {"android": "https://dc.lft.to/lastmile_qr_scan", "ios": "https://dc.lft.to/lastmile_qr_scan"}, "lat": 38.90360783333333, "is_reserved": 0, "is_disabled": 0, "fusion_lat": 0.0}, {"fusion_lon": 0.0, "bike_id": "cd445df4bf7c88714510996079097618", "name": "cd445df4bf7c88714510996079097618", "type": "electric_scooter", "lon": -77.07112166666667, "rental_uris": {"android": "https://dc.lft.to/lastmile_qr_scan", "ios": "https://dc.lft.to/lastmile_qr_scan"}, "lat": 38.9197915, "is_reserved": 0, "is_disabled": 0, "fusion_lat": 0.0}, {"fusion_lon": 0.0, "bike_id": "8077890a7a60213d122ae325f1f31b43", "name": "8077890a7a60213d122ae325f1f31b43", "type": "electric_scooter", "lon": -77.03823916666667, "rental_uris": {"android": "https://dc.lft.to/lastmile_qr_scan", "ios": "https://dc.lft.to/lastmile_qr_scan"}, "lat": 38.9313555, "is_reserved": 0, "is_disabled": 0, "fusion_lat": 0.0}, {"fusion_lon": 0.0, "bike_id": "57a0f0235db3619d2c704b01ad59c0d0", "name": "57a0f0235db3619d2c704b01ad59c0d0", "type": "electric_bike", "lon": -77.12262166666666, "rental_uris": {"android": "https://dc.lft.to/lastmile_qr_scan", "ios": "https://dc.lft.to/lastmile_qr_scan"}, "lat": 38.8973755, "is_reserved": 0, "is_disabled": 0, "fusion_lat": 0.0}, {"fusion_lon": 0.0, "bike_id": "2ac1a0a34c11e8de503b3949a8ebaf01", "name": "2ac1a0a34c11e8de503b3949a8ebaf01", "type": "electric_bike", "lon": -76.916569, "rental_uris": {"android": "https://dc.lft.to/lastmile_qr_scan", "ios": "https://dc.lft.to/lastmile_qr_scan"}, "lat": 38.868602333333335, "is_reserved": 0, "is_disabled": 0, "fusion_lat": 0.0}, {"fusion_lon": 0.0, "bike_id": "7ee256cc1d7ea3d9c5b8407e6082b987", "name": "7ee256cc1d7ea3d9c5b8407e6082b987", "type": "electric_scooter", "lon": -77.0239585, "rental_uris": {"android": "https://dc.lft.to/lastmile_qr_scan", "ios": "https://dc.lft.to/lastmile_qr_scan"}, "lat": 38.915083833333334, "is_reserved": 0, "is_disabled": 0, "fusion_lat": 0.0}, {"fusion_lon": 0.0, "bike_id": "f126d96df96a9c4b36a86dbc1c0f878b", "name": "f126d96df96a9c4b36a86dbc1c0f878b", "type": "electric_scooter", "lon": -76.94243366666667, "rental_uris": {"android": "https://dc.lft.to/lastmile_qr_scan", "ios": "https://dc.lft.to/lastmile_qr_scan"}, "lat": 38.89686666666667, "is_reserved": 0, "is_disabled": 0, "fusion_lat": 0.0}, {"fusion_lon": 0.0, "bike_id": "2537aeed1423fa1f592c141c62743c07", "name": "2537aeed1423fa1f592c141c62743c07", "type": "electric_scooter", "lon": -77.02860266666667, "rental_uris": {"android": "https://dc.lft.to/lastmile_qr_scan", "ios": "https://dc.lft.to/lastmile_qr_scan"}, "lat": 38.935859, "is_reserved": 0, "is_disabled": 0, "fusion_lat": 0.0}, {"fusion_lon": 0.0, "bike_id": "f9e01c2e68cd3e181b1e122e62c57af7", "name": "f9e01c2e68cd3e181b1e122e62c57af7", "type": "electric_scooter", "lon": -76.99629416666667, "rental_uris": {"android": "https://dc.lft.to/lastmile_qr_scan", "ios": "https://dc.lft.to/lastmile_qr_scan"}, "lat": 38.84620283333334, "is_reserved": 0, "is_disabled": 0, "fusion_lat": 0.0}, {"fusion_lon": 0.0, "bike_id": "50d51197ce4ffc70699e74f05f65f61d", "name": "50d51197ce4ffc70699e74f05f65f61d", "type": "electric_scooter", "lon": -77.032794, "rental_uris": {"android": "https://dc.lft.to/lastmile_qr_scan", "ios": "https://dc.lft.to/lastmile_qr_scan"}, "lat": 38.917104, "is_reserved": 0, "is_disabled": 0, "fusion_lat": 0.0}, {"fusion_lon": 0.0, "bike_id": "52270fafbecb3b6c3ab6b7446f85a3f0", "name": "52270fafbecb3b6c3ab6b7446f85a3f0", "type": "electric_scooter", "lon": -77.00565033333334, "rental_uris": {"android": "https://dc.lft.to/lastmile_qr_scan", "ios": "https://dc.lft.to/lastmile_qr_scan"}, "lat": 38.905427, "is_reserved": 0, "is_disabled": 0, "fusion_lat": 0.0}, {"fusion_lon": 0.0, "bike_id": "45465eba61390bd45818f5a5edb7e699", "name": "45465eba61390bd45818f5a5edb7e699", "type": "electric_scooter", "lon": -77.03422566666667, "rental_uris": {"android": "https://dc.lft.to/lastmile_qr_scan", "ios": "https://dc.lft.to/lastmile_qr_scan"}, "lat": 38.9275135, "is_reserved": 0, "is_disabled": 0, "fusion_lat": 0.0}, {"fusion_lon": 0.0, "bike_id": "a3f053cdac57444ce849e66df70d324a", "name": "a3f053cdac57444ce849e66df70d324a", "type": "electric_scooter", "lon": -77.022179, "rental_uris": {"android": "https://dc.lft.to/lastmile_qr_scan", "ios": "https://dc.lft.to/lastmile_qr_scan"}, "lat": 38.935531833333336, "is_reserved": 0, "is_disabled": 0, "fusion_lat": 0.0}, {"fusion_lon": 0.0, "bike_id": "5f5f2be15a4c25caad82c7b462f039ad", "name": "5f5f2be15a4c25caad82c7b462f039ad", "type": "electric_bike", "lon": -77.124038, "rental_uris": {"android": "https://dc.lft.to/lastmile_qr_scan", "ios": "https://dc.lft.to/lastmile_qr_scan"}, "lat": 38.893346333333334, "is_reserved": 0, "is_disabled": 0, "fusion_lat": 0.0}, {"fusion_lon": 0.0, "bike_id": "ee54ca60869aaa645e7eb4d3b9c8b399", "name": "ee54ca60869aaa645e7eb4d3b9c8b399", "type": "electric_scooter", "lon": -77.02141983333334, "rental_uris": {"android": "https://dc.lft.to/lastmile_qr_scan", "ios": "https://dc.lft.to/lastmile_qr_scan"}, "lat": 38.929169333333334, "is_reserved": 0, "is_disabled": 0, "fusion_lat": 0.0}, {"fusion_lon": 0.0, "bike_id": "5c3074598ee9b0f9073b77a202b69a3d", "name": "5c3074598ee9b0f9073b77a202b69a3d", "type": "electric_scooter", "lon": -77.0221515, "rental_uris": {"android": "https://dc.lft.to/lastmile_qr_scan", "ios": "https://dc.lft.to/lastmile_qr_scan"}, "lat": 38.90574016666667, "is_reserved": 0, "is_disabled": 0, "fusion_lat": 0.0}, {"fusion_lon": 0.0, "bike_id": "948d8c105bbb0214083e27f3b4c139ea", "name": "948d8c105bbb0214083e27f3b4c139ea", "type": "electric_scooter", "lon": -77.03238416666667, "rental_uris": {"android": "https://dc.lft.to/lastmile_qr_scan", "ios": "https://dc.lft.to/lastmile_qr_scan"}, "lat": 38.91562966666667, "is_reserved": 0, "is_disabled": 0, "fusion_lat": 0.0}, {"fusion_lon": 0.0, "bike_id": "7fb1f77b330bba1677bb9c5455c96784", "name": "7fb1f77b330bba1677bb9c5455c96784", "type": "electric_scooter", "lon": -77.036585, "rental_uris": {"android": "https://dc.lft.to/lastmile_qr_scan", "ios": "https://dc.lft.to/lastmile_qr_scan"}, "lat": 38.92079483333333, "is_reserved": 0, "is_disabled": 0, "fusion_lat": 0.0}, {"fusion_lon": 0.0, "bike_id": "63373f717efd39b00657f3b8593bbc43", "name": "63373f717efd39b00657f3b8593bbc43", "type": "electric_scooter", "lon": -77.02107316666667, "rental_uris": {"android": "https://dc.lft.to/lastmile_qr_scan", "ios": "https://dc.lft.to/lastmile_qr_scan"}, "lat": 38.940966, "is_reserved": 0, "is_disabled": 0, "fusion_lat": 0.0}, {"fusion_lon": 0.0, "bike_id": "5042efe09da03d4652373b7c76c0d343", "name": "5042efe09da03d4652373b7c76c0d343", "type": "electric_scooter", "lon": -77.031645, "rental_uris": {"android": "https://dc.lft.to/lastmile_qr_scan", "ios": "https://dc.lft.to/lastmile_qr_scan"}, "lat": 38.90721216666667, "is_reserved": 0, "is_disabled": 0, "fusion_lat": 0.0}, {"fusion_lon": 0.0, "bike_id": "b96cbb47d21073dc91350394fedb80db", "name": "b96cbb47d21073dc91350394fedb80db", "type": "electric_scooter", "lon": -77.04000333333333, "rental_uris": {"android": "https://dc.lft.to/lastmile_qr_scan", "ios": "https://dc.lft.to/lastmile_qr_scan"}, "lat": 38.93261366666667, "is_reserved": 0, "is_disabled": 0, "fusion_lat": 0.0}, {"fusion_lon": 0.0, "bike_id": "40b09329f7a4404cb21b36d19518be71", "name": "40b09329f7a4404cb21b36d19518be71", "type": "electric_scooter", "lon": -77.0314435, "rental_uris": {"android": "https://dc.lft.to/lastmile_qr_scan", "ios": "https://dc.lft.to/lastmile_qr_scan"}, "lat": 38.927956333333334, "is_reserved": 0, "is_disabled": 0, "fusion_lat": 0.0}, {"fusion_lon": 0.0, "bike_id": "bf89c02f71b850d1c4edace64a8292d3", "name": "bf89c02f71b850d1c4edace64a8292d3", "type": "electric_scooter", "lon": -77.0179285, "rental_uris": {"android": "https://dc.lft.to/lastmile_qr_scan", "ios": "https://dc.lft.to/lastmile_qr_scan"}, "lat": 38.94119416666667, "is_reserved": 0, "is_disabled": 0, "fusion_lat": 0.0}, {"fusion_lon": 0.0, "bike_id": "c7421dd5ece1031bda697d3042e12380", "name": "c7421dd5ece1031bda697d3042e12380", "type": "electric_scooter", "lon": -77.00326716666666, "rental_uris": {"android": "https://dc.lft.to/lastmile_qr_scan", "ios": "https://dc.lft.to/lastmile_qr_scan"}, "lat": 38.9072995, "is_reserved": 0, "is_disabled": 0, "fusion_lat": 0.0}, {"fusion_lon": 0.0, "bike_id": "5be5ff5a271abbeb84f434342fc95c9d", "name": "5be5ff5a271abbeb84f434342fc95c9d", "type": "electric_scooter", "lon": -77.03739966666667, "rental_uris": {"android": "https://dc.lft.to/lastmile_qr_scan", "ios": "https://dc.lft.to/lastmile_qr_scan"}, "lat": 38.935668666666665, "is_reserved": 0, "is_disabled": 0, "fusion_lat": 0.0}, {"fusion_lon": 0.0, "bike_id": "64bc1c396bb02a8e9f146f4801169b57", "name": "64bc1c396bb02a8e9f146f4801169b57", "type": "electric_scooter", "lon": -77.04018633333334, "rental_uris": {"android": "https://dc.lft.to/lastmile_qr_scan", "ios": "https://dc.lft.to/lastmile_qr_scan"}, "lat": 38.912954, "is_reserved": 0, "is_disabled": 0, "fusion_lat": 0.0}, {"fusion_lon": 0.0, "bike_id": "0cd68623356867412a04d007be62b374", "name": "0cd68623356867412a04d007be62b374", "type": "electric_scooter", "lon": -77.0293395, "rental_uris": {"android": "https://dc.lft.to/lastmile_qr_scan", "ios": "https://dc.lft.to/lastmile_qr_scan"}, "lat": 38.914143833333334, "is_reserved": 0, "is_disabled": 0, "fusion_lat": 0.0}, {"fusion_lon": 0.0, "bike_id": "f55bfa4ac1e537b3f80cbc15f9552477", "name": "f55bfa4ac1e537b3f80cbc15f9552477", "type": "electric_scooter", "lon": -77.05922, "rental_uris": {"android": "https://dc.lft.to/lastmile_qr_scan", "ios": "https://dc.lft.to/lastmile_qr_scan"}, "lat": 38.90998166666667, "is_reserved": 0, "is_disabled": 0, "fusion_lat": 0.0}, {"fusion_lon": 0.0, "bike_id": "28bdd76a5031e5af15854f86893aee70", "name": "28bdd76a5031e5af15854f86893aee70", "type": "electric_bike", "lon": -76.8749455, "rental_uris": {"android": "https://dc.lft.to/lastmile_qr_scan", "ios": "https://dc.lft.to/lastmile_qr_scan"}, "lat": 38.990897833333335, "is_reserved": 0, "is_disabled": 0, "fusion_lat": 0.0}, {"fusion_lon": 0.0, "bike_id": "e5ae99187616f2f74251ab3d40ca3289", "name": "e5ae99187616f2f74251ab3d40ca3289", "type": "electric_scooter", "lon": -77.03046333333333, "rental_uris": {"android": "https://dc.lft.to/lastmile_qr_scan", "ios": "https://dc.lft.to/lastmile_qr_scan"}, "lat": 38.884165833333334, "is_reserved": 0, "is_disabled": 0, "fusion_lat": 0.0}, {"fusion_lon": 0.0, "bike_id": "d5ea1d3e17dc54cce79d853c919860bf", "name": "d5ea1d3e17dc54cce79d853c919860bf", "type": "electric_bike", "lon": -77.10027383333333, "rental_uris": {"android": "https://dc.lft.to/lastmile_qr_scan", "ios": "https://dc.lft.to/lastmile_qr_scan"}, "lat": 38.990671, "is_reserved": 0, "is_disabled": 0, "fusion_lat": 0.0}, {"fusion_lon": 0.0, "bike_id": "32a6d4172da309fb6dc2787c9d35fc54", "name": "32a6d4172da309fb6dc2787c9d35fc54", "type": "electric_scooter", "lon": -77.024837, "rental_uris": {"android": "https://dc.lft.to/lastmile_qr_scan", "ios": "https://dc.lft.to/lastmile_qr_scan"}, "lat": 38.9039835, "is_reserved": 0, "is_disabled": 0, "fusion_lat": 0.0}, {"fusion_lon": 0.0, "bike_id": "ae42a72e65f806b6a776440479660ba6", "name": "ae42a72e65f806b6a776440479660ba6", "type": "electric_scooter", "lon": -77.02799533333334, "rental_uris": {"android": "https://dc.lft.to/lastmile_qr_scan", "ios": "https://dc.lft.to/lastmile_qr_scan"}, "lat": 38.950990833333336, "is_reserved": 0, "is_disabled": 0, "fusion_lat": 0.0}, {"fusion_lon": 0.0, "bike_id": "aee843fd595c29e8e8aac66f313ccea1", "name": "aee843fd595c29e8e8aac66f313ccea1", "type": "electric_scooter", "lon": -77.0338805, "rental_uris": {"android": "https://dc.lft.to/lastmile_qr_scan", "ios": "https://dc.lft.to/lastmile_qr_scan"}, "lat": 38.96829266666667, "is_reserved": 0, "is_disabled": 0, "fusion_lat": 0.0}, {"fusion_lon": 0.0, "bike_id": "461e898f5675fcb8322e60545ec274c8", "name": "461e898f5675fcb8322e60545ec274c8", "type": "electric_scooter", "lon": -77.02190816666666, "rental_uris": {"android": "https://dc.lft.to/lastmile_qr_scan", "ios": "https://dc.lft.to/lastmile_qr_scan"}, "lat": 38.91126716666667, "is_reserved": 0, "is_disabled": 0, "fusion_lat": 0.0}, {"fusion_lon": 0.0, "bike_id": "5361a504e5ed1aeb63a7d3f1109b4586", "name": "5361a504e5ed1aeb63a7d3f1109b4586", "type": "electric_scooter", "lon": -77.02223816666667, "rental_uris": {"android": "https://dc.lft.to/lastmile_qr_scan", "ios": "https://dc.lft.to/lastmile_qr_scan"}, "lat": 38.9127025, "is_reserved": 0, "is_disabled": 0, "fusion_lat": 0.0}, {"fusion_lon": 0.0, "bike_id": "28a30ccca46dfa0fb2edb4c28c2ff1f3", "name": "28a30ccca46dfa0fb2edb4c28c2ff1f3", "type": "electric_bike", "lon": -77.04899666666667, "rental_uris": {"android": "https://dc.lft.to/lastmile_qr_scan", "ios": "https://dc.lft.to/lastmile_qr_scan"}, "lat": 38.874934333333336, "is_reserved": 0, "is_disabled": 0, "fusion_lat": 0.0}, {"fusion_lon": 0.0, "bike_id": "1e470d4a14962aa03dc9ce10be283218", "name": "1e470d4a14962aa03dc9ce10be283218", "type": "electric_scooter", "lon": -77.0019205, "rental_uris": {"android": "https://dc.lft.to/lastmile_qr_scan", "ios": "https://dc.lft.to/lastmile_qr_scan"}, "lat": 38.902307666666665, "is_reserved": 0, "is_disabled": 0, "fusion_lat": 0.0}, {"fusion_lon": 0.0, "bike_id": "01e911906bd36f11a7abcda380d8fd02", "name": "01e911906bd36f11a7abcda380d8fd02", "type": "electric_scooter", "lon": -77.0295225, "rental_uris": {"android": "https://dc.lft.to/lastmile_qr_scan", "ios": "https://dc.lft.to/lastmile_qr_scan"}, "lat": 38.9117915, "is_reserved": 0, "is_disabled": 0, "fusion_lat": 0.0},