{"data": {"bikes": [{"bike_id": "796d7609180360ea4b6f2a296aeaadc5", "type": "electric_scooter", "is_disabled": 0, "lat": 38.89212083333334, "rental_uris": {"ios": "https://dc.lft.to/lastmile_qr_scan", "android": "https://dc.lft.to/lastmile_qr_scan"}, "is_reserved": 0, "fusion_lon": 0.0, "fusion_lat": 0.0, "lon": -77.02578383333334, "name": "796d7609180360ea4b6f2a296aeaadc5"}, {"bike_id": "233832b2630f65fc32b18a9c26a33eec", "type": "electric_scooter", "is_disabled": 0, "lat": 38.92602083333333, "rental_uris": {"ios": "https://dc.lft.to/lastmile_qr_scan", "android": "https://dc.lft.to/lastmile_qr_scan"}, "is_reserved": 0, "fusion_lon": 0.0, "fusion_lat": 0.0, "lon": -77.02412833333334, "name": "233832b2630f65fc32b18a9c26a33eec"}, {"bike_id": "70a6f1efa3c78fb81a6719cc851bb606", "type": "electric_scooter", "is_disabled": 0, "lat": 38.88098133333333, "rental_uris": {"ios": "https://dc.lft.to/lastmile_qr_scan", "android": "https://dc.lft.to/lastmile_qr_scan"}, "is_reserved": 0, "fusion_lon": 0.0, "fusion_lat": 0.0, "lon": -76.99851766666667, "name": "70a6f1efa3c78fb81a6719cc851bb606"}, {"bike_id": "29b318e8ebc55a9bb2ba3fef6dedaaa4", "type": "electric_scooter", "is_disabled": 0, "lat": 38.925562, "rental_uris": {"ios": "https://dc.lft.to/lastmile_qr_scan", "android": "https://dc.lft.to/lastmile_qr_scan"}, "is_reserved": 0, "fusion_lon": 0.0, "fusion_lat": 0.0, "lon": -77.0438195, "name": "29b318e8ebc55a9bb2ba3fef6dedaaa4"}, {"bike_id": "3fb2ecd0682124bcf288d13decd166b8", "type": "electric_scooter", "is_disabled": 0, "lat": 38.936006666666664, "rental_uris": {"ios": "https://dc.lft.to/lastmile_qr_scan", "android": "https://dc.lft.to/lastmile_qr_scan"}, "is_reserved": 0, "fusion_lon": 0.0, "fusion_lat": 0.0, "lon": -77.05854866666667, "name": "3fb2ecd0682124bcf288d13decd166b8"}, {"bike_id": "799b6fcc5be9cf4f9b920e2d0e291f6d", "type": "electric_scooter", "is_disabled": 0, "lat": 38.90359333333333, "rental_uris": {"ios": "https://dc.lft.to/lastmile_qr_scan", "android": "https://dc.lft.to/lastmile_qr_scan"}, "is_reserved": 0, "fusion_lon": 0.0, "fusion_lat": 0.0, "lon": -77.044653, "name": "799b6fcc5be9cf4f9b920e2d0e291f6d"}, {"bike_id": "e4de6e78791569e707a7a9b2aa5503b0", "type": "electric_scooter", "is_disabled": 0, "lat": 38.900465833333335, "rental_uris": {"ios": "https://dc.lft.to/lastmile_qr_scan", "android": "https://dc.lft.to/lastmile_qr_scan"}, "is_reserved": 0, "fusion_lon": 0.0, "fusion_lat": 0.0, "lon": -77.000629, "name": "e4de6e78791569e707a7a9b2aa5503b0"}, {"bike_id": "0e054bbb1f01640ec89523d389485a4f", "type": "electric_scooter", "is_disabled": 0, "lat": 38.92118633333333, "rental_uris": {"ios": "https://dc.lft.to/lastmile_qr_scan", "android": "https://dc.lft.to/lastmile_qr_scan"}, "is_reserved": 0, "fusion_lon": 0.0, "fusion_lat": 0.0, "lon": -77.01212366666667, "name": "0e054bbb1f01640ec89523d389485a4f"}, {"bike_id": "9049af27c3053b9453dc4f8d39ac4380", "type": "electric_scooter", "is_disabled": 0, "lat": 38.917381166666665, "rental_uris": {"ios": "https://dc.lft.to/lastmile_qr_scan", "android": "https://dc.lft.to/lastmile_qr_scan"}, "is_reserved": 0, "fusion_lon": 0.0, "fusion_lat": 0.0, "lon": -77.03183566666667, "name": "9049af27c3053b9453dc4f8d39ac4380"}, {"bike_id": "ba720e17ce21dab7de16e516d0147f59", "type": "electric_bike", "is_disabled": 0, "lat": 38.921072333333335, "rental_uris": {"ios": "https://dc.lft.to/lastmile_qr_scan", "android": "https://dc.lft.to/lastmile_qr_scan"}, "is_reserved": 0, "fusion_lon": 0.0, "fusion_lat": 0.0, "lon": -77.029974, "name": "ba720e17ce21dab7de16e516d0147f59"}, {"bike_id": "f43082781deae6fcab5fdb6a34bb9025", "type": "electric_scooter", "is_disabled": 0, "lat": 38.9040285, "rental_uris": {"ios": "https://dc.lft.to/lastmile_qr_scan", "android": "https://dc.lft.to/lastmile_qr_scan"}, "is_reserved": 0, "fusion_lon": 0.0, "fusion_lat": 0.0, "lon": -77.043563, "name": "f43082781deae6fcab5fdb6a34bb9025"}, {"bike_id": "71272b3f15603f02d021648e485109f6", "type": "electric_scooter", "is_disabled": 0, "lat": 38.945595, "rental_uris": {"ios": "https://dc.lft.to/lastmile_qr_scan", "android": "https://dc.lft.to/lastmile_qr_scan"}, "is_reserved": 0, "fusion_lon": 0.0, "fusion_lat": 0.0, "lon": -77.03276233333334, "name": "71272b3f15603f02d021648e485109f6"}, {"bike_id": "36fcd6cdcd3d40c2d3f7c6594abad9d5", "type": "electric_scooter", "is_disabled": 0, "lat": 38.92704833333333, "rental_uris": {"ios": "https://dc.lft.to/lastmile_qr_scan", "android": "https://dc.lft.to/lastmile_qr_scan"}, "is_reserved": 0, "fusion_lon": 0.0, "fusion_lat": 0.0, "lon": -77.02092633333334, "name": "36fcd6cdcd3d40c2d3f7c6594abad9d5"}, {"bike_id": "e5b31e62e551f900bb12ba9ba77f81bd", "type": "electric_scooter", "is_disabled": 0, "lat": 38.91942916666667, "rental_uris": {"ios": "https://dc.lft.to/lastmile_qr_scan", "android": "https://dc.lft.to/lastmile_qr_scan"}, "is_reserved": 0, "fusion_lon": 0.0, "fusion_lat": 0.0, "lon": -77.04491033333333, "name": "e5b31e62e551f900bb12ba9ba77f81bd"}, {"bike_id": "892eaba1ae3ff889535e692f28480a5b", "type": "electric_scooter", "is_disabled": 0, "lat": 38.916786, "rental_uris": {"ios": "https://dc.lft.to/lastmile_qr_scan", "android": "https://dc.lft.to/lastmile_qr_scan"}, "is_reserved": 0, "fusion_lon": 0.0, "fusion_lat": 0.0, "lon": -77.041388, "name": "892eaba1ae3ff889535e692f28480a5b"}, {"bike_id": "b830349b2d555e570651b4ae35390447", "type": "electric_scooter", "is_disabled": 0, "lat": 38.9031015, "rental_uris": {"ios": "https://dc.lft.to/lastmile_qr_scan", "android": "https://dc.lft.to/lastmile_qr_scan"}, "is_reserved": 0, "fusion_lon": 0.0, "fusion_lat": 0.0, "lon": -76.9779585, "name": "b830349b2d555e570651b4ae35390447"}, {"bike_id": "b4296d911846446cb25cf4768b83432b", "type": "electric_bike", "is_disabled": 0, "lat": 38.858875833333336, "rental_uris": {"ios": "https://dc.lft.to/lastmile_qr_scan", "android": "https://dc.lft.to/lastmile_qr_scan"}, "is_reserved": 0, "fusion_lon": 0.0, "fusion_lat": 0.0, "lon": -77.1186135, "name": "b4296d911846446cb25cf4768b83432b"}, {"bike_id": "a7b6a5fa968989b0af48ddacd8b932d7", "type": "electric_scooter", "is_disabled": 0, "lat": 38.91334883333333, "rental_uris": {"ios": "https://dc.lft.to/lastmile_qr_scan", "android": "https://dc.lft.to/lastmile_qr_scan"}, "is_reserved": 0, "fusion_lon": 0.0, "fusion_lat": 0.0, "lon": -77.042266, "name": "a7b6a5fa968989b0af48ddacd8b932d7"}, {"bike_id": "77ee380a3ddac9c9d9b6434c461ced01", "type": "electric_scooter", "is_disabled": 0, "lat": 38.94506116666667, "rental_uris": {"ios": "https://dc.lft.to/lastmile_qr_scan", "android": "https://dc.lft.to/lastmile_qr_scan"}, "is_reserved": 0, "fusion_lon": 0.0, "fusion_lat": 0.0, "lon": -77.03369866666667, "name": "77ee380a3ddac9c9d9b6434c461ced01"}, {"bike_id": "75fecc07196c1fdfb993d698d279e9a1", "type": "electric_scooter", "is_disabled": 0, "lat": 38.92228166666666, "rental_uris": {"ios": "https://dc.lft.to/lastmile_qr_scan", "android": "https://dc.lft.to/lastmile_qr_scan"}, "is_reserved": 0, "fusion_lon": 0.0, "fusion_lat": 0.0, "lon": -77.02976216666667, "name": "75fecc07196c1fdfb993d698d279e9a1"}, {"bike_id": "1ef66e38e7ee183d875851e412f210ad", "type": "electric_scooter", "is_disabled": 0, "lat": 38.908498333333334, "rental_uris": {"ios": "https://dc.lft.to/lastmile_qr_scan", "android": "https://dc.lft.to/lastmile_qr_scan"}, "is_reserved": 0, "fusion_lon": 0.0, "fusion_lat": 0.0, "lon": -77.0475625, "name": "1ef66e38e7ee183d875851e412f210ad"}, {"bike_id": "f13ea878feab7f9f009ad1ccedf345d7", "type": "electric_scooter", "is_disabled": 0, "lat": 38.906235333333335, "rental_uris": {"ios": "https://dc.lft.to/lastmile_qr_scan", "android": "https://dc.lft.to/lastmile_qr_scan"}, "is_reserved": 0, "fusion_lon": 0.0, "fusion_lat": 0.0, "lon": -77.0245835, "name": "f13ea878feab7f9f009ad1ccedf345d7"}, {"bike_id": "938f510e92933ea2c5e28063fa814eb1", "type": "electric_scooter", "is_disabled": 0, "lat": 38.929398666666664, "rental_uris": {"ios": "https://dc.lft.to/lastmile_qr_scan", "android": "https://dc.lft.to/lastmile_qr_scan"}, "is_reserved": 0, "fusion_lon": 0.0, "fusion_lat": 0.0, "lon": -77.03770583333333, "name": "938f510e92933ea2c5e28063fa814eb1"}, {"bike_id": "704fb1e7951f9c107064b2d3e097e905", "type": "electric_scooter", "is_disabled": 0, "lat": 38.9086235, "rental_uris": {"ios": "https://dc.lft.to/lastmile_qr_scan", "android": "https://dc.lft.to/lastmile_qr_scan"}, "is_reserved": 0, "fusion_lon": 0.0, "fusion_lat": 0.0, "lon": -77.02415083333334, "name": "704fb1e7951f9c107064b2d3e097e905"}, {"bike_id": "d34f3c4a40b0264bf5d471b5488c2694", "type": "electric_scooter", "is_disabled": 0, "lat": 38.9060125, "rental_uris": {"ios": "https://dc.lft.to/lastmile_qr_scan", "android": "https://dc.lft.to/lastmile_qr_scan"}, "is_reserved": 0, "fusion_lon": 0.0, "fusion_lat": 0.0, "lon": -76.99268000000001, "name": "d34f3c4a40b0264bf5d471b5488c2694"}, {"bike_id": "571571ff7668f35b40c9ac04c162270d", "type": "electric_scooter", "is_disabled": 0, "lat": 38.898565, "rental_uris": {"ios": "https://dc.lft.to/lastmile_qr_scan", "android": "https://dc.lft.to/lastmile_qr_scan"}, "is_reserved": 0, "fusion_lon": 0.0, "fusion_lat": 0.0, "lon": -77.03958666666666, "name": "571571ff7668f35b40c9ac04c162270d"}, {"bike_id": "1fbed72fc4835acf819257f02c065528", "type": "electric_scooter", "is_disabled": 0, "lat": 38.884543666666666, "rental_uris": {"ios": "https://dc.lft.to/lastmile_qr_scan", "android": "https://dc.lft.to/lastmile_qr_scan"}, "is_reserved": 0, "fusion_lon": 0.0, "fusion_lat": 0.0, "lon": -76.95744733333333, "name": "1fbed72fc4835acf819257f02c065528"}, {"bike_id": "78aaabe1c1bee05807dc166946dfeb59", "type": "electric_bike", "is_disabled": 0, "lat": 38.8735, "rental_uris": {"ios": "https://dc.lft.to/lastmile_qr_scan", "android": "https://dc.lft.to/lastmile_qr_scan"}, "is_reserved": 0, "fusion_lon": 0.0, "fusion_lat": 0.0, "lon": -77.10649283333333, "name": "78aaabe1c1bee05807dc166946dfeb59"}, {"bike_id": "aa3ed892de5e2505c8378deec4589ecf", "type": "electric_scooter", "is_disabled": 0, "lat": 38.91576883333333, "rental_uris": {"ios": "https://dc.lft.to/lastmile_qr_scan", "android": "https://dc.lft.to/lastmile_qr_scan"}, "is_reserved": 0, "fusion_lon": 0.0, "fusion_lat": 0.0, "lon": -77.06784883333333, "name": "aa3ed892de5e2505c8378deec4589ecf"}, {"bike_id": "7140f5177d9676fb125934015719d0e2", "type": "electric_scooter", "is_disabled": 0, "lat": 38.920544666666665, "rental_uris": {"ios": "https://dc.lft.to/lastmile_qr_scan", "android": "https://dc.lft.to/lastmile_qr_scan"}, "is_reserved": 0, "fusion_lon": 0.0, "fusion_lat": 0.0, "lon": -77.041949, "name": "7140f5177d9676fb125934015719d0e2"}, {"bike_id": "6890db35e6caf5c10f4217c113be8627", "type": "electric_scooter", "is_disabled": 0, "lat": 38.895645, "rental_uris": {"ios": "https://dc.lft.to/lastmile_qr_scan", "android": "https://dc.lft.to/lastmile_qr_scan"}, "is_reserved": 0, "fusion_lon": 0.0, "fusion_lat": 0.0, "lon": -77.022054, "name": "6890db35e6caf5c10f4217c113be8627"}, {"bike_id": "b77a49c7bf1131dec5f63c8f8b69afad", "type": "electric_scooter", "is_disabled": 0, "lat": 38.91391466666666, "rental_uris": {"ios": "https://dc.lft.to/lastmile_qr_scan", "android": "https://dc.lft.to/lastmile_qr_scan"}, "is_reserved": 0, "fusion_lon": 0.0, "fusion_lat": 0.0, "lon": -76.98192283333333, "name": "b77a49c7bf1131dec5f63c8f8b69afad"}, {"bike_id": "06e6668af152b5bc513e429e3a0715c9", "type": "electric_bike", "is_disabled": 0, "lat": 38.993248333333334, "rental_uris": {"ios": "https://dc.lft.to/lastmile_qr_scan", "android": "https://dc.lft.to/lastmile_qr_scan"}, "is_reserved": 0, "fusion_lon": 0.0, "fusion_lat": 0.0, "lon": -76.94614533333333, "name": "06e6668af152b5bc513e429e3a0715c9"}, {"bike_id": "ee248c486b56148b527e108d3d7abb09", "type": "electric_scooter", "is_disabled": 0, "lat": 38.883613833333335, "rental_uris": {"ios": "https://dc.lft.to/lastmile_qr_scan", "android": "https://dc.lft.to/lastmile_qr_scan"}, "is_reserved": 0, "fusion_lon": 0.0, "fusion_lat": 0.0, "lon": -76.9948645, "name": "ee248c486b56148b527e108d3d7abb09"}, {"bike_id": "0d6b134b419b0438eb95829a28768e15", "type": "electric_scooter", "is_disabled": 0, "lat": 38.900214, "rental_uris": {"ios": "https://dc.lft.to/lastmile_qr_scan", "android": "https://dc.lft.to/lastmile_qr_scan"}, "is_reserved": 0, "fusion_lon": 0.0, "fusion_lat": 0.0, "lon": -77.034015, "name": "0d6b134b419b0438eb95829a28768e15"}, {"bike_id": "6ff3734e40558f045e13292f6e274a92", "type": "electric_bike", "is_disabled": 0, "lat": 38.85519433333333, "rental_uris": {"ios": "https://dc.lft.to/lastmile_qr_scan", "android": "https://dc.lft.to/lastmile_qr_scan"}, "is_reserved": 0, "fusion_lon": 0.0, "fusion_lat": 0.0, "lon": -77.12000933333333, "name": "6ff3734e40558f045e13292f6e274a92"}, {"bike_id": "4a8efe41e9eb0d5f1b60c30cf7c64baa", "type": "electric_scooter", "is_disabled": 0, "lat": 38.93211983333333, "rental_uris": {"ios": "https://dc.lft.to/lastmile_qr_scan", "android": "https://dc.lft.to/lastmile_qr_scan"}, "is_reserved": 0, "fusion_lon": 0.0, "fusion_lat": 0.0, "lon": -77.0441135, "name": "4a8efe41e9eb0d5f1b60c30cf7c64baa"}, {"bike_id": "00387dd760ac9c0715dca3d6c5bf163f", "type": "electric_scooter", "is_disabled": 0, "lat": 38.8961405, "rental_uris": {"ios": "https://dc.lft.to/lastmile_qr_scan", "android": "https://dc.lft.to/lastmile_qr_scan"}, "is_reserved": 0, "fusion_lon": 0.0, "fusion_lat": 0.0, "lon": -77.00023866666666, "name": "00387dd760ac9c0715dca3d6c5bf163f"}, {"bike_id": "7ed9ae20eee7017472f75abbe45672b1", "type": "electric_scooter", "is_disabled": 0, "lat": 38.89208266666667, "rental_uris": {"ios": "https://dc.lft.to/lastmile_qr_scan", "android": "https://dc.lft.to/lastmile_qr_scan"}, "is_reserved": 0, "fusion_lon": 0.0, "fusion_lat": 0.0, "lon": -77.031822, "name": "7ed9ae20eee7017472f75abbe45672b1"}, {"bike_id": "1a456cd250bffc75e6dcc2d9ccd22463", "type": "electric_bike", "is_disabled": 0, "lat": 38.836055, "rental_uris": {"ios": "https://dc.lft.to/lastmile_qr_scan", "android": "https://dc.lft.to/lastmile_qr_scan"}, "is_reserved": 0, "fusion_lon": 0.0, "fusion_lat": 0.0, "lon": -77.00380716666666, "name": "1a456cd250bffc75e6dcc2d9ccd22463"}, {"bike_id": "e9c8abbbf933d41a78dd10a1e05722b7", "type": "electric_bike", "is_disabled": 0, "lat": 38.87132583333333, "rental_uris": {"ios": "https://dc.lft.to/lastmile_qr_scan", "android": "https://dc.lft.to/lastmile_qr_scan"}, "is_reserved": 0, "fusion_lon": 0.0, "fusion_lat": 0.0, "lon": -77.100298, "name": "e9c8abbbf933d41a78dd10a1e05722b7"}, {"bike_id": "c8c279fa93d8b929e3bfc5e8953e9f4e", "type": "electric_scooter", "is_disabled": 0, "lat": 38.9050455, "rental_uris": {"ios": "https://dc.lft.to/lastmile_qr_scan", "android": "https://dc.lft.to/lastmile_qr_scan"}, "is_reserved": 0, "fusion_lon": 0.0, "fusion_lat": 0.0, "lon": -77.02613116666667, "name": "c8c279fa93d8b929e3bfc5e8953e9f4e"}, {"bike_id": "992b94dafea4b8a12ed41832fd728078", "type": "electric_scooter", "is_disabled": 0, "lat": 38.89724833333333, "rental_uris": {"ios": "https://dc.lft.to/lastmile_qr_scan", "android": "https://dc.lft.to/lastmile_qr_scan"}, "is_reserved": 0, "fusion_lon": 0.0, "fusion_lat": 0.0, "lon": -77.02497633333333, "name": "992b94dafea4b8a12ed41832fd728078"}, {"bike_id": "9c9ba16bfc9dd5873a35a6e1d45049e1", "type": "electric_scooter", "is_disabled": 0, "lat": 38.912168666666666, "rental_uris": {"ios": "https://dc.lft.to/lastmile_qr_scan", "android": "https://dc.lft.to/lastmile_qr_scan"}, "is_reserved": 0, "fusion_lon": 0.0, "fusion_lat": 0.0, "lon": -77.04498766666667, "name": "9c9ba16bfc9dd5873a35a6e1d45049e1"}, {"bike_id": "0cc4cbba5808616fc123d9a5bf9cbeb0", "type": "electric_scooter", "is_disabled": 0, "lat": 38.936825, "rental_uris": {"ios": "https://dc.lft.to/lastmile_qr_scan", "android": "https://dc.lft.to/lastmile_qr_scan"}, "is_reserved": 0, "fusion_lon": 0.0, "fusion_lat": 0.0, "lon": -77.03273816666666, "name": "0cc4cbba5808616fc123d9a5bf9cbeb0"}, {"bike_id": "e04424025f9d18cd3628fdb15c85cc26", "type": "electric_scooter", "is_disabled": 0, "lat": 38.878334333333335, "rental_uris": {"ios": "https://dc.lft.to/lastmile_qr_scan", "android": "https://dc.lft.to/lastmile_qr_scan"}, "is_reserved": 0, "fusion_lon": 0.0, "fusion_lat": 0.0, "lon": -77.00821233333333, "name": "e04424025f9d18cd3628fdb15c85cc26"}, {"bike_id": "886711933aa09ea856985eea8c6f49a4", "type": "electric_scooter", "is_disabled": 0, "lat": 38.92607566666667, "rental_uris": {"ios": "https://dc.lft.to/lastmile_qr_scan", "android": "https://dc.lft.to/lastmile_qr_scan"}, "is_reserved": 0, "fusion_lon": 0.0, "fusion_lat": 0.0, "lon": -77.02656966666666, "name": "886711933aa09ea856985eea8c6f49a4"}, {"bike_id": "41c43b0783c7dbfb0df216e64e98277a", "type": "electric_scooter", "is_disabled": 0, "lat": 38.875469833333334, "rental_uris": {"ios": "https://dc.lft.to/lastmile_qr_scan", "android": "https://dc.lft.to/lastmile_qr_scan"}, "is_reserved": 0, "fusion_lon": 0.0, "fusion_lat": 0.0, "lon": -77.00507116666667, "name": "41c43b0783c7dbfb0df216e64e98277a"}, {"bike_id": "e20f241c61cd82d26afa1c54cacb13ef", "type": "electric_scooter", "is_disabled": 0, "lat": 38.91681466666667, "rental_uris": {"ios": "https://dc.lft.to/lastmile_qr_scan", "android": "https://dc.lft.to/lastmile_qr_scan"}, "is_reserved": 0, "fusion_lon": 0.0, "fusion_lat": 0.0, "lon": -77.0230435, "name": "e20f241c61cd82d26afa1c54cacb13ef"}, {"bike_id": "610787ccbb72a4dc19e23e194747cf27", "type": "electric_scooter", "is_disabled": 0, "lat": 38.9155505, "rental_uris": {"ios": "https://dc.lft.to/lastmile_qr_scan", "android": "https://dc.lft.to/lastmile_qr_scan"}, "is_reserved": 0, "fusion_lon": 0.0, "fusion_lat": 0.0, "lon": -77.0386455, "name": "610787ccbb72a4dc19e23e194747cf27"}, {"bike_id": "843b885a8ab45b65bc325b645155c6f5", "type": "electric_scooter", "is_disabled": 0, "lat": 38.897777, "rental_uris": {"ios": "https://dc.lft.to/lastmile_qr_scan", "android": "https://dc.lft.to/lastmile_qr_scan"}, "is_reserved": 0, "fusion_lon": 0.0, "fusion_lat": 0.0, "lon": -77.05478883333333, "name": "843b885a8ab45b65bc325b645155c6f5"}, {"bike_id": "57509175fda022be7d298cf39ccc472a", "type": "electric_scooter", "is_disabled": 0, "lat": 38.919188, "rental_uris": {"ios": "https://dc.lft.to/lastmile_qr_scan", "android": "https://dc.lft.to/lastmile_qr_scan"}, "is_reserved": 0, "fusion_lon": 0.0, "fusion_lat": 0.0, "lon": -77.0311135, "name": "57509175fda022be7d298cf39ccc472a"}, {"bike_id": "316c393e2dda8ceccebfcf35fbc0cb20", "type": "electric_scooter", "is_disabled": 0, "lat": 38.89221533333333, "rental_uris": {"ios": "https://dc.lft.to/lastmile_qr_scan", "android": "https://dc.lft.to/lastmile_qr_scan"}, "is_reserved": 0, "fusion_lon": 0.0, "fusion_lat": 0.0, "lon": -77.04690266666667, "name": "316c393e2dda8ceccebfcf35fbc0cb20"}, {"bike_id": "9ee379f597732b594224995ac7301dd2", "type": "electric_scooter", "is_disabled": 0, "lat": 38.89726133333333, "rental_uris": {"ios": "https://dc.lft.to/lastmile_qr_scan", "android": "https://dc.lft.to/lastmile_qr_scan"}, "is_reserved": 0, "fusion_lon": 0.0, "fusion_lat": 0.0, "lon": -77.03302716666667, "name": "9ee379f597732b594224995ac7301dd2"}, {"bike_id": "8a07d492e10ded8e9d0fec27012343cb", "type": "electric_scooter", "is_disabled": 0, "lat": 38.905275333333336, "rental_uris": {"ios": "https://dc.lft.to/lastmile_qr_scan", "android": "https://dc.lft.to/lastmile_qr_scan"}, "is_reserved": 0, "fusion_lon": 0.0, "fusion_lat": 0.0, "lon": -77.066151, "name": "8a07d492e10ded8e9d0fec27012343cb"}, {"bike_id": "8f0efee34eda6bc35588e88188f3e30d", "type": "electric_scooter", "is_disabled": 0, "lat": 38.883857, "rental_uris": {"ios": "https://dc.lft.to/lastmile_qr_scan", "android": "https://dc.lft.to/lastmile_qr_scan"}, "is_reserved": 0, "fusion_lon": 0.0, "fusion_lat": 0.0, "lon": -76.9544715, "name": "8f0efee34eda6bc35588e88188f3e30d"}, {"bike_id": "f610a3753ac98fee0a776d954e73d343", "type": "electric_scooter", "is_disabled": 0, "lat": 38.88880966666667, "rental_uris": {"ios": "https://dc.lft.to/lastmile_qr_scan", "android": "https://dc.lft.to/lastmile_qr_scan"}, "is_reserved": 0, "fusion_lon": 0.0, "fusion_lat": 0.0, "lon": -76.94780366666667, "name": "f610a3753ac98fee0a776d954e73d343"}, {"bike_id": "55417f06fbe1bd7a104cf9f237edf306", "type": "electric_scooter", "is_disabled": 0, "lat": 38.903992833333334, "rental_uris": {"ios": "https://dc.lft.to/lastmile_qr_scan", "android": "https://dc.lft.to/lastmile_qr_scan"}, "is_reserved": 0, "fusion_lon": 0.0, "fusion_lat": 0.0, "lon": -77.005764, "name": "55417f06fbe1bd7a104cf9f237edf306"}, {"bike_id": "6c9bc748f2e5121c76d3e9be341fa38c", "type": "electric_scooter", "is_disabled": 0, "lat": 38.8849735, "rental_uris": {"ios": "https://dc.lft.to/lastmile_qr_scan", "android": "https://dc.lft.to/lastmile_qr_scan"}, "is_reserved": 0, "fusion_lon": 0.0, "fusion_lat": 0.0, "lon": -77.0171765, "name": "6c9bc748f2e5121c76d3e9be341fa38c"}, {"bike_id": "e2175eb7788385927c56ad6aef9cb635", "type": "electric_bike", "is_disabled": 0, "lat": 38.79604483333333, "rental_uris": {"ios": "https://dc.lft.to/lastmile_qr_scan", "android": "https://dc.lft.to/lastmile_qr_scan"}, "is_reserved": 0, "fusion_lon": 0.0, "fusion_lat": 0.0, "lon": -76.997432, "name": "e2175eb7788385927c56ad6aef9cb635"}, {"bike_id": "99aa7b122bd98f39bfa28afb7a1800e8", "type": "electric_scooter", "is_disabled": 0, "lat": 38.976744833333335, "rental_uris": {"ios": "https://dc.lft.to/lastmile_qr_scan", "android": "https://dc.lft.to/lastmile_qr_scan"}, "is_reserved": 0, "fusion_lon": 0.0, "fusion_lat": 0.0, "lon": -77.016571, "name": "99aa7b122bd98f39bfa28afb7a1800e8"}, {"bike_id": "26d13fbf80c5ba2e4a40e7a23f200fbf", "type": "electric_scooter", "is_disabled": 0, "lat": 38.900196666666666, "rental_uris": {"ios": "https://dc.lft.to/lastmile_qr_scan", "android": "https://dc.lft.to/lastmile_qr_scan"}, "is_reserved": 0, "fusion_lon": 0.0, "fusion_lat": 0.0, "lon": -77.00196016666666, "name": "26d13fbf80c5ba2e4a40e7a23f200fbf"}, {"bike_id": "4b9a59aafc400c2e9314f031d7ece7bb", "type": "electric_scooter", "is_disabled": 0, "lat": 38.90826166666667, "rental_uris": {"ios": "https://dc.lft.to/lastmile_qr_scan", "android": "https://dc.lft.to/lastmile_qr_scan"}, "is_reserved": 0, "fusion_lon": 0.0, "fusion_lat": 0.0, "lon": -77.039141, "name": "4b9a59aafc400c2e9314f031d7ece7bb"}, {"bike_id": "0686614ec2016bb0820b66b1dfc7c294", "type": "electric_scooter", "is_disabled": 0, "lat": 38.903662, "rental_uris": {"ios": "https://dc.lft.to/lastmile_qr_scan", "android": "https://dc.lft.to/lastmile_qr_scan"}, "is_reserved": 0, "fusion_lon": 0.0, "fusion_lat": 0.0, "lon": -77.027055, "name": "0686614ec2016bb0820b66b1dfc7c294"}, {"bike_id": "6088c2abb11c8a9d5284a4461b00f664", "type": "electric_scooter", "is_disabled": 0, "lat": 38.924145, "rental_uris": {"ios": "https://dc.lft.to/lastmile_qr_scan", "android": "https://dc.lft.to/lastmile_qr_scan"}, "is_reserved": 0, "fusion_lon": 0.0, "fusion_lat": 0.0, "lon": -77.05064666666667, "name": "6088c2abb11c8a9d5284a4461b00f664"}, {"bike_id": "5b3907bef9ae07de221357655dd3a023", "type": "electric_scooter", "is_disabled": 0, "lat": 38.914738, "rental_uris": {"ios": "https://dc.lft.to/lastmile_qr_scan", "android": "https://dc.lft.to/lastmile_qr_scan"}, "is_reserved": 0, "fusion_lon": 0.0, "fusion_lat": 0.0, "lon": -76.98378666666666, "name": "5b3907bef9ae07de221357655dd3a023"}, {"bike_id": "58927e52ed86348dc9825249f771bbc1", "type": "electric_scooter", "is_disabled": 0, "lat": 38.909637333333336, "rental_uris": {"ios": "https://dc.lft.to/lastmile_qr_scan", "android": "https://dc.lft.to/lastmile_qr_scan"}, "is_reserved": 0, "fusion_lon": 0.0, "fusion_lat": 0.0, "lon": -77.03939283333334, "name": "58927e52ed86348dc9825249f771bbc1"}, {"bike_id": "3f0db56fb66fa97f4fef9f3b7e33766d", "type": "electric_scooter", "is_disabled": 0, "lat": 38.8718115, "rental_uris": {"ios": "https://dc.lft.to/lastmile_qr_scan", "android": "https://dc.lft.to/lastmile_qr_scan"}, "is_reserved": 0, "fusion_lon": 0.0, "fusion_lat": 0.0, "lon": -77.01219383333333, "name": "3f0db56fb66fa97f4fef9f3b7e33766d"}, {"bike_id": "2b913078c61d1d1c6a8482f41bccc430", "type": "electric_scooter", "is_disabled": 0, "lat": 38.91941833333333, "rental_uris": {"ios": "https://dc.lft.to/lastmile_qr_scan", "android": "https://dc.lft.to/lastmile_qr_scan"}, "is_reserved": 0, "fusion_lon": 0.0, "fusion_lat": 0.0, "lon": -77.0139975, "name": "2b913078c61d1d1c6a8482f41bccc430"}, {"bike_id": "0ba43a9feef5eb9115da662928529f61", "type": "electric_scooter", "is_disabled": 0, "lat": 38.92665183333333, "rental_uris": {"ios": "https://dc.lft.to/lastmile_qr_scan", "android": "https://dc.lft.to/lastmile_qr_scan"}, "is_reserved": 0, "fusion_lon": 0.0, "fusion_lat": 0.0, "lon": -77.02707433333333, "name": "0ba43a9feef5eb9115da662928529f61"}, {"bike_id": "c3eb8597837c9a8d4aecafa53511459a", "type": "electric_scooter", "is_disabled": 0, "lat": 38.90388266666667, "rental_uris": {"ios": "https://dc.lft.to/lastmile_qr_scan", "android": "https://dc.lft.to/lastmile_qr_scan"}, "is_reserved": 0, "fusion_lon": 0.0, "fusion_lat": 0.0, "lon": -76.9820495, "name": "c3eb8597837c9a8d4aecafa53511459a"}, {"bike_id": "3fec07aa19bad29407037742e982b055", "type": "electric_scooter", "is_disabled": 0, "lat": 38.9325865, "rental_uris": {"ios": "https://dc.lft.to/lastmile_qr_scan", "android": "https://dc.lft.to/lastmile_qr_scan"}, "is_reserved": 0, "fusion_lon": 0.0, "fusion_lat": 0.0, "lon": -77.032633, "name": "3fec07aa19bad29407037742e982b055"}, {"bike_id": "8710f3f60f4f505bc472d1f0de6de69a", "type": "electric_scooter", "is_disabled": 0, "lat": 38.93273716666667, "rental_uris": {"ios": "https://dc.lft.to/lastmile_qr_scan", "android": "https://dc.lft.to/lastmile_qr_scan"}, "is_reserved": 0, "fusion_lon": 0.0, "fusion_lat": 0.0, "lon": -77.04538183333334, "name": "8710f3f60f4f505bc472d1f0de6de69a"}, {"bike_id": "341c883455c0c2a49e6b617001beddb1", "type": "electric_scooter", "is_disabled": 0, "lat": 38.919845333333335, "rental_uris": {"ios": "https://dc.lft.to/lastmile_qr_scan", "android": "https://dc.lft.to/lastmile_qr_scan"}, "is_reserved": 0, "fusion_lon": 0.0, "fusion_lat": 0.0, "lon": -77.03224166666666, "name": "341c883455c0c2a49e6b617001beddb1"}, {"bike_id": "b8d7a0316fc578e728869ff188dab946", "type": "electric_scooter", "is_disabled": 0, "lat": 38.900870166666664, "rental_uris": {"ios": "https://dc.lft.to/lastmile_qr_scan", "android": "https://dc.lft.to/lastmile_qr_scan"}, "is_reserved": 0, "fusion_lon": 0.0, "fusion_lat": 0.0, "lon": -77.00915916666666, "name": "b8d7a0316fc578e728869ff188dab946"}, {"bike_id": "d3ae737f86b5bf40d7c6f0107eea0c8d", "type": "electric_scooter", "is_disabled": 0, "lat": 38.911167666666664, "rental_uris": {"ios": "https://dc.lft.to/lastmile_qr_scan", "android": "https://dc.lft.to/lastmile_qr_scan"}, "is_reserved": 0, "fusion_lon": 0.0, "fusion_lat": 0.0, "lon": -77.04464516666667, "name": "d3ae737f86b5bf40d7c6f0107eea0c8d"}, {"bike_id": "50fe30c031ef8b206f9fc5cd3ef2eeea", "type": "electric_scooter", "is_disabled": 0, "lat": 38.91396816666666, "rental_uris": {"ios": "https://dc.lft.to/lastmile_qr_scan", "android": "https://dc.lft.to/lastmile_qr_scan"}, "is_reserved": 0, "fusion_lon": 0.0, "fusion_lat": 0.0, "lon": -77.03182133333334, "name": "50fe30c031ef8b206f9fc5cd3ef2eeea"}, {"bike_id": "fc891eb393dff3419af7ee0054eb9f97", "type": "electric_scooter", "is_disabled": 0, "lat": 38.916304833333335, "rental_uris": {"ios": "https://dc.lft.to/lastmile_qr_scan", "android": "https://dc.lft.to/lastmile_qr_scan"}, "is_reserved": 0, "fusion_lon": 0.0, "fusion_lat": 0.0, "lon": -77.02550466666666, "name": "fc891eb393dff3419af7ee0054eb9f97"}, {"bike_id": "18bdf55b5ccaf6698bee822beec482d4", "type": "electric_scooter", "is_disabled": 0, "lat": 38.89177816666667, "rental_uris": {"ios": "https://dc.lft.to/lastmile_qr_scan", "android": "https://dc.lft.to/lastmile_qr_scan"}, "is_reserved": 0, "fusion_lon": 0.0, "fusion_lat": 0.0, "lon": -77.0220775, "name": "18bdf55b5ccaf6698bee822beec482d4"}, {"bike_id": "078e96a337df22c7aae5af1e9fe8bffe", "type": "electric_scooter", "is_disabled": 0, "lat": 38.91012683333334, "rental_uris": {"ios": "https://dc.lft.to/lastmile_qr_scan", "android": "https://dc.lft.to/lastmile_qr_scan"}, "is_reserved": 0, "fusion_lon": 0.0, "fusion_lat": 0.0, "lon": -77.03657866666667, "name": "078e96a337df22c7aae5af1e9fe8bffe"}, {"bike_id": "613fa34d7314822c3ae10c140f00ce02", "type": "electric_scooter", "is_disabled": 0, "lat": 38.9308065, "rental_uris": {"ios": "https://dc.lft.to/lastmile_qr_scan", "android": "https://dc.lft.to/lastmile_qr_scan"}, "is_reserved": 0, "fusion_lon": 0.0, "fusion_lat": 0.0, "lon": -77.025632, "name": "613fa34d7314822c3ae10c140f00ce02"}, {"bike_id": "b0e4a804c2bcb02b4574423ebe7adbcb", "type": "electric_scooter", "is_disabled": 0, "lat": 38.897176, "rental_uris": {"ios": "https://dc.lft.to/lastmile_qr_scan", "android": "https://dc.lft.to/lastmile_qr_scan"}, "is_reserved": 0, "fusion_lon": 0.0, "fusion_lat": 0.0, "lon": -77.03332583333334, "name": "b0e4a804c2bcb02b4574423ebe7adbcb"}, {"bike_id": "9536145fc6371d88fcb2f96dd4c00e90", "type": "electric_scooter", "is_disabled": 0, "lat": 38.941994, "rental_uris": {"ios": "https://dc.lft.to/lastmile_qr_scan", "android": "https://dc.lft.to/lastmile_qr_scan"}, "is_reserved": 0, "fusion_lon": 0.0, "fusion_lat": 0.0, "lon": -77.02512316666666, "name": "9536145fc6371d88fcb2f96dd4c00e90"}, {"bike_id": "9a0802807d852e08422e4ebf31e3e02b", "type": "electric_scooter", "is_disabled": 0, "lat": 38.9066455, "rental_uris": {"ios": "https://dc.lft.to/lastmile_qr_scan", "android": "https://dc.lft.to/lastmile_qr_scan"}, "is_reserved": 0, "fusion_lon": 0.0, "fusion_lat": 0.0, "lon": -77.02710766666667, "name": "9a0802807d852e08422e4ebf31e3e02b"}, {"bike_id": "070f262e364a4ce72c5b76fbe93b030a", "type": "electric_scooter", "is_disabled": 0, "lat": 38.91838383333333, "rental_uris": {"ios": "https://dc.lft.to/lastmile_qr_scan", "android": "https://dc.lft.to/lastmile_qr_scan"}, "is_reserved": 0, "fusion_lon": 0.0, "fusion_lat": 0.0, "lon": -77.048348, "name": "070f262e364a4ce72c5b76fbe93b030a"}, {"bike_id": "4f7fc6bbaeec4fa906d41b2d0e5f271f", "type": "electric_scooter", "is_disabled": 0, "lat": 38.934961666666666, "rental_uris": {"ios": "https://dc.lft.to/lastmile_qr_scan", "android": "https://dc.lft.to/lastmile_qr_scan"}, "is_reserved": 0, "fusion_lon": 0.0, "fusion_lat": 0.0, "lon": -77.07396916666667, "name": "4f7fc6bbaeec4fa906d41b2d0e5f271f"}, {"bike_id": "4f4249900aa21febfd9d1098b93878b4", "type": "electric_scooter", "is_disabled": 0, "lat": 38.93108433333333, "rental_uris": {"ios": "https://dc.lft.to/lastmile_qr_scan", "android": "https://dc.lft.to/lastmile_qr_scan"}, "is_reserved": 0, "fusion_lon": 0.0, "fusion_lat": 0.0, "lon": -77.02341583333333, "name": "4f4249900aa21febfd9d1098b93878b4"}, {"bike_id": "7eeb9974580797c016a830d0548ded3b", "type": "electric_scooter", "is_disabled": 0, "lat": 38.877894833333336, "rental_uris": {"ios": "https://dc.lft.to/lastmile_qr_scan", "android": "https://dc.lft.to/lastmile_qr_scan"}, "is_reserved": 0, "fusion_lon": 0.0, "fusion_lat": 0.0, "lon": -76.93085933333333, "name": "7eeb9974580797c016a830d0548ded3b"}, {"bike_id": "d8a1dcc3e07bc8233a73298994f814df", "type": "electric_scooter", "is_disabled": 0, "lat": 38.9193475, "rental_uris": {"ios": "https://dc.lft.to/lastmile_qr_scan", "android": "https://dc.lft.to/lastmile_qr_scan"}, "is_reserved": 0, "fusion_lon": 0.0, "fusion_lat": 0.0, "lon": -77.04562, "name": "d8a1dcc3e07bc8233a73298994f814df"}, {"bike_id": "8b1f4455c9d50536290ce4cde1de1a6f", "type": "electric_scooter", "is_disabled": 0, "lat": 38.905565, "rental_uris": {"ios": "https://dc.lft.to/lastmile_qr_scan", "android": "https://dc.lft.to/lastmile_qr_scan"}, "is_reserved": 0, "fusion_lon": 0.0, "fusion_lat": 0.0, "lon": -77.042204, "name": "8b1f4455c9d50536290ce4cde1de1a6f"}, {"bike_id": "edca4c7309ec9cc2b980d83b0e67cfeb", "type": "electric_scooter", "is_disabled": 0, "lat": 38.925307, "rental_uris": {"ios": "https://dc.lft.to/lastmile_qr_scan", "android": "https://dc.lft.to/lastmile_qr_scan"}, "is_reserved": 0, "fusion_lon": 0.0, "fusion_lat": 0.0, "lon": -77.02269133333333, "name": "edca4c7309ec9cc2b980d83b0e67cfeb"}, {"bike_id": "5b3bf55c90ed7d50ad8acc639c72d4ab", "type": "electric_scooter", "is_disabled": 0, "lat": 38.914648166666666, "rental_uris": {"ios": "https://dc.lft.to/lastmile_qr_scan", "android": "https://dc.lft.to/lastmile_qr_scan"}, "is_reserved": 0, "fusion_lon": 0.0, "fusion_lat": 0.0, "lon": -77.03884016666666, "name": "5b3bf55c90ed7d50ad8acc639c72d4ab"}, {"bike_id": "941452e75776ae26d626924d08e91952", "type": "electric_scooter", "is_disabled": 0, "lat": 38.9001295, "rental_uris": {"ios": "https://dc.lft.to/lastmile_qr_scan", "android": "https://dc.lft.to/lastmile_qr_scan"}, "is_reserved": 0, "fusion_lon": 0.0, "fusion_lat": 0.0, "lon": -77.03177533333333, "name": "941452e75776ae26d626924d08e91952"}, {"bike_id": "ea1b1dc315404f46eb7631cfeb54ec8d", "type": "electric_scooter", "is_disabled": 0, "lat": 38.9444625, "rental_uris": {"ios": "https://dc.lft.to/lastmile_qr_scan", "android": "https://dc.lft.to/lastmile_qr_scan"}, "is_reserved": 0, "fusion_lon": 0.0, "fusion_lat": 0.0, "lon": -77.0635485, "name": "ea1b1dc315404f46eb7631cfeb54ec8d"}, {"bike_id": "8375cf83eb0a9534cafd6ca69188efb2", "type": "electric_scooter", "is_disabled": 0, "lat": 38.903012833333335, "rental_uris": {"ios": "https://dc.lft.to/lastmile_qr_scan", "android": "https://dc.lft.to/lastmile_qr_scan"}, "is_reserved": 0, "fusion_lon": 0.0, "fusion_lat": 0.0, "lon": -77.02125133333334, "name": "8375cf83eb0a9534cafd6ca69188efb2"}, {"bike_id": "5687c732e7f090a66951212515be5800", "type": "electric_scooter", "is_disabled": 0, "lat": 38.92123866666667, "rental_uris": {"ios": "https://dc.lft.to/lastmile_qr_scan", "android": "https://dc.lft.to/lastmile_qr_scan"}, "is_reserved": 0, "fusion_lon": 0.0, "fusion_lat": 0.0, "lon": -76.99249233333333, "name": "5687c732e7f090a66951212515be5800"}, {"bike_id": "dbed189cb070391552fd55228d146eba", "type": "electric_scooter", "is_disabled": 0, "lat": 38.91188733333333, "rental_uris": {"ios": "https://dc.lft.to/lastmile_qr_scan", "android": "https://dc.lft.to/lastmile_qr_scan"}, "is_reserved": 0, "fusion_lon": 0.0, "fusion_lat": 0.0, "lon": -77.045232, "name": "dbed189cb070391552fd55228d146eba"}, {"bike_id": "c8d330aa3b0ed448eccc25489374fa9f", "type": "electric_scooter", "is_disabled": 0, "lat": 38.924425166666666, "rental_uris": {"ios": "https://dc.lft.to/lastmile_qr_scan", "android": "https://dc.lft.to/lastmile_qr_scan"}, "is_reserved": 0, "fusion_lon": 0.0, "fusion_lat": 0.0, "lon": -77.0411685, "name": "c8d330aa3b0ed448eccc25489374fa9f"}, {"bike_id": "c6b751e56479bfc6b8cd8ab0b14563a9", "type": "electric_scooter", "is_disabled": 0, "lat": 38.918087666666665, "rental_uris": {"ios": "https://dc.lft.to/lastmile_qr_scan", "android": "https://dc.lft.to/lastmile_qr_scan"}, "is_reserved": 0, "fusion_lon": 0.0, "fusion_lat": 0.0, "lon": -77.045605, "name": "c6b751e56479bfc6b8cd8ab0b14563a9"}, {"bike_id": "0c4797371f01f4359aca335bd15ec9aa", "type": "electric_scooter", "is_disabled": 0, "lat": 38.8946945, "rental_uris": {"ios": "https://dc.lft.to/lastmile_qr_scan", "android": "https://dc.lft.to/lastmile_qr_scan"}, "is_reserved": 0, "fusion_lon": 0.0, "fusion_lat": 0.0, "lon": -77.02819533333333, "name": "0c4797371f01f4359aca335bd15ec9aa"}, {"bike_id": "4daae79e1e4db8725152a96a42d055b2", "type": "electric_scooter", "is_disabled": 0, "lat": 38.89606716666667, "rental_uris": {"ios": "https://dc.lft.to/lastmile_qr_scan", "android": "https://dc.lft.to/lastmile_qr_scan"}, "is_reserved": 0, "fusion_lon": 0.0, "fusion_lat": 0.0, "lon": -77.03125616666667, "name": "4daae79e1e4db8725152a96a42d055b2"}, {"bike_id": "171122b1774acd3d7eace9ad6f8e7efa", "type": "electric_scooter", "is_disabled": 0, "lat": 38.91515166666667, "rental_uris": {"ios": "https://dc.lft.to/lastmile_qr_scan", "android": "https://dc.lft.to/lastmile_qr_scan"}, "is_reserved": 0, "fusion_lon": 0.0, "fusion_lat": 0.0, "lon": -77.0320145, "name": "171122b1774acd3d7eace9ad6f8e7efa"}, {"bike_id": "e3ad5389fcca1cea2d790ad04ac4a408", "type": "electric_scooter", "is_disabled": 0, "lat": 38.8320615, "rental_uris": {"ios": "https://dc.lft.to/lastmile_qr_scan", "android": "https://dc.lft.to/lastmile_qr_scan"}, "is_reserved": 0, "fusion_lon": 0.0, "fusion_lat": 0.0, "lon": -77.00795883333333, "name": "e3ad5389fcca1cea2d790ad04ac4a408"}, {"bike_id": "3c146bc908b0b6ead02aa75a8a7402be", "type": "electric_scooter", "is_disabled": 0, "lat": 38.9363495, "rental_uris": {"ios": "https://dc.lft.to/lastmile_qr_scan", "android": "https://dc.lft.to/lastmile_qr_scan"}, "is_reserved": 0, "fusion_lon": 0.0, "fusion_lat": 0.0, "lon": -77.03262383333333, "name": "3c146bc908b0b6ead02aa75a8a7402be"}, {"bike_id": "2cd191febc35fa3622b1ec37845dc924", "type": "electric_scooter", "is_disabled": 0, "lat": 38.87633616666667, "rental_uris": {"ios": "https://dc.lft.to/lastmile_qr_scan", "android": "https://dc.lft.to/lastmile_qr_scan"}, "is_reserved": 0, "fusion_lon": 0.0, "fusion_lat": 0.0, "lon": -77.00447683333333, "name": "2cd191febc35fa3622b1ec37845dc924"}, {"bike_id": "cec1489d1b2b649d392b4585275bcad6", "type": "electric_scooter", "is_disabled": 0, "lat": 38.886230833333336, "rental_uris": {"ios": "https://dc.lft.to/lastmile_qr_scan", "android": "https://dc.lft.to/lastmile_qr_scan"}, "is_reserved": 0, "fusion_lon": 0.0, "fusion_lat": 0.0, "lon": -76.9961135, "name": "cec1489d1b2b649d392b4585275bcad6"}, {"bike_id": "f0b4372489a4d0105975c846c407f6e7", "type": "electric_bike", "is_disabled": 0, "lat": 38.9168635, "rental_uris": {"ios": "https://dc.lft.to/lastmile_qr_scan", "android": "https://dc.lft.to/lastmile_qr_scan"}, "is_reserved": 0, "fusion_lon": 0.0, "fusion_lat": 0.0, "lon": -77.04293166666666, "name": "f0b4372489a4d0105975c846c407f6e7"}, {"bike_id": "c1fda8b73294ccfcb6153cff53f766bc", "type": "electric_scooter", "is_disabled": 0, "lat": 38.89758633333334, "rental_uris": {"ios": "https://dc.lft.to/lastmile_qr_scan", "android": "https://dc.lft.to/lastmile_qr_scan"}, "is_reserved": 0, "fusion_lon": 0.0, "fusion_lat": 0.0, "lon": -76.92574266666666, "name": "c1fda8b73294ccfcb6153cff53f766bc"}, {"bike_id": "6fc908136f84462a9980a52826dfdf21", "type": "electric_scooter", "is_disabled": 0, "lat": 38.8605475, "rental_uris": {"ios": "https://dc.lft.to/lastmile_qr_scan", "android": "https://dc.lft.to/lastmile_qr_scan"}, "is_reserved": 0, "fusion_lon": 0.0, "fusion_lat": 0.0, "lon": -76.9842235, "name": "6fc908136f84462a9980a52826dfdf21"}, {"bike_id": "568844410c6f63bd0f6713dc6476bdba", "type": "electric_scooter", "is_disabled": 0, "lat": 38.90553233333333, "rental_uris": {"ios": "https://dc.lft.to/lastmile_qr_scan", "android": "https://dc.lft.to/lastmile_qr_scan"}, "is_reserved": 0, "fusion_lon": 0.0, "fusion_lat": 0.0, "lon": -77.00583616666667, "name": "568844410c6f63bd0f6713dc6476bdba"}, {"bike_id": "75553621baa78d96787659c52af50d90", "type": "electric_scooter", "is_disabled": 0, "lat": 38.9053505, "rental_uris": {"ios": "https://dc.lft.to/lastmile_qr_scan", "android": "https://dc.lft.to/lastmile_qr_scan"}, "is_reserved": 0, "fusion_lon": 0.0, "fusion_lat": 0.0, "lon": -76.98104116666667, "name": "75553621baa78d96787659c52af50d90"}, {"bike_id": "db82023bbd6d9c953856a4cee37c20e7", "type": "electric_bike", "is_disabled": 0, "lat": 38.988065, "rental_uris": {"ios": "https://dc.lft.to/lastmile_qr_scan", "android": "https://dc.lft.to/lastmile_qr_scan"}, "is_reserved": 0, "fusion_lon": 0.0, "fusion_lat": 0.0, "lon": -77.02599766666667, "name": "db82023bbd6d9c953856a4cee37c20e7"}, {"bike_id": "216a28d51475b9f72729b830aba5f8e9", "type": "electric_scooter", "is_disabled": 0, "lat": 38.887036, "rental_uris": {"ios": "https://dc.lft.to/lastmile_qr_scan", "android": "https://dc.lft.to/lastmile_qr_scan"}, "is_reserved": 0, "fusion_lon": 0.0, "fusion_lat": 0.0, "lon": -77.022107, "name": "216a28d51475b9f72729b830aba5f8e9"}, {"bike_id": "73dd373c976cd027b90597858ed73659", "type": "electric_scooter", "is_disabled": 0, "lat": 38.90422733333333, "rental_uris": {"ios": "https://dc.lft.to/lastmile_qr_scan", "android": "https://dc.lft.to/lastmile_qr_scan"}, "is_reserved": 0, "fusion_lon": 0.0, "fusion_lat": 0.0, "lon": -77.0346455, "name": "73dd373c976cd027b90597858ed73659"}, {"bike_id": "eb095fb41fcf0d77409347d353f02808", "type": "electric_scooter", "is_disabled": 0, "lat": 38.9010835, "rental_uris": {"ios": "https://dc.lft.to/lastmile_qr_scan", "android": "https://dc.lft.to/lastmile_qr_scan"}, "is_reserved": 0, "fusion_lon": 0.0, "fusion_lat": 0.0, "lon": -77.01827066666667, "name": "eb095fb41fcf0d77409347d353f02808"}, {"bike_id": "2361c1fb873696146b4cf036cd6683de", "type": "electric_scooter", "is_disabled": 0, "lat": 38.8623925, "rental_uris": {"ios": "https://dc.lft.to/lastmile_qr_scan", "android": "https://dc.lft.to/lastmile_qr_scan"}, "is_reserved": 0, "fusion_lon": 0.0, "fusion_lat": 0.0, "lon": -76.994929, "name": "2361c1fb873696146b4cf036cd6683de"}, {"bike_id": "3c320a94bffeefe41fe352c2291d246a", "type": "electric_scooter", "is_disabled": 0, "lat": 38.89249816666667, "rental_uris": {"ios": "https://dc.lft.to/lastmile_qr_scan", "android": "https://dc.lft.to/lastmile_qr_scan"}, "is_reserved": 0, "fusion_lon": 0.0, "fusion_lat": 0.0, "lon": -77.00339483333333, "name": "3c320a94bffeefe41fe352c2291d246a"}, {"bike_id": "462cf110ba0b419d851b9e58961c654a", "type": "electric_scooter", "is_disabled": 0, "lat": 38.917016, "rental_uris": {"ios": "https://dc.lft.to/lastmile_qr_scan", "android": "https://dc.lft.to/lastmile_qr_scan"}, "is_reserved": 0, "fusion_lon": 0.0, "fusion_lat": 0.0, "lon": -77.0237805, "name": "462cf110ba0b419d851b9e58961c654a"}, {"bike_id": "cba34d48ddc356286028ec5480a224cc", "type": "electric_scooter", "is_disabled": 0, "lat": 38.9169845, "rental_uris": {"ios": "https://dc.lft.to/lastmile_qr_scan", "android": "https://dc.lft.to/lastmile_qr_scan"}, "is_reserved": 0, "fusion_lon": 0.0, "fusion_lat": 0.0, "lon": -77.0246035, "name": "cba34d48ddc356286028ec5480a224cc"}, {"bike_id": "fb9baf5d95719d6aae520d635ebb639a", "type": "electric_scooter", "is_disabled": 0, "lat": 38.908518666666666, "rental_uris": {"ios": "https://dc.lft.to/lastmile_qr_scan", "android": "https://dc.lft.to/lastmile_qr_scan"}, "is_reserved": 0, "fusion_lon": 0.0, "fusion_lat": 0.0, "lon": -76.99968416666667, "name": "fb9baf5d95719d6aae520d635ebb639a"}, {"bike_id": "d755086182a6bc98bf596a1b295986d5", "type": "electric_scooter", "is_disabled": 0, "lat": 38.9451915, "rental_uris": {"ios": "https://dc.lft.to/lastmile_qr_scan", "android": "https://dc.lft.to/lastmile_qr_scan"}, "is_reserved": 0, "fusion_lon": 0.0, "fusion_lat": 0.0, "lon": -77.020868, "name": "d755086182a6bc98bf596a1b295986d5"}, {"bike_id": "6d4b6cd31904707e3780e5e7b1f98d3b", "type": "electric_scooter", "is_disabled": 0, "lat": 38.912595333333336, "rental_uris": {"ios": "https://dc.lft.to/lastmile_qr_scan", "android": "https://dc.lft.to/lastmile_qr_scan"}, "is_reserved": 0, "fusion_lon": 0.0, "fusion_lat": 0.0, "lon": -77.03138616666666, "name": "6d4b6cd31904707e3780e5e7b1f98d3b"}, {"bike_id": "97ede9f87bfa40bbc2d9f633abeb95dd", "type": "electric_scooter", "is_disabled": 0, "lat": 38.918199, "rental_uris": {"ios": "https://dc.lft.to/lastmile_qr_scan", "android": "https://dc.lft.to/lastmile_qr_scan"}, "is_reserved": 0, "fusion_lon": 0.0, "fusion_lat": 0.0, "lon": -77.049435, "name": "97ede9f87bfa40bbc2d9f633abeb95dd"}, {"bike_id": "7b7437e80519c30b48b4adf6b4469e73", "type": "electric_scooter", "is_disabled": 0, "lat": 38.916935333333335, "rental_uris": {"ios": "https://dc.lft.to/lastmile_qr_scan", "android": "https://dc.lft.to/lastmile_qr_scan"}, "is_reserved": 0, "fusion_lon": 0.0, "fusion_lat": 0.0, "lon": -77.00493333333333, "name": "7b7437e80519c30b48b4adf6b4469e73"}, {"bike_id": "f9a8708907385a909f7368fbe633f25d", "type": "electric_scooter", "is_disabled": 0, "lat": 38.91669433333333, "rental_uris": {"ios": "https://dc.lft.to/lastmile_qr_scan", "android": "https://dc.lft.to/lastmile_qr_scan"}, "is_reserved": 0, "fusion_lon": 0.0, "fusion_lat": 0.0, "lon": -77.02715366666666, "name": "f9a8708907385a909f7368fbe633f25d"}, {"bike_id": "5b185077b0962fb406b9ef0a3a178742", "type": "electric_scooter", "is_disabled": 0, "lat": 38.87614216666667, "rental_uris": {"ios": "https://dc.lft.to/lastmile_qr_scan", "android": "https://dc.lft.to/lastmile_qr_scan"}, "is_reserved": 0, "fusion_lon": 0.0, "fusion_lat": 0.0, "lon": -77.01589816666667, "name": "5b185077b0962fb406b9ef0a3a178742"}, {"bike_id": "2449c8f06820198296c7b2afff31129b", "type": "electric_scooter", "is_disabled": 0, "lat": 38.862389, "rental_uris": {"ios": "https://dc.lft.to/lastmile_qr_scan", "android": "https://dc.lft.to/lastmile_qr_scan"}, "is_reserved": 0, "fusion_lon": 0.0, "fusion_lat": 0.0, "lon": -76.99488883333333, "name": "2449c8f06820198296c7b2afff31129b"}, {"bike_id": "7f8922d830b2ed3a17022c73d5b69185", "type": "electric_bike", "is_disabled": 0, "lat": 38.897403, "rental_uris": {"ios": "https://dc.lft.to/lastmile_qr_scan", "android": "https://dc.lft.to/lastmile_qr_scan"}, "is_reserved": 0, "fusion_lon": 0.0, "fusion_lat": 0.0, "lon": -76.9204535, "name": "7f8922d830b2ed3a17022c73d5b69185"}, {"bike_id": "a5ec0f9c81e5b49b1cc93a8a42dadd70", "type": "electric_scooter", "is_disabled": 0, "lat": 38.917509, "rental_uris": {"ios": "https://dc.lft.to/lastmile_qr_scan", "android": "https://dc.lft.to/lastmile_qr_scan"}, "is_reserved": 0, "fusion_lon": 0.0, "fusion_lat": 0.0, "lon": -77.0415785, "name": "a5ec0f9c81e5b49b1cc93a8a42dadd70"}, {"bike_id": "bf93b07b5ebebb72795832c7d380816a", "type": "electric_scooter", "is_disabled": 0, "lat": 38.892148666666664, "rental_uris": {"ios": "https://dc.lft.to/lastmile_qr_scan", "android": "https://dc.lft.to/lastmile_qr_scan"}, "is_reserved": 0, "fusion_lon": 0.0, "fusion_lat": 0.0, "lon": -77.02578783333334, "name": "bf93b07b5ebebb72795832c7d380816a"}, {"bike_id": "8492b58d22444753a56704e0c859bc4c", "type": "electric_scooter", "is_disabled": 0, "lat": 38.922132166666664, "rental_uris": {"ios": "https://dc.lft.to/lastmile_qr_scan", "android": "https://dc.lft.to/lastmile_qr_scan"}, "is_reserved": 0, "fusion_lon": 0.0, "fusion_lat": 0.0, "lon": -77.03294266666667, "name": "8492b58d22444753a56704e0c859bc4c"}, {"bike_id": "f16187c6b786bea5bb053b98bf9e43f3", "type": "electric_scooter", "is_disabled": 0, "lat": 38.905858, "rental_uris": {"ios": "https://dc.lft.to/lastmile_qr_scan", "android": "https://dc.lft.to/lastmile_qr_scan"}, "is_reserved": 0, "fusion_lon": 0.0, "fusion_lat": 0.0, "lon": -77.06717316666666, "name": "f16187c6b786bea5bb053b98bf9e43f3"}, {"bike_id": "9f8c1f66688dbd787ac050fbfe5edbba", "type": "electric_scooter", "is_disabled": 0, "lat": 38.91430783333333, "rental_uris": {"ios": "https://dc.lft.to/lastmile_qr_scan", "android": "https://dc.lft.to/lastmile_qr_scan"}, "is_reserved": 0, "fusion_lon": 0.0, "fusion_lat": 0.0, "lon": -77.01221933333333, "name": "9f8c1f66688dbd787ac050fbfe5edbba"}, {"bike_id": "52646af751f36afcc857511bb9eef94c", "type": "electric_scooter", "is_disabled": 0, "lat": 38.9190625, "rental_uris": {"ios": "https://dc.lft.to/lastmile_qr_scan", "android": "https://dc.lft.to/lastmile_qr_scan"}, "is_reserved": 0, "fusion_lon": 0.0, "fusion_lat": 0.0, "lon": -77.01537033333334, "name": "52646af751f36afcc857511bb9eef94c"}, {"bike_id": "44328aa52039105b6b79746d74f29f44", "type": "electric_bike", "is_disabled": 0, "lat": 38.96306716666667, "rental_uris": {"ios": "https://dc.lft.to/lastmile_qr_scan", "android": "https://dc.lft.to/lastmile_qr_scan"}, "is_reserved": 0, "fusion_lon": 0.0, "fusion_lat": 0.0, "lon": -77.011117, "name": "44328aa52039105b6b79746d74f29f44"}, {"bike_id": "2cde7bca45bd1c94484bb45d9f352fb7", "type": "electric_scooter", "is_disabled": 0, "lat": 38.905023166666666, "rental_uris": {"ios": "https://dc.lft.to/lastmile_qr_scan", "android": "https://dc.lft.to/lastmile_qr_scan"}, "is_reserved": 0, "fusion_lon": 0.0, "fusion_lat": 0.0, "lon": -77.06009066666667, "name": "2cde7bca45bd1c94484bb45d9f352fb7"}, {"bike_id": "cd45c920222f91efc53e7418a9f8c066", "type": "electric_scooter", "is_disabled": 0, "lat": 38.90525266666667, "rental_uris": {"ios": "https://dc.lft.to/lastmile_qr_scan", "android": "https://dc.lft.to/lastmile_qr_scan"}, "is_reserved": 0, "fusion_lon": 0.0, "fusion_lat": 0.0, "lon": -77.06135333333333, "name": "cd45c920222f91efc53e7418a9f8c066"}, {"bike_id": "b6e44173a78b86febd0c858322f082e2", "type": "electric_scooter", "is_disabled": 0, "lat": 38.9134435, "rental_uris": {"ios": "https://dc.lft.to/lastmile_qr_scan", "android": "https://dc.lft.to/lastmile_qr_scan"}, "is_reserved": 0, "fusion_lon": 0.0, "fusion_lat": 0.0, "lon": -77.03206333333333, "name": "b6e44173a78b86febd0c858322f082e2"}, {"bike_id": "c02c2e54f5a96bd1d57fb4d486d7dac8", "type": "electric_scooter", "is_disabled": 0, "lat": 38.9233375, "rental_uris": {"ios": "https://dc.lft.to/lastmile_qr_scan", "android": "https://dc.lft.to/lastmile_qr_scan"}, "is_reserved": 0, "fusion_lon": 0.0, "fusion_lat": 0.0, "lon": -77.04176316666667, "name": "c02c2e54f5a96bd1d57fb4d486d7dac8"}, {"bike_id": "6f8aafe2aaf127a5c30f728fd039a3ae", "type": "electric_bike", "is_disabled": 0, "lat": 38.9632055, "rental_uris": {"ios": "https://dc.lft.to/lastmile_qr_scan", "android": "https://dc.lft.to/lastmile_qr_scan"}, "is_reserved": 0, "fusion_lon": 0.0, "fusion_lat": 0.0, "lon": -76.97355400000001, "name": "6f8aafe2aaf127a5c30f728fd039a3ae"}, {"bike_id": "6f35497048e5045716938122ab6f8625", "type": "electric_scooter", "is_disabled": 0, "lat": 38.892189333333334, "rental_uris": {"ios": "https://dc.lft.to/lastmile_qr_scan", "android": "https://dc.lft.to/lastmile_qr_scan"}, "is_reserved": 0, "fusion_lon": 0.0, "fusion_lat": 0.0, "lon": -77.02756116666667, "name": "6f35497048e5045716938122ab6f8625"}, {"bike_id": "2f5c4fec4032c54b27ae778c72b4f0c7", "type": "electric_bike", "is_disabled": 0, "lat": 38.9538785, "rental_uris": {"ios": "https://dc.lft.to/lastmile_qr_scan", "android": "https://dc.lft.to/lastmile_qr_scan"}, "is_reserved": 0, "fusion_lon": 0.0, "fusion_lat": 0.0, "lon": -76.979296, "name": "2f5c4fec4032c54b27ae778c72b4f0c7"}, {"bike_id": "061fe9e1a1b169dd4876e1635d184dc7", "type": "electric_scooter", "is_disabled": 0, "lat": 38.91810483333333, "rental_uris": {"ios": "https://dc.lft.to/lastmile_qr_scan", "android": "https://dc.lft.to/lastmile_qr_scan"}, "is_reserved": 0, "fusion_lon": 0.0, "fusion_lat": 0.0, "lon": -77.08961033333334, "name": "061fe9e1a1b169dd4876e1635d184dc7"}, {"bike_id": "19de450cc03e6fb9a3cf813895ed7b45", "type": "electric_bike", "is_disabled": 0, "lat": 38.85522783333333, "rental_uris": {"ios": "https://dc.lft.to/lastmile_qr_scan", "android": "https://dc.lft.to/lastmile_qr_scan"}, "is_reserved": 0, "fusion_lon": 0.0, "fusion_lat": 0.0, "lon": -77.10754116666666, "name": "19de450cc03e6fb9a3cf813895ed7b45"}, {"bike_id": "aeb99338ffcd6238c3960e8e28490e59", "type": "electric_scooter", "is_disabled": 0, "lat": 38.944139166666666, "rental_uris": {"ios": "https://dc.lft.to/lastmile_qr_scan", "android": "https://dc.lft.to/lastmile_qr_scan"}, "is_reserved": 0, "fusion_lon": 0.0, "fusion_lat": 0.0, "lon": -77.0632, "name": "aeb99338ffcd6238c3960e8e28490e59"}, {"bike_id": "c284be6bb2edf4e1589325918d4a62a9", "type": "electric_scooter", "is_disabled": 0, "lat": 38.930702333333336, "rental_uris": {"ios": "https://dc.lft.to/lastmile_qr_scan", "android": "https://dc.lft.to/lastmile_qr_scan"}, "is_reserved": 0, "fusion_lon": 0.0, "fusion_lat": 0.0, "lon": -77.021878, "name": "c284be6bb2edf4e1589325918d4a62a9"}, {"bike_id": "fbe97f54c200fdfdabdc0298c81755d4", "type": "electric_bike", "is_disabled": 0, "lat": 38.88275483333334, "rental_uris": {"ios": "https://dc.lft.to/lastmile_qr_scan", "android": "https://dc.lft.to/lastmile_qr_scan"}, "is_reserved": 0, "fusion_lon": 0.0, "fusion_lat": 0.0, "lon": -76.99486533333334, "name": "fbe97f54c200fdfdabdc0298c81755d4"}, {"bike_id": "fb2b871edae633ce5b10362b88f16cde", "type": "electric_scooter", "is_disabled": 0, "lat": 38.90049633333334, "rental_uris": {"ios": "https://dc.lft.to/lastmile_qr_scan", "android": "https://dc.lft.to/lastmile_qr_scan"}, "is_reserved": 0, "fusion_lon": 0.0, "fusion_lat": 0.0, "lon": -77.012986, "name": "fb2b871edae633ce5b10362b88f16cde"}, {"bike_id": "f82f26717a2cde47283f59d4dbed1bcf", "type": "electric_scooter", "is_disabled": 0, "lat": 38.869687, "rental_uris": {"ios": "https://dc.lft.to/lastmile_qr_scan", "android": "https://dc.lft.to/lastmile_qr_scan"}, "is_reserved": 0, "fusion_lon": 0.0, "fusion_lat": 0.0, "lon": -76.9817235, "name": "f82f26717a2cde47283f59d4dbed1bcf"}, {"bike_id": "9d3d9466222cc35ef377787380caa55c", "type": "electric_scooter", "is_disabled": 0, "lat": 38.9038885, "rental_uris": {"ios": "https://dc.lft.to/lastmile_qr_scan", "android": "https://dc.lft.to/lastmile_qr_scan"}, "is_reserved": 0, "fusion_lon": 0.0, "fusion_lat": 0.0, "lon": -77.04340266666667, "name": "9d3d9466222cc35ef377787380caa55c"}, {"bike_id": "6ce39117a7879ad63d516d2c620ab39c", "type": "electric_scooter", "is_disabled": 0, "lat": 38.905441333333336, "rental_uris": {"ios": "https://dc.lft.to/lastmile_qr_scan", "android": "https://dc.lft.to/lastmile_qr_scan"}, "is_reserved": 0, "fusion_lon": 0.0, "fusion_lat": 0.0, "lon": -77.0411035, "name": "6ce39117a7879ad63d516d2c620ab39c"}, {"bike_id": "7fbc95d80485da2c187525aa1e096efd", "type": "electric_scooter", "is_disabled": 0, "lat": 38.905909, "rental_uris": {"ios": "https://dc.lft.to/lastmile_qr_scan", "android": "https://dc.lft.to/lastmile_qr_scan"}, "is_reserved": 0, "fusion_lon": 0.0, "fusion_lat": 0.0, "lon": -77.06432316666667, "name": "7fbc95d80485da2c187525aa1e096efd"}, {"bike_id": "19d86dddaf67fd3aff404d7ede43fc73", "type": "electric_scooter", "is_disabled": 0, "lat": 38.9051155, "rental_uris": {"ios": "https://dc.lft.to/lastmile_qr_scan", "android": "https://dc.lft.to/lastmile_qr_scan"}, "is_reserved": 0, "fusion_lon": 0.0, "fusion_lat": 0.0, "lon": -77.059415, "name": "19d86dddaf67fd3aff404d7ede43fc73"}, {"bike_id": "0970d4dff9cf5b172e2bfa145082257e", "type": "electric_scooter", "is_disabled": 0, "lat": 38.884025666666666, "rental_uris": {"ios": "https://dc.lft.to/lastmile_qr_scan", "android": "https://dc.lft.to/lastmile_qr_scan"}, "is_reserved": 0, "fusion_lon": 0.0, "fusion_lat": 0.0, "lon": -76.95396683333334, "name": "0970d4dff9cf5b172e2bfa145082257e"}, {"bike_id": "b49dbae40ac33a94b69eeebf5841f590", "type": "electric_scooter", "is_disabled": 0, "lat": 38.907476333333335, "rental_uris": {"ios": "https://dc.lft.to/lastmile_qr_scan", "android": "https://dc.lft.to/lastmile_qr_scan"}, "is_reserved": 0, "fusion_lon": 0.0, "fusion_lat": 0.0, "lon": -77.0432935, "name": "b49dbae40ac33a94b69eeebf5841f590"}, {"bike_id": "2841298c4551a628c736704cefcd266a", "type": "electric_scooter", "is_disabled": 0, "lat": 38.94038616666667, "rental_uris": {"ios": "https://dc.lft.to/lastmile_qr_scan", "android": "https://dc.lft.to/lastmile_qr_scan"}, "is_reserved": 0, "fusion_lon": 0.0, "fusion_lat": 0.0, "lon": -77.02905416666667, "name": "2841298c4551a628c736704cefcd266a"}, {"bike_id": "3cf4f92eb3507781eec354074c6182e4", "type": "electric_scooter", "is_disabled": 0, "lat": 38.907900833333336, "rental_uris": {"ios": "https://dc.lft.to/lastmile_qr_scan", "android": "https://dc.lft.to/lastmile_qr_scan"}, "is_reserved": 0, "fusion_lon": 0.0, "fusion_lat": 0.0, "lon": -77.042689, "name": "3cf4f92eb3507781eec354074c6182e4"}, {"bike_id": "498d66d670d96e0b4f6887e48332b0f8", "type": "electric_bike", "is_disabled": 0, "lat": 38.90837883333333, "rental_uris": {"ios": "https://dc.lft.to/lastmile_qr_scan", "android": "https://dc.lft.to/lastmile_qr_scan"}, "is_reserved": 0, "fusion_lon": 0.0, "fusion_lat": 0.0, "lon": -76.93306233333334, "name": "498d66d670d96e0b4f6887e48332b0f8"}, {"bike_id": "52d9e618e3d30838dedaef1ab5ec867e", "type": "electric_scooter", "is_disabled": 0, "lat": 38.909804333333334, "rental_uris": {"ios": "https://dc.lft.to/lastmile_qr_scan", "android": "https://dc.lft.to/lastmile_qr_scan"}, "is_reserved": 0, "fusion_lon": 0.0, "fusion_lat": 0.0, "lon": -77.03192866666667, "name": "52d9e618e3d30838dedaef1ab5ec867e"}, {"bike_id": "325f9b66c87735c796c5f2ff5352f829", "type": "electric_scooter", "is_disabled": 0, "lat": 38.896512333333334, "rental_uris": {"ios": "https://dc.lft.to/lastmile_qr_scan", "android": "https://dc.lft.to/lastmile_qr_scan"}, "is_reserved": 0, "fusion_lon": 0.0, "fusion_lat": 0.0, "lon": -77.02601533333333, "name": "325f9b66c87735c796c5f2ff5352f829"}, {"bike_id": "8aad46e18721bef2e5d121cd76e5ef63", "type": "electric_scooter", "is_disabled": 0, "lat": 38.892667833333334, "rental_uris": {"ios": "https://dc.lft.to/lastmile_qr_scan", "android": "https://dc.lft.to/lastmile_qr_scan"}, "is_reserved": 0, "fusion_lon": 0.0, "fusion_lat": 0.0, "lon": -77.00355516666667, "name": "8aad46e18721bef2e5d121cd76e5ef63"}, {"bike_id": "69b65105c956388a1030468503dcc483", "type": "electric_scooter", "is_disabled": 0, "lat": 38.8708935, "rental_uris": {"ios": "https://dc.lft.to/lastmile_qr_scan", "android": "https://dc.lft.to/lastmile_qr_scan"}, "is_reserved": 0, "fusion_lon": 0.0, "fusion_lat": 0.0, "lon": -77.01206933333333, "name": "69b65105c956388a1030468503dcc483"}, {"bike_id": "7cb699ae42c3612d42020347c43e5cb3", "type": "electric_scooter", "is_disabled": 0, "lat": 38.919819333333336, "rental_uris": {"ios": "https://dc.lft.to/lastmile_qr_scan", "android": "https://dc.lft.to/lastmile_qr_scan"}, "is_reserved": 0, "fusion_lon": 0.0, "fusion_lat": 0.0, "lon": -77.03241633333333, "name": "7cb699ae42c3612d42020347c43e5cb3"}, {"bike_id": "20a146c36f3242d55c14fa273892f391", "type": "electric_scooter", "is_disabled": 0, "lat": 38.91348833333333, "rental_uris": {"ios": "https://dc.lft.to/lastmile_qr_scan", "android": "https://dc.lft.to/lastmile_qr_scan"}, "is_reserved": 0, "fusion_lon": 0.0, "fusion_lat": 0.0, "lon": -77.025679, "name": "20a146c36f3242d55c14fa273892f391"}, {"bike_id": "4a3ff2291ae09cbdf3c9b59b4d73b6f3", "type": "electric_scooter", "is_disabled": 0, "lat": 38.89612833333333, "rental_uris": {"ios": "https://dc.lft.to/lastmile_qr_scan", "android": "https://dc.lft.to/lastmile_qr_scan"}, "is_reserved": 0, "fusion_lon": 0.0, "fusion_lat": 0.0, "lon": -76.9816145, "name": "4a3ff2291ae09cbdf3c9b59b4d73b6f3"}, {"bike_id": "1afc82e35f2d051a5183512f0422c40c", "type": "electric_scooter", "is_disabled": 0, "lat": 38.9241005, "rental_uris": {"ios": "https://dc.lft.to/lastmile_qr_scan", "android": "https://dc.lft.to/lastmile_qr_scan"}, "is_reserved": 0, "fusion_lon": 0.0, "fusion_lat": 0.0, "lon": -77.02133466666666, "name": "1afc82e35f2d051a5183512f0422c40c"}, {"bike_id": "036f4fb4177bbe91440bc8974c5304c6", "type": "electric_scooter", "is_disabled": 0, "lat": 38.917596833333334, "rental_uris": {"ios": "https://dc.lft.to/lastmile_qr_scan", "android": "https://dc.lft.to/lastmile_qr_scan"}, "is_reserved": 0, "fusion_lon": 0.0, "fusion_lat": 0.0, "lon": -77.0476745, "name": "036f4fb4177bbe91440bc8974c5304c6"}, {"bike_id": "f05e3c6c503267f9f442076cb30548fb", "type": "electric_scooter", "is_disabled": 0, "lat": 38.912506666666665, "rental_uris": {"ios": "https://dc.lft.to/lastmile_qr_scan", "android": "https://dc.lft.to/lastmile_qr_scan"}, "is_reserved": 0, "fusion_lon": 0.0, "fusion_lat": 0.0, "lon": -77.03830566666667, "name": "f05e3c6c503267f9f442076cb30548fb"}, {"bike_id": "12572f0d52e5b1f6b0a958a0056a5d67", "type": "electric_scooter", "is_disabled": 0, "lat": 38.8847155, "rental_uris": {"ios": "https://dc.lft.to/lastmile_qr_scan", "android": "https://dc.lft.to/lastmile_qr_scan"}, "is_reserved": 0, "fusion_lon": 0.0, "fusion_lat": 0.0, "lon": -77.02657583333334, "name": "12572f0d52e5b1f6b0a958a0056a5d67"}, {"bike_id": "b8229623d64f9c345af8f98feae715c6", "type": "electric_scooter", "is_disabled": 0, "lat": 38.905021833333336, "rental_uris": {"ios": "https://dc.lft.to/lastmile_qr_scan", "android": "https://dc.lft.to/lastmile_qr_scan"}, "is_reserved": 0, "fusion_lon": 0.0, "fusion_lat": 0.0, "lon": -77.06103883333333, "name": "b8229623d64f9c345af8f98feae715c6"}, {"bike_id": "af48fbc19821cc1229f3f63333081ee7", "type": "electric_scooter", "is_disabled": 0, "lat": 38.91526, "rental_uris": {"ios": "https://dc.lft.to/lastmile_qr_scan", "android": "https://dc.lft.to/lastmile_qr_scan"}, "is_reserved": 0, "fusion_lon": 0.0, "fusion_lat": 0.0, "lon": -77.0320245, "name": "af48fbc19821cc1229f3f63333081ee7"}, {"bike_id": "5fbf389a6521030fd0ecd7ceafe4d35f", "type": "electric_scooter", "is_disabled": 0, "lat": 38.90258033333333, "rental_uris": {"ios": "https://dc.lft.to/lastmile_qr_scan", "android": "https://dc.lft.to/lastmile_qr_scan"}, "is_reserved": 0, "fusion_lon": 0.0, "fusion_lat": 0.0, "lon": -77.03979183333334, "name": "5fbf389a6521030fd0ecd7ceafe4d35f"}, {"bike_id": "3512eeb8680367be8a74224358a960af", "type": "electric_scooter", "is_disabled": 0, "lat": 38.9047245, "rental_uris": {"ios": "https://dc.lft.to/lastmile_qr_scan", "android": "https://dc.lft.to/lastmile_qr_scan"}, "is_reserved": 0, "fusion_lon": 0.0, "fusion_lat": 0.0, "lon": -77.053339, "name": "3512eeb8680367be8a74224358a960af"}, {"bike_id": "d0035c7d851a28b8e1fbf9cb90a841e0", "type": "electric_scooter", "is_disabled": 0, "lat": 38.887070666666666, "rental_uris": {"ios": "https://dc.lft.to/lastmile_qr_scan", "android": "https://dc.lft.to/lastmile_qr_scan"}, "is_reserved": 0, "fusion_lon": 0.0, "fusion_lat": 0.0, "lon": -77.0220445, "name": "d0035c7d851a28b8e1fbf9cb90a841e0"}, {"bike_id": "4f882e25aaeeacf20d8283da91d3904f", "type": "electric_scooter", "is_disabled": 0, "lat": 38.86369083333334, "rental_uris": {"ios": "https://dc.lft.to/lastmile_qr_scan", "android": "https://dc.lft.to/lastmile_qr_scan"}, "is_reserved": 0, "fusion_lon": 0.0, "fusion_lat": 0.0, "lon": -76.99057816666667, "name": "4f882e25aaeeacf20d8283da91d3904f"}, {"bike_id": "9eb2acb2b9b2fb5a447624a39b0b5f72", "type": "electric_scooter", "is_disabled": 0, "lat": 38.908737333333335, "rental_uris": {"ios": "https://dc.lft.to/lastmile_qr_scan", "android": "https://dc.lft.to/lastmile_qr_scan"}, "is_reserved": 0, "fusion_lon": 0.0, "fusion_lat": 0.0, "lon": -77.01986933333333, "name": "9eb2acb2b9b2fb5a447624a39b0b5f72"}, {"bike_id": "94d086278cf16e96c394e844d2f9a792", "type": "electric_scooter", "is_disabled": 0, "lat": 38.9066315, "rental_uris": {"ios": "https://dc.lft.to/lastmile_qr_scan", "android": "https://dc.lft.to/lastmile_qr_scan"}, "is_reserved": 0, "fusion_lon": 0.0, "fusion_lat": 0.0, "lon": -77.000488, "name": "94d086278cf16e96c394e844d2f9a792"}, {"bike_id": "704d75ef04c2dd5b1a5d0f41555af0fa", "type": "electric_scooter", "is_disabled": 0, "lat": 38.91914033333333, "rental_uris": {"ios": "https://dc.lft.to/lastmile_qr_scan", "android": "https://dc.lft.to/lastmile_qr_scan"}, "is_reserved": 0, "fusion_lon": 0.0, "fusion_lat": 0.0, "lon": -77.0424585, "name": "704d75ef04c2dd5b1a5d0f41555af0fa"}, {"bike_id": "f41921d039d39d3efba370ec2a4f6185", "type": "electric_bike", "is_disabled": 0, "lat": 38.91313266666667, "rental_uris": {"ios": "https://dc.lft.to/lastmile_qr_scan", "android": "https://dc.lft.to/lastmile_qr_scan"}, "is_reserved": 0, "fusion_lon": 0.0, "fusion_lat": 0.0, "lon": -77.22318116666666, "name": "f41921d039d39d3efba370ec2a4f6185"}, {"bike_id": "ba4082f0789b0488c8c6cc12e19cbfaa", "type": "electric_scooter", "is_disabled": 0, "lat": 38.920112, "rental_uris": {"ios": "https://dc.lft.to/lastmile_qr_scan", "android": "https://dc.lft.to/lastmile_qr_scan"}, "is_reserved": 0, "fusion_lon": 0.0, "fusion_lat": 0.0, "lon": -77.0312305, "name": "ba4082f0789b0488c8c6cc12e19cbfaa"}, {"bike_id": "e3d1a09290d2b7cd96557e93df2f715e", "type": "electric_scooter", "is_disabled": 0, "lat": 38.902484, "rental_uris": {"ios": "https://dc.lft.to/lastmile_qr_scan", "android": "https://dc.lft.to/lastmile_qr_scan"}, "is_reserved": 0, "fusion_lon": 0.0, "fusion_lat": 0.0, "lon": -77.00604566666667, "name": "e3d1a09290d2b7cd96557e93df2f715e"}, {"bike_id": "4dc71c09ab2acdc5cb887e8c85d8533e", "type": "electric_scooter", "is_disabled": 0, "lat": 38.883667333333335, "rental_uris": {"ios": "https://dc.lft.to/lastmile_qr_scan", "android": "https://dc.lft.to/lastmile_qr_scan"}, "is_reserved": 0, "fusion_lon": 0.0, "fusion_lat": 0.0, "lon": -76.99518766666667, "name": "4dc71c09ab2acdc5cb887e8c85d8533e"}, {"bike_id": "2fe1a440079d70b146f28f75e7f0869a", "type": "electric_scooter", "is_disabled": 0, "lat": 38.8667585, "rental_uris": {"ios": "https://dc.lft.to/lastmile_qr_scan", "android": "https://dc.lft.to/lastmile_qr_scan"}, "is_reserved": 0, "fusion_lon": 0.0, "fusion_lat": 0.0, "lon": -76.98555816666666, "name": "2fe1a440079d70b146f28f75e7f0869a"}, {"bike_id": "82bff3299d15814cbb6cd465aec76ff9", "type": "electric_scooter", "is_disabled": 0, "lat": 38.934286166666666, "rental_uris": {"ios": "https://dc.lft.to/lastmile_qr_scan", "android": "https://dc.lft.to/lastmile_qr_scan"}, "is_reserved": 0, "fusion_lon": 0.0, "fusion_lat": 0.0, "lon": -77.04538316666667, "name": "82bff3299d15814cbb6cd465aec76ff9"}, {"bike_id": "3fe6e0a601bbebe751f5493b271f343c", "type": "electric_scooter", "is_disabled": 0, "lat": 38.97364366666667, "rental_uris": {"ios": "https://dc.lft.to/lastmile_qr_scan", "android": "https://dc.lft.to/lastmile_qr_scan"}, "is_reserved": 0, "fusion_lon": 0.0, "fusion_lat": 0.0, "lon": -77.01858916666667, "name": "3fe6e0a601bbebe751f5493b271f343c"}, {"bike_id": "4620fd7a149f279176baff7237bf1613", "type": "electric_scooter", "is_disabled": 0, "lat": 38.9071685, "rental_uris": {"ios": "https://dc.lft.to/lastmile_qr_scan", "android": "https://dc.lft.to/lastmile_qr_scan"}, "is_reserved": 0, "fusion_lon": 0.0, "fusion_lat": 0.0, "lon": -77.01228983333333, "name": "4620fd7a149f279176baff7237bf1613"}, {"bike_id": "7f48772eba496ed260739a3322a68b44", "type": "electric_scooter", "is_disabled": 0, "lat": 38.958517, "rental_uris": {"ios": "https://dc.lft.to/lastmile_qr_scan", "android": "https://dc.lft.to/lastmile_qr_scan"}, "is_reserved": 0, "fusion_lon": 0.0, "fusion_lat": 0.0, "lon": -77.02802383333334, "name": "7f48772eba496ed260739a3322a68b44"}, {"bike_id": "6462cdaf78de945e132b4555479b6ffe", "type": "electric_scooter", "is_disabled": 0, "lat": 38.898831, "rental_uris": {"ios": "https://dc.lft.to/lastmile_qr_scan", "android": "https://dc.lft.to/lastmile_qr_scan"}, "is_reserved": 0, "fusion_lon": 0.0, "fusion_lat": 0.0, "lon": -77.02174366666667, "name": "6462cdaf78de945e132b4555479b6ffe"}, {"bike_id": "d4bd3067b2a83a3bf81fe35f051130c8", "type": "electric_scooter", "is_disabled": 0, "lat": 38.86635283333333, "rental_uris": {"ios": "https://dc.lft.to/lastmile_qr_scan", "android": "https://dc.lft.to/lastmile_qr_scan"}, "is_reserved": 0, "fusion_lon": 0.0, "fusion_lat": 0.0, "lon": -76.98263433333334, "name": "d4bd3067b2a83a3bf81fe35f051130c8"}, {"bike_id": "8a1e78e9527d5ee5d511036c527d3fdd", "type": "electric_scooter", "is_disabled": 0, "lat": 38.9061155, "rental_uris": {"ios": "https://dc.lft.to/lastmile_qr_scan", "android": "https://dc.lft.to/lastmile_qr_scan"}, "is_reserved": 0, "fusion_lon": 0.0, "fusion_lat": 0.0, "lon": -77.041334, "name": "8a1e78e9527d5ee5d511036c527d3fdd"}, {"bike_id": "725dd41d58c6f40c391df5505f3c64cf", "type": "electric_bike", "is_disabled": 0, "lat": 38.9141245, "rental_uris": {"ios": "https://dc.lft.to/lastmile_qr_scan", "android": "https://dc.lft.to/lastmile_qr_scan"}, "is_reserved": 0, "fusion_lon": 0.0, "fusion_lat": 0.0, "lon": -77.030751, "name": "725dd41d58c6f40c391df5505f3c64cf"}, {"bike_id": "f7116b3de8cc53b0b4b05986bf677f4f", "type": "electric_scooter", "is_disabled": 0, "lat": 38.95631916666667, "rental_uris": {"ios": "https://dc.lft.to/lastmile_qr_scan", "android": "https://dc.lft.to/lastmile_qr_scan"}, "is_reserved": 0, "fusion_lon": 0.0, "fusion_lat": 0.0, "lon": -77.02780083333333, "name": "f7116b3de8cc53b0b4b05986bf677f4f"}, {"bike_id": "49c2ee025f69192ce643c11389c2ffa5", "type": "electric_scooter", "is_disabled": 0, "lat": 38.9003865, "rental_uris": {"ios": "https://dc.lft.to/lastmile_qr_scan", "android": "https://dc.lft.to/lastmile_qr_scan"}, "is_reserved": 0, "fusion_lon": 0.0, "fusion_lat": 0.0, "lon": -76.98557883333334, "name": "49c2ee025f69192ce643c11389c2ffa5"}, {"bike_id": "f03c6e48f7a7e00f6d1c790cc05b8e5e", "type": "electric_scooter", "is_disabled": 0, "lat": 38.9127125, "rental_uris": {"ios": "https://dc.lft.to/lastmile_qr_scan", "android": "https://dc.lft.to/lastmile_qr_scan"}, "is_reserved": 0, "fusion_lon": 0.0, "fusion_lat": 0.0, "lon": -77.01986716666667, "name": "f03c6e48f7a7e00f6d1c790cc05b8e5e"}, {"bike_id": "593d77fed84db633c4f3387f8941e7fe", "type": "electric_scooter", "is_disabled": 0, "lat": 38.9232445, "rental_uris": {"ios": "https://dc.lft.to/lastmile_qr_scan", "android": "https://dc.lft.to/lastmile_qr_scan"}, "is_reserved": 0, "fusion_lon": 0.0, "fusion_lat": 0.0, "lon": -77.0213625, "name": "593d77fed84db633c4f3387f8941e7fe"}, {"bike_id": "7ca61d4098b5f3831e1747e65adc12b9", "type": "electric_scooter", "is_disabled": 0, "lat": 38.876026833333334, "rental_uris": {"ios": "https://dc.lft.to/lastmile_qr_scan", "android": "https://dc.lft.to/lastmile_qr_scan"}, "is_reserved": 0, "fusion_lon": 0.0, "fusion_lat": 0.0, "lon": -77.0060325, "name": "7ca61d4098b5f3831e1747e65adc12b9"}, {"bike_id": "0798d4635e4d134ebd0ee728f57245f2", "type": "electric_scooter", "is_disabled": 0, "lat": 38.921575, "rental_uris": {"ios": "https://dc.lft.to/lastmile_qr_scan", "android": "https://dc.lft.to/lastmile_qr_scan"}, "is_reserved": 0, "fusion_lon": 0.0, "fusion_lat": 0.0, "lon": -77.04232516666667, "name": "0798d4635e4d134ebd0ee728f57245f2"}, {"bike_id": "3f9a41b7b1d4e70a58bbac6c0ec734d2", "type": "electric_scooter", "is_disabled": 0, "lat": 38.89175816666667, "rental_uris": {"ios": "https://dc.lft.to/lastmile_qr_scan", "android": "https://dc.lft.to/lastmile_qr_scan"}, "is_reserved": 0, "fusion_lon": 0.0, "fusion_lat": 0.0, "lon": -77.02205583333334, "name": "3f9a41b7b1d4e70a58bbac6c0ec734d2"}, {"bike_id": "95ee846133e6863c16f7eca43bba6b22", "type": "electric_scooter", "is_disabled": 0, "lat": 38.941954833333334, "rental_uris": {"ios": "https://dc.lft.to/lastmile_qr_scan", "android": "https://dc.lft.to/lastmile_qr_scan"}, "is_reserved": 0, "fusion_lon": 0.0, "fusion_lat": 0.0, "lon": -77.02348933333333, "name": "95ee846133e6863c16f7eca43bba6b22"}, {"bike_id": "39d0a378aefcaa4ad0e68e509b4bc6a2", "type": "electric_scooter", "is_disabled": 0, "lat": 38.899474833333336, "rental_uris": {"ios": "https://dc.lft.to/lastmile_qr_scan", "android": "https://dc.lft.to/lastmile_qr_scan"}, "is_reserved": 0, "fusion_lon": 0.0, "fusion_lat": 0.0, "lon": -77.02387666666667, "name": "39d0a378aefcaa4ad0e68e509b4bc6a2"}, {"bike_id": "dd8b7baed1f839a595eb001939be0291", "type": "electric_scooter", "is_disabled": 0, "lat": 38.892168833333336, "rental_uris": {"ios": "https://dc.lft.to/lastmile_qr_scan", "android": "https://dc.lft.to/lastmile_qr_scan"}, "is_reserved": 0, "fusion_lon": 0.0, "fusion_lat": 0.0, "lon": -77.04858916666667, "name": "dd8b7baed1f839a595eb001939be0291"}, {"bike_id": "0d440ea9d2744d5cc4c9e76df390ae61", "type": "electric_scooter", "is_disabled": 0, "lat": 38.90712766666667, "rental_uris": {"ios": "https://dc.lft.to/lastmile_qr_scan", "android": "https://dc.lft.to/lastmile_qr_scan"}, "is_reserved": 0, "fusion_lon": 0.0, "fusion_lat": 0.0, "lon": -77.0146845, "name": "0d440ea9d2744d5cc4c9e76df390ae61"}, {"bike_id": "794a3dc6f4537576963c84b37ebd549f", "type": "electric_scooter", "is_disabled": 0, "lat": 38.870171166666665, "rental_uris": {"ios": "https://dc.lft.to/lastmile_qr_scan", "android": "https://dc.lft.to/lastmile_qr_scan"}, "is_reserved": 0, "fusion_lon": 0.0, "fusion_lat": 0.0, "lon": -76.9808185, "name": "794a3dc6f4537576963c84b37ebd549f"}, {"bike_id": "943b4bb3e96449deb4ebc58b2e84dfa5", "type": "electric_scooter", "is_disabled": 0, "lat": 38.900012, "rental_uris": {"ios": "https://dc.lft.to/lastmile_qr_scan", "android": "https://dc.lft.to/lastmile_qr_scan"}, "is_reserved": 0, "fusion_lon": 0.0, "fusion_lat": 0.0, "lon": -76.99611066666667, "name": "943b4bb3e96449deb4ebc58b2e84dfa5"}, {"bike_id": "0db30110527b207f2ef813fbcb020c26", "type": "electric_scooter", "is_disabled": 0, "lat": 38.892166333333336, "rental_uris": {"ios": "https://dc.lft.to/lastmile_qr_scan", "android": "https://dc.lft.to/lastmile_qr_scan"}, "is_reserved": 0, "fusion_lon": 0.0, "fusion_lat": 0.0, "lon": -77.022107, "name": "0db30110527b207f2ef813fbcb020c26"}, {"bike_id": "37f0d2ea8ce0ad698f5ba2dac919fc4e", "type": "electric_scooter", "is_disabled": 0, "lat": 38.910150333333334, "rental_uris": {"ios": "https://dc.lft.to/lastmile_qr_scan", "android": "https://dc.lft.to/lastmile_qr_scan"}, "is_reserved": 0, "fusion_lon": 0.0, "fusion_lat": 0.0, "lon": -77.0526995, "name": "37f0d2ea8ce0ad698f5ba2dac919fc4e"}, {"bike_id": "00deac3e59212a3d8dd51378e274ac8e", "type": "electric_scooter", "is_disabled": 0, "lat": 38.892197333333336, "rental_uris": {"ios": "https://dc.lft.to/lastmile_qr_scan", "android": "https://dc.lft.to/lastmile_qr_scan"}, "is_reserved": 0, "fusion_lon": 0.0, "fusion_lat": 0.0, "lon": -77.04859033333334, "name": "00deac3e59212a3d8dd51378e274ac8e"}, {"bike_id": "f9bea8ce24123c3ad428bac7afc4eb22", "type": "electric_scooter", "is_disabled": 0, "lat": 38.94288316666667, "rental_uris": {"ios": "https://dc.lft.to/lastmile_qr_scan", "android": "https://dc.lft.to/lastmile_qr_scan"}, "is_reserved": 0, "fusion_lon": 0.0, "fusion_lat": 0.0, "lon": -77.0048695, "name": "f9bea8ce24123c3ad428bac7afc4eb22"}, {"bike_id": "024e2f38c17232382f0b2d31f6e01326", "type": "electric_bike", "is_disabled": 0, "lat": 38.874786, "rental_uris": {"ios": "https://dc.lft.to/lastmile_qr_scan", "android": "https://dc.lft.to/lastmile_qr_scan"}, "is_reserved": 0, "fusion_lon": 0.0, "fusion_lat": 0.0, "lon": -76.965289, "name": "024e2f38c17232382f0b2d31f6e01326"}, {"bike_id": "fe150265178f0f3c648252357e746fee", "type": "electric_scooter", "is_disabled": 0, "lat": 38.89344416666667, "rental_uris": {"ios": "https://dc.lft.to/lastmile_qr_scan", "android": "https://dc.lft.to/lastmile_qr_scan"}, "is_reserved": 0, "fusion_lon": 0.0, "fusion_lat": 0.0, "lon": -76.98086283333333, "name": "fe150265178f0f3c648252357e746fee"}, {"bike_id": "0a34066d79f2d4e23ba84e1a53d74402", "type": "electric_scooter", "is_disabled": 0, "lat": 38.924704, "rental_uris": {"ios": "https://dc.lft.to/lastmile_qr_scan", "android": "https://dc.lft.to/lastmile_qr_scan"}, "is_reserved": 0, "fusion_lon": 0.0, "fusion_lat": 0.0, "lon": -77.02912583333334, "name": "0a34066d79f2d4e23ba84e1a53d74402"}, {"bike_id": "0bf60648b56219d4380913afbb8cbe86", "type": "electric_scooter", "is_disabled": 0, "lat": 38.8745095, "rental_uris": {"ios": "https://dc.lft.to/lastmile_qr_scan", "android": "https://dc.lft.to/lastmile_qr_scan"}, "is_reserved": 0, "fusion_lon": 0.0, "fusion_lat": 0.0, "lon": -77.00317, "name": "0bf60648b56219d4380913afbb8cbe86"}, {"bike_id": "305413a69fa63f23b6b424aa08bdd6a1", "type": "electric_scooter", "is_disabled": 0, "lat": 38.903929166666664, "rental_uris": {"ios": "https://dc.lft.to/lastmile_qr_scan", "android": "https://dc.lft.to/lastmile_qr_scan"}, "is_reserved": 0, "fusion_lon": 0.0, "fusion_lat": 0.0, "lon": -77.06513633333333, "name": "305413a69fa63f23b6b424aa08bdd6a1"}, {"bike_id": "cbbe0c4930e65ad99214dabb38db3389", "type": "electric_scooter", "is_disabled": 0, "lat": 38.94837283333333, "rental_uris": {"ios": "https://dc.lft.to/lastmile_qr_scan", "android": "https://dc.lft.to/lastmile_qr_scan"}, "is_reserved": 0, "fusion_lon": 0.0, "fusion_lat": 0.0, "lon": -77.0254235, "name": "cbbe0c4930e65ad99214dabb38db3389"}, {"bike_id": "06bd5d6f053cee5566010646bcb97047", "type": "electric_scooter", "is_disabled": 0, "lat": 38.882076166666664, "rental_uris": {"ios": "https://dc.lft.to/lastmile_qr_scan", "android": "https://dc.lft.to/lastmile_qr_scan"}, "is_reserved": 0, "fusion_lon": 0.0, "fusion_lat": 0.0, "lon": -77.00580733333334, "name": "06bd5d6f053cee5566010646bcb97047"}, {"bike_id": "e169f56c4a8f86897213ee13f32ad516", "type": "electric_scooter", "is_disabled": 0, "lat": 38.94291316666666, "rental_uris": {"ios": "https://dc.lft.to/lastmile_qr_scan", "android": "https://dc.lft.to/lastmile_qr_scan"}, "is_reserved": 0, "fusion_lon": 0.0, "fusion_lat": 0.0, "lon": -77.02168933333333, "name": "e169f56c4a8f86897213ee13f32ad516"}, {"bike_id": "d307d70f8c25dded35a266bbfb2ac4d5", "type": "electric_scooter", "is_disabled": 0, "lat": 38.86236933333333, "rental_uris": {"ios": "https://dc.lft.to/lastmile_qr_scan", "android": "https://dc.lft.to/lastmile_qr_scan"}, "is_reserved": 0, "fusion_lon": 0.0, "fusion_lat": 0.0, "lon": -76.9949035, "name": "d307d70f8c25dded35a266bbfb2ac4d5"}, {"bike_id": "b15e2eec4c955fe2e3048dbe534fa959", "type": "electric_scooter", "is_disabled": 0, "lat": 38.89818733333333, "rental_uris": {"ios": "https://dc.lft.to/lastmile_qr_scan", "android": "https://dc.lft.to/lastmile_qr_scan"}, "is_reserved": 0, "fusion_lon": 0.0, "fusion_lat": 0.0, "lon": -77.02377716666666, "name": "b15e2eec4c955fe2e3048dbe534fa959"}, {"bike_id": "1e36857740a701d8822410526c984541", "type": "electric_scooter", "is_disabled": 0, "lat": 38.9181345, "rental_uris": {"ios": "https://dc.lft.to/lastmile_qr_scan", "android": "https://dc.lft.to/lastmile_qr_scan"}, "is_reserved": 0, "fusion_lon": 0.0, "fusion_lat": 0.0, "lon": -77.02530966666667, "name": "1e36857740a701d8822410526c984541"}, {"bike_id": "ec865477ebe0cb21afd4fabfc36cd1f9", "type": "electric_scooter", "is_disabled": 0, "lat": 38.90142816666667, "rental_uris": {"ios": "https://dc.lft.to/lastmile_qr_scan", "android": "https://dc.lft.to/lastmile_qr_scan"}, "is_reserved": 0, "fusion_lon": 0.0, "fusion_lat": 0.0, "lon": -76.921404, "name": "ec865477ebe0cb21afd4fabfc36cd1f9"}, {"bike_id": "044174181f767a9dec818f69f46068fc", "type": "electric_bike", "is_disabled": 0, "lat": 38.8540805, "rental_uris": {"ios": "https://dc.lft.to/lastmile_qr_scan", "android": "https://dc.lft.to/lastmile_qr_scan"}, "is_reserved": 0, "fusion_lon": 0.0, "fusion_lat": 0.0, "lon": -77.12077383333333, "name": "044174181f767a9dec818f69f46068fc"}, {"bike_id": "f4a4bf48a82b4336574ef6837ae5af8e", "type": "electric_scooter", "is_disabled": 0, "lat": 38.934183833333336, "rental_uris": {"ios": "https://dc.lft.to/lastmile_qr_scan", "android": "https://dc.lft.to/lastmile_qr_scan"}, "is_reserved": 0, "fusion_lon": 0.0, "fusion_lat": 0.0, "lon": -77.03914283333333, "name": "f4a4bf48a82b4336574ef6837ae5af8e"}, {"bike_id": "82154e90376b46ca9cab0c41da9f30f8", "type": "electric_scooter", "is_disabled": 0, "lat": 38.9156905, "rental_uris": {"ios": "https://dc.lft.to/lastmile_qr_scan", "android": "https://dc.lft.to/lastmile_qr_scan"}, "is_reserved": 0, "fusion_lon": 0.0, "fusion_lat": 0.0, "lon": -77.02285283333333, "name": "82154e90376b46ca9cab0c41da9f30f8"}, {"bike_id": "23433448004dd5d37d0cf9b259097bdb", "type": "electric_scooter", "is_disabled": 0, "lat": 38.93206566666667, "rental_uris": {"ios": "https://dc.lft.to/lastmile_qr_scan", "android": "https://dc.lft.to/lastmile_qr_scan"}, "is_reserved": 0, "fusion_lon": 0.0, "fusion_lat": 0.0, "lon": -77.02960366666667, "name": "23433448004dd5d37d0cf9b259097bdb"}, {"bike_id": "b8fbeeb45feb3222e7825f4d72dfcfe8", "type": "electric_scooter", "is_disabled": 0, "lat": 38.9033345, "rental_uris": {"ios": "https://dc.lft.to/lastmile_qr_scan", "android": "https://dc.lft.to/lastmile_qr_scan"}, "is_reserved": 0, "fusion_lon": 0.0, "fusion_lat": 0.0, "lon": -76.975807, "name": "b8fbeeb45feb3222e7825f4d72dfcfe8"}, {"bike_id": "5976ddcbe3ea4c25b73e64ab6ec0ffe5", "type": "electric_scooter", "is_disabled": 0, "lat": 38.92329183333333, "rental_uris": {"ios": "https://dc.lft.to/lastmile_qr_scan", "android": "https://dc.lft.to/lastmile_qr_scan"}, "is_reserved": 0, "fusion_lon": 0.0, "fusion_lat": 0.0, "lon": -77.02329866666666, "name": "5976ddcbe3ea4c25b73e64ab6ec0ffe5"}, {"bike_id": "4d23e850766ecac5a4786414583f5f7e", "type": "electric_scooter", "is_disabled": 0, "lat": 38.876213, "rental_uris": {"ios": "https://dc.lft.to/lastmile_qr_scan", "android": "https://dc.lft.to/lastmile_qr_scan"}, "is_reserved": 0, "fusion_lon": 0.0, "fusion_lat": 0.0, "lon": -77.00834366666666, "name": "4d23e850766ecac5a4786414583f5f7e"}, {"bike_id": "89d9eca4bd81a95d8f9c210101d318dd", "type": "electric_scooter", "is_disabled": 0, "lat": 38.9067575, "rental_uris": {"ios": "https://dc.lft.to/lastmile_qr_scan", "android": "https://dc.lft.to/lastmile_qr_scan"}, "is_reserved": 0, "fusion_lon": 0.0, "fusion_lat": 0.0, "lon": -77.01088566666667, "name": "89d9eca4bd81a95d8f9c210101d318dd"}, {"bike_id": "016c4452fa43a1c61ef4b98c92710c42", "type": "electric_scooter", "is_disabled": 0, "lat": 38.892510333333334, "rental_uris": {"ios": "https://dc.lft.to/lastmile_qr_scan", "android": "https://dc.lft.to/lastmile_qr_scan"}, "is_reserved": 0, "fusion_lon": 0.0, "fusion_lat": 0.0, "lon": -77.0465175, "name": "016c4452fa43a1c61ef4b98c92710c42"}, {"bike_id": "0d74bbaf04557363740f06bfd6af3b90", "type": "electric_scooter", "is_disabled": 0, "lat": 38.93382016666666, "rental_uris": {"ios": "https://dc.lft.to/lastmile_qr_scan", "android": "https://dc.lft.to/lastmile_qr_scan"}, "is_reserved": 0, "fusion_lon": 0.0, "fusion_lat": 0.0, "lon": -77.03092633333333, "name": "0d74bbaf04557363740f06bfd6af3b90"}, {"bike_id": "e8b3b0926bf03ed09eb73a86dcc8f9b2", "type": "electric_scooter", "is_disabled": 0, "lat": 38.89804433333333, "rental_uris": {"ios": "https://dc.lft.to/lastmile_qr_scan", "android": "https://dc.lft.to/lastmile_qr_scan"}, "is_reserved": 0, "fusion_lon": 0.0, "fusion_lat": 0.0, "lon": -77.0270075, "name": "e8b3b0926bf03ed09eb73a86dcc8f9b2"}, {"bike_id": "18df5b52214886cc666e74a40c422c36", "type": "electric_scooter", "is_disabled": 0, "lat": 38.902524666666665, "rental_uris": {"ios": "https://dc.lft.to/lastmile_qr_scan", "android": "https://dc.lft.to/lastmile_qr_scan"}, "is_reserved": 0, "fusion_lon": 0.0, "fusion_lat": 0.0, "lon": -77.02813316666666, "name": "18df5b52214886cc666e74a40c422c36"}, {"bike_id": "0d77e1a303d2ec1e845f350a2aea9cc2", "type": "electric_scooter", "is_disabled": 0, "lat": 38.933597166666665, "rental_uris": {"ios": "https://dc.lft.to/lastmile_qr_scan", "android": "https://dc.lft.to/lastmile_qr_scan"}, "is_reserved": 0, "fusion_lon": 0.0, "fusion_lat": 0.0, "lon": -77.08853916666666, "name": "0d77e1a303d2ec1e845f350a2aea9cc2"}, {"bike_id": "dc60b2075f57c17daa8164e0312f3669", "type": "electric_scooter", "is_disabled": 0, "lat": 38.921554666666665, "rental_uris": {"ios": "https://dc.lft.to/lastmile_qr_scan", "android": "https://dc.lft.to/lastmile_qr_scan"}, "is_reserved": 0, "fusion_lon": 0.0, "fusion_lat": 0.0, "lon": -77.02099016666666, "name": "dc60b2075f57c17daa8164e0312f3669"}, {"bike_id": "2c22f38252a8802be9f134edb1fd7594", "type": "electric_scooter", "is_disabled": 0, "lat": 38.915755, "rental_uris": {"ios": "https://dc.lft.to/lastmile_qr_scan", "android": "https://dc.lft.to/lastmile_qr_scan"}, "is_reserved": 0, "fusion_lon": 0.0, "fusion_lat": 0.0, "lon": -77.04487383333333, "name": "2c22f38252a8802be9f134edb1fd7594"}, {"bike_id": "447a358f28225540fec5e30ce90aabde", "type": "electric_scooter", "is_disabled": 0, "lat": 38.9060815, "rental_uris": {"ios": "https://dc.lft.to/lastmile_qr_scan", "android": "https://dc.lft.to/lastmile_qr_scan"}, "is_reserved": 0, "fusion_lon": 0.0, "fusion_lat": 0.0, "lon": -77.05128516666667, "name": "447a358f28225540fec5e30ce90aabde"}, {"bike_id": "9396c01e0b2bd05baa00563eca64057a", "type": "electric_scooter", "is_disabled": 0, "lat": 38.901972666666666, "rental_uris": {"ios": "https://dc.lft.to/lastmile_qr_scan", "android": "https://dc.lft.to/lastmile_qr_scan"}, "is_reserved": 0, "fusion_lon": 0.0, "fusion_lat": 0.0, "lon": -77.01905883333333, "name": "9396c01e0b2bd05baa00563eca64057a"}, {"bike_id": "b097f4189f5669f74bfb8bdb45e3847e", "type": "electric_scooter", "is_disabled": 0, "lat": 38.9068615, "rental_uris": {"ios": "https://dc.lft.to/lastmile_qr_scan", "android": "https://dc.lft.to/lastmile_qr_scan"}, "is_reserved": 0, "fusion_lon": 0.0, "fusion_lat": 0.0, "lon": -77.05325283333333, "name": "b097f4189f5669f74bfb8bdb45e3847e"}, {"bike_id": "eca5ec722993236c872049209f7fbd0d", "type": "electric_bike", "is_disabled": 0, "lat": 38.83425366666667, "rental_uris": {"ios": "https://dc.lft.to/lastmile_qr_scan", "android": "https://dc.lft.to/lastmile_qr_scan"}, "is_reserved": 0, "fusion_lon": 0.0, "fusion_lat": 0.0, "lon": -77.10354066666666, "name": "eca5ec722993236c872049209f7fbd0d"}, {"bike_id": "a22635b9c6f854e714d29733c2c0be56", "type": "electric_scooter", "is_disabled": 0, "lat": 38.9565665, "rental_uris": {"ios": "https://dc.lft.to/lastmile_qr_scan", "android": "https://dc.lft.to/lastmile_qr_scan"}, "is_reserved": 0, "fusion_lon": 0.0, "fusion_lat": 0.0, "lon": -77.01035616666667, "name": "a22635b9c6f854e714d29733c2c0be56"}, {"bike_id": "9c1c33f7981fe613a382eb2e81d5071a", "type": "electric_scooter", "is_disabled": 0, "lat": 38.90551416666667, "rental_uris": {"ios": "https://dc.lft.to/lastmile_qr_scan", "android": "https://dc.lft.to/lastmile_qr_scan"}, "is_reserved": 0, "fusion_lon": 0.0, "fusion_lat": 0.0, "lon": -76.98857683333334, "name": "9c1c33f7981fe613a382eb2e81d5071a"}, {"bike_id": "8217c0641b8b045ffaea176b83d9adcf", "type": "electric_scooter", "is_disabled": 0, "lat": 38.911190833333336, "rental_uris": {"ios": "https://dc.lft.to/lastmile_qr_scan", "android": "https://dc.lft.to/lastmile_qr_scan"}, "is_reserved": 0, "fusion_lon": 0.0, "fusion_lat": 0.0, "lon": -77.02238366666667, "name": "8217c0641b8b045ffaea176b83d9adcf"}, {"bike_id": "8a6ab7ff1ecd9ae2f387c9641be4d93b", "type": "electric_scooter", "is_disabled": 0, "lat": 38.901352333333335, "rental_uris": {"ios": "https://dc.lft.to/lastmile_qr_scan", "android": "https://dc.lft.to/lastmile_qr_scan"}, "is_reserved": 0, "fusion_lon": 0.0, "fusion_lat": 0.0, "lon": -77.01491466666667, "name": "8a6ab7ff1ecd9ae2f387c9641be4d93b"}, {"bike_id": "5e6352787aff0b11825da76ea1817c65", "type": "electric_scooter", "is_disabled": 0, "lat": 38.9135855, "rental_uris": {"ios": "https://dc.lft.to/lastmile_qr_scan", "android": "https://dc.lft.to/lastmile_qr_scan"}, "is_reserved": 0, "fusion_lon": 0.0, "fusion_lat": 0.0, "lon": -77.06934933333334, "name": "5e6352787aff0b11825da76ea1817c65"}, {"bike_id": "f11ada276a9bd1040ea02a6dcbc7a8c8", "type": "electric_scooter", "is_disabled": 0, "lat": 38.922693333333335, "rental_uris": {"ios": "https://dc.lft.to/lastmile_qr_scan", "android": "https://dc.lft.to/lastmile_qr_scan"}, "is_reserved": 0, "fusion_lon": 0.0, "fusion_lat": 0.0, "lon": -77.0218695, "name": "f11ada276a9bd1040ea02a6dcbc7a8c8"}, {"bike_id": "80fd7ae5a26fc33b660edbb325e8f52f", "type": "electric_bike", "is_disabled": 0, "lat": 38.90043883333333, "rental_uris": {"ios": "https://dc.lft.to/lastmile_qr_scan", "android": "https://dc.lft.to/lastmile_qr_scan"}, "is_reserved": 0, "fusion_lon": 0.0, "fusion_lat": 0.0, "lon": -76.99014383333333, "name": "80fd7ae5a26fc33b660edbb325e8f52f"}, {"bike_id": "388356152d81505363a59af43dcf437c", "type": "electric_scooter", "is_disabled": 0, "lat": 38.9168485, "rental_uris": {"ios": "https://dc.lft.to/lastmile_qr_scan", "android": "https://dc.lft.to/lastmile_qr_scan"}, "is_reserved": 0, "fusion_lon": 0.0, "fusion_lat": 0.0, "lon": -77.02693616666667, "name": "388356152d81505363a59af43dcf437c"}, {"bike_id": "4a29e1e788f43d00181e9db925a06b4f", "type": "electric_scooter", "is_disabled": 0, "lat": 38.91473116666667, "rental_uris": {"ios": "https://dc.lft.to/lastmile_qr_scan", "android": "https://dc.lft.to/lastmile_qr_scan"}, "is_reserved": 0, "fusion_lon": 0.0, "fusion_lat": 0.0, "lon": -77.03273383333334, "name": "4a29e1e788f43d00181e9db925a06b4f"}, {"bike_id": "ccdb34de6033b63a1ecab792ae3f634c", "type": "electric_bike", "is_disabled": 0, "lat": 38.969591, "rental_uris": {"ios": "https://dc.lft.to/lastmile_qr_scan", "android": "https://dc.lft.to/lastmile_qr_scan"}, "is_reserved": 0, "fusion_lon": 0.0, "fusion_lat": 0.0, "lon": -76.95748783333333, "name": "ccdb34de6033b63a1ecab792ae3f634c"}, {"bike_id": "35ee9340c28b19559d5e4975d15b161a", "type": "electric_bike", "is_disabled": 0, "lat": 38.910530333333334, "rental_uris": {"ios": "https://dc.lft.to/lastmile_qr_scan", "android": "https://dc.lft.to/lastmile_qr_scan"}, "is_reserved": 0, "fusion_lon": 0.0, "fusion_lat": 0.0, "lon": -77.02910466666667, "name": "35ee9340c28b19559d5e4975d15b161a"}, {"bike_id": "c731437089092ae056c4ea687d97fa73", "type": "electric_scooter", "is_disabled": 0, "lat": 38.9130625, "rental_uris": {"ios": "https://dc.lft.to/lastmile_qr_scan", "android": "https://dc.lft.to/lastmile_qr_scan"}, "is_reserved": 0, "fusion_lon": 0.0, "fusion_lat": 0.0, "lon": -77.0453125, "name": "c731437089092ae056c4ea687d97fa73"}, {"bike_id": "f2ec1a47c749a05e6cbb9bce5ebe82a9", "type": "electric_scooter", "is_disabled": 0, "lat": 38.926064, "rental_uris": {"ios": "https://dc.lft.to/lastmile_qr_scan", "android": "https://dc.lft.to/lastmile_qr_scan"}, "is_reserved": 0, "fusion_lon": 0.0, "fusion_lat": 0.0, "lon": -77.02158366666667, "name": "f2ec1a47c749a05e6cbb9bce5ebe82a9"}, {"bike_id": "4604fea081b72b367021c7d40dcc1528", "type": "electric_scooter", "is_disabled": 0, "lat": 38.902702833333336, "rental_uris": {"ios": "https://dc.lft.to/lastmile_qr_scan", "android": "https://dc.lft.to/lastmile_qr_scan"}, "is_reserved": 0, "fusion_lon": 0.0, "fusion_lat": 0.0, "lon": -77.039207, "name": "4604fea081b72b367021c7d40dcc1528"}, {"bike_id": "f158588dd7d5d72be2190e501e916043", "type": "electric_scooter", "is_disabled": 0, "lat": 38.8921715, "rental_uris": {"ios": "https://dc.lft.to/lastmile_qr_scan", "android": "https://dc.lft.to/lastmile_qr_scan"}, "is_reserved": 0, "fusion_lon": 0.0, "fusion_lat": 0.0, "lon": -77.04195016666667, "name": "f158588dd7d5d72be2190e501e916043"}, {"bike_id": "68026a6397d1bbda6714b2c02dc28b9f", "type": "electric_scooter", "is_disabled": 0, "lat": 38.864703166666665, "rental_uris": {"ios": "https://dc.lft.to/lastmile_qr_scan", "android": "https://dc.lft.to/lastmile_qr_scan"}, "is_reserved": 0, "fusion_lon": 0.0, "fusion_lat": 0.0, "lon": -76.97738266666667, "name": "68026a6397d1bbda6714b2c02dc28b9f"}, {"bike_id": "2d162f4cd64745b4ab526ee0bc89a174", "type": "electric_scooter", "is_disabled": 0, "lat": 38.88300733333333, "rental_uris": {"ios": "https://dc.lft.to/lastmile_qr_scan", "android": "https://dc.lft.to/lastmile_qr_scan"}, "is_reserved": 0, "fusion_lon": 0.0, "fusion_lat": 0.0, "lon": -76.94854783333334, "name": "2d162f4cd64745b4ab526ee0bc89a174"}, {"bike_id": "ae4f7a36c01c7db3f0d495c0509de697", "type": "electric_scooter", "is_disabled": 0, "lat": 38.935322, "rental_uris": {"ios": "https://dc.lft.to/lastmile_qr_scan", "android": "https://dc.lft.to/lastmile_qr_scan"}, "is_reserved": 0, "fusion_lon": 0.0, "fusion_lat": 0.0, "lon": -77.05859516666666, "name": "ae4f7a36c01c7db3f0d495c0509de697"}, {"bike_id": "38a33fd285ed7a65472092d563e71e3e", "type": "electric_scooter", "is_disabled": 0, "lat": 38.9157335, "rental_uris": {"ios": "https://dc.lft.to/lastmile_qr_scan", "android": "https://dc.lft.to/lastmile_qr_scan"}, "is_reserved": 0, "fusion_lon": 0.0, "fusion_lat": 0.0, "lon": -77.04483, "name": "38a33fd285ed7a65472092d563e71e3e"}, {"bike_id": "f6cdd35ecbca379be015edd43a74172d", "type": "electric_scooter", "is_disabled": 0, "lat": 38.921581833333335, "rental_uris": {"ios": "https://dc.lft.to/lastmile_qr_scan", "android": "https://dc.lft.to/lastmile_qr_scan"}, "is_reserved": 0, "fusion_lon": 0.0, "fusion_lat": 0.0, "lon": -77.04228566666667, "name": "f6cdd35ecbca379be015edd43a74172d"}, {"bike_id": "9c2258468887783c1cb7ec05e95a6d63", "type": "electric_scooter", "is_disabled": 0, "lat": 38.874371833333335, "rental_uris": {"ios": "https://dc.lft.to/lastmile_qr_scan", "android": "https://dc.lft.to/lastmile_qr_scan"}, "is_reserved": 0, "fusion_lon": 0.0, "fusion_lat": 0.0, "lon": -77.0001595, "name": "9c2258468887783c1cb7ec05e95a6d63"}, {"bike_id": "255ff920afe11ca0512e078576391b27", "type": "electric_scooter", "is_disabled": 0, "lat": 38.92370233333333, "rental_uris": {"ios": "https://dc.lft.to/lastmile_qr_scan", "android": "https://dc.lft.to/lastmile_qr_scan"}, "is_reserved": 0, "fusion_lon": 0.0, "fusion_lat": 0.0, "lon": -77.0402685, "name": "255ff920afe11ca0512e078576391b27"}, {"bike_id": "38695749d5a4ec08ac4303f9924b8f83", "type": "electric_scooter", "is_disabled": 0, "lat": 38.940796166666665, "rental_uris": {"ios": "https://dc.lft.to/lastmile_qr_scan", "android": "https://dc.lft.to/lastmile_qr_scan"}, "is_reserved": 0, "fusion_lon": 0.0, "fusion_lat": 0.0, "lon": -77.02725566666666, "name": "38695749d5a4ec08ac4303f9924b8f83"}, {"bike_id": "7a641c6f0497b2ec22929c741dbd1fd2", "type": "electric_scooter", "is_disabled": 0, "lat": 38.87825616666667, "rental_uris": {"ios": "https://dc.lft.to/lastmile_qr_scan", "android": "https://dc.lft.to/lastmile_qr_scan"}, "is_reserved": 0, "fusion_lon": 0.0, "fusion_lat": 0.0, "lon": -76.9630685, "name": "7a641c6f0497b2ec22929c741dbd1fd2"}, {"bike_id": "6005a27b89afef6cf209c9de6da20acd", "type": "electric_scooter", "is_disabled": 0, "lat": 38.94778616666667, "rental_uris": {"ios": "https://dc.lft.to/lastmile_qr_scan", "android": "https://dc.lft.to/lastmile_qr_scan"}, "is_reserved": 0, "fusion_lon": 0.0, "fusion_lat": 0.0, "lon": -77.08017033333333, "name": "6005a27b89afef6cf209c9de6da20acd"}, {"bike_id": "76106c6f72052d8042aa1178e5f2e431", "type": "electric_scooter", "is_disabled": 0, "lat": 38.918180666666665, "rental_uris": {"ios": "https://dc.lft.to/lastmile_qr_scan", "android": "https://dc.lft.to/lastmile_qr_scan"}, "is_reserved": 0, "fusion_lon": 0.0, "fusion_lat": 0.0, "lon": -77.04941583333333, "name": "76106c6f72052d8042aa1178e5f2e431"}, {"bike_id": "646b39cfab094d81c71f03d9677df68f", "type": "electric_scooter", "is_disabled": 0, "lat": 38.901082, "rental_uris": {"ios": "https://dc.lft.to/lastmile_qr_scan", "android": "https://dc.lft.to/lastmile_qr_scan"}, "is_reserved": 0, "fusion_lon": 0.0, "fusion_lat": 0.0, "lon": -77.04133266666666, "name": "646b39cfab094d81c71f03d9677df68f"}, {"bike_id": "de8756917c57a3d169169fa91e1b5d84", "type": "electric_scooter", "is_disabled": 0, "lat": 38.914629166666664, "rental_uris": {"ios": "https://dc.lft.to/lastmile_qr_scan", "android": "https://dc.lft.to/lastmile_qr_scan"}, "is_reserved": 0, "fusion_lon": 0.0, "fusion_lat": 0.0, "lon": -76.984117, "name": "de8756917c57a3d169169fa91e1b5d84"}, {"bike_id": "6bcee7a0c0117292ceb1aa23070c9199", "type": "electric_bike", "is_disabled": 0, "lat": 39.05276083333333, "rental_uris": {"ios": "https://dc.lft.to/lastmile_qr_scan", "android": "https://dc.lft.to/lastmile_qr_scan"}, "is_reserved": 0, "fusion_lon": 0.0, "fusion_lat": 0.0, "lon": -77.08069733333333, "name": "6bcee7a0c0117292ceb1aa23070c9199"}, {"bike_id": "6f3d9c3ee99a2b2ab63c24cb65f66397", "type": "electric_scooter", "is_disabled": 0, "lat": 38.901401166666666, "rental_uris": {"ios": "https://dc.lft.to/lastmile_qr_scan", "android": "https://dc.lft.to/lastmile_qr_scan"}, "is_reserved": 0, "fusion_lon": 0.0, "fusion_lat": 0.0, "lon": -77.01231066666666, "name": "6f3d9c3ee99a2b2ab63c24cb65f66397"}, {"bike_id": "b9e4cbfd393a75bd12f335e45e78e5bb", "type": "electric_scooter", "is_disabled": 0, "lat": 38.91542066666667, "rental_uris": {"ios": "https://dc.lft.to/lastmile_qr_scan", "android": "https://dc.lft.to/lastmile_qr_scan"}, "is_reserved": 0, "fusion_lon": 0.0, "fusion_lat": 0.0, "lon": -76.98347283333334, "name": "b9e4cbfd393a75bd12f335e45e78e5bb"}, {"bike_id": "fdac9f7cdc9a0f048c3e63675ac3ad0b", "type": "electric_scooter", "is_disabled": 0, "lat": 38.911214666666666, "rental_uris": {"ios": "https://dc.lft.to/lastmile_qr_scan", "android": "https://dc.lft.to/lastmile_qr_scan"}, "is_reserved": 0, "fusion_lon": 0.0, "fusion_lat": 0.0, "lon": -77.03182666666666, "name": "fdac9f7cdc9a0f048c3e63675ac3ad0b"}, {"bike_id": "c64e4f65891d8267cd6daf7ad522d51b", "type": "electric_scooter", "is_disabled": 0, "lat": 38.87102316666667, "rental_uris": {"ios": "https://dc.lft.to/lastmile_qr_scan", "android": "https://dc.lft.to/lastmile_qr_scan"}, "is_reserved": 0, "fusion_lon": 0.0, "fusion_lat": 0.0, "lon": -76.96570983333334, "name": "c64e4f65891d8267cd6daf7ad522d51b"}, {"bike_id": "104bab07c23dd1a2bbb59c76d7447798", "type": "electric_scooter", "is_disabled": 0, "lat": 38.91699666666667, "rental_uris": {"ios": "https://dc.lft.to/lastmile_qr_scan", "android": "https://dc.lft.to/lastmile_qr_scan"}, "is_reserved": 0, "fusion_lon": 0.0, "fusion_lat": 0.0, "lon": -77.00656066666667, "name": "104bab07c23dd1a2bbb59c76d7447798"}, {"bike_id": "54314d9ede71444f6b6e2127411182b2", "type": "electric_scooter", "is_disabled": 0, "lat": 38.86692816666667, "rental_uris": {"ios": "https://dc.lft.to/lastmile_qr_scan", "android": "https://dc.lft.to/lastmile_qr_scan"}, "is_reserved": 0, "fusion_lon": 0.0, "fusion_lat": 0.0, "lon": -76.9871465, "name": "54314d9ede71444f6b6e2127411182b2"}, {"bike_id": "864c47faa9e6d57d79a86999f3622410", "type": "electric_scooter", "is_disabled": 0, "lat": 38.917679666666665, "rental_uris": {"ios": "https://dc.lft.to/lastmile_qr_scan", "android": "https://dc.lft.to/lastmile_qr_scan"}, "is_reserved": 0, "fusion_lon": 0.0, "fusion_lat": 0.0, "lon": -77.03571033333333, "name": "864c47faa9e6d57d79a86999f3622410"}, {"bike_id": "ed71270df135d94c2deb82c1364daca3", "type": "electric_scooter", "is_disabled": 0, "lat": 38.92052916666667, "rental_uris": {"ios": "https://dc.lft.to/lastmile_qr_scan", "android": "https://dc.lft.to/lastmile_qr_scan"}, "is_reserved": 0, "fusion_lon": 0.0, "fusion_lat": 0.0, "lon": -77.02400216666666, "name": "ed71270df135d94c2deb82c1364daca3"}, {"bike_id": "8ae2d64781c75dec764d31a3e432266a", "type": "electric_scooter", "is_disabled": 0, "lat": 38.90718533333333, "rental_uris": {"ios": "https://dc.lft.to/lastmile_qr_scan", "android": "https://dc.lft.to/lastmile_qr_scan"}, "is_reserved": 0, "fusion_lon": 0.0, "fusion_lat": 0.0, "lon": -77.03170366666667, "name": "8ae2d64781c75dec764d31a3e432266a"}, {"bike_id": "26ddc1a39ce88ba1f6b9413102272cd7", "type": "electric_scooter", "is_disabled": 0, "lat": 38.91189116666666, "rental_uris": {"ios": "https://dc.lft.to/lastmile_qr_scan", "android": "https://dc.lft.to/lastmile_qr_scan"}, "is_reserved": 0, "fusion_lon": 0.0, "fusion_lat": 0.0, "lon": -77.02343483333334, "name": "26ddc1a39ce88ba1f6b9413102272cd7"}, {"bike_id": "8fa4a98813e9c5376f066e5dd7613eb2", "type": "electric_scooter", "is_disabled": 0, "lat": 38.90248666666667, "rental_uris": {"ios": "https://dc.lft.to/lastmile_qr_scan", "android": "https://dc.lft.to/lastmile_qr_scan"}, "is_reserved": 0, "fusion_lon": 0.0, "fusion_lat": 0.0, "lon": -77.03459983333333, "name": "8fa4a98813e9c5376f066e5dd7613eb2"}, {"bike_id": "06a87c2dadcc7241cb7ab6c458dfa3b1", "type": "electric_scooter", "is_disabled": 0, "lat": 38.918609833333335, "rental_uris": {"ios": "https://dc.lft.to/lastmile_qr_scan", "android": "https://dc.lft.to/lastmile_qr_scan"}, "is_reserved": 0, "fusion_lon": 0.0, "fusion_lat": 0.0, "lon": -77.04153616666666, "name": "06a87c2dadcc7241cb7ab6c458dfa3b1"}, {"bike_id": "26b8c92bb6cee31bdf90d1552da580a7", "type": "electric_scooter", "is_disabled": 0, "lat": 38.88048416666667, "rental_uris": {"ios": "https://dc.lft.to/lastmile_qr_scan", "android": "https://dc.lft.to/lastmile_qr_scan"}, "is_reserved": 0, "fusion_lon": 0.0, "fusion_lat": 0.0, "lon": -77.00546916666667, "name": "26b8c92bb6cee31bdf90d1552da580a7"}, {"bike_id": "0bf01147768b5805dfe7ede38258ac8a", "type": "electric_scooter", "is_disabled": 0, "lat": 38.9205665, "rental_uris": {"ios": "https://dc.lft.to/lastmile_qr_scan", "android": "https://dc.lft.to/lastmile_qr_scan"}, "is_reserved": 0, "fusion_lon": 0.0, "fusion_lat": 0.0, "lon": -77.04189983333333, "name": "0bf01147768b5805dfe7ede38258ac8a"}, {"bike_id": "39a434d60addb6ee297b7bc7d0d4b233", "type": "electric_scooter", "is_disabled": 0, "lat": 38.90190616666667, "rental_uris": {"ios": "https://dc.lft.to/lastmile_qr_scan", "android": "https://dc.lft.to/lastmile_qr_scan"},