{"data": {"bikes": [{"name": "571bfb02361b4d5ca42139020c8946ee", "is_disabled": 0, "fusion_lat": 0.0, "fusion_lon": 0.0, "type": "electric_scooter", "lat": 38.89176966666667, "bike_id": "571bfb02361b4d5ca42139020c8946ee", "is_reserved": 0, "lon": -76.9119575, "rental_uris": {"android": "https://dc.lft.to/lastmile_qr_scan", "ios": "https://dc.lft.to/lastmile_qr_scan"}}, {"name": "58f0d72e02fd725eb59fa1312da78539", "is_disabled": 0, "fusion_lat": 0.0, "fusion_lon": 0.0, "type": "electric_scooter", "lat": 38.901209, "bike_id": "58f0d72e02fd725eb59fa1312da78539", "is_reserved": 0, "lon": -77.0436075, "rental_uris": {"android": "https://dc.lft.to/lastmile_qr_scan", "ios": "https://dc.lft.to/lastmile_qr_scan"}}, {"name": "96bdc943289876904c9fc6a79dc7f14d", "is_disabled": 0, "fusion_lat": 0.0, "fusion_lon": 0.0, "type": "electric_scooter", "lat": 38.9204515, "bike_id": "96bdc943289876904c9fc6a79dc7f14d", "is_reserved": 0, "lon": -77.025781, "rental_uris": {"android": "https://dc.lft.to/lastmile_qr_scan", "ios": "https://dc.lft.to/lastmile_qr_scan"}}, {"name": "0d5efe3f9703101dad1f2e0609e0ea2e", "is_disabled": 0, "fusion_lat": 0.0, "fusion_lon": 0.0, "type": "electric_scooter", "lat": 38.914609, "bike_id": "0d5efe3f9703101dad1f2e0609e0ea2e", "is_reserved": 0, "lon": -77.02092533333334, "rental_uris": {"android": "https://dc.lft.to/lastmile_qr_scan", "ios": "https://dc.lft.to/lastmile_qr_scan"}}, {"name": "43d54f641eae0abe164819121265c599", "is_disabled": 0, "fusion_lat": 0.0, "fusion_lon": 0.0, "type": "electric_scooter", "lat": 38.9127995, "bike_id": "43d54f641eae0abe164819121265c599", "is_reserved": 0, "lon": -77.04507433333333, "rental_uris": {"android": "https://dc.lft.to/lastmile_qr_scan", "ios": "https://dc.lft.to/lastmile_qr_scan"}}, {"name": "e348577b408e15cc193ba15a36dead15", "is_disabled": 0, "fusion_lat": 0.0, "fusion_lon": 0.0, "type": "electric_scooter", "lat": 38.871687333333334, "bike_id": "e348577b408e15cc193ba15a36dead15", "is_reserved": 0, "lon": -76.977445, "rental_uris": {"android": "https://dc.lft.to/lastmile_qr_scan", "ios": "https://dc.lft.to/lastmile_qr_scan"}}, {"name": "488feee01f7e5ced8dc0f4dabe715f11", "is_disabled": 0, "fusion_lat": 0.0, "fusion_lon": 0.0, "type": "electric_scooter", "lat": 38.919108666666666, "bike_id": "488feee01f7e5ced8dc0f4dabe715f11", "is_reserved": 0, "lon": -77.02440133333333, "rental_uris": {"android": "https://dc.lft.to/lastmile_qr_scan", "ios": "https://dc.lft.to/lastmile_qr_scan"}}, {"name": "d386478fa580364adf9ad4e9cc496335", "is_disabled": 0, "fusion_lat": 0.0, "fusion_lon": 0.0, "type": "electric_scooter", "lat": 38.909647666666665, "bike_id": "d386478fa580364adf9ad4e9cc496335", "is_reserved": 0, "lon": -77.034148, "rental_uris": {"android": "https://dc.lft.to/lastmile_qr_scan", "ios": "https://dc.lft.to/lastmile_qr_scan"}}, {"name": "68585a786f16ab352576558a18506dfd", "is_disabled": 0, "fusion_lat": 0.0, "fusion_lon": 0.0, "type": "electric_scooter", "lat": 38.9210085, "bike_id": "68585a786f16ab352576558a18506dfd", "is_reserved": 0, "lon": -77.0220725, "rental_uris": {"android": "https://dc.lft.to/lastmile_qr_scan", "ios": "https://dc.lft.to/lastmile_qr_scan"}}, {"name": "9b88b98c00c23129db1d93eb85072f04", "is_disabled": 0, "fusion_lat": 0.0, "fusion_lon": 0.0, "type": "electric_scooter", "lat": 38.92228383333333, "bike_id": "9b88b98c00c23129db1d93eb85072f04", "is_reserved": 0, "lon": -77.04490616666666, "rental_uris": {"android": "https://dc.lft.to/lastmile_qr_scan", "ios": "https://dc.lft.to/lastmile_qr_scan"}}, {"name": "b015d11ceab4b9944d1778199ff7dac1", "is_disabled": 0, "fusion_lat": 0.0, "fusion_lon": 0.0, "type": "electric_scooter", "lat": 38.88487083333333, "bike_id": "b015d11ceab4b9944d1778199ff7dac1", "is_reserved": 0, "lon": -77.00710133333334, "rental_uris": {"android": "https://dc.lft.to/lastmile_qr_scan", "ios": "https://dc.lft.to/lastmile_qr_scan"}}, {"name": "240317e4e92d40c54bc73cded168fbe9", "is_disabled": 0, "fusion_lat": 0.0, "fusion_lon": 0.0, "type": "electric_scooter", "lat": 38.893627333333335, "bike_id": "240317e4e92d40c54bc73cded168fbe9", "is_reserved": 0, "lon": -77.04787416666667, "rental_uris": {"android": "https://dc.lft.to/lastmile_qr_scan", "ios": "https://dc.lft.to/lastmile_qr_scan"}}, {"name": "a29b4fb0c2ef4d642915fb6e6f4a5c7f", "is_disabled": 0, "fusion_lat": 0.0, "fusion_lon": 0.0, "type": "electric_scooter", "lat": 38.92028833333333, "bike_id": "a29b4fb0c2ef4d642915fb6e6f4a5c7f", "is_reserved": 0, "lon": -76.984859, "rental_uris": {"android": "https://dc.lft.to/lastmile_qr_scan", "ios": "https://dc.lft.to/lastmile_qr_scan"}}, {"name": "a998e477a271b404ea09ff09006c4916", "is_disabled": 0, "fusion_lat": 0.0, "fusion_lon": 0.0, "type": "electric_scooter", "lat": 38.88301666666667, "bike_id": "a998e477a271b404ea09ff09006c4916", "is_reserved": 0, "lon": -77.03145533333333, "rental_uris": {"android": "https://dc.lft.to/lastmile_qr_scan", "ios": "https://dc.lft.to/lastmile_qr_scan"}}, {"name": "277b84ed1bffd8b1dfa4350c1d997dc6", "is_disabled": 0, "fusion_lat": 0.0, "fusion_lon": 0.0, "type": "electric_scooter", "lat": 38.9226965, "bike_id": "277b84ed1bffd8b1dfa4350c1d997dc6", "is_reserved": 0, "lon": -77.018244, "rental_uris": {"android": "https://dc.lft.to/lastmile_qr_scan", "ios": "https://dc.lft.to/lastmile_qr_scan"}}, {"name": "e84d07a96bb3c1ba09dc05d0f3e86c95", "is_disabled": 0, "fusion_lat": 0.0, "fusion_lon": 0.0, "type": "electric_scooter", "lat": 38.95484966666667, "bike_id": "e84d07a96bb3c1ba09dc05d0f3e86c95", "is_reserved": 0, "lon": -76.98874716666667, "rental_uris": {"android": "https://dc.lft.to/lastmile_qr_scan", "ios": "https://dc.lft.to/lastmile_qr_scan"}}, {"name": "258f08d71e5d9245bdcff618536203d9", "is_disabled": 0, "fusion_lat": 0.0, "fusion_lon": 0.0, "type": "electric_scooter", "lat": 38.913938333333334, "bike_id": "258f08d71e5d9245bdcff618536203d9", "is_reserved": 0, "lon": -77.02180966666667, "rental_uris": {"android": "https://dc.lft.to/lastmile_qr_scan", "ios": "https://dc.lft.to/lastmile_qr_scan"}}, {"name": "012feba76a82b9071faf8e7346b637b5", "is_disabled": 0, "fusion_lat": 0.0, "fusion_lon": 0.0, "type": "electric_scooter", "lat": 38.89603783333333, "bike_id": "012feba76a82b9071faf8e7346b637b5", "is_reserved": 0, "lon": -77.0297715, "rental_uris": {"android": "https://dc.lft.to/lastmile_qr_scan", "ios": "https://dc.lft.to/lastmile_qr_scan"}}, {"name": "cf44521511547b46f06e8e7951556db2", "is_disabled": 0, "fusion_lat": 0.0, "fusion_lon": 0.0, "type": "electric_scooter", "lat": 38.918176833333334, "bike_id": "cf44521511547b46f06e8e7951556db2", "is_reserved": 0, "lon": -77.02584166666666, "rental_uris": {"android": "https://dc.lft.to/lastmile_qr_scan", "ios": "https://dc.lft.to/lastmile_qr_scan"}}, {"name": "9df10836235a9a1f7e42148e09d15d30", "is_disabled": 0, "fusion_lat": 0.0, "fusion_lon": 0.0, "type": "electric_scooter", "lat": 38.897492, "bike_id": "9df10836235a9a1f7e42148e09d15d30", "is_reserved": 0, "lon": -77.033025, "rental_uris": {"android": "https://dc.lft.to/lastmile_qr_scan", "ios": "https://dc.lft.to/lastmile_qr_scan"}}, {"name": "6a93879f83d616d75da81f940716621d", "is_disabled": 0, "fusion_lat": 0.0, "fusion_lon": 0.0, "type": "electric_scooter", "lat": 38.93822016666667, "bike_id": "6a93879f83d616d75da81f940716621d", "is_reserved": 0, "lon": -77.03388633333333, "rental_uris": {"android": "https://dc.lft.to/lastmile_qr_scan", "ios": "https://dc.lft.to/lastmile_qr_scan"}}, {"name": "4f9ace4d94e21f926cabfdc974834d47", "is_disabled": 0, "fusion_lat": 0.0, "fusion_lon": 0.0, "type": "electric_scooter", "lat": 38.89217166666667, "bike_id": "4f9ace4d94e21f926cabfdc974834d47", "is_reserved": 0, "lon": -77.02345716666666, "rental_uris": {"android": "https://dc.lft.to/lastmile_qr_scan", "ios": "https://dc.lft.to/lastmile_qr_scan"}}, {"name": "615027dc6231508a5b824e0afda4411b", "is_disabled": 0, "fusion_lat": 0.0, "fusion_lon": 0.0, "type": "electric_scooter", "lat": 38.921807, "bike_id": "615027dc6231508a5b824e0afda4411b", "is_reserved": 0, "lon": -77.0266385, "rental_uris": {"android": "https://dc.lft.to/lastmile_qr_scan", "ios": "https://dc.lft.to/lastmile_qr_scan"}}, {"name": "e83b93a048f3aba1dd3795d8ae933a07", "is_disabled": 0, "fusion_lat": 0.0, "fusion_lon": 0.0, "type": "electric_scooter", "lat": 38.9251095, "bike_id": "e83b93a048f3aba1dd3795d8ae933a07", "is_reserved": 0, "lon": -77.038666, "rental_uris": {"android": "https://dc.lft.to/lastmile_qr_scan", "ios": "https://dc.lft.to/lastmile_qr_scan"}}, {"name": "aca151a466046e87ab7cca3e5674545e", "is_disabled": 0, "fusion_lat": 0.0, "fusion_lon": 0.0, "type": "electric_bike", "lat": 38.938097166666665, "bike_id": "aca151a466046e87ab7cca3e5674545e", "is_reserved": 0, "lon": -77.068591, "rental_uris": {"android": "https://dc.lft.to/lastmile_qr_scan", "ios": "https://dc.lft.to/lastmile_qr_scan"}}, {"name": "bde458fb7c571dfcb37a8c2e26c5845a", "is_disabled": 0, "fusion_lat": 0.0, "fusion_lon": 0.0, "type": "electric_scooter", "lat": 38.930835, "bike_id": "bde458fb7c571dfcb37a8c2e26c5845a", "is_reserved": 0, "lon": -76.99608833333333, "rental_uris": {"android": "https://dc.lft.to/lastmile_qr_scan", "ios": "https://dc.lft.to/lastmile_qr_scan"}}, {"name": "9ec6ada619d544ba640574a222b1bc1f", "is_disabled": 0, "fusion_lat": 0.0, "fusion_lon": 0.0, "type": "electric_scooter", "lat": 38.92478083333334, "bike_id": "9ec6ada619d544ba640574a222b1bc1f", "is_reserved": 0, "lon": -77.03912583333333, "rental_uris": {"android": "https://dc.lft.to/lastmile_qr_scan", "ios": "https://dc.lft.to/lastmile_qr_scan"}}, {"name": "cec435aa02d4035fe704f4f919e4e4db", "is_disabled": 0, "fusion_lat": 0.0, "fusion_lon": 0.0, "type": "electric_scooter", "lat": 38.916966333333335, "bike_id": "cec435aa02d4035fe704f4f919e4e4db", "is_reserved": 0, "lon": -77.0376485, "rental_uris": {"android": "https://dc.lft.to/lastmile_qr_scan", "ios": "https://dc.lft.to/lastmile_qr_scan"}}, {"name": "6ef3a8563e0818899c8a1170399378b1", "is_disabled": 0, "fusion_lat": 0.0, "fusion_lon": 0.0, "type": "electric_scooter", "lat": 38.876463, "bike_id": "6ef3a8563e0818899c8a1170399378b1", "is_reserved": 0, "lon": -77.01945866666667, "rental_uris": {"android": "https://dc.lft.to/lastmile_qr_scan", "ios": "https://dc.lft.to/lastmile_qr_scan"}}, {"name": "e303eaf7de97f9cce54419292d09167a", "is_disabled": 0, "fusion_lat": 0.0, "fusion_lon": 0.0, "type": "electric_scooter", "lat": 38.894720666666664, "bike_id": "e303eaf7de97f9cce54419292d09167a", "is_reserved": 0, "lon": -77.02259466666666, "rental_uris": {"android": "https://dc.lft.to/lastmile_qr_scan", "ios": "https://dc.lft.to/lastmile_qr_scan"}}, {"name": "25a74749fb3b67f5618d70da8024ffeb", "is_disabled": 0, "fusion_lat": 0.0, "fusion_lon": 0.0, "type": "electric_bike", "lat": 38.96960216666667, "bike_id": "25a74749fb3b67f5618d70da8024ffeb", "is_reserved": 0, "lon": -76.9575065, "rental_uris": {"android": "https://dc.lft.to/lastmile_qr_scan", "ios": "https://dc.lft.to/lastmile_qr_scan"}}, {"name": "305ff53c4e30efe47076b864410889d5", "is_disabled": 0, "fusion_lat": 0.0, "fusion_lon": 0.0, "type": "electric_scooter", "lat": 38.92482183333333, "bike_id": "305ff53c4e30efe47076b864410889d5", "is_reserved": 0, "lon": -77.02724716666667, "rental_uris": {"android": "https://dc.lft.to/lastmile_qr_scan", "ios": "https://dc.lft.to/lastmile_qr_scan"}}, {"name": "c6d3c96a117c070dd6cd630be290c793", "is_disabled": 0, "fusion_lat": 0.0, "fusion_lon": 0.0, "type": "electric_scooter", "lat": 38.905026666666664, "bike_id": "c6d3c96a117c070dd6cd630be290c793", "is_reserved": 0, "lon": -77.046645, "rental_uris": {"android": "https://dc.lft.to/lastmile_qr_scan", "ios": "https://dc.lft.to/lastmile_qr_scan"}}, {"name": "243b23f040ac575b048b99a407dbec26", "is_disabled": 0, "fusion_lat": 0.0, "fusion_lon": 0.0, "type": "electric_scooter", "lat": 38.9234295, "bike_id": "243b23f040ac575b048b99a407dbec26", "is_reserved": 0, "lon": -77.033968, "rental_uris": {"android": "https://dc.lft.to/lastmile_qr_scan", "ios": "https://dc.lft.to/lastmile_qr_scan"}}, {"name": "9fb3651a51cf6caca95f83021ece3481", "is_disabled": 0, "fusion_lat": 0.0, "fusion_lon": 0.0, "type": "electric_scooter", "lat": 38.934266, "bike_id": "9fb3651a51cf6caca95f83021ece3481", "is_reserved": 0, "lon": -77.04001733333334, "rental_uris": {"android": "https://dc.lft.to/lastmile_qr_scan", "ios": "https://dc.lft.to/lastmile_qr_scan"}}, {"name": "267ffabec12e6ce965bbd6a1e80fcc85", "is_disabled": 0, "fusion_lat": 0.0, "fusion_lon": 0.0, "type": "electric_scooter", "lat": 38.8922525, "bike_id": "267ffabec12e6ce965bbd6a1e80fcc85", "is_reserved": 0, "lon": -77.04504066666667, "rental_uris": {"android": "https://dc.lft.to/lastmile_qr_scan", "ios": "https://dc.lft.to/lastmile_qr_scan"}}, {"name": "ca4bee43a9e9f228868dfbece2b04aa0", "is_disabled": 0, "fusion_lat": 0.0, "fusion_lon": 0.0, "type": "electric_scooter", "lat": 38.90750383333334, "bike_id": "ca4bee43a9e9f228868dfbece2b04aa0", "is_reserved": 0, "lon": -77.04552066666666, "rental_uris": {"android": "https://dc.lft.to/lastmile_qr_scan", "ios": "https://dc.lft.to/lastmile_qr_scan"}}, {"name": "39aa3dfd57ecc42b8458eb0de5a4d5fb", "is_disabled": 0, "fusion_lat": 0.0, "fusion_lon": 0.0, "type": "electric_scooter", "lat": 38.904758, "bike_id": "39aa3dfd57ecc42b8458eb0de5a4d5fb", "is_reserved": 0, "lon": -77.035512, "rental_uris": {"android": "https://dc.lft.to/lastmile_qr_scan", "ios": "https://dc.lft.to/lastmile_qr_scan"}}, {"name": "47b38b3d356945d657eb04c256640078", "is_disabled": 0, "fusion_lat": 0.0, "fusion_lon": 0.0, "type": "electric_scooter", "lat": 38.902293, "bike_id": "47b38b3d356945d657eb04c256640078", "is_reserved": 0, "lon": -76.9892815, "rental_uris": {"android": "https://dc.lft.to/lastmile_qr_scan", "ios": "https://dc.lft.to/lastmile_qr_scan"}}, {"name": "df9a46cf3ee296b970a3ac4584284bae", "is_disabled": 0, "fusion_lat": 0.0, "fusion_lon": 0.0, "type": "electric_scooter", "lat": 38.95524183333333, "bike_id": "df9a46cf3ee296b970a3ac4584284bae", "is_reserved": 0, "lon": -77.02216616666666, "rental_uris": {"android": "https://dc.lft.to/lastmile_qr_scan", "ios": "https://dc.lft.to/lastmile_qr_scan"}}, {"name": "fb9cafa55b78f694cd135cb86b7889b1", "is_disabled": 0, "fusion_lat": 0.0, "fusion_lon": 0.0, "type": "electric_scooter", "lat": 38.903957166666665, "bike_id": "fb9cafa55b78f694cd135cb86b7889b1", "is_reserved": 0, "lon": -77.03840683333334, "rental_uris": {"android": "https://dc.lft.to/lastmile_qr_scan", "ios": "https://dc.lft.to/lastmile_qr_scan"}}, {"name": "9eae3fe37e88a2fb0926dff7d8da7f74", "is_disabled": 0, "fusion_lat": 0.0, "fusion_lon": 0.0, "type": "electric_scooter", "lat": 38.900267666666664, "bike_id": "9eae3fe37e88a2fb0926dff7d8da7f74", "is_reserved": 0, "lon": -77.00301466666667, "rental_uris": {"android": "https://dc.lft.to/lastmile_qr_scan", "ios": "https://dc.lft.to/lastmile_qr_scan"}}, {"name": "a613fa4d6089d1b90e3ba9a906f12fd9", "is_disabled": 0, "fusion_lat": 0.0, "fusion_lon": 0.0, "type": "electric_scooter", "lat": 38.9024625, "bike_id": "a613fa4d6089d1b90e3ba9a906f12fd9", "is_reserved": 0, "lon": -77.03890783333334, "rental_uris": {"android": "https://dc.lft.to/lastmile_qr_scan", "ios": "https://dc.lft.to/lastmile_qr_scan"}}, {"name": "21df230a9fdf81e0eafa9ac68dc9b585", "is_disabled": 0, "fusion_lat": 0.0, "fusion_lon": 0.0, "type": "electric_scooter", "lat": 38.90418566666666, "bike_id": "21df230a9fdf81e0eafa9ac68dc9b585", "is_reserved": 0, "lon": -77.03456416666667, "rental_uris": {"android": "https://dc.lft.to/lastmile_qr_scan", "ios": "https://dc.lft.to/lastmile_qr_scan"}}, {"name": "96906f05ae1d1d0d1c7f82b8f04ae922", "is_disabled": 0, "fusion_lat": 0.0, "fusion_lon": 0.0, "type": "electric_scooter", "lat": 38.915365333333334, "bike_id": "96906f05ae1d1d0d1c7f82b8f04ae922", "is_reserved": 0, "lon": -77.03644633333333, "rental_uris": {"android": "https://dc.lft.to/lastmile_qr_scan", "ios": "https://dc.lft.to/lastmile_qr_scan"}}, {"name": "5a471a16e97f8da295535cd9feeea764", "is_disabled": 0, "fusion_lat": 0.0, "fusion_lon": 0.0, "type": "electric_scooter", "lat": 38.91439716666667, "bike_id": "5a471a16e97f8da295535cd9feeea764", "is_reserved": 0, "lon": -77.02202783333334, "rental_uris": {"android": "https://dc.lft.to/lastmile_qr_scan", "ios": "https://dc.lft.to/lastmile_qr_scan"}}, {"name": "076b3061780767c6bbf05ed70e9bccaa", "is_disabled": 0, "fusion_lat": 0.0, "fusion_lon": 0.0, "type": "electric_scooter", "lat": 38.898557833333335, "bike_id": "076b3061780767c6bbf05ed70e9bccaa", "is_reserved": 0, "lon": -76.9901385, "rental_uris": {"android": "https://dc.lft.to/lastmile_qr_scan", "ios": "https://dc.lft.to/lastmile_qr_scan"}}, {"name": "a8b5a68900b1b7226a6872b7623bf041", "is_disabled": 0, "fusion_lat": 0.0, "fusion_lon": 0.0, "type": "electric_scooter", "lat": 38.88492016666667, "bike_id": "a8b5a68900b1b7226a6872b7623bf041", "is_reserved": 0, "lon": -77.0071165, "rental_uris": {"android": "https://dc.lft.to/lastmile_qr_scan", "ios": "https://dc.lft.to/lastmile_qr_scan"}}, {"name": "5b0751ddcda3ab44795854242c74b245", "is_disabled": 0, "fusion_lat": 0.0, "fusion_lon": 0.0, "type": "electric_scooter", "lat": 38.892198, "bike_id": "5b0751ddcda3ab44795854242c74b245", "is_reserved": 0, "lon": -77.04308166666667, "rental_uris": {"android": "https://dc.lft.to/lastmile_qr_scan", "ios": "https://dc.lft.to/lastmile_qr_scan"}}, {"name": "3117a3abdabecda462fc747dcfe283c7", "is_disabled": 0, "fusion_lat": 0.0, "fusion_lon": 0.0, "type": "electric_scooter", "lat": 38.914872333333335, "bike_id": "3117a3abdabecda462fc747dcfe283c7", "is_reserved": 0, "lon": -77.04156033333334, "rental_uris": {"android": "https://dc.lft.to/lastmile_qr_scan", "ios": "https://dc.lft.to/lastmile_qr_scan"}}, {"name": "e43ce044053de867a1100fada6f68bd0", "is_disabled": 0, "fusion_lat": 0.0, "fusion_lon": 0.0, "type": "electric_scooter", "lat": 38.903644, "bike_id": "e43ce044053de867a1100fada6f68bd0", "is_reserved": 0, "lon": -77.04574016666666, "rental_uris": {"android": "https://dc.lft.to/lastmile_qr_scan", "ios": "https://dc.lft.to/lastmile_qr_scan"}}, {"name": "ace496bae3270cc2f1b7ff3deb4ed22d", "is_disabled": 0, "fusion_lat": 0.0, "fusion_lon": 0.0, "type": "electric_scooter", "lat": 38.9072915, "bike_id": "ace496bae3270cc2f1b7ff3deb4ed22d", "is_reserved": 0, "lon": -77.0030505, "rental_uris": {"android": "https://dc.lft.to/lastmile_qr_scan", "ios": "https://dc.lft.to/lastmile_qr_scan"}}, {"name": "b57eaf20348fd47e74bfe637f5a09278", "is_disabled": 0, "fusion_lat": 0.0, "fusion_lon": 0.0, "type": "electric_scooter", "lat": 38.879915, "bike_id": "b57eaf20348fd47e74bfe637f5a09278", "is_reserved": 0, "lon": -77.02409583333333, "rental_uris": {"android": "https://dc.lft.to/lastmile_qr_scan", "ios": "https://dc.lft.to/lastmile_qr_scan"}}, {"name": "c9f4a837cc4e5faba77d58095ab54358", "is_disabled": 0, "fusion_lat": 0.0, "fusion_lon": 0.0, "type": "electric_scooter", "lat": 38.908510166666666, "bike_id": "c9f4a837cc4e5faba77d58095ab54358", "is_reserved": 0, "lon": -77.04271433333334, "rental_uris": {"android": "https://dc.lft.to/lastmile_qr_scan", "ios": "https://dc.lft.to/lastmile_qr_scan"}}, {"name": "fa80ad86d96cc3aaccc2fb6414262b9c", "is_disabled": 0, "fusion_lat": 0.0, "fusion_lon": 0.0, "type": "electric_bike", "lat": 38.92890283333333, "bike_id": "fa80ad86d96cc3aaccc2fb6414262b9c", "is_reserved": 0, "lon": -77.03258883333334, "rental_uris": {"android": "https://dc.lft.to/lastmile_qr_scan", "ios": "https://dc.lft.to/lastmile_qr_scan"}}, {"name": "78c495439b280010939802e6ef7c1112", "is_disabled": 0, "fusion_lat": 0.0, "fusion_lon": 0.0, "type": "electric_scooter", "lat": 38.88057166666667, "bike_id": "78c495439b280010939802e6ef7c1112", "is_reserved": 0, "lon": -76.93216416666667, "rental_uris": {"android": "https://dc.lft.to/lastmile_qr_scan", "ios": "https://dc.lft.to/lastmile_qr_scan"}}, {"name": "a8a5a2b8f5c31086ca743452344e0821", "is_disabled": 0, "fusion_lat": 0.0, "fusion_lon": 0.0, "type": "electric_scooter", "lat": 38.90311283333333, "bike_id": "a8a5a2b8f5c31086ca743452344e0821", "is_reserved": 0, "lon": -77.01915266666667, "rental_uris": {"android": "https://dc.lft.to/lastmile_qr_scan", "ios": "https://dc.lft.to/lastmile_qr_scan"}}, {"name": "d346bd21bb1cc10ca7546774ca847172", "is_disabled": 0, "fusion_lat": 0.0, "fusion_lon": 0.0, "type": "electric_scooter", "lat": 38.8921825, "bike_id": "d346bd21bb1cc10ca7546774ca847172", "is_reserved": 0, "lon": -77.022279, "rental_uris": {"android": "https://dc.lft.to/lastmile_qr_scan", "ios": "https://dc.lft.to/lastmile_qr_scan"}}, {"name": "28266712e4fa3f7db9e613238bb7ea89", "is_disabled": 0, "fusion_lat": 0.0, "fusion_lon": 0.0, "type": "electric_scooter", "lat": 38.89730483333334, "bike_id": "28266712e4fa3f7db9e613238bb7ea89", "is_reserved": 0, "lon": -77.007514, "rental_uris": {"android": "https://dc.lft.to/lastmile_qr_scan", "ios": "https://dc.lft.to/lastmile_qr_scan"}}, {"name": "116292c72d02f7e47be7d6461fd13bd7", "is_disabled": 0, "fusion_lat": 0.0, "fusion_lon": 0.0, "type": "electric_scooter", "lat": 38.89498316666667, "bike_id": "116292c72d02f7e47be7d6461fd13bd7", "is_reserved": 0, "lon": -77.027449, "rental_uris": {"android": "https://dc.lft.to/lastmile_qr_scan", "ios": "https://dc.lft.to/lastmile_qr_scan"}}, {"name": "7d9e39b65a8c9311b5dd278bec758205", "is_disabled": 0, "fusion_lat": 0.0, "fusion_lon": 0.0, "type": "electric_scooter", "lat": 38.92038683333333, "bike_id": "7d9e39b65a8c9311b5dd278bec758205", "is_reserved": 0, "lon": -77.02199516666667, "rental_uris": {"android": "https://dc.lft.to/lastmile_qr_scan", "ios": "https://dc.lft.to/lastmile_qr_scan"}}, {"name": "32c0c08b37b312e4e9a806e2f16e2c56", "is_disabled": 0, "fusion_lat": 0.0, "fusion_lon": 0.0, "type": "electric_scooter", "lat": 38.892352833333334, "bike_id": "32c0c08b37b312e4e9a806e2f16e2c56", "is_reserved": 0, "lon": -77.03208566666666, "rental_uris": {"android": "https://dc.lft.to/lastmile_qr_scan", "ios": "https://dc.lft.to/lastmile_qr_scan"}}, {"name": "41198a4dec107083c7021f0095a2e13e", "is_disabled": 0, "fusion_lat": 0.0, "fusion_lon": 0.0, "type": "electric_scooter", "lat": 38.91889333333334, "bike_id": "41198a4dec107083c7021f0095a2e13e", "is_reserved": 0, "lon": -77.048301, "rental_uris": {"android": "https://dc.lft.to/lastmile_qr_scan", "ios": "https://dc.lft.to/lastmile_qr_scan"}}, {"name": "29d72c9b9190367285ea4606d22d1b9a", "is_disabled": 0, "fusion_lat": 0.0, "fusion_lon": 0.0, "type": "electric_scooter", "lat": 38.967812, "bike_id": "29d72c9b9190367285ea4606d22d1b9a", "is_reserved": 0, "lon": -77.0151365, "rental_uris": {"android": "https://dc.lft.to/lastmile_qr_scan", "ios": "https://dc.lft.to/lastmile_qr_scan"}}, {"name": "988273add2d38dd1d09b41c4ea163135", "is_disabled": 0, "fusion_lat": 0.0, "fusion_lon": 0.0, "type": "electric_scooter", "lat": 38.906972, "bike_id": "988273add2d38dd1d09b41c4ea163135", "is_reserved": 0, "lon": -77.00597316666666, "rental_uris": {"android": "https://dc.lft.to/lastmile_qr_scan", "ios": "https://dc.lft.to/lastmile_qr_scan"}}, {"name": "0568db36962dd9a16a2d54029ee3fc8c", "is_disabled": 0, "fusion_lat": 0.0, "fusion_lon": 0.0, "type": "electric_bike", "lat": 38.928920833333336, "bike_id": "0568db36962dd9a16a2d54029ee3fc8c", "is_reserved": 0, "lon": -77.08399283333334, "rental_uris": {"android": "https://dc.lft.to/lastmile_qr_scan", "ios": "https://dc.lft.to/lastmile_qr_scan"}}, {"name": "68842921a3f81bb4ef15af826841ad4d", "is_disabled": 0, "fusion_lat": 0.0, "fusion_lon": 0.0, "type": "electric_bike", "lat": 38.8963075, "bike_id": "68842921a3f81bb4ef15af826841ad4d", "is_reserved": 0, "lon": -76.90728833333333, "rental_uris": {"android": "https://dc.lft.to/lastmile_qr_scan", "ios": "https://dc.lft.to/lastmile_qr_scan"}}, {"name": "f7e3bc3caa5c6cc331e5fa1bf63ace7d", "is_disabled": 0, "fusion_lat": 0.0, "fusion_lon": 0.0, "type": "electric_scooter", "lat": 38.89740066666667, "bike_id": "f7e3bc3caa5c6cc331e5fa1bf63ace7d", "is_reserved": 0, "lon": -77.0334825, "rental_uris": {"android": "https://dc.lft.to/lastmile_qr_scan", "ios": "https://dc.lft.to/lastmile_qr_scan"}}, {"name": "c247db12ae7e404755efac6209e5ad22", "is_disabled": 0, "fusion_lat": 0.0, "fusion_lon": 0.0, "type": "electric_scooter", "lat": 38.918243, "bike_id": "c247db12ae7e404755efac6209e5ad22", "is_reserved": 0, "lon": -77.0345435, "rental_uris": {"android": "https://dc.lft.to/lastmile_qr_scan", "ios": "https://dc.lft.to/lastmile_qr_scan"}}, {"name": "1c0dc96752aed933b6b2e94a72adf02e", "is_disabled": 0, "fusion_lat": 0.0, "fusion_lon": 0.0, "type": "electric_scooter", "lat": 38.895075166666665, "bike_id": "1c0dc96752aed933b6b2e94a72adf02e", "is_reserved": 0, "lon": -77.04677649999999, "rental_uris": {"android": "https://dc.lft.to/lastmile_qr_scan", "ios": "https://dc.lft.to/lastmile_qr_scan"}}, {"name": "680873182756946d40188ee71c2127c0", "is_disabled": 0, "fusion_lat": 0.0, "fusion_lon": 0.0, "type": "electric_scooter", "lat": 38.90283733333333, "bike_id": "680873182756946d40188ee71c2127c0", "is_reserved": 0, "lon": -77.03650733333333, "rental_uris": {"android": "https://dc.lft.to/lastmile_qr_scan", "ios": "https://dc.lft.to/lastmile_qr_scan"}}, {"name": "5dd674555b71ebb6fcf8c2653a0ef4d9", "is_disabled": 0, "fusion_lat": 0.0, "fusion_lon": 0.0, "type": "electric_scooter", "lat": 38.90049583333333, "bike_id": "5dd674555b71ebb6fcf8c2653a0ef4d9", "is_reserved": 0, "lon": -77.02916216666667, "rental_uris": {"android": "https://dc.lft.to/lastmile_qr_scan", "ios": "https://dc.lft.to/lastmile_qr_scan"}}, {"name": "a870e123e984ea7837c750072b3e1d68", "is_disabled": 0, "fusion_lat": 0.0, "fusion_lon": 0.0, "type": "electric_scooter", "lat": 38.885307166666664, "bike_id": "a870e123e984ea7837c750072b3e1d68", "is_reserved": 0, "lon": -76.982708, "rental_uris": {"android": "https://dc.lft.to/lastmile_qr_scan", "ios": "https://dc.lft.to/lastmile_qr_scan"}}, {"name": "9ff0f5aea2f060682f2b5e22ebaadb28", "is_disabled": 0, "fusion_lat": 0.0, "fusion_lon": 0.0, "type": "electric_scooter", "lat": 38.89731966666667, "bike_id": "9ff0f5aea2f060682f2b5e22ebaadb28", "is_reserved": 0, "lon": -77.05561183333333, "rental_uris": {"android": "https://dc.lft.to/lastmile_qr_scan", "ios": "https://dc.lft.to/lastmile_qr_scan"}}, {"name": "523265b1331cc4ccf074c4faa50c8def", "is_disabled": 0, "fusion_lat": 0.0, "fusion_lon": 0.0, "type": "electric_scooter", "lat": 38.907355, "bike_id": "523265b1331cc4ccf074c4faa50c8def", "is_reserved": 0, "lon": -77.02802366666667, "rental_uris": {"android": "https://dc.lft.to/lastmile_qr_scan", "ios": "https://dc.lft.to/lastmile_qr_scan"}}, {"name": "84a2a0b449d14714a28b00bdaef6a286", "is_disabled": 0, "fusion_lat": 0.0, "fusion_lon": 0.0, "type": "electric_scooter", "lat": 38.92273383333333, "bike_id": "84a2a0b449d14714a28b00bdaef6a286", "is_reserved": 0, "lon": -77.02187466666666, "rental_uris": {"android": "https://dc.lft.to/lastmile_qr_scan", "ios": "https://dc.lft.to/lastmile_qr_scan"}}, {"name": "f8f2be294d8cf75dfbebcdf5682253ff", "is_disabled": 0, "fusion_lat": 0.0, "fusion_lon": 0.0, "type": "electric_scooter", "lat": 38.92610883333333, "bike_id": "f8f2be294d8cf75dfbebcdf5682253ff", "is_reserved": 0, "lon": -77.02159716666667, "rental_uris": {"android": "https://dc.lft.to/lastmile_qr_scan", "ios": "https://dc.lft.to/lastmile_qr_scan"}}, {"name": "b25953096e0fe10a5db62dd0dadc1c29", "is_disabled": 0, "fusion_lat": 0.0, "fusion_lon": 0.0, "type": "electric_scooter", "lat": 38.902463166666664, "bike_id": "b25953096e0fe10a5db62dd0dadc1c29", "is_reserved": 0, "lon": -77.02687, "rental_uris": {"android": "https://dc.lft.to/lastmile_qr_scan", "ios": "https://dc.lft.to/lastmile_qr_scan"}}, {"name": "8162928d933e8d4c8465cb212fa8360c", "is_disabled": 0, "fusion_lat": 0.0, "fusion_lon": 0.0, "type": "electric_scooter", "lat": 38.9103295, "bike_id": "8162928d933e8d4c8465cb212fa8360c", "is_reserved": 0, "lon": -76.99341233333334, "rental_uris": {"android": "https://dc.lft.to/lastmile_qr_scan", "ios": "https://dc.lft.to/lastmile_qr_scan"}}, {"name": "15f69f30c2e9ae4c3ee30e898f8e0f32", "is_disabled": 0, "fusion_lat": 0.0, "fusion_lon": 0.0, "type": "electric_scooter", "lat": 38.901257, "bike_id": "15f69f30c2e9ae4c3ee30e898f8e0f32", "is_reserved": 0, "lon": -77.04023416666666, "rental_uris": {"android": "https://dc.lft.to/lastmile_qr_scan", "ios": "https://dc.lft.to/lastmile_qr_scan"}}, {"name": "c3ecf7346467a79a87302bdb8e0b4462", "is_disabled": 0, "fusion_lat": 0.0, "fusion_lon": 0.0, "type": "electric_scooter", "lat": 38.866985666666665, "bike_id": "c3ecf7346467a79a87302bdb8e0b4462", "is_reserved": 0, "lon": -76.98609316666666, "rental_uris": {"android": "https://dc.lft.to/lastmile_qr_scan", "ios": "https://dc.lft.to/lastmile_qr_scan"}}, {"name": "926d75c36e5d7e44a784d0550bd5ab3f", "is_disabled": 0, "fusion_lat": 0.0, "fusion_lon": 0.0, "type": "electric_bike", "lat": 38.83785983333333, "bike_id": "926d75c36e5d7e44a784d0550bd5ab3f", "is_reserved": 0, "lon": -76.9975065, "rental_uris": {"android": "https://dc.lft.to/lastmile_qr_scan", "ios": "https://dc.lft.to/lastmile_qr_scan"}}, {"name": "334125b941219c0e7978f9f4887a9051", "is_disabled": 0, "fusion_lat": 0.0, "fusion_lon": 0.0, "type": "electric_scooter", "lat": 38.915494833333334, "bike_id": "334125b941219c0e7978f9f4887a9051", "is_reserved": 0, "lon": -77.02369233333333, "rental_uris": {"android": "https://dc.lft.to/lastmile_qr_scan", "ios": "https://dc.lft.to/lastmile_qr_scan"}}, {"name": "d56d2402642b943b7edda0a9bcabbf85", "is_disabled": 0, "fusion_lat": 0.0, "fusion_lon": 0.0, "type": "electric_scooter", "lat": 38.900011, "bike_id": "d56d2402642b943b7edda0a9bcabbf85", "is_reserved": 0, "lon": -76.99842383333333, "rental_uris": {"android": "https://dc.lft.to/lastmile_qr_scan", "ios": "https://dc.lft.to/lastmile_qr_scan"}}, {"name": "1f223332daddab31544d4339f5027b8f", "is_disabled": 0, "fusion_lat": 0.0, "fusion_lon": 0.0, "type": "electric_scooter", "lat": 38.879515166666664, "bike_id": "1f223332daddab31544d4339f5027b8f", "is_reserved": 0, "lon": -77.00692433333333, "rental_uris": {"android": "https://dc.lft.to/lastmile_qr_scan", "ios": "https://dc.lft.to/lastmile_qr_scan"}}, {"name": "1e6ab568fe28607cd54f1cc236a9f7d6", "is_disabled": 0, "fusion_lat": 0.0, "fusion_lon": 0.0, "type": "electric_scooter", "lat": 38.90551816666667, "bike_id": "1e6ab568fe28607cd54f1cc236a9f7d6", "is_reserved": 0, "lon": -77.04189766666667, "rental_uris": {"android": "https://dc.lft.to/lastmile_qr_scan", "ios": "https://dc.lft.to/lastmile_qr_scan"}}, {"name": "244bef9a6ab799af745356d8c286797e", "is_disabled": 0, "fusion_lat": 0.0, "fusion_lon": 0.0, "type": "electric_scooter", "lat": 38.90377983333333, "bike_id": "244bef9a6ab799af745356d8c286797e", "is_reserved": 0, "lon": -77.04501766666667, "rental_uris": {"android": "https://dc.lft.to/lastmile_qr_scan", "ios": "https://dc.lft.to/lastmile_qr_scan"}}, {"name": "fb1d5776b3460a31956c861a603ea685", "is_disabled": 0, "fusion_lat": 0.0, "fusion_lon": 0.0, "type": "electric_scooter", "lat": 38.922586, "bike_id": "fb1d5776b3460a31956c861a603ea685", "is_reserved": 0, "lon": -77.018205, "rental_uris": {"android": "https://dc.lft.to/lastmile_qr_scan", "ios": "https://dc.lft.to/lastmile_qr_scan"}}, {"name": "489781cfc015a6b64469662f241e8781", "is_disabled": 0, "fusion_lat": 0.0, "fusion_lon": 0.0, "type": "electric_scooter", "lat": 38.92982466666667, "bike_id": "489781cfc015a6b64469662f241e8781", "is_reserved": 0, "lon": -77.0145335, "rental_uris": {"android": "https://dc.lft.to/lastmile_qr_scan", "ios": "https://dc.lft.to/lastmile_qr_scan"}}, {"name": "ae889dbb2e15f77e59a9ab95c3a84093", "is_disabled": 0, "fusion_lat": 0.0, "fusion_lon": 0.0, "type": "electric_scooter", "lat": 38.92400266666667, "bike_id": "ae889dbb2e15f77e59a9ab95c3a84093", "is_reserved": 0, "lon": -77.022606, "rental_uris": {"android": "https://dc.lft.to/lastmile_qr_scan", "ios": "https://dc.lft.to/lastmile_qr_scan"}}, {"name": "3c102c9655b8976b61fb552dee6371e9", "is_disabled": 0, "fusion_lat": 0.0, "fusion_lon": 0.0, "type": "electric_scooter", "lat": 38.910971, "bike_id": "3c102c9655b8976b61fb552dee6371e9", "is_reserved": 0, "lon": -77.04486133333333, "rental_uris": {"android": "https://dc.lft.to/lastmile_qr_scan", "ios": "https://dc.lft.to/lastmile_qr_scan"}}, {"name": "f2302aa2cbdef276a9aa694478d29c2e", "is_disabled": 0, "fusion_lat": 0.0, "fusion_lon": 0.0, "type": "electric_scooter", "lat": 38.88607283333333, "bike_id": "f2302aa2cbdef276a9aa694478d29c2e", "is_reserved": 0, "lon": -76.99511933333334, "rental_uris": {"android": "https://dc.lft.to/lastmile_qr_scan", "ios": "https://dc.lft.to/lastmile_qr_scan"}}, {"name": "542d6dd2f2a73eaec23c0e44e1613417", "is_disabled": 0, "fusion_lat": 0.0, "fusion_lon": 0.0, "type": "electric_bike", "lat": 38.967359333333334, "bike_id": "542d6dd2f2a73eaec23c0e44e1613417", "is_reserved": 0, "lon": -76.96042133333333, "rental_uris": {"android": "https://dc.lft.to/lastmile_qr_scan", "ios": "https://dc.lft.to/lastmile_qr_scan"}}, {"name": "09e1242a5af8e95a2e6f5fabd08b5ecb", "is_disabled": 0, "fusion_lat": 0.0, "fusion_lon": 0.0, "type": "electric_bike", "lat": 38.896455, "bike_id": "09e1242a5af8e95a2e6f5fabd08b5ecb", "is_reserved": 0, "lon": -76.93008533333334, "rental_uris": {"android": "https://dc.lft.to/lastmile_qr_scan", "ios": "https://dc.lft.to/lastmile_qr_scan"}}, {"name": "0d3997c9eaf207a97df6d233efe13540", "is_disabled": 0, "fusion_lat": 0.0, "fusion_lon": 0.0, "type": "electric_scooter", "lat": 38.95614583333333, "bike_id": "0d3997c9eaf207a97df6d233efe13540", "is_reserved": 0, "lon": -77.0277895, "rental_uris": {"android": "https://dc.lft.to/lastmile_qr_scan", "ios": "https://dc.lft.to/lastmile_qr_scan"}}, {"name": "a3c8389e960ba5e6dc52ec44f7c116f3", "is_disabled": 0, "fusion_lat": 0.0, "fusion_lon": 0.0, "type": "electric_scooter", "lat": 38.909821, "bike_id": "a3c8389e960ba5e6dc52ec44f7c116f3", "is_reserved": 0, "lon": -77.04873133333334, "rental_uris": {"android": "https://dc.lft.to/lastmile_qr_scan", "ios": "https://dc.lft.to/lastmile_qr_scan"}}, {"name": "e06aee3b9b752161be4cbb3440a9c3f7", "is_disabled": 0, "fusion_lat": 0.0, "fusion_lon": 0.0, "type": "electric_scooter", "lat": 38.908494166666664, "bike_id": "e06aee3b9b752161be4cbb3440a9c3f7", "is_reserved": 0, "lon": -77.03856766666667, "rental_uris": {"android": "https://dc.lft.to/lastmile_qr_scan", "ios": "https://dc.lft.to/lastmile_qr_scan"}}, {"name": "676b5c4456753662922a86419981e30d", "is_disabled": 0, "fusion_lat": 0.0, "fusion_lon": 0.0, "type": "electric_bike", "lat": 38.8236825, "bike_id": "676b5c4456753662922a86419981e30d", "is_reserved": 0, "lon": -77.00217816666667, "rental_uris": {"android": "https://dc.lft.to/lastmile_qr_scan", "ios": "https://dc.lft.to/lastmile_qr_scan"}}, {"name": "39d636de2c7d73df06ee1ad07d8797e3", "is_disabled": 0, "fusion_lat": 0.0, "fusion_lon": 0.0, "type": "electric_scooter", "lat": 38.9441295, "bike_id": "39d636de2c7d73df06ee1ad07d8797e3", "is_reserved": 0, "lon": -77.02022183333334, "rental_uris": {"android": "https://dc.lft.to/lastmile_qr_scan", "ios": "https://dc.lft.to/lastmile_qr_scan"}}, {"name": "be0ca8eecbecf1b408fae42f3570c7fd", "is_disabled": 0, "fusion_lat": 0.0, "fusion_lon": 0.0, "type": "electric_scooter", "lat": 38.88608833333333, "bike_id": "be0ca8eecbecf1b408fae42f3570c7fd", "is_reserved": 0, "lon": -77.00133916666667, "rental_uris": {"android": "https://dc.lft.to/lastmile_qr_scan", "ios": "https://dc.lft.to/lastmile_qr_scan"}}, {"name": "2bddca013fc32dc59a71c45c97251748", "is_disabled": 0, "fusion_lat": 0.0, "fusion_lon": 0.0, "type": "electric_scooter", "lat": 38.864712833333336, "bike_id": "2bddca013fc32dc59a71c45c97251748", "is_reserved": 0, "lon": -76.982276, "rental_uris": {"android": "https://dc.lft.to/lastmile_qr_scan", "ios": "https://dc.lft.to/lastmile_qr_scan"}}, {"name": "045f03b65a987f3fd64d1b2eb3b1f3c5", "is_disabled": 0, "fusion_lat": 0.0, "fusion_lon": 0.0, "type": "electric_bike", "lat": 38.85936916666667, "bike_id": "045f03b65a987f3fd64d1b2eb3b1f3c5", "is_reserved": 0, "lon": -77.11826133333334, "rental_uris": {"android": "https://dc.lft.to/lastmile_qr_scan", "ios": "https://dc.lft.to/lastmile_qr_scan"}}, {"name": "0ddcc66caa20726a80dabb7bd5c13478", "is_disabled": 0, "fusion_lat": 0.0, "fusion_lon": 0.0, "type": "electric_scooter", "lat": 38.88734783333334, "bike_id": "0ddcc66caa20726a80dabb7bd5c13478", "is_reserved": 0, "lon": -77.022039, "rental_uris": {"android": "https://dc.lft.to/lastmile_qr_scan", "ios": "https://dc.lft.to/lastmile_qr_scan"}}, {"name": "101b4d9d1815e2f8dfedbdffefa42efc", "is_disabled": 0, "fusion_lat": 0.0, "fusion_lon": 0.0, "type": "electric_scooter", "lat": 38.89320416666666, "bike_id": "101b4d9d1815e2f8dfedbdffefa42efc", "is_reserved": 0, "lon": -77.01795616666666, "rental_uris": {"android": "https://dc.lft.to/lastmile_qr_scan", "ios": "https://dc.lft.to/lastmile_qr_scan"}}, {"name": "c5005b3c769a712f6cca124152b7c982", "is_disabled": 0, "fusion_lat": 0.0, "fusion_lon": 0.0, "type": "electric_scooter", "lat": 38.91107183333333, "bike_id": "c5005b3c769a712f6cca124152b7c982", "is_reserved": 0, "lon": -77.00363316666666, "rental_uris": {"android": "https://dc.lft.to/lastmile_qr_scan", "ios": "https://dc.lft.to/lastmile_qr_scan"}}, {"name": "e1f7a25b42826d4cbc47d4a4acf5ef76", "is_disabled": 0, "fusion_lat": 0.0, "fusion_lon": 0.0, "type": "electric_scooter", "lat": 38.926382833333335, "bike_id": "e1f7a25b42826d4cbc47d4a4acf5ef76", "is_reserved": 0, "lon": -77.03545366666667, "rental_uris": {"android": "https://dc.lft.to/lastmile_qr_scan", "ios": "https://dc.lft.to/lastmile_qr_scan"}}, {"name": "100cdb190b1e44c06a917c02cf82c9a2", "is_disabled": 0, "fusion_lat": 0.0, "fusion_lon": 0.0, "type": "electric_bike", "lat": 38.796771, "bike_id": "100cdb190b1e44c06a917c02cf82c9a2", "is_reserved": 0, "lon": -76.99331033333333, "rental_uris": {"android": "https://dc.lft.to/lastmile_qr_scan", "ios": "https://dc.lft.to/lastmile_qr_scan"}}, {"name": "0c984d87e7384fbfcd5f2b7cc30bc943", "is_disabled": 0, "fusion_lat": 0.0, "fusion_lon": 0.0, "type": "electric_scooter", "lat": 38.88589266666666, "bike_id": "0c984d87e7384fbfcd5f2b7cc30bc943", "is_reserved": 0, "lon": -77.00578616666667, "rental_uris": {"android": "https://dc.lft.to/lastmile_qr_scan", "ios": "https://dc.lft.to/lastmile_qr_scan"}}, {"name": "5aede1b2b30e9f99ea14561396d1f759", "is_disabled": 0, "fusion_lat": 0.0, "fusion_lon": 0.0, "type": "electric_bike", "lat": 38.806562666666665, "bike_id": "5aede1b2b30e9f99ea14561396d1f759", "is_reserved": 0, "lon": -77.08760566666666, "rental_uris": {"android": "https://dc.lft.to/lastmile_qr_scan", "ios": "https://dc.lft.to/lastmile_qr_scan"}}, {"name": "9fa48d1ccc1535009142504837054f80", "is_disabled": 0, "fusion_lat": 0.0, "fusion_lon": 0.0, "type": "electric_scooter", "lat": 38.9168215, "bike_id": "9fa48d1ccc1535009142504837054f80", "is_reserved": 0, "lon": -77.02973866666666, "rental_uris": {"android": "https://dc.lft.to/lastmile_qr_scan", "ios": "https://dc.lft.to/lastmile_qr_scan"}}, {"name": "fc001e758641d61ed175be5ef0063f53", "is_disabled": 0, "fusion_lat": 0.0, "fusion_lon": 0.0, "type": "electric_bike", "lat": 38.97321316666667, "bike_id": "fc001e758641d61ed175be5ef0063f53", "is_reserved": 0, "lon": -77.03431116666667, "rental_uris": {"android": "https://dc.lft.to/lastmile_qr_scan", "ios": "https://dc.lft.to/lastmile_qr_scan"}}, {"name": "29fc284214e513a2f7341d8c439bd9eb", "is_disabled": 0, "fusion_lat": 0.0, "fusion_lon": 0.0, "type": "electric_scooter", "lat": 38.888864166666664, "bike_id": "29fc284214e513a2f7341d8c439bd9eb", "is_reserved": 0, "lon": -76.94778933333333, "rental_uris": {"android": "https://dc.lft.to/lastmile_qr_scan", "ios": "https://dc.lft.to/lastmile_qr_scan"}}, {"name": "a946818852c9f493f4faa5c8d5dadde3", "is_disabled": 0, "fusion_lat": 0.0, "fusion_lon": 0.0, "type": "electric_scooter", "lat": 38.977249, "bike_id": "a946818852c9f493f4faa5c8d5dadde3", "is_reserved": 0, "lon": -77.01726583333334, "rental_uris": {"android": "https://dc.lft.to/lastmile_qr_scan", "ios": "https://dc.lft.to/lastmile_qr_scan"}}, {"name": "2ab5ca421dd5e1650ff08048153ac86c", "is_disabled": 0, "fusion_lat": 0.0, "fusion_lon": 0.0, "type": "electric_scooter", "lat": 38.9198455, "bike_id": "2ab5ca421dd5e1650ff08048153ac86c", "is_reserved": 0, "lon": -77.02492233333334, "rental_uris": {"android": "https://dc.lft.to/lastmile_qr_scan", "ios": "https://dc.lft.to/lastmile_qr_scan"}}, {"name": "d1b41a2e6f1f7eecc4bd7da367e25b1b", "is_disabled": 0, "fusion_lat": 0.0, "fusion_lon": 0.0, "type": "electric_scooter", "lat": 38.91277266666667, "bike_id": "d1b41a2e6f1f7eecc4bd7da367e25b1b", "is_reserved": 0, "lon": -77.02245333333333, "rental_uris": {"android": "https://dc.lft.to/lastmile_qr_scan", "ios": "https://dc.lft.to/lastmile_qr_scan"}}, {"name": "e42bdce6d2131ec114514a004bbf999a", "is_disabled": 0, "fusion_lat": 0.0, "fusion_lon": 0.0, "type": "electric_scooter", "lat": 38.90407016666666, "bike_id": "e42bdce6d2131ec114514a004bbf999a", "is_reserved": 0, "lon": -77.06766066666667, "rental_uris": {"android": "https://dc.lft.to/lastmile_qr_scan", "ios": "https://dc.lft.to/lastmile_qr_scan"}}, {"name": "4d1d1a43988893a7bbaa95b4a54bc5e2", "is_disabled": 0, "fusion_lat": 0.0, "fusion_lon": 0.0, "type": "electric_scooter", "lat": 38.90151933333333, "bike_id": "4d1d1a43988893a7bbaa95b4a54bc5e2", "is_reserved": 0, "lon": -77.03179533333333, "rental_uris": {"android": "https://dc.lft.to/lastmile_qr_scan", "ios": "https://dc.lft.to/lastmile_qr_scan"}}, {"name": "e961f1ddd2961a3e851bd0a6def5b426", "is_disabled": 0, "fusion_lat": 0.0, "fusion_lon": 0.0, "type": "electric_bike", "lat": 38.82911766666667, "bike_id": "e961f1ddd2961a3e851bd0a6def5b426", "is_reserved": 0, "lon": -76.997836, "rental_uris": {"android": "https://dc.lft.to/lastmile_qr_scan", "ios": "https://dc.lft.to/lastmile_qr_scan"}}, {"name": "5ce471ca954a59598a5dd4fad8997b16", "is_disabled": 0, "fusion_lat": 0.0, "fusion_lon": 0.0, "type": "electric_scooter", "lat": 38.898425833333334, "bike_id": "5ce471ca954a59598a5dd4fad8997b16", "is_reserved": 0, "lon": -77.00733466666667, "rental_uris": {"android": "https://dc.lft.to/lastmile_qr_scan", "ios": "https://dc.lft.to/lastmile_qr_scan"}}, {"name": "c8016a496c9114526f517cecee8ae26e", "is_disabled": 0, "fusion_lat": 0.0, "fusion_lon": 0.0, "type": "electric_scooter", "lat": 38.933843833333334, "bike_id": "c8016a496c9114526f517cecee8ae26e", "is_reserved": 0, "lon": -76.98113616666667, "rental_uris": {"android": "https://dc.lft.to/lastmile_qr_scan", "ios": "https://dc.lft.to/lastmile_qr_scan"}}, {"name": "9d1d301aaac2859e92ba12ed5a27fa02", "is_disabled": 0, "fusion_lat": 0.0, "fusion_lon": 0.0, "type": "electric_scooter", "lat": 38.931562166666666, "bike_id": "9d1d301aaac2859e92ba12ed5a27fa02", "is_reserved": 0, "lon": -77.0563255, "rental_uris": {"android": "https://dc.lft.to/lastmile_qr_scan", "ios": "https://dc.lft.to/lastmile_qr_scan"}}, {"name": "66feeb5aec0222668dddecb39320a7bc", "is_disabled": 0, "fusion_lat": 0.0, "fusion_lon": 0.0, "type": "electric_scooter", "lat": 38.89900266666667, "bike_id": "66feeb5aec0222668dddecb39320a7bc", "is_reserved": 0, "lon": -77.0326095, "rental_uris": {"android": "https://dc.lft.to/lastmile_qr_scan", "ios": "https://dc.lft.to/lastmile_qr_scan"}}, {"name": "6e0847c769200d94b0e562598bc42cd4", "is_disabled": 0, "fusion_lat": 0.0, "fusion_lon": 0.0, "type": "electric_scooter", "lat": 38.901324833333334, "bike_id": "6e0847c769200d94b0e562598bc42cd4", "is_reserved": 0, "lon": -77.03350816666666, "rental_uris": {"android": "https://dc.lft.to/lastmile_qr_scan", "ios": "https://dc.lft.to/lastmile_qr_scan"}}, {"name": "5fffe12c5a6b4a3063fcd532cd162bea", "is_disabled": 0, "fusion_lat": 0.0, "fusion_lon": 0.0, "type": "electric_scooter", "lat": 38.906004333333335, "bike_id": "5fffe12c5a6b4a3063fcd532cd162bea", "is_reserved": 0, "lon": -77.04041766666667, "rental_uris": {"android": "https://dc.lft.to/lastmile_qr_scan", "ios": "https://dc.lft.to/lastmile_qr_scan"}}, {"name": "6a68c37e9ffb3eb1620b5e9e6974546a", "is_disabled": 0, "fusion_lat": 0.0, "fusion_lon": 0.0, "type": "electric_scooter", "lat": 38.90664966666667, "bike_id": "6a68c37e9ffb3eb1620b5e9e6974546a", "is_reserved": 0, "lon": -77.001835, "rental_uris": {"android": "https://dc.lft.to/lastmile_qr_scan", "ios": "https://dc.lft.to/lastmile_qr_scan"}}, {"name": "c22aadbbd3a353788eb9d7ee3d846815", "is_disabled": 0, "fusion_lat": 0.0, "fusion_lon": 0.0, "type": "electric_scooter", "lat": 38.938598, "bike_id": "c22aadbbd3a353788eb9d7ee3d846815", "is_reserved": 0, "lon": -77.030838, "rental_uris": {"android": "https://dc.lft.to/lastmile_qr_scan", "ios": "https://dc.lft.to/lastmile_qr_scan"}}, {"name": "0925a2971d1053ecaa75626d34d51ce6", "is_disabled": 0, "fusion_lat": 0.0, "fusion_lon": 0.0, "type": "electric_scooter", "lat": 38.92527716666667, "bike_id": "0925a2971d1053ecaa75626d34d51ce6", "is_reserved": 0, "lon": -76.99601033333333, "rental_uris": {"android": "https://dc.lft.to/lastmile_qr_scan", "ios": "https://dc.lft.to/lastmile_qr_scan"}}, {"name": "47c6c3cbd4d6e3797039df99c7d3f5fb", "is_disabled": 0, "fusion_lat": 0.0, "fusion_lon": 0.0, "type": "electric_scooter", "lat": 38.92471233333333, "bike_id": "47c6c3cbd4d6e3797039df99c7d3f5fb", "is_reserved": 0, "lon": -77.02207583333333, "rental_uris": {"android": "https://dc.lft.to/lastmile_qr_scan", "ios": "https://dc.lft.to/lastmile_qr_scan"}}, {"name": "4542a9430a3fe989d4999bfdafe94ce2", "is_disabled": 0, "fusion_lat": 0.0, "fusion_lon": 0.0, "type": "electric_scooter", "lat": 38.8986785, "bike_id": "4542a9430a3fe989d4999bfdafe94ce2", "is_reserved": 0, "lon": -76.94662766666667, "rental_uris": {"android": "https://dc.lft.to/lastmile_qr_scan", "ios": "https://dc.lft.to/lastmile_qr_scan"}}, {"name": "ece48ceddb8a16a9ef70b02b4b38e7e5", "is_disabled": 0, "fusion_lat": 0.0, "fusion_lon": 0.0, "type": "electric_scooter", "lat": 38.90023883333333, "bike_id": "ece48ceddb8a16a9ef70b02b4b38e7e5", "is_reserved": 0, "lon": -77.0118035, "rental_uris": {"android": "https://dc.lft.to/lastmile_qr_scan", "ios": "https://dc.lft.to/lastmile_qr_scan"}}, {"name": "11dd17c8c46a79ea76e86340b9b0ca2f", "is_disabled": 0, "fusion_lat": 0.0, "fusion_lon": 0.0, "type": "electric_scooter", "lat": 38.92668066666667, "bike_id": "11dd17c8c46a79ea76e86340b9b0ca2f", "is_reserved": 0, "lon": -77.02837816666667, "rental_uris": {"android": "https://dc.lft.to/lastmile_qr_scan", "ios": "https://dc.lft.to/lastmile_qr_scan"}}, {"name": "99afb47519120125c9acef2819ba6da2", "is_disabled": 0, "fusion_lat": 0.0, "fusion_lon": 0.0, "type": "electric_scooter", "lat": 38.88560716666667, "bike_id": "99afb47519120125c9acef2819ba6da2", "is_reserved": 0, "lon": -77.0200585, "rental_uris": {"android": "https://dc.lft.to/lastmile_qr_scan", "ios": "https://dc.lft.to/lastmile_qr_scan"}}, {"name": "aa603a896ead0de7607d3fa1d914bc67", "is_disabled": 0, "fusion_lat": 0.0, "fusion_lon": 0.0, "type": "electric_scooter", "lat": 38.9033425, "bike_id": "aa603a896ead0de7607d3fa1d914bc67", "is_reserved": 0, "lon": -77.03467766666667, "rental_uris": {"android": "https://dc.lft.to/lastmile_qr_scan", "ios": "https://dc.lft.to/lastmile_qr_scan"}}, {"name": "70a42a1f4952c0aca683d9d30df877f9", "is_disabled": 0, "fusion_lat": 0.0, "fusion_lon": 0.0, "type": "electric_scooter", "lat": 38.903620333333336, "bike_id": "70a42a1f4952c0aca683d9d30df877f9", "is_reserved": 0, "lon": -77.04968933333333, "rental_uris": {"android": "https://dc.lft.to/lastmile_qr_scan", "ios": "https://dc.lft.to/lastmile_qr_scan"}}, {"name": "b8c935db09e47bcb3610aacb32a88d13", "is_disabled": 0, "fusion_lat": 0.0, "fusion_lon": 0.0, "type": "electric_scooter", "lat": 38.9111695, "bike_id": "b8c935db09e47bcb3610aacb32a88d13", "is_reserved": 0, "lon": -77.04784416666666, "rental_uris": {"android": "https://dc.lft.to/lastmile_qr_scan", "ios": "https://dc.lft.to/lastmile_qr_scan"}}, {"name": "26629b806ba0ce1b8ce4bda34a07c66b", "is_disabled": 0, "fusion_lat": 0.0, "fusion_lon": 0.0, "type": "electric_scooter", "lat": 38.903980833333335, "bike_id": "26629b806ba0ce1b8ce4bda34a07c66b", "is_reserved": 0, "lon": -77.03845766666667, "rental_uris": {"android": "https://dc.lft.to/lastmile_qr_scan", "ios": "https://dc.lft.to/lastmile_qr_scan"}}, {"name": "981b55d33f00b2f84c818446044d3d74", "is_disabled": 0, "fusion_lat": 0.0, "fusion_lon": 0.0, "type": "electric_scooter", "lat": 38.8919355, "bike_id": "981b55d33f00b2f84c818446044d3d74", "is_reserved": 0, "lon": -77.002916, "rental_uris": {"android": "https://dc.lft.to/lastmile_qr_scan", "ios": "https://dc.lft.to/lastmile_qr_scan"}}, {"name": "89761aff5ce1810d36daa868bb629bfe", "is_disabled": 0, "fusion_lat": 0.0, "fusion_lon": 0.0, "type": "electric_scooter", "lat": 38.900812333333334, "bike_id": "89761aff5ce1810d36daa868bb629bfe", "is_reserved": 0, "lon": -76.99369466666667, "rental_uris": {"android": "https://dc.lft.to/lastmile_qr_scan", "ios": "https://dc.lft.to/lastmile_qr_scan"}}, {"name": "36d0e7174049556ab6ce6cf02dcc7461", "is_disabled": 0, "fusion_lat": 0.0, "fusion_lon": 0.0, "type": "electric_scooter", "lat": 38.91700433333333, "bike_id": "36d0e7174049556ab6ce6cf02dcc7461", "is_reserved": 0, "lon": -77.0309035, "rental_uris": {"android": "https://dc.lft.to/lastmile_qr_scan", "ios": "https://dc.lft.to/lastmile_qr_scan"}}, {"name": "1a44a00233cbf9277fd35c9b273a1390", "is_disabled": 0, "fusion_lat": 0.0, "fusion_lon": 0.0, "type": "electric_scooter", "lat": 38.93057816666666, "bike_id": "1a44a00233cbf9277fd35c9b273a1390", "is_reserved": 0, "lon": -77.03946433333333, "rental_uris": {"android": "https://dc.lft.to/lastmile_qr_scan", "ios": "https://dc.lft.to/lastmile_qr_scan"}}, {"name": "5167aefd239581346e38fb49933363b4", "is_disabled": 0, "fusion_lat": 0.0, "fusion_lon": 0.0, "type": "electric_scooter", "lat": 38.92854083333334, "bike_id": "5167aefd239581346e38fb49933363b4", "is_reserved": 0, "lon": -77.02174833333333, "rental_uris": {"android": "https://dc.lft.to/lastmile_qr_scan", "ios": "https://dc.lft.to/lastmile_qr_scan"}}, {"name": "5d66084f4dbcf45461fb67f34cd3a1fa", "is_disabled": 0, "fusion_lat": 0.0, "fusion_lon": 0.0, "type": "electric_scooter", "lat": 38.90603766666667, "bike_id": "5d66084f4dbcf45461fb67f34cd3a1fa", "is_reserved": 0, "lon": -77.03971183333333, "rental_uris": {"android": "https://dc.lft.to/lastmile_qr_scan", "ios": "https://dc.lft.to/lastmile_qr_scan"}}, {"name": "ecf56a4257120b53c6e2641b0d081f32", "is_disabled": 0, "fusion_lat": 0.0, "fusion_lon": 0.0, "type": "electric_scooter", "lat": 38.937679, "bike_id": "ecf56a4257120b53c6e2641b0d081f32", "is_reserved": 0, "lon": -77.0196855, "rental_uris": {"android": "https://dc.lft.to/lastmile_qr_scan", "ios": "https://dc.lft.to/lastmile_qr_scan"}}, {"name": "7fdd970b5f2f46e9ab5b33b4ab78ec46", "is_disabled": 0, "fusion_lat": 0.0, "fusion_lon": 0.0, "type": "electric_scooter", "lat": 38.9148555, "bike_id": "7fdd970b5f2f46e9ab5b33b4ab78ec46", "is_reserved": 0, "lon": -77.02191633333334, "rental_uris": {"android": "https://dc.lft.to/lastmile_qr_scan", "ios": "https://dc.lft.to/lastmile_qr_scan"}}, {"name": "05c4f9da885bed9fbf4f54356a7a1c2f", "is_disabled": 0, "fusion_lat": 0.0, "fusion_lon": 0.0, "type": "electric_bike", "lat": 38.86510483333333, "bike_id": "05c4f9da885bed9fbf4f54356a7a1c2f", "is_reserved": 0, "lon": -76.9733705, "rental_uris": {"android": "https://dc.lft.to/lastmile_qr_scan", "ios": "https://dc.lft.to/lastmile_qr_scan"}}, {"name": "bad3416ff3bd76d852fc9fb9a1bbb2df", "is_disabled": 0, "fusion_lat": 0.0, "fusion_lon": 0.0, "type": "electric_bike", "lat": 38.854383, "bike_id": "bad3416ff3bd76d852fc9fb9a1bbb2df", "is_reserved": 0, "lon": -77.08328016666667, "rental_uris": {"android": "https://dc.lft.to/lastmile_qr_scan", "ios": "https://dc.lft.to/lastmile_qr_scan"}}, {"name": "c566158d6d0dbce3a762014cb8a5664e", "is_disabled": 0, "fusion_lat": 0.0, "fusion_lon": 0.0, "type": "electric_scooter", "lat": 38.88292883333333, "bike_id": "c566158d6d0dbce3a762014cb8a5664e", "is_reserved": 0, "lon": -76.99352366666666, "rental_uris": {"android": "https://dc.lft.to/lastmile_qr_scan", "ios": "https://dc.lft.to/lastmile_qr_scan"}}, {"name": "e3a4af971c5f32ff180a4e7544582f62", "is_disabled": 0, "fusion_lat": 0.0, "fusion_lon": 0.0, "type": "electric_scooter", "lat": 38.88738933333333, "bike_id": "e3a4af971c5f32ff180a4e7544582f62", "is_reserved": 0, "lon": -77.02381883333334, "rental_uris": {"android": "https://dc.lft.to/lastmile_qr_scan", "ios": "https://dc.lft.to/lastmile_qr_scan"}}, {"name": "a2f999983093da74406205a94f74142c", "is_disabled": 0, "fusion_lat": 0.0, "fusion_lon": 0.0, "type": "electric_scooter", "lat": 38.862209, "bike_id": "a2f999983093da74406205a94f74142c", "is_reserved": 0, "lon": -76.99494166666666, "rental_uris": {"android": "https://dc.lft.to/lastmile_qr_scan", "ios": "https://dc.lft.to/lastmile_qr_scan"}}, {"name": "79cdc729bba3c470bbf86a2938e03e3e", "is_disabled": 0, "fusion_lat": 0.0, "fusion_lon": 0.0, "type": "electric_scooter", "lat": 38.9217425, "bike_id": "79cdc729bba3c470bbf86a2938e03e3e", "is_reserved": 0, "lon": -77.0210875, "rental_uris": {"android": "https://dc.lft.to/lastmile_qr_scan", "ios": "https://dc.lft.to/lastmile_qr_scan"}}, {"name": "89c8829390400dd00fbdbef287c1f447", "is_disabled": 0, "fusion_lat": 0.0, "fusion_lon": 0.0, "type": "electric_scooter", "lat": 38.913303, "bike_id": "89c8829390400dd00fbdbef287c1f447", "is_reserved": 0, "lon": -77.02574366666667, "rental_uris": {"android": "https://dc.lft.to/lastmile_qr_scan", "ios": "https://dc.lft.to/lastmile_qr_scan"}}, {"name": "7697629ad014551049359bf3e0b8a0ac", "is_disabled": 0, "fusion_lat": 0.0, "fusion_lon": 0.0, "type": "electric_scooter", "lat": 38.91025366666667, "bike_id": "7697629ad014551049359bf3e0b8a0ac", "is_reserved": 0, "lon": -77.03437566666666, "rental_uris": {"android": "https://dc.lft.to/lastmile_qr_scan", "ios": "https://dc.lft.to/lastmile_qr_scan"}}, {"name": "f33c4e272f7219a9206073b49e578902", "is_disabled": 0, "fusion_lat": 0.0, "fusion_lon": 0.0, "type": "electric_scooter", "lat": 38.91441566666666, "bike_id": "f33c4e272f7219a9206073b49e578902", "is_reserved": 0, "lon": -77.041545, "rental_uris": {"android": "https://dc.lft.to/lastmile_qr_scan", "ios": "https://dc.lft.to/lastmile_qr_scan"}}, {"name": "a8ba1c3dffcbf1af080463abcba7cd2f", "is_disabled": 0, "fusion_lat": 0.0, "fusion_lon": 0.0, "type": "electric_scooter", "lat": 38.9226155, "bike_id": "a8ba1c3dffcbf1af080463abcba7cd2f", "is_reserved": 0, "lon": -77.04288416666667, "rental_uris": {"android": "https://dc.lft.to/lastmile_qr_scan", "ios": "https://dc.lft.to/lastmile_qr_scan"}}, {"name": "1085c5f1a7585cdb95edef214e9e0bb3", "is_disabled": 0, "fusion_lat": 0.0, "fusion_lon": 0.0, "type": "electric_scooter", "lat": 38.90555716666667, "bike_id": "1085c5f1a7585cdb95edef214e9e0bb3", "is_reserved": 0, "lon": -77.043205, "rental_uris": {"android": "https://dc.lft.to/lastmile_qr_scan", "ios": "https://dc.lft.to/lastmile_qr_scan"}}, {"name": "099ff08854e9efd2ba97f1c3b60a5a37", "is_disabled": 0, "fusion_lat": 0.0, "fusion_lon": 0.0, "type": "electric_scooter", "lat": 38.91887, "bike_id": "099ff08854e9efd2ba97f1c3b60a5a37", "is_reserved": 0, "lon": -77.02969533333334, "rental_uris": {"android": "https://dc.lft.to/lastmile_qr_scan", "ios": "https://dc.lft.to/lastmile_qr_scan"}}, {"name": "cfd0c476c4bdad54a83ce560fd30a45e", "is_disabled": 0, "fusion_lat": 0.0, "fusion_lon": 0.0, "type": "electric_scooter", "lat": 38.92285366666667, "bike_id": "cfd0c476c4bdad54a83ce560fd30a45e", "is_reserved": 0, "lon": -77.04266383333334, "rental_uris": {"android": "https://dc.lft.to/lastmile_qr_scan", "ios": "https://dc.lft.to/lastmile_qr_scan"}}, {"name": "94a9b85f7f5df972ea99b648ad964b9b", "is_disabled": 0, "fusion_lat": 0.0, "fusion_lon": 0.0, "type": "electric_scooter", "lat": 38.92106783333333, "bike_id": "94a9b85f7f5df972ea99b648ad964b9b", "is_reserved": 0, "lon": -76.99411533333334, "rental_uris": {"android": "https://dc.lft.to/lastmile_qr_scan", "ios": "https://dc.lft.to/lastmile_qr_scan"}}, {"name": "187d95e3c9ee241f4815ddd40e13b8e5", "is_disabled": 0, "fusion_lat": 0.0, "fusion_lon": 0.0, "type": "electric_bike", "lat": 39.056308333333334, "bike_id": "187d95e3c9ee241f4815ddd40e13b8e5", "is_reserved": 0, "lon": -77.12524983333333, "rental_uris": {"android": "https://dc.lft.to/lastmile_qr_scan", "ios": "https://dc.lft.to/lastmile_qr_scan"}}, {"name": "00e666cc2ec721be10ace4c2f4ba7ee8", "is_disabled": 0, "fusion_lat": 0.0, "fusion_lon": 0.0, "type": "electric_scooter", "lat": 38.90580466666667, "bike_id": "00e666cc2ec721be10ace4c2f4ba7ee8", "is_reserved": 0, "lon": -77.03255866666667, "rental_uris": {"android": "https://dc.lft.to/lastmile_qr_scan", "ios": "https://dc.lft.to/lastmile_qr_scan"}}, {"name": "e0f7b04b492c8e3c76f3c4bd2adc5552", "is_disabled": 0, "fusion_lat": 0.0, "fusion_lon": 0.0, "type": "electric_scooter", "lat": 38.90388983333333, "bike_id": "e0f7b04b492c8e3c76f3c4bd2adc5552", "is_reserved": 0, "lon": -77.038435, "rental_uris": {"android": "https://dc.lft.to/lastmile_qr_scan", "ios": "https://dc.lft.to/lastmile_qr_scan"}}, {"name": "ae4724b0389038503b9044ad18d44292", "is_disabled": 0, "fusion_lat": 0.0, "fusion_lon": 0.0, "type": "electric_scooter", "lat": 38.89503583333333, "bike_id": "ae4724b0389038503b9044ad18d44292", "is_reserved": 0, "lon": -76.9347365, "rental_uris": {"android": "https://dc.lft.to/lastmile_qr_scan", "ios": "https://dc.lft.to/lastmile_qr_scan"}}, {"name": "9d6aa3c3491f533ac5a665d918dfc175", "is_disabled": 0, "fusion_lat": 0.0, "fusion_lon": 0.0, "type": "electric_scooter", "lat": 38.89742, "bike_id": "9d6aa3c3491f533ac5a665d918dfc175", "is_reserved": 0, "lon": -77.0333735, "rental_uris": {"android": "https://dc.lft.to/lastmile_qr_scan", "ios": "https://dc.lft.to/lastmile_qr_scan"}}, {"name": "24e90b48606e7c909ba2d1de5d376e93", "is_disabled": 0, "fusion_lat": 0.0, "fusion_lon": 0.0, "type": "electric_scooter", "lat": 38.90776183333333, "bike_id": "24e90b48606e7c909ba2d1de5d376e93", "is_reserved": 0, "lon": -77.0382575, "rental_uris": {"android": "https://dc.lft.to/lastmile_qr_scan", "ios": "https://dc.lft.to/lastmile_qr_scan"}}, {"name": "9063d58d8e684c8f4d1b7c5b701299f5", "is_disabled": 0, "fusion_lat": 0.0, "fusion_lon": 0.0, "type": "electric_scooter", "lat": 38.88479, "bike_id": "9063d58d8e684c8f4d1b7c5b701299f5", "is_reserved": 0, "lon": -77.0265685, "rental_uris": {"android": "https://dc.lft.to/lastmile_qr_scan", "ios": "https://dc.lft.to/lastmile_qr_scan"}}, {"name": "23aff28ff89e5142c741f04120d4e394", "is_disabled": 0, "fusion_lat": 0.0, "fusion_lon": 0.0, "type": "electric_scooter", "lat": 38.902427333333335, "bike_id": "23aff28ff89e5142c741f04120d4e394", "is_reserved": 0, "lon": -77.043641, "rental_uris": {"android": "https://dc.lft.to/lastmile_qr_scan", "ios": "https://dc.lft.to/lastmile_qr_scan"}}, {"name": "e881ddbf17c97b6c966cfc8c4be57b1b", "is_disabled": 0, "fusion_lat": 0.0, "fusion_lon": 0.0, "type": "electric_scooter", "lat": 38.89617533333333, "bike_id": "e881ddbf17c97b6c966cfc8c4be57b1b", "is_reserved": 0, "lon": -76.98165616666667, "rental_uris": {"android": "https://dc.lft.to/lastmile_qr_scan", "ios": "https://dc.lft.to/lastmile_qr_scan"}}, {"name": "542b88e0698244d33f34973595fe55ec", "is_disabled": 0, "fusion_lat": 0.0, "fusion_lon": 0.0, "type": "electric_scooter", "lat": 38.9025045, "bike_id": "542b88e0698244d33f34973595fe55ec", "is_reserved": 0, "lon": -77.02876733333333, "rental_uris": {"android": "https://dc.lft.to/lastmile_qr_scan", "ios": "https://dc.lft.to/lastmile_qr_scan"}}, {"name": "b20ccf234ee61f6c506cc3aa194eb3f0", "is_disabled": 0, "fusion_lat": 0.0, "fusion_lon": 0.0, "type": "electric_scooter", "lat": 38.88387866666667, "bike_id": "b20ccf234ee61f6c506cc3aa194eb3f0", "is_reserved": 0, "lon": -76.95444766666667, "rental_uris": {"android": "https://dc.lft.to/lastmile_qr_scan", "ios": "https://dc.lft.to/lastmile_qr_scan"}}, {"name": "6983f4645b3906b2cc2c2e0a26bf92fa", "is_disabled": 0, "fusion_lat": 0.0, "fusion_lon": 0.0, "type": "electric_scooter", "lat": 38.892963, "bike_id": "6983f4645b3906b2cc2c2e0a26bf92fa", "is_reserved": 0, "lon": -76.99823633333334, "rental_uris": {"android": "https://dc.lft.to/lastmile_qr_scan", "ios": "https://dc.lft.to/lastmile_qr_scan"}}, {"name": "ae7ff2b153125a40c80daa5e32722744", "is_disabled": 0, "fusion_lat": 0.0, "fusion_lon": 0.0, "type": "electric_scooter", "lat": 38.92291016666667, "bike_id": "ae7ff2b153125a40c80daa5e32722744", "is_reserved": 0, "lon": -77.04263033333334, "rental_uris": {"android": "https://dc.lft.to/lastmile_qr_scan", "ios": "https://dc.lft.to/lastmile_qr_scan"}}, {"name": "a06f5d4df1a9d2d189d3718f022f8340", "is_disabled": 0, "fusion_lat": 0.0, "fusion_lon": 0.0, "type": "electric_scooter", "lat": 38.903697666666666, "bike_id": "a06f5d4df1a9d2d189d3718f022f8340", "is_reserved": 0, "lon": -77.04016166666666, "rental_uris": {"android": "https://dc.lft.to/lastmile_qr_scan", "ios": "https://dc.lft.to/lastmile_qr_scan"}}, {"name": "a12ffb1ebe554303a5eabf8d0134fdfc", "is_disabled": 0, "fusion_lat": 0.0, "fusion_lon": 0.0, "type": "electric_bike", "lat": 38.936892666666665, "bike_id": "a12ffb1ebe554303a5eabf8d0134fdfc", "is_reserved": 0, "lon": -76.99059783333334, "rental_uris": {"android": "https://dc.lft.to/lastmile_qr_scan", "ios": "https://dc.lft.to/lastmile_qr_scan"}}, {"name": "0f4590d37a8d50eb08c3102b38130ad3", "is_disabled": 0, "fusion_lat": 0.0, "fusion_lon": 0.0, "type": "electric_scooter", "lat": 38.922980333333335, "bike_id": "0f4590d37a8d50eb08c3102b38130ad3", "is_reserved": 0, "lon": -77.04302216666666, "rental_uris": {"android": "https://dc.lft.to/lastmile_qr_scan", "ios": "https://dc.lft.to/lastmile_qr_scan"}}, {"name": "7e2f557d7b507529d535c4a947e1064e", "is_disabled": 0, "fusion_lat": 0.0, "fusion_lon": 0.0, "type": "electric_scooter", "lat": 38.95182366666667, "bike_id": "7e2f557d7b507529d535c4a947e1064e", "is_reserved": 0, "lon": -77.02612416666666, "rental_uris": {"android": "https://dc.lft.to/lastmile_qr_scan", "ios": "https://dc.lft.to/lastmile_qr_scan"}}, {"name": "c79bf437b21f702fcc18360bb214693a", "is_disabled": 0, "fusion_lat": 0.0, "fusion_lon": 0.0, "type": "electric_scooter", "lat": 38.89359783333333, "bike_id": "c79bf437b21f702fcc18360bb214693a", "is_reserved": 0, "lon": -77.05487033333333, "rental_uris": {"android": "https://dc.lft.to/lastmile_qr_scan", "ios": "https://dc.lft.to/lastmile_qr_scan"}}, {"name": "d1f2021ecab726422935705dda7a6f37", "is_disabled": 0, "fusion_lat": 0.0, "fusion_lon": 0.0, "type": "electric_scooter", "lat": 38.91814516666667, "bike_id": "d1f2021ecab726422935705dda7a6f37", "is_reserved": 0, "lon": -77.0324955, "rental_uris": {"android": "https://dc.lft.to/lastmile_qr_scan", "ios": "https://dc.lft.to/lastmile_qr_scan"}}, {"name": "d68c606dbeb893169316954b990703a5", "is_disabled": 0, "fusion_lat": 0.0, "fusion_lon": 0.0, "type": "electric_scooter", "lat": 38.89803583333333, "bike_id": "d68c606dbeb893169316954b990703a5", "is_reserved": 0, "lon": -77.0247755, "rental_uris": {"android": "https://dc.lft.to/lastmile_qr_scan", "ios": "https://dc.lft.to/lastmile_qr_scan"}}, {"name": "98b1688202425cd7c880ce8c34217e8b", "is_disabled": 0, "fusion_lat": 0.0, "fusion_lon": 0.0, "type": "electric_scooter", "lat": 38.90743883333333, "bike_id": "98b1688202425cd7c880ce8c34217e8b", "is_reserved": 0, "lon": -77.0306705, "rental_uris": {"android": "https://dc.lft.to/lastmile_qr_scan", "ios": "https://dc.lft.to/lastmile_qr_scan"}}, {"name": "863f89ca4cea8856ed674f2140e00856", "is_disabled": 0, "fusion_lat": 0.0, "fusion_lon": 0.0, "type": "electric_scooter", "lat": 38.9285905, "bike_id": "863f89ca4cea8856ed674f2140e00856", "is_reserved": 0, "lon": -77.03186516666666, "rental_uris": {"android": "https://dc.lft.to/lastmile_qr_scan", "ios": "https://dc.lft.to/lastmile_qr_scan"}}, {"name": "6068b6692b6dee2ce3270e8d5e850275", "is_disabled": 0, "fusion_lat": 0.0, "fusion_lon": 0.0, "type": "electric_scooter", "lat": 38.92659183333333, "bike_id": "6068b6692b6dee2ce3270e8d5e850275", "is_reserved": 0, "lon": -77.03723533333333, "rental_uris": {"android": "https://dc.lft.to/lastmile_qr_scan", "ios": "https://dc.lft.to/lastmile_qr_scan"}}, {"name": "32131668e86bf8b5b97b0618364ec4a8", "is_disabled": 0, "fusion_lat": 0.0, "fusion_lon": 0.0, "type": "electric_scooter", "lat": 38.95069383333333, "bike_id": "32131668e86bf8b5b97b0618364ec4a8", "is_reserved": 0, "lon": -77.06533116666667, "rental_uris": {"android": "https://dc.lft.to/lastmile_qr_scan", "ios": "https://dc.lft.to/lastmile_qr_scan"}}, {"name": "02591a77082e840489742e58b3bf4def", "is_disabled": 0, "fusion_lat": 0.0, "fusion_lon": 0.0, "type": "electric_scooter", "lat": 38.89989216666667, "bike_id": "02591a77082e840489742e58b3bf4def", "is_reserved": 0, "lon": -77.02029383333333, "rental_uris": {"android": "https://dc.lft.to/lastmile_qr_scan", "ios": "https://dc.lft.to/lastmile_qr_scan"}}, {"name": "4acf965d4a2bbb583cd830acb19c35b7", "is_disabled": 0, "fusion_lat": 0.0, "fusion_lon": 0.0, "type": "electric_scooter", "lat": 38.917264833333334, "bike_id": "4acf965d4a2bbb583cd830acb19c35b7", "is_reserved": 0, "lon": -77.04089366666666, "rental_uris": {"android": "https://dc.lft.to/lastmile_qr_scan", "ios": "https://dc.lft.to/lastmile_qr_scan"}}, {"name": "476a06b6ef39ef543f2caeb7403fd8f4", "is_disabled": 0, "fusion_lat": 0.0, "fusion_lon": 0.0, "type": "electric_scooter", "lat": 38.91911566666667, "bike_id": "476a06b6ef39ef543f2caeb7403fd8f4", "is_reserved": 0, "lon": -77.0301, "rental_uris": {"android": "https://dc.lft.to/lastmile_qr_scan", "ios": "https://dc.lft.to/lastmile_qr_scan"}}, {"name": "c85111e79d6987c094b4cf4d9d26461b", "is_disabled": 0, "fusion_lat": 0.0, "fusion_lon": 0.0, "type": "electric_scooter", "lat": 38.919897666666664, "bike_id": "c85111e79d6987c094b4cf4d9d26461b", "is_reserved": 0, "lon": -77.02148, "rental_uris": {"android": "https://dc.lft.to/lastmile_qr_scan", "ios": "https://dc.lft.to/lastmile_qr_scan"}}, {"name": "bfada09698a90aaca5cab3f0eab27f62", "is_disabled": 0, "fusion_lat": 0.0, "fusion_lon": 0.0, "type": "electric_scooter", "lat": 38.909155, "bike_id": "bfada09698a90aaca5cab3f0eab27f62", "is_reserved": 0, "lon": -77.072738, "rental_uris": {"android": "https://dc.lft.to/lastmile_qr_scan", "ios": "https://dc.lft.to/lastmile_qr_scan"}}, {"name": "2eebd5d80d4bab9b2c3bbd067769c34a", "is_disabled": 0, "fusion_lat": 0.0, "fusion_lon": 0.0, "type": "electric_scooter", "lat": 38.8931885, "bike_id": "2eebd5d80d4bab9b2c3bbd067769c34a", "is_reserved": 0, "lon": -76.93974033333333, "rental_uris": {"android": "https://dc.lft.to/lastmile_qr_scan", "ios": "https://dc.lft.to/lastmile_qr_scan"}}, {"name": "b25f9cb38fa31bc05b8f7b2be0d18b66", "is_disabled": 0, "fusion_lat": 0.0, "fusion_lon": 0.0, "type": "electric_scooter", "lat": 38.90142083333333, "bike_id": "b25f9cb38fa31bc05b8f7b2be0d18b66", "is_reserved": 0, "lon": -77.01309833333333, "rental_uris": {"android": "https://dc.lft.to/lastmile_qr_scan", "ios": "https://dc.lft.to/lastmile_qr_scan"}}, {"name": "e2dfa3dfb84f57950a01eb94599360b1", "is_disabled": 0, "fusion_lat": 0.0, "fusion_lon": 0.0, "type": "electric_scooter", "lat": 38.921462166666664, "bike_id": "e2dfa3dfb84f57950a01eb94599360b1", "is_reserved": 0, "lon": -77.025329, "rental_uris": {"android": "https://dc.lft.to/lastmile_qr_scan", "ios": "https://dc.lft.to/lastmile_qr_scan"}}, {"name": "83bafc1ea542866920c53902c833d86a", "is_disabled": 0, "fusion_lat": 0.0, "fusion_lon": 0.0, "type": "electric_scooter", "lat": 38.917471, "bike_id": "83bafc1ea542866920c53902c833d86a", "is_reserved": 0, "lon": -77.036409, "rental_uris": {"android": "https://dc.lft.to/lastmile_qr_scan", "ios": "https://dc.lft.to/lastmile_qr_scan"}}, {"name": "dd402ef2b26a9312f7e415a4d188866c", "is_disabled": 0, "fusion_lat": 0.0, "fusion_lon": 0.0, "type": "electric_scooter", "lat": 38.85063933333333, "bike_id": "dd402ef2b26a9312f7e415a4d188866c", "is_reserved": 0, "lon": -76.96998983333333, "rental_uris": {"android": "https://dc.lft.to/lastmile_qr_scan", "ios": "https://dc.lft.to/lastmile_qr_scan"}}, {"name": "db2acc08f74d821f5a193012d479322e", "is_disabled": 0, "fusion_lat": 0.0, "fusion_lon": 0.0, "type": "electric_scooter", "lat": 38.98451683333333, "bike_id": "db2acc08f74d821f5a193012d479322e", "is_reserved": 0, "lon": -77.02639683333334, "rental_uris": {"android": "https://dc.lft.to/lastmile_qr_scan", "ios": "https://dc.lft.to/lastmile_qr_scan"}}, {"name": "2713325ce0562a2fd7eed2514ebd851a", "is_disabled": 0, "fusion_lat": 0.0, "fusion_lon": 0.0, "type": "electric_scooter", "lat": 38.91495333333334, "bike_id": "2713325ce0562a2fd7eed2514ebd851a", "is_reserved": 0, "lon": -77.01471716666667, "rental_uris": {"android": "https://dc.lft.to/lastmile_qr_scan", "ios": "https://dc.lft.to/lastmile_qr_scan"}}, {"name": "b3ee0109e10fd71eb5c428d654eac956", "is_disabled": 0, "fusion_lat": 0.0, "fusion_lon": 0.0, "type": "electric_scooter", "lat": 38.9206455, "bike_id": "b3ee0109e10fd71eb5c428d654eac956", "is_reserved": 0, "lon": -77.0437265, "rental_uris": {"android": "https://dc.lft.to/lastmile_qr_scan", "ios": "https://dc.lft.to/lastmile_qr_scan"}}, {"name": "7128f5d63911d03edbcaf5250e85a87c", "is_disabled": 0, "fusion_lat": 0.0, "fusion_lon": 0.0, "type": "electric_scooter", "lat": 38.903599166666666, "bike_id": "7128f5d63911d03edbcaf5250e85a87c", "is_reserved": 0, "lon": -77.04231833333333, "rental_uris": {"android": "https://dc.lft.to/lastmile_qr_scan", "ios": "https://dc.lft.to/lastmile_qr_scan"}}, {"name": "1d14ecdd1c8aef837b55074eff088337", "is_disabled": 0, "fusion_lat": 0.0, "fusion_lon": 0.0, "type": "electric_scooter", "lat": 38.92434166666666, "bike_id": "1d14ecdd1c8aef837b55074eff088337", "is_reserved": 0, "lon": -77.052036, "rental_uris": {"android": "https://dc.lft.to/lastmile_qr_scan", "ios": "https://dc.lft.to/lastmile_qr_scan"}}, {"name": "ec90870bce7b97ec98ba917a4b4021bd", "is_disabled": 0, "fusion_lat": 0.0, "fusion_lon": 0.0, "type": "electric_bike", "lat": 39.052799666666665, "bike_id": "ec90870bce7b97ec98ba917a4b4021bd", "is_reserved": 0, "lon": -77.08067433333333, "rental_uris": {"android": "https://dc.lft.to/lastmile_qr_scan", "ios": "https://dc.lft.to/lastmile_qr_scan"}}, {"name": "2fa77039a2d71b4171d99035a670812b", "is_disabled": 0, "fusion_lat": 0.0, "fusion_lon": 0.0, "type": "electric_scooter", "lat": 38.88723933333333, "bike_id": "2fa77039a2d71b4171d99035a670812b", "is_reserved": 0, "lon": -77.02831483333334, "rental_uris": {"android": "https://dc.lft.to/lastmile_qr_scan", "ios": "https://dc.lft.to/lastmile_qr_scan"}}, {"name": "ada7b9ac635a7e71679380e4b2105af5", "is_disabled": 0, "fusion_lat": 0.0, "fusion_lon": 0.0, "type": "electric_scooter", "lat": 38.90193033333333, "bike_id": "ada7b9ac635a7e71679380e4b2105af5", "is_reserved": 0, "lon": -77.01261383333333, "rental_uris": {"android": "https://dc.lft.to/lastmile_qr_scan", "ios": "https://dc.lft.to/lastmile_qr_scan"}}, {"name": "f1de2d8596ffde89831707b3ad0c2fff", "is_disabled": 0, "fusion_lat": 0.0, "fusion_lon": 0.0, "type": "electric_scooter", "lat": 38.93224416666666, "bike_id": "f1de2d8596ffde89831707b3ad0c2fff", "is_reserved": 0, "lon": -77.038882, "rental_uris": {"android": "https://dc.lft.to/lastmile_qr_scan", "ios": "https://dc.lft.to/lastmile_qr_scan"}}, {"name": "088ca75579528b3d95979226e6027194", "is_disabled": 0, "fusion_lat": 0.0, "fusion_lon": 0.0, "type": "electric_scooter", "lat": 38.86656966666666, "bike_id": "088ca75579528b3d95979226e6027194", "is_reserved": 0, "lon": -76.98879066666667, "rental_uris": {"android": "https://dc.lft.to/lastmile_qr_scan", "ios": "https://dc.lft.to/lastmile_qr_scan"}}, {"name": "af2fbc7302f34146e5aa92c4396bee27", "is_disabled": 0, "fusion_lat": 0.0, "fusion_lon": 0.0, "type": "electric_scooter", "lat": 38.904565833333336, "bike_id": "af2fbc7302f34146e5aa92c4396bee27", "is_reserved": 0, "lon": -77.03263833333334, "rental_uris": {"android": "https://dc.lft.to/lastmile_qr_scan", "ios": "https://dc.lft.to/lastmile_qr_scan"}}, {"name": "7ed551590d499a490b9fca58dfb84d61", "is_disabled": 0, "fusion_lat": 0.0, "fusion_lon": 0.0, "type": "electric_scooter", "lat": 38.8700225, "bike_id": "7ed551590d499a490b9fca58dfb84d61", "is_reserved": 0, "lon": -76.97587783333333, "rental_uris": {"android": "https://dc.lft.to/lastmile_qr_scan", "ios": "https://dc.lft.to/lastmile_qr_scan"}}, {"name": "de8a55e4cfe87a6b3dbcad06ef96da49", "is_disabled": 0, "fusion_lat": 0.0, "fusion_lon": 0.0, "type": "electric_scooter", "lat": 38.900119, "bike_id": "de8a55e4cfe87a6b3dbcad06ef96da49", "is_reserved": 0, "lon": -77.0118105, "rental_uris": {"android": "https://dc.lft.to/lastmile_qr_scan", "ios": "https://dc.lft.to/lastmile_qr_scan"}}, {"name": "7c6cfa91fa0eecfc86ec6db4acfe4b4d", "is_disabled": 0, "fusion_lat": 0.0, "fusion_lon": 0.0, "type": "electric_scooter", "lat": 38.9302125, "bike_id": "7c6cfa91fa0eecfc86ec6db4acfe4b4d", "is_reserved": 0, "lon": -77.012982, "rental_uris": {"android": "https://dc.lft.to/lastmile_qr_scan", "ios": "https://dc.lft.to/lastmile_qr_scan"}}, {"name": "18c826c4cc056d73a094a67ffff22613", "is_disabled": 0, "fusion_lat": 0.0, "fusion_lon": 0.0, "type": "electric_scooter", "lat": 38.885055333333334, "bike_id": "18c826c4cc056d73a094a67ffff22613", "is_reserved": 0, "lon": -77.00567366666667, "rental_uris": {"android": "https://dc.lft.to/lastmile_qr_scan", "ios": "https://dc.lft.to/lastmile_qr_scan"}}, {"name": "dd2757667d5faff3a2062043fe7db79f", "is_disabled": 0, "fusion_lat": 0.0, "fusion_lon": 0.0, "type": "electric_scooter", "lat": 38.9247445, "bike_id": "dd2757667d5faff3a2062043fe7db79f", "is_reserved": 0, "lon": -77.03495866666667, "rental_uris": {"android": "https://dc.lft.to/lastmile_qr_scan", "ios": "https://dc.lft.to/lastmile_qr_scan"}}, {"name": "3b6905f28c994e68e5dd0057c7999d42", "is_disabled": 0, "fusion_lat": 0.0, "fusion_lon": 0.0, "type": "electric_scooter", "lat": 38.90734716666667, "bike_id": "3b6905f28c994e68e5dd0057c7999d42", "is_reserved": 0, "lon": -77.04357, "rental_uris": {"android": "https://dc.lft.to/lastmile_qr_scan", "ios": "https://dc.lft.to/lastmile_qr_scan"}}, {"name": "6c56380753667663e33a86468e2924b6", "is_disabled": 0, "fusion_lat": 0.0, "fusion_lon": 0.0, "type": "electric_scooter", "lat": 38.9152055, "bike_id": "6c56380753667663e33a86468e2924b6", "is_reserved": 0, "lon": -77.02695983333334, "rental_uris": {"android": "https://dc.lft.to/lastmile_qr_scan", "ios": "https://dc.lft.to/lastmile_qr_scan"}}, {"name": "800a754a4e6e92a8b3505b608bb8b947", "is_disabled": 0, "fusion_lat": 0.0, "fusion_lon": 0.0, "type": "electric_scooter", "lat": 38.92035683333334, "bike_id": "800a754a4e6e92a8b3505b608bb8b947", "is_reserved": 0, "lon": -77.02582316666667, "rental_uris": {"android": "https://dc.lft.to/lastmile_qr_scan", "ios": "https://dc.lft.to/lastmile_qr_scan"}}, {"name": "4ab9d7d29ea7aba9deb581fa86ea3ff1", "is_disabled": 0, "fusion_lat": 0.0, "fusion_lon": 0.0, "type": "electric_scooter", "lat": 38.89895083333333, "bike_id": "4ab9d7d29ea7aba9deb581fa86ea3ff1", "is_reserved": 0, "lon": -77.03289733333334, "rental_uris": {"android": "https://dc.lft.to/lastmile_qr_scan", "ios": "https://dc.lft.to/lastmile_qr_scan"}}, {"name": "e5a569b07eaa67d9ad59da7b82413f59", "is_disabled": 0, "fusion_lat": 0.0, "fusion_lon": 0.0, "type": "electric_scooter", "lat": 38.8921745, "bike_id": "e5a569b07eaa67d9ad59da7b82413f59", "is_reserved": 0, "lon": -77.0450305, "rental_uris": {"android": "https://dc.lft.to/lastmile_qr_scan", "ios": "https://dc.lft.to/lastmile_qr_scan"}}, {"name": "6aa8b3e26a29e24aa38f76a45048f8cf", "is_disabled": 0, "fusion_lat": 0.0, "fusion_lon": 0.0, "type": "electric_scooter", "lat": 38.87877966666667, "bike_id": "6aa8b3e26a29e24aa38f76a45048f8cf", "is_reserved": 0, "lon": -77.02314566666666, "rental_uris": {"android": "https://dc.lft.to/lastmile_qr_scan", "ios": "https://dc.lft.to/lastmile_qr_scan"}}, {"name": "bf9bbe35258dbbce8b48339093b0d987", "is_disabled": 0, "fusion_lat": 0.0, "fusion_lon": 0.0, "type": "electric_scooter", "lat": 38.952300666666666, "bike_id": "bf9bbe35258dbbce8b48339093b0d987", "is_reserved": 0, "lon": -77.01428633333333, "rental_uris": {"android": "https://dc.lft.to/lastmile_qr_scan", "ios": "https://dc.lft.to/lastmile_qr_scan"}}, {"name": "741332a8704d8565474a397d66a2224b", "is_disabled": 0, "fusion_lat": 0.0, "fusion_lon": 0.0, "type": "electric_scooter", "lat": 38.879388666666664, "bike_id": "741332a8704d8565474a397d66a2224b", "is_reserved": 0, "lon": -77.00917833333334, "rental_uris": {"android": "https://dc.lft.to/lastmile_qr_scan", "ios": "https://dc.lft.to/lastmile_qr_scan"}}, {"name": "e70d3872900127e787869807c7550b73", "is_disabled": 0, "fusion_lat": 0.0, "fusion_lon": 0.0, "type": "electric_scooter", "lat": 38.9083615, "bike_id": "e70d3872900127e787869807c7550b73", "is_reserved": 0, "lon": -77.00926983333333, "rental_uris": {"android": "https://dc.lft.to/lastmile_qr_scan", "ios": "https://dc.lft.to/lastmile_qr_scan"}}, {"name": "22b3fa92e3ee28570c2c06bbc3c6c636", "is_disabled": 0, "fusion_lat": 0.0, "fusion_lon": 0.0, "type": "electric_scooter", "lat": 38.92216833333333, "bike_id": "22b3fa92e3ee28570c2c06bbc3c6c636", "is_reserved": 0, "lon": -77.07305466666666, "rental_uris": {"android": "https://dc.lft.to/lastmile_qr_scan", "ios": "https://dc.lft.to/lastmile_qr_scan"}}, {"name": "bcc402c64761ba885318106b3f5a2643", "is_disabled": 0, "fusion_lat": 0.0, "fusion_lon": 0.0, "type": "electric_scooter", "lat": 38.917679666666665, "bike_id": "bcc402c64761ba885318106b3f5a2643", "is_reserved": 0, "lon": -77.04060083333333, "rental_uris": {"android": "https://dc.lft.to/lastmile_qr_scan", "ios": "https://dc.lft.to/lastmile_qr_scan"}}, {"name": "37dd6c1bc4fd8263ada95fd25302fcc8", "is_disabled": 0, "fusion_lat": 0.0, "fusion_lon": 0.0, "type": "electric_scooter", "lat": 38.88479783333333, "bike_id": "37dd6c1bc4fd8263ada95fd25302fcc8", "is_reserved": 0, "lon": -76.92617983333334, "rental_uris": {"android": "https://dc.lft.to/lastmile_qr_scan", "ios": "https://dc.lft.to/lastmile_qr_scan"}}, {"name": "b26a21699b2ae9ba0c15be357b3ada28", "is_disabled": 0, "fusion_lat": 0.0, "fusion_lon": 0.0, "type": "electric_bike", "lat": 38.95648633333333, "bike_id": "b26a21699b2ae9ba0c15be357b3ada28", "is_reserved": 0, "lon": -77.012786, "rental_uris": {"android": "https://dc.lft.to/lastmile_qr_scan", "ios": "https://dc.lft.to/lastmile_qr_scan"}}, {"name": "f1008278bb0409b8273af430077db74a", "is_disabled": 0, "fusion_lat": 0.0, "fusion_lon": 0.0, "type": "electric_scooter", "lat": 38.91922816666667, "bike_id": "f1008278bb0409b8273af430077db74a", "is_reserved": 0, "lon": -77.02508883333333, "rental_uris": {"android": "https://dc.lft.to/lastmile_qr_scan", "ios": "https://dc.lft.to/lastmile_qr_scan"}}, {"name": "5a13bb17eda9845b128e4e9b27a73875", "is_disabled": 0, "fusion_lat": 0.0, "fusion_lon": 0.0, "type": "electric_scooter", "lat": 38.92972966666667, "bike_id": "5a13bb17eda9845b128e4e9b27a73875", "is_reserved": 0, "lon": -77.01319466666666, "rental_uris": {"android": "https://dc.lft.to/lastmile_qr_scan", "ios": "https://dc.lft.to/lastmile_qr_scan"}}, {"name": "dd46b0ea34eda94369fc7bdb7d3f14d3", "is_disabled": 0, "fusion_lat": 0.0, "fusion_lon": 0.0, "type": "electric_scooter", "lat": 38.90729483333333, "bike_id": "dd46b0ea34eda94369fc7bdb7d3f14d3", "is_reserved": 0, "lon": -77.0434615, "rental_uris": {"android": "https://dc.lft.to/lastmile_qr_scan", "ios": "https://dc.lft.to/lastmile_qr_scan"}}, {"name": "e3767fdef464b45a06c5006373870590", "is_disabled": 0, "fusion_lat": 0.0, "fusion_lon": 0.0, "type": "electric_scooter", "lat": 38.85537583333333, "bike_id": "e3767fdef464b45a06c5006373870590", "is_reserved": 0, "lon": -76.98415383333334, "rental_uris": {"android": "https://dc.lft.to/lastmile_qr_scan", "ios": "https://dc.lft.to/lastmile_qr_scan"}}, {"name": "c5daf08c2453ba3289cd6780d57acede", "is_disabled": 0, "fusion_lat": 0.0, "fusion_lon": 0.0, "type": "electric_scooter", "lat": 38.89859783333333, "bike_id": "c5daf08c2453ba3289cd6780d57acede", "is_reserved": 0, "lon": -76.92748716666667, "rental_uris": {"android": "https://dc.lft.to/lastmile_qr_scan", "ios": "https://dc.lft.to/lastmile_qr_scan"}}, {"name": "f83435faa765598eeaca0148cbca2a5d", "is_disabled": 0, "fusion_lat": 0.0, "fusion_lon": 0.0, "type": "electric_scooter", "lat": 38.90078183333333, "bike_id": "f83435faa765598eeaca0148cbca2a5d", "is_reserved": 0, "lon": -76.93021633333333, "rental_uris": {"android": "https://dc.lft.to/lastmile_qr_scan", "ios": "https://dc.lft.to/lastmile_qr_scan"}}, {"name": "34acd11390147f1158ff7a27468e7473", "is_disabled": 0, "fusion_lat": 0.0, "fusion_lon": 0.0, "type": "electric_scooter", "lat": 38.921438, "bike_id": "34acd11390147f1158ff7a27468e7473", "is_reserved": 0, "lon": -77.0252965, "rental_uris": {"android": "https://dc.lft.to/lastmile_qr_scan", "ios": "https://dc.lft.to/lastmile_qr_scan"}}, {"name": "178613dd06e054bea5ece68984a668c8", "is_disabled": 0, "fusion_lat": 0.0, "fusion_lon": 0.0, "type": "electric_scooter", "lat": 38.907331666666664, "bike_id": "178613dd06e054bea5ece68984a668c8", "is_reserved": 0, "lon": -76.9862965, "rental_uris": {"android": "https://dc.lft.to/lastmile_qr_scan", "ios": "https://dc.lft.to/lastmile_qr_scan"}}, {"name": "f981c354df7bca6d7cd0745628c0511e", "is_disabled": 0, "fusion_lat": 0.0, "fusion_lon": 0.0, "type": "electric_scooter", "lat": 38.87640966666667, "bike_id": "f981c354df7bca6d7cd0745628c0511e", "is_reserved": 0, "lon": -77.00251983333334, "rental_uris": {"android": "https://dc.lft.to/lastmile_qr_scan", "ios": "https://dc.lft.to/lastmile_qr_scan"}}, {"name": "6a77a0681bd19aaace2400cb88ec7c26", "is_disabled": 0, "fusion_lat": 0.0, "fusion_lon": 0.0, "type": "electric_scooter", "lat": 38.9030365, "bike_id": "6a77a0681bd19aaace2400cb88ec7c26", "is_reserved": 0, "lon": -77.05054133333333, "rental_uris": {"android": "https://dc.lft.to/lastmile_qr_scan", "ios": "https://dc.lft.to/lastmile_qr_scan"}}, {"name": "90bd6c7c0feb722ab0e03eae8adf53e8", "is_disabled": 0, "fusion_lat": 0.0, "fusion_lon": 0.0, "type": "electric_scooter", "lat": 38.92007066666667, "bike_id": "90bd6c7c0feb722ab0e03eae8adf53e8", "is_reserved": 0, "lon": -77.03202966666667, "rental_uris": {"android": "https://dc.lft.to/lastmile_qr_scan", "ios": "https://dc.lft.to/lastmile_qr_scan"}}, {"name": "10949ceb8f84a83b487176548e6055c3", "is_disabled": 0, "fusion_lat": 0.0, "fusion_lon": 0.0, "type": "electric_scooter", "lat": 38.90344833333333, "bike_id": "10949ceb8f84a83b487176548e6055c3", "is_reserved": 0, "lon": -76.98270916666667, "rental_uris": {"android": "https://dc.lft.to/lastmile_qr_scan", "ios": "https://dc.lft.to/lastmile_qr_scan"}}, {"name": "c668a3057e1044f65e8a636e50ea78ce", "is_disabled": 0, "fusion_lat": 0.0, "fusion_lon": 0.0, "type": "electric_scooter", "lat": 38.903806333333335, "bike_id": "c668a3057e1044f65e8a636e50ea78ce", "is_reserved": 0, "lon": -77.04251916666666, "rental_uris": {"android": "https://dc.lft.to/lastmile_qr_scan", "ios": "https://dc.lft.to/lastmile_qr_scan"}}, {"name": "7e64552775839e601e5efe7cef8972f7", "is_disabled": 0, "fusion_lat": 0.0, "fusion_lon": 0.0, "type": "electric_scooter", "lat": 38.922352833333335, "bike_id": "7e64552775839e601e5efe7cef8972f7", "is_reserved": 0, "lon": -77.042393, "rental_uris": {"android": "https://dc.lft.to/lastmile_qr_scan", "ios": "https://dc.lft.to/lastmile_qr_scan"}}, {"name": "0fc0a48836f5cb9614a4b756306122e9", "is_disabled": 0, "fusion_lat": 0.0, "fusion_lon": 0.0, "type": "electric_scooter", "lat": 38.863811, "bike_id": "0fc0a48836f5cb9614a4b756306122e9", "is_reserved": 0, "lon": -76.98925183333333, "rental_uris": {"android": "https://dc.lft.to/lastmile_qr_scan", "ios": "https://dc.lft.to/lastmile_qr_scan"}}, {"name": "f560cc0544faf195299110d7d6615c39", "is_disabled": 0, "fusion_lat": 0.0, "fusion_lon": 0.0, "type": "electric_scooter", "lat": 38.92745983333333, "bike_id": "f560cc0544faf195299110d7d6615c39", "is_reserved": 0, "lon": -77.02532666666667, "rental_uris": {"android": "https://dc.lft.to/lastmile_qr_scan", "ios": "https://dc.lft.to/lastmile_qr_scan"}}, {"name": "1dfbf17da8b10a6db1d039411dbad375", "is_disabled": 0, "fusion_lat": 0.0, "fusion_lon": 0.0, "type": "electric_scooter", "lat": 38.905206666666665, "bike_id": "1dfbf17da8b10a6db1d039411dbad375", "is_reserved": 0, "lon": -77.06469583333333, "rental_uris": {"android": "https://dc.lft.to/lastmile_qr_scan", "ios": "https://dc.lft.to/lastmile_qr_scan"}}, {"name": "381efe6309c619305e2764a8619ac8c1", "is_disabled": 0, "fusion_lat": 0.0, "fusion_lon": 0.0, "type": "electric_bike", "lat": 38.9623085, "bike_id": "381efe6309c619305e2764a8619ac8c1", "is_reserved": 0, "lon": -77.02627633333333, "rental_uris": {"android": "https://dc.lft.to/lastmile_qr_scan", "ios": "https://dc.lft.to/lastmile_qr_scan"}}, {"name": "b6abda694171dfcda763a7f72e552a7c", "is_disabled": 0, "fusion_lat": 0.0, "fusion_lon": 0.0, "type": "electric_scooter", "lat": 38.904907333333334, "bike_id": "b6abda694171dfcda763a7f72e552a7c", "is_reserved": 0, "lon": -77.06022233333333, "rental_uris": {"android": "https://dc.lft.to/lastmile_qr_scan", "ios": "https://dc.lft.to/lastmile_qr_scan"}}, {"name": "a7de6711ee1325d2d847d1a138a340b6", "is_disabled": 0, "fusion_lat": 0.0, "fusion_lon": 0.0, "type": "electric_scooter", "lat": 38.917440666666664, "bike_id": "a7de6711ee1325d2d847d1a138a340b6", "is_reserved": 0, "lon": -77.036369, "rental_uris": {"android": "https://dc.lft.to/lastmile_qr_scan", "ios": "https://dc.lft.to/lastmile_qr_scan"}}, {"name": "0ceac14fd17df6de140348e06d2f0882", "is_disabled": 0, "fusion_lat": 0.0, "fusion_lon": 0.0, "type": "electric_scooter", "lat": 38.910258166666665, "bike_id": "0ceac14fd17df6de140348e06d2f0882", "is_reserved": 0, "lon": -77.044954, "rental_uris": {"android": "https://dc.lft.to/lastmile_qr_scan", "ios": "https://dc.lft.to/lastmile_qr_scan"}}, {"name": "8dda44081c1fc4ef1aab0e3c0e705e0c", "is_disabled": 0, "fusion_lat": 0.0, "fusion_lon": 0.0, "type": "electric_scooter", "lat": 38.90271083333333, "bike_id": "8dda44081c1fc4ef1aab0e3c0e705e0c", "is_reserved": 0, "lon": -77.03973683333334, "rental_uris": {"android": "https://dc.lft.to/lastmile_qr_scan", "ios": "https://dc.lft.to/lastmile_qr_scan"}}, {"name": "a126b526fab7821693cab02f55201c2b", "is_disabled": 0, "fusion_lat": 0.0, "fusion_lon": 0.0, "type": "electric_scooter", "lat": 38.90377516666667, "bike_id": "a126b526fab7821693cab02f55201c2b", "is_reserved": 0, "lon": -77.04292433333333, "rental_uris": {"android": "https://dc.lft.to/lastmile_qr_scan", "ios": "https://dc.lft.to/lastmile_qr_scan"}}, {"name": "6ea3c5b610c7b82d2570bdc0ba39500b", "is_disabled": 0, "fusion_lat": 0.0, "fusion_lon": 0.0, "type": "electric_scooter", "lat": 38.91263433333334, "bike_id": "6ea3c5b610c7b82d2570bdc0ba39500b", "is_reserved": 0, "lon": -77.02869033333333, "rental_uris": {"android": "https://dc.lft.to/lastmile_qr_scan", "ios": "https://dc.lft.to/lastmile_qr_scan"}}, {"name": "16bff96fb5002c8f09d7f7a6ea856fa0", "is_disabled": 0, "fusion_lat": 0.0, "fusion_lon": 0.0, "type": "electric_scooter", "lat": 38.89220433333333, "bike_id": "16bff96fb5002c8f09d7f7a6ea856fa0", "is_reserved": 0, "lon": -77.0468835, "rental_uris": {"android": "https://dc.lft.to/lastmile_qr_scan", "ios": "https://dc.lft.to/lastmile_qr_scan"}}, {"name": "e29bca405eb5a7cb8db5f05727b4b844", "is_disabled": 0, "fusion_lat": 0.0, "fusion_lon": 0.0, "type": "electric_bike", "lat": 39.0147935, "bike_id": "e29bca405eb5a7cb8db5f05727b4b844", "is_reserved": 0, "lon": -77.05491383333333, "rental_uris": {"android": "https://dc.lft.to/lastmile_qr_scan", "ios": "https://dc.lft.to/lastmile_qr_scan"}}, {"name": "c5835057571a6bf8c180b436686871e7", "is_disabled": 0, "fusion_lat": 0.0, "fusion_lon": 0.0, "type": "electric_scooter", "lat": 38.906317666666666, "bike_id": "c5835057571a6bf8c180b436686871e7", "is_reserved": 0, "lon": -77.02384916666666, "rental_uris": {"android": "https://dc.lft.to/lastmile_qr_scan", "ios": "https://dc.lft.to/lastmile_qr_scan"}}, {"name": "61778e4c00af31ea1d8a729741c3027a", "is_disabled": 0, "fusion_lat": 0.0, "fusion_lon": 0.0, "type": "electric_bike", "lat": 38.96739683333333, "bike_id": "61778e4c00af31ea1d8a729741c3027a", "is_reserved": 0, "lon": -76.9819475, "rental_uris": {"android": "https://dc.lft.to/lastmile_qr_scan", "ios": "https://dc.lft.to/lastmile_qr_scan"}}, {"name": "a6b1bef328b6ea98978e87ed5424353f", "is_disabled": 0, "fusion_lat": 0.0, "fusion_lon": 0.0, "type": "electric_scooter", "lat": 38.92250933333333, "bike_id": "a6b1bef328b6ea98978e87ed5424353f", "is_reserved": 0, "lon": -77.01929133333333, "rental_uris": {"android": "https://dc.lft.to/lastmile_qr_scan", "ios": "https://dc.lft.to/lastmile_qr_scan"}}, {"name": "8716e2a6233c35ea6e5ace6c5a9b85d4", "is_disabled": 0, "fusion_lat": 0.0, "fusion_lon": 0.0, "type": "electric_scooter", "lat": 38.91553666666667, "bike_id": "8716e2a6233c35ea6e5ace6c5a9b85d4", "is_reserved": 0, "lon": -77.04096733333333, "rental_uris": {"android": "https://dc.lft.to/lastmile_qr_scan", "ios": "https://dc.lft.to/lastmile_qr_scan"}}, {"name": "cd8cdc152bb2054bb24edc1c22362130", "is_disabled": 0, "fusion_lat": 0.0, "fusion_lon": 0.0, "type": "electric_scooter", "lat": 38.909703, "bike_id": "cd8cdc152bb2054bb24edc1c22362130", "is_reserved": 0, "lon": -77.03221416666666, "rental_uris": {"android": "https://dc.lft.to/lastmile_qr_scan", "ios": "https://dc.lft.to/lastmile_qr_scan"}}, {"name": "35fccd75c7050daa0464bdd9ebab3e8f", "is_disabled": 0, "fusion_lat": 0.0, "fusion_lon": 0.0, "type": "electric_scooter", "lat": 38.90237033333333, "bike_id": "35fccd75c7050daa0464bdd9ebab3e8f", "is_reserved": 0, "lon": -77.0019765, "rental_uris": {"android": "https://dc.lft.to/lastmile_qr_scan", "ios": "https://dc.lft.to/lastmile_qr_scan"}}, {"name": "ca04653b8a7cf6bdbecd326c3ca99a02", "is_disabled": 0, "fusion_lat": 0.0, "fusion_lon": 0.0, "type": "electric_scooter", "lat": 38.90819716666667, "bike_id": "ca04653b8a7cf6bdbecd326c3ca99a02", "is_reserved": 0, "lon": -77.03855716666666, "rental_uris": {"android": "https://dc.lft.to/lastmile_qr_scan", "ios": "https://dc.lft.to/lastmile_qr_scan"}}, {"name": "c864de35fc5f14e15fd13e6556dac77d", "is_disabled": 0, "fusion_lat": 0.0, "fusion_lon": 0.0, "type": "electric_scooter", "lat": 38.89606066666666, "bike_id": "c864de35fc5f14e15fd13e6556dac77d", "is_reserved": 0, "lon": -77.04555333333333, "rental_uris": {"android": "https://dc.lft.to/lastmile_qr_scan", "ios": "https://dc.lft.to/lastmile_qr_scan"}}, {"name": "b517c3c30cf7c36d4a38c79525c2a592", "is_disabled": 0, "fusion_lat": 0.0, "fusion_lon": 0.0, "type": "electric_scooter", "lat": 38.86253683333333, "bike_id": "b517c3c30cf7c36d4a38c79525c2a592", "is_reserved": 0, "lon": -76.99514966666666, "rental_uris": {"android": "https://dc.lft.to/lastmile_qr_scan", "ios": "https://dc.lft.to/lastmile_qr_scan"}}, {"name": "49ba04b6e798d779135349a01d4fff51", "is_disabled": 0, "fusion_lat": 0.0, "fusion_lon": 0.0, "type": "electric_scooter", "lat": 38.915495666666665, "bike_id": "49ba04b6e798d779135349a01d4fff51", "is_reserved": 0, "lon": -77.02208233333333, "rental_uris": {"android": "https://dc.lft.to/lastmile_qr_scan", "ios": "https://dc.lft.to/lastmile_qr_scan"}}, {"name": "917c5191ca2ba2a790be6fff20dcab32", "is_disabled": 0, "fusion_lat": 0.0, "fusion_lon": 0.0, "type": "electric_scooter", "lat": 38.88737066666667, "bike_id": "917c5191ca2ba2a790be6fff20dcab32", "is_reserved": 0, "lon": -77.0221085, "rental_uris": {"android": "https://dc.lft.to/lastmile_qr_scan", "ios": "https://dc.lft.to/lastmile_qr_scan"}}, {"name": "39c3f65617e636e0468d0ddb79b0e450", "is_disabled": 0, "fusion_lat": 0.0, "fusion_lon": 0.0, "type": "electric_scooter", "lat": 38.89502266666667, "bike_id": "39c3f65617e636e0468d0ddb79b0e450", "is_reserved": 0, "lon": -77.04671166666667, "rental_uris": {"android": "https://dc.lft.to/lastmile_qr_scan", "ios": "https://dc.lft.to/lastmile_qr_scan"}}, {"name": "40d79b4da334fda0107a88ec845476bb", "is_disabled": 0, "fusion_lat": 0.0, "fusion_lon": 0.0, "type": "electric_scooter", "lat": 38.90682066666667, "bike_id": "40d79b4da334fda0107a88ec845476bb", "is_reserved": 0, "lon": -77.03854916666667, "rental_uris": {"android": "https://dc.lft.to/lastmile_qr_scan", "ios": "https://dc.lft.to/lastmile_qr_scan"}}, {"name": "77cf86082ba9ae5efb8e04a6fa5d4bb6", "is_disabled": 0, "fusion_lat": 0.0, "fusion_lon": 0.0, "type": "electric_scooter", "lat": 38.90263733333333, "bike_id": "77cf86082ba9ae5efb8e04a6fa5d4bb6", "is_reserved": 0, "lon": -77.04188616666667, "rental_uris": {"android": "https://dc.lft.to/lastmile_qr_scan", "ios": "https://dc.lft.to/lastmile_qr_scan"}}, {"name": "f78741ff86fa557186346bf842d1c92c", "is_disabled": 0, "fusion_lat": 0.0, "fusion_lon": 0.0, "type": "electric_scooter", "lat": 38.881007333333336, "bike_id": "f78741ff86fa557186346bf842d1c92c", "is_reserved": 0, "lon": -77.01670916666667, "rental_uris": {"android": "https://dc.lft.to/lastmile_qr_scan", "ios": "https://dc.lft.to/lastmile_qr_scan"}}, {"name": "a165756f6f59bf0e754fdbc95f45245f", "is_disabled": 0, "fusion_lat": 0.0, "fusion_lon": 0.0, "type": "electric_scooter", "lat": 38.91868733333333, "bike_id": "a165756f6f59bf0e754fdbc95f45245f", "is_reserved": 0, "lon": -77.0476135, "rental_uris": {"android": "https://dc.lft.to/lastmile_qr_scan", "ios": "https://dc.lft.to/lastmile_qr_scan"}}, {"name": "c02295c6bb96638bf52324679443a05a", "is_disabled": 0, "fusion_lat": 0.0, "fusion_lon": 0.0, "type": "electric_scooter", "lat": 38.90415766666667, "bike_id": "c02295c6bb96638bf52324679443a05a", "is_reserved": 0, "lon": -77.053309, "rental_uris": {"android": "https://dc.lft.to/lastmile_qr_scan", "ios": "https://dc.lft.to/lastmile_qr_scan"}}, {"name": "280915a62929860faf9fde440defeabf", "is_disabled": 0, "fusion_lat": 0.0, "fusion_lon": 0.0, "type": "electric_scooter", "lat": 38.916151, "bike_id": "280915a62929860faf9fde440defeabf", "is_reserved": 0, "lon": -77.02199583333334, "rental_uris": {"android": "https://dc.lft.to/lastmile_qr_scan", "ios": "https://dc.lft.to/lastmile_qr_scan"}}, {"name": "173658113cd625e5f0e1064f94e373c9", "is_disabled": 0, "fusion_lat": 0.0, "fusion_lon": 0.0, "type": "electric_scooter", "lat": 38.937842, "bike_id": "173658113cd625e5f0e1064f94e373c9", "is_reserved": 0, "lon": -77.032878, "rental_uris": {"android": "https://dc.lft.to/lastmile_qr_scan", "ios": "https://dc.lft.to/lastmile_qr_scan"}}, {"name": "f56315a10229599f4cbde0799acbf9b0", "is_disabled": 0, "fusion_lat": 0.0, "fusion_lon": 0.0, "type": "electric_scooter", "lat": 38.906012, "bike_id": "f56315a10229599f4cbde0799acbf9b0", "is_reserved": 0, "lon": -77.0629985, "rental_uris": {"android": "https://dc.lft.to/lastmile_qr_scan", "ios": "https://dc.lft.to/lastmile_qr_scan"}}, {"name": "c1b4a05323109872aaecd8f903af1e0a", "is_disabled": 0, "fusion_lat": 0.0, "fusion_lon": 0.0, "type": "electric_scooter", "lat": 38.835697333333336, "bike_id": "c1b4a05323109872aaecd8f903af1e0a", "is_reserved": 0, "lon": -76.994828, "rental_uris": {"android": "https://dc.lft.to/lastmile_qr_scan", "ios": "https://dc.lft.to/lastmile_qr_scan"}}, {"name": "d0891b56d0bc03c1cba0beb2177b9564", "is_disabled": 0, "fusion_lat": 0.0, "fusion_lon": 0.0, "type": "electric_scooter", "lat": 38.9007415, "bike_id": "d0891b56d0bc03c1cba0beb2177b9564", "is_reserved": 0, "lon": -77.04762066666666, "rental_uris": {"android": "https://dc.lft.to/lastmile_qr_scan", "ios": "https://dc.lft.to/lastmile_qr_scan"}}, {"name": "ce88b04a797edda51481ed620950102d", "is_disabled": 0, "fusion_lat": 0.0, "fusion_lon": 0.0, "type": "electric_scooter", "lat": 38.9072935, "bike_id": "ce88b04a797edda51481ed620950102d", "is_reserved": 0, "lon": -77.04273683333334, "rental_uris": {"android": "https://dc.lft.to/lastmile_qr_scan", "ios": "https://dc.lft.to/lastmile_qr_scan"}}, {"name": "70d1e423b5540910e6703e65f6b7b648", "is_disabled": 0, "fusion_lat": 0.0, "fusion_lon": 0.0, "type": "electric_scooter", "lat": 38.91107983333333, "bike_id": "70d1e423b5540910e6703e65f6b7b648", "is_reserved": 0, "lon": -77.0446815, "rental_uris": {"android": "https://dc.lft.to/lastmile_qr_scan", "ios": "https://dc.lft.to/lastmile_qr_scan"}}, {"name": "1a33c2a686eebdeaf1af814febe033bd", "is_disabled": 0, "fusion_lat": 0.0, "fusion_lon": 0.0, "type": "electric_scooter", "lat": 38.90732966666667, "bike_id": "1a33c2a686eebdeaf1af814febe033bd", "is_reserved": 0, "lon": -77.04488583333334, "rental_uris": {"android": "https://dc.lft.to/lastmile_qr_scan", "ios": "https://dc.lft.to/lastmile_qr_scan"}}, {"name": "4f00266114ccd6d996ea88ca2dc36ed0", "is_disabled": 0, "fusion_lat": 0.0, "fusion_lon": 0.0, "type": "electric_scooter", "lat": 38.923935666666665, "bike_id": "4f00266114ccd6d996ea88ca2dc36ed0", "is_reserved": 0, "lon": -77.02430116666666, "rental_uris": {"android": "https://dc.lft.to/lastmile_qr_scan", "ios": "https://dc.lft.to/lastmile_qr_scan"}}, {"name": "27a543ca8e39a21209dd0307270d7b4a", "is_disabled": 0, "fusion_lat": 0.0, "fusion_lon": 0.0, "type": "electric_scooter", "lat": 38.89529233333333, "bike_id": "27a543ca8e39a21209dd0307270d7b4a", "is_reserved": 0, "lon": -77.0034305, "rental_uris": {"android": "https://dc.lft.to/lastmile_qr_scan", "ios": "https://dc.lft.to/lastmile_qr_scan"}}, {"name": "0073a327cafb08c2f15ef5da8cd5b707", "is_disabled": 0, "fusion_lat": 0.0, "fusion_lon": 0.0, "type": "electric_scooter", "lat": 38.915511333333335, "bike_id": "0073a327cafb08c2f15ef5da8cd5b707", "is_reserved": 0, "lon": -77.02553216666666, "rental_uris": {"android": "https://dc.lft.to/lastmile_qr_scan", "ios": "https://dc.lft.to/lastmile_qr_scan"}}, {"name": "b8668b14a32c05dcec5a5702897a4cce", "is_disabled": 0, "fusion_lat": 0.0, "fusion_lon": 0.0, "type": "electric_scooter", "lat": 38.891724833333335, "bike_id": "b8668b14a32c05dcec5a5702897a4cce", "is_reserved": 0, "lon": -77.01553816666667, "rental_uris": {"android": "https://dc.lft.to/lastmile_qr_scan", "ios": "https://dc.lft.to/lastmile_qr_scan"}}, {"name": "2506d69ae51c073d1f4ef04b6e25eab6", "is_disabled": 0, "fusion_lat": 0.0, "fusion_lon": 0.0, "type": "electric_scooter", "lat": 38.89839666666666, "bike_id": "2506d69ae51c073d1f4ef04b6e25eab6", "is_reserved": 0, "lon": -77.007432, "rental_uris": {"android": "https://dc.lft.to/lastmile_qr_scan", "ios": "https://dc.lft.to/lastmile_qr_scan"}}, {"name": "c77bc9a805e7fde89ae3c3832c522803", "is_disabled": 0, "fusion_lat": 0.0, "fusion_lon": 0.0, "type": "electric_scooter", "lat": 38.905573833333335, "bike_id": "c77bc9a805e7fde89ae3c3832c522803", "is_reserved": 0, "lon": -77.04508883333334, "rental_uris": {"android": "https://dc.lft.to/lastmile_qr_scan", "ios": "https://dc.lft.to/lastmile_qr_scan"}}, {"name": "e146e405387c314663b8d29cdf99b368", "is_disabled": 0, "fusion_lat": 0.0, "fusion_lon": 0.0, "type": "electric_scooter", "lat": 38.9170825, "bike_id": "e146e405387c314663b8d29cdf99b368", "is_reserved": 0, "lon": -77.03865866666666, "rental_uris": {"android": "https://dc.lft.to/lastmile_qr_scan", "ios": "https://dc.lft.to/lastmile_qr_scan"}}, {"name": "4f60189a1abdabf0c241ab082cc8d286", "is_disabled": 0, "fusion_lat": 0.0, "fusion_lon": 0.0, "type": "electric_scooter", "lat": 38.9168525, "bike_id": "4f60189a1abdabf0c241ab082cc8d286", "is_reserved": 0, "lon": -77.0297185, "rental_uris": {"android": "https://dc.lft.to/lastmile_qr_scan", "ios": "https://dc.lft.to/lastmile_qr_scan"}}, {"name": "59c7bc34775dd9febd115c18901b3a12", "is_disabled": 0, "fusion_lat": 0.0, "fusion_lon": 0.0, "type": "electric_scooter", "lat": 38.897482333333336, "bike_id": "59c7bc34775dd9febd115c18901b3a12", "is_reserved": 0, "lon": -77.020158, "rental_uris": {"android": "https://dc.lft.to/lastmile_qr_scan", "ios": "https://dc.lft.to/lastmile_qr_scan"}}, {"name": "bce84e049e8811feee9d96f27b8707a5", "is_disabled": 0, "fusion_lat": 0.0, "fusion_lon": 0.0, "type": "electric_scooter", "lat": 38.89219716666667, "bike_id": "bce84e049e8811feee9d96f27b8707a5", "is_reserved": 0, "lon": -77.022267, "rental_uris": {"android": "https://dc.lft.to/lastmile_qr_scan", "ios": "https://dc.lft.to/lastmile_qr_scan"}},