{"data": {"bikes": [{"type": "electric_scooter", "name": "e0c0f2a88edfa1fb8ed6f288280fd785", "fusion_lat": 0.0, "fusion_lon": 0.0, "lon": -77.0362945, "is_disabled": 0, "bike_id": "e0c0f2a88edfa1fb8ed6f288280fd785", "is_reserved": 0, "rental_uris": {"android": "https://dc.lft.to/lastmile_qr_scan", "ios": "https://dc.lft.to/lastmile_qr_scan"}, "lat": 38.936872666666666}, {"type": "electric_scooter", "name": "9cf29e55ad064cdd15b1dac8e1746e88", "fusion_lat": 0.0, "fusion_lon": 0.0, "lon": -77.05914066666666, "is_disabled": 0, "bike_id": "9cf29e55ad064cdd15b1dac8e1746e88", "is_reserved": 0, "rental_uris": {"android": "https://dc.lft.to/lastmile_qr_scan", "ios": "https://dc.lft.to/lastmile_qr_scan"}, "lat": 38.902666833333335}, {"type": "electric_scooter", "name": "433dd769acb2d6bf7c0e19fa54c2e74e", "fusion_lat": 0.0, "fusion_lon": 0.0, "lon": -77.03954966666667, "is_disabled": 0, "bike_id": "433dd769acb2d6bf7c0e19fa54c2e74e", "is_reserved": 0, "rental_uris": {"android": "https://dc.lft.to/lastmile_qr_scan", "ios": "https://dc.lft.to/lastmile_qr_scan"}, "lat": 38.8924985}, {"type": "electric_scooter", "name": "b02e73c8fffeab1f48f165524f3388a5", "fusion_lat": 0.0, "fusion_lon": 0.0, "lon": -77.07862933333334, "is_disabled": 0, "bike_id": "b02e73c8fffeab1f48f165524f3388a5", "is_reserved": 0, "rental_uris": {"android": "https://dc.lft.to/lastmile_qr_scan", "ios": "https://dc.lft.to/lastmile_qr_scan"}, "lat": 38.924675}, {"type": "electric_scooter", "name": "b8d6fc12a3b807aec41c32c28c8dc419", "fusion_lat": 0.0, "fusion_lon": 0.0, "lon": -77.03633516666666, "is_disabled": 0, "bike_id": "b8d6fc12a3b807aec41c32c28c8dc419", "is_reserved": 0, "rental_uris": {"android": "https://dc.lft.to/lastmile_qr_scan", "ios": "https://dc.lft.to/lastmile_qr_scan"}, "lat": 38.925975333333334}, {"type": "electric_scooter", "name": "868c30134f21fcfb226b4648e6a026b5", "fusion_lat": 0.0, "fusion_lon": 0.0, "lon": -77.0257175, "is_disabled": 0, "bike_id": "868c30134f21fcfb226b4648e6a026b5", "is_reserved": 0, "rental_uris": {"android": "https://dc.lft.to/lastmile_qr_scan", "ios": "https://dc.lft.to/lastmile_qr_scan"}, "lat": 38.941975666666664}, {"type": "electric_scooter", "name": "a935fcd1e50aa3d16966f23b3424d861", "fusion_lat": 0.0, "fusion_lon": 0.0, "lon": -77.01838533333333, "is_disabled": 0, "bike_id": "a935fcd1e50aa3d16966f23b3424d861", "is_reserved": 0, "rental_uris": {"android": "https://dc.lft.to/lastmile_qr_scan", "ios": "https://dc.lft.to/lastmile_qr_scan"}, "lat": 38.909603}, {"type": "electric_scooter", "name": "099e831d80a50273aac9e88a8df60b68", "fusion_lat": 0.0, "fusion_lon": 0.0, "lon": -77.032706, "is_disabled": 0, "bike_id": "099e831d80a50273aac9e88a8df60b68", "is_reserved": 0, "rental_uris": {"android": "https://dc.lft.to/lastmile_qr_scan", "ios": "https://dc.lft.to/lastmile_qr_scan"}, "lat": 38.91989516666667}, {"type": "electric_scooter", "name": "6d029f2f4e4f6efdba7e5a7065f6089d", "fusion_lat": 0.0, "fusion_lon": 0.0, "lon": -77.0385645, "is_disabled": 0, "bike_id": "6d029f2f4e4f6efdba7e5a7065f6089d", "is_reserved": 0, "rental_uris": {"android": "https://dc.lft.to/lastmile_qr_scan", "ios": "https://dc.lft.to/lastmile_qr_scan"}, "lat": 38.916650833333335}, {"type": "electric_scooter", "name": "f0eb7eac9804803c0a6a5acf0399cdce", "fusion_lat": 0.0, "fusion_lon": 0.0, "lon": -77.02508883333333, "is_disabled": 0, "bike_id": "f0eb7eac9804803c0a6a5acf0399cdce", "is_reserved": 0, "rental_uris": {"android": "https://dc.lft.to/lastmile_qr_scan", "ios": "https://dc.lft.to/lastmile_qr_scan"}, "lat": 38.921008}, {"type": "electric_scooter", "name": "81eb05f8be750bfdca36772d9374f7bb", "fusion_lat": 0.0, "fusion_lon": 0.0, "lon": -77.01216016666666, "is_disabled": 0, "bike_id": "81eb05f8be750bfdca36772d9374f7bb", "is_reserved": 0, "rental_uris": {"android": "https://dc.lft.to/lastmile_qr_scan", "ios": "https://dc.lft.to/lastmile_qr_scan"}, "lat": 38.918222}, {"type": "electric_scooter", "name": "3c29657048d25c78bfec048f43a41d58", "fusion_lat": 0.0, "fusion_lon": 0.0, "lon": -76.98373, "is_disabled": 0, "bike_id": "3c29657048d25c78bfec048f43a41d58", "is_reserved": 0, "rental_uris": {"android": "https://dc.lft.to/lastmile_qr_scan", "ios": "https://dc.lft.to/lastmile_qr_scan"}, "lat": 38.8926515}, {"type": "electric_bike", "name": "1ec813f85b5c977d560933d4270f67e2", "fusion_lat": 0.0, "fusion_lon": 0.0, "lon": -77.02804733333333, "is_disabled": 0, "bike_id": "1ec813f85b5c977d560933d4270f67e2", "is_reserved": 0, "rental_uris": {"android": "https://dc.lft.to/lastmile_qr_scan", "ios": "https://dc.lft.to/lastmile_qr_scan"}, "lat": 38.966005}, {"type": "electric_scooter", "name": "c406e566011ba48ca086934ca89b24ba", "fusion_lat": 0.0, "fusion_lon": 0.0, "lon": -77.03621933333334, "is_disabled": 0, "bike_id": "c406e566011ba48ca086934ca89b24ba", "is_reserved": 0, "rental_uris": {"android": "https://dc.lft.to/lastmile_qr_scan", "ios": "https://dc.lft.to/lastmile_qr_scan"}, "lat": 38.90373}, {"type": "electric_scooter", "name": "fd52e068aa71ccf6b3fcaafdef6f4721", "fusion_lat": 0.0, "fusion_lon": 0.0, "lon": -77.031859, "is_disabled": 0, "bike_id": "fd52e068aa71ccf6b3fcaafdef6f4721", "is_reserved": 0, "rental_uris": {"android": "https://dc.lft.to/lastmile_qr_scan", "ios": "https://dc.lft.to/lastmile_qr_scan"}, "lat": 38.91346016666667}, {"type": "electric_scooter", "name": "1eb980825f57336f89537c8a7470f40e", "fusion_lat": 0.0, "fusion_lon": 0.0, "lon": -77.0200655, "is_disabled": 0, "bike_id": "1eb980825f57336f89537c8a7470f40e", "is_reserved": 0, "rental_uris": {"android": "https://dc.lft.to/lastmile_qr_scan", "ios": "https://dc.lft.to/lastmile_qr_scan"}, "lat": 38.911620166666665}, {"type": "electric_scooter", "name": "2a4b310f9e239da0c2244b4dc3ae759d", "fusion_lat": 0.0, "fusion_lon": 0.0, "lon": -76.948924, "is_disabled": 0, "bike_id": "2a4b310f9e239da0c2244b4dc3ae759d", "is_reserved": 0, "rental_uris": {"android": "https://dc.lft.to/lastmile_qr_scan", "ios": "https://dc.lft.to/lastmile_qr_scan"}, "lat": 38.895373666666664}, {"type": "electric_scooter", "name": "e555a7a6c4c7d906318c80f62e8389b1", "fusion_lat": 0.0, "fusion_lon": 0.0, "lon": -76.985688, "is_disabled": 0, "bike_id": "e555a7a6c4c7d906318c80f62e8389b1", "is_reserved": 0, "rental_uris": {"android": "https://dc.lft.to/lastmile_qr_scan", "ios": "https://dc.lft.to/lastmile_qr_scan"}, "lat": 38.896212166666665}, {"type": "electric_scooter", "name": "5bb2e161c863b719b511aaec4b6b0d02", "fusion_lat": 0.0, "fusion_lon": 0.0, "lon": -77.02906033333333, "is_disabled": 0, "bike_id": "5bb2e161c863b719b511aaec4b6b0d02", "is_reserved": 0, "rental_uris": {"android": "https://dc.lft.to/lastmile_qr_scan", "ios": "https://dc.lft.to/lastmile_qr_scan"}, "lat": 38.952979}, {"type": "electric_scooter", "name": "5d44d3afd4401ad9b6bcae362cbc6266", "fusion_lat": 0.0, "fusion_lon": 0.0, "lon": -77.07378266666667, "is_disabled": 0, "bike_id": "5d44d3afd4401ad9b6bcae362cbc6266", "is_reserved": 0, "rental_uris": {"android": "https://dc.lft.to/lastmile_qr_scan", "ios": "https://dc.lft.to/lastmile_qr_scan"}, "lat": 38.8956475}, {"type": "electric_scooter", "name": "0ee85b9fd3c9fbc9c7c4c9a0be9675ce", "fusion_lat": 0.0, "fusion_lon": 0.0, "lon": -77.02512066666667, "is_disabled": 0, "bike_id": "0ee85b9fd3c9fbc9c7c4c9a0be9675ce", "is_reserved": 0, "rental_uris": {"android": "https://dc.lft.to/lastmile_qr_scan", "ios": "https://dc.lft.to/lastmile_qr_scan"}, "lat": 38.920766666666665}, {"type": "electric_bike", "name": "2950e0820325c0ceb86df3c48e541636", "fusion_lat": 0.0, "fusion_lon": 0.0, "lon": -76.96088033333334, "is_disabled": 0, "bike_id": "2950e0820325c0ceb86df3c48e541636", "is_reserved": 0, "rental_uris": {"android": "https://dc.lft.to/lastmile_qr_scan", "ios": "https://dc.lft.to/lastmile_qr_scan"}, "lat": 38.91853866666666}, {"type": "electric_scooter", "name": "4e97f2464a6996c3f792a30c3077e9ee", "fusion_lat": 0.0, "fusion_lon": 0.0, "lon": -77.04202366666667, "is_disabled": 0, "bike_id": "4e97f2464a6996c3f792a30c3077e9ee", "is_reserved": 0, "rental_uris": {"android": "https://dc.lft.to/lastmile_qr_scan", "ios": "https://dc.lft.to/lastmile_qr_scan"}, "lat": 38.92052283333334}, {"type": "electric_scooter", "name": "756a6c50744e251a09d4e32a6ac34df4", "fusion_lat": 0.0, "fusion_lon": 0.0, "lon": -77.0255795, "is_disabled": 0, "bike_id": "756a6c50744e251a09d4e32a6ac34df4", "is_reserved": 0, "rental_uris": {"android": "https://dc.lft.to/lastmile_qr_scan", "ios": "https://dc.lft.to/lastmile_qr_scan"}, "lat": 38.953928}, {"type": "electric_scooter", "name": "9d6697540cee8cc78263c15e208c1a66", "fusion_lat": 0.0, "fusion_lon": 0.0, "lon": -77.00750116666667, "is_disabled": 0, "bike_id": "9d6697540cee8cc78263c15e208c1a66", "is_reserved": 0, "rental_uris": {"android": "https://dc.lft.to/lastmile_qr_scan", "ios": "https://dc.lft.to/lastmile_qr_scan"}, "lat": 38.87663383333334}, {"type": "electric_scooter", "name": "5711e5b7898955be179f3a4487821d3e", "fusion_lat": 0.0, "fusion_lon": 0.0, "lon": -76.96520416666667, "is_disabled": 0, "bike_id": "5711e5b7898955be179f3a4487821d3e", "is_reserved": 0, "rental_uris": {"android": "https://dc.lft.to/lastmile_qr_scan", "ios": "https://dc.lft.to/lastmile_qr_scan"}, "lat": 38.876333}, {"type": "electric_scooter", "name": "4a5f5235b1e1a8388e8191588d658cb7", "fusion_lat": 0.0, "fusion_lon": 0.0, "lon": -77.03565816666666, "is_disabled": 0, "bike_id": "4a5f5235b1e1a8388e8191588d658cb7", "is_reserved": 0, "rental_uris": {"android": "https://dc.lft.to/lastmile_qr_scan", "ios": "https://dc.lft.to/lastmile_qr_scan"}, "lat": 38.90961866666667}, {"type": "electric_scooter", "name": "0bf6ce5a6dcd0e4974d9bdace9385cd1", "fusion_lat": 0.0, "fusion_lon": 0.0, "lon": -76.94107366666667, "is_disabled": 0, "bike_id": "0bf6ce5a6dcd0e4974d9bdace9385cd1", "is_reserved": 0, "rental_uris": {"android": "https://dc.lft.to/lastmile_qr_scan", "ios": "https://dc.lft.to/lastmile_qr_scan"}, "lat": 38.893655333333335}, {"type": "electric_scooter", "name": "c15765a0bd94eeefdc0d02749beeeef9", "fusion_lat": 0.0, "fusion_lon": 0.0, "lon": -77.02313716666667, "is_disabled": 0, "bike_id": "c15765a0bd94eeefdc0d02749beeeef9", "is_reserved": 0, "rental_uris": {"android": "https://dc.lft.to/lastmile_qr_scan", "ios": "https://dc.lft.to/lastmile_qr_scan"}, "lat": 38.9178185}, {"type": "electric_scooter", "name": "d952babf384e32d10dfc35fe0e1d1ee3", "fusion_lat": 0.0, "fusion_lon": 0.0, "lon": -77.01768716666666, "is_disabled": 0, "bike_id": "d952babf384e32d10dfc35fe0e1d1ee3", "is_reserved": 0, "rental_uris": {"android": "https://dc.lft.to/lastmile_qr_scan", "ios": "https://dc.lft.to/lastmile_qr_scan"}, "lat": 38.92100466666667}, {"type": "electric_scooter", "name": "2ee37d936b018c1bd2050dca07e989f8", "fusion_lat": 0.0, "fusion_lon": 0.0, "lon": -77.05318416666667, "is_disabled": 0, "bike_id": "2ee37d936b018c1bd2050dca07e989f8", "is_reserved": 0, "rental_uris": {"android": "https://dc.lft.to/lastmile_qr_scan", "ios": "https://dc.lft.to/lastmile_qr_scan"}, "lat": 38.906431833333336}, {"type": "electric_scooter", "name": "5b2c1731f47da3342c8334403b15ece2", "fusion_lat": 0.0, "fusion_lon": 0.0, "lon": -77.016172, "is_disabled": 0, "bike_id": "5b2c1731f47da3342c8334403b15ece2", "is_reserved": 0, "rental_uris": {"android": "https://dc.lft.to/lastmile_qr_scan", "ios": "https://dc.lft.to/lastmile_qr_scan"}, "lat": 38.915937666666665}, {"type": "electric_bike", "name": "a9b3119ae4ddaa620c46bf34c7e9057b", "fusion_lat": 0.0, "fusion_lon": 0.0, "lon": -76.973167, "is_disabled": 0, "bike_id": "a9b3119ae4ddaa620c46bf34c7e9057b", "is_reserved": 0, "rental_uris": {"android": "https://dc.lft.to/lastmile_qr_scan", "ios": "https://dc.lft.to/lastmile_qr_scan"}, "lat": 38.917651}, {"type": "electric_scooter", "name": "7f809d73b58e5ef85404edd3de81d5f9", "fusion_lat": 0.0, "fusion_lon": 0.0, "lon": -76.992519, "is_disabled": 0, "bike_id": "7f809d73b58e5ef85404edd3de81d5f9", "is_reserved": 0, "rental_uris": {"android": "https://dc.lft.to/lastmile_qr_scan", "ios": "https://dc.lft.to/lastmile_qr_scan"}, "lat": 38.940696}, {"type": "electric_scooter", "name": "b6e6dc1387042ef896a96e56f4081c85", "fusion_lat": 0.0, "fusion_lon": 0.0, "lon": -77.01716166666667, "is_disabled": 0, "bike_id": "b6e6dc1387042ef896a96e56f4081c85", "is_reserved": 0, "rental_uris": {"android": "https://dc.lft.to/lastmile_qr_scan", "ios": "https://dc.lft.to/lastmile_qr_scan"}, "lat": 38.90455133333333}, {"type": "electric_bike", "name": "a96b26602230a11558b4aef87a43f257", "fusion_lat": 0.0, "fusion_lon": 0.0, "lon": -77.07755783333333, "is_disabled": 0, "bike_id": "a96b26602230a11558b4aef87a43f257", "is_reserved": 0, "rental_uris": {"android": "https://dc.lft.to/lastmile_qr_scan", "ios": "https://dc.lft.to/lastmile_qr_scan"}, "lat": 38.841928}, {"type": "electric_bike", "name": "50e1bedfd3f8ae880dfc7e7a22ac21ea", "fusion_lat": 0.0, "fusion_lon": 0.0, "lon": -77.04598033333333, "is_disabled": 0, "bike_id": "50e1bedfd3f8ae880dfc7e7a22ac21ea", "is_reserved": 0, "rental_uris": {"android": "https://dc.lft.to/lastmile_qr_scan", "ios": "https://dc.lft.to/lastmile_qr_scan"}, "lat": 38.93302883333333}, {"type": "electric_scooter", "name": "a3df8d03c4d493b18d215966d157f53d", "fusion_lat": 0.0, "fusion_lon": 0.0, "lon": -77.017063, "is_disabled": 0, "bike_id": "a3df8d03c4d493b18d215966d157f53d", "is_reserved": 0, "rental_uris": {"android": "https://dc.lft.to/lastmile_qr_scan", "ios": "https://dc.lft.to/lastmile_qr_scan"}, "lat": 38.872994166666665}, {"type": "electric_scooter", "name": "5f1d890d6a1923871093234764574821", "fusion_lat": 0.0, "fusion_lon": 0.0, "lon": -77.01759966666667, "is_disabled": 0, "bike_id": "5f1d890d6a1923871093234764574821", "is_reserved": 0, "rental_uris": {"android": "https://dc.lft.to/lastmile_qr_scan", "ios": "https://dc.lft.to/lastmile_qr_scan"}, "lat": 38.876808833333335}, {"type": "electric_scooter", "name": "d8559b2b23e83409f50bc62c855655c0", "fusion_lat": 0.0, "fusion_lon": 0.0, "lon": -77.03923016666667, "is_disabled": 0, "bike_id": "d8559b2b23e83409f50bc62c855655c0", "is_reserved": 0, "rental_uris": {"android": "https://dc.lft.to/lastmile_qr_scan", "ios": "https://dc.lft.to/lastmile_qr_scan"}, "lat": 38.921032833333335}, {"type": "electric_scooter", "name": "1a9329cb624194844171ebe3b3ce93a7", "fusion_lat": 0.0, "fusion_lon": 0.0, "lon": -77.03634316666667, "is_disabled": 0, "bike_id": "1a9329cb624194844171ebe3b3ce93a7", "is_reserved": 0, "rental_uris": {"android": "https://dc.lft.to/lastmile_qr_scan", "ios": "https://dc.lft.to/lastmile_qr_scan"}, "lat": 38.903744833333334}, {"type": "electric_scooter", "name": "df2941df44104d1904aa3d8356a2cb33", "fusion_lat": 0.0, "fusion_lon": 0.0, "lon": -76.926279, "is_disabled": 0, "bike_id": "df2941df44104d1904aa3d8356a2cb33", "is_reserved": 0, "rental_uris": {"android": "https://dc.lft.to/lastmile_qr_scan", "ios": "https://dc.lft.to/lastmile_qr_scan"}, "lat": 38.88374433333333}, {"type": "electric_scooter", "name": "ff62bd647ec5776cd807c5e70ecead6d", "fusion_lat": 0.0, "fusion_lon": 0.0, "lon": -77.03384283333334, "is_disabled": 0, "bike_id": "ff62bd647ec5776cd807c5e70ecead6d", "is_reserved": 0, "rental_uris": {"android": "https://dc.lft.to/lastmile_qr_scan", "ios": "https://dc.lft.to/lastmile_qr_scan"}, "lat": 38.909827666666665}, {"type": "electric_scooter", "name": "696529d71ed126a31ed0e7f615bba532", "fusion_lat": 0.0, "fusion_lon": 0.0, "lon": -77.03635433333334, "is_disabled": 0, "bike_id": "696529d71ed126a31ed0e7f615bba532", "is_reserved": 0, "rental_uris": {"android": "https://dc.lft.to/lastmile_qr_scan", "ios": "https://dc.lft.to/lastmile_qr_scan"}, "lat": 38.93311883333333}, {"type": "electric_scooter", "name": "d1ece474cef72d2e719b1e88fd1ea9af", "fusion_lat": 0.0, "fusion_lon": 0.0, "lon": -77.04776866666667, "is_disabled": 0, "bike_id": "d1ece474cef72d2e719b1e88fd1ea9af", "is_reserved": 0, "rental_uris": {"android": "https://dc.lft.to/lastmile_qr_scan", "ios": "https://dc.lft.to/lastmile_qr_scan"}, "lat": 38.908584}, {"type": "electric_scooter", "name": "6a1d4b83adcf7b32d0e9a071ad7a30fa", "fusion_lat": 0.0, "fusion_lon": 0.0, "lon": -76.99635183333334, "is_disabled": 0, "bike_id": "6a1d4b83adcf7b32d0e9a071ad7a30fa", "is_reserved": 0, "rental_uris": {"android": "https://dc.lft.to/lastmile_qr_scan", "ios": "https://dc.lft.to/lastmile_qr_scan"}, "lat": 38.905371333333335}, {"type": "electric_scooter", "name": "b8f172f0917e1614143f0e5ab184a0e0", "fusion_lat": 0.0, "fusion_lon": 0.0, "lon": -77.03264383333334, "is_disabled": 0, "bike_id": "b8f172f0917e1614143f0e5ab184a0e0", "is_reserved": 0, "rental_uris": {"android": "https://dc.lft.to/lastmile_qr_scan", "ios": "https://dc.lft.to/lastmile_qr_scan"}, "lat": 38.91981283333333}, {"type": "electric_scooter", "name": "c1b690ffeaca30a9d0e8ac145062dfe9", "fusion_lat": 0.0, "fusion_lon": 0.0, "lon": -77.043635, "is_disabled": 0, "bike_id": "c1b690ffeaca30a9d0e8ac145062dfe9", "is_reserved": 0, "rental_uris": {"android": "https://dc.lft.to/lastmile_qr_scan", "ios": "https://dc.lft.to/lastmile_qr_scan"}, "lat": 38.92167583333333}, {"type": "electric_scooter", "name": "f245aaf0c60f90c8c1a17df4897c379d", "fusion_lat": 0.0, "fusion_lon": 0.0, "lon": -77.03071616666666, "is_disabled": 0, "bike_id": "f245aaf0c60f90c8c1a17df4897c379d", "is_reserved": 0, "rental_uris": {"android": "https://dc.lft.to/lastmile_qr_scan", "ios": "https://dc.lft.to/lastmile_qr_scan"}, "lat": 38.922508}, {"type": "electric_scooter", "name": "863f5ce49ecdb17febc31526f6e35641", "fusion_lat": 0.0, "fusion_lon": 0.0, "lon": -76.9809955, "is_disabled": 0, "bike_id": "863f5ce49ecdb17febc31526f6e35641", "is_reserved": 0, "rental_uris": {"android": "https://dc.lft.to/lastmile_qr_scan", "ios": "https://dc.lft.to/lastmile_qr_scan"}, "lat": 38.8571365}, {"type": "electric_scooter", "name": "e915b75566f63568f5fe0aa618f8f58f", "fusion_lat": 0.0, "fusion_lon": 0.0, "lon": -77.04177733333333, "is_disabled": 0, "bike_id": "e915b75566f63568f5fe0aa618f8f58f", "is_reserved": 0, "rental_uris": {"android": "https://dc.lft.to/lastmile_qr_scan", "ios": "https://dc.lft.to/lastmile_qr_scan"}, "lat": 38.915513833333335}, {"type": "electric_scooter", "name": "9c6d9017586ea20c7b43e5e1347d8f2c", "fusion_lat": 0.0, "fusion_lon": 0.0, "lon": -77.0425925, "is_disabled": 0, "bike_id": "9c6d9017586ea20c7b43e5e1347d8f2c", "is_reserved": 0, "rental_uris": {"android": "https://dc.lft.to/lastmile_qr_scan", "ios": "https://dc.lft.to/lastmile_qr_scan"}, "lat": 38.91971016666667}, {"type": "electric_scooter", "name": "2fdc4fbf14f04a5b51e1cc217147b683", "fusion_lat": 0.0, "fusion_lon": 0.0, "lon": -76.99099766666667, "is_disabled": 0, "bike_id": "2fdc4fbf14f04a5b51e1cc217147b683", "is_reserved": 0, "rental_uris": {"android": "https://dc.lft.to/lastmile_qr_scan", "ios": "https://dc.lft.to/lastmile_qr_scan"}, "lat": 38.857311333333335}, {"type": "electric_scooter", "name": "978ac85876dd8a3be787127c7e346d2c", "fusion_lat": 0.0, "fusion_lon": 0.0, "lon": -77.05136066666667, "is_disabled": 0, "bike_id": "978ac85876dd8a3be787127c7e346d2c", "is_reserved": 0, "rental_uris": {"android": "https://dc.lft.to/lastmile_qr_scan", "ios": "https://dc.lft.to/lastmile_qr_scan"}, "lat": 38.92363866666667}, {"type": "electric_scooter", "name": "12160a89a9e94f25cbf6dda9131140c7", "fusion_lat": 0.0, "fusion_lon": 0.0, "lon": -77.03406116666666, "is_disabled": 0, "bike_id": "12160a89a9e94f25cbf6dda9131140c7", "is_reserved": 0, "rental_uris": {"android": "https://dc.lft.to/lastmile_qr_scan", "ios": "https://dc.lft.to/lastmile_qr_scan"}, "lat": 38.925427166666665}, {"type": "electric_scooter", "name": "708c95e8b1592c1e05f02b6b71c4c520", "fusion_lat": 0.0, "fusion_lon": 0.0, "lon": -77.03403133333333, "is_disabled": 0, "bike_id": "708c95e8b1592c1e05f02b6b71c4c520", "is_reserved": 0, "rental_uris": {"android": "https://dc.lft.to/lastmile_qr_scan", "ios": "https://dc.lft.to/lastmile_qr_scan"}, "lat": 38.90232266666667}, {"type": "electric_scooter", "name": "778252e175e41a5f57d23f78b9b10b48", "fusion_lat": 0.0, "fusion_lon": 0.0, "lon": -77.00586383333334, "is_disabled": 0, "bike_id": "778252e175e41a5f57d23f78b9b10b48", "is_reserved": 0, "rental_uris": {"android": "https://dc.lft.to/lastmile_qr_scan", "ios": "https://dc.lft.to/lastmile_qr_scan"}, "lat": 38.9055365}, {"type": "electric_scooter", "name": "78f47c15dad1788a39ade87ce516bb78", "fusion_lat": 0.0, "fusion_lon": 0.0, "lon": -77.04329833333334, "is_disabled": 0, "bike_id": "78f47c15dad1788a39ade87ce516bb78", "is_reserved": 0, "rental_uris": {"android": "https://dc.lft.to/lastmile_qr_scan", "ios": "https://dc.lft.to/lastmile_qr_scan"}, "lat": 38.92227833333333}, {"type": "electric_scooter", "name": "cd0ae6fca265bb461fed1086091a0893", "fusion_lat": 0.0, "fusion_lon": 0.0, "lon": -76.97548966666666, "is_disabled": 0, "bike_id": "cd0ae6fca265bb461fed1086091a0893", "is_reserved": 0, "rental_uris": {"android": "https://dc.lft.to/lastmile_qr_scan", "ios": "https://dc.lft.to/lastmile_qr_scan"}, "lat": 38.875767333333336}, {"type": "electric_bike", "name": "0028db7b0b01694eed7925bddc6950ec", "fusion_lat": 0.0, "fusion_lon": 0.0, "lon": -77.09523883333334, "is_disabled": 0, "bike_id": "0028db7b0b01694eed7925bddc6950ec", "is_reserved": 0, "rental_uris": {"android": "https://dc.lft.to/lastmile_qr_scan", "ios": "https://dc.lft.to/lastmile_qr_scan"}, "lat": 38.83811866666667}, {"type": "electric_scooter", "name": "4266921f0134f258a996f83191a16503", "fusion_lat": 0.0, "fusion_lon": 0.0, "lon": -77.0302595, "is_disabled": 0, "bike_id": "4266921f0134f258a996f83191a16503", "is_reserved": 0, "rental_uris": {"android": "https://dc.lft.to/lastmile_qr_scan", "ios": "https://dc.lft.to/lastmile_qr_scan"}, "lat": 38.9266875}, {"type": "electric_scooter", "name": "61412d8bf5a8b65e638f4dc966e366b1", "fusion_lat": 0.0, "fusion_lon": 0.0, "lon": -77.04038266666667, "is_disabled": 0, "bike_id": "61412d8bf5a8b65e638f4dc966e366b1", "is_reserved": 0, "rental_uris": {"android": "https://dc.lft.to/lastmile_qr_scan", "ios": "https://dc.lft.to/lastmile_qr_scan"}, "lat": 38.9118545}, {"type": "electric_scooter", "name": "d6ef0467e27f6d7ee165dea0ae9c58e9", "fusion_lat": 0.0, "fusion_lon": 0.0, "lon": -77.02857783333333, "is_disabled": 0, "bike_id": "d6ef0467e27f6d7ee165dea0ae9c58e9", "is_reserved": 0, "rental_uris": {"android": "https://dc.lft.to/lastmile_qr_scan", "ios": "https://dc.lft.to/lastmile_qr_scan"}, "lat": 38.902282666666665}, {"type": "electric_scooter", "name": "03ef07988eee58aa97dba57aba7e27bc", "fusion_lat": 0.0, "fusion_lon": 0.0, "lon": -77.0501745, "is_disabled": 0, "bike_id": "03ef07988eee58aa97dba57aba7e27bc", "is_reserved": 0, "rental_uris": {"android": "https://dc.lft.to/lastmile_qr_scan", "ios": "https://dc.lft.to/lastmile_qr_scan"}, "lat": 38.905067333333335}, {"type": "electric_scooter", "name": "2351aa5b1d7a6f87198c3528bab41a19", "fusion_lat": 0.0, "fusion_lon": 0.0, "lon": -76.94383066666667, "is_disabled": 0, "bike_id": "2351aa5b1d7a6f87198c3528bab41a19", "is_reserved": 0, "rental_uris": {"android": "https://dc.lft.to/lastmile_qr_scan", "ios": "https://dc.lft.to/lastmile_qr_scan"}, "lat": 38.8911525}, {"type": "electric_scooter", "name": "afcf2842f5a36969962523eb1871b20e", "fusion_lat": 0.0, "fusion_lon": 0.0, "lon": -77.02832133333334, "is_disabled": 0, "bike_id": "afcf2842f5a36969962523eb1871b20e", "is_reserved": 0, "rental_uris": {"android": "https://dc.lft.to/lastmile_qr_scan", "ios": "https://dc.lft.to/lastmile_qr_scan"}, "lat": 38.893272}, {"type": "electric_scooter", "name": "40c51f334eade40247c5f6d88ca69892", "fusion_lat": 0.0, "fusion_lon": 0.0, "lon": -77.04248983333333, "is_disabled": 0, "bike_id": "40c51f334eade40247c5f6d88ca69892", "is_reserved": 0, "rental_uris": {"android": "https://dc.lft.to/lastmile_qr_scan", "ios": "https://dc.lft.to/lastmile_qr_scan"}, "lat": 38.92247066666667}, {"type": "electric_scooter", "name": "098ff727c7580cc99308a7b110af84c9", "fusion_lat": 0.0, "fusion_lon": 0.0, "lon": -77.04616333333334, "is_disabled": 0, "bike_id": "098ff727c7580cc99308a7b110af84c9", "is_reserved": 0, "rental_uris": {"android": "https://dc.lft.to/lastmile_qr_scan", "ios": "https://dc.lft.to/lastmile_qr_scan"}, "lat": 38.9066445}, {"type": "electric_scooter", "name": "473f414495e777b2c825118e72e7613e", "fusion_lat": 0.0, "fusion_lon": 0.0, "lon": -77.03535016666666, "is_disabled": 0, "bike_id": "473f414495e777b2c825118e72e7613e", "is_reserved": 0, "rental_uris": {"android": "https://dc.lft.to/lastmile_qr_scan", "ios": "https://dc.lft.to/lastmile_qr_scan"}, "lat": 38.923309833333334}, {"type": "electric_bike", "name": "ca74e84bbc58914b22b82798be717557", "fusion_lat": 0.0, "fusion_lon": 0.0, "lon": -76.96057533333334, "is_disabled": 0, "bike_id": "ca74e84bbc58914b22b82798be717557", "is_reserved": 0, "rental_uris": {"android": "https://dc.lft.to/lastmile_qr_scan", "ios": "https://dc.lft.to/lastmile_qr_scan"}, "lat": 38.88333033333333}, {"type": "electric_scooter", "name": "3a8c0878b6f8665f70864dcaa61cedb3", "fusion_lat": 0.0, "fusion_lon": 0.0, "lon": -77.0365635, "is_disabled": 0, "bike_id": "3a8c0878b6f8665f70864dcaa61cedb3", "is_reserved": 0, "rental_uris": {"android": "https://dc.lft.to/lastmile_qr_scan", "ios": "https://dc.lft.to/lastmile_qr_scan"}, "lat": 38.936300833333334}, {"type": "electric_scooter", "name": "7ebfe64ba9db1cea5a1dd583bba248b8", "fusion_lat": 0.0, "fusion_lon": 0.0, "lon": -77.03045483333334, "is_disabled": 0, "bike_id": "7ebfe64ba9db1cea5a1dd583bba248b8", "is_reserved": 0, "rental_uris": {"android": "https://dc.lft.to/lastmile_qr_scan", "ios": "https://dc.lft.to/lastmile_qr_scan"}, "lat": 38.990316666666665}, {"type": "electric_scooter", "name": "67321303155c3bb4a4d3e915dd45a761", "fusion_lat": 0.0, "fusion_lon": 0.0, "lon": -77.025744, "is_disabled": 0, "bike_id": "67321303155c3bb4a4d3e915dd45a761", "is_reserved": 0, "rental_uris": {"android": "https://dc.lft.to/lastmile_qr_scan", "ios": "https://dc.lft.to/lastmile_qr_scan"}, "lat": 38.912567333333335}, {"type": "electric_scooter", "name": "0fc17e20f1e3a8edf5dc9f3152ced4d3", "fusion_lat": 0.0, "fusion_lon": 0.0, "lon": -77.055078, "is_disabled": 0, "bike_id": "0fc17e20f1e3a8edf5dc9f3152ced4d3", "is_reserved": 0, "rental_uris": {"android": "https://dc.lft.to/lastmile_qr_scan", "ios": "https://dc.lft.to/lastmile_qr_scan"}, "lat": 38.92836783333333}, {"type": "electric_scooter", "name": "7f6e686d028d744ca95d5e5ed6055abe", "fusion_lat": 0.0, "fusion_lon": 0.0, "lon": -77.03089583333333, "is_disabled": 0, "bike_id": "7f6e686d028d744ca95d5e5ed6055abe", "is_reserved": 0, "rental_uris": {"android": "https://dc.lft.to/lastmile_qr_scan", "ios": "https://dc.lft.to/lastmile_qr_scan"}, "lat": 38.895390666666664}, {"type": "electric_scooter", "name": "2b4004f7ca5fea0e724981215a1200a9", "fusion_lat": 0.0, "fusion_lon": 0.0, "lon": -77.01188866666666, "is_disabled": 0, "bike_id": "2b4004f7ca5fea0e724981215a1200a9", "is_reserved": 0, "rental_uris": {"android": "https://dc.lft.to/lastmile_qr_scan", "ios": "https://dc.lft.to/lastmile_qr_scan"}, "lat": 38.90028266666667}, {"type": "electric_scooter", "name": "d3c556ff1d0cb860b719e3b890ff47db", "fusion_lat": 0.0, "fusion_lon": 0.0, "lon": -77.0255065, "is_disabled": 0, "bike_id": "d3c556ff1d0cb860b719e3b890ff47db", "is_reserved": 0, "rental_uris": {"android": "https://dc.lft.to/lastmile_qr_scan", "ios": "https://dc.lft.to/lastmile_qr_scan"}, "lat": 38.9352175}, {"type": "electric_scooter", "name": "09d2ae54dc522cf9014ac752bde1b1bc", "fusion_lat": 0.0, "fusion_lon": 0.0, "lon": -77.02970233333333, "is_disabled": 0, "bike_id": "09d2ae54dc522cf9014ac752bde1b1bc", "is_reserved": 0, "rental_uris": {"android": "https://dc.lft.to/lastmile_qr_scan", "ios": "https://dc.lft.to/lastmile_qr_scan"}, "lat": 38.926365833333335}, {"type": "electric_scooter", "name": "0ff9b8f9774c39a0a79a433142a7d7d7", "fusion_lat": 0.0, "fusion_lon": 0.0, "lon": -77.0043025, "is_disabled": 0, "bike_id": "0ff9b8f9774c39a0a79a433142a7d7d7", "is_reserved": 0, "rental_uris": {"android": "https://dc.lft.to/lastmile_qr_scan", "ios": "https://dc.lft.to/lastmile_qr_scan"}, "lat": 38.929374833333334}, {"type": "electric_scooter", "name": "677e989b92752428c77ebfbe5bf63183", "fusion_lat": 0.0, "fusion_lon": 0.0, "lon": -77.03666483333333, "is_disabled": 0, "bike_id": "677e989b92752428c77ebfbe5bf63183", "is_reserved": 0, "rental_uris": {"android": "https://dc.lft.to/lastmile_qr_scan", "ios": "https://dc.lft.to/lastmile_qr_scan"}, "lat": 38.910666666666664}, {"type": "electric_scooter", "name": "026e2d05af84db0173620b3a04eb006f", "fusion_lat": 0.0, "fusion_lon": 0.0, "lon": -77.05684233333334, "is_disabled": 0, "bike_id": "026e2d05af84db0173620b3a04eb006f", "is_reserved": 0, "rental_uris": {"android": "https://dc.lft.to/lastmile_qr_scan", "ios": "https://dc.lft.to/lastmile_qr_scan"}, "lat": 38.93730766666667}, {"type": "electric_scooter", "name": "d3c13524f7d0f14aec2afa1da7fe6838", "fusion_lat": 0.0, "fusion_lon": 0.0, "lon": -76.98377433333333, "is_disabled": 0, "bike_id": "d3c13524f7d0f14aec2afa1da7fe6838", "is_reserved": 0, "rental_uris": {"android": "https://dc.lft.to/lastmile_qr_scan", "ios": "https://dc.lft.to/lastmile_qr_scan"}, "lat": 38.91281633333333}, {"type": "electric_scooter", "name": "80e550d912ea2b419aacfc4ca0ba1393", "fusion_lat": 0.0, "fusion_lon": 0.0, "lon": -77.03715333333334, "is_disabled": 0, "bike_id": "80e550d912ea2b419aacfc4ca0ba1393", "is_reserved": 0, "rental_uris": {"android": "https://dc.lft.to/lastmile_qr_scan", "ios": "https://dc.lft.to/lastmile_qr_scan"}, "lat": 38.914931833333334}, {"type": "electric_scooter", "name": "98b00d64e26f88ad0ee6793cff2a100b", "fusion_lat": 0.0, "fusion_lon": 0.0, "lon": -77.0307235, "is_disabled": 0, "bike_id": "98b00d64e26f88ad0ee6793cff2a100b", "is_reserved": 0, "rental_uris": {"android": "https://dc.lft.to/lastmile_qr_scan", "ios": "https://dc.lft.to/lastmile_qr_scan"}, "lat": 38.8981345}, {"type": "electric_scooter", "name": "7d82c7ee0f0ddf1c894e4bdd9ee0c585", "fusion_lat": 0.0, "fusion_lon": 0.0, "lon": -77.04502116666667, "is_disabled": 0, "bike_id": "7d82c7ee0f0ddf1c894e4bdd9ee0c585", "is_reserved": 0, "rental_uris": {"android": "https://dc.lft.to/lastmile_qr_scan", "ios": "https://dc.lft.to/lastmile_qr_scan"}, "lat": 38.9194135}, {"type": "electric_scooter", "name": "15eb43dac70d89848ba4022809c67d3c", "fusion_lat": 0.0, "fusion_lon": 0.0, "lon": -77.03222, "is_disabled": 0, "bike_id": "15eb43dac70d89848ba4022809c67d3c", "is_reserved": 0, "rental_uris": {"android": "https://dc.lft.to/lastmile_qr_scan", "ios": "https://dc.lft.to/lastmile_qr_scan"}, "lat": 38.925486666666664}, {"type": "electric_scooter", "name": "e98523a22a95de5d4dc0c383541e04b0", "fusion_lat": 0.0, "fusion_lon": 0.0, "lon": -77.02948683333334, "is_disabled": 0, "bike_id": "e98523a22a95de5d4dc0c383541e04b0", "is_reserved": 0, "rental_uris": {"android": "https://dc.lft.to/lastmile_qr_scan", "ios": "https://dc.lft.to/lastmile_qr_scan"}, "lat": 38.9162205}, {"type": "electric_scooter", "name": "1648e4c96afbfd203296b24d4fb9bb06", "fusion_lat": 0.0, "fusion_lon": 0.0, "lon": -77.06428266666667, "is_disabled": 0, "bike_id": "1648e4c96afbfd203296b24d4fb9bb06", "is_reserved": 0, "rental_uris": {"android": "https://dc.lft.to/lastmile_qr_scan", "ios": "https://dc.lft.to/lastmile_qr_scan"}, "lat": 38.93567866666667}, {"type": "electric_scooter", "name": "c409293a2d689ef07e0df6ee5588f31b", "fusion_lat": 0.0, "fusion_lon": 0.0, "lon": -77.030712, "is_disabled": 0, "bike_id": "c409293a2d689ef07e0df6ee5588f31b", "is_reserved": 0, "rental_uris": {"android": "https://dc.lft.to/lastmile_qr_scan", "ios": "https://dc.lft.to/lastmile_qr_scan"}, "lat": 38.90254683333333}, {"type": "electric_scooter", "name": "364a85885594ce6aae137768fb8ffb69", "fusion_lat": 0.0, "fusion_lon": 0.0, "lon": -77.032199, "is_disabled": 0, "bike_id": "364a85885594ce6aae137768fb8ffb69", "is_reserved": 0, "rental_uris": {"android": "https://dc.lft.to/lastmile_qr_scan", "ios": "https://dc.lft.to/lastmile_qr_scan"}, "lat": 38.918422}, {"type": "electric_bike", "name": "3812a9f922904bbfa0cd6c44f20d7d3f", "fusion_lat": 0.0, "fusion_lon": 0.0, "lon": -76.97545966666667, "is_disabled": 0, "bike_id": "3812a9f922904bbfa0cd6c44f20d7d3f", "is_reserved": 0, "rental_uris": {"android": "https://dc.lft.to/lastmile_qr_scan", "ios": "https://dc.lft.to/lastmile_qr_scan"}, "lat": 38.904223333333334}, {"type": "electric_scooter", "name": "c11af032a7e3a85aa3d7a4ede7420ad3", "fusion_lat": 0.0, "fusion_lon": 0.0, "lon": -76.9335825, "is_disabled": 0, "bike_id": "c11af032a7e3a85aa3d7a4ede7420ad3", "is_reserved": 0, "rental_uris": {"android": "https://dc.lft.to/lastmile_qr_scan", "ios": "https://dc.lft.to/lastmile_qr_scan"}, "lat": 38.8990225}, {"type": "electric_scooter", "name": "c7ff7a8bcd249f456ae39517f760d3e1", "fusion_lat": 0.0, "fusion_lon": 0.0, "lon": -76.99942983333334, "is_disabled": 0, "bike_id": "c7ff7a8bcd249f456ae39517f760d3e1", "is_reserved": 0, "rental_uris": {"android": "https://dc.lft.to/lastmile_qr_scan", "ios": "https://dc.lft.to/lastmile_qr_scan"}, "lat": 38.890901166666666}, {"type": "electric_scooter", "name": "05816b1f2c69d316b47e8e366a218303", "fusion_lat": 0.0, "fusion_lon": 0.0, "lon": -77.00155766666667, "is_disabled": 0, "bike_id": "05816b1f2c69d316b47e8e366a218303", "is_reserved": 0, "rental_uris": {"android": "https://dc.lft.to/lastmile_qr_scan", "ios": "https://dc.lft.to/lastmile_qr_scan"}, "lat": 38.821327}, {"type": "electric_bike", "name": "0be72af0f7e11503d359e22ce64a6a27", "fusion_lat": 0.0, "fusion_lon": 0.0, "lon": -76.95158233333333, "is_disabled": 0, "bike_id": "0be72af0f7e11503d359e22ce64a6a27", "is_reserved": 0, "rental_uris": {"android": "https://dc.lft.to/lastmile_qr_scan", "ios": "https://dc.lft.to/lastmile_qr_scan"}, "lat": 39.08441716666667}, {"type": "electric_scooter", "name": "032c18aac38d87b7d6cef6fe10206ac8", "fusion_lat": 0.0, "fusion_lon": 0.0, "lon": -77.03904533333333, "is_disabled": 0, "bike_id": "032c18aac38d87b7d6cef6fe10206ac8", "is_reserved": 0, "rental_uris": {"android": "https://dc.lft.to/lastmile_qr_scan", "ios": "https://dc.lft.to/lastmile_qr_scan"}, "lat": 38.914184666666664}, {"type": "electric_scooter", "name": "99827c52304e8c089035af86e6cc92fa", "fusion_lat": 0.0, "fusion_lon": 0.0, "lon": -77.01721566666667, "is_disabled": 0, "bike_id": "99827c52304e8c089035af86e6cc92fa", "is_reserved": 0, "rental_uris": {"android": "https://dc.lft.to/lastmile_qr_scan", "ios": "https://dc.lft.to/lastmile_qr_scan"}, "lat": 38.8922435}, {"type": "electric_bike", "name": "114beeecfbc07afae371b94ebf95da55", "fusion_lat": 0.0, "fusion_lon": 0.0, "lon": -77.07769683333333, "is_disabled": 0, "bike_id": "114beeecfbc07afae371b94ebf95da55", "is_reserved": 0, "rental_uris": {"android": "https://dc.lft.to/lastmile_qr_scan", "ios": "https://dc.lft.to/lastmile_qr_scan"}, "lat": 38.93046966666667}, {"type": "electric_scooter", "name": "9a5d917e789884c317b2ddf3e84ec2af", "fusion_lat": 0.0, "fusion_lon": 0.0, "lon": -77.03459416666666, "is_disabled": 0, "bike_id": "9a5d917e789884c317b2ddf3e84ec2af", "is_reserved": 0, "rental_uris": {"android": "https://dc.lft.to/lastmile_qr_scan", "ios": "https://dc.lft.to/lastmile_qr_scan"}, "lat": 38.908138666666666}, {"type": "electric_scooter", "name": "11fc2952787cacc27143e1b921d2a39e", "fusion_lat": 0.0, "fusion_lon": 0.0, "lon": -77.03519016666667, "is_disabled": 0, "bike_id": "11fc2952787cacc27143e1b921d2a39e", "is_reserved": 0, "rental_uris": {"android": "https://dc.lft.to/lastmile_qr_scan", "ios": "https://dc.lft.to/lastmile_qr_scan"}, "lat": 38.934553666666666}, {"type": "electric_scooter", "name": "dbe1ca269b766ff817b2dd56f73b64f3", "fusion_lat": 0.0, "fusion_lon": 0.0, "lon": -77.05000816666667, "is_disabled": 0, "bike_id": "dbe1ca269b766ff817b2dd56f73b64f3", "is_reserved": 0, "rental_uris": {"android": "https://dc.lft.to/lastmile_qr_scan", "ios": "https://dc.lft.to/lastmile_qr_scan"}, "lat": 38.892301333333336}, {"type": "electric_scooter", "name": "c093d0904b3f18ead5fc867772c40fcb", "fusion_lat": 0.0, "fusion_lon": 0.0, "lon": -77.0295165, "is_disabled": 0, "bike_id": "c093d0904b3f18ead5fc867772c40fcb", "is_reserved": 0, "rental_uris": {"android": "https://dc.lft.to/lastmile_qr_scan", "ios": "https://dc.lft.to/lastmile_qr_scan"}, "lat": 38.90724183333333}, {"type": "electric_scooter", "name": "90ff1c32087322420ed17cf7ff5b821e", "fusion_lat": 0.0, "fusion_lon": 0.0, "lon": -77.02381466666667, "is_disabled": 0, "bike_id": "90ff1c32087322420ed17cf7ff5b821e", "is_reserved": 0, "rental_uris": {"android": "https://dc.lft.to/lastmile_qr_scan", "ios": "https://dc.lft.to/lastmile_qr_scan"}, "lat": 38.9095855}, {"type": "electric_bike", "name": "bcdb4506949575242f60e3e591ebf80a", "fusion_lat": 0.0, "fusion_lon": 0.0, "lon": -76.99063833333334, "is_disabled": 0, "bike_id": "bcdb4506949575242f60e3e591ebf80a", "is_reserved": 0, "rental_uris": {"android": "https://dc.lft.to/lastmile_qr_scan", "ios": "https://dc.lft.to/lastmile_qr_scan"}, "lat": 38.898068}, {"type": "electric_scooter", "name": "73651bd1f0422507fa4ecb19c8e5504c", "fusion_lat": 0.0, "fusion_lon": 0.0, "lon": -77.05133933333333, "is_disabled": 0, "bike_id": "73651bd1f0422507fa4ecb19c8e5504c", "is_reserved": 0, "rental_uris": {"android": "https://dc.lft.to/lastmile_qr_scan", "ios": "https://dc.lft.to/lastmile_qr_scan"}, "lat": 38.90520133333333}, {"type": "electric_scooter", "name": "b87f6beb8796c10d98d01641dc5adce4", "fusion_lat": 0.0, "fusion_lon": 0.0, "lon": -77.02486833333333, "is_disabled": 0, "bike_id": "b87f6beb8796c10d98d01641dc5adce4", "is_reserved": 0, "rental_uris": {"android": "https://dc.lft.to/lastmile_qr_scan", "ios": "https://dc.lft.to/lastmile_qr_scan"}, "lat": 38.941843666666664}, {"type": "electric_scooter", "name": "8ff538c65f9ccf664c6c59327f2c8ead", "fusion_lat": 0.0, "fusion_lon": 0.0, "lon": -77.03433683333333, "is_disabled": 0, "bike_id": "8ff538c65f9ccf664c6c59327f2c8ead", "is_reserved": 0, "rental_uris": {"android": "https://dc.lft.to/lastmile_qr_scan", "ios": "https://dc.lft.to/lastmile_qr_scan"}, "lat": 38.92735616666667}, {"type": "electric_scooter", "name": "a1cfdfdcc7636c64b2462dfcef707581", "fusion_lat": 0.0, "fusion_lon": 0.0, "lon": -77.02578666666666, "is_disabled": 0, "bike_id": "a1cfdfdcc7636c64b2462dfcef707581", "is_reserved": 0, "rental_uris": {"android": "https://dc.lft.to/lastmile_qr_scan", "ios": "https://dc.lft.to/lastmile_qr_scan"}, "lat": 38.925175333333335}, {"type": "electric_scooter", "name": "a2f144b1d01ab7a77a6085d4c0a2c867", "fusion_lat": 0.0, "fusion_lon": 0.0, "lon": -77.040283, "is_disabled": 0, "bike_id": "a2f144b1d01ab7a77a6085d4c0a2c867", "is_reserved": 0, "rental_uris": {"android": "https://dc.lft.to/lastmile_qr_scan", "ios": "https://dc.lft.to/lastmile_qr_scan"}, "lat": 38.921615833333334}, {"type": "electric_scooter", "name": "d1a84eac9156e46cdc1121bcabb80c9e", "fusion_lat": 0.0, "fusion_lon": 0.0, "lon": -77.0517385, "is_disabled": 0, "bike_id": "d1a84eac9156e46cdc1121bcabb80c9e", "is_reserved": 0, "rental_uris": {"android": "https://dc.lft.to/lastmile_qr_scan", "ios": "https://dc.lft.to/lastmile_qr_scan"}, "lat": 38.903205666666665}, {"type": "electric_scooter", "name": "e8c3d482702e2b71c35f35a9d2d3d9c5", "fusion_lat": 0.0, "fusion_lon": 0.0, "lon": -77.03570666666667, "is_disabled": 0, "bike_id": "e8c3d482702e2b71c35f35a9d2d3d9c5", "is_reserved": 0, "rental_uris": {"android": "https://dc.lft.to/lastmile_qr_scan", "ios": "https://dc.lft.to/lastmile_qr_scan"}, "lat": 38.91818116666666}, {"type": "electric_bike", "name": "89908dd2173b116e1aaaef8a7560b8ff", "fusion_lat": 0.0, "fusion_lon": 0.0, "lon": -76.99696616666667, "is_disabled": 0, "bike_id": "89908dd2173b116e1aaaef8a7560b8ff", "is_reserved": 0, "rental_uris": {"android": "https://dc.lft.to/lastmile_qr_scan", "ios": "https://dc.lft.to/lastmile_qr_scan"}, "lat": 38.83871383333334}, {"type": "electric_scooter", "name": "557ee28deabee2bec414f5117d4baba2", "fusion_lat": 0.0, "fusion_lon": 0.0, "lon": -77.00541566666666, "is_disabled": 0, "bike_id": "557ee28deabee2bec414f5117d4baba2", "is_reserved": 0, "rental_uris": {"android": "https://dc.lft.to/lastmile_qr_scan", "ios": "https://dc.lft.to/lastmile_qr_scan"}, "lat": 38.8747075}, {"type": "electric_scooter", "name": "af35d1d5af99219d301d477cd3104d9b", "fusion_lat": 0.0, "fusion_lon": 0.0, "lon": -77.02407266666667, "is_disabled": 0, "bike_id": "af35d1d5af99219d301d477cd3104d9b", "is_reserved": 0, "rental_uris": {"android": "https://dc.lft.to/lastmile_qr_scan", "ios": "https://dc.lft.to/lastmile_qr_scan"}, "lat": 38.9381945}, {"type": "electric_scooter", "name": "30c129a043ba410e129321239a7e5c66", "fusion_lat": 0.0, "fusion_lon": 0.0, "lon": -77.04179483333333, "is_disabled": 0, "bike_id": "30c129a043ba410e129321239a7e5c66", "is_reserved": 0, "rental_uris": {"android": "https://dc.lft.to/lastmile_qr_scan", "ios": "https://dc.lft.to/lastmile_qr_scan"}, "lat": 38.918202666666666}, {"type": "electric_scooter", "name": "cddebac1422b99eb316ed54595ca6421", "fusion_lat": 0.0, "fusion_lon": 0.0, "lon": -76.9929155, "is_disabled": 0, "bike_id": "cddebac1422b99eb316ed54595ca6421", "is_reserved": 0, "rental_uris": {"android": "https://dc.lft.to/lastmile_qr_scan", "ios": "https://dc.lft.to/lastmile_qr_scan"}, "lat": 38.88128066666667}, {"type": "electric_scooter", "name": "e32569be8a3ed167c326232657662d28", "fusion_lat": 0.0, "fusion_lon": 0.0, "lon": -77.0403195, "is_disabled": 0, "bike_id": "e32569be8a3ed167c326232657662d28", "is_reserved": 0, "rental_uris": {"android": "https://dc.lft.to/lastmile_qr_scan", "ios": "https://dc.lft.to/lastmile_qr_scan"}, "lat": 38.91184833333333}, {"type": "electric_scooter", "name": "5c1da5e47c12f96a112690a8e908129d", "fusion_lat": 0.0, "fusion_lon": 0.0, "lon": -77.02477566666667, "is_disabled": 0, "bike_id": "5c1da5e47c12f96a112690a8e908129d", "is_reserved": 0, "rental_uris": {"android": "https://dc.lft.to/lastmile_qr_scan", "ios": "https://dc.lft.to/lastmile_qr_scan"}, "lat": 38.938508}, {"type": "electric_scooter", "name": "1cc12c71a79f3cdef5edb68f9a6ee586", "fusion_lat": 0.0, "fusion_lon": 0.0, "lon": -77.02866566666667, "is_disabled": 0, "bike_id": "1cc12c71a79f3cdef5edb68f9a6ee586", "is_reserved": 0, "rental_uris": {"android": "https://dc.lft.to/lastmile_qr_scan", "ios": "https://dc.lft.to/lastmile_qr_scan"}, "lat": 38.91357816666667}, {"type": "electric_scooter", "name": "100c2c27eecdfc8f1daff58da6e1ce7b", "fusion_lat": 0.0, "fusion_lon": 0.0, "lon": -77.051999, "is_disabled": 0, "bike_id": "100c2c27eecdfc8f1daff58da6e1ce7b", "is_reserved": 0, "rental_uris": {"android": "https://dc.lft.to/lastmile_qr_scan", "ios": "https://dc.lft.to/lastmile_qr_scan"}, "lat": 38.92463583333333}, {"type": "electric_bike", "name": "d6ef1dd2c5a3cbf03297c9e0b5a2bc73", "fusion_lat": 0.0, "fusion_lon": 0.0, "lon": -77.079696, "is_disabled": 0, "bike_id": "d6ef1dd2c5a3cbf03297c9e0b5a2bc73", "is_reserved": 0, "rental_uris": {"android": "https://dc.lft.to/lastmile_qr_scan", "ios": "https://dc.lft.to/lastmile_qr_scan"}, "lat": 38.919465}, {"type": "electric_scooter", "name": "4163cb5831f0e0df1322e68b528a4204", "fusion_lat": 0.0, "fusion_lon": 0.0, "lon": -77.01787883333333, "is_disabled": 0, "bike_id": "4163cb5831f0e0df1322e68b528a4204", "is_reserved": 0, "rental_uris": {"android": "https://dc.lft.to/lastmile_qr_scan", "ios": "https://dc.lft.to/lastmile_qr_scan"}, "lat": 38.8767755}, {"type": "electric_scooter", "name": "c80c6d73854fae4a5f31c45de8f1eefb", "fusion_lat": 0.0, "fusion_lon": 0.0, "lon": -77.03890566666666, "is_disabled": 0, "bike_id": "c80c6d73854fae4a5f31c45de8f1eefb", "is_reserved": 0, "rental_uris": {"android": "https://dc.lft.to/lastmile_qr_scan", "ios": "https://dc.lft.to/lastmile_qr_scan"}, "lat": 38.91845283333333}, {"type": "electric_scooter", "name": "2e84ac9b303c48e103f777759257b89e", "fusion_lat": 0.0, "fusion_lon": 0.0, "lon": -77.00768933333333, "is_disabled": 0, "bike_id": "2e84ac9b303c48e103f777759257b89e", "is_reserved": 0, "rental_uris": {"android": "https://dc.lft.to/lastmile_qr_scan", "ios": "https://dc.lft.to/lastmile_qr_scan"}, "lat": 38.9096555}, {"type": "electric_scooter", "name": "277bc03b0c4a72f50cd178203888b2cf", "fusion_lat": 0.0, "fusion_lon": 0.0, "lon": -77.03665383333333, "is_disabled": 0, "bike_id": "277bc03b0c4a72f50cd178203888b2cf", "is_reserved": 0, "rental_uris": {"android": "https://dc.lft.to/lastmile_qr_scan", "ios": "https://dc.lft.to/lastmile_qr_scan"}, "lat": 38.931827166666665}, {"type": "electric_scooter", "name": "6df06166b892fb6a16234061d3b718e5", "fusion_lat": 0.0, "fusion_lon": 0.0, "lon": -77.04687683333333, "is_disabled": 0, "bike_id": "6df06166b892fb6a16234061d3b718e5", "is_reserved": 0, "rental_uris": {"android": "https://dc.lft.to/lastmile_qr_scan", "ios": "https://dc.lft.to/lastmile_qr_scan"}, "lat": 38.89728216666666}, {"type": "electric_scooter", "name": "f709dbdb925a3bc4cbf575ab0c6d390a", "fusion_lat": 0.0, "fusion_lon": 0.0, "lon": -77.01800016666667, "is_disabled": 0, "bike_id": "f709dbdb925a3bc4cbf575ab0c6d390a", "is_reserved": 0, "rental_uris": {"android": "https://dc.lft.to/lastmile_qr_scan", "ios": "https://dc.lft.to/lastmile_qr_scan"}, "lat": 38.919464166666664}, {"type": "electric_scooter", "name": "6501d00d4db406bd84d8e90b38e636b4", "fusion_lat": 0.0, "fusion_lon": 0.0, "lon": -77.04656333333334, "is_disabled": 0, "bike_id": "6501d00d4db406bd84d8e90b38e636b4", "is_reserved": 0, "rental_uris": {"android": "https://dc.lft.to/lastmile_qr_scan", "ios": "https://dc.lft.to/lastmile_qr_scan"}, "lat": 38.893359}, {"type": "electric_scooter", "name": "6e625c42f982ba4e1989ed1e25a0bd61", "fusion_lat": 0.0, "fusion_lon": 0.0, "lon": -77.04681166666667, "is_disabled": 0, "bike_id": "6e625c42f982ba4e1989ed1e25a0bd61", "is_reserved": 0, "rental_uris": {"android": "https://dc.lft.to/lastmile_qr_scan", "ios": "https://dc.lft.to/lastmile_qr_scan"}, "lat": 38.905987}, {"type": "electric_scooter", "name": "a59337799b3b04876994769a4fa7c443", "fusion_lat": 0.0, "fusion_lon": 0.0, "lon": -77.03435916666666, "is_disabled": 0, "bike_id": "a59337799b3b04876994769a4fa7c443", "is_reserved": 0, "rental_uris": {"android": "https://dc.lft.to/lastmile_qr_scan", "ios": "https://dc.lft.to/lastmile_qr_scan"}, "lat": 38.91783233333334}, {"type": "electric_scooter", "name": "b56dd4b291acd00f2d5505e4faa24d54", "fusion_lat": 0.0, "fusion_lon": 0.0, "lon": -77.020899, "is_disabled": 0, "bike_id": "b56dd4b291acd00f2d5505e4faa24d54", "is_reserved": 0, "rental_uris": {"android": "https://dc.lft.to/lastmile_qr_scan", "ios": "https://dc.lft.to/lastmile_qr_scan"}, "lat": 38.927031166666666}, {"type": "electric_scooter", "name": "d70f5fc28468b3f263ee312f9ba14d75", "fusion_lat": 0.0, "fusion_lon": 0.0, "lon": -76.96212966666667, "is_disabled": 0, "bike_id": "d70f5fc28468b3f263ee312f9ba14d75", "is_reserved": 0, "rental_uris": {"android": "https://dc.lft.to/lastmile_qr_scan", "ios": "https://dc.lft.to/lastmile_qr_scan"}, "lat": 38.9323275}, {"type": "electric_scooter", "name": "64dfd6371ffdb4714beb1c29ce440867", "fusion_lat": 0.0, "fusion_lon": 0.0, "lon": -77.01515216666667, "is_disabled": 0, "bike_id": "64dfd6371ffdb4714beb1c29ce440867", "is_reserved": 0, "rental_uris": {"android": "https://dc.lft.to/lastmile_qr_scan", "ios": "https://dc.lft.to/lastmile_qr_scan"}, "lat": 38.887353}, {"type": "electric_bike", "name": "0fa732bd0bc563a33148cebf31a13ddb", "fusion_lat": 0.0, "fusion_lon": 0.0, "lon": -76.98096333333334, "is_disabled": 0, "bike_id": "0fa732bd0bc563a33148cebf31a13ddb", "is_reserved": 0, "rental_uris": {"android": "https://dc.lft.to/lastmile_qr_scan", "ios": "https://dc.lft.to/lastmile_qr_scan"}, "lat": 38.9535765}, {"type": "electric_scooter", "name": "0093ad9990f150776d9e986428e25104", "fusion_lat": 0.0, "fusion_lon": 0.0, "lon": -76.98615366666667, "is_disabled": 0, "bike_id": "0093ad9990f150776d9e986428e25104", "is_reserved": 0, "rental_uris": {"android": "https://dc.lft.to/lastmile_qr_scan", "ios": "https://dc.lft.to/lastmile_qr_scan"}, "lat": 38.938295}, {"type": "electric_bike", "name": "9c112acb6526bcaafbd8b95f8d70008c", "fusion_lat": 0.0, "fusion_lon": 0.0, "lon": -76.90307483333333, "is_disabled": 0, "bike_id": "9c112acb6526bcaafbd8b95f8d70008c", "is_reserved": 0, "rental_uris": {"android": "https://dc.lft.to/lastmile_qr_scan", "ios": "https://dc.lft.to/lastmile_qr_scan"}, "lat": 39.00296733333333}, {"type": "electric_scooter", "name": "8117822663147c276d3542b996c961e5", "fusion_lat": 0.0, "fusion_lon": 0.0, "lon": -77.03669816666667, "is_disabled": 0, "bike_id": "8117822663147c276d3542b996c961e5", "is_reserved": 0, "rental_uris": {"android": "https://dc.lft.to/lastmile_qr_scan", "ios": "https://dc.lft.to/lastmile_qr_scan"}, "lat": 38.921277833333335}, {"type": "electric_scooter", "name": "2c972ab504e70f12d530ad8bc1e13f63", "fusion_lat": 0.0, "fusion_lon": 0.0, "lon": -76.99406283333333, "is_disabled": 0, "bike_id": "2c972ab504e70f12d530ad8bc1e13f63", "is_reserved": 0, "rental_uris": {"android": "https://dc.lft.to/lastmile_qr_scan", "ios": "https://dc.lft.to/lastmile_qr_scan"}, "lat": 38.877916}, {"type": "electric_scooter", "name": "9e7fca3a93f64f440d3bd2e61fa2c33d", "fusion_lat": 0.0, "fusion_lon": 0.0, "lon": -76.99852583333333, "is_disabled": 0, "bike_id": "9e7fca3a93f64f440d3bd2e61fa2c33d", "is_reserved": 0, "rental_uris": {"android": "https://dc.lft.to/lastmile_qr_scan", "ios": "https://dc.lft.to/lastmile_qr_scan"}, "lat": 38.90331}, {"type": "electric_scooter", "name": "6261595cc76b886b539861f42a99119c", "fusion_lat": 0.0, "fusion_lon": 0.0, "lon": -77.04667883333333, "is_disabled": 0, "bike_id": "6261595cc76b886b539861f42a99119c", "is_reserved": 0, "rental_uris": {"android": "https://dc.lft.to/lastmile_qr_scan", "ios": "https://dc.lft.to/lastmile_qr_scan"}, "lat": 38.89746566666667}, {"type": "electric_scooter", "name": "7336268d83a91f4bd0aa63bf99e5ad6b", "fusion_lat": 0.0, "fusion_lon": 0.0, "lon": -76.99844966666667, "is_disabled": 0, "bike_id": "7336268d83a91f4bd0aa63bf99e5ad6b", "is_reserved": 0, "rental_uris": {"android": "https://dc.lft.to/lastmile_qr_scan", "ios": "https://dc.lft.to/lastmile_qr_scan"}, "lat": 38.90649483333333}, {"type": "electric_scooter", "name": "488d6f59c3ed7d000f3d22946db373f5", "fusion_lat": 0.0, "fusion_lon": 0.0, "lon": -77.05990066666666, "is_disabled": 0, "bike_id": "488d6f59c3ed7d000f3d22946db373f5", "is_reserved": 0, "rental_uris": {"android": "https://dc.lft.to/lastmile_qr_scan", "ios": "https://dc.lft.to/lastmile_qr_scan"}, "lat": 38.938229}, {"type": "electric_bike", "name": "68646d349e96aaeacd1b34820a624a1e", "fusion_lat": 0.0, "fusion_lon": 0.0, "lon": -77.034313, "is_disabled": 0, "bike_id": "68646d349e96aaeacd1b34820a624a1e", "is_reserved": 0, "rental_uris": {"android": "https://dc.lft.to/lastmile_qr_scan", "ios": "https://dc.lft.to/lastmile_qr_scan"}, "lat": 38.966204166666664}, {"type": "electric_scooter", "name": "f22cf3350f319cbaa7cb417b664e79f2", "fusion_lat": 0.0, "fusion_lon": 0.0, "lon": -77.041496, "is_disabled": 0, "bike_id": "f22cf3350f319cbaa7cb417b664e79f2", "is_reserved": 0, "rental_uris": {"android": "https://dc.lft.to/lastmile_qr_scan", "ios": "https://dc.lft.to/lastmile_qr_scan"}, "lat": 38.923499}, {"type": "electric_scooter", "name": "d4e5c89b063804ea24ef07096f0db9af", "fusion_lat": 0.0, "fusion_lon": 0.0, "lon": -77.04134766666667, "is_disabled": 0, "bike_id": "d4e5c89b063804ea24ef07096f0db9af", "is_reserved": 0, "rental_uris": {"android": "https://dc.lft.to/lastmile_qr_scan", "ios": "https://dc.lft.to/lastmile_qr_scan"}, "lat": 38.89356}, {"type": "electric_scooter", "name": "6ebdd4a95d3b73bedeb71e984cdb8e74", "fusion_lat": 0.0, "fusion_lon": 0.0, "lon": -77.04002533333333, "is_disabled": 0, "bike_id": "6ebdd4a95d3b73bedeb71e984cdb8e74", "is_reserved": 0, "rental_uris": {"android": "https://dc.lft.to/lastmile_qr_scan", "ios": "https://dc.lft.to/lastmile_qr_scan"}, "lat": 38.93427466666667}, {"type": "electric_scooter", "name": "3dd434e78055cd97337e7001679de259", "fusion_lat": 0.0, "fusion_lon": 0.0, "lon": -77.014328, "is_disabled": 0, "bike_id": "3dd434e78055cd97337e7001679de259", "is_reserved": 0, "rental_uris": {"android": "https://dc.lft.to/lastmile_qr_scan", "ios": "https://dc.lft.to/lastmile_qr_scan"}, "lat": 38.912559}, {"type": "electric_scooter", "name": "3ab52207bfe901b2467b24cb8af3822c", "fusion_lat": 0.0, "fusion_lon": 0.0, "lon": -77.04745766666667, "is_disabled": 0, "bike_id": "3ab52207bfe901b2467b24cb8af3822c", "is_reserved": 0, "rental_uris": {"android": "https://dc.lft.to/lastmile_qr_scan", "ios": "https://dc.lft.to/lastmile_qr_scan"}, "lat": 38.923336166666665}, {"type": "electric_scooter", "name": "664890e2a39fc16e6922bf85913cbc4b", "fusion_lat": 0.0, "fusion_lon": 0.0, "lon": -76.98358016666667, "is_disabled": 0, "bike_id": "664890e2a39fc16e6922bf85913cbc4b", "is_reserved": 0, "rental_uris": {"android": "https://dc.lft.to/lastmile_qr_scan", "ios": "https://dc.lft.to/lastmile_qr_scan"}, "lat": 38.8873025}, {"type": "electric_scooter", "name": "964071bb0c4de5c2b85c8503b09801c8", "fusion_lat": 0.0, "fusion_lon": 0.0, "lon": -76.93219066666667, "is_disabled": 0, "bike_id": "964071bb0c4de5c2b85c8503b09801c8", "is_reserved": 0, "rental_uris": {"android": "https://dc.lft.to/lastmile_qr_scan", "ios": "https://dc.lft.to/lastmile_qr_scan"}, "lat": 38.88046466666667}, {"type": "electric_scooter", "name": "f59c825cdcfe67e968480e161bd7f31c", "fusion_lat": 0.0, "fusion_lon": 0.0, "lon": -77.036383, "is_disabled": 0, "bike_id": "f59c825cdcfe67e968480e161bd7f31c", "is_reserved": 0, "rental_uris": {"android": "https://dc.lft.to/lastmile_qr_scan", "ios": "https://dc.lft.to/lastmile_qr_scan"}, "lat": 38.91264133333333}, {"type": "electric_scooter", "name": "6a12e2a098ce340e05a23c0dcd2eb9a3", "fusion_lat": 0.0, "fusion_lon": 0.0, "lon": -77.029598, "is_disabled": 0, "bike_id": "6a12e2a098ce340e05a23c0dcd2eb9a3", "is_reserved": 0, "rental_uris": {"android": "https://dc.lft.to/lastmile_qr_scan", "ios": "https://dc.lft.to/lastmile_qr_scan"}, "lat": 38.9167645}, {"type": "electric_scooter", "name": "05af80200d10dcb4d1cd3a4a7e030f2c", "fusion_lat": 0.0, "fusion_lon": 0.0, "lon": -76.98337716666667, "is_disabled": 0, "bike_id": "05af80200d10dcb4d1cd3a4a7e030f2c", "is_reserved": 0, "rental_uris": {"android": "https://dc.lft.to/lastmile_qr_scan", "ios": "https://dc.lft.to/lastmile_qr_scan"}, "lat": 38.8954215}, {"type": "electric_scooter", "name": "36ef77ea92593ab2819a3993d3ef539d", "fusion_lat": 0.0, "fusion_lon": 0.0, "lon": -77.04553583333333, "is_disabled": 0, "bike_id": "36ef77ea92593ab2819a3993d3ef539d", "is_reserved": 0, "rental_uris": {"android": "https://dc.lft.to/lastmile_qr_scan", "ios": "https://dc.lft.to/lastmile_qr_scan"}, "lat": 38.903539}, {"type": "electric_scooter", "name": "cef1e7b8aeffdb9a7eb17220fa170346", "fusion_lat": 0.0, "fusion_lon": 0.0, "lon": -77.05084783333334, "is_disabled": 0, "bike_id": "cef1e7b8aeffdb9a7eb17220fa170346", "is_reserved": 0, "rental_uris": {"android": "https://dc.lft.to/lastmile_qr_scan", "ios": "https://dc.lft.to/lastmile_qr_scan"}, "lat": 38.9038955}, {"type": "electric_scooter", "name": "003df1ffbc417d2089877274d9f03e6e", "fusion_lat": 0.0, "fusion_lon": 0.0, "lon": -77.01224233333333, "is_disabled": 0, "bike_id": "003df1ffbc417d2089877274d9f03e6e", "is_reserved": 0, "rental_uris": {"android": "https://dc.lft.to/lastmile_qr_scan", "ios": "https://dc.lft.to/lastmile_qr_scan"}, "lat": 38.9154955}, {"type": "electric_scooter", "name": "d245f313a2bd75e71b63b8387a00db0e", "fusion_lat": 0.0, "fusion_lon": 0.0, "lon": -77.03672183333333, "is_disabled": 0, "bike_id": "d245f313a2bd75e71b63b8387a00db0e", "is_reserved": 0, "rental_uris": {"android": "https://dc.lft.to/lastmile_qr_scan", "ios": "https://dc.lft.to/lastmile_qr_scan"}, "lat": 38.918169166666665}, {"type": "electric_scooter", "name": "46b137c22362042d9c0ce85e32846325", "fusion_lat": 0.0, "fusion_lon": 0.0, "lon": -76.98342633333333, "is_disabled": 0, "bike_id": "46b137c22362042d9c0ce85e32846325", "is_reserved": 0, "rental_uris": {"android": "https://dc.lft.to/lastmile_qr_scan", "ios": "https://dc.lft.to/lastmile_qr_scan"}, "lat": 38.900944}, {"type": "electric_scooter", "name": "794e868625e026932ea1241bf9a09bb1", "fusion_lat": 0.0, "fusion_lon": 0.0, "lon": -77.04176066666666, "is_disabled": 0, "bike_id": "794e868625e026932ea1241bf9a09bb1", "is_reserved": 0, "rental_uris": {"android": "https://dc.lft.to/lastmile_qr_scan", "ios": "https://dc.lft.to/lastmile_qr_scan"}, "lat": 38.901594333333335}, {"type": "electric_scooter", "name": "0508be95e3cb89d69a1b9b7045ae3a60", "fusion_lat": 0.0, "fusion_lon": 0.0, "lon": -77.0250365, "is_disabled": 0, "bike_id": "0508be95e3cb89d69a1b9b7045ae3a60", "is_reserved": 0, "rental_uris": {"android": "https://dc.lft.to/lastmile_qr_scan", "ios": "https://dc.lft.to/lastmile_qr_scan"}, "lat": 38.90574}, {"type": "electric_bike", "name": "594866827424eb6fd391f8ad9280f686", "fusion_lat": 0.0, "fusion_lon": 0.0, "lon": -77.021739, "is_disabled": 0, "bike_id": "594866827424eb6fd391f8ad9280f686", "is_reserved": 0, "rental_uris": {"android": "https://dc.lft.to/lastmile_qr_scan", "ios": "https://dc.lft.to/lastmile_qr_scan"}, "lat": 38.8957165}, {"type": "electric_scooter", "name": "0b67faa70dae8ba2a45e28e514d40dd3", "fusion_lat": 0.0, "fusion_lon": 0.0, "lon": -77.02620983333334, "is_disabled": 0, "bike_id": "0b67faa70dae8ba2a45e28e514d40dd3", "is_reserved": 0, "rental_uris": {"android": "https://dc.lft.to/lastmile_qr_scan", "ios": "https://dc.lft.to/lastmile_qr_scan"}, "lat": 38.9036035}, {"type": "electric_scooter", "name": "6232fde04f9c416065f51865e816f2d1", "fusion_lat": 0.0, "fusion_lon": 0.0, "lon": -77.01066266666666, "is_disabled": 0, "bike_id": "6232fde04f9c416065f51865e816f2d1", "is_reserved": 0, "rental_uris": {"android": "https://dc.lft.to/lastmile_qr_scan", "ios": "https://dc.lft.to/lastmile_qr_scan"}, "lat": 38.918229833333335}, {"type": "electric_scooter", "name": "a81e7686ed1f72e813d6e56e39e7cc3c", "fusion_lat": 0.0, "fusion_lon": 0.0, "lon": -77.0476475, "is_disabled": 0, "bike_id": "a81e7686ed1f72e813d6e56e39e7cc3c", "is_reserved": 0, "rental_uris": {"android": "https://dc.lft.to/lastmile_qr_scan", "ios": "https://dc.lft.to/lastmile_qr_scan"}, "lat": 38.917466}, {"type": "electric_scooter", "name": "2da96bce2aceaf3504348cf879594506", "fusion_lat": 0.0, "fusion_lon": 0.0, "lon": -77.06032983333333, "is_disabled": 0, "bike_id": "2da96bce2aceaf3504348cf879594506", "is_reserved": 0, "rental_uris": {"android": "https://dc.lft.to/lastmile_qr_scan", "ios": "https://dc.lft.to/lastmile_qr_scan"}, "lat": 38.90230583333334}, {"type": "electric_scooter", "name": "d40caa4707643182f247728af91d2a7f", "fusion_lat": 0.0, "fusion_lon": 0.0, "lon": -77.04045533333333, "is_disabled": 0, "bike_id": "d40caa4707643182f247728af91d2a7f", "is_reserved": 0, "rental_uris": {"android": "https://dc.lft.to/lastmile_qr_scan", "ios": "https://dc.lft.to/lastmile_qr_scan"}, "lat": 38.899265}, {"type": "electric_bike", "name": "cae9ec699460bd40d6bcc2a3ce1ad961", "fusion_lat": 0.0, "fusion_lon": 0.0, "lon": -76.99483016666667, "is_disabled": 0, "bike_id": "cae9ec699460bd40d6bcc2a3ce1ad961", "is_reserved": 0, "rental_uris": {"android": "https://dc.lft.to/lastmile_qr_scan", "ios": "https://dc.lft.to/lastmile_qr_scan"}, "lat": 38.938315333333335}, {"type": "electric_scooter", "name": "6a0da8382fde4d9a5ee9fc19ad4a4301", "fusion_lat": 0.0, "fusion_lon": 0.0, "lon": -77.02396783333333, "is_disabled": 0, "bike_id": "6a0da8382fde4d9a5ee9fc19ad4a4301", "is_reserved": 0, "rental_uris": {"android": "https://dc.lft.to/lastmile_qr_scan", "ios": "https://dc.lft.to/lastmile_qr_scan"}, "lat": 38.9309265}, {"type": "electric_scooter", "name": "309e33e26d5f9782b4364c706f94a7b1", "fusion_lat": 0.0, "fusion_lon": 0.0, "lon": -76.98992566666666, "is_disabled": 0, "bike_id": "309e33e26d5f9782b4364c706f94a7b1", "is_reserved": 0, "rental_uris": {"android": "https://dc.lft.to/lastmile_qr_scan", "ios": "https://dc.lft.to/lastmile_qr_scan"}, "lat": 38.86433}, {"type": "electric_bike", "name": "4e25287821d50cd757ed9e9a06078cdb", "fusion_lat": 0.0, "fusion_lon": 0.0, "lon": -77.07479783333334, "is_disabled": 0, "bike_id": "4e25287821d50cd757ed9e9a06078cdb", "is_reserved": 0, "rental_uris": {"android": "https://dc.lft.to/lastmile_qr_scan", "ios": "https://dc.lft.to/lastmile_qr_scan"}, "lat": 38.920630833333334}, {"type": "electric_scooter", "name": "d9bb8cd520f652e905084debf8f74c8a", "fusion_lat": 0.0, "fusion_lon": 0.0, "lon": -77.01620266666667, "is_disabled": 0, "bike_id": "d9bb8cd520f652e905084debf8f74c8a", "is_reserved": 0, "rental_uris": {"android": "https://dc.lft.to/lastmile_qr_scan", "ios": "https://dc.lft.to/lastmile_qr_scan"}, "lat": 38.9060995}, {"type": "electric_scooter", "name": "425a1493d56eb2bc145e4aaa725ceb41", "fusion_lat": 0.0, "fusion_lon": 0.0, "lon": -77.02448766666667, "is_disabled": 0, "bike_id": "425a1493d56eb2bc145e4aaa725ceb41", "is_reserved": 0, "rental_uris": {"android": "https://dc.lft.to/lastmile_qr_scan", "ios": "https://dc.lft.to/lastmile_qr_scan"}, "lat": 38.949781333333334}, {"type": "electric_scooter", "name": "832a707503c31ce1741ff999c0848f78", "fusion_lat": 0.0, "fusion_lon": 0.0, "lon": -77.05135766666666, "is_disabled": 0, "bike_id": "832a707503c31ce1741ff999c0848f78", "is_reserved": 0, "rental_uris": {"android": "https://dc.lft.to/lastmile_qr_scan", "ios": "https://dc.lft.to/lastmile_qr_scan"}, "lat": 38.905146}, {"type": "electric_scooter", "name": "3f859211ab076e9b1360f822c998a4a9", "fusion_lat": 0.0, "fusion_lon": 0.0, "lon": -77.02869133333333, "is_disabled": 0, "bike_id": "3f859211ab076e9b1360f822c998a4a9", "is_reserved": 0, "rental_uris": {"android": "https://dc.lft.to/lastmile_qr_scan", "ios": "https://dc.lft.to/lastmile_qr_scan"}, "lat": 38.91261216666667}, {"type": "electric_scooter", "name": "2d0946a57c49bd88c3fefcc90085db92", "fusion_lat": 0.0, "fusion_lon": 0.0, "lon": -77.0437145, "is_disabled": 0, "bike_id": "2d0946a57c49bd88c3fefcc90085db92", "is_reserved": 0, "rental_uris": {"android": "https://dc.lft.to/lastmile_qr_scan", "ios": "https://dc.lft.to/lastmile_qr_scan"}, "lat": 38.904222}, {"type": "electric_scooter", "name": "a7e74c3789d20baac1cb1e1bb3d13ec7", "fusion_lat": 0.0, "fusion_lon": 0.0, "lon": -76.965251, "is_disabled": 0, "bike_id": "a7e74c3789d20baac1cb1e1bb3d13ec7", "is_reserved": 0, "rental_uris": {"android": "https://dc.lft.to/lastmile_qr_scan", "ios": "https://dc.lft.to/lastmile_qr_scan"}, "lat": 38.876301166666664}, {"type": "electric_scooter", "name": "e43e6ccee8fa7ca1fb7ef35129bca197", "fusion_lat": 0.0, "fusion_lon": 0.0, "lon": -77.03335616666666, "is_disabled": 0, "bike_id": "e43e6ccee8fa7ca1fb7ef35129bca197", "is_reserved": 0, "rental_uris": {"android": "https://dc.lft.to/lastmile_qr_scan", "ios": "https://dc.lft.to/lastmile_qr_scan"}, "lat": 38.91911666666667}, {"type": "electric_scooter", "name": "95584c16ee0d4356190d39f3d49b6d31", "fusion_lat": 0.0, "fusion_lon": 0.0, "lon": -76.983112, "is_disabled": 0, "bike_id": "95584c16ee0d4356190d39f3d49b6d31", "is_reserved": 0, "rental_uris": {"android": "https://dc.lft.to/lastmile_qr_scan", "ios": "https://dc.lft.to/lastmile_qr_scan"}, "lat": 38.868933}, {"type": "electric_scooter", "name": "5d64b17a2abb9666a4fb8690008fa4d9", "fusion_lat": 0.0, "fusion_lon": 0.0, "lon": -76.99513283333333, "is_disabled": 0, "bike_id": "5d64b17a2abb9666a4fb8690008fa4d9", "is_reserved": 0, "rental_uris": {"android": "https://dc.lft.to/lastmile_qr_scan", "ios": "https://dc.lft.to/lastmile_qr_scan"}, "lat": 38.887901666666664}, {"type": "electric_scooter", "name": "ef4b1bcc472dc28aa3876d1f9b8756be", "fusion_lat": 0.0, "fusion_lon": 0.0, "lon": -77.03855883333334, "is_disabled": 0, "bike_id": "ef4b1bcc472dc28aa3876d1f9b8756be", "is_reserved": 0, "rental_uris": {"android": "https://dc.lft.to/lastmile_qr_scan", "ios": "https://dc.lft.to/lastmile_qr_scan"}, "lat": 38.91120983333333}, {"type": "electric_scooter", "name": "69fee1392e4cff76780d1b9cfe76705b", "fusion_lat": 0.0, "fusion_lon": 0.0, "lon": -76.98890683333333, "is_disabled": 0, "bike_id": "69fee1392e4cff76780d1b9cfe76705b", "is_reserved": 0, "rental_uris": {"android": "https://dc.lft.to/lastmile_qr_scan", "ios": "https://dc.lft.to/lastmile_qr_scan"}, "lat": 38.934780833333335}, {"type": "electric_scooter", "name": "e33fa7b8bed1be9657ef70176d932867", "fusion_lat": 0.0, "fusion_lon": 0.0, "lon": -77.0061175, "is_disabled": 0, "bike_id": "e33fa7b8bed1be9657ef70176d932867", "is_reserved": 0, "rental_uris": {"android": "https://dc.lft.to/lastmile_qr_scan", "ios": "https://dc.lft.to/lastmile_qr_scan"}, "lat": 38.905472}, {"type": "electric_scooter", "name": "38e1fd6757d64f60a6ba91d9eaafe531", "fusion_lat": 0.0, "fusion_lon": 0.0, "lon": -77.0386855, "is_disabled": 0, "bike_id": "38e1fd6757d64f60a6ba91d9eaafe531", "is_reserved": 0, "rental_uris": {"android": "https://dc.lft.to/lastmile_qr_scan", "ios": "https://dc.lft.to/lastmile_qr_scan"}, "lat": 38.91714266666666}, {"type": "electric_scooter", "name": "d88b359521d87e4f40f5466845d50d4b", "fusion_lat": 0.0, "fusion_lon": 0.0, "lon": -77.02399483333333, "is_disabled": 0, "bike_id": "d88b359521d87e4f40f5466845d50d4b", "is_reserved": 0, "rental_uris": {"android": "https://dc.lft.to/lastmile_qr_scan", "ios": "https://dc.lft.to/lastmile_qr_scan"}, "lat": 38.91674316666667}, {"type": "electric_scooter", "name": "c42ffcc033a6e430d0a7be0566cff051", "fusion_lat": 0.0, "fusion_lon": 0.0, "lon": -77.0398855, "is_disabled": 0, "bike_id": "c42ffcc033a6e430d0a7be0566cff051", "is_reserved": 0, "rental_uris": {"android": "https://dc.lft.to/lastmile_qr_scan", "ios": "https://dc.lft.to/lastmile_qr_scan"}, "lat": 38.898728166666665}, {"type": "electric_scooter", "name": "79f279a969e7632b5e0eca9635971a24", "fusion_lat": 0.0, "fusion_lon": 0.0, "lon": -77.012641, "is_disabled": 0, "bike_id": "79f279a969e7632b5e0eca9635971a24", "is_reserved": 0, "rental_uris": {"android": "https://dc.lft.to/lastmile_qr_scan", "ios": "https://dc.lft.to/lastmile_qr_scan"}, "lat": 38.89721816666667}, {"type": "electric_scooter", "name": "3ad3e4cefa761d539414e0af63965cf5", "fusion_lat": 0.0, "fusion_lon": 0.0, "lon": -77.025876, "is_disabled": 0, "bike_id": "3ad3e4cefa761d539414e0af63965cf5", "is_reserved": 0, "rental_uris": {"android": "https://dc.lft.to/lastmile_qr_scan", "ios": "https://dc.lft.to/lastmile_qr_scan"}, "lat": 38.920371}, {"type": "electric_scooter", "name": "29fdae639a0ddab03755fc8708291653", "fusion_lat": 0.0, "fusion_lon": 0.0, "lon": -77.072885, "is_disabled": 0, "bike_id": "29fdae639a0ddab03755fc8708291653", "is_reserved": 0, "rental_uris": {"android": "https://dc.lft.to/lastmile_qr_scan", "ios": "https://dc.lft.to/lastmile_qr_scan"}, "lat": 38.92278666666667}, {"type": "electric_scooter", "name": "d2c6f533fbdc3d08c2b1d1799a12b76b", "fusion_lat": 0.0, "fusion_lon": 0.0, "lon": -77.0727305, "is_disabled": 0, "bike_id": "d2c6f533fbdc3d08c2b1d1799a12b76b", "is_reserved": 0, "rental_uris": {"android": "https://dc.lft.to/lastmile_qr_scan", "ios": "https://dc.lft.to/lastmile_qr_scan"}, "lat": 38.90911766666667}, {"type": "electric_scooter", "name": "502d83cecb30522a2fb6d3644391e9ae", "fusion_lat": 0.0, "fusion_lon": 0.0, "lon": -77.02181933333334, "is_disabled": 0, "bike_id": "502d83cecb30522a2fb6d3644391e9ae", "is_reserved": 0, "rental_uris": {"android": "https://dc.lft.to/lastmile_qr_scan", "ios": "https://dc.lft.to/lastmile_qr_scan"}, "lat": 38.91482233333333}, {"type": "electric_bike", "name": "0109014665dfc1fbc94fca6e001a402c", "fusion_lat": 0.0, "fusion_lon": 0.0, "lon": -76.95112383333333, "is_disabled": 0, "bike_id": "0109014665dfc1fbc94fca6e001a402c", "is_reserved": 0, "rental_uris": {"android": "https://dc.lft.to/lastmile_qr_scan", "ios": "https://dc.lft.to/lastmile_qr_scan"}, "lat": 38.90454783333333}, {"type": "electric_scooter", "name": "665b65df1eeda8339071259f2e89f8bd", "fusion_lat": 0.0, "fusion_lon": 0.0, "lon": -77.023001, "is_disabled": 0, "bike_id": "665b65df1eeda8339071259f2e89f8bd", "is_reserved": 0, "rental_uris": {"android": "https://dc.lft.to/lastmile_qr_scan", "ios": "https://dc.lft.to/lastmile_qr_scan"}, "lat": 38.915999666666664}, {"type": "electric_scooter", "name": "321ee6231e72378a50a89c002bd1f6ac", "fusion_lat": 0.0, "fusion_lon": 0.0, "lon": -77.029526, "is_disabled": 0, "bike_id": "321ee6231e72378a50a89c002bd1f6ac", "is_reserved": 0, "rental_uris": {"android": "https://dc.lft.to/lastmile_qr_scan", "ios": "https://dc.lft.to/lastmile_qr_scan"}, "lat": 38.898266166666666}, {"type": "electric_scooter", "name": "6207eadfeb2afc2fe089a54d2b23514e", "fusion_lat": 0.0, "fusion_lon": 0.0, "lon": -77.02453983333334, "is_disabled": 0, "bike_id": "6207eadfeb2afc2fe089a54d2b23514e", "is_reserved": 0, "rental_uris": {"android": "https://dc.lft.to/lastmile_qr_scan", "ios": "https://dc.lft.to/lastmile_qr_scan"}, "lat": 38.934115}, {"type": "electric_scooter", "name": "5b7b0830ace387ba68840ffea4a8afcf", "fusion_lat": 0.0, "fusion_lon": 0.0, "lon": -77.00817216666667, "is_disabled": 0, "bike_id": "5b7b0830ace387ba68840ffea4a8afcf", "is_reserved": 0, "rental_uris": {"android": "https://dc.lft.to/lastmile_qr_scan", "ios": "https://dc.lft.to/lastmile_qr_scan"}, "lat": 38.9155825}, {"type": "electric_bike", "name": "a7d11b4cc344be2654dfd480f8a95145", "fusion_lat": 0.0, "fusion_lon": 0.0, "lon": -77.02004366666667, "is_disabled": 0, "bike_id": "a7d11b4cc344be2654dfd480f8a95145", "is_reserved": 0, "rental_uris": {"android": "https://dc.lft.to/lastmile_qr_scan", "ios": "https://dc.lft.to/lastmile_qr_scan"}, "lat": 39.026208833333335}, {"type": "electric_scooter", "name": "9ee2987a90a05989bb81b482f693a834", "fusion_lat": 0.0, "fusion_lon": 0.0, "lon": -77.03423883333333, "is_disabled": 0, "bike_id": "9ee2987a90a05989bb81b482f693a834", "is_reserved": 0, "rental_uris": {"android": "https://dc.lft.to/lastmile_qr_scan", "ios": "https://dc.lft.to/lastmile_qr_scan"}, "lat": 38.91401966666667}, {"type": "electric_scooter", "name": "c18aff6b0ef712a69e38d914a1ca49bc", "fusion_lat": 0.0, "fusion_lon": 0.0, "lon": -77.02690066666666, "is_disabled": 0, "bike_id": "c18aff6b0ef712a69e38d914a1ca49bc", "is_reserved": 0, "rental_uris": {"android": "https://dc.lft.to/lastmile_qr_scan", "ios": "https://dc.lft.to/lastmile_qr_scan"}, "lat": 38.930795}, {"type": "electric_bike", "name": "0847df5276bb20fdba85401dba56a64a", "fusion_lat": 0.0, "fusion_lon": 0.0, "lon": -77.11287666666666, "is_disabled": 0, "bike_id": "0847df5276bb20fdba85401dba56a64a", "is_reserved": 0, "rental_uris": {"android": "https://dc.lft.to/lastmile_qr_scan", "ios": "https://dc.lft.to/lastmile_qr_scan"}, "lat": 38.831013}, {"type": "electric_bike", "name": "c64354d3acb4d8211b7226fea39e7d86", "fusion_lat": 0.0, "fusion_lon": 0.0, "lon": -77.02808216666666, "is_disabled": 0, "bike_id": "c64354d3acb4d8211b7226fea39e7d86", "is_reserved": 0, "rental_uris": {"android": "https://dc.lft.to/lastmile_qr_scan", "ios": "https://dc.lft.to/lastmile_qr_scan"}, "lat": 38.91959}, {"type": "electric_scooter", "name": "270f9f102c56facd523648c46d818045", "fusion_lat": 0.0, "fusion_lon": 0.0, "lon": -76.98406133333333, "is_disabled": 0, "bike_id": "270f9f102c56facd523648c46d818045", "is_reserved": 0, "rental_uris": {"android": "https://dc.lft.to/lastmile_qr_scan", "ios": "https://dc.lft.to/lastmile_qr_scan"}, "lat": 38.860595833333335}, {"type": "electric_scooter", "name": "feca3831042c3a6cf57ef9dd83884bd7", "fusion_lat": 0.0, "fusion_lon": 0.0, "lon": -77.027901, "is_disabled": 0, "bike_id": "feca3831042c3a6cf57ef9dd83884bd7", "is_reserved": 0, "rental_uris": {"android": "https://dc.lft.to/lastmile_qr_scan", "ios": "https://dc.lft.to/lastmile_qr_scan"}, "lat": 38.90104566666667}, {"type": "electric_scooter", "name": "e381d66fa6a62e8e7676a6f60eabe73b", "fusion_lat": 0.0, "fusion_lon": 0.0, "lon": -77.03188866666666, "is_disabled": 0, "bike_id": "e381d66fa6a62e8e7676a6f60eabe73b", "is_reserved": 0, "rental_uris": {"android": "https://dc.lft.to/lastmile_qr_scan", "ios": "https://dc.lft.to/lastmile_qr_scan"}, "lat": 38.91563933333333}, {"type": "electric_scooter", "name": "c986bee208945f9fe2b8ee2457e665c3", "fusion_lat": 0.0, "fusion_lon": 0.0, "lon": -77.01226766666667, "is_disabled": 0, "bike_id": "c986bee208945f9fe2b8ee2457e665c3", "is_reserved": 0, "rental_uris": {"android": "https://dc.lft.to/lastmile_qr_scan", "ios": "https://dc.lft.to/lastmile_qr_scan"}, "lat": 38.91545966666666}, {"type": "electric_scooter", "name": "1a05b068a32ec8a683adb526e96c9514", "fusion_lat": 0.0, "fusion_lon": 0.0, "lon": -77.02808833333333, "is_disabled": 0, "bike_id": "1a05b068a32ec8a683adb526e96c9514", "is_reserved": 0, "rental_uris": {"android": "https://dc.lft.to/lastmile_qr_scan", "ios": "https://dc.lft.to/lastmile_qr_scan"}, "lat": 38.89904716666667}, {"type": "electric_scooter", "name": "dbecb39d14cb3fc2d17edaa15e5f86c2", "fusion_lat": 0.0, "fusion_lon": 0.0, "lon": -77.01221166666667, "is_disabled": 0, "bike_id": "dbecb39d14cb3fc2d17edaa15e5f86c2", "is_reserved": 0, "rental_uris": {"android": "https://dc.lft.to/lastmile_qr_scan", "ios": "https://dc.lft.to/lastmile_qr_scan"}, "lat": 38.915470166666665}, {"type": "electric_scooter", "name": "910b1bb676f37bf14fc5673da86437a5", "fusion_lat": 0.0, "fusion_lon": 0.0, "lon": -77.033508, "is_disabled": 0, "bike_id": "910b1bb676f37bf14fc5673da86437a5", "is_reserved": 0, "rental_uris": {"android": "https://dc.lft.to/lastmile_qr_scan", "ios": "https://dc.lft.to/lastmile_qr_scan"}, "lat": 38.902659666666665}, {"type": "electric_scooter", "name": "1691ab01ae729b776d355bf3cd070548", "fusion_lat": 0.0, "fusion_lon": 0.0, "lon": -77.04875483333333, "is_disabled": 0, "bike_id": "1691ab01ae729b776d355bf3cd070548", "is_reserved": 0, "rental_uris": {"android": "https://dc.lft.to/lastmile_qr_scan", "ios": "https://dc.lft.to/lastmile_qr_scan"}, "lat": 38.892377333333336}, {"type": "electric_scooter", "name": "9134fbf3ea51ead08f19b5015ed69a97", "fusion_lat": 0.0, "fusion_lon": 0.0, "lon": -77.03352933333333, "is_disabled": 0, "bike_id": "9134fbf3ea51ead08f19b5015ed69a97", "is_reserved": 0, "rental_uris": {"android": "https://dc.lft.to/lastmile_qr_scan", "ios": "https://dc.lft.to/lastmile_qr_scan"}, "lat": 38.898413}, {"type": "electric_scooter", "name": "e5dbd955a67e2a9640ea224015080af4", "fusion_lat": 0.0, "fusion_lon": 0.0, "lon": -77.02761983333333, "is_disabled": 0, "bike_id": "e5dbd955a67e2a9640ea224015080af4", "is_reserved": 0, "rental_uris": {"android": "https://dc.lft.to/lastmile_qr_scan", "ios": "https://dc.lft.to/lastmile_qr_scan"}, "lat": 38.934588166666664}, {"type": "electric_scooter", "name": "c675a4fc8c4e5e695f9600ff29d7acae", "fusion_lat": 0.0, "fusion_lon": 0.0, "lon": -77.022782, "is_disabled": 0, "bike_id": "c675a4fc8c4e5e695f9600ff29d7acae", "is_reserved": 0, "rental_uris": {"android": "https://dc.lft.to/lastmile_qr_scan", "ios": "https://dc.lft.to/lastmile_qr_scan"}, "lat": 38.926872}, {"type": "electric_scooter", "name": "04644cb95fe72e8277b0e78cccd55b34", "fusion_lat": 0.0, "fusion_lon": 0.0, "lon": -77.0433915, "is_disabled": 0, "bike_id": "04644cb95fe72e8277b0e78cccd55b34", "is_reserved": 0, "rental_uris": {"android": "https://dc.lft.to/lastmile_qr_scan", "ios": "https://dc.lft.to/lastmile_qr_scan"}, "lat": 38.91302983333333}, {"type": "electric_scooter", "name": "0083510d35f4240863b049900149d38e", "fusion_lat": 0.0, "fusion_lon": 0.0, "lon": -77.03187516666667, "is_disabled": 0, "bike_id": "0083510d35f4240863b049900149d38e", "is_reserved": 0, "rental_uris": {"android": "https://dc.lft.to/lastmile_qr_scan", "ios": "https://dc.lft.to/lastmile_qr_scan"}, "lat": 38.913163}, {"type": "electric_scooter", "name": "c77434f73e977e7bca27eb206250e739", "fusion_lat": 0.0, "fusion_lon": 0.0, "lon": -76.9853815, "is_disabled": 0, "bike_id": "c77434f73e977e7bca27eb206250e739", "is_reserved": 0, "rental_uris": {"android": "https://dc.lft.to/lastmile_qr_scan", "ios": "https://dc.lft.to/lastmile_qr_scan"}, "lat": 38.912867166666665}, {"type": "electric_scooter", "name": "d08d8f78bdd4da00822e00e764a466bb", "fusion_lat": 0.0, "fusion_lon": 0.0, "lon": -77.0060655, "is_disabled": 0, "bike_id": "d08d8f78bdd4da00822e00e764a466bb", "is_reserved": 0, "rental_uris": {"android": "https://dc.lft.to/lastmile_qr_scan", "ios": "https://dc.lft.to/lastmile_qr_scan"}, "lat": 38.875754666666666}, {"type": "electric_scooter", "name": "1f7f955be553e7897b112c6bc5fd32b8", "fusion_lat": 0.0, "fusion_lon": 0.0, "lon": -77.04009416666666, "is_disabled": 0, "bike_id": "1f7f955be553e7897b112c6bc5fd32b8", "is_reserved": 0, "rental_uris": {"android": "https://dc.lft.to/lastmile_qr_scan", "ios": "https://dc.lft.to/lastmile_qr_scan"}, "lat": 38.90998666666667}, {"type": "electric_scooter", "name": "e6cdbd6beffec43ae96c83cca5fbb2c1", "fusion_lat": 0.0, "fusion_lon": 0.0, "lon": -77.03304283333334, "is_disabled": 0, "bike_id": "e6cdbd6beffec43ae96c83cca5fbb2c1", "is_reserved": 0, "rental_uris": {"android": "https://dc.lft.to/lastmile_qr_scan", "ios": "https://dc.lft.to/lastmile_qr_scan"}, "lat": 38.9264955}, {"type": "electric_scooter", "name": "daa6ee4a43b0dd64757b8814beebbde2", "fusion_lat": 0.0, "fusion_lon": 0.0, "lon": -77.01389733333333, "is_disabled": 0, "bike_id": "daa6ee4a43b0dd64757b8814beebbde2", "is_reserved": 0, "rental_uris": {"android": "https://dc.lft.to/lastmile_qr_scan", "ios": "https://dc.lft.to/lastmile_qr_scan"}, "lat": 38.87895233333333}, {"type": "electric_bike", "name": "6e5ab48318745230a3ea574056cff0c0", "fusion_lat": 0.0, "fusion_lon": 0.0, "lon": -77.0327375, "is_disabled": 0, "bike_id": "6e5ab48318745230a3ea574056cff0c0", "is_reserved": 0, "rental_uris": {"android": "https://dc.lft.to/lastmile_qr_scan", "ios": "https://dc.lft.to/lastmile_qr_scan"}, "lat": 38.961235}, {"type": "electric_scooter", "name": "ee447fa53b4c8041a2a24427d0236fe5", "fusion_lat": 0.0, "fusion_lon": 0.0, "lon": -77.03965733333334, "is_disabled": 0, "bike_id": "ee447fa53b4c8041a2a24427d0236fe5", "is_reserved": 0, "rental_uris": {"android": "https://dc.lft.to/lastmile_qr_scan", "ios": "https://dc.lft.to/lastmile_qr_scan"}, "lat": 38.90011533333333}, {"type": "electric_scooter", "name": "50c94d6ef6ab6c532809a37820ee8d64", "fusion_lat": 0.0, "fusion_lon": 0.0, "lon": -77.032603, "is_disabled": 0, "bike_id": "50c94d6ef6ab6c532809a37820ee8d64", "is_reserved": 0, "rental_uris": {"android": "https://dc.lft.to/lastmile_qr_scan", "ios": "https://dc.lft.to/lastmile_qr_scan"}, "lat": 38.93730083333333}, {"type": "electric_bike", "name": "d65bd45bb9148ac63c798e2d4c1255cd", "fusion_lat": 0.0, "fusion_lon": 0.0, "lon": -77.002078, "is_disabled": 0, "bike_id": "d65bd45bb9148ac63c798e2d4c1255cd", "is_reserved": 0, "rental_uris": {"android": "https://dc.lft.to/lastmile_qr_scan", "ios": "https://dc.lft.to/lastmile_qr_scan"}, "lat": 38.9884785}, {"type": "electric_scooter", "name": "5ce5c52f8689efcbf3b629556f75f9db", "fusion_lat": 0.0, "fusion_lon": 0.0, "lon": -77.0296755, "is_disabled": 0, "bike_id": "5ce5c52f8689efcbf3b629556f75f9db", "is_reserved": 0, "rental_uris": {"android": "https://dc.lft.to/lastmile_qr_scan", "ios": "https://dc.lft.to/lastmile_qr_scan"}, "lat": 38.90398833333333}, {"type": "electric_scooter", "name": "a8259684c927b7df436656fe8b540da7", "fusion_lat": 0.0, "fusion_lon": 0.0, "lon": -77.02175566666666, "is_disabled": 0, "bike_id": "a8259684c927b7df436656fe8b540da7", "is_reserved": 0, "rental_uris": {"android": "https://dc.lft.to/lastmile_qr_scan", "ios": "https://dc.lft.to/lastmile_qr_scan"}, "lat": 38.91108166666667}, {"type": "electric_scooter", "name": "0db062521de01297b2be0c3cc3784492", "fusion_lat": 0.0, "fusion_lon": 0.0, "lon": -77.00093, "is_disabled": 0, "bike_id": "0db062521de01297b2be0c3cc3784492", "is_reserved": 0, "rental_uris": {"android": "https://dc.lft.to/lastmile_qr_scan", "ios": "https://dc.lft.to/lastmile_qr_scan"}, "lat": 38.87632}, {"type": "electric_scooter", "name": "06febb0e32cb25d44bebab84f134315a", "fusion_lat": 0.0, "fusion_lon": 0.0, "lon": -77.0279785, "is_disabled": 0, "bike_id": "06febb0e32cb25d44bebab84f134315a", "is_reserved": 0, "rental_uris": {"android": "https://dc.lft.to/lastmile_qr_scan", "ios": "https://dc.lft.to/lastmile_qr_scan"}, "lat": 38.92316066666667}, {"type": "electric_scooter", "name": "25e87fdac6091395f3ab988fa1bd09ff", "fusion_lat": 0.0, "fusion_lon": 0.0, "lon": -77.01978183333334, "is_disabled": 0, "bike_id": "25e87fdac6091395f3ab988fa1bd09ff", "is_reserved": 0, "rental_uris": {"android": "https://dc.lft.to/lastmile_qr_scan", "ios": "https://dc.lft.to/lastmile_qr_scan"}, "lat": 38.90508}, {"type": "electric_scooter", "name": "16cf9463dc8b6a87a033458c9cacd69a", "fusion_lat": 0.0, "fusion_lon": 0.0, "lon": -76.99158766666666, "is_disabled": 0, "bike_id": "16cf9463dc8b6a87a033458c9cacd69a", "is_reserved": 0, "rental_uris": {"android": "https://dc.lft.to/lastmile_qr_scan", "ios": "https://dc.lft.to/lastmile_qr_scan"}, "lat": 38.888125}, {"type": "electric_bike", "name": "d224f4f745dae829dd3bcd3fbbd30d8e", "fusion_lat": 0.0, "fusion_lon": 0.0, "lon": -76.98090866666666, "is_disabled": 0, "bike_id": "d224f4f745dae829dd3bcd3fbbd30d8e", "is_reserved": 0, "rental_uris": {"android": "https://dc.lft.to/lastmile_qr_scan", "ios": "https://dc.lft.to/lastmile_qr_scan"}, "lat": 38.95356816666666}, {"type": "electric_scooter", "name": "0255ac979e3881393dee8f34223fb19e", "fusion_lat": 0.0, "fusion_lon": 0.0, "lon": -77.06479933333334, "is_disabled": 0, "bike_id": "0255ac979e3881393dee8f34223fb19e", "is_reserved": 0, "rental_uris": {"android": "https://dc.lft.to/lastmile_qr_scan", "ios": "https://dc.lft.to/lastmile_qr_scan"}, "lat": 38.927107}, {"type": "electric_scooter", "name": "fbc432ff274e997db8d500cd0670fa23", "fusion_lat": 0.0, "fusion_lon": 0.0, "lon": -77.03182383333333, "is_disabled": 0, "bike_id": "fbc432ff274e997db8d500cd0670fa23", "is_reserved": 0, "rental_uris": {"android": "https://dc.lft.to/lastmile_qr_scan", "ios": "https://dc.lft.to/lastmile_qr_scan"}, "lat": 38.914162166666664}, {"type": "electric_scooter", "name": "a96f48fa67f967ba1bc07332281905ae", "fusion_lat": 0.0, "fusion_lon": 0.0, "lon": -77.03319883333333, "is_disabled": 0, "bike_id": "a96f48fa67f967ba1bc07332281905ae", "is_reserved": 0, "rental_uris": {"android": "https://dc.lft.to/lastmile_qr_scan", "ios": "https://dc.lft.to/lastmile_qr_scan"}, "lat": 38.928452}, {"type": "electric_scooter", "name": "21407a0e38c6e1cf304342a189a99808", "fusion_lat": 0.0, "fusion_lon": 0.0, "lon": -77.00058783333333, "is_disabled": 0, "bike_id": "21407a0e38c6e1cf304342a189a99808", "is_reserved": 0, "rental_uris": {"android": "https://dc.lft.to/lastmile_qr_scan", "ios": "https://dc.lft.to/lastmile_qr_scan"}, "lat": 38.87420266666667}, {"type": "electric_scooter", "name": "d0a783cca3c19af9c4e43a8b3cab420f", "fusion_lat": 0.0, "fusion_lon": 0.0, "lon": -77.00254883333334, "is_disabled": 0, "bike_id": "d0a783cca3c19af9c4e43a8b3cab420f", "is_reserved": 0, "rental_uris": {"android": "https://dc.lft.to/lastmile_qr_scan", "ios": "https://dc.lft.to/lastmile_qr_scan"}, "lat": 38.894767}, {"type": "electric_scooter", "name": "84af0f6147e0308b832e3e708276bd52", "fusion_lat": 0.0, "fusion_lon": 0.0, "lon": -77.0535955, "is_disabled": 0, "bike_id": "84af0f6147e0308b832e3e708276bd52", "is_reserved": 0, "rental_uris": {"android": "https://dc.lft.to/lastmile_qr_scan", "ios": "https://dc.lft.to/lastmile_qr_scan"}, "lat": 38.8988185}, {"type": "electric_scooter", "name": "925e3feab940c8d6647184db610cce16", "fusion_lat": 0.0, "fusion_lon": 0.0, "lon": -76.99380883333333, "is_disabled": 0, "bike_id": "925e3feab940c8d6647184db610cce16", "is_reserved": 0, "rental_uris": {"android": "https://dc.lft.to/lastmile_qr_scan", "ios": "https://dc.lft.to/lastmile_qr_scan"}, "lat": 38.89339833333333}, {"type": "electric_scooter", "name": "13ea2959114f9e659e1bfbe11e637c34", "fusion_lat": 0.0, "fusion_lon": 0.0, "lon": -77.01018833333333, "is_disabled": 0, "bike_id": "13ea2959114f9e659e1bfbe11e637c34", "is_reserved": 0, "rental_uris": {"android": "https://dc.lft.to/lastmile_qr_scan", "ios": "https://dc.lft.to/lastmile_qr_scan"}, "lat": 38.91402466666667}, {"type": "electric_scooter", "name": "67216d05ad73c407d0921e757327dbc8", "fusion_lat": 0.0, "fusion_lon": 0.0, "lon": -77.02818066666667, "is_disabled": 0, "bike_id": "67216d05ad73c407d0921e757327dbc8", "is_reserved": 0, "rental_uris": {"android": "https://dc.lft.to/lastmile_qr_scan", "ios": "https://dc.lft.to/lastmile_qr_scan"}, "lat": 38.95088783333333}, {"type": "electric_bike", "name": "a48ddcf5753f0f8efab18761af094ce3", "fusion_lat": 0.0, "fusion_lon": 0.0, "lon": -76.96157066666666, "is_disabled": 0, "bike_id": "a48ddcf5753f0f8efab18761af094ce3", "is_reserved": 0, "rental_uris": {"android": "https://dc.lft.to/lastmile_qr_scan", "ios": "https://dc.lft.to/lastmile_qr_scan"}, "lat": 38.8562005}, {"type": "electric_scooter", "name": "71f43f38dedfdd28aa96bfb7d61366f2", "fusion_lat": 0.0, "fusion_lon": 0.0, "lon": -77.038502, "is_disabled": 0, "bike_id": "71f43f38dedfdd28aa96bfb7d61366f2", "is_reserved": 0, "rental_uris": {"android": "https://dc.lft.to/lastmile_qr_scan", "ios": "https://dc.lft.to/lastmile_qr_scan"}, "lat": 38.916580833333335}, {"type": "electric_scooter", "name": "a9ecf441aa0a266aabc2f439fc9298cd", "fusion_lat": 0.0, "fusion_lon": 0.0, "lon": -77.045543, "is_disabled": 0, "bike_id": "a9ecf441aa0a266aabc2f439fc9298cd", "is_reserved": 0, "rental_uris": {"android": "https://dc.lft.to/lastmile_qr_scan", "ios": "https://dc.lft.to/lastmile_qr_scan"}, "lat": 38.90370466666667}, {"type": "electric_scooter", "name": "5d7a9b471c38446e74e2b12a7aa7a0db", "fusion_lat": 0.0, "fusion_lon": 0.0, "lon": -77.02813616666667, "is_disabled": 0, "bike_id": "5d7a9b471c38446e74e2b12a7aa7a0db", "is_reserved": 0, "rental_uris": {"android": "https://dc.lft.to/lastmile_qr_scan", "ios": "https://dc.lft.to/lastmile_qr_scan"}, "lat": 38.909156}, {"type": "electric_scooter", "name": "d184e808a72f037895e64019ffab45ce", "fusion_lat": 0.0, "fusion_lon": 0.0, "lon": -77.03985933333334, "is_disabled": 0, "bike_id": "d184e808a72f037895e64019ffab45ce", "is_reserved": 0, "rental_uris": {"android": "https://dc.lft.to/lastmile_qr_scan", "ios": "https://dc.lft.to/lastmile_qr_scan"}, "lat": 38.89528766666667}, {"type": "electric_scooter", "name": "ec4866bd2e55479233f426de48f930f7", "fusion_lat": 0.0, "fusion_lon": 0.0, "lon": -77.02883516666667, "is_disabled": 0, "bike_id": "ec4866bd2e55479233f426de48f930f7", "is_reserved": 0, "rental_uris": {"android": "https://dc.lft.to/lastmile_qr_scan", "ios": "https://dc.lft.to/lastmile_qr_scan"}, "lat": 38.897281}, {"type": "electric_scooter", "name": "b0a30de33985d94b5bc3212c900ee7de", "fusion_lat": 0.0, "fusion_lon": 0.0, "lon": -77.00736633333334, "is_disabled": 0, "bike_id": "b0a30de33985d94b5bc3212c900ee7de", "is_reserved": 0, "rental_uris": {"android": "https://dc.lft.to/lastmile_qr_scan", "ios": "https://dc.lft.to/lastmile_qr_scan"}, "lat": 38.87665966666667}, {"type": "electric_scooter", "name": "4734b214b2a01626a042b5cf3ffd0923", "fusion_lat": 0.0, "fusion_lon": 0.0, "lon": -77.02553433333334, "is_disabled": 0, "bike_id": "4734b214b2a01626a042b5cf3ffd0923", "is_reserved": 0, "rental_uris": {"android": "https://dc.lft.to/lastmile_qr_scan", "ios": "https://dc.lft.to/lastmile_qr_scan"}, "lat": 38.97003}, {"type": "electric_scooter", "name": "859079d0d9dafc449a3af47c293ba8a4", "fusion_lat": 0.0, "fusion_lon": 0.0, "lon": -77.04263133333333, "is_disabled": 0, "bike_id": "859079d0d9dafc449a3af47c293ba8a4", "is_reserved": 0, "rental_uris": {"android": "https://dc.lft.to/lastmile_qr_scan", "ios": "https://dc.lft.to/lastmile_qr_scan"}, "lat": 38.903569166666664}, {"type": "electric_scooter", "name": "629421ef5c4c80b9485cffa728b5ff35", "fusion_lat": 0.0, "fusion_lon": 0.0, "lon": -76.9975615, "is_disabled": 0, "bike_id": "629421ef5c4c80b9485cffa728b5ff35", "is_reserved": 0, "rental_uris": {"android": "https://dc.lft.to/lastmile_qr_scan", "ios": "https://dc.lft.to/lastmile_qr_scan"}, "lat": 38.88516383333334}, {"type": "electric_scooter", "name": "10644cbaf146761228cd9ce94a025d40", "fusion_lat": 0.0, "fusion_lon": 0.0, "lon": -77.04350666666667, "is_disabled": 0, "bike_id": "10644cbaf146761228cd9ce94a025d40", "is_reserved": 0, "rental_uris": {"android": "https://dc.lft.to/lastmile_qr_scan", "ios": "https://dc.lft.to/lastmile_qr_scan"}, "lat": 38.90712583333333}, {"type": "electric_scooter", "name": "0bf889ad70b3ad198791262b212ad5cd", "fusion_lat": 0.0, "fusion_lon": 0.0, "lon": -77.038536, "is_disabled": 0, "bike_id": "0bf889ad70b3ad198791262b212ad5cd", "is_reserved": 0, "rental_uris": {"android": "https://dc.lft.to/lastmile_qr_scan", "ios": "https://dc.lft.to/lastmile_qr_scan"}, "lat": 38.91542466666667}, {"type": "electric_scooter", "name": "84f8cb2d1bf1c6650917c2378c97a0ed", "fusion_lat": 0.0, "fusion_lon": 0.0, "lon": -77.0199785, "is_disabled": 0, "bike_id": "84f8cb2d1bf1c6650917c2378c97a0ed", "is_reserved": 0, "rental_uris": {"android": "https://dc.lft.to/lastmile_qr_scan", "ios": "https://dc.lft.to/lastmile_qr_scan"}, "lat": 38.96628483333333}, {"type": "electric_scooter", "name": "1d72a8aea8e486f70eced667845ab594", "fusion_lat": 0.0, "fusion_lon": 0.0, "lon": -77.04345083333334, "is_disabled": 0, "bike_id": "1d72a8aea8e486f70eced667845ab594", "is_reserved": 0, "rental_uris": {"android": "https://dc.lft.to/lastmile_qr_scan", "ios": "https://dc.lft.to/lastmile_qr_scan"}, "lat": 38.906376333333334}, {"type": "electric_scooter", "name": "c9fe3634a6bbe7955142f9a8bf4fe18c", "fusion_lat": 0.0, "fusion_lon": 0.0, "lon": -77.03594266666667, "is_disabled": 0, "bike_id": "c9fe3634a6bbe7955142f9a8bf4fe18c", "is_reserved": 0, "rental_uris": {"android": "https://dc.lft.to/lastmile_qr_scan", "ios": "https://dc.lft.to/lastmile_qr_scan"}, "lat": 38.906978}, {"type": "electric_bike", "name": "ac1a245c46dac2a282a639ef90d43bbf", "fusion_lat": 0.0, "fusion_lon": 0.0, "lon": -77.02980016666666, "is_disabled": 0, "bike_id": "ac1a245c46dac2a282a639ef90d43bbf", "is_reserved": 0, "rental_uris": {"android": "https://dc.lft.to/lastmile_qr_scan", "ios": "https://dc.lft.to/lastmile_qr_scan"}, "lat": 38.93497766666667}, {"type": "electric_scooter", "name": "f0d0e0565b126dfd216f80288cb059fc", "fusion_lat": 0.0, "fusion_lon": 0.0, "lon": -77.03167266666667, "is_disabled": 0, "bike_id": "f0d0e0565b126dfd216f80288cb059fc", "is_reserved": 0, "rental_uris": {"android": "https://dc.lft.to/lastmile_qr_scan", "ios": "https://dc.lft.to/lastmile_qr_scan"}, "lat": 38.91561016666667}, {"type": "electric_scooter", "name": "81b7c456a4ac1027da0c554698f36ec3", "fusion_lat": 0.0, "fusion_lon": 0.0, "lon": -77.02204366666666, "is_disabled": 0, "bike_id": "81b7c456a4ac1027da0c554698f36ec3", "is_reserved": 0, "rental_uris": {"android": "https://dc.lft.to/lastmile_qr_scan", "ios": "https://dc.lft.to/lastmile_qr_scan"}, "lat": 38.914437}, {"type": "electric_scooter", "name": "1640cf40388542929aaa3c0669408740", "fusion_lat": 0.0, "fusion_lon": 0.0, "lon": -77.0301925, "is_disabled": 0, "bike_id": "1640cf40388542929aaa3c0669408740", "is_reserved": 0, "rental_uris": {"android": "https://dc.lft.to/lastmile_qr_scan", "ios": "https://dc.lft.to/lastmile_qr_scan"}, "lat": 38.878495666666666}, {"type": "electric_scooter", "name": "d7b5a555ba027b783d30708424f64b7b", "fusion_lat": 0.0, "fusion_lon": 0.0, "lon": -77.0227985, "is_disabled": 0, "bike_id": "d7b5a555ba027b783d30708424f64b7b", "is_reserved": 0, "rental_uris": {"android": "https://dc.lft.to/lastmile_qr_scan", "ios": "https://dc.lft.to/lastmile_qr_scan"}, "lat": 38.898402}, {"type": "electric_bike", "name": "410f80cf980b06d39bb246ae8f2629b0", "fusion_lat": 0.0, "fusion_lon": 0.0, "lon": -76.90740733333334, "is_disabled": 0, "bike_id": "410f80cf980b06d39bb246ae8f2629b0", "is_reserved": 0, "rental_uris": {"android": "https://dc.lft.to/lastmile_qr_scan", "ios": "https://dc.lft.to/lastmile_qr_scan"}, "lat": 38.89619366666667}, {"type": "electric_scooter", "name": "55dc08af8ff98cc68e09e2c1f1135f14", "fusion_lat": 0.0, "fusion_lon": 0.0, "lon": -77.0303985, "is_disabled": 0, "bike_id": "55dc08af8ff98cc68e09e2c1f1135f14", "is_reserved": 0, "rental_uris": {"android": "https://dc.lft.to/lastmile_qr_scan", "ios": "https://dc.lft.to/lastmile_qr_scan"}, "lat": 38.909461666666665}, {"type": "electric_scooter", "name": "c6722208ae9794aaaae81d16deec4878", "fusion_lat": 0.0, "fusion_lon": 0.0, "lon": -76.9406845, "is_disabled": 0, "bike_id": "c6722208ae9794aaaae81d16deec4878", "is_reserved": 0, "rental_uris": {"android": "https://dc.lft.to/lastmile_qr_scan", "ios": "https://dc.lft.to/lastmile_qr_scan"}, "lat": 38.885899333333334}, {"type": "electric_scooter", "name": "3e2044f3d3f6ceefc74a1e1b4cc9cfe9", "fusion_lat": 0.0, "fusion_lon": 0.0, "lon": -77.02950083333333, "is_disabled": 0, "bike_id": "3e2044f3d3f6ceefc74a1e1b4cc9cfe9", "is_reserved": 0, "rental_uris": {"android": "https://dc.lft.to/lastmile_qr_scan", "ios": "https://dc.lft.to/lastmile_qr_scan"}, "lat": 38.9049335}, {"type": "electric_scooter", "name": "07e508b881fc2104c7c9a2d6cc91e84f", "fusion_lat": 0.0, "fusion_lon": 0.0, "lon": -76.99507216666666, "is_disabled": 0, "bike_id": "07e508b881fc2104c7c9a2d6cc91e84f", "is_reserved": 0, "rental_uris": {"android": "https://dc.lft.to/lastmile_qr_scan", "ios": "https://dc.lft.to/lastmile_qr_scan"}, "lat": 38.90979133333333}, {"type": "electric_scooter", "name": "f4f5c0e3d726160c318a9beb7a55c169", "fusion_lat": 0.0, "fusion_lon": 0.0, "lon": -76.98073933333333, "is_disabled": 0, "bike_id": "f4f5c0e3d726160c318a9beb7a55c169", "is_reserved": 0, "rental_uris": {"android": "https://dc.lft.to/lastmile_qr_scan", "ios": "https://dc.lft.to/lastmile_qr_scan"}, "lat": 38.90163666666667}, {"type": "electric_scooter", "name": "f426a9c598c7e4fa32046497a6650481", "fusion_lat": 0.0, "fusion_lon": 0.0, "lon": -77.02398783333334, "is_disabled": 0, "bike_id": "f426a9c598c7e4fa32046497a6650481", "is_reserved": 0, "rental_uris": {"android": "https://dc.lft.to/lastmile_qr_scan", "ios": "https://dc.lft.to/lastmile_qr_scan"}, "lat": 38.931113333333336}, {"type": "electric_scooter", "name": "acdb7b3c367f500dc92e5889e47bfad9", "fusion_lat": 0.0, "fusion_lon": 0.0, "lon": -77.01790916666667, "is_disabled": 0, "bike_id": "acdb7b3c367f500dc92e5889e47bfad9", "is_reserved": 0, "rental_uris": {"android": "https://dc.lft.to/lastmile_qr_scan", "ios": "https://dc.lft.to/lastmile_qr_scan"}, "lat": 38.89239116666667}, {"type": "electric_scooter", "name": "c17a66cdafe53dc291fea001c00e1577", "fusion_lat": 0.0, "fusion_lon": 0.0, "lon": -76.933936, "is_disabled": 0, "bike_id": "c17a66cdafe53dc291fea001c00e1577", "is_reserved": 0, "rental_uris": {"android": "https://dc.lft.to/lastmile_qr_scan", "ios": "https://dc.lft.to/lastmile_qr_scan"}, "lat": 38.89910483333333}, {"type": "electric_scooter", "name": "f38311dabd84640acf77ae623200c0aa", "fusion_lat": 0.0, "fusion_lon": 0.0, "lon": -77.000568, "is_disabled": 0, "bike_id": "f38311dabd84640acf77ae623200c0aa", "is_reserved": 0, "rental_uris": {"android": "https://dc.lft.to/lastmile_qr_scan", "ios": "https://dc.lft.to/lastmile_qr_scan"}, "lat": 38.87490733333333}, {"type": "electric_scooter", "name": "e5cc6969291bdb28f321d69aebd5483f", "fusion_lat": 0.0, "fusion_lon": 0.0, "lon": -77.03648683333333, "is_disabled": 0, "bike_id": "e5cc6969291bdb28f321d69aebd5483f", "is_reserved": 0, "rental_uris": {"android": "https://dc.lft.to/lastmile_qr_scan", "ios": "https://dc.lft.to/lastmile_qr_scan"}, "lat": 38.9211055}, {"type": "electric_scooter", "name": "ab80ee21a77108a4bc487f1f4cbaab45", "fusion_lat": 0.0, "fusion_lon": 0.0, "lon": -77.02498983333334, "is_disabled": 0, "bike_id": "ab80ee21a77108a4bc487f1f4cbaab45", "is_reserved": 0, "rental_uris": {"android": "https://dc.lft.to/lastmile_qr_scan", "ios": "https://dc.lft.to/lastmile_qr_scan"}, "lat": 38.9072335}, {"type": "electric_scooter", "name": "e409cc8dcc66037136178281c42e7b2d", "fusion_lat": 0.0, "fusion_lon": 0.0, "lon": -77.02724083333334, "is_disabled": 0, "bike_id": "e409cc8dcc66037136178281c42e7b2d", "is_reserved": 0, "rental_uris": {"android": "https://dc.lft.to/lastmile_qr_scan", "ios": "https://dc.lft.to/lastmile_qr_scan"}, "lat": 38.90396716666667}, {"type": "electric_scooter", "name": "3a55bb00313781ca8fea99fcd1a4bbae", "fusion_lat": 0.0, "fusion_lon": 0.0, "lon": -77.01655333333333, "is_disabled": 0, "bike_id": "3a55bb00313781ca8fea99fcd1a4bbae", "is_reserved": 0, "rental_uris": {"android": "https://dc.lft.to/lastmile_qr_scan", "ios": "https://dc.lft.to/lastmile_qr_scan"}, "lat": 38.942113666666664}, {"type": "electric_scooter", "name": "3c07a75ccff32128a3558e8b07ca7b8b", "fusion_lat": 0.0, "fusion_lon": 0.0, "lon": -77.0487115, "is_disabled": 0, "bike_id": "3c07a75ccff32128a3558e8b07ca7b8b", "is_reserved": 0, "rental_uris": {"android": "https://dc.lft.to/lastmile_qr_scan", "ios": "https://dc.lft.to/lastmile_qr_scan"}, "lat": 38.90911216666667}, {"type": "electric_scooter", "name": "2a8ac5508270a0c9bd868d450c77b109", "fusion_lat": 0.0, "fusion_lon": 0.0, "lon": -77.0237895, "is_disabled": 0, "bike_id": "2a8ac5508270a0c9bd868d450c77b109", "is_reserved": 0, "rental_uris": {"android": "https://dc.lft.to/lastmile_qr_scan", "ios": "https://dc.lft.to/lastmile_qr_scan"}, "lat": 38.952685}, {"type": "electric_scooter", "name": "a8823012e6a5c269df0795e05ac742bd", "fusion_lat": 0.0, "fusion_lon": 0.0, "lon": -76.9988815, "is_disabled": 0, "bike_id": "a8823012e6a5c269df0795e05ac742bd", "is_reserved": 0, "rental_uris": {"android": "https://dc.lft.to/lastmile_qr_scan", "ios": "https://dc.lft.to/lastmile_qr_scan"}, "lat": 38.953021666666665}, {"type": "electric_scooter", "name": "48854c480eb5e6d121ab004147697a04", "fusion_lat": 0.0, "fusion_lon": 0.0, "lon": -77.03262666666667, "is_disabled": 0, "bike_id": "48854c480eb5e6d121ab004147697a04", "is_reserved": 0, "rental_uris": {"android": "https://dc.lft.to/lastmile_qr_scan", "ios": "https://dc.lft.to/lastmile_qr_scan"}, "lat": 38.937332}, {"type": "electric_scooter", "name": "e1140ddb0de7b6d86d792b5fb78413d7", "fusion_lat": 0.0, "fusion_lon": 0.0, "lon": -77.02370716666667, "is_disabled": 0, "bike_id": "e1140ddb0de7b6d86d792b5fb78413d7", "is_reserved": 0, "rental_uris": {"android": "https://dc.lft.to/lastmile_qr_scan", "ios": "https://dc.lft.to/lastmile_qr_scan"}, "lat": 38.90217}, {"type": "electric_scooter", "name": "1c7b2210e77b4f1486c19b733aa061fd", "fusion_lat": 0.0, "fusion_lon": 0.0, "lon": -76.940893, "is_disabled": 0, "bike_id": "1c7b2210e77b4f1486c19b733aa061fd", "is_reserved": 0, "rental_uris": {"android": "https://dc.lft.to/lastmile_qr_scan", "ios": "https://dc.lft.to/lastmile_qr_scan"}, "lat": 38.89123133333333}, {"type": "electric_scooter", "name": "ce5c22eae92b4690ed47e5e0bb611988", "fusion_lat": 0.0, "fusion_lon": 0.0, "lon": -76.99874616666666, "is_disabled": 0, "bike_id": "ce5c22eae92b4690ed47e5e0bb611988", "is_reserved": 0, "rental_uris": {"android": "https://dc.lft.to/lastmile_qr_scan", "ios": "https://dc.lft.to/lastmile_qr_scan"}, "lat": 38.90015866666667}, {"type": "electric_scooter", "name": "71a64036e85c63c63f3ccb38b165f140", "fusion_lat": 0.0, "fusion_lon": 0.0, "lon": -77.03182933333333, "is_disabled": 0, "bike_id": "71a64036e85c63c63f3ccb38b165f140", "is_reserved": 0, "rental_uris": {"android": "https://dc.lft.to/lastmile_qr_scan", "ios": "https://dc.lft.to/lastmile_qr_scan"}, "lat": 38.91417833333333}, {"type": "electric_scooter", "name": "d7203f878aedc2248c79dbe7e76a1aad", "fusion_lat": 0.0, "fusion_lon": 0.0, "lon": -77.025594, "is_disabled": 0, "bike_id": "d7203f878aedc2248c79dbe7e76a1aad", "is_reserved": 0, "rental_uris": {"android": "https://dc.lft.to/lastmile_qr_scan", "ios": "https://dc.lft.to/lastmile_qr_scan"}, "lat": 38.91559566666667}, {"type": "electric_scooter", "name": "2ab47e596c2dfd72fadd7662c6db0360", "fusion_lat": 0.0, "fusion_lon": 0.0, "lon": -77.0322055, "is_disabled": 0, "bike_id": "2ab47e596c2dfd72fadd7662c6db0360", "is_reserved": 0, "rental_uris": {"android": "https://dc.lft.to/lastmile_qr_scan", "ios": "https://dc.lft.to/lastmile_qr_scan"}, "lat": 38.91405816666666},