{"data": {"bikes": [{"is_disabled": 0, "is_reserved": 0, "fusion_lat": 0.0, "lat": 38.92452566666667, "fusion_lon": 0.0, "rental_uris": {"ios": "https://dc.lft.to/lastmile_qr_scan", "android": "https://dc.lft.to/lastmile_qr_scan"}, "lon": -77.0203465, "bike_id": "ffe11f42fc3c26191f25f0f6eb8d8c6d", "type": "electric_scooter", "name": "ffe11f42fc3c26191f25f0f6eb8d8c6d"}, {"is_disabled": 0, "is_reserved": 0, "fusion_lat": 0.0, "lat": 38.80735033333333, "fusion_lon": 0.0, "rental_uris": {"ios": "https://dc.lft.to/lastmile_qr_scan", "android": "https://dc.lft.to/lastmile_qr_scan"}, "lon": -76.99265583333333, "bike_id": "af19ed8009b00849eea5ae727df5d9e6", "type": "electric_bike", "name": "af19ed8009b00849eea5ae727df5d9e6"}, {"is_disabled": 0, "is_reserved": 0, "fusion_lat": 0.0, "lat": 38.944638166666664, "fusion_lon": 0.0, "rental_uris": {"ios": "https://dc.lft.to/lastmile_qr_scan", "android": "https://dc.lft.to/lastmile_qr_scan"}, "lon": -77.00655383333333, "bike_id": "982350ef198b32ef412f6bd9b0fa4ccf", "type": "electric_scooter", "name": "982350ef198b32ef412f6bd9b0fa4ccf"}, {"is_disabled": 0, "is_reserved": 0, "fusion_lat": 0.0, "lat": 38.881376333333336, "fusion_lon": 0.0, "rental_uris": {"ios": "https://dc.lft.to/lastmile_qr_scan", "android": "https://dc.lft.to/lastmile_qr_scan"}, "lon": -76.99623183333334, "bike_id": "bb9353bc3f8645dc5c033fe8fe1f0371", "type": "electric_scooter", "name": "bb9353bc3f8645dc5c033fe8fe1f0371"}, {"is_disabled": 0, "is_reserved": 0, "fusion_lat": 0.0, "lat": 38.91319283333333, "fusion_lon": 0.0, "rental_uris": {"ios": "https://dc.lft.to/lastmile_qr_scan", "android": "https://dc.lft.to/lastmile_qr_scan"}, "lon": -77.03193683333333, "bike_id": "e17a1a310caef2a3e73c2ee272c3af35", "type": "electric_scooter", "name": "e17a1a310caef2a3e73c2ee272c3af35"}, {"is_disabled": 0, "is_reserved": 0, "fusion_lat": 0.0, "lat": 38.921831166666664, "fusion_lon": 0.0, "rental_uris": {"ios": "https://dc.lft.to/lastmile_qr_scan", "android": "https://dc.lft.to/lastmile_qr_scan"}, "lon": -76.9985135, "bike_id": "8faa59fa00473a45dad85258705b3b53", "type": "electric_scooter", "name": "8faa59fa00473a45dad85258705b3b53"}, {"is_disabled": 0, "is_reserved": 0, "fusion_lat": 0.0, "lat": 38.87806466666667, "fusion_lon": 0.0, "rental_uris": {"ios": "https://dc.lft.to/lastmile_qr_scan", "android": "https://dc.lft.to/lastmile_qr_scan"}, "lon": -77.00852266666666, "bike_id": "81ee1b837c9a616651fea34707c8a913", "type": "electric_scooter", "name": "81ee1b837c9a616651fea34707c8a913"}, {"is_disabled": 0, "is_reserved": 0, "fusion_lat": 0.0, "lat": 38.89847, "fusion_lon": 0.0, "rental_uris": {"ios": "https://dc.lft.to/lastmile_qr_scan", "android": "https://dc.lft.to/lastmile_qr_scan"}, "lon": -77.02848283333333, "bike_id": "3a6288519a125d14b880af40e90c7ef0", "type": "electric_scooter", "name": "3a6288519a125d14b880af40e90c7ef0"}, {"is_disabled": 0, "is_reserved": 0, "fusion_lat": 0.0, "lat": 38.946827, "fusion_lon": 0.0, "rental_uris": {"ios": "https://dc.lft.to/lastmile_qr_scan", "android": "https://dc.lft.to/lastmile_qr_scan"}, "lon": -77.03283833333333, "bike_id": "32a145bc708445c994b907dd23953e39", "type": "electric_scooter", "name": "32a145bc708445c994b907dd23953e39"}, {"is_disabled": 0, "is_reserved": 0, "fusion_lat": 0.0, "lat": 38.894921, "fusion_lon": 0.0, "rental_uris": {"ios": "https://dc.lft.to/lastmile_qr_scan", "android": "https://dc.lft.to/lastmile_qr_scan"}, "lon": -77.00048733333334, "bike_id": "1a01657f1d7d4efb7c859019b98226cb", "type": "electric_bike", "name": "1a01657f1d7d4efb7c859019b98226cb"}, {"is_disabled": 0, "is_reserved": 0, "fusion_lat": 0.0, "lat": 38.94920666666667, "fusion_lon": 0.0, "rental_uris": {"ios": "https://dc.lft.to/lastmile_qr_scan", "android": "https://dc.lft.to/lastmile_qr_scan"}, "lon": -77.00793183333333, "bike_id": "f612ffdf2288ec3770b7960305db5b07", "type": "electric_bike", "name": "f612ffdf2288ec3770b7960305db5b07"}, {"is_disabled": 0, "is_reserved": 0, "fusion_lat": 0.0, "lat": 38.89221416666667, "fusion_lon": 0.0, "rental_uris": {"ios": "https://dc.lft.to/lastmile_qr_scan", "android": "https://dc.lft.to/lastmile_qr_scan"}, "lon": -77.0446435, "bike_id": "a175e66a278bcc80291314e3de1e0298", "type": "electric_scooter", "name": "a175e66a278bcc80291314e3de1e0298"}, {"is_disabled": 0, "is_reserved": 0, "fusion_lat": 0.0, "lat": 38.9136075, "fusion_lon": 0.0, "rental_uris": {"ios": "https://dc.lft.to/lastmile_qr_scan", "android": "https://dc.lft.to/lastmile_qr_scan"}, "lon": -77.03656183333334, "bike_id": "4a6be766bc8b63d782234268da141ddf", "type": "electric_scooter", "name": "4a6be766bc8b63d782234268da141ddf"}, {"is_disabled": 0, "is_reserved": 0, "fusion_lat": 0.0, "lat": 38.92155983333333, "fusion_lon": 0.0, "rental_uris": {"ios": "https://dc.lft.to/lastmile_qr_scan", "android": "https://dc.lft.to/lastmile_qr_scan"}, "lon": -77.03387416666666, "bike_id": "4dadcd2540ce605c81a730a5965ec3af", "type": "electric_scooter", "name": "4dadcd2540ce605c81a730a5965ec3af"}, {"is_disabled": 0, "is_reserved": 0, "fusion_lat": 0.0, "lat": 38.917094166666665, "fusion_lon": 0.0, "rental_uris": {"ios": "https://dc.lft.to/lastmile_qr_scan", "android": "https://dc.lft.to/lastmile_qr_scan"}, "lon": -77.024884, "bike_id": "5c637f983680b400e695cfa9396ac38a", "type": "electric_scooter", "name": "5c637f983680b400e695cfa9396ac38a"}, {"is_disabled": 0, "is_reserved": 0, "fusion_lat": 0.0, "lat": 38.88452483333333, "fusion_lon": 0.0, "rental_uris": {"ios": "https://dc.lft.to/lastmile_qr_scan", "android": "https://dc.lft.to/lastmile_qr_scan"}, "lon": -76.9509585, "bike_id": "8c5bad72a7bb636d82506d86b579c2e4", "type": "electric_scooter", "name": "8c5bad72a7bb636d82506d86b579c2e4"}, {"is_disabled": 0, "is_reserved": 0, "fusion_lat": 0.0, "lat": 38.881347166666664, "fusion_lon": 0.0, "rental_uris": {"ios": "https://dc.lft.to/lastmile_qr_scan", "android": "https://dc.lft.to/lastmile_qr_scan"}, "lon": -77.02273016666666, "bike_id": "1cbce46d9724777d71ccf56a98adf0d2", "type": "electric_scooter", "name": "1cbce46d9724777d71ccf56a98adf0d2"}, {"is_disabled": 0, "is_reserved": 0, "fusion_lat": 0.0, "lat": 38.820330166666665, "fusion_lon": 0.0, "rental_uris": {"ios": "https://dc.lft.to/lastmile_qr_scan", "android": "https://dc.lft.to/lastmile_qr_scan"}, "lon": -77.05458166666666, "bike_id": "e8e439af053120c92f3734ad8284fb77", "type": "electric_bike", "name": "e8e439af053120c92f3734ad8284fb77"}, {"is_disabled": 0, "is_reserved": 0, "fusion_lat": 0.0, "lat": 38.880531166666664, "fusion_lon": 0.0, "rental_uris": {"ios": "https://dc.lft.to/lastmile_qr_scan", "android": "https://dc.lft.to/lastmile_qr_scan"}, "lon": -77.0257255, "bike_id": "5dc7caccccb06cc26dbdb990d28713e5", "type": "electric_scooter", "name": "5dc7caccccb06cc26dbdb990d28713e5"}, {"is_disabled": 0, "is_reserved": 0, "fusion_lat": 0.0, "lat": 38.930366, "fusion_lon": 0.0, "rental_uris": {"ios": "https://dc.lft.to/lastmile_qr_scan", "android": "https://dc.lft.to/lastmile_qr_scan"}, "lon": -77.03283983333333, "bike_id": "39a77b31e28167c64ec70ff3e01727f4", "type": "electric_scooter", "name": "39a77b31e28167c64ec70ff3e01727f4"}, {"is_disabled": 0, "is_reserved": 0, "fusion_lat": 0.0, "lat": 38.89745383333333, "fusion_lon": 0.0, "rental_uris": {"ios": "https://dc.lft.to/lastmile_qr_scan", "android": "https://dc.lft.to/lastmile_qr_scan"}, "lon": -77.05475916666667, "bike_id": "a5f1412b19132dec1fdafb61f6bca787", "type": "electric_scooter", "name": "a5f1412b19132dec1fdafb61f6bca787"}, {"is_disabled": 0, "is_reserved": 0, "fusion_lat": 0.0, "lat": 38.89502683333333, "fusion_lon": 0.0, "rental_uris": {"ios": "https://dc.lft.to/lastmile_qr_scan", "android": "https://dc.lft.to/lastmile_qr_scan"}, "lon": -77.02292533333333, "bike_id": "618b89fa9b66f3dc6450ac8cb37ac2fb", "type": "electric_scooter", "name": "618b89fa9b66f3dc6450ac8cb37ac2fb"}, {"is_disabled": 0, "is_reserved": 0, "fusion_lat": 0.0, "lat": 38.8941185, "fusion_lon": 0.0, "rental_uris": {"ios": "https://dc.lft.to/lastmile_qr_scan", "android": "https://dc.lft.to/lastmile_qr_scan"}, "lon": -77.02200216666667, "bike_id": "1ad20d34244029baf898703347601e05", "type": "electric_scooter", "name": "1ad20d34244029baf898703347601e05"}, {"is_disabled": 0, "is_reserved": 0, "fusion_lat": 0.0, "lat": 38.805233, "fusion_lon": 0.0, "rental_uris": {"ios": "https://dc.lft.to/lastmile_qr_scan", "android": "https://dc.lft.to/lastmile_qr_scan"}, "lon": -77.0433315, "bike_id": "9c8b403f35a6e32ec042489caa35b7ea", "type": "electric_bike", "name": "9c8b403f35a6e32ec042489caa35b7ea"}, {"is_disabled": 0, "is_reserved": 0, "fusion_lat": 0.0, "lat": 38.880253, "fusion_lon": 0.0, "rental_uris": {"ios": "https://dc.lft.to/lastmile_qr_scan", "android": "https://dc.lft.to/lastmile_qr_scan"}, "lon": -76.9432725, "bike_id": "9dfdaffb551ec73b1b97edb1facd6c93", "type": "electric_scooter", "name": "9dfdaffb551ec73b1b97edb1facd6c93"}, {"is_disabled": 0, "is_reserved": 0, "fusion_lat": 0.0, "lat": 38.89738233333333, "fusion_lon": 0.0, "rental_uris": {"ios": "https://dc.lft.to/lastmile_qr_scan", "android": "https://dc.lft.to/lastmile_qr_scan"}, "lon": -77.017589, "bike_id": "acb14c70eb11728e2dcbf31f2433a474", "type": "electric_scooter", "name": "acb14c70eb11728e2dcbf31f2433a474"}, {"is_disabled": 0, "is_reserved": 0, "fusion_lat": 0.0, "lat": 38.864912, "fusion_lon": 0.0, "rental_uris": {"ios": "https://dc.lft.to/lastmile_qr_scan", "android": "https://dc.lft.to/lastmile_qr_scan"}, "lon": -76.96986433333333, "bike_id": "8152da96cba881e8ae222958c7f3f8ea", "type": "electric_bike", "name": "8152da96cba881e8ae222958c7f3f8ea"}, {"is_disabled": 0, "is_reserved": 0, "fusion_lat": 0.0, "lat": 38.924070666666665, "fusion_lon": 0.0, "rental_uris": {"ios": "https://dc.lft.to/lastmile_qr_scan", "android": "https://dc.lft.to/lastmile_qr_scan"}, "lon": -77.05169133333334, "bike_id": "3266ac653d07501f7285d29c5e01b319", "type": "electric_scooter", "name": "3266ac653d07501f7285d29c5e01b319"}, {"is_disabled": 0, "is_reserved": 0, "fusion_lat": 0.0, "lat": 38.922405499999996, "fusion_lon": 0.0, "rental_uris": {"ios": "https://dc.lft.to/lastmile_qr_scan", "android": "https://dc.lft.to/lastmile_qr_scan"}, "lon": -77.0366285, "bike_id": "837667153629bbc73d9ef9a2fdcff802", "type": "electric_scooter", "name": "837667153629bbc73d9ef9a2fdcff802"}, {"is_disabled": 0, "is_reserved": 0, "fusion_lat": 0.0, "lat": 38.82929583333333, "fusion_lon": 0.0, "rental_uris": {"ios": "https://dc.lft.to/lastmile_qr_scan", "android": "https://dc.lft.to/lastmile_qr_scan"}, "lon": -77.06878416666666, "bike_id": "5df2e06aca1dde0bd1f16fd86f9f22f3", "type": "electric_bike", "name": "5df2e06aca1dde0bd1f16fd86f9f22f3"}, {"is_disabled": 0, "is_reserved": 0, "fusion_lat": 0.0, "lat": 38.925828333333335, "fusion_lon": 0.0, "rental_uris": {"ios": "https://dc.lft.to/lastmile_qr_scan", "android": "https://dc.lft.to/lastmile_qr_scan"}, "lon": -77.027569, "bike_id": "cf5551a30017cf8d7e1a61c9e308c9b7", "type": "electric_scooter", "name": "cf5551a30017cf8d7e1a61c9e308c9b7"}, {"is_disabled": 0, "is_reserved": 0, "fusion_lat": 0.0, "lat": 38.88037633333333, "fusion_lon": 0.0, "rental_uris": {"ios": "https://dc.lft.to/lastmile_qr_scan", "android": "https://dc.lft.to/lastmile_qr_scan"}, "lon": -76.92722666666667, "bike_id": "a241e5e591f33fbd09d681bb9b655aae", "type": "electric_scooter", "name": "a241e5e591f33fbd09d681bb9b655aae"}, {"is_disabled": 0, "is_reserved": 0, "fusion_lat": 0.0, "lat": 38.8991635, "fusion_lon": 0.0, "rental_uris": {"ios": "https://dc.lft.to/lastmile_qr_scan", "android": "https://dc.lft.to/lastmile_qr_scan"}, "lon": -76.933839, "bike_id": "619e1dd3dd2767590e3398a242f318c5", "type": "electric_scooter", "name": "619e1dd3dd2767590e3398a242f318c5"}, {"is_disabled": 0, "is_reserved": 0, "fusion_lat": 0.0, "lat": 38.9225705, "fusion_lon": 0.0, "rental_uris": {"ios": "https://dc.lft.to/lastmile_qr_scan", "android": "https://dc.lft.to/lastmile_qr_scan"}, "lon": -77.07273966666666, "bike_id": "7714440134328ef4fc36f548b4e2e44f", "type": "electric_scooter", "name": "7714440134328ef4fc36f548b4e2e44f"}, {"is_disabled": 0, "is_reserved": 0, "fusion_lat": 0.0, "lat": 38.8960855, "fusion_lon": 0.0, "rental_uris": {"ios": "https://dc.lft.to/lastmile_qr_scan", "android": "https://dc.lft.to/lastmile_qr_scan"}, "lon": -77.00334616666666, "bike_id": "34599aa84b8f0ef96dbaf66ceddaa0c0", "type": "electric_scooter", "name": "34599aa84b8f0ef96dbaf66ceddaa0c0"}, {"is_disabled": 0, "is_reserved": 0, "fusion_lat": 0.0, "lat": 38.92611316666667, "fusion_lon": 0.0, "rental_uris": {"ios": "https://dc.lft.to/lastmile_qr_scan", "android": "https://dc.lft.to/lastmile_qr_scan"}, "lon": -77.04145566666666, "bike_id": "a7bb817eb0f80f85fc086c16ccb2a710", "type": "electric_scooter", "name": "a7bb817eb0f80f85fc086c16ccb2a710"}, {"is_disabled": 0, "is_reserved": 0, "fusion_lat": 0.0, "lat": 38.911882, "fusion_lon": 0.0, "rental_uris": {"ios": "https://dc.lft.to/lastmile_qr_scan", "android": "https://dc.lft.to/lastmile_qr_scan"}, "lon": -77.0325465, "bike_id": "8387bb74fe0e6006981ff84c6ca663f7", "type": "electric_scooter", "name": "8387bb74fe0e6006981ff84c6ca663f7"}, {"is_disabled": 0, "is_reserved": 0, "fusion_lat": 0.0, "lat": 38.920274166666665, "fusion_lon": 0.0, "rental_uris": {"ios": "https://dc.lft.to/lastmile_qr_scan", "android": "https://dc.lft.to/lastmile_qr_scan"}, "lon": -77.0385495, "bike_id": "f37c219d97210be0fab8b4f97af30372", "type": "electric_scooter", "name": "f37c219d97210be0fab8b4f97af30372"}, {"is_disabled": 0, "is_reserved": 0, "fusion_lat": 0.0, "lat": 38.9358745, "fusion_lon": 0.0, "rental_uris": {"ios": "https://dc.lft.to/lastmile_qr_scan", "android": "https://dc.lft.to/lastmile_qr_scan"}, "lon": -77.07429316666666, "bike_id": "b546d92a58011319aa03f14872830277", "type": "electric_scooter", "name": "b546d92a58011319aa03f14872830277"}, {"is_disabled": 0, "is_reserved": 0, "fusion_lat": 0.0, "lat": 38.91803433333333, "fusion_lon": 0.0, "rental_uris": {"ios": "https://dc.lft.to/lastmile_qr_scan", "android": "https://dc.lft.to/lastmile_qr_scan"}, "lon": -77.02490183333333, "bike_id": "c313c8e300930ff51016820b62789c4a", "type": "electric_scooter", "name": "c313c8e300930ff51016820b62789c4a"}, {"is_disabled": 0, "is_reserved": 0, "fusion_lat": 0.0, "lat": 38.8765555, "fusion_lon": 0.0, "rental_uris": {"ios": "https://dc.lft.to/lastmile_qr_scan", "android": "https://dc.lft.to/lastmile_qr_scan"}, "lon": -77.00743966666667, "bike_id": "330c72ff9bc4cb47dd3f1b1f0e830906", "type": "electric_scooter", "name": "330c72ff9bc4cb47dd3f1b1f0e830906"}, {"is_disabled": 0, "is_reserved": 0, "fusion_lat": 0.0, "lat": 38.90548783333333, "fusion_lon": 0.0, "rental_uris": {"ios": "https://dc.lft.to/lastmile_qr_scan", "android": "https://dc.lft.to/lastmile_qr_scan"}, "lon": -77.048795, "bike_id": "a18b9b8a275d7a464e5f4feac7efc92d", "type": "electric_scooter", "name": "a18b9b8a275d7a464e5f4feac7efc92d"}, {"is_disabled": 0, "is_reserved": 0, "fusion_lat": 0.0, "lat": 38.89340166666667, "fusion_lon": 0.0, "rental_uris": {"ios": "https://dc.lft.to/lastmile_qr_scan", "android": "https://dc.lft.to/lastmile_qr_scan"}, "lon": -76.98557416666667, "bike_id": "b04e4de9943cd1fd66e01a2f43d1f50e", "type": "electric_scooter", "name": "b04e4de9943cd1fd66e01a2f43d1f50e"}, {"is_disabled": 0, "is_reserved": 0, "fusion_lat": 0.0, "lat": 38.91874133333334, "fusion_lon": 0.0, "rental_uris": {"ios": "https://dc.lft.to/lastmile_qr_scan", "android": "https://dc.lft.to/lastmile_qr_scan"}, "lon": -77.03544966666666, "bike_id": "5ee0f0b9e1b58731e131b7594cebe63d", "type": "electric_scooter", "name": "5ee0f0b9e1b58731e131b7594cebe63d"}, {"is_disabled": 0, "is_reserved": 0, "fusion_lat": 0.0, "lat": 38.9368165, "fusion_lon": 0.0, "rental_uris": {"ios": "https://dc.lft.to/lastmile_qr_scan", "android": "https://dc.lft.to/lastmile_qr_scan"}, "lon": -77.05628733333333, "bike_id": "a7afa50c3465590e503ebff9c47d4a47", "type": "electric_scooter", "name": "a7afa50c3465590e503ebff9c47d4a47"}, {"is_disabled": 0, "is_reserved": 0, "fusion_lat": 0.0, "lat": 38.9265735, "fusion_lon": 0.0, "rental_uris": {"ios": "https://dc.lft.to/lastmile_qr_scan", "android": "https://dc.lft.to/lastmile_qr_scan"}, "lon": -77.02424283333333, "bike_id": "512497dfa919d80143ca654f0d5ea27e", "type": "electric_scooter", "name": "512497dfa919d80143ca654f0d5ea27e"}, {"is_disabled": 0, "is_reserved": 0, "fusion_lat": 0.0, "lat": 38.926576, "fusion_lon": 0.0, "rental_uris": {"ios": "https://dc.lft.to/lastmile_qr_scan", "android": "https://dc.lft.to/lastmile_qr_scan"}, "lon": -77.024434, "bike_id": "7970c78554547ce2b0bb84fe8e5509b9", "type": "electric_scooter", "name": "7970c78554547ce2b0bb84fe8e5509b9"}, {"is_disabled": 0, "is_reserved": 0, "fusion_lat": 0.0, "lat": 38.9346215, "fusion_lon": 0.0, "rental_uris": {"ios": "https://dc.lft.to/lastmile_qr_scan", "android": "https://dc.lft.to/lastmile_qr_scan"}, "lon": -77.02759, "bike_id": "6ea9fdc104cd12f8e2e1e5a4b2b96cc7", "type": "electric_scooter", "name": "6ea9fdc104cd12f8e2e1e5a4b2b96cc7"}, {"is_disabled": 0, "is_reserved": 0, "fusion_lat": 0.0, "lat": 38.982851333333336, "fusion_lon": 0.0, "rental_uris": {"ios": "https://dc.lft.to/lastmile_qr_scan", "android": "https://dc.lft.to/lastmile_qr_scan"}, "lon": -76.97638683333334, "bike_id": "517be16f2bac318091b2073e7e0c66a7", "type": "electric_bike", "name": "517be16f2bac318091b2073e7e0c66a7"}, {"is_disabled": 0, "is_reserved": 0, "fusion_lat": 0.0, "lat": 38.901473, "fusion_lon": 0.0, "rental_uris": {"ios": "https://dc.lft.to/lastmile_qr_scan", "android": "https://dc.lft.to/lastmile_qr_scan"}, "lon": -77.04175333333333, "bike_id": "c60fa3877bcc9c6983768c103dc10752", "type": "electric_scooter", "name": "c60fa3877bcc9c6983768c103dc10752"}, {"is_disabled": 0, "is_reserved": 0, "fusion_lat": 0.0, "lat": 38.92358483333334, "fusion_lon": 0.0, "rental_uris": {"ios": "https://dc.lft.to/lastmile_qr_scan", "android": "https://dc.lft.to/lastmile_qr_scan"}, "lon": -77.07312333333333, "bike_id": "493f32980a7a6c3bd765dbb0aa44dd3f", "type": "electric_scooter", "name": "493f32980a7a6c3bd765dbb0aa44dd3f"}, {"is_disabled": 0, "is_reserved": 0, "fusion_lat": 0.0, "lat": 38.90486716666667, "fusion_lon": 0.0, "rental_uris": {"ios": "https://dc.lft.to/lastmile_qr_scan", "android": "https://dc.lft.to/lastmile_qr_scan"}, "lon": -76.9979645, "bike_id": "570db9d5222dec29d6a65c70c89e9c94", "type": "electric_bike", "name": "570db9d5222dec29d6a65c70c89e9c94"}, {"is_disabled": 0, "is_reserved": 0, "fusion_lat": 0.0, "lat": 38.936046, "fusion_lon": 0.0, "rental_uris": {"ios": "https://dc.lft.to/lastmile_qr_scan", "android": "https://dc.lft.to/lastmile_qr_scan"}, "lon": -77.05582066666666, "bike_id": "16e231c877936cfcb9da3cf77ce7d804", "type": "electric_scooter", "name": "16e231c877936cfcb9da3cf77ce7d804"}, {"is_disabled": 0, "is_reserved": 0, "fusion_lat": 0.0, "lat": 38.924151, "fusion_lon": 0.0, "rental_uris": {"ios": "https://dc.lft.to/lastmile_qr_scan", "android": "https://dc.lft.to/lastmile_qr_scan"}, "lon": -77.02032466666667, "bike_id": "3fdc9b00d28d3aaf40e0c4d40762c287", "type": "electric_scooter", "name": "3fdc9b00d28d3aaf40e0c4d40762c287"}, {"is_disabled": 0, "is_reserved": 0, "fusion_lat": 0.0, "lat": 38.916986333333334, "fusion_lon": 0.0, "rental_uris": {"ios": "https://dc.lft.to/lastmile_qr_scan", "android": "https://dc.lft.to/lastmile_qr_scan"}, "lon": -77.02735733333333, "bike_id": "a124d3503f826f8e1dc41bc3c0b566b5", "type": "electric_scooter", "name": "a124d3503f826f8e1dc41bc3c0b566b5"}, {"is_disabled": 0, "is_reserved": 0, "fusion_lat": 0.0, "lat": 38.921418, "fusion_lon": 0.0, "rental_uris": {"ios": "https://dc.lft.to/lastmile_qr_scan", "android": "https://dc.lft.to/lastmile_qr_scan"}, "lon": -77.03211333333333, "bike_id": "d57b99611a5cd3fef816c432eb449f01", "type": "electric_scooter", "name": "d57b99611a5cd3fef816c432eb449f01"}, {"is_disabled": 0, "is_reserved": 0, "fusion_lat": 0.0, "lat": 38.92654566666667, "fusion_lon": 0.0, "rental_uris": {"ios": "https://dc.lft.to/lastmile_qr_scan", "android": "https://dc.lft.to/lastmile_qr_scan"}, "lon": -77.024341, "bike_id": "0f1554b891b2429b64ba899d4609ffa3", "type": "electric_scooter", "name": "0f1554b891b2429b64ba899d4609ffa3"}, {"is_disabled": 0, "is_reserved": 0, "fusion_lat": 0.0, "lat": 38.923900333333336, "fusion_lon": 0.0, "rental_uris": {"ios": "https://dc.lft.to/lastmile_qr_scan", "android": "https://dc.lft.to/lastmile_qr_scan"}, "lon": -77.04069133333333, "bike_id": "654db28e3a04f853841456b14ab0717a", "type": "electric_scooter", "name": "654db28e3a04f853841456b14ab0717a"}, {"is_disabled": 0, "is_reserved": 0, "fusion_lat": 0.0, "lat": 38.913353, "fusion_lon": 0.0, "rental_uris": {"ios": "https://dc.lft.to/lastmile_qr_scan", "android": "https://dc.lft.to/lastmile_qr_scan"}, "lon": -77.03045216666666, "bike_id": "ee474ff4dde22d615a81ae24b016838c", "type": "electric_scooter", "name": "ee474ff4dde22d615a81ae24b016838c"}, {"is_disabled": 0, "is_reserved": 0, "fusion_lat": 0.0, "lat": 38.91134733333333, "fusion_lon": 0.0, "rental_uris": {"ios": "https://dc.lft.to/lastmile_qr_scan", "android": "https://dc.lft.to/lastmile_qr_scan"}, "lon": -77.03668316666666, "bike_id": "e99743cfc7bd596e1e9200bf4d165667", "type": "electric_scooter", "name": "e99743cfc7bd596e1e9200bf4d165667"}, {"is_disabled": 0, "is_reserved": 0, "fusion_lat": 0.0, "lat": 38.9204665, "fusion_lon": 0.0, "rental_uris": {"ios": "https://dc.lft.to/lastmile_qr_scan", "android": "https://dc.lft.to/lastmile_qr_scan"}, "lon": -77.0337635, "bike_id": "47fdc7b80cd74e9c69c4cbf602eb92f4", "type": "electric_scooter", "name": "47fdc7b80cd74e9c69c4cbf602eb92f4"}, {"is_disabled": 0, "is_reserved": 0, "fusion_lat": 0.0, "lat": 38.9088035, "fusion_lon": 0.0, "rental_uris": {"ios": "https://dc.lft.to/lastmile_qr_scan", "android": "https://dc.lft.to/lastmile_qr_scan"}, "lon": -77.02312383333333, "bike_id": "f0f14da9d5115a5d30b6c0c4543dedbb", "type": "electric_scooter", "name": "f0f14da9d5115a5d30b6c0c4543dedbb"}, {"is_disabled": 0, "is_reserved": 0, "fusion_lat": 0.0, "lat": 38.9062785, "fusion_lon": 0.0, "rental_uris": {"ios": "https://dc.lft.to/lastmile_qr_scan", "android": "https://dc.lft.to/lastmile_qr_scan"}, "lon": -77.02706983333333, "bike_id": "75b6c028a0d8f0fb5d585f2571c31d87", "type": "electric_scooter", "name": "75b6c028a0d8f0fb5d585f2571c31d87"}, {"is_disabled": 0, "is_reserved": 0, "fusion_lat": 0.0, "lat": 38.9227305, "fusion_lon": 0.0, "rental_uris": {"ios": "https://dc.lft.to/lastmile_qr_scan", "android": "https://dc.lft.to/lastmile_qr_scan"}, "lon": -77.04242716666667, "bike_id": "66d0fe5f7e08c3e244038221960bc096", "type": "electric_scooter", "name": "66d0fe5f7e08c3e244038221960bc096"}, {"is_disabled": 0, "is_reserved": 0, "fusion_lat": 0.0, "lat": 38.87661466666667, "fusion_lon": 0.0, "rental_uris": {"ios": "https://dc.lft.to/lastmile_qr_scan", "android": "https://dc.lft.to/lastmile_qr_scan"}, "lon": -77.00200283333334, "bike_id": "4f9de6c0e99cb9eb0dbc3fbc0a7f9e43", "type": "electric_scooter", "name": "4f9de6c0e99cb9eb0dbc3fbc0a7f9e43"}, {"is_disabled": 0, "is_reserved": 0, "fusion_lat": 0.0, "lat": 38.9238255, "fusion_lon": 0.0, "rental_uris": {"ios": "https://dc.lft.to/lastmile_qr_scan", "android": "https://dc.lft.to/lastmile_qr_scan"}, "lon": -77.0402755, "bike_id": "4c6b9ee88e4cab8a12a724efc7f8a7a7", "type": "electric_scooter", "name": "4c6b9ee88e4cab8a12a724efc7f8a7a7"}, {"is_disabled": 0, "is_reserved": 0, "fusion_lat": 0.0, "lat": 38.93553416666666, "fusion_lon": 0.0, "rental_uris": {"ios": "https://dc.lft.to/lastmile_qr_scan", "android": "https://dc.lft.to/lastmile_qr_scan"}, "lon": -77.07703683333334, "bike_id": "d3388f687c7ecbf3d9f20084c4802f3b", "type": "electric_scooter", "name": "d3388f687c7ecbf3d9f20084c4802f3b"}, {"is_disabled": 0, "is_reserved": 0, "fusion_lat": 0.0, "lat": 38.919211, "fusion_lon": 0.0, "rental_uris": {"ios": "https://dc.lft.to/lastmile_qr_scan", "android": "https://dc.lft.to/lastmile_qr_scan"}, "lon": -77.025008, "bike_id": "5116769c2f64a5797aa5d5788e443f01", "type": "electric_scooter", "name": "5116769c2f64a5797aa5d5788e443f01"}, {"is_disabled": 0, "is_reserved": 0, "fusion_lat": 0.0, "lat": 38.890007, "fusion_lon": 0.0, "rental_uris": {"ios": "https://dc.lft.to/lastmile_qr_scan", "android": "https://dc.lft.to/lastmile_qr_scan"}, "lon": -77.04902283333334, "bike_id": "f7b9c6781b4059d3e58abdeb6c03ef35", "type": "electric_scooter", "name": "f7b9c6781b4059d3e58abdeb6c03ef35"}, {"is_disabled": 0, "is_reserved": 0, "fusion_lat": 0.0, "lat": 38.94461366666667, "fusion_lon": 0.0, "rental_uris": {"ios": "https://dc.lft.to/lastmile_qr_scan", "android": "https://dc.lft.to/lastmile_qr_scan"}, "lon": -77.00654833333333, "bike_id": "a8aefc491a564e64da0fda317f4bd62e", "type": "electric_scooter", "name": "a8aefc491a564e64da0fda317f4bd62e"}, {"is_disabled": 0, "is_reserved": 0, "fusion_lat": 0.0, "lat": 38.92092183333333, "fusion_lon": 0.0, "rental_uris": {"ios": "https://dc.lft.to/lastmile_qr_scan", "android": "https://dc.lft.to/lastmile_qr_scan"}, "lon": -77.02515066666666, "bike_id": "335b2d69371460f90e8659be19e20eb7", "type": "electric_scooter", "name": "335b2d69371460f90e8659be19e20eb7"}, {"is_disabled": 0, "is_reserved": 0, "fusion_lat": 0.0, "lat": 38.8981695, "fusion_lon": 0.0, "rental_uris": {"ios": "https://dc.lft.to/lastmile_qr_scan", "android": "https://dc.lft.to/lastmile_qr_scan"}, "lon": -76.99272216666667, "bike_id": "37d6740e4ce41d81f9154970a9385f5a", "type": "electric_scooter", "name": "37d6740e4ce41d81f9154970a9385f5a"}, {"is_disabled": 0, "is_reserved": 0, "fusion_lat": 0.0, "lat": 38.8969425, "fusion_lon": 0.0, "rental_uris": {"ios": "https://dc.lft.to/lastmile_qr_scan", "android": "https://dc.lft.to/lastmile_qr_scan"}, "lon": -77.0241615, "bike_id": "61fe7c91a24f836c04646177a515a84e", "type": "electric_scooter", "name": "61fe7c91a24f836c04646177a515a84e"}, {"is_disabled": 0, "is_reserved": 0, "fusion_lat": 0.0, "lat": 38.929281333333336, "fusion_lon": 0.0, "rental_uris": {"ios": "https://dc.lft.to/lastmile_qr_scan", "android": "https://dc.lft.to/lastmile_qr_scan"}, "lon": -77.03277383333334, "bike_id": "19b9c5d06fae2af7511bb370ccd63354", "type": "electric_scooter", "name": "19b9c5d06fae2af7511bb370ccd63354"}, {"is_disabled": 0, "is_reserved": 0, "fusion_lat": 0.0, "lat": 38.913641, "fusion_lon": 0.0, "rental_uris": {"ios": "https://dc.lft.to/lastmile_qr_scan", "android": "https://dc.lft.to/lastmile_qr_scan"}, "lon": -77.04656383333334, "bike_id": "81880a58036b5f37ddca20cd2f6e8d0c", "type": "electric_scooter", "name": "81880a58036b5f37ddca20cd2f6e8d0c"}, {"is_disabled": 0, "is_reserved": 0, "fusion_lat": 0.0, "lat": 38.89469316666667, "fusion_lon": 0.0, "rental_uris": {"ios": "https://dc.lft.to/lastmile_qr_scan", "android": "https://dc.lft.to/lastmile_qr_scan"}, "lon": -77.01101833333334, "bike_id": "bd40b09bb5caa13a01de90820943adfa", "type": "electric_scooter", "name": "bd40b09bb5caa13a01de90820943adfa"}, {"is_disabled": 0, "is_reserved": 0, "fusion_lat": 0.0, "lat": 38.90143966666667, "fusion_lon": 0.0, "rental_uris": {"ios": "https://dc.lft.to/lastmile_qr_scan", "android": "https://dc.lft.to/lastmile_qr_scan"}, "lon": -77.03370033333333, "bike_id": "64a14275514ccd845978abb9a41af7a0", "type": "electric_scooter", "name": "64a14275514ccd845978abb9a41af7a0"}, {"is_disabled": 0, "is_reserved": 0, "fusion_lat": 0.0, "lat": 38.93530533333333, "fusion_lon": 0.0, "rental_uris": {"ios": "https://dc.lft.to/lastmile_qr_scan", "android": "https://dc.lft.to/lastmile_qr_scan"}, "lon": -77.0544335, "bike_id": "c87234868739d5d505b62015efc0843c", "type": "electric_scooter", "name": "c87234868739d5d505b62015efc0843c"}, {"is_disabled": 0, "is_reserved": 0, "fusion_lat": 0.0, "lat": 38.91705683333333, "fusion_lon": 0.0, "rental_uris": {"ios": "https://dc.lft.to/lastmile_qr_scan", "android": "https://dc.lft.to/lastmile_qr_scan"}, "lon": -77.025023, "bike_id": "b10811fbac0e7a9027d46b511768d930", "type": "electric_scooter", "name": "b10811fbac0e7a9027d46b511768d930"}, {"is_disabled": 0, "is_reserved": 0, "fusion_lat": 0.0, "lat": 38.901876, "fusion_lon": 0.0, "rental_uris": {"ios": "https://dc.lft.to/lastmile_qr_scan", "android": "https://dc.lft.to/lastmile_qr_scan"}, "lon": -77.00208433333333, "bike_id": "c4a105eec20998405fced040b8769e96", "type": "electric_scooter", "name": "c4a105eec20998405fced040b8769e96"}, {"is_disabled": 0, "is_reserved": 0, "fusion_lat": 0.0, "lat": 38.90178783333333, "fusion_lon": 0.0, "rental_uris": {"ios": "https://dc.lft.to/lastmile_qr_scan", "android": "https://dc.lft.to/lastmile_qr_scan"}, "lon": -77.00066066666666, "bike_id": "afd80eb4c0fb4b29496ce96a3d129078", "type": "electric_scooter", "name": "afd80eb4c0fb4b29496ce96a3d129078"}, {"is_disabled": 0, "is_reserved": 0, "fusion_lat": 0.0, "lat": 38.87957, "fusion_lon": 0.0, "rental_uris": {"ios": "https://dc.lft.to/lastmile_qr_scan", "android": "https://dc.lft.to/lastmile_qr_scan"}, "lon": -76.931792, "bike_id": "6402c54bdee0220546b0835eae37a890", "type": "electric_bike", "name": "6402c54bdee0220546b0835eae37a890"}, {"is_disabled": 0, "is_reserved": 0, "fusion_lat": 0.0, "lat": 38.918409833333335, "fusion_lon": 0.0, "rental_uris": {"ios": "https://dc.lft.to/lastmile_qr_scan", "android": "https://dc.lft.to/lastmile_qr_scan"}, "lon": -77.0229775, "bike_id": "93564cc3b1138ac15097848636bb6209", "type": "electric_scooter", "name": "93564cc3b1138ac15097848636bb6209"}, {"is_disabled": 0, "is_reserved": 0, "fusion_lat": 0.0, "lat": 38.902671833333336, "fusion_lon": 0.0, "rental_uris": {"ios": "https://dc.lft.to/lastmile_qr_scan", "android": "https://dc.lft.to/lastmile_qr_scan"}, "lon": -77.008935, "bike_id": "fae57f91e09c899d599f7e6c5fb6e814", "type": "electric_scooter", "name": "fae57f91e09c899d599f7e6c5fb6e814"}, {"is_disabled": 0, "is_reserved": 0, "fusion_lat": 0.0, "lat": 38.9126265, "fusion_lon": 0.0, "rental_uris": {"ios": "https://dc.lft.to/lastmile_qr_scan", "android": "https://dc.lft.to/lastmile_qr_scan"}, "lon": -77.03244316666667, "bike_id": "744552b7b809bc81d924cc2195ffc431", "type": "electric_scooter", "name": "744552b7b809bc81d924cc2195ffc431"}, {"is_disabled": 0, "is_reserved": 0, "fusion_lat": 0.0, "lat": 38.888749, "fusion_lon": 0.0, "rental_uris": {"ios": "https://dc.lft.to/lastmile_qr_scan", "android": "https://dc.lft.to/lastmile_qr_scan"}, "lon": -76.95697083333333, "bike_id": "0d1e94bb7f2f25e29cc32bc1f8782fa5", "type": "electric_bike", "name": "0d1e94bb7f2f25e29cc32bc1f8782fa5"}, {"is_disabled": 0, "is_reserved": 0, "fusion_lat": 0.0, "lat": 38.880228833333334, "fusion_lon": 0.0, "rental_uris": {"ios": "https://dc.lft.to/lastmile_qr_scan", "android": "https://dc.lft.to/lastmile_qr_scan"}, "lon": -76.9432545, "bike_id": "aeb73b50fadd1e3ab98c04547c60b06d", "type": "electric_scooter", "name": "aeb73b50fadd1e3ab98c04547c60b06d"}, {"is_disabled": 0, "is_reserved": 0, "fusion_lat": 0.0, "lat": 38.90268666666667, "fusion_lon": 0.0, "rental_uris": {"ios": "https://dc.lft.to/lastmile_qr_scan", "android": "https://dc.lft.to/lastmile_qr_scan"}, "lon": -77.0347945, "bike_id": "be1df949324fb5afbaff1f9eca79f89a", "type": "electric_scooter", "name": "be1df949324fb5afbaff1f9eca79f89a"}, {"is_disabled": 0, "is_reserved": 0, "fusion_lat": 0.0, "lat": 38.846183333333336, "fusion_lon": 0.0, "rental_uris": {"ios": "https://dc.lft.to/lastmile_qr_scan", "android": "https://dc.lft.to/lastmile_qr_scan"}, "lon": -76.97840816666667, "bike_id": "2f3c6cd4d90a0e3be6a4bb9e4b745c68", "type": "electric_bike", "name": "2f3c6cd4d90a0e3be6a4bb9e4b745c68"}, {"is_disabled": 0, "is_reserved": 0, "fusion_lat": 0.0, "lat": 38.901541333333334, "fusion_lon": 0.0, "rental_uris": {"ios": "https://dc.lft.to/lastmile_qr_scan", "android": "https://dc.lft.to/lastmile_qr_scan"}, "lon": -77.03504933333333, "bike_id": "8d56beed90ffd6bd4b932ced36787510", "type": "electric_scooter", "name": "8d56beed90ffd6bd4b932ced36787510"}, {"is_disabled": 0, "is_reserved": 0, "fusion_lat": 0.0, "lat": 38.9038315, "fusion_lon": 0.0, "rental_uris": {"ios": "https://dc.lft.to/lastmile_qr_scan", "android": "https://dc.lft.to/lastmile_qr_scan"}, "lon": -76.980789, "bike_id": "c8204346fa93869b1d6fe043261ddd7d", "type": "electric_scooter", "name": "c8204346fa93869b1d6fe043261ddd7d"}, {"is_disabled": 0, "is_reserved": 0, "fusion_lat": 0.0, "lat": 38.90468, "fusion_lon": 0.0, "rental_uris": {"ios": "https://dc.lft.to/lastmile_qr_scan", "android": "https://dc.lft.to/lastmile_qr_scan"}, "lon": -77.06270466666666, "bike_id": "07c505b40bdec8be0c7005332b48bd7a", "type": "electric_scooter", "name": "07c505b40bdec8be0c7005332b48bd7a"}, {"is_disabled": 0, "is_reserved": 0, "fusion_lat": 0.0, "lat": 38.932969666666665, "fusion_lon": 0.0, "rental_uris": {"ios": "https://dc.lft.to/lastmile_qr_scan", "android": "https://dc.lft.to/lastmile_qr_scan"}, "lon": -77.024397, "bike_id": "7899cec6ee4d1e3dfd3831015823e25c", "type": "electric_scooter", "name": "7899cec6ee4d1e3dfd3831015823e25c"}, {"is_disabled": 0, "is_reserved": 0, "fusion_lat": 0.0, "lat": 38.913672166666665, "fusion_lon": 0.0, "rental_uris": {"ios": "https://dc.lft.to/lastmile_qr_scan", "android": "https://dc.lft.to/lastmile_qr_scan"}, "lon": -77.01567883333334, "bike_id": "222695997a0056a8e026e9ce71cd4d89", "type": "electric_scooter", "name": "222695997a0056a8e026e9ce71cd4d89"}, {"is_disabled": 0, "is_reserved": 0, "fusion_lat": 0.0, "lat": 38.88711283333333, "fusion_lon": 0.0, "rental_uris": {"ios": "https://dc.lft.to/lastmile_qr_scan", "android": "https://dc.lft.to/lastmile_qr_scan"}, "lon": -76.98342566666666, "bike_id": "01718ddd08a7fe8bebf792636e53936a", "type": "electric_scooter", "name": "01718ddd08a7fe8bebf792636e53936a"}, {"is_disabled": 0, "is_reserved": 0, "fusion_lat": 0.0, "lat": 38.846447, "fusion_lon": 0.0, "rental_uris": {"ios": "https://dc.lft.to/lastmile_qr_scan", "android": "https://dc.lft.to/lastmile_qr_scan"}, "lon": -77.0037255, "bike_id": "b9f2274572784822eed57f170dc973ff", "type": "electric_scooter", "name": "b9f2274572784822eed57f170dc973ff"}, {"is_disabled": 0, "is_reserved": 0, "fusion_lat": 0.0, "lat": 38.8910715, "fusion_lon": 0.0, "rental_uris": {"ios": "https://dc.lft.to/lastmile_qr_scan", "android": "https://dc.lft.to/lastmile_qr_scan"}, "lon": -77.00197816666666, "bike_id": "8b0cfbeed525c163ca638f09795b5c2a", "type": "electric_scooter", "name": "8b0cfbeed525c163ca638f09795b5c2a"}, {"is_disabled": 0, "is_reserved": 0, "fusion_lat": 0.0, "lat": 38.93006866666666, "fusion_lon": 0.0, "rental_uris": {"ios": "https://dc.lft.to/lastmile_qr_scan", "android": "https://dc.lft.to/lastmile_qr_scan"}, "lon": -77.0378455, "bike_id": "fead571021d1958af25eeb93cec98e90", "type": "electric_scooter", "name": "fead571021d1958af25eeb93cec98e90"}, {"is_disabled": 0, "is_reserved": 0, "fusion_lat": 0.0, "lat": 38.90612133333333, "fusion_lon": 0.0, "rental_uris": {"ios": "https://dc.lft.to/lastmile_qr_scan", "android": "https://dc.lft.to/lastmile_qr_scan"}, "lon": -77.01620766666667, "bike_id": "5cb64ccb8fde78e77276d95aed1e3646", "type": "electric_scooter", "name": "5cb64ccb8fde78e77276d95aed1e3646"}, {"is_disabled": 0, "is_reserved": 0, "fusion_lat": 0.0, "lat": 38.925508, "fusion_lon": 0.0, "rental_uris": {"ios": "https://dc.lft.to/lastmile_qr_scan", "android": "https://dc.lft.to/lastmile_qr_scan"}, "lon": -77.00324383333333, "bike_id": "291c8406ae9436e62d2b8878f7687fd2", "type": "electric_scooter", "name": "291c8406ae9436e62d2b8878f7687fd2"}, {"is_disabled": 0, "is_reserved": 0, "fusion_lat": 0.0, "lat": 38.9365735, "fusion_lon": 0.0, "rental_uris": {"ios": "https://dc.lft.to/lastmile_qr_scan", "android": "https://dc.lft.to/lastmile_qr_scan"}, "lon": -77.06610933333333, "bike_id": "451451f3f1487c8179895c020188f23d", "type": "electric_scooter", "name": "451451f3f1487c8179895c020188f23d"}, {"is_disabled": 0, "is_reserved": 0, "fusion_lat": 0.0, "lat": 38.90908233333333, "fusion_lon": 0.0, "rental_uris": {"ios": "https://dc.lft.to/lastmile_qr_scan", "android": "https://dc.lft.to/lastmile_qr_scan"}, "lon": -77.044063, "bike_id": "61ff91eed26fd5fc7264732042f1ea81", "type": "electric_scooter", "name": "61ff91eed26fd5fc7264732042f1ea81"}, {"is_disabled": 0, "is_reserved": 0, "fusion_lat": 0.0, "lat": 38.877814666666666, "fusion_lon": 0.0, "rental_uris": {"ios": "https://dc.lft.to/lastmile_qr_scan", "android": "https://dc.lft.to/lastmile_qr_scan"}, "lon": -77.001346, "bike_id": "18db49b3ecd2132274327dc52d791cd1", "type": "electric_scooter", "name": "18db49b3ecd2132274327dc52d791cd1"}, {"is_disabled": 0, "is_reserved": 0, "fusion_lat": 0.0, "lat": 38.90254183333333, "fusion_lon": 0.0, "rental_uris": {"ios": "https://dc.lft.to/lastmile_qr_scan", "android": "https://dc.lft.to/lastmile_qr_scan"}, "lon": -77.03453633333334, "bike_id": "01ca735980b360a1be9af4fcba90fa27", "type": "electric_scooter", "name": "01ca735980b360a1be9af4fcba90fa27"}, {"is_disabled": 0, "is_reserved": 0, "fusion_lat": 0.0, "lat": 38.91553066666667, "fusion_lon": 0.0, "rental_uris": {"ios": "https://dc.lft.to/lastmile_qr_scan", "android": "https://dc.lft.to/lastmile_qr_scan"}, "lon": -77.05105083333333, "bike_id": "b553b01ead3793411c51d14fb1684dee", "type": "electric_scooter", "name": "b553b01ead3793411c51d14fb1684dee"}, {"is_disabled": 0, "is_reserved": 0, "fusion_lat": 0.0, "lat": 38.872876833333336, "fusion_lon": 0.0, "rental_uris": {"ios": "https://dc.lft.to/lastmile_qr_scan", "android": "https://dc.lft.to/lastmile_qr_scan"}, "lon": -77.00578133333333, "bike_id": "e4ab543bf6701f630971839d93e84f8c", "type": "electric_scooter", "name": "e4ab543bf6701f630971839d93e84f8c"}, {"is_disabled": 0, "is_reserved": 0, "fusion_lat": 0.0, "lat": 38.8961725, "fusion_lon": 0.0, "rental_uris": {"ios": "https://dc.lft.to/lastmile_qr_scan", "android": "https://dc.lft.to/lastmile_qr_scan"}, "lon": -77.04118066666666, "bike_id": "5ae8be9a852bf084928afe2f4ad7b0c9", "type": "electric_scooter", "name": "5ae8be9a852bf084928afe2f4ad7b0c9"}, {"is_disabled": 0, "is_reserved": 0, "fusion_lat": 0.0, "lat": 38.876152, "fusion_lon": 0.0, "rental_uris": {"ios": "https://dc.lft.to/lastmile_qr_scan", "android": "https://dc.lft.to/lastmile_qr_scan"}, "lon": -77.00600833333333, "bike_id": "17a5ba9389f0a9b7d6158b1e4729a617", "type": "electric_scooter", "name": "17a5ba9389f0a9b7d6158b1e4729a617"}, {"is_disabled": 0, "is_reserved": 0, "fusion_lat": 0.0, "lat": 38.920978, "fusion_lon": 0.0, "rental_uris": {"ios": "https://dc.lft.to/lastmile_qr_scan", "android": "https://dc.lft.to/lastmile_qr_scan"}, "lon": -77.04124316666666, "bike_id": "f08305896a1a6087f8259d36aca1e0d6", "type": "electric_scooter", "name": "f08305896a1a6087f8259d36aca1e0d6"}, {"is_disabled": 0, "is_reserved": 0, "fusion_lat": 0.0, "lat": 38.8467465, "fusion_lon": 0.0, "rental_uris": {"ios": "https://dc.lft.to/lastmile_qr_scan", "android": "https://dc.lft.to/lastmile_qr_scan"}, "lon": -77.1392995, "bike_id": "1fd5cffce805fa9b232ea1b756e96d78", "type": "electric_bike", "name": "1fd5cffce805fa9b232ea1b756e96d78"}, {"is_disabled": 0, "is_reserved": 0, "fusion_lat": 0.0, "lat": 38.91685183333333, "fusion_lon": 0.0, "rental_uris": {"ios": "https://dc.lft.to/lastmile_qr_scan", "android": "https://dc.lft.to/lastmile_qr_scan"}, "lon": -77.0290435, "bike_id": "1c487a2967412fe132a326e14150695e", "type": "electric_scooter", "name": "1c487a2967412fe132a326e14150695e"}, {"is_disabled": 0, "is_reserved": 0, "fusion_lat": 0.0, "lat": 38.85055783333333, "fusion_lon": 0.0, "rental_uris": {"ios": "https://dc.lft.to/lastmile_qr_scan", "android": "https://dc.lft.to/lastmile_qr_scan"}, "lon": -76.9582305, "bike_id": "628c30e20e69adc99c12a93dba2088be", "type": "electric_bike", "name": "628c30e20e69adc99c12a93dba2088be"}, {"is_disabled": 0, "is_reserved": 0, "fusion_lat": 0.0, "lat": 38.8857605, "fusion_lon": 0.0, "rental_uris": {"ios": "https://dc.lft.to/lastmile_qr_scan", "android": "https://dc.lft.to/lastmile_qr_scan"}, "lon": -77.0121325, "bike_id": "1622897ca9a1c41ff2e4fc40a7472cd4", "type": "electric_scooter", "name": "1622897ca9a1c41ff2e4fc40a7472cd4"}, {"is_disabled": 0, "is_reserved": 0, "fusion_lat": 0.0, "lat": 38.9257765, "fusion_lon": 0.0, "rental_uris": {"ios": "https://dc.lft.to/lastmile_qr_scan", "android": "https://dc.lft.to/lastmile_qr_scan"}, "lon": -77.02761833333334, "bike_id": "5d62f378bef05009af81ac5168a6dd42", "type": "electric_scooter", "name": "5d62f378bef05009af81ac5168a6dd42"}, {"is_disabled": 0, "is_reserved": 0, "fusion_lat": 0.0, "lat": 38.920908833333336, "fusion_lon": 0.0, "rental_uris": {"ios": "https://dc.lft.to/lastmile_qr_scan", "android": "https://dc.lft.to/lastmile_qr_scan"}, "lon": -77.02513183333333, "bike_id": "3505d70436fab90af2cbaf79191146df", "type": "electric_scooter", "name": "3505d70436fab90af2cbaf79191146df"}, {"is_disabled": 0, "is_reserved": 0, "fusion_lat": 0.0, "lat": 38.9094545, "fusion_lon": 0.0, "rental_uris": {"ios": "https://dc.lft.to/lastmile_qr_scan", "android": "https://dc.lft.to/lastmile_qr_scan"}, "lon": -76.99585283333333, "bike_id": "61676bc35ca37628fa6738447fc3f924", "type": "electric_scooter", "name": "61676bc35ca37628fa6738447fc3f924"}, {"is_disabled": 0, "is_reserved": 0, "fusion_lat": 0.0, "lat": 38.902433333333335, "fusion_lon": 0.0, "rental_uris": {"ios": "https://dc.lft.to/lastmile_qr_scan", "android": "https://dc.lft.to/lastmile_qr_scan"}, "lon": -77.00767333333333, "bike_id": "6a54746f24ca9575d170895e19945ed1", "type": "electric_scooter", "name": "6a54746f24ca9575d170895e19945ed1"}, {"is_disabled": 0, "is_reserved": 0, "fusion_lat": 0.0, "lat": 38.932362833333336, "fusion_lon": 0.0, "rental_uris": {"ios": "https://dc.lft.to/lastmile_qr_scan", "android": "https://dc.lft.to/lastmile_qr_scan"}, "lon": -76.99704283333334, "bike_id": "77544e071f0f9b03bf0f89c4b5f688e3", "type": "electric_scooter", "name": "77544e071f0f9b03bf0f89c4b5f688e3"}, {"is_disabled": 0, "is_reserved": 0, "fusion_lat": 0.0, "lat": 38.86081316666667, "fusion_lon": 0.0, "rental_uris": {"ios": "https://dc.lft.to/lastmile_qr_scan", "android": "https://dc.lft.to/lastmile_qr_scan"}, "lon": -76.983744, "bike_id": "a7c8e6ec9c8468c6db731a15ed8541f9", "type": "electric_scooter", "name": "a7c8e6ec9c8468c6db731a15ed8541f9"}, {"is_disabled": 0, "is_reserved": 0, "fusion_lat": 0.0, "lat": 38.91916533333333, "fusion_lon": 0.0, "rental_uris": {"ios": "https://dc.lft.to/lastmile_qr_scan", "android": "https://dc.lft.to/lastmile_qr_scan"}, "lon": -77.0309935, "bike_id": "b0f6f607d1feeb712a50e80c338d329e", "type": "electric_scooter", "name": "b0f6f607d1feeb712a50e80c338d329e"}, {"is_disabled": 0, "is_reserved": 0, "fusion_lat": 0.0, "lat": 38.916715333333336, "fusion_lon": 0.0, "rental_uris": {"ios": "https://dc.lft.to/lastmile_qr_scan", "android": "https://dc.lft.to/lastmile_qr_scan"}, "lon": -77.02397266666667, "bike_id": "efcbdac8918c8348feb4aefca6a54f1d", "type": "electric_scooter", "name": "efcbdac8918c8348feb4aefca6a54f1d"}, {"is_disabled": 0, "is_reserved": 0, "fusion_lat": 0.0, "lat": 38.928164333333335, "fusion_lon": 0.0, "rental_uris": {"ios": "https://dc.lft.to/lastmile_qr_scan", "android": "https://dc.lft.to/lastmile_qr_scan"}, "lon": -77.04351616666666, "bike_id": "116f390b3055aedf9cbcfb4b08c708c4", "type": "electric_scooter", "name": "116f390b3055aedf9cbcfb4b08c708c4"}, {"is_disabled": 0, "is_reserved": 0, "fusion_lat": 0.0, "lat": 38.897526, "fusion_lon": 0.0, "rental_uris": {"ios": "https://dc.lft.to/lastmile_qr_scan", "android": "https://dc.lft.to/lastmile_qr_scan"}, "lon": -77.02178016666667, "bike_id": "a3f0c526142e1b93c29e064c153b4073", "type": "electric_scooter", "name": "a3f0c526142e1b93c29e064c153b4073"}, {"is_disabled": 0, "is_reserved": 0, "fusion_lat": 0.0, "lat": 38.880079333333335, "fusion_lon": 0.0, "rental_uris": {"ios": "https://dc.lft.to/lastmile_qr_scan", "android": "https://dc.lft.to/lastmile_qr_scan"}, "lon": -76.99834783333333, "bike_id": "345f3b7e0389f46a1402c7625f135d18", "type": "electric_scooter", "name": "345f3b7e0389f46a1402c7625f135d18"}, {"is_disabled": 0, "is_reserved": 0, "fusion_lat": 0.0, "lat": 38.9017655, "fusion_lon": 0.0, "rental_uris": {"ios": "https://dc.lft.to/lastmile_qr_scan", "android": "https://dc.lft.to/lastmile_qr_scan"}, "lon": -77.0021275, "bike_id": "4e5104c8f9f9af0f3546fcc8113a4c86", "type": "electric_scooter", "name": "4e5104c8f9f9af0f3546fcc8113a4c86"}, {"is_disabled": 0, "is_reserved": 0, "fusion_lat": 0.0, "lat": 38.90184, "fusion_lon": 0.0, "rental_uris": {"ios": "https://dc.lft.to/lastmile_qr_scan", "android": "https://dc.lft.to/lastmile_qr_scan"}, "lon": -76.97677183333333, "bike_id": "dbb3f205d791347ddfc8c5071cf00025", "type": "electric_scooter", "name": "dbb3f205d791347ddfc8c5071cf00025"}, {"is_disabled": 0, "is_reserved": 0, "fusion_lat": 0.0, "lat": 38.91039716666667, "fusion_lon": 0.0, "rental_uris": {"ios": "https://dc.lft.to/lastmile_qr_scan", "android": "https://dc.lft.to/lastmile_qr_scan"}, "lon": -76.93836733333333, "bike_id": "a23c461af9af1c725289a0bc8da5b1dd", "type": "electric_scooter", "name": "a23c461af9af1c725289a0bc8da5b1dd"}, {"is_disabled": 0, "is_reserved": 0, "fusion_lat": 0.0, "lat": 39.0347635, "fusion_lon": 0.0, "rental_uris": {"ios": "https://dc.lft.to/lastmile_qr_scan", "android": "https://dc.lft.to/lastmile_qr_scan"}, "lon": -77.04105183333333, "bike_id": "fce66141ce26dc2d9cb6ab7fc54b3c35", "type": "electric_bike", "name": "fce66141ce26dc2d9cb6ab7fc54b3c35"}, {"is_disabled": 0, "is_reserved": 0, "fusion_lat": 0.0, "lat": 38.8991015, "fusion_lon": 0.0, "rental_uris": {"ios": "https://dc.lft.to/lastmile_qr_scan", "android": "https://dc.lft.to/lastmile_qr_scan"}, "lon": -76.9803605, "bike_id": "1f3eb0b0eed932adb510a2f9e70b2290", "type": "electric_scooter", "name": "1f3eb0b0eed932adb510a2f9e70b2290"}, {"is_disabled": 0, "is_reserved": 0, "fusion_lat": 0.0, "lat": 38.9159975, "fusion_lon": 0.0, "rental_uris": {"ios": "https://dc.lft.to/lastmile_qr_scan", "android": "https://dc.lft.to/lastmile_qr_scan"}, "lon": -77.02102483333333, "bike_id": "dc77cfa2ef14b92c97adeb1689f81111", "type": "electric_scooter", "name": "dc77cfa2ef14b92c97adeb1689f81111"}, {"is_disabled": 0, "is_reserved": 0, "fusion_lat": 0.0, "lat": 38.95594533333333, "fusion_lon": 0.0, "rental_uris": {"ios": "https://dc.lft.to/lastmile_qr_scan", "android": "https://dc.lft.to/lastmile_qr_scan"}, "lon": -77.01004166666667, "bike_id": "dd51de3b6078852ae8268b74ae836150", "type": "electric_bike", "name": "dd51de3b6078852ae8268b74ae836150"}, {"is_disabled": 0, "is_reserved": 0, "fusion_lat": 0.0, "lat": 38.876827, "fusion_lon": 0.0, "rental_uris": {"ios": "https://dc.lft.to/lastmile_qr_scan", "android": "https://dc.lft.to/lastmile_qr_scan"}, "lon": -77.00748833333333, "bike_id": "2cc5d71a320c52f00c35cb6e4dd76dda", "type": "electric_scooter", "name": "2cc5d71a320c52f00c35cb6e4dd76dda"}, {"is_disabled": 0, "is_reserved": 0, "fusion_lat": 0.0, "lat": 38.901428833333334, "fusion_lon": 0.0, "rental_uris": {"ios": "https://dc.lft.to/lastmile_qr_scan", "android": "https://dc.lft.to/lastmile_qr_scan"}, "lon": -77.03624916666666, "bike_id": "17f1e974ea1b1de91b8878336f4ff5cc", "type": "electric_scooter", "name": "17f1e974ea1b1de91b8878336f4ff5cc"}, {"is_disabled": 0, "is_reserved": 0, "fusion_lat": 0.0, "lat": 38.899397666666665, "fusion_lon": 0.0, "rental_uris": {"ios": "https://dc.lft.to/lastmile_qr_scan", "android": "https://dc.lft.to/lastmile_qr_scan"}, "lon": -76.93766983333333, "bike_id": "e299022b4aa147972ecf4bf69d83a7ad", "type": "electric_scooter", "name": "e299022b4aa147972ecf4bf69d83a7ad"}, {"is_disabled": 0, "is_reserved": 0, "fusion_lat": 0.0, "lat": 38.930073166666666, "fusion_lon": 0.0, "rental_uris": {"ios": "https://dc.lft.to/lastmile_qr_scan", "android": "https://dc.lft.to/lastmile_qr_scan"}, "lon": -77.02111733333334, "bike_id": "e38c5c451ae090d8e6a82b635c75c3e0", "type": "electric_scooter", "name": "e38c5c451ae090d8e6a82b635c75c3e0"}, {"is_disabled": 0, "is_reserved": 0, "fusion_lat": 0.0, "lat": 38.87083966666667, "fusion_lon": 0.0, "rental_uris": {"ios": "https://dc.lft.to/lastmile_qr_scan", "android": "https://dc.lft.to/lastmile_qr_scan"}, "lon": -77.0120845, "bike_id": "5737e940c1ea0c71ab4c442f5c5c9c18", "type": "electric_scooter", "name": "5737e940c1ea0c71ab4c442f5c5c9c18"}, {"is_disabled": 0, "is_reserved": 0, "fusion_lat": 0.0, "lat": 38.89855566666667, "fusion_lon": 0.0, "rental_uris": {"ios": "https://dc.lft.to/lastmile_qr_scan", "android": "https://dc.lft.to/lastmile_qr_scan"}, "lon": -77.02215916666667, "bike_id": "5d9ce5bf741bb188ec7b4f4ca71c923b", "type": "electric_scooter", "name": "5d9ce5bf741bb188ec7b4f4ca71c923b"}, {"is_disabled": 0, "is_reserved": 0, "fusion_lat": 0.0, "lat": 38.896967333333336, "fusion_lon": 0.0, "rental_uris": {"ios": "https://dc.lft.to/lastmile_qr_scan", "android": "https://dc.lft.to/lastmile_qr_scan"}, "lon": -77.02424583333334, "bike_id": "ef239bb770008b27b8bfa25cea20d1b8", "type": "electric_scooter", "name": "ef239bb770008b27b8bfa25cea20d1b8"}, {"is_disabled": 0, "is_reserved": 0, "fusion_lat": 0.0, "lat": 38.900058333333334, "fusion_lon": 0.0, "rental_uris": {"ios": "https://dc.lft.to/lastmile_qr_scan", "android": "https://dc.lft.to/lastmile_qr_scan"}, "lon": -76.97986166666666, "bike_id": "7fed8c051120f1c122d45ebe02436c07", "type": "electric_scooter", "name": "7fed8c051120f1c122d45ebe02436c07"}, {"is_disabled": 0, "is_reserved": 0, "fusion_lat": 0.0, "lat": 38.900634, "fusion_lon": 0.0, "rental_uris": {"ios": "https://dc.lft.to/lastmile_qr_scan", "android": "https://dc.lft.to/lastmile_qr_scan"}, "lon": -77.00675966666667, "bike_id": "a554e258632cd8b07f636591583d85bb", "type": "electric_scooter", "name": "a554e258632cd8b07f636591583d85bb"}, {"is_disabled": 0, "is_reserved": 0, "fusion_lat": 0.0, "lat": 38.920718666666666, "fusion_lon": 0.0, "rental_uris": {"ios": "https://dc.lft.to/lastmile_qr_scan", "android": "https://dc.lft.to/lastmile_qr_scan"}, "lon": -77.02510183333334, "bike_id": "53e9d9ea0b4e089f6f89191f43b44659", "type": "electric_scooter", "name": "53e9d9ea0b4e089f6f89191f43b44659"}, {"is_disabled": 0, "is_reserved": 0, "fusion_lat": 0.0, "lat": 38.91635333333333, "fusion_lon": 0.0, "rental_uris": {"ios": "https://dc.lft.to/lastmile_qr_scan", "android": "https://dc.lft.to/lastmile_qr_scan"}, "lon": -77.02692816666666, "bike_id": "6de0520d181f108058011cc397591db9", "type": "electric_scooter", "name": "6de0520d181f108058011cc397591db9"}, {"is_disabled": 0, "is_reserved": 0, "fusion_lat": 0.0, "lat": 38.93140416666667, "fusion_lon": 0.0, "rental_uris": {"ios": "https://dc.lft.to/lastmile_qr_scan", "android": "https://dc.lft.to/lastmile_qr_scan"}, "lon": -77.02988816666667, "bike_id": "331847c04bbb95c26236af92c3df0b35", "type": "electric_scooter", "name": "331847c04bbb95c26236af92c3df0b35"}, {"is_disabled": 0, "is_reserved": 0, "fusion_lat": 0.0, "lat": 38.90420266666667, "fusion_lon": 0.0, "rental_uris": {"ios": "https://dc.lft.to/lastmile_qr_scan", "android": "https://dc.lft.to/lastmile_qr_scan"}, "lon": -77.02400583333333, "bike_id": "a91660e488c5ba4f319f0c43a6b212a8", "type": "electric_scooter", "name": "a91660e488c5ba4f319f0c43a6b212a8"}, {"is_disabled": 0, "is_reserved": 0, "fusion_lat": 0.0, "lat": 38.86805183333333, "fusion_lon": 0.0, "rental_uris": {"ios": "https://dc.lft.to/lastmile_qr_scan", "android": "https://dc.lft.to/lastmile_qr_scan"}, "lon": -76.98025333333334, "bike_id": "efe1891d4b0bc6f653aac9cdb7d46ea1", "type": "electric_bike", "name": "efe1891d4b0bc6f653aac9cdb7d46ea1"}, {"is_disabled": 0, "is_reserved": 0, "fusion_lat": 0.0, "lat": 38.9473045, "fusion_lon": 0.0, "rental_uris": {"ios": "https://dc.lft.to/lastmile_qr_scan", "android": "https://dc.lft.to/lastmile_qr_scan"}, "lon": -77.019403, "bike_id": "618a5cff040eab0b5b6b0c0434091063", "type": "electric_scooter", "name": "618a5cff040eab0b5b6b0c0434091063"}, {"is_disabled": 0, "is_reserved": 0, "fusion_lat": 0.0, "lat": 38.896731333333335, "fusion_lon": 0.0, "rental_uris": {"ios": "https://dc.lft.to/lastmile_qr_scan", "android": "https://dc.lft.to/lastmile_qr_scan"}, "lon": -76.93212683333333, "bike_id": "89798742c71c64132b75ffaf6a912eea", "type": "electric_scooter", "name": "89798742c71c64132b75ffaf6a912eea"}, {"is_disabled": 0, "is_reserved": 0, "fusion_lat": 0.0, "lat": 38.904856833333334, "fusion_lon": 0.0, "rental_uris": {"ios": "https://dc.lft.to/lastmile_qr_scan", "android": "https://dc.lft.to/lastmile_qr_scan"}, "lon": -77.04352666666666, "bike_id": "0c280993670129c605a75247a908dfe2", "type": "electric_scooter", "name": "0c280993670129c605a75247a908dfe2"}, {"is_disabled": 0, "is_reserved": 0, "fusion_lat": 0.0, "lat": 38.876570666666666, "fusion_lon": 0.0, "rental_uris": {"ios": "https://dc.lft.to/lastmile_qr_scan", "android": "https://dc.lft.to/lastmile_qr_scan"}, "lon": -77.01577333333333, "bike_id": "0dc581ded324b02b49188ea24a7d5f6f", "type": "electric_scooter", "name": "0dc581ded324b02b49188ea24a7d5f6f"}, {"is_disabled": 0, "is_reserved": 0, "fusion_lat": 0.0, "lat": 38.88622683333333, "fusion_lon": 0.0, "rental_uris": {"ios": "https://dc.lft.to/lastmile_qr_scan", "android": "https://dc.lft.to/lastmile_qr_scan"}, "lon": -77.02834366666667, "bike_id": "5164f470e618cf2c4d9845fed2e8cddc", "type": "electric_scooter", "name": "5164f470e618cf2c4d9845fed2e8cddc"}, {"is_disabled": 0, "is_reserved": 0, "fusion_lat": 0.0, "lat": 38.923392666666665, "fusion_lon": 0.0, "rental_uris": {"ios": "https://dc.lft.to/lastmile_qr_scan", "android": "https://dc.lft.to/lastmile_qr_scan"}, "lon": -76.98489266666667, "bike_id": "dba5ff59630a10f3dff238dc73dea043", "type": "electric_scooter", "name": "dba5ff59630a10f3dff238dc73dea043"}, {"is_disabled": 0, "is_reserved": 0, "fusion_lat": 0.0, "lat": 38.8429155, "fusion_lon": 0.0, "rental_uris": {"ios": "https://dc.lft.to/lastmile_qr_scan", "android": "https://dc.lft.to/lastmile_qr_scan"}, "lon": -77.06381216666666, "bike_id": "d0bb82f8c15fde603575eb10e0641bd5", "type": "electric_bike", "name": "d0bb82f8c15fde603575eb10e0641bd5"}, {"is_disabled": 0, "is_reserved": 0, "fusion_lat": 0.0, "lat": 38.92571916666667, "fusion_lon": 0.0, "rental_uris": {"ios": "https://dc.lft.to/lastmile_qr_scan", "android": "https://dc.lft.to/lastmile_qr_scan"}, "lon": -77.05258616666667, "bike_id": "dbda23086adaaa7528a636686cfd5d88", "type": "electric_scooter", "name": "dbda23086adaaa7528a636686cfd5d88"}, {"is_disabled": 0, "is_reserved": 0, "fusion_lat": 0.0, "lat": 38.901807833333336, "fusion_lon": 0.0, "rental_uris": {"ios": "https://dc.lft.to/lastmile_qr_scan", "android": "https://dc.lft.to/lastmile_qr_scan"}, "lon": -77.00205933333334, "bike_id": "16204f66b26781485675b81f57956ade", "type": "electric_scooter", "name": "16204f66b26781485675b81f57956ade"}, {"is_disabled": 0, "is_reserved": 0, "fusion_lat": 0.0, "lat": 38.877484333333335, "fusion_lon": 0.0, "rental_uris": {"ios": "https://dc.lft.to/lastmile_qr_scan", "android": "https://dc.lft.to/lastmile_qr_scan"}, "lon": -76.9952095, "bike_id": "a7238d17274a4cc84894724aaf16e45d", "type": "electric_scooter", "name": "a7238d17274a4cc84894724aaf16e45d"}, {"is_disabled": 0, "is_reserved": 0, "fusion_lat": 0.0, "lat": 38.90065366666666, "fusion_lon": 0.0, "rental_uris": {"ios": "https://dc.lft.to/lastmile_qr_scan", "android": "https://dc.lft.to/lastmile_qr_scan"}, "lon": -77.02610816666666, "bike_id": "65f74f26b64ad3fed9c1529dac15708d", "type": "electric_scooter", "name": "65f74f26b64ad3fed9c1529dac15708d"}, {"is_disabled": 0, "is_reserved": 0, "fusion_lat": 0.0, "lat": 38.97285816666667, "fusion_lon": 0.0, "rental_uris": {"ios": "https://dc.lft.to/lastmile_qr_scan", "android": "https://dc.lft.to/lastmile_qr_scan"}, "lon": -77.03622033333333, "bike_id": "9ffe6cffc87e9d8e424a992f7eb7d278", "type": "electric_bike", "name": "9ffe6cffc87e9d8e424a992f7eb7d278"}, {"is_disabled": 0, "is_reserved": 0, "fusion_lat": 0.0, "lat": 38.91403283333333, "fusion_lon": 0.0, "rental_uris": {"ios": "https://dc.lft.to/lastmile_qr_scan", "android": "https://dc.lft.to/lastmile_qr_scan"}, "lon": -77.03169666666666, "bike_id": "2a733306e29fd6e3f940b2d265e1350a", "type": "electric_scooter", "name": "2a733306e29fd6e3f940b2d265e1350a"}, {"is_disabled": 0, "is_reserved": 0, "fusion_lat": 0.0, "lat": 38.92662416666667, "fusion_lon": 0.0, "rental_uris": {"ios": "https://dc.lft.to/lastmile_qr_scan", "android": "https://dc.lft.to/lastmile_qr_scan"}, "lon": -76.992953, "bike_id": "1936d0f548b8339f02207ade38ecc634", "type": "electric_scooter", "name": "1936d0f548b8339f02207ade38ecc634"}, {"is_disabled": 0, "is_reserved": 0, "fusion_lat": 0.0, "lat": 38.902719166666664, "fusion_lon": 0.0, "rental_uris": {"ios": "https://dc.lft.to/lastmile_qr_scan", "android": "https://dc.lft.to/lastmile_qr_scan"}, "lon": -77.045334, "bike_id": "2fda0d178d761254bdd381888c6d92c1", "type": "electric_scooter", "name": "2fda0d178d761254bdd381888c6d92c1"}, {"is_disabled": 0, "is_reserved": 0, "fusion_lat": 0.0, "lat": 38.9525005, "fusion_lon": 0.0, "rental_uris": {"ios": "https://dc.lft.to/lastmile_qr_scan", "android": "https://dc.lft.to/lastmile_qr_scan"}, "lon": -77.0962265, "bike_id": "345f4debebc00dbd6eac93a2cf687121", "type": "electric_bike", "name": "345f4debebc00dbd6eac93a2cf687121"}, {"is_disabled": 0, "is_reserved": 0, "fusion_lat": 0.0, "lat": 38.9225655, "fusion_lon": 0.0, "rental_uris": {"ios": "https://dc.lft.to/lastmile_qr_scan", "android": "https://dc.lft.to/lastmile_qr_scan"}, "lon": -77.0297235, "bike_id": "4d6613c68393ec5becba7adf0c0d37d6", "type": "electric_scooter", "name": "4d6613c68393ec5becba7adf0c0d37d6"}, {"is_disabled": 0, "is_reserved": 0, "fusion_lat": 0.0, "lat": 38.89835816666667, "fusion_lon": 0.0, "rental_uris": {"ios": "https://dc.lft.to/lastmile_qr_scan", "android": "https://dc.lft.to/lastmile_qr_scan"}, "lon": -76.9902875, "bike_id": "a19562e638ae3f8947a4853b788133ad", "type": "electric_scooter", "name": "a19562e638ae3f8947a4853b788133ad"}, {"is_disabled": 0, "is_reserved": 0, "fusion_lat": 0.0, "lat": 38.895036166666664, "fusion_lon": 0.0, "rental_uris": {"ios": "https://dc.lft.to/lastmile_qr_scan", "android": "https://dc.lft.to/lastmile_qr_scan"}, "lon": -77.02295883333333, "bike_id": "809be9a0a149b0fca66eca5324c703c3", "type": "electric_scooter", "name": "809be9a0a149b0fca66eca5324c703c3"}, {"is_disabled": 0, "is_reserved": 0, "fusion_lat": 0.0, "lat": 38.92988666666667, "fusion_lon": 0.0, "rental_uris": {"ios": "https://dc.lft.to/lastmile_qr_scan", "android": "https://dc.lft.to/lastmile_qr_scan"}, "lon": -77.03474833333334, "bike_id": "aa7ef4ecd578487047125b921d4728e6", "type": "electric_scooter", "name": "aa7ef4ecd578487047125b921d4728e6"}, {"is_disabled": 0, "is_reserved": 0, "fusion_lat": 0.0, "lat": 38.8925185, "fusion_lon": 0.0, "rental_uris": {"ios": "https://dc.lft.to/lastmile_qr_scan", "android": "https://dc.lft.to/lastmile_qr_scan"}, "lon": -77.046603, "bike_id": "2d12fa7041d829ef03d34f1b9562c1e3", "type": "electric_scooter", "name": "2d12fa7041d829ef03d34f1b9562c1e3"}, {"is_disabled": 0, "is_reserved": 0, "fusion_lat": 0.0, "lat": 38.89951166666667, "fusion_lon": 0.0, "rental_uris": {"ios": "https://dc.lft.to/lastmile_qr_scan", "android": "https://dc.lft.to/lastmile_qr_scan"}, "lon": -77.04754766666667, "bike_id": "5a805184c8b78975c3b3bdb2ef2fceda", "type": "electric_scooter", "name": "5a805184c8b78975c3b3bdb2ef2fceda"}, {"is_disabled": 0, "is_reserved": 0, "fusion_lat": 0.0, "lat": 38.84595766666666, "fusion_lon": 0.0, "rental_uris": {"ios": "https://dc.lft.to/lastmile_qr_scan", "android": "https://dc.lft.to/lastmile_qr_scan"}, "lon": -76.97416333333334, "bike_id": "cbd0d3eb078a49c5de5f78f4748425b9", "type": "electric_scooter", "name": "cbd0d3eb078a49c5de5f78f4748425b9"}, {"is_disabled": 0, "is_reserved": 0, "fusion_lat": 0.0, "lat": 38.922210666666665, "fusion_lon": 0.0, "rental_uris": {"ios": "https://dc.lft.to/lastmile_qr_scan", "android": "https://dc.lft.to/lastmile_qr_scan"}, "lon": -77.04332683333334, "bike_id": "c2cf41c13ed94c084b132dcc51d5606b", "type": "electric_scooter", "name": "c2cf41c13ed94c084b132dcc51d5606b"}, {"is_disabled": 0, "is_reserved": 0, "fusion_lat": 0.0, "lat": 38.9202455, "fusion_lon": 0.0, "rental_uris": {"ios": "https://dc.lft.to/lastmile_qr_scan", "android": "https://dc.lft.to/lastmile_qr_scan"}, "lon": -77.031157, "bike_id": "27ea083d1d448c781c9f007be991eb7c", "type": "electric_scooter", "name": "27ea083d1d448c781c9f007be991eb7c"}, {"is_disabled": 0, "is_reserved": 0, "fusion_lat": 0.0, "lat": 38.87575066666667, "fusion_lon": 0.0, "rental_uris": {"ios": "https://dc.lft.to/lastmile_qr_scan", "android": "https://dc.lft.to/lastmile_qr_scan"}, "lon": -77.00590316666667, "bike_id": "5f367a788a339c63276c553b6a43d405", "type": "electric_scooter", "name": "5f367a788a339c63276c553b6a43d405"}, {"is_disabled": 0, "is_reserved": 0, "fusion_lat": 0.0, "lat": 38.905255333333336, "fusion_lon": 0.0, "rental_uris": {"ios": "https://dc.lft.to/lastmile_qr_scan", "android": "https://dc.lft.to/lastmile_qr_scan"}, "lon": -77.0012805, "bike_id": "af375a23d3e8a1c6f6908778692fe29d", "type": "electric_scooter", "name": "af375a23d3e8a1c6f6908778692fe29d"}, {"is_disabled": 0, "is_reserved": 0, "fusion_lat": 0.0, "lat": 38.9814745, "fusion_lon": 0.0, "rental_uris": {"ios": "https://dc.lft.to/lastmile_qr_scan", "android": "https://dc.lft.to/lastmile_qr_scan"}, "lon": -77.00775816666666, "bike_id": "22c074e64bb1d7406d580fdd7ecbf887", "type": "electric_bike", "name": "22c074e64bb1d7406d580fdd7ecbf887"}, {"is_disabled": 0, "is_reserved": 0, "fusion_lat": 0.0, "lat": 38.91118133333333, "fusion_lon": 0.0, "rental_uris": {"ios": "https://dc.lft.to/lastmile_qr_scan", "android": "https://dc.lft.to/lastmile_qr_scan"}, "lon": -77.00335083333333, "bike_id": "d27312a1d2667d0aa1dbec7bc956cfe9", "type": "electric_scooter", "name": "d27312a1d2667d0aa1dbec7bc956cfe9"}, {"is_disabled": 0, "is_reserved": 0, "fusion_lat": 0.0, "lat": 38.90152066666667, "fusion_lon": 0.0, "rental_uris": {"ios": "https://dc.lft.to/lastmile_qr_scan", "android": "https://dc.lft.to/lastmile_qr_scan"}, "lon": -76.985627, "bike_id": "9ac4407b7b7fbff9e95b0c7e512636d1", "type": "electric_scooter", "name": "9ac4407b7b7fbff9e95b0c7e512636d1"}, {"is_disabled": 0, "is_reserved": 0, "fusion_lat": 0.0, "lat": 38.91804, "fusion_lon": 0.0, "rental_uris": {"ios": "https://dc.lft.to/lastmile_qr_scan", "android": "https://dc.lft.to/lastmile_qr_scan"}, "lon": -77.02490766666666, "bike_id": "529ab0c52435dbb48a26d3b152734c4d", "type": "electric_scooter", "name": "529ab0c52435dbb48a26d3b152734c4d"}, {"is_disabled": 0, "is_reserved": 0, "fusion_lat": 0.0, "lat": 39.01068933333333, "fusion_lon": 0.0, "rental_uris": {"ios": "https://dc.lft.to/lastmile_qr_scan", "android": "https://dc.lft.to/lastmile_qr_scan"}, "lon": -76.9224025, "bike_id": "1f1888c5340cc64e84146a3ea04d8211", "type": "electric_bike", "name": "1f1888c5340cc64e84146a3ea04d8211"}, {"is_disabled": 0, "is_reserved": 0, "fusion_lat": 0.0, "lat": 38.874454166666666, "fusion_lon": 0.0, "rental_uris": {"ios": "https://dc.lft.to/lastmile_qr_scan", "android": "https://dc.lft.to/lastmile_qr_scan"}, "lon": -77.0092075, "bike_id": "4334b0e5380f0ff5656c6a99722e7458", "type": "electric_scooter", "name": "4334b0e5380f0ff5656c6a99722e7458"}, {"is_disabled": 0, "is_reserved": 0, "fusion_lat": 0.0, "lat": 38.90959733333333, "fusion_lon": 0.0, "rental_uris": {"ios": "https://dc.lft.to/lastmile_qr_scan", "android": "https://dc.lft.to/lastmile_qr_scan"}, "lon": -77.02289316666666, "bike_id": "5fc4db584822dda5bfa0c8cffe949c2e", "type": "electric_scooter", "name": "5fc4db584822dda5bfa0c8cffe949c2e"}, {"is_disabled": 0, "is_reserved": 0, "fusion_lat": 0.0, "lat": 38.8784425, "fusion_lon": 0.0, "rental_uris": {"ios": "https://dc.lft.to/lastmile_qr_scan", "android": "https://dc.lft.to/lastmile_qr_scan"}, "lon": -76.931291, "bike_id": "88213a5f743f1b2e32e48722efce3f05", "type": "electric_scooter", "name": "88213a5f743f1b2e32e48722efce3f05"}, {"is_disabled": 0, "is_reserved": 0, "fusion_lat": 0.0, "lat": 38.90553933333333, "fusion_lon": 0.0, "rental_uris": {"ios": "https://dc.lft.to/lastmile_qr_scan", "android": "https://dc.lft.to/lastmile_qr_scan"}, "lon": -77.003355, "bike_id": "ecdab034ab17f656d4b078d45e99a6c4", "type": "electric_scooter", "name": "ecdab034ab17f656d4b078d45e99a6c4"}, {"is_disabled": 0, "is_reserved": 0, "fusion_lat": 0.0, "lat": 38.91786833333333, "fusion_lon": 0.0, "rental_uris": {"ios": "https://dc.lft.to/lastmile_qr_scan", "android": "https://dc.lft.to/lastmile_qr_scan"}, "lon": -77.02371566666666, "bike_id": "4b6e9ffaa8875e05ad36cf901b8f8973", "type": "electric_scooter", "name": "4b6e9ffaa8875e05ad36cf901b8f8973"}, {"is_disabled": 0, "is_reserved": 0, "fusion_lat": 0.0, "lat": 38.907243666666666, "fusion_lon": 0.0, "rental_uris": {"ios": "https://dc.lft.to/lastmile_qr_scan", "android": "https://dc.lft.to/lastmile_qr_scan"}, "lon": -77.05044616666666, "bike_id": "7e4e42bbb042887484cbde997d3bf311", "type": "electric_scooter", "name": "7e4e42bbb042887484cbde997d3bf311"}, {"is_disabled": 0, "is_reserved": 0, "fusion_lat": 0.0, "lat": 38.92669433333333, "fusion_lon": 0.0, "rental_uris": {"ios": "https://dc.lft.to/lastmile_qr_scan", "android": "https://dc.lft.to/lastmile_qr_scan"}, "lon": -77.02700133333333, "bike_id": "aa3bd9759429f74a041307fb9e4ddea6", "type": "electric_scooter", "name": "aa3bd9759429f74a041307fb9e4ddea6"}, {"is_disabled": 0, "is_reserved": 0, "fusion_lat": 0.0, "lat": 38.88413666666667, "fusion_lon": 0.0, "rental_uris": {"ios": "https://dc.lft.to/lastmile_qr_scan", "android": "https://dc.lft.to/lastmile_qr_scan"}, "lon": -77.02977733333333, "bike_id": "211fd603e90fa3ebb81e192623d33668", "type": "electric_scooter", "name": "211fd603e90fa3ebb81e192623d33668"}, {"is_disabled": 0, "is_reserved": 0, "fusion_lat": 0.0, "lat": 38.927484, "fusion_lon": 0.0, "rental_uris": {"ios": "https://dc.lft.to/lastmile_qr_scan", "android": "https://dc.lft.to/lastmile_qr_scan"}, "lon": -77.03268183333333, "bike_id": "b3b67e8db05eb8d03f158657cf1b991f", "type": "electric_scooter", "name": "b3b67e8db05eb8d03f158657cf1b991f"}, {"is_disabled": 0, "is_reserved": 0, "fusion_lat": 0.0, "lat": 38.9086315, "fusion_lon": 0.0, "rental_uris": {"ios": "https://dc.lft.to/lastmile_qr_scan", "android": "https://dc.lft.to/lastmile_qr_scan"}, "lon": -77.032844, "bike_id": "d25c698fa1bd49d9f2cf25ed3a09d0d7", "type": "electric_scooter", "name": "d25c698fa1bd49d9f2cf25ed3a09d0d7"}, {"is_disabled": 0, "is_reserved": 0, "fusion_lat": 0.0, "lat": 38.919345166666666, "fusion_lon": 0.0, "rental_uris": {"ios": "https://dc.lft.to/lastmile_qr_scan", "android": "https://dc.lft.to/lastmile_qr_scan"}, "lon": -77.04172933333334, "bike_id": "eb47f6076c46cae47f28cd90c05930bd", "type": "electric_scooter", "name": "eb47f6076c46cae47f28cd90c05930bd"}, {"is_disabled": 0, "is_reserved": 0, "fusion_lat": 0.0, "lat": 38.89678466666667, "fusion_lon": 0.0, "rental_uris": {"ios": "https://dc.lft.to/lastmile_qr_scan", "android": "https://dc.lft.to/lastmile_qr_scan"}, "lon": -77.05104116666666, "bike_id": "c586bf31653b565eb1620f84df4d764d", "type": "electric_scooter", "name": "c586bf31653b565eb1620f84df4d764d"}, {"is_disabled": 0, "is_reserved": 0, "fusion_lat": 0.0, "lat": 38.88356683333333, "fusion_lon": 0.0, "rental_uris": {"ios": "https://dc.lft.to/lastmile_qr_scan", "android": "https://dc.lft.to/lastmile_qr_scan"}, "lon": -76.957677, "bike_id": "60a8589ee48374e3a644295dfc005a3b", "type": "electric_scooter", "name": "60a8589ee48374e3a644295dfc005a3b"}, {"is_disabled": 0, "is_reserved": 0, "fusion_lat": 0.0, "lat": 38.94268433333333, "fusion_lon": 0.0, "rental_uris": {"ios": "https://dc.lft.to/lastmile_qr_scan", "android": "https://dc.lft.to/lastmile_qr_scan"}, "lon": -76.98460866666667, "bike_id": "24846950f9bd4e46e78d5480c4e923ca", "type": "electric_scooter", "name": "24846950f9bd4e46e78d5480c4e923ca"}, {"is_disabled": 0, "is_reserved": 0, "fusion_lat": 0.0, "lat": 38.94716583333334, "fusion_lon": 0.0, "rental_uris": {"ios": "https://dc.lft.to/lastmile_qr_scan", "android": "https://dc.lft.to/lastmile_qr_scan"}, "lon": -77.06806716666667, "bike_id": "60ba58ce8b37e5ee5113cf18d73f452c", "type": "electric_scooter", "name": "60ba58ce8b37e5ee5113cf18d73f452c"}, {"is_disabled": 0, "is_reserved": 0, "fusion_lat": 0.0, "lat": 38.90693783333333, "fusion_lon": 0.0, "rental_uris": {"ios": "https://dc.lft.to/lastmile_qr_scan", "android": "https://dc.lft.to/lastmile_qr_scan"}, "lon": -76.9525285, "bike_id": "af7750929a2e197b185588611a940c9d", "type": "electric_bike", "name": "af7750929a2e197b185588611a940c9d"}, {"is_disabled": 0, "is_reserved": 0, "fusion_lat": 0.0, "lat": 38.897465, "fusion_lon": 0.0, "rental_uris": {"ios": "https://dc.lft.to/lastmile_qr_scan", "android": "https://dc.lft.to/lastmile_qr_scan"}, "lon": -77.03299216666667, "bike_id": "8138d2eecde33fca1b00d066d7c6c216", "type": "electric_scooter", "name": "8138d2eecde33fca1b00d066d7c6c216"}, {"is_disabled": 0, "is_reserved": 0, "fusion_lat": 0.0, "lat": 38.93619133333333, "fusion_lon": 0.0, "rental_uris": {"ios": "https://dc.lft.to/lastmile_qr_scan", "android": "https://dc.lft.to/lastmile_qr_scan"}, "lon": -77.0386775, "bike_id": "4ebd72f8f0f1ac23194617cb7dc4234e", "type": "electric_scooter", "name": "4ebd72f8f0f1ac23194617cb7dc4234e"}, {"is_disabled": 0, "is_reserved": 0, "fusion_lat": 0.0, "lat": 38.91055583333333, "fusion_lon": 0.0, "rental_uris": {"ios": "https://dc.lft.to/lastmile_qr_scan", "android": "https://dc.lft.to/lastmile_qr_scan"}, "lon": -77.04399833333333, "bike_id": "1a6643da9f5540ba7f60a4e01ef2a8da", "type": "electric_scooter", "name": "1a6643da9f5540ba7f60a4e01ef2a8da"}, {"is_disabled": 0, "is_reserved": 0, "fusion_lat": 0.0, "lat": 38.92988283333333, "fusion_lon": 0.0, "rental_uris": {"ios": "https://dc.lft.to/lastmile_qr_scan", "android": "https://dc.lft.to/lastmile_qr_scan"}, "lon": -77.03470916666667, "bike_id": "75c30320d46ea781ea330ff258b4aaaa", "type": "electric_scooter", "name": "75c30320d46ea781ea330ff258b4aaaa"}, {"is_disabled": 0, "is_reserved": 0, "fusion_lat": 0.0, "lat": 38.89611983333333, "fusion_lon": 0.0, "rental_uris": {"ios": "https://dc.lft.to/lastmile_qr_scan", "android": "https://dc.lft.to/lastmile_qr_scan"}, "lon": -77.04115833333333, "bike_id": "517826d4d149e04676ce449929a8f071", "type": "electric_scooter", "name": "517826d4d149e04676ce449929a8f071"}, {"is_disabled": 0, "is_reserved": 0, "fusion_lat": 0.0, "lat": 38.8427875, "fusion_lon": 0.0, "rental_uris": {"ios": "https://dc.lft.to/lastmile_qr_scan", "android": "https://dc.lft.to/lastmile_qr_scan"}, "lon": -76.988446, "bike_id": "fd66547a5e4d66857967ceeee64619a4", "type": "electric_bike", "name": "fd66547a5e4d66857967ceeee64619a4"}, {"is_disabled": 0, "is_reserved": 0, "fusion_lat": 0.0, "lat": 38.895321333333335, "fusion_lon": 0.0, "rental_uris": {"ios": "https://dc.lft.to/lastmile_qr_scan", "android": "https://dc.lft.to/lastmile_qr_scan"}, "lon": -77.02693783333333, "bike_id": "a5712931831ef347c773ec6236307389", "type": "electric_scooter", "name": "a5712931831ef347c773ec6236307389"}, {"is_disabled": 0, "is_reserved": 0, "fusion_lat": 0.0, "lat": 38.89522866666667, "fusion_lon": 0.0, "rental_uris": {"ios": "https://dc.lft.to/lastmile_qr_scan", "android": "https://dc.lft.to/lastmile_qr_scan"}, "lon": -77.02582966666667, "bike_id": "750bef6be1fc96652a52efd81f7d0165", "type": "electric_scooter", "name": "750bef6be1fc96652a52efd81f7d0165"}, {"is_disabled": 0, "is_reserved": 0, "fusion_lat": 0.0, "lat": 38.87470116666667, "fusion_lon": 0.0, "rental_uris": {"ios": "https://dc.lft.to/lastmile_qr_scan", "android": "https://dc.lft.to/lastmile_qr_scan"}, "lon": -77.00520083333333, "bike_id": "8e6c54b01b7824fca634f85d4fa3eb3f", "type": "electric_scooter", "name": "8e6c54b01b7824fca634f85d4fa3eb3f"}, {"is_disabled": 0, "is_reserved": 0, "fusion_lat": 0.0, "lat": 38.887657833333336, "fusion_lon": 0.0, "rental_uris": {"ios": "https://dc.lft.to/lastmile_qr_scan", "android": "https://dc.lft.to/lastmile_qr_scan"}, "lon": -77.15652316666667, "bike_id": "4ccf7c018555cbd012507be72a3c53be", "type": "electric_bike", "name": "4ccf7c018555cbd012507be72a3c53be"}, {"is_disabled": 0, "is_reserved": 0, "fusion_lat": 0.0, "lat": 38.901360333333336, "fusion_lon": 0.0, "rental_uris": {"ios": "https://dc.lft.to/lastmile_qr_scan", "android": "https://dc.lft.to/lastmile_qr_scan"}, "lon": -77.03377966666666, "bike_id": "1ce919acf814d8dc0d69285054bccff5", "type": "electric_scooter", "name": "1ce919acf814d8dc0d69285054bccff5"}, {"is_disabled": 0, "is_reserved": 0, "fusion_lat": 0.0, "lat": 38.921402666666665, "fusion_lon": 0.0, "rental_uris": {"ios": "https://dc.lft.to/lastmile_qr_scan", "android": "https://dc.lft.to/lastmile_qr_scan"}, "lon": -77.0180145, "bike_id": "0864618d6680e362e7c68579a6a6fcdf", "type": "electric_scooter", "name": "0864618d6680e362e7c68579a6a6fcdf"}, {"is_disabled": 0, "is_reserved": 0, "fusion_lat": 0.0, "lat": 38.9091325, "fusion_lon": 0.0, "rental_uris": {"ios": "https://dc.lft.to/lastmile_qr_scan", "android": "https://dc.lft.to/lastmile_qr_scan"}, "lon": -77.045778, "bike_id": "ce53eb4229229f577fdb4dc5ebd1b134", "type": "electric_scooter", "name": "ce53eb4229229f577fdb4dc5ebd1b134"}, {"is_disabled": 0, "is_reserved": 0, "fusion_lat": 0.0, "lat": 38.89510033333333, "fusion_lon": 0.0, "rental_uris": {"ios": "https://dc.lft.to/lastmile_qr_scan", "android": "https://dc.lft.to/lastmile_qr_scan"}, "lon": -77.02291666666666, "bike_id": "d33e753c65803b0ac799174524cdfe68", "type": "electric_scooter", "name": "d33e753c65803b0ac799174524cdfe68"}, {"is_disabled": 0, "is_reserved": 0, "fusion_lat": 0.0, "lat": 38.898657666666665, "fusion_lon": 0.0, "rental_uris": {"ios": "https://dc.lft.to/lastmile_qr_scan", "android": "https://dc.lft.to/lastmile_qr_scan"}, "lon": -77.01886633333334, "bike_id": "18ca4ba8af84393503724835874817e9", "type": "electric_scooter", "name": "18ca4ba8af84393503724835874817e9"}, {"is_disabled": 0, "is_reserved": 0, "fusion_lat": 0.0, "lat": 38.942054666666664, "fusion_lon": 0.0, "rental_uris": {"ios": "https://dc.lft.to/lastmile_qr_scan", "android": "https://dc.lft.to/lastmile_qr_scan"}, "lon": -77.0153715, "bike_id": "cb80e03f80e1dfccbc827a967dc180d3", "type": "electric_scooter", "name": "cb80e03f80e1dfccbc827a967dc180d3"}, {"is_disabled": 0, "is_reserved": 0, "fusion_lat": 0.0, "lat": 38.927971166666666, "fusion_lon": 0.0, "rental_uris": {"ios": "https://dc.lft.to/lastmile_qr_scan", "android": "https://dc.lft.to/lastmile_qr_scan"}, "lon": -77.03144883333333, "bike_id": "52aa0a732e53fc0d84049f7516dfb564", "type": "electric_scooter", "name": "52aa0a732e53fc0d84049f7516dfb564"}, {"is_disabled": 0, "is_reserved": 0, "fusion_lat": 0.0, "lat": 38.89425, "fusion_lon": 0.0, "rental_uris": {"ios": "https://dc.lft.to/lastmile_qr_scan", "android": "https://dc.lft.to/lastmile_qr_scan"}, "lon": -77.05601133333333, "bike_id": "9dd90a0f8d243ba19a3be778eeab1cf2", "type": "electric_scooter", "name": "9dd90a0f8d243ba19a3be778eeab1cf2"}, {"is_disabled": 0, "is_reserved": 0, "fusion_lat": 0.0, "lat": 38.91878416666667, "fusion_lon": 0.0, "rental_uris": {"ios": "https://dc.lft.to/lastmile_qr_scan", "android": "https://dc.lft.to/lastmile_qr_scan"}, "lon": -77.03474366666667, "bike_id": "73de0d35d3fc744d1a4ee7b37383a4b4", "type": "electric_scooter", "name": "73de0d35d3fc744d1a4ee7b37383a4b4"}, {"is_disabled": 0, "is_reserved": 0, "fusion_lat": 0.0, "lat": 38.876749333333336, "fusion_lon": 0.0, "rental_uris": {"ios": "https://dc.lft.to/lastmile_qr_scan", "android": "https://dc.lft.to/lastmile_qr_scan"}, "lon": -77.00336433333334, "bike_id": "9f809ca1c9e3fc49f10fe525d0f8587a", "type": "electric_scooter", "name": "9f809ca1c9e3fc49f10fe525d0f8587a"}, {"is_disabled": 0, "is_reserved": 0, "fusion_lat": 0.0, "lat": 38.898403, "fusion_lon": 0.0, "rental_uris": {"ios": "https://dc.lft.to/lastmile_qr_scan", "android": "https://dc.lft.to/lastmile_qr_scan"}, "lon": -76.98824416666666, "bike_id": "f22de2f4d0bc25de7f4c9de73b0faa03", "type": "electric_scooter", "name": "f22de2f4d0bc25de7f4c9de73b0faa03"}, {"is_disabled": 0, "is_reserved": 0, "fusion_lat": 0.0, "lat": 38.93344583333333, "fusion_lon": 0.0, "rental_uris": {"ios": "https://dc.lft.to/lastmile_qr_scan", "android": "https://dc.lft.to/lastmile_qr_scan"}, "lon": -77.01935166666667, "bike_id": "e00d6b96d7d6d954ce0d8d2e8f71deb4", "type": "electric_scooter", "name": "e00d6b96d7d6d954ce0d8d2e8f71deb4"}, {"is_disabled": 0, "is_reserved": 0, "fusion_lat": 0.0, "lat": 38.929950833333336, "fusion_lon": 0.0, "rental_uris": {"ios": "https://dc.lft.to/lastmile_qr_scan", "android": "https://dc.lft.to/lastmile_qr_scan"}, "lon": -77.0217405, "bike_id": "45a85e3d8bba54e8cf127586c2706c3e", "type": "electric_scooter", "name": "45a85e3d8bba54e8cf127586c2706c3e"}, {"is_disabled": 0, "is_reserved": 0, "fusion_lat": 0.0, "lat": 38.9297825, "fusion_lon": 0.0, "rental_uris": {"ios": "https://dc.lft.to/lastmile_qr_scan", "android": "https://dc.lft.to/lastmile_qr_scan"}, "lon": -77.02961666666667, "bike_id": "ae4360e364b0b68e76b47bcb4e1fb796", "type": "electric_scooter", "name": "ae4360e364b0b68e76b47bcb4e1fb796"}, {"is_disabled": 0, "is_reserved": 0, "fusion_lat": 0.0, "lat": 38.917314833333336, "fusion_lon": 0.0, "rental_uris": {"ios": "https://dc.lft.to/lastmile_qr_scan", "android": "https://dc.lft.to/lastmile_qr_scan"}, "lon": -77.02599983333333, "bike_id": "1c2e8d54c705b439efcc562b84990069", "type": "electric_scooter", "name": "1c2e8d54c705b439efcc562b84990069"}, {"is_disabled": 0, "is_reserved": 0, "fusion_lat": 0.0, "lat": 38.912749, "fusion_lon": 0.0, "rental_uris": {"ios": "https://dc.lft.to/lastmile_qr_scan", "android": "https://dc.lft.to/lastmile_qr_scan"}, "lon": -77.00214616666666, "bike_id": "9af6704f7f05c787313ea7358aac0683", "type": "electric_scooter", "name": "9af6704f7f05c787313ea7358aac0683"}, {"is_disabled": 0, "is_reserved": 0, "fusion_lat": 0.0, "lat": 38.925848, "fusion_lon": 0.0, "rental_uris": {"ios": "https://dc.lft.to/lastmile_qr_scan", "android": "https://dc.lft.to/lastmile_qr_scan"}, "lon": -77.02832666666667, "bike_id": "43d7c7858f4e25f709b9a9afb346b791", "type": "electric_scooter", "name": "43d7c7858f4e25f709b9a9afb346b791"}, {"is_disabled": 0, "is_reserved": 0, "fusion_lat": 0.0, "lat": 38.890861, "fusion_lon": 0.0, "rental_uris": {"ios": "https://dc.lft.to/lastmile_qr_scan", "android": "https://dc.lft.to/lastmile_qr_scan"}, "lon": -76.954746, "bike_id": "12dce13f30e9a9fc4b485a2103c6c3c4", "type": "electric_bike", "name": "12dce13f30e9a9fc4b485a2103c6c3c4"}, {"is_disabled": 0, "is_reserved": 0, "fusion_lat": 0.0, "lat": 38.93061566666667, "fusion_lon": 0.0, "rental_uris": {"ios": "https://dc.lft.to/lastmile_qr_scan", "android": "https://dc.lft.to/lastmile_qr_scan"}, "lon": -76.973251, "bike_id": "1d021a14c6ee910e32c78d0b4a38dc8d", "type": "electric_scooter", "name": "1d021a14c6ee910e32c78d0b4a38dc8d"}, {"is_disabled": 0, "is_reserved": 0, "fusion_lat": 0.0, "lat": 38.95639516666667, "fusion_lon": 0.0, "rental_uris": {"ios": "https://dc.lft.to/lastmile_qr_scan", "android": "https://dc.lft.to/lastmile_qr_scan"}, "lon": -77.03630916666667, "bike_id": "daa6dbaf0fc8f321907bb9f273d7efa7", "type": "electric_scooter", "name": "daa6dbaf0fc8f321907bb9f273d7efa7"}, {"is_disabled": 0, "is_reserved": 0, "fusion_lat": 0.0, "lat": 38.927304666666664, "fusion_lon": 0.0, "rental_uris": {"ios": "https://dc.lft.to/lastmile_qr_scan", "android": "https://dc.lft.to/lastmile_qr_scan"}, "lon": -77.022784, "bike_id": "2370cc69794284da313ec0d5c5dc83c5", "type": "electric_scooter", "name": "2370cc69794284da313ec0d5c5dc83c5"}, {"is_disabled": 0, "is_reserved": 0, "fusion_lat": 0.0, "lat": 38.916069, "fusion_lon": 0.0, "rental_uris": {"ios": "https://dc.lft.to/lastmile_qr_scan", "android": "https://dc.lft.to/lastmile_qr_scan"}, "lon": -77.02113616666666, "bike_id": "f5a977055eda6ad3abeffe21d10ef4bb", "type": "electric_scooter", "name": "f5a977055eda6ad3abeffe21d10ef4bb"}, {"is_disabled": 0, "is_reserved": 0, "fusion_lat": 0.0, "lat": 38.922299833333334, "fusion_lon": 0.0, "rental_uris": {"ios": "https://dc.lft.to/lastmile_qr_scan", "android": "https://dc.lft.to/lastmile_qr_scan"}, "lon": -76.97530766666667, "bike_id": "19de9eb8f131d121a5df08a47406cbec", "type": "electric_scooter", "name": "19de9eb8f131d121a5df08a47406cbec"}, {"is_disabled": 0, "is_reserved": 0, "fusion_lat": 0.0, "lat": 38.934106166666666, "fusion_lon": 0.0, "rental_uris": {"ios": "https://dc.lft.to/lastmile_qr_scan", "android": "https://dc.lft.to/lastmile_qr_scan"}, "lon": -77.02048683333334, "bike_id": "4cc53d536eb6614f0bb53d33c8d9515e", "type": "electric_scooter", "name": "4cc53d536eb6614f0bb53d33c8d9515e"}, {"is_disabled": 0, "is_reserved": 0, "fusion_lat": 0.0, "lat": 38.9034815, "fusion_lon": 0.0, "rental_uris": {"ios": "https://dc.lft.to/lastmile_qr_scan", "android": "https://dc.lft.to/lastmile_qr_scan"}, "lon": -77.04017133333333, "bike_id": "fac76eec2637ea3ea744a9cef0715a43", "type": "electric_scooter", "name": "fac76eec2637ea3ea744a9cef0715a43"}, {"is_disabled": 0, "is_reserved": 0, "fusion_lat": 0.0, "lat": 38.91026266666667, "fusion_lon": 0.0, "rental_uris": {"ios": "https://dc.lft.to/lastmile_qr_scan", "android": "https://dc.lft.to/lastmile_qr_scan"}, "lon": -77.03449716666667, "bike_id": "de542fec2a70a9a44deff588e6f55aaa", "type": "electric_scooter", "name": "de542fec2a70a9a44deff588e6f55aaa"}, {"is_disabled": 0, "is_reserved": 0, "fusion_lat": 0.0, "lat": 38.9081015, "fusion_lon": 0.0, "rental_uris": {"ios": "https://dc.lft.to/lastmile_qr_scan", "android": "https://dc.lft.to/lastmile_qr_scan"}, "lon": -77.03032383333333, "bike_id": "f70f1b890868684a7ea406feab575847", "type": "electric_scooter", "name": "f70f1b890868684a7ea406feab575847"}, {"is_disabled": 0, "is_reserved": 0, "fusion_lat": 0.0, "lat": 38.897568666666665, "fusion_lon": 0.0, "rental_uris": {"ios": "https://dc.lft.to/lastmile_qr_scan", "android": "https://dc.lft.to/lastmile_qr_scan"}, "lon": -77.03303783333334, "bike_id": "70f486ea22904c3d74b96a24bfca2965", "type": "electric_scooter", "name": "70f486ea22904c3d74b96a24bfca2965"}, {"is_disabled": 0, "is_reserved": 0, "fusion_lat": 0.0, "lat": 38.92817216666667, "fusion_lon": 0.0, "rental_uris": {"ios": "https://dc.lft.to/lastmile_qr_scan", "android": "https://dc.lft.to/lastmile_qr_scan"}, "lon": -77.04357983333334, "bike_id": "fc1794263b0313ab967158302971a19e", "type": "electric_scooter", "name": "fc1794263b0313ab967158302971a19e"}, {"is_disabled": 0, "is_reserved": 0, "fusion_lat": 0.0, "lat": 38.92507, "fusion_lon": 0.0, "rental_uris": {"ios": "https://dc.lft.to/lastmile_qr_scan", "android": "https://dc.lft.to/lastmile_qr_scan"}, "lon": -77.02267966666666, "bike_id": "957018d00766f6055dd4f473f3f8d9a6", "type": "electric_scooter", "name": "957018d00766f6055dd4f473f3f8d9a6"}, {"is_disabled": 0, "is_reserved": 0, "fusion_lat": 0.0, "lat": 38.900835, "fusion_lon": 0.0, "rental_uris": {"ios": "https://dc.lft.to/lastmile_qr_scan", "android": "https://dc.lft.to/lastmile_qr_scan"}, "lon": -77.04356466666667, "bike_id": "d84d9d64bb5c862396efdb4e658ecae4", "type": "electric_scooter", "name": "d84d9d64bb5c862396efdb4e658ecae4"}, {"is_disabled": 0, "is_reserved": 0, "fusion_lat": 0.0, "lat": 38.94310216666667, "fusion_lon": 0.0, "rental_uris": {"ios": "https://dc.lft.to/lastmile_qr_scan", "android": "https://dc.lft.to/lastmile_qr_scan"}, "lon": -77.07722416666667, "bike_id": "fc5748c87fa1917b099a94641b7cd444", "type": "electric_scooter", "name": "fc5748c87fa1917b099a94641b7cd444"}, {"is_disabled": 0, "is_reserved": 0, "fusion_lat": 0.0, "lat": 38.919551, "fusion_lon": 0.0, "rental_uris": {"ios": "https://dc.lft.to/lastmile_qr_scan", "android": "https://dc.lft.to/lastmile_qr_scan"}, "lon": -77.01383583333333, "bike_id": "875bffe5cf9998b714078a3577c49bd7", "type": "electric_scooter", "name": "875bffe5cf9998b714078a3577c49bd7"}, {"is_disabled": 0, "is_reserved": 0, "fusion_lat": 0.0, "lat": 38.957278, "fusion_lon": 0.0, "rental_uris": {"ios": "https://dc.lft.to/lastmile_qr_scan", "android": "https://dc.lft.to/lastmile_qr_scan"}, "lon": -77.025763, "bike_id": "5cda3a48bd35c0b58d33d85ff99bfab4", "type": "electric_scooter", "name": "5cda3a48bd35c0b58d33d85ff99bfab4"}, {"is_disabled": 0, "is_reserved": 0, "fusion_lat": 0.0, "lat": 38.9178035, "fusion_lon": 0.0, "rental_uris": {"ios": "https://dc.lft.to/lastmile_qr_scan", "android": "https://dc.lft.to/lastmile_qr_scan"}, "lon": -77.02297833333333, "bike_id": "5738c62a6c084de81a639344e9728002", "type": "electric_scooter", "name": "5738c62a6c084de81a639344e9728002"}, {"is_disabled": 0, "is_reserved": 0, "fusion_lat": 0.0, "lat": 38.871005833333335, "fusion_lon": 0.0, "rental_uris": {"ios": "https://dc.lft.to/lastmile_qr_scan", "android": "https://dc.lft.to/lastmile_qr_scan"}, "lon": -77.01211166666667, "bike_id": "a0991c003882b1855a18aad5b87c30f2", "type": "electric_scooter", "name": "a0991c003882b1855a18aad5b87c30f2"}, {"is_disabled": 0, "is_reserved": 0, "fusion_lat": 0.0, "lat": 38.921357, "fusion_lon": 0.0, "rental_uris": {"ios": "https://dc.lft.to/lastmile_qr_scan", "android": "https://dc.lft.to/lastmile_qr_scan"}, "lon": -77.01818783333333, "bike_id": "fa27a7e1eaf1479f747c7885ce3f3ac3", "type": "electric_scooter", "name": "fa27a7e1eaf1479f747c7885ce3f3ac3"}, {"is_disabled": 0, "is_reserved": 0, "fusion_lat": 0.0, "lat": 38.91695333333333, "fusion_lon": 0.0, "rental_uris": {"ios": "https://dc.lft.to/lastmile_qr_scan", "android": "https://dc.lft.to/lastmile_qr_scan"}, "lon": -77.034662, "bike_id": "59db4b234d73e46537dd978e4a37e98b", "type": "electric_scooter", "name": "59db4b234d73e46537dd978e4a37e98b"}, {"is_disabled": 0, "is_reserved": 0, "fusion_lat": 0.0, "lat": 38.879209333333336, "fusion_lon": 0.0, "rental_uris": {"ios": "https://dc.lft.to/lastmile_qr_scan", "android": "https://dc.lft.to/lastmile_qr_scan"}, "lon": -77.02152033333333, "bike_id": "780f641241574fb380c18efb6bed46c0", "type": "electric_scooter", "name": "780f641241574fb380c18efb6bed46c0"}, {"is_disabled": 0, "is_reserved": 0, "fusion_lat": 0.0, "lat": 38.9053065, "fusion_lon": 0.0, "rental_uris": {"ios": "https://dc.lft.to/lastmile_qr_scan", "android": "https://dc.lft.to/lastmile_qr_scan"}, "lon": -77.05878816666667, "bike_id": "d22246c47d9971a28992d9ce6b8f05a0", "type": "electric_scooter", "name": "d22246c47d9971a28992d9ce6b8f05a0"}, {"is_disabled": 0, "is_reserved": 0, "fusion_lat": 0.0, "lat": 38.900778, "fusion_lon": 0.0, "rental_uris": {"ios": "https://dc.lft.to/lastmile_qr_scan", "android": "https://dc.lft.to/lastmile_qr_scan"}, "lon": -77.0447525, "bike_id": "0dc839baeadfd87d0d3f59b36845ae06", "type": "electric_scooter", "name": "0dc839baeadfd87d0d3f59b36845ae06"}, {"is_disabled": 0, "is_reserved": 0, "fusion_lat": 0.0, "lat": 38.9369975, "fusion_lon": 0.0, "rental_uris": {"ios": "https://dc.lft.to/lastmile_qr_scan", "android": "https://dc.lft.to/lastmile_qr_scan"}, "lon": -77.0559405, "bike_id": "d8016de797d275cf323de8bb95f244fe", "type": "electric_scooter", "name": "d8016de797d275cf323de8bb95f244fe"}, {"is_disabled": 0, "is_reserved": 0, "fusion_lat": 0.0, "lat": 38.915658, "fusion_lon": 0.0, "rental_uris": {"ios": "https://dc.lft.to/lastmile_qr_scan", "android": "https://dc.lft.to/lastmile_qr_scan"}, "lon": -77.020835, "bike_id": "34027f59e5d1385979df31684a95c24d", "type": "electric_scooter", "name": "34027f59e5d1385979df31684a95c24d"}, {"is_disabled": 0, "is_reserved": 0, "fusion_lat": 0.0, "lat": 38.905330666666664, "fusion_lon": 0.0, "rental_uris": {"ios": "https://dc.lft.to/lastmile_qr_scan", "android": "https://dc.lft.to/lastmile_qr_scan"}, "lon": -77.058757, "bike_id": "09570afc1795cef2f3c99080aa4f9932", "type": "electric_scooter", "name": "09570afc1795cef2f3c99080aa4f9932"}, {"is_disabled": 0, "is_reserved": 0, "fusion_lat": 0.0, "lat": 38.953047166666664, "fusion_lon": 0.0, "rental_uris": {"ios": "https://dc.lft.to/lastmile_qr_scan", "android": "https://dc.lft.to/lastmile_qr_scan"}, "lon": -77.02019566666667, "bike_id": "9c6faa5f3241a7a76e237fe7f9cf8784", "type": "electric_scooter", "name": "9c6faa5f3241a7a76e237fe7f9cf8784"}, {"is_disabled": 0, "is_reserved": 0, "fusion_lat": 0.0, "lat": 38.90267733333334, "fusion_lon": 0.0, "rental_uris": {"ios": "https://dc.lft.to/lastmile_qr_scan", "android": "https://dc.lft.to/lastmile_qr_scan"}, "lon": -77.01752116666667, "bike_id": "d2a566786947aff50a659d92dca8e9ae", "type": "electric_scooter", "name": "d2a566786947aff50a659d92dca8e9ae"}, {"is_disabled": 0, "is_reserved": 0, "fusion_lat": 0.0, "lat": 38.88582666666667, "fusion_lon": 0.0, "rental_uris": {"ios": "https://dc.lft.to/lastmile_qr_scan", "android": "https://dc.lft.to/lastmile_qr_scan"}, "lon": -77.01227233333333, "bike_id": "8fbdb7d8b058d50ec0b0056e750a1149", "type": "electric_scooter", "name": "8fbdb7d8b058d50ec0b0056e750a1149"}, {"is_disabled": 0, "is_reserved": 0, "fusion_lat": 0.0, "lat": 38.9536825, "fusion_lon": 0.0, "rental_uris": {"ios": "https://dc.lft.to/lastmile_qr_scan", "android": "https://dc.lft.to/lastmile_qr_scan"}, "lon": -76.99841783333333, "bike_id": "f9a991336f46efd1b3adc4232b5479c3", "type": "electric_scooter", "name": "f9a991336f46efd1b3adc4232b5479c3"}, {"is_disabled": 0, "is_reserved": 0, "fusion_lat": 0.0, "lat": 38.912787, "fusion_lon": 0.0, "rental_uris": {"ios": "https://dc.lft.to/lastmile_qr_scan", "android": "https://dc.lft.to/lastmile_qr_scan"}, "lon": -77.01735433333333, "bike_id": "4e72f77bd1b14724b6453dbda68168a7", "type": "electric_scooter", "name": "4e72f77bd1b14724b6453dbda68168a7"}, {"is_disabled": 0, "is_reserved": 0, "fusion_lat": 0.0, "lat": 38.91156483333334, "fusion_lon": 0.0, "rental_uris": {"ios": "https://dc.lft.to/lastmile_qr_scan", "android": "https://dc.lft.to/lastmile_qr_scan"}, "lon": -77.01996183333333, "bike_id": "b121718eda110a056f8a477e52939f25", "type": "electric_scooter", "name": "b121718eda110a056f8a477e52939f25"}, {"is_disabled": 0, "is_reserved": 0, "fusion_lat": 0.0, "lat": 38.92505583333333, "fusion_lon": 0.0, "rental_uris": {"ios": "https://dc.lft.to/lastmile_qr_scan", "android": "https://dc.lft.to/lastmile_qr_scan"}, "lon": -77.02445083333333, "bike_id": "49160ef6888582335d914d3c8b579207", "type": "electric_scooter", "name": "49160ef6888582335d914d3c8b579207"}, {"is_disabled": 0, "is_reserved": 0, "fusion_lat": 0.0, "lat": 38.928000833333336, "fusion_lon": 0.0, "rental_uris": {"ios": "https://dc.lft.to/lastmile_qr_scan", "android": "https://dc.lft.to/lastmile_qr_scan"}, "lon": -77.0213275, "bike_id": "a6016b6600bc6dcf1e7efa2ce5ed8f2d", "type": "electric_scooter", "name": "a6016b6600bc6dcf1e7efa2ce5ed8f2d"}, {"is_disabled": 0, "is_reserved": 0, "fusion_lat": 0.0, "lat": 38.9213485, "fusion_lon": 0.0, "rental_uris": {"ios": "https://dc.lft.to/lastmile_qr_scan", "android": "https://dc.lft.to/lastmile_qr_scan"}, "lon": -77.00401, "bike_id": "1dcbb5ff2621ef9d00f9c8bdac048af0", "type": "electric_scooter", "name": "1dcbb5ff2621ef9d00f9c8bdac048af0"}, {"is_disabled": 0, "is_reserved": 0, "fusion_lat": 0.0, "lat": 38.952404, "fusion_lon": 0.0, "rental_uris": {"ios": "https://dc.lft.to/lastmile_qr_scan", "android": "https://dc.lft.to/lastmile_qr_scan"}, "lon": -76.98248816666667, "bike_id": "5ce76c008d4f3316e920873498d15128", "type": "electric_bike", "name": "5ce76c008d4f3316e920873498d15128"}, {"is_disabled": 0, "is_reserved": 0, "fusion_lat": 0.0, "lat": 38.9014575, "fusion_lon": 0.0, "rental_uris": {"ios": "https://dc.lft.to/lastmile_qr_scan", "android": "https://dc.lft.to/lastmile_qr_scan"}, "lon": -77.015035, "bike_id": "974f514b4c7abd27a0e5aa570cc53d7a", "type": "electric_scooter", "name": "974f514b4c7abd27a0e5aa570cc53d7a"}, {"is_disabled": 0, "is_reserved": 0, "fusion_lat": 0.0, "lat": 38.897418, "fusion_lon": 0.0, "rental_uris": {"ios": "https://dc.lft.to/lastmile_qr_scan", "android": "https://dc.lft.to/lastmile_qr_scan"}, "lon": -77.00776266666666, "bike_id": "eb16baf7f3ead58b672d7de56f54a781", "type": "electric_scooter", "name": "eb16baf7f3ead58b672d7de56f54a781"}, {"is_disabled": 0, "is_reserved": 0, "fusion_lat": 0.0, "lat": 38.928151666666665, "fusion_lon": 0.0, "rental_uris": {"ios": "https://dc.lft.to/lastmile_qr_scan", "android": "https://dc.lft.to/lastmile_qr_scan"}, "lon": -77.043365, "bike_id": "c4c19fd95a14238761e555296dab0c21", "type": "electric_scooter", "name": "c4c19fd95a14238761e555296dab0c21"}, {"is_disabled": 0, "is_reserved": 0, "fusion_lat": 0.0, "lat": 38.92031216666667, "fusion_lon": 0.0, "rental_uris": {"ios": "https://dc.lft.to/lastmile_qr_scan", "android": "https://dc.lft.to/lastmile_qr_scan"}, "lon": -77.0175495, "bike_id": "b766fb59287b6438ac86c30027fc382c", "type": "electric_scooter", "name": "b766fb59287b6438ac86c30027fc382c"}, {"is_disabled": 0, "is_reserved": 0, "fusion_lat": 0.0, "lat": 38.90394, "fusion_lon": 0.0, "rental_uris": {"ios": "https://dc.lft.to/lastmile_qr_scan", "android": "https://dc.lft.to/lastmile_qr_scan"}, "lon": -77.065135, "bike_id": "dee7f17a494efbd1dbb4a8011fe5b963", "type": "electric_scooter", "name": "dee7f17a494efbd1dbb4a8011fe5b963"}, {"is_disabled": 0, "is_reserved": 0, "fusion_lat": 0.0, "lat": 38.92741616666667, "fusion_lon": 0.0, "rental_uris": {"ios": "https://dc.lft.to/lastmile_qr_scan", "android": "https://dc.lft.to/lastmile_qr_scan"}, "lon": -77.02280433333334, "bike_id": "ee8b7bf4ffb78b447bf6f5332b3f8518", "type": "electric_scooter", "name": "ee8b7bf4ffb78b447bf6f5332b3f8518"}, {"is_disabled": 0, "is_reserved": 0, "fusion_lat": 0.0, "lat": 38.906514, "fusion_lon": 0.0, "rental_uris": {"ios": "https://dc.lft.to/lastmile_qr_scan", "android": "https://dc.lft.to/lastmile_qr_scan"}, "lon": -77.02481133333333, "bike_id": "30346c7b1373e71cb6e574ecf3718fbc", "type": "electric_scooter", "name": "30346c7b1373e71cb6e574ecf3718fbc"}, {"is_disabled": 0, "is_reserved": 0, "fusion_lat": 0.0, "lat": 38.950884, "fusion_lon": 0.0, "rental_uris": {"ios": "https://dc.lft.to/lastmile_qr_scan", "android": "https://dc.lft.to/lastmile_qr_scan"}, "lon": -77.012281, "bike_id": "91ebab627308c49ebae29b4bec9db534", "type": "electric_bike", "name": "91ebab627308c49ebae29b4bec9db534"}, {"is_disabled": 0, "is_reserved": 0, "fusion_lat": 0.0, "lat": 38.89520433333333, "fusion_lon": 0.0, "rental_uris": {"ios": "https://dc.lft.to/lastmile_qr_scan", "android": "https://dc.lft.to/lastmile_qr_scan"}, "lon": -77.02438483333333, "bike_id": "26a7766abbc27e9c03b807d30b03d417", "type": "electric_scooter", "name": "26a7766abbc27e9c03b807d30b03d417"}, {"is_disabled": 0, "is_reserved": 0, "fusion_lat": 0.0, "lat": 38.894998666666666, "fusion_lon": 0.0, "rental_uris": {"ios": "https://dc.lft.to/lastmile_qr_scan", "android": "https://dc.lft.to/lastmile_qr_scan"}, "lon": -77.0231315, "bike_id": "a2502f6f509dd01e1d8a17311d689c46", "type": "electric_scooter", "name": "a2502f6f509dd01e1d8a17311d689c46"}, {"is_disabled": 0, "is_reserved": 0, "fusion_lat": 0.0, "lat": 38.91696066666667, "fusion_lon": 0.0, "rental_uris": {"ios": "https://dc.lft.to/lastmile_qr_scan", "android": "https://dc.lft.to/lastmile_qr_scan"}, "lon": -77.02855516666666, "bike_id": "dfaff6bd0f481a297536b54144bab0f7", "type": "electric_scooter", "name": "dfaff6bd0f481a297536b54144bab0f7"}, {"is_disabled": 0, "is_reserved": 0, "fusion_lat": 0.0, "lat": 38.936576333333335, "fusion_lon": 0.0, "rental_uris": {"ios": "https://dc.lft.to/lastmile_qr_scan", "android": "https://dc.lft.to/lastmile_qr_scan"}, "lon": -77.06606566666666, "bike_id": "64b1f048fbcc17287f63025217f388f1", "type": "electric_scooter", "name": "64b1f048fbcc17287f63025217f388f1"}, {"is_disabled": 0, "is_reserved": 0, "fusion_lat": 0.0, "lat": 38.9289055, "fusion_lon": 0.0, "rental_uris": {"ios": "https://dc.lft.to/lastmile_qr_scan", "android": "https://dc.lft.to/lastmile_qr_scan"}, "lon": -77.019411, "bike_id": "c1d49381924c16998f6c8b1d0a794f01", "type": "electric_scooter", "name": "c1d49381924c16998f6c8b1d0a794f01"}, {"is_disabled": 0, "is_reserved": 0, "fusion_lat": 0.0, "lat": 38.9285125, "fusion_lon": 0.0, "rental_uris": {"ios": "https://dc.lft.to/lastmile_qr_scan", "android": "https://dc.lft.to/lastmile_qr_scan"}, "lon": -77.03733, "bike_id": "b9b7c01ab94d5f13c76e1b06757ab66f", "type": "electric_scooter", "name": "b9b7c01ab94d5f13c76e1b06757ab66f"}, {"is_disabled": 0, "is_reserved": 0, "fusion_lat": 0.0, "lat": 38.92084666666667, "fusion_lon": 0.0, "rental_uris": {"ios": "https://dc.lft.to/lastmile_qr_scan", "android": "https://dc.lft.to/lastmile_qr_scan"}, "lon": -77.02523466666666, "bike_id": "1cb5b893f7ba1c5cef96a821ef5d0096", "type": "electric_scooter", "name": "1cb5b893f7ba1c5cef96a821ef5d0096"}, {"is_disabled": 0, "is_reserved": 0, "fusion_lat": 0.0, "lat": 38.803989333333334, "fusion_lon": 0.0, "rental_uris": {"ios": "https://dc.lft.to/lastmile_qr_scan", "android": "https://dc.lft.to/lastmile_qr_scan"}, "lon": -77.113347, "bike_id": "42b62236733e8deddd5c755dd1bec67d", "type": "electric_bike", "name": "42b62236733e8deddd5c755dd1bec67d"}, {"is_disabled": 0, "is_reserved": 0, "fusion_lat": 0.0, "lat": 38.855911166666665, "fusion_lon": 0.0, "rental_uris": {"ios": "https://dc.lft.to/lastmile_qr_scan", "android": "https://dc.lft.to/lastmile_qr_scan"}, "lon": -76.97282, "bike_id": "b9820051fe627c8bf8dbff45e3475848", "type": "electric_bike", "name": "b9820051fe627c8bf8dbff45e3475848"}, {"is_disabled": 0, "is_reserved": 0, "fusion_lat": 0.0, "lat": 38.911199833333335, "fusion_lon": 0.0, "rental_uris": {"ios": "https://dc.lft.to/lastmile_qr_scan", "android": "https://dc.lft.to/lastmile_qr_scan"}, "lon": -77.043544, "bike_id": "bc9e059cae38025fb44c2b85394e3611", "type": "electric_scooter", "name": "bc9e059cae38025fb44c2b85394e3611"}, {"is_disabled": 0, "is_reserved": 0, "fusion_lat": 0.0, "lat": 38.93270183333333, "fusion_lon": 0.0, "rental_uris": {"ios": "https://dc.lft.to/lastmile_qr_scan", "android": "https://dc.lft.to/lastmile_qr_scan"}, "lon": -77.02081816666667, "bike_id": "2e49ce0d7397d6492e9a7d8744e3d198", "type": "electric_scooter", "name": "2e49ce0d7397d6492e9a7d8744e3d198"}, {"is_disabled": 0, "is_reserved": 0, "fusion_lat": 0.0, "lat": 39.07441716666667, "fusion_lon": 0.0, "rental_uris": {"ios": "https://dc.lft.to/lastmile_qr_scan", "android": "https://dc.lft.to/lastmile_qr_scan"}, "lon": -77.115217, "bike_id": "16dc0115820f41f3cb865b0e7fc6b8be", "type": "electric_bike", "name": "16dc0115820f41f3cb865b0e7fc6b8be"}, {"is_disabled": 0, "is_reserved": 0, "fusion_lat": 0.0, "lat": 38.90873716666667, "fusion_lon": 0.0, "rental_uris": {"ios": "https://dc.lft.to/lastmile_qr_scan", "android": "https://dc.lft.to/lastmile_qr_scan"}, "lon": -77.0319485, "bike_id": "c42e86391c7405a3e6f7d5635d9d18de", "type": "electric_scooter", "name": "c42e86391c7405a3e6f7d5635d9d18de"}, {"is_disabled": 0, "is_reserved": 0, "fusion_lat": 0.0, "lat": 38.92138683333334, "fusion_lon": 0.0, "rental_uris": {"ios": "https://dc.lft.to/lastmile_qr_scan", "android": "https://dc.lft.to/lastmile_qr_scan"}, "lon": -77.01804166666666, "bike_id": "8e22ccecb721ceed0a346c68b777f73e", "type": "electric_scooter", "name": "8e22ccecb721ceed0a346c68b777f73e"}, {"is_disabled": 0, "is_reserved": 0, "fusion_lat": 0.0, "lat": 38.892266666666664, "fusion_lon": 0.0, "rental_uris": {"ios": "https://dc.lft.to/lastmile_qr_scan", "android": "https://dc.lft.to/lastmile_qr_scan"}, "lon": -77.043358, "bike_id": "f9fd0158c79f35feb0a5984b3ca63c13", "type": "electric_scooter", "name": "f9fd0158c79f35feb0a5984b3ca63c13"}, {"is_disabled": 0, "is_reserved": 0, "fusion_lat": 0.0, "lat": 38.90270966666667, "fusion_lon": 0.0, "rental_uris": {"ios": "https://dc.lft.to/lastmile_qr_scan", "android": "https://dc.lft.to/lastmile_qr_scan"}, "lon": -77.0345005, "bike_id": "4ff23799b351f9902745f927d47d059c", "type": "electric_scooter", "name": "4ff23799b351f9902745f927d47d059c"}, {"is_disabled": 0, "is_reserved": 0, "fusion_lat": 0.0, "lat": 38.998466666666666, "fusion_lon": 0.0, "rental_uris": {"ios": "https://dc.lft.to/lastmile_qr_scan", "android": "https://dc.lft.to/lastmile_qr_scan"}, "lon": -77.00251933333334, "bike_id": "859e5b56316376c86f663b2341add8e8", "type": "electric_bike", "name": "859e5b56316376c86f663b2341add8e8"}, {"is_disabled": 0, "is_reserved": 0, "fusion_lat": 0.0, "lat": 38.875641333333334, "fusion_lon": 0.0, "rental_uris": {"ios": "https://dc.lft.to/lastmile_qr_scan", "android": "https://dc.lft.to/lastmile_qr_scan"},