{"data": {"bikes": [{"type": "electric_scooter", "fusion_lon": 0.0, "fusion_lat": 0.0, "rental_uris": {"android": "https://dc.lft.to/lastmile_qr_scan", "ios": "https://dc.lft.to/lastmile_qr_scan"}, "bike_id": "3e46e27980f187c61a94dc677cba605e", "is_reserved": 0, "lon": -77.046428, "name": "3e46e27980f187c61a94dc677cba605e", "is_disabled": 0, "lat": 38.892202833333336}, {"type": "electric_scooter", "fusion_lon": 0.0, "fusion_lat": 0.0, "rental_uris": {"android": "https://dc.lft.to/lastmile_qr_scan", "ios": "https://dc.lft.to/lastmile_qr_scan"}, "bike_id": "d5e49835c21cfb3588a9bd83aef96ce2", "is_reserved": 0, "lon": -77.00744716666667, "name": "d5e49835c21cfb3588a9bd83aef96ce2", "is_disabled": 0, "lat": 38.90066616666667}, {"type": "electric_scooter", "fusion_lon": 0.0, "fusion_lat": 0.0, "rental_uris": {"android": "https://dc.lft.to/lastmile_qr_scan", "ios": "https://dc.lft.to/lastmile_qr_scan"}, "bike_id": "ccc874cba7e46dfcaf0b031d365e040d", "is_reserved": 0, "lon": -77.03649966666667, "name": "ccc874cba7e46dfcaf0b031d365e040d", "is_disabled": 0, "lat": 38.913191166666664}, {"type": "electric_scooter", "fusion_lon": 0.0, "fusion_lat": 0.0, "rental_uris": {"android": "https://dc.lft.to/lastmile_qr_scan", "ios": "https://dc.lft.to/lastmile_qr_scan"}, "bike_id": "45245e5fdba7684a3d7768be7a141d6b", "is_reserved": 0, "lon": -77.03323566666667, "name": "45245e5fdba7684a3d7768be7a141d6b", "is_disabled": 0, "lat": 38.938897}, {"type": "electric_scooter", "fusion_lon": 0.0, "fusion_lat": 0.0, "rental_uris": {"android": "https://dc.lft.to/lastmile_qr_scan", "ios": "https://dc.lft.to/lastmile_qr_scan"}, "bike_id": "0377ea967cf7718d90a16c31a990a94a", "is_reserved": 0, "lon": -77.04227183333333, "name": "0377ea967cf7718d90a16c31a990a94a", "is_disabled": 0, "lat": 38.92110916666667}, {"type": "electric_scooter", "fusion_lon": 0.0, "fusion_lat": 0.0, "rental_uris": {"android": "https://dc.lft.to/lastmile_qr_scan", "ios": "https://dc.lft.to/lastmile_qr_scan"}, "bike_id": "0a4fe9e7fe20fc55563093b6a2b9d8e6", "is_reserved": 0, "lon": -76.93359483333333, "name": "0a4fe9e7fe20fc55563093b6a2b9d8e6", "is_disabled": 0, "lat": 38.887991}, {"type": "electric_bike", "fusion_lon": 0.0, "fusion_lat": 0.0, "rental_uris": {"android": "https://dc.lft.to/lastmile_qr_scan", "ios": "https://dc.lft.to/lastmile_qr_scan"}, "bike_id": "5b705b7f29e3fd4463ab6cdff1f211c4", "is_reserved": 0, "lon": -77.00916566666666, "name": "5b705b7f29e3fd4463ab6cdff1f211c4", "is_disabled": 0, "lat": 38.82787066666667}, {"type": "electric_bike", "fusion_lon": 0.0, "fusion_lat": 0.0, "rental_uris": {"android": "https://dc.lft.to/lastmile_qr_scan", "ios": "https://dc.lft.to/lastmile_qr_scan"}, "bike_id": "89626cae64421a7d8de1315934a663cc", "is_reserved": 0, "lon": -77.04236533333334, "name": "89626cae64421a7d8de1315934a663cc", "is_disabled": 0, "lat": 38.80445433333333}, {"type": "electric_scooter", "fusion_lon": 0.0, "fusion_lat": 0.0, "rental_uris": {"android": "https://dc.lft.to/lastmile_qr_scan", "ios": "https://dc.lft.to/lastmile_qr_scan"}, "bike_id": "70d994f5dc1987496ce3e0bf6805c661", "is_reserved": 0, "lon": -77.0231165, "name": "70d994f5dc1987496ce3e0bf6805c661", "is_disabled": 0, "lat": 38.96611883333333}, {"type": "electric_scooter", "fusion_lon": 0.0, "fusion_lat": 0.0, "rental_uris": {"android": "https://dc.lft.to/lastmile_qr_scan", "ios": "https://dc.lft.to/lastmile_qr_scan"}, "bike_id": "c4c53e7bfa8b47024f76e77317de8dc2", "is_reserved": 0, "lon": -77.02671183333334, "name": "c4c53e7bfa8b47024f76e77317de8dc2", "is_disabled": 0, "lat": 38.98429266666667}, {"type": "electric_scooter", "fusion_lon": 0.0, "fusion_lat": 0.0, "rental_uris": {"android": "https://dc.lft.to/lastmile_qr_scan", "ios": "https://dc.lft.to/lastmile_qr_scan"}, "bike_id": "4c655a0c09162e3879233fc1abfb11a7", "is_reserved": 0, "lon": -77.00201833333334, "name": "4c655a0c09162e3879233fc1abfb11a7", "is_disabled": 0, "lat": 38.902434666666664}, {"type": "electric_scooter", "fusion_lon": 0.0, "fusion_lat": 0.0, "rental_uris": {"android": "https://dc.lft.to/lastmile_qr_scan", "ios": "https://dc.lft.to/lastmile_qr_scan"}, "bike_id": "9d6511e67b3a342527fb041f8a9ce84a", "is_reserved": 0, "lon": -77.0450365, "name": "9d6511e67b3a342527fb041f8a9ce84a", "is_disabled": 0, "lat": 38.918583}, {"type": "electric_bike", "fusion_lon": 0.0, "fusion_lat": 0.0, "rental_uris": {"android": "https://dc.lft.to/lastmile_qr_scan", "ios": "https://dc.lft.to/lastmile_qr_scan"}, "bike_id": "356092b47f0886c7839e597a90cfc307", "is_reserved": 0, "lon": -76.96724416666666, "name": "356092b47f0886c7839e597a90cfc307", "is_disabled": 0, "lat": 38.951976333333334}, {"type": "electric_bike", "fusion_lon": 0.0, "fusion_lat": 0.0, "rental_uris": {"android": "https://dc.lft.to/lastmile_qr_scan", "ios": "https://dc.lft.to/lastmile_qr_scan"}, "bike_id": "48f584427fdb74caba0c38a64fbc49c0", "is_reserved": 0, "lon": -76.91076066666666, "name": "48f584427fdb74caba0c38a64fbc49c0", "is_disabled": 0, "lat": 39.0001175}, {"type": "electric_scooter", "fusion_lon": 0.0, "fusion_lat": 0.0, "rental_uris": {"android": "https://dc.lft.to/lastmile_qr_scan", "ios": "https://dc.lft.to/lastmile_qr_scan"}, "bike_id": "0fdc849a726eb1ceab7ed623d419959a", "is_reserved": 0, "lon": -76.97562083333334, "name": "0fdc849a726eb1ceab7ed623d419959a", "is_disabled": 0, "lat": 38.903478666666665}, {"type": "electric_scooter", "fusion_lon": 0.0, "fusion_lat": 0.0, "rental_uris": {"android": "https://dc.lft.to/lastmile_qr_scan", "ios": "https://dc.lft.to/lastmile_qr_scan"}, "bike_id": "2e9a1737dd29c045a8ce3589c852fd4f", "is_reserved": 0, "lon": -77.0551045, "name": "2e9a1737dd29c045a8ce3589c852fd4f", "is_disabled": 0, "lat": 38.92994766666666}, {"type": "electric_bike", "fusion_lon": 0.0, "fusion_lat": 0.0, "rental_uris": {"android": "https://dc.lft.to/lastmile_qr_scan", "ios": "https://dc.lft.to/lastmile_qr_scan"}, "bike_id": "1c70f45a8c973bd3c854ecaa6440ae59", "is_reserved": 0, "lon": -76.9899195, "name": "1c70f45a8c973bd3c854ecaa6440ae59", "is_disabled": 0, "lat": 38.86388516666667}, {"type": "electric_scooter", "fusion_lon": 0.0, "fusion_lat": 0.0, "rental_uris": {"android": "https://dc.lft.to/lastmile_qr_scan", "ios": "https://dc.lft.to/lastmile_qr_scan"}, "bike_id": "ebc8f4422f5618eda05591a01ac02699", "is_reserved": 0, "lon": -77.032843, "name": "ebc8f4422f5618eda05591a01ac02699", "is_disabled": 0, "lat": 38.93314383333333}, {"type": "electric_scooter", "fusion_lon": 0.0, "fusion_lat": 0.0, "rental_uris": {"android": "https://dc.lft.to/lastmile_qr_scan", "ios": "https://dc.lft.to/lastmile_qr_scan"}, "bike_id": "ff3d3a816317e7bc04b8839cd5e1fa01", "is_reserved": 0, "lon": -77.054944, "name": "ff3d3a816317e7bc04b8839cd5e1fa01", "is_disabled": 0, "lat": 38.9295355}, {"type": "electric_scooter", "fusion_lon": 0.0, "fusion_lat": 0.0, "rental_uris": {"android": "https://dc.lft.to/lastmile_qr_scan", "ios": "https://dc.lft.to/lastmile_qr_scan"}, "bike_id": "c642e17154a14061ef5b6f67e71318e4", "is_reserved": 0, "lon": -77.063551, "name": "c642e17154a14061ef5b6f67e71318e4", "is_disabled": 0, "lat": 38.906856166666664}, {"type": "electric_scooter", "fusion_lon": 0.0, "fusion_lat": 0.0, "rental_uris": {"android": "https://dc.lft.to/lastmile_qr_scan", "ios": "https://dc.lft.to/lastmile_qr_scan"}, "bike_id": "1aa8decd238a411635514a94a7a6d1f9", "is_reserved": 0, "lon": -77.04617283333333, "name": "1aa8decd238a411635514a94a7a6d1f9", "is_disabled": 0, "lat": 38.923202}, {"type": "electric_scooter", "fusion_lon": 0.0, "fusion_lat": 0.0, "rental_uris": {"android": "https://dc.lft.to/lastmile_qr_scan", "ios": "https://dc.lft.to/lastmile_qr_scan"}, "bike_id": "4849d850c7b22a6a5351747acc1f43b6", "is_reserved": 0, "lon": -77.010869, "name": "4849d850c7b22a6a5351747acc1f43b6", "is_disabled": 0, "lat": 38.903657833333334}, {"type": "electric_scooter", "fusion_lon": 0.0, "fusion_lat": 0.0, "rental_uris": {"android": "https://dc.lft.to/lastmile_qr_scan", "ios": "https://dc.lft.to/lastmile_qr_scan"}, "bike_id": "2c9eda3ac1caef62fa74db4d1006de63", "is_reserved": 0, "lon": -77.03211516666667, "name": "2c9eda3ac1caef62fa74db4d1006de63", "is_disabled": 0, "lat": 38.895304}, {"type": "electric_scooter", "fusion_lon": 0.0, "fusion_lat": 0.0, "rental_uris": {"android": "https://dc.lft.to/lastmile_qr_scan", "ios": "https://dc.lft.to/lastmile_qr_scan"}, "bike_id": "183f23f1379244d004843922955e98fb", "is_reserved": 0, "lon": -77.02983966666666, "name": "183f23f1379244d004843922955e98fb", "is_disabled": 0, "lat": 38.92238783333333}, {"type": "electric_scooter", "fusion_lon": 0.0, "fusion_lat": 0.0, "rental_uris": {"android": "https://dc.lft.to/lastmile_qr_scan", "ios": "https://dc.lft.to/lastmile_qr_scan"}, "bike_id": "618a3610b2049205b2293a4b46557551", "is_reserved": 0, "lon": -77.03326366666667, "name": "618a3610b2049205b2293a4b46557551", "is_disabled": 0, "lat": 38.903286}, {"type": "electric_bike", "fusion_lon": 0.0, "fusion_lat": 0.0, "rental_uris": {"android": "https://dc.lft.to/lastmile_qr_scan", "ios": "https://dc.lft.to/lastmile_qr_scan"}, "bike_id": "67ae7b9bd35982d689d983d4395e839e", "is_reserved": 0, "lon": -76.98090166666667, "name": "67ae7b9bd35982d689d983d4395e839e", "is_disabled": 0, "lat": 38.88421233333333}, {"type": "electric_bike", "fusion_lon": 0.0, "fusion_lat": 0.0, "rental_uris": {"android": "https://dc.lft.to/lastmile_qr_scan", "ios": "https://dc.lft.to/lastmile_qr_scan"}, "bike_id": "cabec2b28f686a9290fa8cf6b675ada1", "is_reserved": 0, "lon": -77.0783575, "name": "cabec2b28f686a9290fa8cf6b675ada1", "is_disabled": 0, "lat": 38.949233166666666}, {"type": "electric_scooter", "fusion_lon": 0.0, "fusion_lat": 0.0, "rental_uris": {"android": "https://dc.lft.to/lastmile_qr_scan", "ios": "https://dc.lft.to/lastmile_qr_scan"}, "bike_id": "006842da4ef9534fe65634ed7734a02b", "is_reserved": 0, "lon": -77.03840066666666, "name": "006842da4ef9534fe65634ed7734a02b", "is_disabled": 0, "lat": 38.9144365}, {"type": "electric_scooter", "fusion_lon": 0.0, "fusion_lat": 0.0, "rental_uris": {"android": "https://dc.lft.to/lastmile_qr_scan", "ios": "https://dc.lft.to/lastmile_qr_scan"}, "bike_id": "4e827cbcee5efefa12012ddc7c1146ee", "is_reserved": 0, "lon": -77.06781766666667, "name": "4e827cbcee5efefa12012ddc7c1146ee", "is_disabled": 0, "lat": 38.905275333333336}, {"type": "electric_scooter", "fusion_lon": 0.0, "fusion_lat": 0.0, "rental_uris": {"android": "https://dc.lft.to/lastmile_qr_scan", "ios": "https://dc.lft.to/lastmile_qr_scan"}, "bike_id": "707f019a9500a31498c7c5b56d476e2d", "is_reserved": 0, "lon": -77.043873, "name": "707f019a9500a31498c7c5b56d476e2d", "is_disabled": 0, "lat": 38.90729}, {"type": "electric_scooter", "fusion_lon": 0.0, "fusion_lat": 0.0, "rental_uris": {"android": "https://dc.lft.to/lastmile_qr_scan", "ios": "https://dc.lft.to/lastmile_qr_scan"}, "bike_id": "ab8589245dcb8bb61cd7718201695f6f", "is_reserved": 0, "lon": -77.07282216666667, "name": "ab8589245dcb8bb61cd7718201695f6f", "is_disabled": 0, "lat": 38.93489133333333}, {"type": "electric_scooter", "fusion_lon": 0.0, "fusion_lat": 0.0, "rental_uris": {"android": "https://dc.lft.to/lastmile_qr_scan", "ios": "https://dc.lft.to/lastmile_qr_scan"}, "bike_id": "f89d8a5e7b9350b333a821e35f8e0eb9", "is_reserved": 0, "lon": -76.99501966666666, "name": "f89d8a5e7b9350b333a821e35f8e0eb9", "is_disabled": 0, "lat": 38.9300695}, {"type": "electric_scooter", "fusion_lon": 0.0, "fusion_lat": 0.0, "rental_uris": {"android": "https://dc.lft.to/lastmile_qr_scan", "ios": "https://dc.lft.to/lastmile_qr_scan"}, "bike_id": "aafd70f64b4cd0e7835c68d81c22fc85", "is_reserved": 0, "lon": -77.08621616666667, "name": "aafd70f64b4cd0e7835c68d81c22fc85", "is_disabled": 0, "lat": 38.909046333333336}, {"type": "electric_scooter", "fusion_lon": 0.0, "fusion_lat": 0.0, "rental_uris": {"android": "https://dc.lft.to/lastmile_qr_scan", "ios": "https://dc.lft.to/lastmile_qr_scan"}, "bike_id": "f299bc335725b1bb60c79c5daee84f29", "is_reserved": 0, "lon": -77.05864166666667, "name": "f299bc335725b1bb60c79c5daee84f29", "is_disabled": 0, "lat": 38.906156833333334}, {"type": "electric_scooter", "fusion_lon": 0.0, "fusion_lat": 0.0, "rental_uris": {"android": "https://dc.lft.to/lastmile_qr_scan", "ios": "https://dc.lft.to/lastmile_qr_scan"}, "bike_id": "2cbba60868c769773b93166f66b2f72f", "is_reserved": 0, "lon": -77.00118566666667, "name": "2cbba60868c769773b93166f66b2f72f", "is_disabled": 0, "lat": 38.907605833333335}, {"type": "electric_scooter", "fusion_lon": 0.0, "fusion_lat": 0.0, "rental_uris": {"android": "https://dc.lft.to/lastmile_qr_scan", "ios": "https://dc.lft.to/lastmile_qr_scan"}, "bike_id": "e0477d57ee61745b077ea78eb6453df4", "is_reserved": 0, "lon": -77.06857483333333, "name": "e0477d57ee61745b077ea78eb6453df4", "is_disabled": 0, "lat": 38.911745}, {"type": "electric_scooter", "fusion_lon": 0.0, "fusion_lat": 0.0, "rental_uris": {"android": "https://dc.lft.to/lastmile_qr_scan", "ios": "https://dc.lft.to/lastmile_qr_scan"}, "bike_id": "8970c1ce0f0fcc647b8659c7ead2ae37", "is_reserved": 0, "lon": -76.98709133333334, "name": "8970c1ce0f0fcc647b8659c7ead2ae37", "is_disabled": 0, "lat": 38.866983}, {"type": "electric_scooter", "fusion_lon": 0.0, "fusion_lat": 0.0, "rental_uris": {"android": "https://dc.lft.to/lastmile_qr_scan", "ios": "https://dc.lft.to/lastmile_qr_scan"}, "bike_id": "5e3094bc663bbdab3a4f8aee8c4b997f", "is_reserved": 0, "lon": -77.03240883333333, "name": "5e3094bc663bbdab3a4f8aee8c4b997f", "is_disabled": 0, "lat": 38.927660833333334}, {"type": "electric_scooter", "fusion_lon": 0.0, "fusion_lat": 0.0, "rental_uris": {"android": "https://dc.lft.to/lastmile_qr_scan", "ios": "https://dc.lft.to/lastmile_qr_scan"}, "bike_id": "c13e0448729c9cc3bf6d7c1750d82d6d", "is_reserved": 0, "lon": -77.03234333333333, "name": "c13e0448729c9cc3bf6d7c1750d82d6d", "is_disabled": 0, "lat": 38.921638333333334}, {"type": "electric_scooter", "fusion_lon": 0.0, "fusion_lat": 0.0, "rental_uris": {"android": "https://dc.lft.to/lastmile_qr_scan", "ios": "https://dc.lft.to/lastmile_qr_scan"}, "bike_id": "eeaa743723147d4fbcb653f256d37fe5", "is_reserved": 0, "lon": -77.038822, "name": "eeaa743723147d4fbcb653f256d37fe5", "is_disabled": 0, "lat": 38.92507116666667}, {"type": "electric_scooter", "fusion_lon": 0.0, "fusion_lat": 0.0, "rental_uris": {"android": "https://dc.lft.to/lastmile_qr_scan", "ios": "https://dc.lft.to/lastmile_qr_scan"}, "bike_id": "8111748c008575bffe1bdf6fa4c4089c", "is_reserved": 0, "lon": -76.94632233333333, "name": "8111748c008575bffe1bdf6fa4c4089c", "is_disabled": 0, "lat": 38.89832783333333}, {"type": "electric_scooter", "fusion_lon": 0.0, "fusion_lat": 0.0, "rental_uris": {"android": "https://dc.lft.to/lastmile_qr_scan", "ios": "https://dc.lft.to/lastmile_qr_scan"}, "bike_id": "9b4493ef0c67b877a8258729517663fd", "is_reserved": 0, "lon": -77.029908, "name": "9b4493ef0c67b877a8258729517663fd", "is_disabled": 0, "lat": 38.90074466666667}, {"type": "electric_scooter", "fusion_lon": 0.0, "fusion_lat": 0.0, "rental_uris": {"android": "https://dc.lft.to/lastmile_qr_scan", "ios": "https://dc.lft.to/lastmile_qr_scan"}, "bike_id": "b2d30320fc443ce2ab4755792ee19df1", "is_reserved": 0, "lon": -77.032075, "name": "b2d30320fc443ce2ab4755792ee19df1", "is_disabled": 0, "lat": 38.897704833333336}, {"type": "electric_scooter", "fusion_lon": 0.0, "fusion_lat": 0.0, "rental_uris": {"android": "https://dc.lft.to/lastmile_qr_scan", "ios": "https://dc.lft.to/lastmile_qr_scan"}, "bike_id": "b898eb61ad15ffdfa5cc85f8340307db", "is_reserved": 0, "lon": -77.04505766666666, "name": "b898eb61ad15ffdfa5cc85f8340307db", "is_disabled": 0, "lat": 38.91856833333333}, {"type": "electric_scooter", "fusion_lon": 0.0, "fusion_lat": 0.0, "rental_uris": {"android": "https://dc.lft.to/lastmile_qr_scan", "ios": "https://dc.lft.to/lastmile_qr_scan"}, "bike_id": "715a5b2826e64bfa59f52f2e9718dc3b", "is_reserved": 0, "lon": -77.02307033333334, "name": "715a5b2826e64bfa59f52f2e9718dc3b", "is_disabled": 0, "lat": 38.9178635}, {"type": "electric_bike", "fusion_lon": 0.0, "fusion_lat": 0.0, "rental_uris": {"android": "https://dc.lft.to/lastmile_qr_scan", "ios": "https://dc.lft.to/lastmile_qr_scan"}, "bike_id": "59479b904744a9bf4d0c5cbf5b59f6ab", "is_reserved": 0, "lon": -76.89540883333333, "name": "59479b904744a9bf4d0c5cbf5b59f6ab", "is_disabled": 0, "lat": 38.945560666666665}, {"type": "electric_scooter", "fusion_lon": 0.0, "fusion_lat": 0.0, "rental_uris": {"android": "https://dc.lft.to/lastmile_qr_scan", "ios": "https://dc.lft.to/lastmile_qr_scan"}, "bike_id": "b62b787e3249d3947ee1a24d8d3c1760", "is_reserved": 0, "lon": -77.09263883333334, "name": "b62b787e3249d3947ee1a24d8d3c1760", "is_disabled": 0, "lat": 38.947024166666665}, {"type": "electric_scooter", "fusion_lon": 0.0, "fusion_lat": 0.0, "rental_uris": {"android": "https://dc.lft.to/lastmile_qr_scan", "ios": "https://dc.lft.to/lastmile_qr_scan"}, "bike_id": "3757b062232ae2558c3cd44e0fe7d834", "is_reserved": 0, "lon": -77.06259916666667, "name": "3757b062232ae2558c3cd44e0fe7d834", "is_disabled": 0, "lat": 38.90575416666667}, {"type": "electric_scooter", "fusion_lon": 0.0, "fusion_lat": 0.0, "rental_uris": {"android": "https://dc.lft.to/lastmile_qr_scan", "ios": "https://dc.lft.to/lastmile_qr_scan"}, "bike_id": "7295adaef0a722bae6b1e9d40c597b18", "is_reserved": 0, "lon": -77.04374916666667, "name": "7295adaef0a722bae6b1e9d40c597b18", "is_disabled": 0, "lat": 38.92068733333333}, {"type": "electric_scooter", "fusion_lon": 0.0, "fusion_lat": 0.0, "rental_uris": {"android": "https://dc.lft.to/lastmile_qr_scan", "ios": "https://dc.lft.to/lastmile_qr_scan"}, "bike_id": "e2722724136c472b134735d3fcaa6cfb", "is_reserved": 0, "lon": -77.04350266666667, "name": "e2722724136c472b134735d3fcaa6cfb", "is_disabled": 0, "lat": 38.907095}, {"type": "electric_scooter", "fusion_lon": 0.0, "fusion_lat": 0.0, "rental_uris": {"android": "https://dc.lft.to/lastmile_qr_scan", "ios": "https://dc.lft.to/lastmile_qr_scan"}, "bike_id": "e4a0144a73755ae422968ab48d26861a", "is_reserved": 0, "lon": -77.02627716666667, "name": "e4a0144a73755ae422968ab48d26861a", "is_disabled": 0, "lat": 38.917095333333336}, {"type": "electric_scooter", "fusion_lon": 0.0, "fusion_lat": 0.0, "rental_uris": {"android": "https://dc.lft.to/lastmile_qr_scan", "ios": "https://dc.lft.to/lastmile_qr_scan"}, "bike_id": "15abb3a74f2397d0cc05091d0537f8c7", "is_reserved": 0, "lon": -76.997776, "name": "15abb3a74f2397d0cc05091d0537f8c7", "is_disabled": 0, "lat": 38.844271166666665}, {"type": "electric_scooter", "fusion_lon": 0.0, "fusion_lat": 0.0, "rental_uris": {"android": "https://dc.lft.to/lastmile_qr_scan", "ios": "https://dc.lft.to/lastmile_qr_scan"}, "bike_id": "cd5df6cc2e7352f414a57aa09064b659", "is_reserved": 0, "lon": -77.038476, "name": "cd5df6cc2e7352f414a57aa09064b659", "is_disabled": 0, "lat": 38.9027435}, {"type": "electric_bike", "fusion_lon": 0.0, "fusion_lat": 0.0, "rental_uris": {"android": "https://dc.lft.to/lastmile_qr_scan", "ios": "https://dc.lft.to/lastmile_qr_scan"}, "bike_id": "df1e2132e70a92191dac9953476476a0", "is_reserved": 0, "lon": -77.02145266666666, "name": "df1e2132e70a92191dac9953476476a0", "is_disabled": 0, "lat": 38.973312166666666}, {"type": "electric_scooter", "fusion_lon": 0.0, "fusion_lat": 0.0, "rental_uris": {"android": "https://dc.lft.to/lastmile_qr_scan", "ios": "https://dc.lft.to/lastmile_qr_scan"}, "bike_id": "9f1464131d464c5ab53da1fe09868532", "is_reserved": 0, "lon": -77.02364983333334, "name": "9f1464131d464c5ab53da1fe09868532", "is_disabled": 0, "lat": 38.92598233333333}, {"type": "electric_scooter", "fusion_lon": 0.0, "fusion_lat": 0.0, "rental_uris": {"android": "https://dc.lft.to/lastmile_qr_scan", "ios": "https://dc.lft.to/lastmile_qr_scan"}, "bike_id": "c92d762fd4ef34d3e32ed23469a31f33", "is_reserved": 0, "lon": -77.00199683333334, "name": "c92d762fd4ef34d3e32ed23469a31f33", "is_disabled": 0, "lat": 38.90240033333333}, {"type": "electric_scooter", "fusion_lon": 0.0, "fusion_lat": 0.0, "rental_uris": {"android": "https://dc.lft.to/lastmile_qr_scan", "ios": "https://dc.lft.to/lastmile_qr_scan"}, "bike_id": "b9707108e95be738f6252f4e67e8a7b8", "is_reserved": 0, "lon": -77.034385, "name": "b9707108e95be738f6252f4e67e8a7b8", "is_disabled": 0, "lat": 38.907348166666665}, {"type": "electric_scooter", "fusion_lon": 0.0, "fusion_lat": 0.0, "rental_uris": {"android": "https://dc.lft.to/lastmile_qr_scan", "ios": "https://dc.lft.to/lastmile_qr_scan"}, "bike_id": "62660d92731ca7772f7b040257a33688", "is_reserved": 0, "lon": -77.00954833333333, "name": "62660d92731ca7772f7b040257a33688", "is_disabled": 0, "lat": 38.915575833333335}, {"type": "electric_scooter", "fusion_lon": 0.0, "fusion_lat": 0.0, "rental_uris": {"android": "https://dc.lft.to/lastmile_qr_scan", "ios": "https://dc.lft.to/lastmile_qr_scan"}, "bike_id": "990e96b6b6a1d3561c7c1318fd805988", "is_reserved": 0, "lon": -77.03857733333334, "name": "990e96b6b6a1d3561c7c1318fd805988", "is_disabled": 0, "lat": 38.90783116666667}, {"type": "electric_scooter", "fusion_lon": 0.0, "fusion_lat": 0.0, "rental_uris": {"android": "https://dc.lft.to/lastmile_qr_scan", "ios": "https://dc.lft.to/lastmile_qr_scan"}, "bike_id": "c9ea5ff751afbda192d3a66e2eac3656", "is_reserved": 0, "lon": -77.0358335, "name": "c9ea5ff751afbda192d3a66e2eac3656", "is_disabled": 0, "lat": 38.917807}, {"type": "electric_scooter", "fusion_lon": 0.0, "fusion_lat": 0.0, "rental_uris": {"android": "https://dc.lft.to/lastmile_qr_scan", "ios": "https://dc.lft.to/lastmile_qr_scan"}, "bike_id": "ae8435d18ab2f1aadc7eef42d7234627", "is_reserved": 0, "lon": -77.04646116666666, "name": "ae8435d18ab2f1aadc7eef42d7234627", "is_disabled": 0, "lat": 38.89535216666667}, {"type": "electric_scooter", "fusion_lon": 0.0, "fusion_lat": 0.0, "rental_uris": {"android": "https://dc.lft.to/lastmile_qr_scan", "ios": "https://dc.lft.to/lastmile_qr_scan"}, "bike_id": "424a5cfa9e12c9c1e5e5efb1ca1b492b", "is_reserved": 0, "lon": -77.031109, "name": "424a5cfa9e12c9c1e5e5efb1ca1b492b", "is_disabled": 0, "lat": 38.91693216666667}, {"type": "electric_scooter", "fusion_lon": 0.0, "fusion_lat": 0.0, "rental_uris": {"android": "https://dc.lft.to/lastmile_qr_scan", "ios": "https://dc.lft.to/lastmile_qr_scan"}, "bike_id": "90c8543d7af625663e23c6b4c2390825", "is_reserved": 0, "lon": -77.04577066666667, "name": "90c8543d7af625663e23c6b4c2390825", "is_disabled": 0, "lat": 38.90592}, {"type": "electric_scooter", "fusion_lon": 0.0, "fusion_lat": 0.0, "rental_uris": {"android": "https://dc.lft.to/lastmile_qr_scan", "ios": "https://dc.lft.to/lastmile_qr_scan"}, "bike_id": "ad304f5b986b540cdbdfd8796b42b47f", "is_reserved": 0, "lon": -77.04175116666667, "name": "ad304f5b986b540cdbdfd8796b42b47f", "is_disabled": 0, "lat": 38.91734666666667}, {"type": "electric_scooter", "fusion_lon": 0.0, "fusion_lat": 0.0, "rental_uris": {"android": "https://dc.lft.to/lastmile_qr_scan", "ios": "https://dc.lft.to/lastmile_qr_scan"}, "bike_id": "645fc5270a18eeff03ee220d688e4ecc", "is_reserved": 0, "lon": -77.0363975, "name": "645fc5270a18eeff03ee220d688e4ecc", "is_disabled": 0, "lat": 38.91826233333333}, {"type": "electric_scooter", "fusion_lon": 0.0, "fusion_lat": 0.0, "rental_uris": {"android": "https://dc.lft.to/lastmile_qr_scan", "ios": "https://dc.lft.to/lastmile_qr_scan"}, "bike_id": "87aec3c2367b24117c6641a12d2f6497", "is_reserved": 0, "lon": -77.048617, "name": "87aec3c2367b24117c6641a12d2f6497", "is_disabled": 0, "lat": 38.90424983333333}, {"type": "electric_scooter", "fusion_lon": 0.0, "fusion_lat": 0.0, "rental_uris": {"android": "https://dc.lft.to/lastmile_qr_scan", "ios": "https://dc.lft.to/lastmile_qr_scan"}, "bike_id": "27b9ca95126c2a4f52f1e022cb5800ae", "is_reserved": 0, "lon": -77.075941, "name": "27b9ca95126c2a4f52f1e022cb5800ae", "is_disabled": 0, "lat": 38.91215783333333}, {"type": "electric_scooter", "fusion_lon": 0.0, "fusion_lat": 0.0, "rental_uris": {"android": "https://dc.lft.to/lastmile_qr_scan", "ios": "https://dc.lft.to/lastmile_qr_scan"}, "bike_id": "ac008cce5e55fd939863d1a6691a5202", "is_reserved": 0, "lon": -77.06382433333333, "name": "ac008cce5e55fd939863d1a6691a5202", "is_disabled": 0, "lat": 38.90513633333333}, {"type": "electric_bike", "fusion_lon": 0.0, "fusion_lat": 0.0, "rental_uris": {"android": "https://dc.lft.to/lastmile_qr_scan", "ios": "https://dc.lft.to/lastmile_qr_scan"}, "bike_id": "d981a35386565b3965c7e4a6651b38b2", "is_reserved": 0, "lon": -77.10911366666667, "name": "d981a35386565b3965c7e4a6651b38b2", "is_disabled": 0, "lat": 39.052058833333334}, {"type": "electric_scooter", "fusion_lon": 0.0, "fusion_lat": 0.0, "rental_uris": {"android": "https://dc.lft.to/lastmile_qr_scan", "ios": "https://dc.lft.to/lastmile_qr_scan"}, "bike_id": "f8b1d26851d3ec197035f94159a485ce", "is_reserved": 0, "lon": -77.02298183333333, "name": "f8b1d26851d3ec197035f94159a485ce", "is_disabled": 0, "lat": 38.916136333333334}, {"type": "electric_scooter", "fusion_lon": 0.0, "fusion_lat": 0.0, "rental_uris": {"android": "https://dc.lft.to/lastmile_qr_scan", "ios": "https://dc.lft.to/lastmile_qr_scan"}, "bike_id": "90a0d0897d2fabed34efcbcbe8c70ecb", "is_reserved": 0, "lon": -77.04700266666667, "name": "90a0d0897d2fabed34efcbcbe8c70ecb", "is_disabled": 0, "lat": 38.9158655}, {"type": "electric_scooter", "fusion_lon": 0.0, "fusion_lat": 0.0, "rental_uris": {"android": "https://dc.lft.to/lastmile_qr_scan", "ios": "https://dc.lft.to/lastmile_qr_scan"}, "bike_id": "0cb818c57802b5482d644b6d7d910f10", "is_reserved": 0, "lon": -77.04495933333334, "name": "0cb818c57802b5482d644b6d7d910f10", "is_disabled": 0, "lat": 38.91108366666667}, {"type": "electric_scooter", "fusion_lon": 0.0, "fusion_lat": 0.0, "rental_uris": {"android": "https://dc.lft.to/lastmile_qr_scan", "ios": "https://dc.lft.to/lastmile_qr_scan"}, "bike_id": "2547ace76038232659b3ba2383b8c33a", "is_reserved": 0, "lon": -76.94703283333334, "name": "2547ace76038232659b3ba2383b8c33a", "is_disabled": 0, "lat": 38.8899835}, {"type": "electric_scooter", "fusion_lon": 0.0, "fusion_lat": 0.0, "rental_uris": {"android": "https://dc.lft.to/lastmile_qr_scan", "ios": "https://dc.lft.to/lastmile_qr_scan"}, "bike_id": "50d0b37e5e028b5561c90be612a62160", "is_reserved": 0, "lon": -77.0254965, "name": "50d0b37e5e028b5561c90be612a62160", "is_disabled": 0, "lat": 38.97874516666667}, {"type": "electric_scooter", "fusion_lon": 0.0, "fusion_lat": 0.0, "rental_uris": {"android": "https://dc.lft.to/lastmile_qr_scan", "ios": "https://dc.lft.to/lastmile_qr_scan"}, "bike_id": "0ed34e835c4e0c14d50d85c27c0d20b5", "is_reserved": 0, "lon": -77.05926466666666, "name": "0ed34e835c4e0c14d50d85c27c0d20b5", "is_disabled": 0, "lat": 38.94304416666667}, {"type": "electric_scooter", "fusion_lon": 0.0, "fusion_lat": 0.0, "rental_uris": {"android": "https://dc.lft.to/lastmile_qr_scan", "ios": "https://dc.lft.to/lastmile_qr_scan"}, "bike_id": "6281f05b05408866d2171489f1fc190e", "is_reserved": 0, "lon": -77.0318305, "name": "6281f05b05408866d2171489f1fc190e", "is_disabled": 0, "lat": 38.917553833333336}, {"type": "electric_bike", "fusion_lon": 0.0, "fusion_lat": 0.0, "rental_uris": {"android": "https://dc.lft.to/lastmile_qr_scan", "ios": "https://dc.lft.to/lastmile_qr_scan"}, "bike_id": "341646ebbd9e87be67b6f79fa3403438", "is_reserved": 0, "lon": -76.94630966666666, "name": "341646ebbd9e87be67b6f79fa3403438", "is_disabled": 0, "lat": 38.83242166666667}, {"type": "electric_scooter", "fusion_lon": 0.0, "fusion_lat": 0.0, "rental_uris": {"android": "https://dc.lft.to/lastmile_qr_scan", "ios": "https://dc.lft.to/lastmile_qr_scan"}, "bike_id": "6ea4f08a3cd1a5d1702e021c74ce949d", "is_reserved": 0, "lon": -77.02985316666667, "name": "6ea4f08a3cd1a5d1702e021c74ce949d", "is_disabled": 0, "lat": 38.90086733333333}, {"type": "electric_scooter", "fusion_lon": 0.0, "fusion_lat": 0.0, "rental_uris": {"android": "https://dc.lft.to/lastmile_qr_scan", "ios": "https://dc.lft.to/lastmile_qr_scan"}, "bike_id": "f16f53d28a0ebb9cf52843141ade8d25", "is_reserved": 0, "lon": -77.020359, "name": "f16f53d28a0ebb9cf52843141ade8d25", "is_disabled": 0, "lat": 38.92445566666667}, {"type": "electric_scooter", "fusion_lon": 0.0, "fusion_lat": 0.0, "rental_uris": {"android": "https://dc.lft.to/lastmile_qr_scan", "ios": "https://dc.lft.to/lastmile_qr_scan"}, "bike_id": "4216f22206bfa44e5e581569d59fc585", "is_reserved": 0, "lon": -76.992497, "name": "4216f22206bfa44e5e581569d59fc585", "is_disabled": 0, "lat": 38.86389033333333}, {"type": "electric_scooter", "fusion_lon": 0.0, "fusion_lat": 0.0, "rental_uris": {"android": "https://dc.lft.to/lastmile_qr_scan", "ios": "https://dc.lft.to/lastmile_qr_scan"}, "bike_id": "52ea9b5ed37557ec6e3bb1ab48f9ad88", "is_reserved": 0, "lon": -77.02174216666667, "name": "52ea9b5ed37557ec6e3bb1ab48f9ad88", "is_disabled": 0, "lat": 38.915648}, {"type": "electric_scooter", "fusion_lon": 0.0, "fusion_lat": 0.0, "rental_uris": {"android": "https://dc.lft.to/lastmile_qr_scan", "ios": "https://dc.lft.to/lastmile_qr_scan"}, "bike_id": "bc8293d64a86c191b1e959005dd152f9", "is_reserved": 0, "lon": -77.03560733333333, "name": "bc8293d64a86c191b1e959005dd152f9", "is_disabled": 0, "lat": 38.927425}, {"type": "electric_scooter", "fusion_lon": 0.0, "fusion_lat": 0.0, "rental_uris": {"android": "https://dc.lft.to/lastmile_qr_scan", "ios": "https://dc.lft.to/lastmile_qr_scan"}, "bike_id": "0cb8199097c1baa83b4666851755aab5", "is_reserved": 0, "lon": -77.045087, "name": "0cb8199097c1baa83b4666851755aab5", "is_disabled": 0, "lat": 38.9127865}, {"type": "electric_scooter", "fusion_lon": 0.0, "fusion_lat": 0.0, "rental_uris": {"android": "https://dc.lft.to/lastmile_qr_scan", "ios": "https://dc.lft.to/lastmile_qr_scan"}, "bike_id": "56d61a4dd1942b1137548c3e57cba222", "is_reserved": 0, "lon": -77.02316133333333, "name": "56d61a4dd1942b1137548c3e57cba222", "is_disabled": 0, "lat": 38.92074016666667}, {"type": "electric_scooter", "fusion_lon": 0.0, "fusion_lat": 0.0, "rental_uris": {"android": "https://dc.lft.to/lastmile_qr_scan", "ios": "https://dc.lft.to/lastmile_qr_scan"}, "bike_id": "934358b67fbbf596909275326198e756", "is_reserved": 0, "lon": -77.042669, "name": "934358b67fbbf596909275326198e756", "is_disabled": 0, "lat": 38.92062166666667}, {"type": "electric_bike", "fusion_lon": 0.0, "fusion_lat": 0.0, "rental_uris": {"android": "https://dc.lft.to/lastmile_qr_scan", "ios": "https://dc.lft.to/lastmile_qr_scan"}, "bike_id": "f66f54477a3bc37caf621aa3bc104309", "is_reserved": 0, "lon": -77.00573066666666, "name": "f66f54477a3bc37caf621aa3bc104309", "is_disabled": 0, "lat": 38.880259833333334}, {"type": "electric_scooter", "fusion_lon": 0.0, "fusion_lat": 0.0, "rental_uris": {"android": "https://dc.lft.to/lastmile_qr_scan", "ios": "https://dc.lft.to/lastmile_qr_scan"}, "bike_id": "785c43452b10b2b55ca3d1ece29c90b3", "is_reserved": 0, "lon": -77.02952716666667, "name": "785c43452b10b2b55ca3d1ece29c90b3", "is_disabled": 0, "lat": 38.9171835}, {"type": "electric_scooter", "fusion_lon": 0.0, "fusion_lat": 0.0, "rental_uris": {"android": "https://dc.lft.to/lastmile_qr_scan", "ios": "https://dc.lft.to/lastmile_qr_scan"}, "bike_id": "9017dd9e127e875956b9adebf26ece8a", "is_reserved": 0, "lon": -77.027787, "name": "9017dd9e127e875956b9adebf26ece8a", "is_disabled": 0, "lat": 38.918159833333334}, {"type": "electric_scooter", "fusion_lon": 0.0, "fusion_lat": 0.0, "rental_uris": {"android": "https://dc.lft.to/lastmile_qr_scan", "ios": "https://dc.lft.to/lastmile_qr_scan"}, "bike_id": "4c8104c98b2651950439634b5bb677d9", "is_reserved": 0, "lon": -77.03170833333333, "name": "4c8104c98b2651950439634b5bb677d9", "is_disabled": 0, "lat": 38.9182445}, {"type": "electric_scooter", "fusion_lon": 0.0, "fusion_lat": 0.0, "rental_uris": {"android": "https://dc.lft.to/lastmile_qr_scan", "ios": "https://dc.lft.to/lastmile_qr_scan"}, "bike_id": "6041c152fdbfb686ab57b2da4c6cd82e", "is_reserved": 0, "lon": -77.0347495, "name": "6041c152fdbfb686ab57b2da4c6cd82e", "is_disabled": 0, "lat": 38.9025945}, {"type": "electric_scooter", "fusion_lon": 0.0, "fusion_lat": 0.0, "rental_uris": {"android": "https://dc.lft.to/lastmile_qr_scan", "ios": "https://dc.lft.to/lastmile_qr_scan"}, "bike_id": "f66d14af1f46cc8eb1c98ddd3cda0f1e", "is_reserved": 0, "lon": -77.0423775, "name": "f66d14af1f46cc8eb1c98ddd3cda0f1e", "is_disabled": 0, "lat": 38.921501166666665}, {"type": "electric_scooter", "fusion_lon": 0.0, "fusion_lat": 0.0, "rental_uris": {"android": "https://dc.lft.to/lastmile_qr_scan", "ios": "https://dc.lft.to/lastmile_qr_scan"}, "bike_id": "f88527c3681064e1d6e0770fb4706b77", "is_reserved": 0, "lon": -77.010624, "name": "f88527c3681064e1d6e0770fb4706b77", "is_disabled": 0, "lat": 38.91338583333334}, {"type": "electric_scooter", "fusion_lon": 0.0, "fusion_lat": 0.0, "rental_uris": {"android": "https://dc.lft.to/lastmile_qr_scan", "ios": "https://dc.lft.to/lastmile_qr_scan"}, "bike_id": "7e75e0a85f4f8e3495da1af3ae95674d", "is_reserved": 0, "lon": -77.02522416666666, "name": "7e75e0a85f4f8e3495da1af3ae95674d", "is_disabled": 0, "lat": 38.94631366666667}, {"type": "electric_scooter", "fusion_lon": 0.0, "fusion_lat": 0.0, "rental_uris": {"android": "https://dc.lft.to/lastmile_qr_scan", "ios": "https://dc.lft.to/lastmile_qr_scan"}, "bike_id": "1a21f065bae3ce9b94f1b6ae62df37ca", "is_reserved": 0, "lon": -77.02383133333333, "name": "1a21f065bae3ce9b94f1b6ae62df37ca", "is_disabled": 0, "lat": 38.89198566666666}, {"type": "electric_scooter", "fusion_lon": 0.0, "fusion_lat": 0.0, "rental_uris": {"android": "https://dc.lft.to/lastmile_qr_scan", "ios": "https://dc.lft.to/lastmile_qr_scan"}, "bike_id": "eb86ec83737c696aec23b0c8a085c64d", "is_reserved": 0, "lon": -77.02828816666667, "name": "eb86ec83737c696aec23b0c8a085c64d", "is_disabled": 0, "lat": 38.88707616666667}, {"type": "electric_scooter", "fusion_lon": 0.0, "fusion_lat": 0.0, "rental_uris": {"android": "https://dc.lft.to/lastmile_qr_scan", "ios": "https://dc.lft.to/lastmile_qr_scan"}, "bike_id": "42de6cd86918f8de857cbfae121f94ee", "is_reserved": 0, "lon": -77.05719233333333, "name": "42de6cd86918f8de857cbfae121f94ee", "is_disabled": 0, "lat": 38.93615033333333}, {"type": "electric_scooter", "fusion_lon": 0.0, "fusion_lat": 0.0, "rental_uris": {"android": "https://dc.lft.to/lastmile_qr_scan", "ios": "https://dc.lft.to/lastmile_qr_scan"}, "bike_id": "87f59b2f8fbca6755548cd87850883b3", "is_reserved": 0, "lon": -77.04038266666667, "name": "87f59b2f8fbca6755548cd87850883b3", "is_disabled": 0, "lat": 38.90001083333333}, {"type": "electric_scooter", "fusion_lon": 0.0, "fusion_lat": 0.0, "rental_uris": {"android": "https://dc.lft.to/lastmile_qr_scan", "ios": "https://dc.lft.to/lastmile_qr_scan"}, "bike_id": "e54cf345b56fb7ab9e1e94d98c7540d3", "is_reserved": 0, "lon": -77.01604416666666, "name": "e54cf345b56fb7ab9e1e94d98c7540d3", "is_disabled": 0, "lat": 38.9175935}, {"type": "electric_scooter", "fusion_lon": 0.0, "fusion_lat": 0.0, "rental_uris": {"android": "https://dc.lft.to/lastmile_qr_scan", "ios": "https://dc.lft.to/lastmile_qr_scan"}, "bike_id": "b36a20e231fc0a90148b32437b9d927d", "is_reserved": 0, "lon": -77.03346166666667, "name": "b36a20e231fc0a90148b32437b9d927d", "is_disabled": 0, "lat": 38.92239683333333}, {"type": "electric_scooter", "fusion_lon": 0.0, "fusion_lat": 0.0, "rental_uris": {"android": "https://dc.lft.to/lastmile_qr_scan", "ios": "https://dc.lft.to/lastmile_qr_scan"}, "bike_id": "a34768f4d860db83d041aaac12fad330", "is_reserved": 0, "lon": -77.00595566666667, "name": "a34768f4d860db83d041aaac12fad330", "is_disabled": 0, "lat": 38.882000166666664}, {"type": "electric_scooter", "fusion_lon": 0.0, "fusion_lat": 0.0, "rental_uris": {"android": "https://dc.lft.to/lastmile_qr_scan", "ios": "https://dc.lft.to/lastmile_qr_scan"}, "bike_id": "52aea10d182c50b55245faf14e974807", "is_reserved": 0, "lon": -77.02225616666666, "name": "52aea10d182c50b55245faf14e974807", "is_disabled": 0, "lat": 38.93777633333333}, {"type": "electric_scooter", "fusion_lon": 0.0, "fusion_lat": 0.0, "rental_uris": {"android": "https://dc.lft.to/lastmile_qr_scan", "ios": "https://dc.lft.to/lastmile_qr_scan"}, "bike_id": "9f51ba9377c642eb3ca93660be693694", "is_reserved": 0, "lon": -76.9984865, "name": "9f51ba9377c642eb3ca93660be693694", "is_disabled": 0, "lat": 38.908095333333335}, {"type": "electric_bike", "fusion_lon": 0.0, "fusion_lat": 0.0, "rental_uris": {"android": "https://dc.lft.to/lastmile_qr_scan", "ios": "https://dc.lft.to/lastmile_qr_scan"}, "bike_id": "4657100a3fdbd5a547c9574075b229aa", "is_reserved": 0, "lon": -77.03209866666667, "name": "4657100a3fdbd5a547c9574075b229aa", "is_disabled": 0, "lat": 38.928576666666665}, {"type": "electric_scooter", "fusion_lon": 0.0, "fusion_lat": 0.0, "rental_uris": {"android": "https://dc.lft.to/lastmile_qr_scan", "ios": "https://dc.lft.to/lastmile_qr_scan"}, "bike_id": "c5add20dad01c46afeb9b79d8a4e6cb3", "is_reserved": 0, "lon": -76.98623333333333, "name": "c5add20dad01c46afeb9b79d8a4e6cb3", "is_disabled": 0, "lat": 38.905893}, {"type": "electric_scooter", "fusion_lon": 0.0, "fusion_lat": 0.0, "rental_uris": {"android": "https://dc.lft.to/lastmile_qr_scan", "ios": "https://dc.lft.to/lastmile_qr_scan"}, "bike_id": "bfebd70c4f2929e920a720b422750e48", "is_reserved": 0, "lon": -77.01996633333333, "name": "bfebd70c4f2929e920a720b422750e48", "is_disabled": 0, "lat": 38.88590083333333}, {"type": "electric_scooter", "fusion_lon": 0.0, "fusion_lat": 0.0, "rental_uris": {"android": "https://dc.lft.to/lastmile_qr_scan", "ios": "https://dc.lft.to/lastmile_qr_scan"}, "bike_id": "f85456ca79759e27f0915c11ebabf655", "is_reserved": 0, "lon": -77.04547566666666, "name": "f85456ca79759e27f0915c11ebabf655", "is_disabled": 0, "lat": 38.92075666666667}, {"type": "electric_scooter", "fusion_lon": 0.0, "fusion_lat": 0.0, "rental_uris": {"android": "https://dc.lft.to/lastmile_qr_scan", "ios": "https://dc.lft.to/lastmile_qr_scan"}, "bike_id": "9ef8c33489d4af1dae2d819d44f297d0", "is_reserved": 0, "lon": -77.03209866666667, "name": "9ef8c33489d4af1dae2d819d44f297d0", "is_disabled": 0, "lat": 38.92067733333333}, {"type": "electric_scooter", "fusion_lon": 0.0, "fusion_lat": 0.0, "rental_uris": {"android": "https://dc.lft.to/lastmile_qr_scan", "ios": "https://dc.lft.to/lastmile_qr_scan"}, "bike_id": "3afaa5323139c10d0f30a279fe66ecac", "is_reserved": 0, "lon": -77.04676766666667, "name": "3afaa5323139c10d0f30a279fe66ecac", "is_disabled": 0, "lat": 38.89745383333333}, {"type": "electric_scooter", "fusion_lon": 0.0, "fusion_lat": 0.0, "rental_uris": {"android": "https://dc.lft.to/lastmile_qr_scan", "ios": "https://dc.lft.to/lastmile_qr_scan"}, "bike_id": "fe1e9fec47fb5f95c3d7eea803f8ae02", "is_reserved": 0, "lon": -77.04219333333333, "name": "fe1e9fec47fb5f95c3d7eea803f8ae02", "is_disabled": 0, "lat": 38.926294666666664}, {"type": "electric_bike", "fusion_lon": 0.0, "fusion_lat": 0.0, "rental_uris": {"android": "https://dc.lft.to/lastmile_qr_scan", "ios": "https://dc.lft.to/lastmile_qr_scan"}, "bike_id": "94f78ac95c2970480b9696c449e47890", "is_reserved": 0, "lon": -76.9211475, "name": "94f78ac95c2970480b9696c449e47890", "is_disabled": 0, "lat": 38.89327766666667}, {"type": "electric_scooter", "fusion_lon": 0.0, "fusion_lat": 0.0, "rental_uris": {"android": "https://dc.lft.to/lastmile_qr_scan", "ios": "https://dc.lft.to/lastmile_qr_scan"}, "bike_id": "363554b191a98b85a72b1d1534d9504a", "is_reserved": 0, "lon": -77.03420783333334, "name": "363554b191a98b85a72b1d1534d9504a", "is_disabled": 0, "lat": 38.9192465}, {"type": "electric_scooter", "fusion_lon": 0.0, "fusion_lat": 0.0, "rental_uris": {"android": "https://dc.lft.to/lastmile_qr_scan", "ios": "https://dc.lft.to/lastmile_qr_scan"}, "bike_id": "2408398b4c084fb623ad0533ea919a98", "is_reserved": 0, "lon": -77.02987233333333, "name": "2408398b4c084fb623ad0533ea919a98", "is_disabled": 0, "lat": 38.916735833333334}, {"type": "electric_scooter", "fusion_lon": 0.0, "fusion_lat": 0.0, "rental_uris": {"android": "https://dc.lft.to/lastmile_qr_scan", "ios": "https://dc.lft.to/lastmile_qr_scan"}, "bike_id": "f6c432d7403140d3cbf2f08cc4376696", "is_reserved": 0, "lon": -77.05794916666666, "name": "f6c432d7403140d3cbf2f08cc4376696", "is_disabled": 0, "lat": 38.90380716666667}, {"type": "electric_scooter", "fusion_lon": 0.0, "fusion_lat": 0.0, "rental_uris": {"android": "https://dc.lft.to/lastmile_qr_scan", "ios": "https://dc.lft.to/lastmile_qr_scan"}, "bike_id": "c2ba33ff444d416faff3090f27532b47", "is_reserved": 0, "lon": -77.03816883333333, "name": "c2ba33ff444d416faff3090f27532b47", "is_disabled": 0, "lat": 38.90965816666667}, {"type": "electric_scooter", "fusion_lon": 0.0, "fusion_lat": 0.0, "rental_uris": {"android": "https://dc.lft.to/lastmile_qr_scan", "ios": "https://dc.lft.to/lastmile_qr_scan"}, "bike_id": "3d1b8ea288a7eaf762bde632d2369d13", "is_reserved": 0, "lon": -77.011831, "name": "3d1b8ea288a7eaf762bde632d2369d13", "is_disabled": 0, "lat": 38.900046}, {"type": "electric_scooter", "fusion_lon": 0.0, "fusion_lat": 0.0, "rental_uris": {"android": "https://dc.lft.to/lastmile_qr_scan", "ios": "https://dc.lft.to/lastmile_qr_scan"}, "bike_id": "2046ec16261a558331b6bc0536a5f352", "is_reserved": 0, "lon": -77.042243, "name": "2046ec16261a558331b6bc0536a5f352", "is_disabled": 0, "lat": 38.931547}, {"type": "electric_scooter", "fusion_lon": 0.0, "fusion_lat": 0.0, "rental_uris": {"android": "https://dc.lft.to/lastmile_qr_scan", "ios": "https://dc.lft.to/lastmile_qr_scan"}, "bike_id": "4a01212771af7df4de830f4d82140598", "is_reserved": 0, "lon": -77.04177066666666, "name": "4a01212771af7df4de830f4d82140598", "is_disabled": 0, "lat": 38.899391333333334}, {"type": "electric_scooter", "fusion_lon": 0.0, "fusion_lat": 0.0, "rental_uris": {"android": "https://dc.lft.to/lastmile_qr_scan", "ios": "https://dc.lft.to/lastmile_qr_scan"}, "bike_id": "5eda3008fd407e4f38744cbc18f02b97", "is_reserved": 0, "lon": -76.947238, "name": "5eda3008fd407e4f38744cbc18f02b97", "is_disabled": 0, "lat": 38.89738583333333}, {"type": "electric_scooter", "fusion_lon": 0.0, "fusion_lat": 0.0, "rental_uris": {"android": "https://dc.lft.to/lastmile_qr_scan", "ios": "https://dc.lft.to/lastmile_qr_scan"}, "bike_id": "5735348311b0fac0b759190e1ade7f76", "is_reserved": 0, "lon": -77.02177733333333, "name": "5735348311b0fac0b759190e1ade7f76", "is_disabled": 0, "lat": 38.885088833333334}, {"type": "electric_scooter", "fusion_lon": 0.0, "fusion_lat": 0.0, "rental_uris": {"android": "https://dc.lft.to/lastmile_qr_scan", "ios": "https://dc.lft.to/lastmile_qr_scan"}, "bike_id": "f2fc95caaec24a926199610691151f94", "is_reserved": 0, "lon": -77.03660466666666, "name": "f2fc95caaec24a926199610691151f94", "is_disabled": 0, "lat": 38.91433166666667}, {"type": "electric_scooter", "fusion_lon": 0.0, "fusion_lat": 0.0, "rental_uris": {"android": "https://dc.lft.to/lastmile_qr_scan", "ios": "https://dc.lft.to/lastmile_qr_scan"}, "bike_id": "f3082c77f069912a1f4d800c0a57b1cc", "is_reserved": 0, "lon": -77.03273533333333, "name": "f3082c77f069912a1f4d800c0a57b1cc", "is_disabled": 0, "lat": 38.91712}, {"type": "electric_scooter", "fusion_lon": 0.0, "fusion_lat": 0.0, "rental_uris": {"android": "https://dc.lft.to/lastmile_qr_scan", "ios": "https://dc.lft.to/lastmile_qr_scan"}, "bike_id": "ca34a2908dc8f4d88c40cb430a52f2b7", "is_reserved": 0, "lon": -77.046593, "name": "ca34a2908dc8f4d88c40cb430a52f2b7", "is_disabled": 0, "lat": 38.90374333333333}, {"type": "electric_scooter", "fusion_lon": 0.0, "fusion_lat": 0.0, "rental_uris": {"android": "https://dc.lft.to/lastmile_qr_scan", "ios": "https://dc.lft.to/lastmile_qr_scan"}, "bike_id": "b39a3fccd1cce3ceb31b7a8204455a39", "is_reserved": 0, "lon": -77.04110766666666, "name": "b39a3fccd1cce3ceb31b7a8204455a39", "is_disabled": 0, "lat": 38.919074333333334}, {"type": "electric_scooter", "fusion_lon": 0.0, "fusion_lat": 0.0, "rental_uris": {"android": "https://dc.lft.to/lastmile_qr_scan", "ios": "https://dc.lft.to/lastmile_qr_scan"}, "bike_id": "a04da4116cb0bf45844e764ae4040f83", "is_reserved": 0, "lon": -77.03627816666666, "name": "a04da4116cb0bf45844e764ae4040f83", "is_disabled": 0, "lat": 38.91696833333334}, {"type": "electric_scooter", "fusion_lon": 0.0, "fusion_lat": 0.0, "rental_uris": {"android": "https://dc.lft.to/lastmile_qr_scan", "ios": "https://dc.lft.to/lastmile_qr_scan"}, "bike_id": "ec92f28dce6b7c1442a4bbdfa27c15e8", "is_reserved": 0, "lon": -77.0033455, "name": "ec92f28dce6b7c1442a4bbdfa27c15e8", "is_disabled": 0, "lat": 38.89364616666667}, {"type": "electric_scooter", "fusion_lon": 0.0, "fusion_lat": 0.0, "rental_uris": {"android": "https://dc.lft.to/lastmile_qr_scan", "ios": "https://dc.lft.to/lastmile_qr_scan"}, "bike_id": "23982617e461b9b24ff655b2289f05dd", "is_reserved": 0, "lon": -77.03985416666667, "name": "23982617e461b9b24ff655b2289f05dd", "is_disabled": 0, "lat": 38.90724}, {"type": "electric_scooter", "fusion_lon": 0.0, "fusion_lat": 0.0, "rental_uris": {"android": "https://dc.lft.to/lastmile_qr_scan", "ios": "https://dc.lft.to/lastmile_qr_scan"}, "bike_id": "d68f7220347696c637103654207ed3e4", "is_reserved": 0, "lon": -76.95647433333333, "name": "d68f7220347696c637103654207ed3e4", "is_disabled": 0, "lat": 38.89619866666666}, {"type": "electric_scooter", "fusion_lon": 0.0, "fusion_lat": 0.0, "rental_uris": {"android": "https://dc.lft.to/lastmile_qr_scan", "ios": "https://dc.lft.to/lastmile_qr_scan"}, "bike_id": "4395ca1ad9ee13b59215ce2ac0b86f26", "is_reserved": 0, "lon": -77.03171583333334, "name": "4395ca1ad9ee13b59215ce2ac0b86f26", "is_disabled": 0, "lat": 38.91620916666667}, {"type": "electric_bike", "fusion_lon": 0.0, "fusion_lat": 0.0, "rental_uris": {"android": "https://dc.lft.to/lastmile_qr_scan", "ios": "https://dc.lft.to/lastmile_qr_scan"}, "bike_id": "efa1851927012d23f70afd6bc33d746c", "is_reserved": 0, "lon": -77.06789066666667, "name": "efa1851927012d23f70afd6bc33d746c", "is_disabled": 0, "lat": 38.906837833333334}, {"type": "electric_scooter", "fusion_lon": 0.0, "fusion_lat": 0.0, "rental_uris": {"android": "https://dc.lft.to/lastmile_qr_scan", "ios": "https://dc.lft.to/lastmile_qr_scan"}, "bike_id": "81ae2d287a9e32bc939f49cee5a9fdb4", "is_reserved": 0, "lon": -77.02401616666667, "name": "81ae2d287a9e32bc939f49cee5a9fdb4", "is_disabled": 0, "lat": 38.931081666666664}, {"type": "electric_scooter", "fusion_lon": 0.0, "fusion_lat": 0.0, "rental_uris": {"android": "https://dc.lft.to/lastmile_qr_scan", "ios": "https://dc.lft.to/lastmile_qr_scan"}, "bike_id": "04e519872c66bf3b14ca9ad5794e2f0c", "is_reserved": 0, "lon": -77.03513466666666, "name": "04e519872c66bf3b14ca9ad5794e2f0c", "is_disabled": 0, "lat": 38.935995}, {"type": "electric_scooter", "fusion_lon": 0.0, "fusion_lat": 0.0, "rental_uris": {"android": "https://dc.lft.to/lastmile_qr_scan", "ios": "https://dc.lft.to/lastmile_qr_scan"}, "bike_id": "bf0c260f0afe8fe663aaaa59c1d7bb4a", "is_reserved": 0, "lon": -77.00494383333333, "name": "bf0c260f0afe8fe663aaaa59c1d7bb4a", "is_disabled": 0, "lat": 38.896951333333334}, {"type": "electric_bike", "fusion_lon": 0.0, "fusion_lat": 0.0, "rental_uris": {"android": "https://dc.lft.to/lastmile_qr_scan", "ios": "https://dc.lft.to/lastmile_qr_scan"}, "bike_id": "bacc4df442ccbd06cc824ab63e449b38", "is_reserved": 0, "lon": -77.0211715, "name": "bacc4df442ccbd06cc824ab63e449b38", "is_disabled": 0, "lat": 38.9370075}, {"type": "electric_scooter", "fusion_lon": 0.0, "fusion_lat": 0.0, "rental_uris": {"android": "https://dc.lft.to/lastmile_qr_scan", "ios": "https://dc.lft.to/lastmile_qr_scan"}, "bike_id": "fffe1a12c690e6501c41efa44b9c678c", "is_reserved": 0, "lon": -77.04132616666666, "name": "fffe1a12c690e6501c41efa44b9c678c", "is_disabled": 0, "lat": 38.922562666666664}, {"type": "electric_scooter", "fusion_lon": 0.0, "fusion_lat": 0.0, "rental_uris": {"android": "https://dc.lft.to/lastmile_qr_scan", "ios": "https://dc.lft.to/lastmile_qr_scan"}, "bike_id": "cdc37cda53cc156293c0bd116e2ce0ec", "is_reserved": 0, "lon": -77.04239816666667, "name": "cdc37cda53cc156293c0bd116e2ce0ec", "is_disabled": 0, "lat": 38.89607916666667}, {"type": "electric_scooter", "fusion_lon": 0.0, "fusion_lat": 0.0, "rental_uris": {"android": "https://dc.lft.to/lastmile_qr_scan", "ios": "https://dc.lft.to/lastmile_qr_scan"}, "bike_id": "2e16303bec48c68f9f5aed130e994d17", "is_reserved": 0, "lon": -76.97295233333334, "name": "2e16303bec48c68f9f5aed130e994d17", "is_disabled": 0, "lat": 38.90323716666666}, {"type": "electric_scooter", "fusion_lon": 0.0, "fusion_lat": 0.0, "rental_uris": {"android": "https://dc.lft.to/lastmile_qr_scan", "ios": "https://dc.lft.to/lastmile_qr_scan"}, "bike_id": "f387c588f71b2b69e61d43cd201748cb", "is_reserved": 0, "lon": -76.98001483333333, "name": "f387c588f71b2b69e61d43cd201748cb", "is_disabled": 0, "lat": 38.853226}, {"type": "electric_scooter", "fusion_lon": 0.0, "fusion_lat": 0.0, "rental_uris": {"android": "https://dc.lft.to/lastmile_qr_scan", "ios": "https://dc.lft.to/lastmile_qr_scan"}, "bike_id": "eb1591532a82c8a533138df4a5c1de5c", "is_reserved": 0, "lon": -77.04267483333334, "name": "eb1591532a82c8a533138df4a5c1de5c", "is_disabled": 0, "lat": 38.923042333333335}, {"type": "electric_scooter", "fusion_lon": 0.0, "fusion_lat": 0.0, "rental_uris": {"android": "https://dc.lft.to/lastmile_qr_scan", "ios": "https://dc.lft.to/lastmile_qr_scan"}, "bike_id": "8cb29ee2c9fffa65ed97ab2b88e7eec7", "is_reserved": 0, "lon": -77.020741, "name": "8cb29ee2c9fffa65ed97ab2b88e7eec7", "is_disabled": 0, "lat": 38.887445}, {"type": "electric_scooter", "fusion_lon": 0.0, "fusion_lat": 0.0, "rental_uris": {"android": "https://dc.lft.to/lastmile_qr_scan", "ios": "https://dc.lft.to/lastmile_qr_scan"}, "bike_id": "29abd6d24d227eb7ef3d3cca9c275fa3", "is_reserved": 0, "lon": -77.01210483333334, "name": "29abd6d24d227eb7ef3d3cca9c275fa3", "is_disabled": 0, "lat": 38.87239233333333}, {"type": "electric_scooter", "fusion_lon": 0.0, "fusion_lat": 0.0, "rental_uris": {"android": "https://dc.lft.to/lastmile_qr_scan", "ios": "https://dc.lft.to/lastmile_qr_scan"}, "bike_id": "9cce53b7ce648a1f056b9fc681b66668", "is_reserved": 0, "lon": -77.04378733333333, "name": "9cce53b7ce648a1f056b9fc681b66668", "is_disabled": 0, "lat": 38.92074566666667}, {"type": "electric_scooter", "fusion_lon": 0.0, "fusion_lat": 0.0, "rental_uris": {"android": "https://dc.lft.to/lastmile_qr_scan", "ios": "https://dc.lft.to/lastmile_qr_scan"}, "bike_id": "7cfc4d4adf8c2acaf97950d77f938275", "is_reserved": 0, "lon": -77.06258233333334, "name": "7cfc4d4adf8c2acaf97950d77f938275", "is_disabled": 0, "lat": 38.9050325}, {"type": "electric_scooter", "fusion_lon": 0.0, "fusion_lat": 0.0, "rental_uris": {"android": "https://dc.lft.to/lastmile_qr_scan", "ios": "https://dc.lft.to/lastmile_qr_scan"}, "bike_id": "2f19c04ec8a53bbf0af4f5636288d967", "is_reserved": 0, "lon": -77.04893866666667, "name": "2f19c04ec8a53bbf0af4f5636288d967", "is_disabled": 0, "lat": 38.907254}, {"type": "electric_scooter", "fusion_lon": 0.0, "fusion_lat": 0.0, "rental_uris": {"android": "https://dc.lft.to/lastmile_qr_scan", "ios": "https://dc.lft.to/lastmile_qr_scan"}, "bike_id": "7d8776c1c14ed5cc3dc7f16a213d0d1c", "is_reserved": 0, "lon": -76.93176216666667, "name": "7d8776c1c14ed5cc3dc7f16a213d0d1c", "is_disabled": 0, "lat": 38.898880166666665}, {"type": "electric_scooter", "fusion_lon": 0.0, "fusion_lat": 0.0, "rental_uris": {"android": "https://dc.lft.to/lastmile_qr_scan", "ios": "https://dc.lft.to/lastmile_qr_scan"}, "bike_id": "1cc677f51f4b26f8c30cdd1fdd894ecc", "is_reserved": 0, "lon": -77.0434705, "name": "1cc677f51f4b26f8c30cdd1fdd894ecc", "is_disabled": 0, "lat": 38.90619316666667}, {"type": "electric_scooter", "fusion_lon": 0.0, "fusion_lat": 0.0, "rental_uris": {"android": "https://dc.lft.to/lastmile_qr_scan", "ios": "https://dc.lft.to/lastmile_qr_scan"}, "bike_id": "2f5f739afc2c1531a32817585577da5f", "is_reserved": 0, "lon": -77.04619266666667, "name": "2f5f739afc2c1531a32817585577da5f", "is_disabled": 0, "lat": 38.91452266666667}, {"type": "electric_scooter", "fusion_lon": 0.0, "fusion_lat": 0.0, "rental_uris": {"android": "https://dc.lft.to/lastmile_qr_scan", "ios": "https://dc.lft.to/lastmile_qr_scan"}, "bike_id": "8d4a828491d4e311e722bc6f57cee694", "is_reserved": 0, "lon": -77.04662066666667, "name": "8d4a828491d4e311e722bc6f57cee694", "is_disabled": 0, "lat": 38.90556983333333}, {"type": "electric_scooter", "fusion_lon": 0.0, "fusion_lat": 0.0, "rental_uris": {"android": "https://dc.lft.to/lastmile_qr_scan", "ios": "https://dc.lft.to/lastmile_qr_scan"}, "bike_id": "c74443379838bf07798fbf9629548287", "is_reserved": 0, "lon": -77.03509716666667, "name": "c74443379838bf07798fbf9629548287", "is_disabled": 0, "lat": 38.92347066666667}, {"type": "electric_bike", "fusion_lon": 0.0, "fusion_lat": 0.0, "rental_uris": {"android": "https://dc.lft.to/lastmile_qr_scan", "ios": "https://dc.lft.to/lastmile_qr_scan"}, "bike_id": "b9bba838531df3cc3dd9a00b41b39336", "is_reserved": 0, "lon": -76.973332, "name": "b9bba838531df3cc3dd9a00b41b39336", "is_disabled": 0, "lat": 38.85057483333333}, {"type": "electric_scooter", "fusion_lon": 0.0, "fusion_lat": 0.0, "rental_uris": {"android": "https://dc.lft.to/lastmile_qr_scan", "ios": "https://dc.lft.to/lastmile_qr_scan"}, "bike_id": "9a3e7d585f566787e5f71c16b8ab5663", "is_reserved": 0, "lon": -77.04569316666667, "name": "9a3e7d585f566787e5f71c16b8ab5663", "is_disabled": 0, "lat": 38.92240616666667}, {"type": "electric_scooter", "fusion_lon": 0.0, "fusion_lat": 0.0, "rental_uris": {"android": "https://dc.lft.to/lastmile_qr_scan", "ios": "https://dc.lft.to/lastmile_qr_scan"}, "bike_id": "b1bf96aad7294b3f67c2eacc632dd80d", "is_reserved": 0, "lon": -77.07171716666667, "name": "b1bf96aad7294b3f67c2eacc632dd80d", "is_disabled": 0, "lat": 38.94021933333333}, {"type": "electric_scooter", "fusion_lon": 0.0, "fusion_lat": 0.0, "rental_uris": {"android": "https://dc.lft.to/lastmile_qr_scan", "ios": "https://dc.lft.to/lastmile_qr_scan"}, "bike_id": "d89c4e2a815175a1f7d930a35ddcd262", "is_reserved": 0, "lon": -77.038918, "name": "d89c4e2a815175a1f7d930a35ddcd262", "is_disabled": 0, "lat": 38.906356333333335}, {"type": "electric_scooter", "fusion_lon": 0.0, "fusion_lat": 0.0, "rental_uris": {"android": "https://dc.lft.to/lastmile_qr_scan", "ios": "https://dc.lft.to/lastmile_qr_scan"}, "bike_id": "e82f156a712ee5022eae5d24fe791183", "is_reserved": 0, "lon": -77.03175816666666, "name": "e82f156a712ee5022eae5d24fe791183", "is_disabled": 0, "lat": 38.90980783333333}, {"type": "electric_scooter", "fusion_lon": 0.0, "fusion_lat": 0.0, "rental_uris": {"android": "https://dc.lft.to/lastmile_qr_scan", "ios": "https://dc.lft.to/lastmile_qr_scan"}, "bike_id": "418ae4f81a2db179cd1b0f5587c34bdf", "is_reserved": 0, "lon": -76.99846383333333, "name": "418ae4f81a2db179cd1b0f5587c34bdf", "is_disabled": 0, "lat": 38.900075333333334}, {"type": "electric_scooter", "fusion_lon": 0.0, "fusion_lat": 0.0, "rental_uris": {"android": "https://dc.lft.to/lastmile_qr_scan", "ios": "https://dc.lft.to/lastmile_qr_scan"}, "bike_id": "838d08ec7c1fc0331883c9c41690e1d0", "is_reserved": 0, "lon": -77.07641933333333, "name": "838d08ec7c1fc0331883c9c41690e1d0", "is_disabled": 0, "lat": 38.910839833333334}, {"type": "electric_scooter", "fusion_lon": 0.0, "fusion_lat": 0.0, "rental_uris": {"android": "https://dc.lft.to/lastmile_qr_scan", "ios": "https://dc.lft.to/lastmile_qr_scan"}, "bike_id": "7f7acad4c3667a49b7d2b21e4316f5b3", "is_reserved": 0, "lon": -77.05169033333334, "name": "7f7acad4c3667a49b7d2b21e4316f5b3", "is_disabled": 0, "lat": 38.903236}, {"type": "electric_scooter", "fusion_lon": 0.0, "fusion_lat": 0.0, "rental_uris": {"android": "https://dc.lft.to/lastmile_qr_scan", "ios": "https://dc.lft.to/lastmile_qr_scan"}, "bike_id": "13e6d2d549fc698a3187af3036c9ad25", "is_reserved": 0, "lon": -77.06373366666666, "name": "13e6d2d549fc698a3187af3036c9ad25", "is_disabled": 0, "lat": 38.90512616666667}, {"type": "electric_bike", "fusion_lon": 0.0, "fusion_lat": 0.0, "rental_uris": {"android": "https://dc.lft.to/lastmile_qr_scan", "ios": "https://dc.lft.to/lastmile_qr_scan"}, "bike_id": "c3a001ca8316b56dd0295d313f2a93a1", "is_reserved": 0, "lon": -77.02587966666667, "name": "c3a001ca8316b56dd0295d313f2a93a1", "is_disabled": 0, "lat": 38.87506833333333}, {"type": "electric_scooter", "fusion_lon": 0.0, "fusion_lat": 0.0, "rental_uris": {"android": "https://dc.lft.to/lastmile_qr_scan", "ios": "https://dc.lft.to/lastmile_qr_scan"}, "bike_id": "7f76d152bdd7eaa9ca67738bc5fc209f", "is_reserved": 0, "lon": -77.0304855, "name": "7f76d152bdd7eaa9ca67738bc5fc209f", "is_disabled": 0, "lat": 38.88425016666667}, {"type": "electric_scooter", "fusion_lon": 0.0, "fusion_lat": 0.0, "rental_uris": {"android": "https://dc.lft.to/lastmile_qr_scan", "ios": "https://dc.lft.to/lastmile_qr_scan"}, "bike_id": "62ebd8c996b52c96cf610adde93e1e47", "is_reserved": 0, "lon": -76.94089566666666, "name": "62ebd8c996b52c96cf610adde93e1e47", "is_disabled": 0, "lat": 38.89123716666667}, {"type": "electric_bike", "fusion_lon": 0.0, "fusion_lat": 0.0, "rental_uris": {"android": "https://dc.lft.to/lastmile_qr_scan", "ios": "https://dc.lft.to/lastmile_qr_scan"}, "bike_id": "fc03071d1f735d7b75b9493bd9729f11", "is_reserved": 0, "lon": -77.04425816666667, "name": "fc03071d1f735d7b75b9493bd9729f11", "is_disabled": 0, "lat": 39.015974166666666}, {"type": "electric_scooter", "fusion_lon": 0.0, "fusion_lat": 0.0, "rental_uris": {"android": "https://dc.lft.to/lastmile_qr_scan", "ios": "https://dc.lft.to/lastmile_qr_scan"}, "bike_id": "ea85b6f67b82011a9049f817a6811b0c", "is_reserved": 0, "lon": -77.04875583333333, "name": "ea85b6f67b82011a9049f817a6811b0c", "is_disabled": 0, "lat": 38.907764}, {"type": "electric_scooter", "fusion_lon": 0.0, "fusion_lat": 0.0, "rental_uris": {"android": "https://dc.lft.to/lastmile_qr_scan", "ios": "https://dc.lft.to/lastmile_qr_scan"}, "bike_id": "d31253c8f1bcc48a778ea005e6d54fb5", "is_reserved": 0, "lon": -77.001625, "name": "d31253c8f1bcc48a778ea005e6d54fb5", "is_disabled": 0, "lat": 38.90013283333333}, {"type": "electric_scooter", "fusion_lon": 0.0, "fusion_lat": 0.0, "rental_uris": {"android": "https://dc.lft.to/lastmile_qr_scan", "ios": "https://dc.lft.to/lastmile_qr_scan"}, "bike_id": "658cf87bcbdfe879a439104b5443c4a1", "is_reserved": 0, "lon": -77.03437216666667, "name": "658cf87bcbdfe879a439104b5443c4a1", "is_disabled": 0, "lat": 38.928770166666666}, {"type": "electric_scooter", "fusion_lon": 0.0, "fusion_lat": 0.0, "rental_uris": {"android": "https://dc.lft.to/lastmile_qr_scan", "ios": "https://dc.lft.to/lastmile_qr_scan"}, "bike_id": "285d48c12dfdfc38a96d40ccf065098a", "is_reserved": 0, "lon": -76.99765916666666, "name": "285d48c12dfdfc38a96d40ccf065098a", "is_disabled": 0, "lat": 38.90025266666667}, {"type": "electric_scooter", "fusion_lon": 0.0, "fusion_lat": 0.0, "rental_uris": {"android": "https://dc.lft.to/lastmile_qr_scan", "ios": "https://dc.lft.to/lastmile_qr_scan"}, "bike_id": "afa2425dbeb9796b4096c9bdbe9e50ea", "is_reserved": 0, "lon": -76.99016366666666, "name": "afa2425dbeb9796b4096c9bdbe9e50ea", "is_disabled": 0, "lat": 38.90500633333333}, {"type": "electric_scooter", "fusion_lon": 0.0, "fusion_lat": 0.0, "rental_uris": {"android": "https://dc.lft.to/lastmile_qr_scan", "ios": "https://dc.lft.to/lastmile_qr_scan"}, "bike_id": "8116d160c0ee1e4db0626a99f03c5f58", "is_reserved": 0, "lon": -77.0449885, "name": "8116d160c0ee1e4db0626a99f03c5f58", "is_disabled": 0, "lat": 38.91853}, {"type": "electric_scooter", "fusion_lon": 0.0, "fusion_lat": 0.0, "rental_uris": {"android": "https://dc.lft.to/lastmile_qr_scan", "ios": "https://dc.lft.to/lastmile_qr_scan"}, "bike_id": "64440e432cc4db4eabfbee39abb09ee9", "is_reserved": 0, "lon": -77.02021433333333, "name": "64440e432cc4db4eabfbee39abb09ee9", "is_disabled": 0, "lat": 38.94220716666667}, {"type": "electric_scooter", "fusion_lon": 0.0, "fusion_lat": 0.0, "rental_uris": {"android": "https://dc.lft.to/lastmile_qr_scan", "ios": "https://dc.lft.to/lastmile_qr_scan"}, "bike_id": "5cf5b53b20acd7503e460720a16f5a6b", "is_reserved": 0, "lon": -76.99065883333333, "name": "5cf5b53b20acd7503e460720a16f5a6b", "is_disabled": 0, "lat": 38.904203}, {"type": "electric_scooter", "fusion_lon": 0.0, "fusion_lat": 0.0, "rental_uris": {"android": "https://dc.lft.to/lastmile_qr_scan", "ios": "https://dc.lft.to/lastmile_qr_scan"}, "bike_id": "a37e517363cd654980f8e8d45bb93c33", "is_reserved": 0, "lon": -77.0450675, "name": "a37e517363cd654980f8e8d45bb93c33", "is_disabled": 0, "lat": 38.900288}, {"type": "electric_scooter", "fusion_lon": 0.0, "fusion_lat": 0.0, "rental_uris": {"android": "https://dc.lft.to/lastmile_qr_scan", "ios": "https://dc.lft.to/lastmile_qr_scan"}, "bike_id": "695a87a0bd9052bf7f9f4ddd515f4ace", "is_reserved": 0, "lon": -77.02828066666666, "name": "695a87a0bd9052bf7f9f4ddd515f4ace", "is_disabled": 0, "lat": 38.960289833333334}, {"type": "electric_scooter", "fusion_lon": 0.0, "fusion_lat": 0.0, "rental_uris": {"android": "https://dc.lft.to/lastmile_qr_scan", "ios": "https://dc.lft.to/lastmile_qr_scan"}, "bike_id": "0b05037b36c75c55cc3a94f468c4aa23", "is_reserved": 0, "lon": -77.00544466666666, "name": "0b05037b36c75c55cc3a94f468c4aa23", "is_disabled": 0, "lat": 38.874642}, {"type": "electric_scooter", "fusion_lon": 0.0, "fusion_lat": 0.0, "rental_uris": {"android": "https://dc.lft.to/lastmile_qr_scan", "ios": "https://dc.lft.to/lastmile_qr_scan"}, "bike_id": "916ed4f8c851c8b4c02dfdd85ff35fb5", "is_reserved": 0, "lon": -77.01281833333333, "name": "916ed4f8c851c8b4c02dfdd85ff35fb5", "is_disabled": 0, "lat": 38.91416383333333}, {"type": "electric_scooter", "fusion_lon": 0.0, "fusion_lat": 0.0, "rental_uris": {"android": "https://dc.lft.to/lastmile_qr_scan", "ios": "https://dc.lft.to/lastmile_qr_scan"}, "bike_id": "f9b918b4d7617c1f6a5bdb6a3e2e12a0", "is_reserved": 0, "lon": -77.04495516666667, "name": "f9b918b4d7617c1f6a5bdb6a3e2e12a0", "is_disabled": 0, "lat": 38.89741983333333}, {"type": "electric_scooter", "fusion_lon": 0.0, "fusion_lat": 0.0, "rental_uris": {"android": "https://dc.lft.to/lastmile_qr_scan", "ios": "https://dc.lft.to/lastmile_qr_scan"}, "bike_id": "9b75b1d8ef5947a9b30fb5464c70bd8b", "is_reserved": 0, "lon": -77.03799733333334, "name": "9b75b1d8ef5947a9b30fb5464c70bd8b", "is_disabled": 0, "lat": 38.921920666666665}, {"type": "electric_scooter", "fusion_lon": 0.0, "fusion_lat": 0.0, "rental_uris": {"android": "https://dc.lft.to/lastmile_qr_scan", "ios": "https://dc.lft.to/lastmile_qr_scan"}, "bike_id": "8626b5f66261823a06b7a8d58201388e", "is_reserved": 0, "lon": -77.00062133333333, "name": "8626b5f66261823a06b7a8d58201388e", "is_disabled": 0, "lat": 38.906699333333336}, {"type": "electric_scooter", "fusion_lon": 0.0, "fusion_lat": 0.0, "rental_uris": {"android": "https://dc.lft.to/lastmile_qr_scan", "ios": "https://dc.lft.to/lastmile_qr_scan"}, "bike_id": "81ce14c06544a9478ca72fa83e2e108a", "is_reserved": 0, "lon": -77.03238083333333, "name": "81ce14c06544a9478ca72fa83e2e108a", "is_disabled": 0, "lat": 38.92866}, {"type": "electric_scooter", "fusion_lon": 0.0, "fusion_lat": 0.0, "rental_uris": {"android": "https://dc.lft.to/lastmile_qr_scan", "ios": "https://dc.lft.to/lastmile_qr_scan"}, "bike_id": "b056a70fbbf7040182df3e61df06f322", "is_reserved": 0, "lon": -77.06255833333333, "name": "b056a70fbbf7040182df3e61df06f322", "is_disabled": 0, "lat": 38.9051165}, {"type": "electric_bike", "fusion_lon": 0.0, "fusion_lat": 0.0, "rental_uris": {"android": "https://dc.lft.to/lastmile_qr_scan", "ios": "https://dc.lft.to/lastmile_qr_scan"}, "bike_id": "1ebe8a707fbb4918de683fa0e618ab52", "is_reserved": 0, "lon": -77.01622716666667, "name": "1ebe8a707fbb4918de683fa0e618ab52", "is_disabled": 0, "lat": 38.96573816666667}, {"type": "electric_scooter", "fusion_lon": 0.0, "fusion_lat": 0.0, "rental_uris": {"android": "https://dc.lft.to/lastmile_qr_scan", "ios": "https://dc.lft.to/lastmile_qr_scan"}, "bike_id": "d683829732b4055b203f364d38132cda", "is_reserved": 0, "lon": -76.98666866666667, "name": "d683829732b4055b203f364d38132cda", "is_disabled": 0, "lat": 38.867533}, {"type": "electric_scooter", "fusion_lon": 0.0, "fusion_lat": 0.0, "rental_uris": {"android": "https://dc.lft.to/lastmile_qr_scan", "ios": "https://dc.lft.to/lastmile_qr_scan"}, "bike_id": "2a97406e20996c10cd776fc251d0d4ae", "is_reserved": 0, "lon": -77.03293183333334, "name": "2a97406e20996c10cd776fc251d0d4ae", "is_disabled": 0, "lat": 38.902435}, {"type": "electric_bike", "fusion_lon": 0.0, "fusion_lat": 0.0, "rental_uris": {"android": "https://dc.lft.to/lastmile_qr_scan", "ios": "https://dc.lft.to/lastmile_qr_scan"}, "bike_id": "6b1e591844841854c8c94426fff5bdcd", "is_reserved": 0, "lon": -77.0103725, "name": "6b1e591844841854c8c94426fff5bdcd", "is_disabled": 0, "lat": 38.95879566666667}, {"type": "electric_scooter", "fusion_lon": 0.0, "fusion_lat": 0.0, "rental_uris": {"android": "https://dc.lft.to/lastmile_qr_scan", "ios": "https://dc.lft.to/lastmile_qr_scan"}, "bike_id": "3996a4a94fbd6194a516f45481b889c8", "is_reserved": 0, "lon": -77.0435955, "name": "3996a4a94fbd6194a516f45481b889c8", "is_disabled": 0, "lat": 38.89772283333333}, {"type": "electric_scooter", "fusion_lon": 0.0, "fusion_lat": 0.0, "rental_uris": {"android": "https://dc.lft.to/lastmile_qr_scan", "ios": "https://dc.lft.to/lastmile_qr_scan"}, "bike_id": "ad3b8796fc01bba139a28100bce8f06d", "is_reserved": 0, "lon": -77.033629, "name": "ad3b8796fc01bba139a28100bce8f06d", "is_disabled": 0, "lat": 38.9027615}, {"type": "electric_scooter", "fusion_lon": 0.0, "fusion_lat": 0.0, "rental_uris": {"android": "https://dc.lft.to/lastmile_qr_scan", "ios": "https://dc.lft.to/lastmile_qr_scan"}, "bike_id": "54f23ab54955f3088afd7073ee20ebea", "is_reserved": 0, "lon": -77.0161745, "name": "54f23ab54955f3088afd7073ee20ebea", "is_disabled": 0, "lat": 38.94946683333333}, {"type": "electric_scooter", "fusion_lon": 0.0, "fusion_lat": 0.0, "rental_uris": {"android": "https://dc.lft.to/lastmile_qr_scan", "ios": "https://dc.lft.to/lastmile_qr_scan"}, "bike_id": "bb12eefe01d10f9149a45f7bb2dee1d5", "is_reserved": 0, "lon": -77.03274666666667, "name": "bb12eefe01d10f9149a45f7bb2dee1d5", "is_disabled": 0, "lat": 38.92978633333333}, {"type": "electric_scooter", "fusion_lon": 0.0, "fusion_lat": 0.0, "rental_uris": {"android": "https://dc.lft.to/lastmile_qr_scan", "ios": "https://dc.lft.to/lastmile_qr_scan"}, "bike_id": "4158eae300c6cd9ce40c9c53d0024053", "is_reserved": 0, "lon": -76.94588766666666, "name": "4158eae300c6cd9ce40c9c53d0024053", "is_disabled": 0, "lat": 38.90216383333333}, {"type": "electric_bike", "fusion_lon": 0.0, "fusion_lat": 0.0, "rental_uris": {"android": "https://dc.lft.to/lastmile_qr_scan", "ios": "https://dc.lft.to/lastmile_qr_scan"}, "bike_id": "31e7ab70e2548b8b86f60e305e7a710e", "is_reserved": 0, "lon": -77.04214433333334, "name": "31e7ab70e2548b8b86f60e305e7a710e", "is_disabled": 0, "lat": 38.93338983333334}, {"type": "electric_bike", "fusion_lon": 0.0, "fusion_lat": 0.0, "rental_uris": {"android": "https://dc.lft.to/lastmile_qr_scan", "ios": "https://dc.lft.to/lastmile_qr_scan"}, "bike_id": "6afbe02cd091f4191f90c2c543cfe455", "is_reserved": 0, "lon": -77.031268, "name": "6afbe02cd091f4191f90c2c543cfe455", "is_disabled": 0, "lat": 38.9941435}, {"type": "electric_scooter", "fusion_lon": 0.0, "fusion_lat": 0.0, "rental_uris": {"android": "https://dc.lft.to/lastmile_qr_scan", "ios": "https://dc.lft.to/lastmile_qr_scan"}, "bike_id": "29b1337ddd04efbcd5b87b710bd87a3a", "is_reserved": 0, "lon": -77.0448305, "name": "29b1337ddd04efbcd5b87b710bd87a3a", "is_disabled": 0, "lat": 38.91408166666667}, {"type": "electric_scooter", "fusion_lon": 0.0, "fusion_lat": 0.0, "rental_uris": {"android": "https://dc.lft.to/lastmile_qr_scan", "ios": "https://dc.lft.to/lastmile_qr_scan"}, "bike_id": "f7f579c82f8b1ca9404d1f44a29ef218", "is_reserved": 0, "lon": -77.04684083333333, "name": "f7f579c82f8b1ca9404d1f44a29ef218", "is_disabled": 0, "lat": 38.91570316666667}, {"type": "electric_bike", "fusion_lon": 0.0, "fusion_lat": 0.0, "rental_uris": {"android": "https://dc.lft.to/lastmile_qr_scan", "ios": "https://dc.lft.to/lastmile_qr_scan"}, "bike_id": "c0f4413d3fe9b8c24bb1686cac628769", "is_reserved": 0, "lon": -77.2164655, "name": "c0f4413d3fe9b8c24bb1686cac628769", "is_disabled": 0, "lat": 38.930135}, {"type": "electric_bike", "fusion_lon": 0.0, "fusion_lat": 0.0, "rental_uris": {"android": "https://dc.lft.to/lastmile_qr_scan", "ios": "https://dc.lft.to/lastmile_qr_scan"}, "bike_id": "d065a697002f1fa7d8bd0d6af02e279a", "is_reserved": 0, "lon": -76.97263766666667, "name": "d065a697002f1fa7d8bd0d6af02e279a", "is_disabled": 0, "lat": 38.9196695}, {"type": "electric_scooter", "fusion_lon": 0.0, "fusion_lat": 0.0, "rental_uris": {"android": "https://dc.lft.to/lastmile_qr_scan", "ios": "https://dc.lft.to/lastmile_qr_scan"}, "bike_id": "e5747410740b24e820cc8fe8ea3217c4", "is_reserved": 0, "lon": -77.01385916666666, "name": "e5747410740b24e820cc8fe8ea3217c4", "is_disabled": 0, "lat": 38.928687833333335}, {"type": "electric_scooter", "fusion_lon": 0.0, "fusion_lat": 0.0, "rental_uris": {"android": "https://dc.lft.to/lastmile_qr_scan", "ios": "https://dc.lft.to/lastmile_qr_scan"}, "bike_id": "5e093daccd2731e81eea2994fed43173", "is_reserved": 0, "lon": -77.00342483333333, "name": "5e093daccd2731e81eea2994fed43173", "is_disabled": 0, "lat": 38.884958}, {"type": "electric_scooter", "fusion_lon": 0.0, "fusion_lat": 0.0, "rental_uris": {"android": "https://dc.lft.to/lastmile_qr_scan", "ios": "https://dc.lft.to/lastmile_qr_scan"}, "bike_id": "72a098a435b405b76191adde7017583d", "is_reserved": 0, "lon": -77.02154583333333, "name": "72a098a435b405b76191adde7017583d", "is_disabled": 0, "lat": 38.90412233333333}, {"type": "electric_bike", "fusion_lon": 0.0, "fusion_lat": 0.0, "rental_uris": {"android": "https://dc.lft.to/lastmile_qr_scan", "ios": "https://dc.lft.to/lastmile_qr_scan"}, "bike_id": "9edc044aa29d5ab94276bd050e32fef5", "is_reserved": 0, "lon": -76.9843595, "name": "9edc044aa29d5ab94276bd050e32fef5", "is_disabled": 0, "lat": 38.85516716666667}, {"type": "electric_scooter", "fusion_lon": 0.0, "fusion_lat": 0.0, "rental_uris": {"android": "https://dc.lft.to/lastmile_qr_scan", "ios": "https://dc.lft.to/lastmile_qr_scan"}, "bike_id": "8f8750eaca5dcc277909a773ff821333", "is_reserved": 0, "lon": -77.07189333333334, "name": "8f8750eaca5dcc277909a773ff821333", "is_disabled": 0, "lat": 38.90689616666667}, {"type": "electric_scooter", "fusion_lon": 0.0, "fusion_lat": 0.0, "rental_uris": {"android": "https://dc.lft.to/lastmile_qr_scan", "ios": "https://dc.lft.to/lastmile_qr_scan"}, "bike_id": "b56af8f24c9ed302bcc5151ca33f1087", "is_reserved": 0, "lon": -76.95568316666666, "name": "b56af8f24c9ed302bcc5151ca33f1087", "is_disabled": 0, "lat": 38.88995083333333}, {"type": "electric_bike", "fusion_lon": 0.0, "fusion_lat": 0.0, "rental_uris": {"android": "https://dc.lft.to/lastmile_qr_scan", "ios": "https://dc.lft.to/lastmile_qr_scan"}, "bike_id": "1c034a3103d43a734bc0bbc6f9ae318d", "is_reserved": 0, "lon": -76.99902566666667, "name": "1c034a3103d43a734bc0bbc6f9ae318d", "is_disabled": 0, "lat": 38.9531215}, {"type": "electric_scooter", "fusion_lon": 0.0, "fusion_lat": 0.0, "rental_uris": {"android": "https://dc.lft.to/lastmile_qr_scan", "ios": "https://dc.lft.to/lastmile_qr_scan"}, "bike_id": "9750c69b6cfa31ab218a9a717d301c73", "is_reserved": 0, "lon": -77.00324466666666, "name": "9750c69b6cfa31ab218a9a717d301c73", "is_disabled": 0, "lat": 38.88741133333333}, {"type": "electric_scooter", "fusion_lon": 0.0, "fusion_lat": 0.0, "rental_uris": {"android": "https://dc.lft.to/lastmile_qr_scan", "ios": "https://dc.lft.to/lastmile_qr_scan"}, "bike_id": "8f3122d25d1c8135b7ac37e2d2897eff", "is_reserved": 0, "lon": -76.9985485, "name": "8f3122d25d1c8135b7ac37e2d2897eff", "is_disabled": 0, "lat": 38.89290166666667}, {"type": "electric_scooter", "fusion_lon": 0.0, "fusion_lat": 0.0, "rental_uris": {"android": "https://dc.lft.to/lastmile_qr_scan", "ios": "https://dc.lft.to/lastmile_qr_scan"}, "bike_id": "23398fda8dc4ab443ccad391bebe5c46", "is_reserved": 0, "lon": -77.03360816666667, "name": "23398fda8dc4ab443ccad391bebe5c46", "is_disabled": 0, "lat": 38.925812666666666}, {"type": "electric_bike", "fusion_lon": 0.0, "fusion_lat": 0.0, "rental_uris": {"android": "https://dc.lft.to/lastmile_qr_scan", "ios": "https://dc.lft.to/lastmile_qr_scan"}, "bike_id": "0e4ee456d8719a22f404e55ba81b2a09", "is_reserved": 0, "lon": -76.99753916666667, "name": "0e4ee456d8719a22f404e55ba81b2a09", "is_disabled": 0, "lat": 38.837282}, {"type": "electric_scooter", "fusion_lon": 0.0, "fusion_lat": 0.0, "rental_uris": {"android": "https://dc.lft.to/lastmile_qr_scan", "ios": "https://dc.lft.to/lastmile_qr_scan"}, "bike_id": "1b550d299ce5edccc603c9ee51e6da30", "is_reserved": 0, "lon": -77.0399625, "name": "1b550d299ce5edccc603c9ee51e6da30", "is_disabled": 0, "lat": 38.934342666666666}, {"type": "electric_scooter", "fusion_lon": 0.0, "fusion_lat": 0.0, "rental_uris": {"android": "https://dc.lft.to/lastmile_qr_scan", "ios": "https://dc.lft.to/lastmile_qr_scan"}, "bike_id": "6033515b5819490e50257f8fa5e8ce59", "is_reserved": 0, "lon": -77.02305533333333, "name": "6033515b5819490e50257f8fa5e8ce59", "is_disabled": 0, "lat": 38.917835333333336}, {"type": "electric_scooter", "fusion_lon": 0.0, "fusion_lat": 0.0, "rental_uris": {"android": "https://dc.lft.to/lastmile_qr_scan", "ios": "https://dc.lft.to/lastmile_qr_scan"}, "bike_id": "ecb880a0a06fa47a177aaab51405be57", "is_reserved": 0, "lon": -77.0459565, "name": "ecb880a0a06fa47a177aaab51405be57", "is_disabled": 0, "lat": 38.89736283333333}, {"type": "electric_scooter", "fusion_lon": 0.0, "fusion_lat": 0.0, "rental_uris": {"android": "https://dc.lft.to/lastmile_qr_scan", "ios": "https://dc.lft.to/lastmile_qr_scan"}, "bike_id": "3785e675076ceec9cc99566953f9e61a", "is_reserved": 0, "lon": -77.073878, "name": "3785e675076ceec9cc99566953f9e61a", "is_disabled": 0, "lat": 38.943277}, {"type": "electric_scooter", "fusion_lon": 0.0, "fusion_lat": 0.0, "rental_uris": {"android": "https://dc.lft.to/lastmile_qr_scan", "ios": "https://dc.lft.to/lastmile_qr_scan"}, "bike_id": "01ca3da5fd2a845f2380536945eeaa92", "is_reserved": 0, "lon": -77.054302, "name": "01ca3da5fd2a845f2380536945eeaa92", "is_disabled": 0, "lat": 38.89936}, {"type": "electric_scooter", "fusion_lon": 0.0, "fusion_lat": 0.0, "rental_uris": {"android": "https://dc.lft.to/lastmile_qr_scan", "ios": "https://dc.lft.to/lastmile_qr_scan"}, "bike_id": "c9a218b7afd6ea30d1b6985affa82fc3", "is_reserved": 0, "lon": -77.04488766666667, "name": "c9a218b7afd6ea30d1b6985affa82fc3", "is_disabled": 0, "lat": 38.90410216666667}, {"type": "electric_scooter", "fusion_lon": 0.0, "fusion_lat": 0.0, "rental_uris": {"android": "https://dc.lft.to/lastmile_qr_scan", "ios": "https://dc.lft.to/lastmile_qr_scan"}, "bike_id": "ece432a318fa42af7d218d95c10a5b70", "is_reserved": 0, "lon": -77.0018395, "name": "ece432a318fa42af7d218d95c10a5b70", "is_disabled": 0, "lat": 38.8750975}, {"type": "electric_scooter", "fusion_lon": 0.0, "fusion_lat": 0.0, "rental_uris": {"android": "https://dc.lft.to/lastmile_qr_scan", "ios": "https://dc.lft.to/lastmile_qr_scan"}, "bike_id": "28f746ea20cd9944c2b61a54cafb9932", "is_reserved": 0, "lon": -77.03833466666667, "name": "28f746ea20cd9944c2b61a54cafb9932", "is_disabled": 0, "lat": 38.902686833333334}, {"type": "electric_scooter", "fusion_lon": 0.0, "fusion_lat": 0.0, "rental_uris": {"android": "https://dc.lft.to/lastmile_qr_scan", "ios": "https://dc.lft.to/lastmile_qr_scan"}, "bike_id": "fa6991027d51bd36c5ae04ee99814f3c", "is_reserved": 0, "lon": -77.00557566666667, "name": "fa6991027d51bd36c5ae04ee99814f3c", "is_disabled": 0, "lat": 38.92617716666667}, {"type": "electric_scooter", "fusion_lon": 0.0, "fusion_lat": 0.0, "rental_uris": {"android": "https://dc.lft.to/lastmile_qr_scan", "ios": "https://dc.lft.to/lastmile_qr_scan"}, "bike_id": "1f0b6f105030f4d846e87175b28540b1", "is_reserved": 0, "lon": -77.03201983333334, "name": "1f0b6f105030f4d846e87175b28540b1", "is_disabled": 0, "lat": 38.887041333333336}, {"type": "electric_scooter", "fusion_lon": 0.0, "fusion_lat": 0.0, "rental_uris": {"android": "https://dc.lft.to/lastmile_qr_scan", "ios": "https://dc.lft.to/lastmile_qr_scan"}, "bike_id": "476f08921ed409a911fd0831f6432dea", "is_reserved": 0, "lon": -76.97140266666666, "name": "476f08921ed409a911fd0831f6432dea", "is_disabled": 0, "lat": 38.918778833333334}, {"type": "electric_scooter", "fusion_lon": 0.0, "fusion_lat": 0.0, "rental_uris": {"android": "https://dc.lft.to/lastmile_qr_scan", "ios": "https://dc.lft.to/lastmile_qr_scan"}, "bike_id": "e8af3371bc6bae236068b4e6f0171bbf", "is_reserved": 0, "lon": -77.04460816666666, "name": "e8af3371bc6bae236068b4e6f0171bbf", "is_disabled": 0, "lat": 38.912569500000004}, {"type": "electric_scooter", "fusion_lon": 0.0, "fusion_lat": 0.0, "rental_uris": {"android": "https://dc.lft.to/lastmile_qr_scan", "ios": "https://dc.lft.to/lastmile_qr_scan"}, "bike_id": "3049d1a7a879c85c43973219d43829bb", "is_reserved": 0, "lon": -77.04153366666667, "name": "3049d1a7a879c85c43973219d43829bb", "is_disabled": 0, "lat": 38.8828205}, {"type": "electric_scooter", "fusion_lon": 0.0, "fusion_lat": 0.0, "rental_uris": {"android": "https://dc.lft.to/lastmile_qr_scan", "ios": "https://dc.lft.to/lastmile_qr_scan"}, "bike_id": "b94e5bd946f555613bc5bc56202a74c9", "is_reserved": 0, "lon": -77.02454483333334, "name": "b94e5bd946f555613bc5bc56202a74c9", "is_disabled": 0, "lat": 38.90857283333333}, {"type": "electric_scooter", "fusion_lon": 0.0, "fusion_lat": 0.0, "rental_uris": {"android": "https://dc.lft.to/lastmile_qr_scan", "ios": "https://dc.lft.to/lastmile_qr_scan"}, "bike_id": "7dd7fad1c96f96d3478962e06d3148ff", "is_reserved": 0, "lon": -76.99043716666667, "name": "7dd7fad1c96f96d3478962e06d3148ff", "is_disabled": 0, "lat": 38.86371066666667}, {"type": "electric_scooter", "fusion_lon": 0.0, "fusion_lat": 0.0, "rental_uris": {"android": "https://dc.lft.to/lastmile_qr_scan", "ios": "https://dc.lft.to/lastmile_qr_scan"}, "bike_id": "07da24e86d5bbbfca60745a63acc12bf", "is_reserved": 0, "lon": -77.02171616666666, "name": "07da24e86d5bbbfca60745a63acc12bf", "is_disabled": 0, "lat": 38.92062133333334}, {"type": "electric_scooter", "fusion_lon": 0.0, "fusion_lat": 0.0, "rental_uris": {"android": "https://dc.lft.to/lastmile_qr_scan", "ios": "https://dc.lft.to/lastmile_qr_scan"}, "bike_id": "db618162d2ec4a8322649e2306e902b5", "is_reserved": 0, "lon": -77.06560666666667, "name": "db618162d2ec4a8322649e2306e902b5", "is_disabled": 0, "lat": 38.947623}, {"type": "electric_scooter", "fusion_lon": 0.0, "fusion_lat": 0.0, "rental_uris": {"android": "https://dc.lft.to/lastmile_qr_scan", "ios": "https://dc.lft.to/lastmile_qr_scan"}, "bike_id": "7b7712515d76537f556f10808dfebb5a", "is_reserved": 0, "lon": -77.02066933333333, "name": "7b7712515d76537f556f10808dfebb5a", "is_disabled": 0, "lat": 38.887393}, {"type": "electric_scooter", "fusion_lon": 0.0, "fusion_lat": 0.0, "rental_uris": {"android": "https://dc.lft.to/lastmile_qr_scan", "ios": "https://dc.lft.to/lastmile_qr_scan"}, "bike_id": "4f1371838725179e928b6e3a21b92989", "is_reserved": 0, "lon": -76.978026, "name": "4f1371838725179e928b6e3a21b92989", "is_disabled": 0, "lat": 38.92035216666667}, {"type": "electric_scooter", "fusion_lon": 0.0, "fusion_lat": 0.0, "rental_uris": {"android": "https://dc.lft.to/lastmile_qr_scan", "ios": "https://dc.lft.to/lastmile_qr_scan"}, "bike_id": "21c08cacb377cda86895339b8afd58a7", "is_reserved": 0, "lon": -77.040668, "name": "21c08cacb377cda86895339b8afd58a7", "is_disabled": 0, "lat": 38.92025866666667}, {"type": "electric_scooter", "fusion_lon": 0.0, "fusion_lat": 0.0, "rental_uris": {"android": "https://dc.lft.to/lastmile_qr_scan", "ios": "https://dc.lft.to/lastmile_qr_scan"}, "bike_id": "8640df595458525817ad1aa2f771ce3b", "is_reserved": 0, "lon": -77.0331185, "name": "8640df595458525817ad1aa2f771ce3b", "is_disabled": 0, "lat": 38.89831916666667}, {"type": "electric_scooter", "fusion_lon": 0.0, "fusion_lat": 0.0, "rental_uris": {"android": "https://dc.lft.to/lastmile_qr_scan", "ios": "https://dc.lft.to/lastmile_qr_scan"}, "bike_id": "a9d544b1a69f78d89e9155a72a3fa5c3", "is_reserved": 0, "lon": -77.02463333333333, "name": "a9d544b1a69f78d89e9155a72a3fa5c3", "is_disabled": 0, "lat": 38.95783566666667}, {"type": "electric_scooter", "fusion_lon": 0.0, "fusion_lat": 0.0, "rental_uris": {"android": "https://dc.lft.to/lastmile_qr_scan", "ios": "https://dc.lft.to/lastmile_qr_scan"}, "bike_id": "edc57dd02869471b8f2922a3616bc910", "is_reserved": 0, "lon": -76.990008, "name": "edc57dd02869471b8f2922a3616bc910", "is_disabled": 0, "lat": 38.863471}, {"type": "electric_bike", "fusion_lon": 0.0, "fusion_lat": 0.0, "rental_uris": {"android": "https://dc.lft.to/lastmile_qr_scan", "ios": "https://dc.lft.to/lastmile_qr_scan"}, "bike_id": "dedb78eb1e99ba1da96c95a28e27697f", "is_reserved": 0, "lon": -76.93544616666667, "name": "dedb78eb1e99ba1da96c95a28e27697f", "is_disabled": 0, "lat": 38.955554}, {"type": "electric_scooter", "fusion_lon": 0.0, "fusion_lat": 0.0, "rental_uris": {"android": "https://dc.lft.to/lastmile_qr_scan", "ios": "https://dc.lft.to/lastmile_qr_scan"}, "bike_id": "46061de9b1fdbbdc0af6768718d73d96", "is_reserved": 0, "lon": -76.99949316666667, "name": "46061de9b1fdbbdc0af6768718d73d96", "is_disabled": 0, "lat": 38.8429605}, {"type": "electric_scooter", "fusion_lon": 0.0, "fusion_lat": 0.0, "rental_uris": {"android": "https://dc.lft.to/lastmile_qr_scan", "ios": "https://dc.lft.to/lastmile_qr_scan"}, "bike_id": "2b39a615ef2528ff2c25e57a8605269d", "is_reserved": 0, "lon": -76.93382016666666, "name": "2b39a615ef2528ff2c25e57a8605269d", "is_disabled": 0, "lat": 38.899191333333334}, {"type": "electric_scooter", "fusion_lon": 0.0, "fusion_lat": 0.0, "rental_uris": {"android": "https://dc.lft.to/lastmile_qr_scan", "ios": "https://dc.lft.to/lastmile_qr_scan"}, "bike_id": "cfc20a32a8f9ff7944d2a80d666a5e76", "is_reserved": 0, "lon": -77.03529016666667, "name": "cfc20a32a8f9ff7944d2a80d666a5e76", "is_disabled": 0, "lat": 38.906751}, {"type": "electric_scooter", "fusion_lon": 0.0, "fusion_lat": 0.0, "rental_uris": {"android": "https://dc.lft.to/lastmile_qr_scan", "ios": "https://dc.lft.to/lastmile_qr_scan"}, "bike_id": "84cb2076c246a1f74bf9f90b7a6706e9", "is_reserved": 0, "lon": -77.06593466666666, "name": "84cb2076c246a1f74bf9f90b7a6706e9", "is_disabled": 0, "lat": 38.90335916666667}, {"type": "electric_scooter", "fusion_lon": 0.0, "fusion_lat": 0.0, "rental_uris": {"android": "https://dc.lft.to/lastmile_qr_scan", "ios": "https://dc.lft.to/lastmile_qr_scan"}, "bike_id": "ea1004b73b014a0c773e8e37fd65bb65", "is_reserved": 0, "lon": -77.0475155, "name": "ea1004b73b014a0c773e8e37fd65bb65", "is_disabled": 0, "lat": 38.905375666666664}, {"type": "electric_scooter", "fusion_lon": 0.0, "fusion_lat": 0.0, "rental_uris": {"android": "https://dc.lft.to/lastmile_qr_scan", "ios": "https://dc.lft.to/lastmile_qr_scan"}, "bike_id": "8c971bd7f933e4721cc36bbbf7c13890", "is_reserved": 0, "lon": -77.04426966666666, "name": "8c971bd7f933e4721cc36bbbf7c13890", "is_disabled": 0, "lat": 38.92139133333333}, {"type": "electric_scooter", "fusion_lon": 0.0, "fusion_lat": 0.0, "rental_uris": {"android": "https://dc.lft.to/lastmile_qr_scan", "ios": "https://dc.lft.to/lastmile_qr_scan"}, "bike_id": "c6e23676da4a196d7b39259eeb70055d", "is_reserved": 0, "lon": -77.03976616666667, "name": "c6e23676da4a196d7b39259eeb70055d", "is_disabled": 0, "lat": 38.913698}, {"type": "electric_scooter", "fusion_lon": 0.0, "fusion_lat": 0.0, "rental_uris": {"android": "https://dc.lft.to/lastmile_qr_scan", "ios": "https://dc.lft.to/lastmile_qr_scan"}, "bike_id": "4280e759d2c70d65d21ae04aa8946a37", "is_reserved": 0, "lon": -77.04755866666666, "name": "4280e759d2c70d65d21ae04aa8946a37", "is_disabled": 0, "lat": 38.900773}, {"type": "electric_scooter", "fusion_lon": 0.0, "fusion_lat": 0.0, "rental_uris": {"android": "https://dc.lft.to/lastmile_qr_scan", "ios": "https://dc.lft.to/lastmile_qr_scan"}, "bike_id": "2c64b8436af902e2fb2fbae00aba5bcb", "is_reserved": 0, "lon": -77.03181083333334, "name": "2c64b8436af902e2fb2fbae00aba5bcb", "is_disabled": 0, "lat": 38.91761133333333}, {"type": "electric_scooter", "fusion_lon": 0.0, "fusion_lat": 0.0, "rental_uris": {"android": "https://dc.lft.to/lastmile_qr_scan", "ios": "https://dc.lft.to/lastmile_qr_scan"}, "bike_id": "3781a031eb2f6622c40bbe714ddc2f71", "is_reserved": 0, "lon": -77.0575765, "name": "3781a031eb2f6622c40bbe714ddc2f71", "is_disabled": 0, "lat": 38.924506666666666}, {"type": "electric_scooter", "fusion_lon": 0.0, "fusion_lat": 0.0, "rental_uris": {"android": "https://dc.lft.to/lastmile_qr_scan", "ios": "https://dc.lft.to/lastmile_qr_scan"}, "bike_id": "d5f47fbd3b4e57ffb153032f8fd67917", "is_reserved": 0, "lon": -77.04504783333333, "name": "d5f47fbd3b4e57ffb153032f8fd67917", "is_disabled": 0, "lat": 38.912765666666665}, {"type": "electric_scooter", "fusion_lon": 0.0, "fusion_lat": 0.0, "rental_uris": {"android": "https://dc.lft.to/lastmile_qr_scan", "ios": "https://dc.lft.to/lastmile_qr_scan"}, "bike_id": "62159ed186dea1970024dab958fd04ab", "is_reserved": 0, "lon": -77.058016, "name": "62159ed186dea1970024dab958fd04ab", "is_disabled": 0, "lat": 38.93497583333333}, {"type": "electric_bike", "fusion_lon": 0.0, "fusion_lat": 0.0, "rental_uris": {"android": "https://dc.lft.to/lastmile_qr_scan", "ios": "https://dc.lft.to/lastmile_qr_scan"}, "bike_id": "e0f9302dd8202f1bb019107633b86f8c", "is_reserved": 0, "lon": -76.96023066666666, "name": "e0f9302dd8202f1bb019107633b86f8c", "is_disabled": 0, "lat": 38.87015616666667}, {"type": "electric_scooter", "fusion_lon": 0.0, "fusion_lat": 0.0, "rental_uris": {"android": "https://dc.lft.to/lastmile_qr_scan", "ios": "https://dc.lft.to/lastmile_qr_scan"}, "bike_id": "13c72cb27fa55cc285397fe34e59dbcc", "is_reserved": 0, "lon": -77.019241, "name": "13c72cb27fa55cc285397fe34e59dbcc", "is_disabled": 0, "lat": 38.880372333333334}, {"type": "electric_scooter", "fusion_lon": 0.0, "fusion_lat": 0.0, "rental_uris": {"android": "https://dc.lft.to/lastmile_qr_scan", "ios": "https://dc.lft.to/lastmile_qr_scan"}, "bike_id": "14d7f1b195d237d87aa4940a033c8f08", "is_reserved": 0, "lon": -76.97922316666667, "name": "14d7f1b195d237d87aa4940a033c8f08", "is_disabled": 0, "lat": 38.904963}, {"type": "electric_scooter", "fusion_lon": 0.0, "fusion_lat": 0.0, "rental_uris": {"android": "https://dc.lft.to/lastmile_qr_scan", "ios": "https://dc.lft.to/lastmile_qr_scan"}, "bike_id": "23f73b952b9843acd6e9c6d226329400", "is_reserved": 0, "lon": -77.0059105, "name": "23f73b952b9843acd6e9c6d226329400", "is_disabled": 0, "lat": 38.83686383333333}, {"type": "electric_scooter", "fusion_lon": 0.0, "fusion_lat": 0.0, "rental_uris": {"android": "https://dc.lft.to/lastmile_qr_scan", "ios": "https://dc.lft.to/lastmile_qr_scan"}, "bike_id": "51c399fd21190e74f961b8cb935c7017", "is_reserved": 0, "lon": -77.02713083333333, "name": "51c399fd21190e74f961b8cb935c7017", "is_disabled": 0, "lat": 38.896558666666664}, {"type": "electric_scooter", "fusion_lon": 0.0, "fusion_lat": 0.0, "rental_uris": {"android": "https://dc.lft.to/lastmile_qr_scan", "ios": "https://dc.lft.to/lastmile_qr_scan"}, "bike_id": "a40589211f52f4e0f167de1f7096c4a2", "is_reserved": 0, "lon": -77.0818715, "name": "a40589211f52f4e0f167de1f7096c4a2", "is_disabled": 0, "lat": 38.9361855}, {"type": "electric_scooter", "fusion_lon": 0.0, "fusion_lat": 0.0, "rental_uris": {"android": "https://dc.lft.to/lastmile_qr_scan", "ios": "https://dc.lft.to/lastmile_qr_scan"}, "bike_id": "896b4f21efe6f9028d12f2434099db48", "is_reserved": 0, "lon": -77.03328666666667, "name": "896b4f21efe6f9028d12f2434099db48", "is_disabled": 0, "lat": 38.91696983333333}, {"type": "electric_scooter", "fusion_lon": 0.0, "fusion_lat": 0.0, "rental_uris": {"android": "https://dc.lft.to/lastmile_qr_scan", "ios": "https://dc.lft.to/lastmile_qr_scan"}, "bike_id": "df187158e1321f17b00ebe5f4bcebbb9", "is_reserved": 0, "lon": -77.015569, "name": "df187158e1321f17b00ebe5f4bcebbb9", "is_disabled": 0, "lat": 38.901133333333334}, {"type": "electric_scooter", "fusion_lon": 0.0, "fusion_lat": 0.0, "rental_uris": {"android": "https://dc.lft.to/lastmile_qr_scan", "ios": "https://dc.lft.to/lastmile_qr_scan"}, "bike_id": "d22b4551a277e95fbfe21c41edbc52ea", "is_reserved": 0, "lon": -77.03191883333334, "name": "d22b4551a277e95fbfe21c41edbc52ea", "is_disabled": 0, "lat": 38.9177295}, {"type": "electric_scooter", "fusion_lon": 0.0, "fusion_lat": 0.0, "rental_uris": {"android": "https://dc.lft.to/lastmile_qr_scan", "ios": "https://dc.lft.to/lastmile_qr_scan"}, "bike_id": "e1ad821f05a64643ae8a9bc09fa7ba45", "is_reserved": 0, "lon": -76.98945716666667, "name": "e1ad821f05a64643ae8a9bc09fa7ba45", "is_disabled": 0, "lat": 38.865588333333335}, {"type": "electric_scooter", "fusion_lon": 0.0, "fusion_lat": 0.0, "rental_uris": {"android": "https://dc.lft.to/lastmile_qr_scan", "ios": "https://dc.lft.to/lastmile_qr_scan"}, "bike_id": "9cb8e30a358a205d6947893f3b1c0244", "is_reserved": 0, "lon": -77.02551083333333, "name": "9cb8e30a358a205d6947893f3b1c0244", "is_disabled": 0, "lat": 38.94833033333333}, {"type": "electric_scooter", "fusion_lon": 0.0, "fusion_lat": 0.0, "rental_uris": {"android": "https://dc.lft.to/lastmile_qr_scan", "ios": "https://dc.lft.to/lastmile_qr_scan"}, "bike_id": "73f6b7641d18330235ec2425cb58be18", "is_reserved": 0, "lon": -77.04339016666667, "name": "73f6b7641d18330235ec2425cb58be18", "is_disabled": 0, "lat": 38.90054383333333}, {"type": "electric_scooter", "fusion_lon": 0.0, "fusion_lat": 0.0, "rental_uris": {"android": "https://dc.lft.to/lastmile_qr_scan", "ios": "https://dc.lft.to/lastmile_qr_scan"}, "bike_id": "60598a4dc431933a4e1c99b5960d38a0", "is_reserved": 0, "lon": -77.0282785, "name": "60598a4dc431933a4e1c99b5960d38a0", "is_disabled": 0, "lat": 38.892341}, {"type": "electric_scooter", "fusion_lon": 0.0, "fusion_lat": 0.0, "rental_uris": {"android": "https://dc.lft.to/lastmile_qr_scan", "ios": "https://dc.lft.to/lastmile_qr_scan"}, "bike_id": "262360c69c9882b68fb3ac566472e4c7", "is_reserved": 0, "lon": -77.02698866666667, "name": "262360c69c9882b68fb3ac566472e4c7", "is_disabled": 0, "lat": 38.94979516666667}, {"type": "electric_scooter", "fusion_lon": 0.0, "fusion_lat": 0.0, "rental_uris": {"android": "https://dc.lft.to/lastmile_qr_scan", "ios": "https://dc.lft.to/lastmile_qr_scan"}, "bike_id": "ef7817dffe9e82014a5496ee6b65b770", "is_reserved": 0, "lon": -77.001892, "name": "ef7817dffe9e82014a5496ee6b65b770", "is_disabled": 0, "lat": 38.89103516666667}, {"type": "electric_scooter", "fusion_lon": 0.0, "fusion_lat": 0.0, "rental_uris": {"android": "https://dc.lft.to/lastmile_qr_scan", "ios": "https://dc.lft.to/lastmile_qr_scan"}, "bike_id": "760c240e7d75c6949be178ff1b93510d", "is_reserved": 0, "lon": -77.02171433333334, "name": "760c240e7d75c6949be178ff1b93510d", "is_disabled": 0, "lat": 38.91909733333333}, {"type": "electric_scooter", "fusion_lon": 0.0, "fusion_lat": 0.0, "rental_uris": {"android": "https://dc.lft.to/lastmile_qr_scan", "ios": "https://dc.lft.to/lastmile_qr_scan"}, "bike_id": "87e94113179de737bfbcc27d386896bc", "is_reserved": 0, "lon": -77.03147616666666, "name": "87e94113179de737bfbcc27d386896bc", "is_disabled": 0, "lat": 38.883388}, {"type": "electric_scooter", "fusion_lon": 0.0, "fusion_lat": 0.0, "rental_uris": {"android": "https://dc.lft.to/lastmile_qr_scan", "ios": "https://dc.lft.to/lastmile_qr_scan"}, "bike_id": "ed4c2894eca4cefed12af0eeecee6de9", "is_reserved": 0, "lon": -77.009297, "name": "ed4c2894eca4cefed12af0eeecee6de9", "is_disabled": 0, "lat": 38.882005166666666}, {"type": "electric_scooter", "fusion_lon": 0.0, "fusion_lat": 0.0, "rental_uris": {"android": "https://dc.lft.to/lastmile_qr_scan", "ios": "https://dc.lft.to/lastmile_qr_scan"}, "bike_id": "6f10d709ed961b5c494a3552a51f198c", "is_reserved": 0, "lon": -77.03369016666667, "name": "6f10d709ed961b5c494a3552a51f198c", "is_disabled": 0, "lat": 38.90278333333333}, {"type": "electric_scooter", "fusion_lon": 0.0, "fusion_lat": 0.0, "rental_uris": {"android": "https://dc.lft.to/lastmile_qr_scan", "ios": "https://dc.lft.to/lastmile_qr_scan"}, "bike_id": "477b0cef61bec9864238e4a33d2c7920", "is_reserved": 0, "lon": -77.04335333333333, "name": "477b0cef61bec9864238e4a33d2c7920", "is_disabled": 0, "lat": 38.90811333333333}, {"type": "electric_scooter", "fusion_lon": 0.0, "fusion_lat": 0.0, "rental_uris": {"android": "https://dc.lft.to/lastmile_qr_scan", "ios": "https://dc.lft.to/lastmile_qr_scan"}, "bike_id": "d659cfa2bfa2937e684f2b38ee8a140f", "is_reserved": 0, "lon": -77.02407733333334, "name": "d659cfa2bfa2937e684f2b38ee8a140f", "is_disabled": 0, "lat": 38.966684666666666}, {"type": "electric_scooter", "fusion_lon": 0.0, "fusion_lat": 0.0, "rental_uris": {"android": "https://dc.lft.to/lastmile_qr_scan", "ios": "https://dc.lft.to/lastmile_qr_scan"}, "bike_id": "7ed7e77a72b54d37543eeac2370985ea", "is_reserved": 0, "lon": -77.05330116666667, "name": "7ed7e77a72b54d37543eeac2370985ea", "is_disabled": 0, "lat": 38.90525183333333}, {"type": "electric_scooter", "fusion_lon": 0.0, "fusion_lat": 0.0, "rental_uris": {"android": "https://dc.lft.to/lastmile_qr_scan", "ios": "https://dc.lft.to/lastmile_qr_scan"}, "bike_id": "2460ec70568240a0c8c31691bc0e03df", "is_reserved": 0, "lon": -77.04074616666666, "name": "2460ec70568240a0c8c31691bc0e03df", "is_disabled": 0, "lat": 38.89910833333333}, {"type": "electric_scooter", "fusion_lon": 0.0, "fusion_lat": 0.0, "rental_uris": {"android": "https://dc.lft.to/lastmile_qr_scan", "ios": "https://dc.lft.to/lastmile_qr_scan"}, "bike_id": "541ba1aba66c1d668eb3bacd2c1063bc", "is_reserved": 0, "lon": -76.9939105, "name": "541ba1aba66c1d668eb3bacd2c1063bc", "is_disabled": 0, "lat": 38.91013216666666}, {"type": "electric_scooter", "fusion_lon": 0.0, "fusion_lat": 0.0, "rental_uris": {"android": "https://dc.lft.to/lastmile_qr_scan", "ios": "https://dc.lft.to/lastmile_qr_scan"}, "bike_id": "242e5213d3a38f64924288dc62bd9338", "is_reserved": 0, "lon": -77.01901633333334, "name": "242e5213d3a38f64924288dc62bd9338", "is_disabled": 0, "lat": 38.9234125}, {"type": "electric_scooter", "fusion_lon": 0.0, "fusion_lat": 0.0, "rental_uris": {"android": "https://dc.lft.to/lastmile_qr_scan", "ios": "https://dc.lft.to/lastmile_qr_scan"}, "bike_id": "d0fff89614ce346b935d7f20902c5c32", "is_reserved": 0, "lon": -77.00337033333334, "name": "d0fff89614ce346b935d7f20902c5c32", "is_disabled": 0, "lat": 38.893589}, {"type": "electric_scooter", "fusion_lon": 0.0, "fusion_lat": 0.0, "rental_uris": {"android": "https://dc.lft.to/lastmile_qr_scan", "ios": "https://dc.lft.to/lastmile_qr_scan"}, "bike_id": "dda616a6446adabdfbeda0501d9d4bbb", "is_reserved": 0, "lon": -76.98367716666667, "name": "dda616a6446adabdfbeda0501d9d4bbb", "is_disabled": 0, "lat": 38.86105166666667}, {"type": "electric_scooter", "fusion_lon": 0.0, "fusion_lat": 0.0, "rental_uris": {"android": "https://dc.lft.to/lastmile_qr_scan", "ios": "https://dc.lft.to/lastmile_qr_scan"}, "bike_id": "9b646bbc09125b2264b1453b9bcb11eb", "is_reserved": 0, "lon": -77.002216, "name": "9b646bbc09125b2264b1453b9bcb11eb", "is_disabled": 0, "lat": 38.91339283333333}, {"type": "electric_scooter", "fusion_lon": 0.0, "fusion_lat": 0.0, "rental_uris": {"android": "https://dc.lft.to/lastmile_qr_scan", "ios": "https://dc.lft.to/lastmile_qr_scan"}, "bike_id": "60bb1710272e74bfd6a0f501a1e32bca", "is_reserved": 0, "lon": -77.01675733333333, "name": "60bb1710272e74bfd6a0f501a1e32bca", "is_disabled": 0, "lat": 38.87706133333333}, {"type": "electric_scooter", "fusion_lon": 0.0, "fusion_lat": 0.0, "rental_uris": {"android": "https://dc.lft.to/lastmile_qr_scan", "ios": "https://dc.lft.to/lastmile_qr_scan"}, "bike_id": "ae8e86047231674e1473685367bd9cdd", "is_reserved": 0, "lon": -77.01535316666667, "name": "ae8e86047231674e1473685367bd9cdd", "is_disabled": 0, "lat": 38.884812833333335}, {"type": "electric_bike", "fusion_lon": 0.0, "fusion_lat": 0.0, "rental_uris": {"android": "https://dc.lft.to/lastmile_qr_scan", "ios": "https://dc.lft.to/lastmile_qr_scan"}, "bike_id": "8fa82d0652e8e58997d343687dcc8e13", "is_reserved": 0, "lon": -76.9884115, "name": "8fa82d0652e8e58997d343687dcc8e13", "is_disabled": 0, "lat": 38.8427925}, {"type": "electric_scooter", "fusion_lon": 0.0, "fusion_lat": 0.0, "rental_uris": {"android": "https://dc.lft.to/lastmile_qr_scan", "ios": "https://dc.lft.to/lastmile_qr_scan"}, "bike_id": "fbeb49925d2a54dfe31cf567823c0e8e", "is_reserved": 0, "lon": -77.03824783333333, "name": "fbeb49925d2a54dfe31cf567823c0e8e", "is_disabled": 0, "lat": 38.90576316666667}, {"type": "electric_scooter", "fusion_lon": 0.0, "fusion_lat": 0.0, "rental_uris": {"android": "https://dc.lft.to/lastmile_qr_scan", "ios": "https://dc.lft.to/lastmile_qr_scan"}, "bike_id": "421c6d66d4188af5b165bbd87e402245", "is_reserved": 0, "lon": -77.03840316666667, "name": "421c6d66d4188af5b165bbd87e402245", "is_disabled": 0, "lat": 38.931001}, {"type": "electric_scooter", "fusion_lon": 0.0, "fusion_lat": 0.0, "rental_uris": {"android": "https://dc.lft.to/lastmile_qr_scan", "ios": "https://dc.lft.to/lastmile_qr_scan"}, "bike_id": "5348103a8f8c782bfba273f6762e926c", "is_reserved": 0, "lon": -77.03749066666667, "name": "5348103a8f8c782bfba273f6762e926c", "is_disabled": 0, "lat": 38.93088783333334}, {"type": "electric_scooter", "fusion_lon": 0.0, "fusion_lat": 0.0, "rental_uris": {"android": "https://dc.lft.to/lastmile_qr_scan", "ios": "https://dc.lft.to/lastmile_qr_scan"}, "bike_id": "163d445a91e71cdcb3cef106d94c6dbe", "is_reserved": 0, "lon": -77.01795566666667, "name": "163d445a91e71cdcb3cef106d94c6dbe", "is_disabled": 0, "lat": 38.921522833333334}, {"type": "electric_scooter", "fusion_lon": 0.0, "fusion_lat": 0.0, "rental_uris": {"android": "https://dc.lft.to/lastmile_qr_scan", "ios": "https://dc.lft.to/lastmile_qr_scan"}, "bike_id": "2b0dbc8b624151721e846be99213b69f", "is_reserved": 0, "lon": -77.02414433333334, "name": "2b0dbc8b624151721e846be99213b69f", "is_disabled": 0, "lat": 38.921847166666666}, {"type": "electric_scooter", "fusion_lon": 0.0, "fusion_lat": 0.0, "rental_uris": {"android": "https://dc.lft.to/lastmile_qr_scan", "ios": "https://dc.lft.to/lastmile_qr_scan"}, "bike_id": "c862f164f327c3b6479b9dee8ec73592", "is_reserved": 0, "lon": -77.03191483333333, "name": "c862f164f327c3b6479b9dee8ec73592", "is_disabled": 0, "lat": 38.92008283333333}, {"type": "electric_scooter", "fusion_lon": 0.0, "fusion_lat": 0.0, "rental_uris": {"android": "https://dc.lft.to/lastmile_qr_scan", "ios": "https://dc.lft.to/lastmile_qr_scan"}, "bike_id": "5383c79092bcd67b70443227640a1633", "is_reserved": 0, "lon": -77.018196, "name": "5383c79092bcd67b70443227640a1633", "is_disabled": 0, "lat": 38.901278833333336}, {"type": "electric_scooter", "fusion_lon": 0.0, "fusion_lat": 0.0, "rental_uris": {"android": "https://dc.lft.to/lastmile_qr_scan", "ios": "https://dc.lft.to/lastmile_qr_scan"}, "bike_id": "d9d214997e16ff6870161734b7dfd017", "is_reserved": 0, "lon": -76.98690383333333, "name": "d9d214997e16ff6870161734b7dfd017", "is_disabled": 0, "lat": 38.86620766666667}, {"type": "electric_scooter", "fusion_lon": 0.0, "fusion_lat": 0.0, "rental_uris": {"android": "https://dc.lft.to/lastmile_qr_scan", "ios": "https://dc.lft.to/lastmile_qr_scan"}, "bike_id": "b6f9890f722a29c180cf16256eda6d1a", "is_reserved": 0, "lon": -76.9844025, "name": "b6f9890f722a29c180cf16256eda6d1a", "is_disabled": 0, "lat": 38.90964983333333}, {"type": "electric_bike", "fusion_lon": 0.0, "fusion_lat": 0.0, "rental_uris": {"android": "https://dc.lft.to/lastmile_qr_scan", "ios": "https://dc.lft.to/lastmile_qr_scan"}, "bike_id": "463ffa88aa89e82cd5e8a0498fa3794c", "is_reserved": 0, "lon": -77.00198583333334, "name": "463ffa88aa89e82cd5e8a0498fa3794c", "is_disabled": 0, "lat": 38.952551166666666}, {"type": "electric_scooter", "fusion_lon": 0.0, "fusion_lat": 0.0, "rental_uris": {"android": "https://dc.lft.to/lastmile_qr_scan", "ios": "https://dc.lft.to/lastmile_qr_scan"},