{"data": {"bikes": [{"rental_uris": {"ios": "https://dc.lft.to/lastmile_qr_scan", "android": "https://dc.lft.to/lastmile_qr_scan"}, "lon": -77.00212816666667, "type": "electric_scooter", "fusion_lat": 0.0, "lat": 38.9002925, "name": "5fce12bd8b057c25b4f4daabde3e0fdd", "fusion_lon": 0.0, "bike_id": "5fce12bd8b057c25b4f4daabde3e0fdd", "is_disabled": 0, "is_reserved": 0}, {"rental_uris": {"ios": "https://dc.lft.to/lastmile_qr_scan", "android": "https://dc.lft.to/lastmile_qr_scan"}, "lon": -77.01104983333333, "type": "electric_scooter", "fusion_lat": 0.0, "lat": 38.9036085, "name": "e39acc2f9163414ecc5cd367bfe0750e", "fusion_lon": 0.0, "bike_id": "e39acc2f9163414ecc5cd367bfe0750e", "is_disabled": 0, "is_reserved": 0}, {"rental_uris": {"ios": "https://dc.lft.to/lastmile_qr_scan", "android": "https://dc.lft.to/lastmile_qr_scan"}, "lon": -77.049939, "type": "electric_scooter", "fusion_lat": 0.0, "lat": 38.905333166666665, "name": "f04f3451df86f290388d17aaf76d12f9", "fusion_lon": 0.0, "bike_id": "f04f3451df86f290388d17aaf76d12f9", "is_disabled": 0, "is_reserved": 0}, {"rental_uris": {"ios": "https://dc.lft.to/lastmile_qr_scan", "android": "https://dc.lft.to/lastmile_qr_scan"}, "lon": -77.06312783333334, "type": "electric_scooter", "fusion_lat": 0.0, "lat": 38.943758333333335, "name": "1edb7978a464dfc441dfad7837463d21", "fusion_lon": 0.0, "bike_id": "1edb7978a464dfc441dfad7837463d21", "is_disabled": 0, "is_reserved": 0}, {"rental_uris": {"ios": "https://dc.lft.to/lastmile_qr_scan", "android": "https://dc.lft.to/lastmile_qr_scan"}, "lon": -77.03673016666667, "type": "electric_scooter", "fusion_lat": 0.0, "lat": 38.918720666666665, "name": "9b9f30742572407567993a1c359be487", "fusion_lon": 0.0, "bike_id": "9b9f30742572407567993a1c359be487", "is_disabled": 0, "is_reserved": 0}, {"rental_uris": {"ios": "https://dc.lft.to/lastmile_qr_scan", "android": "https://dc.lft.to/lastmile_qr_scan"}, "lon": -76.9589895, "type": "electric_scooter", "fusion_lat": 0.0, "lat": 38.92691166666667, "name": "39ea9345c9726f9229e9de30fb1e2894", "fusion_lon": 0.0, "bike_id": "39ea9345c9726f9229e9de30fb1e2894", "is_disabled": 0, "is_reserved": 0}, {"rental_uris": {"ios": "https://dc.lft.to/lastmile_qr_scan", "android": "https://dc.lft.to/lastmile_qr_scan"}, "lon": -76.95184766666667, "type": "electric_bike", "fusion_lat": 0.0, "lat": 38.9068625, "name": "920af253a78c41cecc356e1c386140fd", "fusion_lon": 0.0, "bike_id": "920af253a78c41cecc356e1c386140fd", "is_disabled": 0, "is_reserved": 0}, {"rental_uris": {"ios": "https://dc.lft.to/lastmile_qr_scan", "android": "https://dc.lft.to/lastmile_qr_scan"}, "lon": -77.04285333333333, "type": "electric_scooter", "fusion_lat": 0.0, "lat": 38.895326833333336, "name": "1ab39b89883b9574349403e50e22e723", "fusion_lon": 0.0, "bike_id": "1ab39b89883b9574349403e50e22e723", "is_disabled": 0, "is_reserved": 0}, {"rental_uris": {"ios": "https://dc.lft.to/lastmile_qr_scan", "android": "https://dc.lft.to/lastmile_qr_scan"}, "lon": -76.93179333333333, "type": "electric_scooter", "fusion_lat": 0.0, "lat": 38.8988255, "name": "4ff50b506624419e0aa19ec979a229ef", "fusion_lon": 0.0, "bike_id": "4ff50b506624419e0aa19ec979a229ef", "is_disabled": 0, "is_reserved": 0}, {"rental_uris": {"ios": "https://dc.lft.to/lastmile_qr_scan", "android": "https://dc.lft.to/lastmile_qr_scan"}, "lon": -77.013721, "type": "electric_scooter", "fusion_lat": 0.0, "lat": 38.8865525, "name": "a6b7a20b304d6158d390049583220df0", "fusion_lon": 0.0, "bike_id": "a6b7a20b304d6158d390049583220df0", "is_disabled": 0, "is_reserved": 0}, {"rental_uris": {"ios": "https://dc.lft.to/lastmile_qr_scan", "android": "https://dc.lft.to/lastmile_qr_scan"}, "lon": -77.05788766666667, "type": "electric_scooter", "fusion_lat": 0.0, "lat": 38.93478983333333, "name": "8fc4284909e620f7904fc363f15221ac", "fusion_lon": 0.0, "bike_id": "8fc4284909e620f7904fc363f15221ac", "is_disabled": 0, "is_reserved": 0}, {"rental_uris": {"ios": "https://dc.lft.to/lastmile_qr_scan", "android": "https://dc.lft.to/lastmile_qr_scan"}, "lon": -77.08189016666667, "type": "electric_bike", "fusion_lat": 0.0, "lat": 38.92205116666667, "name": "8f79160ee4516b58511d97e1e0b1c81e", "fusion_lon": 0.0, "bike_id": "8f79160ee4516b58511d97e1e0b1c81e", "is_disabled": 0, "is_reserved": 0}, {"rental_uris": {"ios": "https://dc.lft.to/lastmile_qr_scan", "android": "https://dc.lft.to/lastmile_qr_scan"}, "lon": -77.02399916666667, "type": "electric_scooter", "fusion_lat": 0.0, "lat": 38.9308025, "name": "78489853d5509bfa4d303a2257a2892e", "fusion_lon": 0.0, "bike_id": "78489853d5509bfa4d303a2257a2892e", "is_disabled": 0, "is_reserved": 0}, {"rental_uris": {"ios": "https://dc.lft.to/lastmile_qr_scan", "android": "https://dc.lft.to/lastmile_qr_scan"}, "lon": -77.0064895, "type": "electric_scooter", "fusion_lat": 0.0, "lat": 38.876281166666665, "name": "92dc38c948f72502450a3be2516bc97d", "fusion_lon": 0.0, "bike_id": "92dc38c948f72502450a3be2516bc97d", "is_disabled": 0, "is_reserved": 0}, {"rental_uris": {"ios": "https://dc.lft.to/lastmile_qr_scan", "android": "https://dc.lft.to/lastmile_qr_scan"}, "lon": -76.98080483333334, "type": "electric_bike", "fusion_lat": 0.0, "lat": 38.902897, "name": "06be82afacf2d1ced3e06dc661fe3c02", "fusion_lon": 0.0, "bike_id": "06be82afacf2d1ced3e06dc661fe3c02", "is_disabled": 0, "is_reserved": 0}, {"rental_uris": {"ios": "https://dc.lft.to/lastmile_qr_scan", "android": "https://dc.lft.to/lastmile_qr_scan"}, "lon": -77.03369583333334, "type": "electric_scooter", "fusion_lat": 0.0, "lat": 38.945113166666665, "name": "9d317293263053731b27723b29a8736d", "fusion_lon": 0.0, "bike_id": "9d317293263053731b27723b29a8736d", "is_disabled": 0, "is_reserved": 0}, {"rental_uris": {"ios": "https://dc.lft.to/lastmile_qr_scan", "android": "https://dc.lft.to/lastmile_qr_scan"}, "lon": -77.04018066666667, "type": "electric_scooter", "fusion_lat": 0.0, "lat": 38.91818766666667, "name": "aa4c61c32caf61f88ea66c7325ab2524", "fusion_lon": 0.0, "bike_id": "aa4c61c32caf61f88ea66c7325ab2524", "is_disabled": 0, "is_reserved": 0}, {"rental_uris": {"ios": "https://dc.lft.to/lastmile_qr_scan", "android": "https://dc.lft.to/lastmile_qr_scan"}, "lon": -77.021445, "type": "electric_bike", "fusion_lat": 0.0, "lat": 38.973265833333336, "name": "e925c42736370a10a6668a9e6b20160a", "fusion_lon": 0.0, "bike_id": "e925c42736370a10a6668a9e6b20160a", "is_disabled": 0, "is_reserved": 0}, {"rental_uris": {"ios": "https://dc.lft.to/lastmile_qr_scan", "android": "https://dc.lft.to/lastmile_qr_scan"}, "lon": -76.99962383333333, "type": "electric_scooter", "fusion_lat": 0.0, "lat": 38.901393166666665, "name": "0fa4741f9ff0f15a61cfe53a3a4f784c", "fusion_lon": 0.0, "bike_id": "0fa4741f9ff0f15a61cfe53a3a4f784c", "is_disabled": 0, "is_reserved": 0}, {"rental_uris": {"ios": "https://dc.lft.to/lastmile_qr_scan", "android": "https://dc.lft.to/lastmile_qr_scan"}, "lon": -76.93615633333333, "type": "electric_bike", "fusion_lat": 0.0, "lat": 38.97065383333333, "name": "c86d3274ad2c52c4c3ffd3328df65ce2", "fusion_lon": 0.0, "bike_id": "c86d3274ad2c52c4c3ffd3328df65ce2", "is_disabled": 0, "is_reserved": 0}, {"rental_uris": {"ios": "https://dc.lft.to/lastmile_qr_scan", "android": "https://dc.lft.to/lastmile_qr_scan"}, "lon": -77.07901983333333, "type": "electric_bike", "fusion_lat": 0.0, "lat": 38.83938466666667, "name": "ef013aba31e6f1257f1b58ecc3170e0d", "fusion_lon": 0.0, "bike_id": "ef013aba31e6f1257f1b58ecc3170e0d", "is_disabled": 0, "is_reserved": 0}, {"rental_uris": {"ios": "https://dc.lft.to/lastmile_qr_scan", "android": "https://dc.lft.to/lastmile_qr_scan"}, "lon": -77.020946, "type": "electric_scooter", "fusion_lat": 0.0, "lat": 38.914147166666666, "name": "3c6983eb9168cb3540add6c95c679282", "fusion_lon": 0.0, "bike_id": "3c6983eb9168cb3540add6c95c679282", "is_disabled": 0, "is_reserved": 0}, {"rental_uris": {"ios": "https://dc.lft.to/lastmile_qr_scan", "android": "https://dc.lft.to/lastmile_qr_scan"}, "lon": -77.00090283333333, "type": "electric_scooter", "fusion_lat": 0.0, "lat": 38.873767, "name": "7868375ba9468e26ffea0e18cbbe2db9", "fusion_lon": 0.0, "bike_id": "7868375ba9468e26ffea0e18cbbe2db9", "is_disabled": 0, "is_reserved": 0}, {"rental_uris": {"ios": "https://dc.lft.to/lastmile_qr_scan", "android": "https://dc.lft.to/lastmile_qr_scan"}, "lon": -76.954126, "type": "electric_scooter", "fusion_lat": 0.0, "lat": 38.889916, "name": "c8083002e254cc3bd20f644c94c3e4d1", "fusion_lon": 0.0, "bike_id": "c8083002e254cc3bd20f644c94c3e4d1", "is_disabled": 0, "is_reserved": 0}, {"rental_uris": {"ios": "https://dc.lft.to/lastmile_qr_scan", "android": "https://dc.lft.to/lastmile_qr_scan"}, "lon": -77.03613233333333, "type": "electric_scooter", "fusion_lat": 0.0, "lat": 38.932577, "name": "2254ecd388342e99fad45ee400a42299", "fusion_lon": 0.0, "bike_id": "2254ecd388342e99fad45ee400a42299", "is_disabled": 0, "is_reserved": 0}, {"rental_uris": {"ios": "https://dc.lft.to/lastmile_qr_scan", "android": "https://dc.lft.to/lastmile_qr_scan"}, "lon": -76.94171566666667, "type": "electric_scooter", "fusion_lat": 0.0, "lat": 38.88219516666667, "name": "957381f963345d50b22f5b027c6afddf", "fusion_lon": 0.0, "bike_id": "957381f963345d50b22f5b027c6afddf", "is_disabled": 0, "is_reserved": 0}, {"rental_uris": {"ios": "https://dc.lft.to/lastmile_qr_scan", "android": "https://dc.lft.to/lastmile_qr_scan"}, "lon": -77.04482983333334, "type": "electric_scooter", "fusion_lat": 0.0, "lat": 38.9105695, "name": "67cab85bab2d4ebb36358795375c17da", "fusion_lon": 0.0, "bike_id": "67cab85bab2d4ebb36358795375c17da", "is_disabled": 0, "is_reserved": 0}, {"rental_uris": {"ios": "https://dc.lft.to/lastmile_qr_scan", "android": "https://dc.lft.to/lastmile_qr_scan"}, "lon": -77.042532, "type": "electric_scooter", "fusion_lat": 0.0, "lat": 38.92202233333333, "name": "c1ea8574fe4ae86d6c138964995e03f8", "fusion_lon": 0.0, "bike_id": "c1ea8574fe4ae86d6c138964995e03f8", "is_disabled": 0, "is_reserved": 0}, {"rental_uris": {"ios": "https://dc.lft.to/lastmile_qr_scan", "android": "https://dc.lft.to/lastmile_qr_scan"}, "lon": -77.0444185, "type": "electric_scooter", "fusion_lat": 0.0, "lat": 38.91016716666667, "name": "5dda9fc90a0effdb6563e0da362393a0", "fusion_lon": 0.0, "bike_id": "5dda9fc90a0effdb6563e0da362393a0", "is_disabled": 0, "is_reserved": 0}, {"rental_uris": {"ios": "https://dc.lft.to/lastmile_qr_scan", "android": "https://dc.lft.to/lastmile_qr_scan"}, "lon": -76.98713183333334, "type": "electric_scooter", "fusion_lat": 0.0, "lat": 38.86256183333333, "name": "0e6fc8eeb0dfb8cd04224c63c7c2d811", "fusion_lon": 0.0, "bike_id": "0e6fc8eeb0dfb8cd04224c63c7c2d811", "is_disabled": 0, "is_reserved": 0}, {"rental_uris": {"ios": "https://dc.lft.to/lastmile_qr_scan", "android": "https://dc.lft.to/lastmile_qr_scan"}, "lon": -76.99144883333334, "type": "electric_scooter", "fusion_lat": 0.0, "lat": 38.900409333333336, "name": "741fe62b2e8d864f5e83e6627eb2edd3", "fusion_lon": 0.0, "bike_id": "741fe62b2e8d864f5e83e6627eb2edd3", "is_disabled": 0, "is_reserved": 0}, {"rental_uris": {"ios": "https://dc.lft.to/lastmile_qr_scan", "android": "https://dc.lft.to/lastmile_qr_scan"}, "lon": -77.03869083333333, "type": "electric_scooter", "fusion_lat": 0.0, "lat": 38.915585166666666, "name": "f18c0248a80b2b09f29b05178fbf547d", "fusion_lon": 0.0, "bike_id": "f18c0248a80b2b09f29b05178fbf547d", "is_disabled": 0, "is_reserved": 0}, {"rental_uris": {"ios": "https://dc.lft.to/lastmile_qr_scan", "android": "https://dc.lft.to/lastmile_qr_scan"}, "lon": -77.05473116666667, "type": "electric_scooter", "fusion_lat": 0.0, "lat": 38.92097833333333, "name": "7f68491e4c8a81a71d438ac10e5faf56", "fusion_lon": 0.0, "bike_id": "7f68491e4c8a81a71d438ac10e5faf56", "is_disabled": 0, "is_reserved": 0}, {"rental_uris": {"ios": "https://dc.lft.to/lastmile_qr_scan", "android": "https://dc.lft.to/lastmile_qr_scan"}, "lon": -77.11276233333334, "type": "electric_bike", "fusion_lat": 0.0, "lat": 38.856281833333334, "name": "621ee4cdad5605e66f5185384788b72b", "fusion_lon": 0.0, "bike_id": "621ee4cdad5605e66f5185384788b72b", "is_disabled": 0, "is_reserved": 0}, {"rental_uris": {"ios": "https://dc.lft.to/lastmile_qr_scan", "android": "https://dc.lft.to/lastmile_qr_scan"}, "lon": -77.01361633333333, "type": "electric_scooter", "fusion_lat": 0.0, "lat": 38.9193855, "name": "7632bca058b047b8337575571964d710", "fusion_lon": 0.0, "bike_id": "7632bca058b047b8337575571964d710", "is_disabled": 0, "is_reserved": 0}, {"rental_uris": {"ios": "https://dc.lft.to/lastmile_qr_scan", "android": "https://dc.lft.to/lastmile_qr_scan"}, "lon": -77.03771983333333, "type": "electric_scooter", "fusion_lat": 0.0, "lat": 38.91687966666667, "name": "b34509fd4c549766fe583c26cd454470", "fusion_lon": 0.0, "bike_id": "b34509fd4c549766fe583c26cd454470", "is_disabled": 0, "is_reserved": 0}, {"rental_uris": {"ios": "https://dc.lft.to/lastmile_qr_scan", "android": "https://dc.lft.to/lastmile_qr_scan"}, "lon": -76.93174766666667, "type": "electric_scooter", "fusion_lat": 0.0, "lat": 38.898863666666664, "name": "a54315016ae89520cc2e402857567341", "fusion_lon": 0.0, "bike_id": "a54315016ae89520cc2e402857567341", "is_disabled": 0, "is_reserved": 0}, {"rental_uris": {"ios": "https://dc.lft.to/lastmile_qr_scan", "android": "https://dc.lft.to/lastmile_qr_scan"}, "lon": -76.98648566666667, "type": "electric_scooter", "fusion_lat": 0.0, "lat": 38.85809716666667, "name": "5eb37dc049ac868c5c3db6e4898b4979", "fusion_lon": 0.0, "bike_id": "5eb37dc049ac868c5c3db6e4898b4979", "is_disabled": 0, "is_reserved": 0}, {"rental_uris": {"ios": "https://dc.lft.to/lastmile_qr_scan", "android": "https://dc.lft.to/lastmile_qr_scan"}, "lon": -77.002075, "type": "electric_scooter", "fusion_lat": 0.0, "lat": 38.90029166666667, "name": "147296be524fcb1a3e5ed1e3d9180f79", "fusion_lon": 0.0, "bike_id": "147296be524fcb1a3e5ed1e3d9180f79", "is_disabled": 0, "is_reserved": 0}, {"rental_uris": {"ios": "https://dc.lft.to/lastmile_qr_scan", "android": "https://dc.lft.to/lastmile_qr_scan"}, "lon": -77.02801033333333, "type": "electric_scooter", "fusion_lat": 0.0, "lat": 38.904732833333334, "name": "c88ffa395d2cf51643504e487b1ee956", "fusion_lon": 0.0, "bike_id": "c88ffa395d2cf51643504e487b1ee956", "is_disabled": 0, "is_reserved": 0}, {"rental_uris": {"ios": "https://dc.lft.to/lastmile_qr_scan", "android": "https://dc.lft.to/lastmile_qr_scan"}, "lon": -77.04202133333334, "type": "electric_scooter", "fusion_lat": 0.0, "lat": 38.9210325, "name": "e4b7358515cba53311468be712b45a73", "fusion_lon": 0.0, "bike_id": "e4b7358515cba53311468be712b45a73", "is_disabled": 0, "is_reserved": 0}, {"rental_uris": {"ios": "https://dc.lft.to/lastmile_qr_scan", "android": "https://dc.lft.to/lastmile_qr_scan"}, "lon": -77.057415, "type": "electric_scooter", "fusion_lat": 0.0, "lat": 38.933981, "name": "76ae189d163ab828440f5f5c7ea693be", "fusion_lon": 0.0, "bike_id": "76ae189d163ab828440f5f5c7ea693be", "is_disabled": 0, "is_reserved": 0}, {"rental_uris": {"ios": "https://dc.lft.to/lastmile_qr_scan", "android": "https://dc.lft.to/lastmile_qr_scan"}, "lon": -77.048039, "type": "electric_scooter", "fusion_lat": 0.0, "lat": 38.91633233333334, "name": "8696a79d540c638f8e0e1259738e12bd", "fusion_lon": 0.0, "bike_id": "8696a79d540c638f8e0e1259738e12bd", "is_disabled": 0, "is_reserved": 0}, {"rental_uris": {"ios": "https://dc.lft.to/lastmile_qr_scan", "android": "https://dc.lft.to/lastmile_qr_scan"}, "lon": -77.04730433333333, "type": "electric_scooter", "fusion_lat": 0.0, "lat": 38.88440333333333, "name": "f3734f7dac967884e35e36f6e5c32fb7", "fusion_lon": 0.0, "bike_id": "f3734f7dac967884e35e36f6e5c32fb7", "is_disabled": 0, "is_reserved": 0}, {"rental_uris": {"ios": "https://dc.lft.to/lastmile_qr_scan", "android": "https://dc.lft.to/lastmile_qr_scan"}, "lon": -76.93366316666666, "type": "electric_scooter", "fusion_lat": 0.0, "lat": 38.89913333333333, "name": "612a93c4010fcc9b0c667d2fa3b14a2b", "fusion_lon": 0.0, "bike_id": "612a93c4010fcc9b0c667d2fa3b14a2b", "is_disabled": 0, "is_reserved": 0}, {"rental_uris": {"ios": "https://dc.lft.to/lastmile_qr_scan", "android": "https://dc.lft.to/lastmile_qr_scan"}, "lon": -77.19906616666667, "type": "electric_bike", "fusion_lat": 0.0, "lat": 38.87529133333334, "name": "b19d7c738521730320b7de2a8901d848", "fusion_lon": 0.0, "bike_id": "b19d7c738521730320b7de2a8901d848", "is_disabled": 0, "is_reserved": 0}, {"rental_uris": {"ios": "https://dc.lft.to/lastmile_qr_scan", "android": "https://dc.lft.to/lastmile_qr_scan"}, "lon": -77.02105583333334, "type": "electric_scooter", "fusion_lat": 0.0, "lat": 38.87926683333333, "name": "9d7ba368bbbddea306c0987a2265bbde", "fusion_lon": 0.0, "bike_id": "9d7ba368bbbddea306c0987a2265bbde", "is_disabled": 0, "is_reserved": 0}, {"rental_uris": {"ios": "https://dc.lft.to/lastmile_qr_scan", "android": "https://dc.lft.to/lastmile_qr_scan"}, "lon": -77.0216245, "type": "electric_scooter", "fusion_lat": 0.0, "lat": 38.887468, "name": "e4270b02f811da621c77b95933c38c74", "fusion_lon": 0.0, "bike_id": "e4270b02f811da621c77b95933c38c74", "is_disabled": 0, "is_reserved": 0}, {"rental_uris": {"ios": "https://dc.lft.to/lastmile_qr_scan", "android": "https://dc.lft.to/lastmile_qr_scan"}, "lon": -77.02981983333333, "type": "electric_scooter", "fusion_lat": 0.0, "lat": 38.936058833333334, "name": "a6e670d1972d70077d58d732e90d12bb", "fusion_lon": 0.0, "bike_id": "a6e670d1972d70077d58d732e90d12bb", "is_disabled": 0, "is_reserved": 0}, {"rental_uris": {"ios": "https://dc.lft.to/lastmile_qr_scan", "android": "https://dc.lft.to/lastmile_qr_scan"}, "lon": -77.0321325, "type": "electric_scooter", "fusion_lat": 0.0, "lat": 38.9181805, "name": "7d618f2581967e886b2df62dd4f09e00", "fusion_lon": 0.0, "bike_id": "7d618f2581967e886b2df62dd4f09e00", "is_disabled": 0, "is_reserved": 0}, {"rental_uris": {"ios": "https://dc.lft.to/lastmile_qr_scan", "android": "https://dc.lft.to/lastmile_qr_scan"}, "lon": -77.05597766666666, "type": "electric_scooter", "fusion_lat": 0.0, "lat": 38.93695916666667, "name": "c5efe7b426998a8d1cc45fd6c571450a", "fusion_lon": 0.0, "bike_id": "c5efe7b426998a8d1cc45fd6c571450a", "is_disabled": 0, "is_reserved": 0}, {"rental_uris": {"ios": "https://dc.lft.to/lastmile_qr_scan", "android": "https://dc.lft.to/lastmile_qr_scan"}, "lon": -77.036559, "type": "electric_scooter", "fusion_lat": 0.0, "lat": 38.9212225, "name": "5bb2708a99d77a5ad07bd211f86396dc", "fusion_lon": 0.0, "bike_id": "5bb2708a99d77a5ad07bd211f86396dc", "is_disabled": 0, "is_reserved": 0}, {"rental_uris": {"ios": "https://dc.lft.to/lastmile_qr_scan", "android": "https://dc.lft.to/lastmile_qr_scan"}, "lon": -77.03169116666666, "type": "electric_scooter", "fusion_lat": 0.0, "lat": 38.92118816666667, "name": "351a349c19e1b5d1e82e3a7593b8f8d2", "fusion_lon": 0.0, "bike_id": "351a349c19e1b5d1e82e3a7593b8f8d2", "is_disabled": 0, "is_reserved": 0}, {"rental_uris": {"ios": "https://dc.lft.to/lastmile_qr_scan", "android": "https://dc.lft.to/lastmile_qr_scan"}, "lon": -77.003163, "type": "electric_scooter", "fusion_lat": 0.0, "lat": 38.90898133333334, "name": "87559e980860a6d5bc83e59b737d2d17", "fusion_lon": 0.0, "bike_id": "87559e980860a6d5bc83e59b737d2d17", "is_disabled": 0, "is_reserved": 0}, {"rental_uris": {"ios": "https://dc.lft.to/lastmile_qr_scan", "android": "https://dc.lft.to/lastmile_qr_scan"}, "lon": -77.04998216666667, "type": "electric_scooter", "fusion_lat": 0.0, "lat": 38.892337833333336, "name": "67631d465d6b60ca82804577fa5fdda7", "fusion_lon": 0.0, "bike_id": "67631d465d6b60ca82804577fa5fdda7", "is_disabled": 0, "is_reserved": 0}, {"rental_uris": {"ios": "https://dc.lft.to/lastmile_qr_scan", "android": "https://dc.lft.to/lastmile_qr_scan"}, "lon": -76.9951585, "type": "electric_scooter", "fusion_lat": 0.0, "lat": 38.86261733333333, "name": "1e5350477b909d008d0113a6cf7aa5f0", "fusion_lon": 0.0, "bike_id": "1e5350477b909d008d0113a6cf7aa5f0", "is_disabled": 0, "is_reserved": 0}, {"rental_uris": {"ios": "https://dc.lft.to/lastmile_qr_scan", "android": "https://dc.lft.to/lastmile_qr_scan"}, "lon": -77.02352733333333, "type": "electric_scooter", "fusion_lat": 0.0, "lat": 38.945250333333334, "name": "67e09600f518f31a87d5c08ea737400a", "fusion_lon": 0.0, "bike_id": "67e09600f518f31a87d5c08ea737400a", "is_disabled": 0, "is_reserved": 0}, {"rental_uris": {"ios": "https://dc.lft.to/lastmile_qr_scan", "android": "https://dc.lft.to/lastmile_qr_scan"}, "lon": -76.948893, "type": "electric_scooter", "fusion_lat": 0.0, "lat": 38.8953535, "name": "f93ea28e70028636c170976fec43004c", "fusion_lon": 0.0, "bike_id": "f93ea28e70028636c170976fec43004c", "is_disabled": 0, "is_reserved": 0}, {"rental_uris": {"ios": "https://dc.lft.to/lastmile_qr_scan", "android": "https://dc.lft.to/lastmile_qr_scan"}, "lon": -77.02390566666666, "type": "electric_scooter", "fusion_lat": 0.0, "lat": 38.89930716666667, "name": "b8644f9aeb4c257b2e8d5671c9d040c6", "fusion_lon": 0.0, "bike_id": "b8644f9aeb4c257b2e8d5671c9d040c6", "is_disabled": 0, "is_reserved": 0}, {"rental_uris": {"ios": "https://dc.lft.to/lastmile_qr_scan", "android": "https://dc.lft.to/lastmile_qr_scan"}, "lon": -77.00197566666667, "type": "electric_scooter", "fusion_lat": 0.0, "lat": 38.87378283333334, "name": "589a91a73dbc7e38fb699e936ddcafef", "fusion_lon": 0.0, "bike_id": "589a91a73dbc7e38fb699e936ddcafef", "is_disabled": 0, "is_reserved": 0}, {"rental_uris": {"ios": "https://dc.lft.to/lastmile_qr_scan", "android": "https://dc.lft.to/lastmile_qr_scan"}, "lon": -77.03192933333334, "type": "electric_scooter", "fusion_lat": 0.0, "lat": 38.919617833333334, "name": "5dcd3da225ff24c202f8bcb1f090512c", "fusion_lon": 0.0, "bike_id": "5dcd3da225ff24c202f8bcb1f090512c", "is_disabled": 0, "is_reserved": 0}, {"rental_uris": {"ios": "https://dc.lft.to/lastmile_qr_scan", "android": "https://dc.lft.to/lastmile_qr_scan"}, "lon": -77.06946566666667, "type": "electric_scooter", "fusion_lat": 0.0, "lat": 38.90511083333333, "name": "220869437b70c242d698038f60558b91", "fusion_lon": 0.0, "bike_id": "220869437b70c242d698038f60558b91", "is_disabled": 0, "is_reserved": 0}, {"rental_uris": {"ios": "https://dc.lft.to/lastmile_qr_scan", "android": "https://dc.lft.to/lastmile_qr_scan"}, "lon": -77.03263766666667, "type": "electric_scooter", "fusion_lat": 0.0, "lat": 38.93665083333333, "name": "419e533e96268693700d3fcd4f68a80d", "fusion_lon": 0.0, "bike_id": "419e533e96268693700d3fcd4f68a80d", "is_disabled": 0, "is_reserved": 0}, {"rental_uris": {"ios": "https://dc.lft.to/lastmile_qr_scan", "android": "https://dc.lft.to/lastmile_qr_scan"}, "lon": -77.10124983333333, "type": "electric_bike", "fusion_lat": 0.0, "lat": 38.85205833333333, "name": "e850ed322ec69f26e10d198409976b90", "fusion_lon": 0.0, "bike_id": "e850ed322ec69f26e10d198409976b90", "is_disabled": 0, "is_reserved": 0}, {"rental_uris": {"ios": "https://dc.lft.to/lastmile_qr_scan", "android": "https://dc.lft.to/lastmile_qr_scan"}, "lon": -77.0009515, "type": "electric_scooter", "fusion_lat": 0.0, "lat": 38.900106666666666, "name": "999cc51f5426e9b6aa72268cf25db8c3", "fusion_lon": 0.0, "bike_id": "999cc51f5426e9b6aa72268cf25db8c3", "is_disabled": 0, "is_reserved": 0}, {"rental_uris": {"ios": "https://dc.lft.to/lastmile_qr_scan", "android": "https://dc.lft.to/lastmile_qr_scan"}, "lon": -77.04449633333333, "type": "electric_scooter", "fusion_lat": 0.0, "lat": 38.910163833333336, "name": "bf7aab1da0c840487030be0de2072166", "fusion_lon": 0.0, "bike_id": "bf7aab1da0c840487030be0de2072166", "is_disabled": 0, "is_reserved": 0}, {"rental_uris": {"ios": "https://dc.lft.to/lastmile_qr_scan", "android": "https://dc.lft.to/lastmile_qr_scan"}, "lon": -77.032132, "type": "electric_scooter", "fusion_lat": 0.0, "lat": 38.892349333333335, "name": "6bd8abe072c9b4806c2a0a13127b9340", "fusion_lon": 0.0, "bike_id": "6bd8abe072c9b4806c2a0a13127b9340", "is_disabled": 0, "is_reserved": 0}, {"rental_uris": {"ios": "https://dc.lft.to/lastmile_qr_scan", "android": "https://dc.lft.to/lastmile_qr_scan"}, "lon": -77.03678583333334, "type": "electric_scooter", "fusion_lat": 0.0, "lat": 38.91802833333333, "name": "9c8eae5bf47ae1d1c11fcb86370cfa47", "fusion_lon": 0.0, "bike_id": "9c8eae5bf47ae1d1c11fcb86370cfa47", "is_disabled": 0, "is_reserved": 0}, {"rental_uris": {"ios": "https://dc.lft.to/lastmile_qr_scan", "android": "https://dc.lft.to/lastmile_qr_scan"}, "lon": -77.02477383333333, "type": "electric_scooter", "fusion_lat": 0.0, "lat": 38.93824166666667, "name": "8ae14d7b8b57ddeba38ea5ed95fb37f0", "fusion_lon": 0.0, "bike_id": "8ae14d7b8b57ddeba38ea5ed95fb37f0", "is_disabled": 0, "is_reserved": 0}, {"rental_uris": {"ios": "https://dc.lft.to/lastmile_qr_scan", "android": "https://dc.lft.to/lastmile_qr_scan"}, "lon": -77.09868366666667, "type": "electric_bike", "fusion_lat": 0.0, "lat": 38.853707666666665, "name": "54f5c127a472b2c92328d4e412d2c762", "fusion_lon": 0.0, "bike_id": "54f5c127a472b2c92328d4e412d2c762", "is_disabled": 0, "is_reserved": 0}, {"rental_uris": {"ios": "https://dc.lft.to/lastmile_qr_scan", "android": "https://dc.lft.to/lastmile_qr_scan"}, "lon": -77.03377066666667, "type": "electric_scooter", "fusion_lat": 0.0, "lat": 38.938427, "name": "588b5d8d1110131b2fc0e172765cb0ca", "fusion_lon": 0.0, "bike_id": "588b5d8d1110131b2fc0e172765cb0ca", "is_disabled": 0, "is_reserved": 0}, {"rental_uris": {"ios": "https://dc.lft.to/lastmile_qr_scan", "android": "https://dc.lft.to/lastmile_qr_scan"}, "lon": -77.04744433333333, "type": "electric_scooter", "fusion_lat": 0.0, "lat": 38.917734833333334, "name": "eccf0b3318656902a3569b0a26d8b5e0", "fusion_lon": 0.0, "bike_id": "eccf0b3318656902a3569b0a26d8b5e0", "is_disabled": 0, "is_reserved": 0}, {"rental_uris": {"ios": "https://dc.lft.to/lastmile_qr_scan", "android": "https://dc.lft.to/lastmile_qr_scan"}, "lon": -77.010793, "type": "electric_scooter", "fusion_lat": 0.0, "lat": 38.8940275, "name": "5548369d94e64aaddf36aae2eff4e659", "fusion_lon": 0.0, "bike_id": "5548369d94e64aaddf36aae2eff4e659", "is_disabled": 0, "is_reserved": 0}, {"rental_uris": {"ios": "https://dc.lft.to/lastmile_qr_scan", "android": "https://dc.lft.to/lastmile_qr_scan"}, "lon": -77.04813316666667, "type": "electric_scooter", "fusion_lat": 0.0, "lat": 38.92043916666667, "name": "09c454ff29c7d09dbfc14ad75fa49e1b", "fusion_lon": 0.0, "bike_id": "09c454ff29c7d09dbfc14ad75fa49e1b", "is_disabled": 0, "is_reserved": 0}, {"rental_uris": {"ios": "https://dc.lft.to/lastmile_qr_scan", "android": "https://dc.lft.to/lastmile_qr_scan"}, "lon": -77.012891, "type": "electric_scooter", "fusion_lat": 0.0, "lat": 38.900581, "name": "b4fc1f7c6d4221f323a22b7144f04265", "fusion_lon": 0.0, "bike_id": "b4fc1f7c6d4221f323a22b7144f04265", "is_disabled": 0, "is_reserved": 0}, {"rental_uris": {"ios": "https://dc.lft.to/lastmile_qr_scan", "android": "https://dc.lft.to/lastmile_qr_scan"}, "lon": -77.02396616666667, "type": "electric_scooter", "fusion_lat": 0.0, "lat": 38.937064666666664, "name": "26290e969f1429a9f4368337768e7868", "fusion_lon": 0.0, "bike_id": "26290e969f1429a9f4368337768e7868", "is_disabled": 0, "is_reserved": 0}, {"rental_uris": {"ios": "https://dc.lft.to/lastmile_qr_scan", "android": "https://dc.lft.to/lastmile_qr_scan"}, "lon": -77.028569, "type": "electric_scooter", "fusion_lat": 0.0, "lat": 38.928203333333336, "name": "4ec4060d9f79e9ff0d1d0aa936012186", "fusion_lon": 0.0, "bike_id": "4ec4060d9f79e9ff0d1d0aa936012186", "is_disabled": 0, "is_reserved": 0}, {"rental_uris": {"ios": "https://dc.lft.to/lastmile_qr_scan", "android": "https://dc.lft.to/lastmile_qr_scan"}, "lon": -77.02353733333334, "type": "electric_scooter", "fusion_lat": 0.0, "lat": 38.925051333333336, "name": "e98b64871bf1e0e6d8c6edd41991f3e6", "fusion_lon": 0.0, "bike_id": "e98b64871bf1e0e6d8c6edd41991f3e6", "is_disabled": 0, "is_reserved": 0}, {"rental_uris": {"ios": "https://dc.lft.to/lastmile_qr_scan", "android": "https://dc.lft.to/lastmile_qr_scan"}, "lon": -77.04004033333334, "type": "electric_scooter", "fusion_lat": 0.0, "lat": 38.92135666666667, "name": "95fe95fa523490046790a84a51127b02", "fusion_lon": 0.0, "bike_id": "95fe95fa523490046790a84a51127b02", "is_disabled": 0, "is_reserved": 0}, {"rental_uris": {"ios": "https://dc.lft.to/lastmile_qr_scan", "android": "https://dc.lft.to/lastmile_qr_scan"}, "lon": -77.01695466666666, "type": "electric_scooter", "fusion_lat": 0.0, "lat": 38.920126833333335, "name": "31b6de319368678cd3043d952236b5fb", "fusion_lon": 0.0, "bike_id": "31b6de319368678cd3043d952236b5fb", "is_disabled": 0, "is_reserved": 0}, {"rental_uris": {"ios": "https://dc.lft.to/lastmile_qr_scan", "android": "https://dc.lft.to/lastmile_qr_scan"}, "lon": -77.03424516666666, "type": "electric_scooter", "fusion_lat": 0.0, "lat": 38.93537283333333, "name": "eeedad9b5e4db864528fcd4fce55481f", "fusion_lon": 0.0, "bike_id": "eeedad9b5e4db864528fcd4fce55481f", "is_disabled": 0, "is_reserved": 0}, {"rental_uris": {"ios": "https://dc.lft.to/lastmile_qr_scan", "android": "https://dc.lft.to/lastmile_qr_scan"}, "lon": -77.07024766666666, "type": "electric_bike", "fusion_lat": 0.0, "lat": 38.91880833333333, "name": "282564476ae543a073a48a98995c68d9", "fusion_lon": 0.0, "bike_id": "282564476ae543a073a48a98995c68d9", "is_disabled": 0, "is_reserved": 0}, {"rental_uris": {"ios": "https://dc.lft.to/lastmile_qr_scan", "android": "https://dc.lft.to/lastmile_qr_scan"}, "lon": -77.03540266666667, "type": "electric_scooter", "fusion_lat": 0.0, "lat": 38.9328565, "name": "87e083f011492b891ac530aec143887e", "fusion_lon": 0.0, "bike_id": "87e083f011492b891ac530aec143887e", "is_disabled": 0, "is_reserved": 0}, {"rental_uris": {"ios": "https://dc.lft.to/lastmile_qr_scan", "android": "https://dc.lft.to/lastmile_qr_scan"}, "lon": -77.03346583333334, "type": "electric_scooter", "fusion_lat": 0.0, "lat": 38.9341745, "name": "9684939a86598c52d46934655e50aab7", "fusion_lon": 0.0, "bike_id": "9684939a86598c52d46934655e50aab7", "is_disabled": 0, "is_reserved": 0}, {"rental_uris": {"ios": "https://dc.lft.to/lastmile_qr_scan", "android": "https://dc.lft.to/lastmile_qr_scan"}, "lon": -77.054728, "type": "electric_scooter", "fusion_lat": 0.0, "lat": 38.8939045, "name": "cdb94e3bfbca09e8f58ee3612d7cbf64", "fusion_lon": 0.0, "bike_id": "cdb94e3bfbca09e8f58ee3612d7cbf64", "is_disabled": 0, "is_reserved": 0}, {"rental_uris": {"ios": "https://dc.lft.to/lastmile_qr_scan", "android": "https://dc.lft.to/lastmile_qr_scan"}, "lon": -76.958989, "type": "electric_bike", "fusion_lat": 0.0, "lat": 38.985078333333334, "name": "dec1b5c59f2b57115f9b9a55008c23ed", "fusion_lon": 0.0, "bike_id": "dec1b5c59f2b57115f9b9a55008c23ed", "is_disabled": 0, "is_reserved": 0}, {"rental_uris": {"ios": "https://dc.lft.to/lastmile_qr_scan", "android": "https://dc.lft.to/lastmile_qr_scan"}, "lon": -77.02204683333333, "type": "electric_scooter", "fusion_lat": 0.0, "lat": 38.896089333333336, "name": "2d8f321dee16bf8a217c6e2807753fae", "fusion_lon": 0.0, "bike_id": "2d8f321dee16bf8a217c6e2807753fae", "is_disabled": 0, "is_reserved": 0}, {"rental_uris": {"ios": "https://dc.lft.to/lastmile_qr_scan", "android": "https://dc.lft.to/lastmile_qr_scan"}, "lon": -76.93229183333334, "type": "electric_bike", "fusion_lat": 0.0, "lat": 38.86595366666667, "name": "37daa1fcdf596aaf24020ee9ea2f478d", "fusion_lon": 0.0, "bike_id": "37daa1fcdf596aaf24020ee9ea2f478d", "is_disabled": 0, "is_reserved": 0}, {"rental_uris": {"ios": "https://dc.lft.to/lastmile_qr_scan", "android": "https://dc.lft.to/lastmile_qr_scan"}, "lon": -77.1295445, "type": "electric_bike", "fusion_lat": 0.0, "lat": 38.852189333333335, "name": "6d6698d1e2e4f00d0fc7f00568253b46", "fusion_lon": 0.0, "bike_id": "6d6698d1e2e4f00d0fc7f00568253b46", "is_disabled": 0, "is_reserved": 0}, {"rental_uris": {"ios": "https://dc.lft.to/lastmile_qr_scan", "android": "https://dc.lft.to/lastmile_qr_scan"}, "lon": -77.019678, "type": "electric_scooter", "fusion_lat": 0.0, "lat": 38.87846116666667, "name": "e5e075ad6dd93af9a3792fcded16e174", "fusion_lon": 0.0, "bike_id": "e5e075ad6dd93af9a3792fcded16e174", "is_disabled": 0, "is_reserved": 0}, {"rental_uris": {"ios": "https://dc.lft.to/lastmile_qr_scan", "android": "https://dc.lft.to/lastmile_qr_scan"}, "lon": -77.05880933333333, "type": "electric_scooter", "fusion_lat": 0.0, "lat": 38.905280166666664, "name": "3d1172178c69663c53548987ca78b123", "fusion_lon": 0.0, "bike_id": "3d1172178c69663c53548987ca78b123", "is_disabled": 0, "is_reserved": 0}, {"rental_uris": {"ios": "https://dc.lft.to/lastmile_qr_scan", "android": "https://dc.lft.to/lastmile_qr_scan"}, "lon": -76.97290816666667, "type": "electric_scooter", "fusion_lat": 0.0, "lat": 38.90339616666667, "name": "81770d9fd7508ac3783919aa7c8e664e", "fusion_lon": 0.0, "bike_id": "81770d9fd7508ac3783919aa7c8e664e", "is_disabled": 0, "is_reserved": 0}, {"rental_uris": {"ios": "https://dc.lft.to/lastmile_qr_scan", "android": "https://dc.lft.to/lastmile_qr_scan"}, "lon": -76.99698166666667, "type": "electric_scooter", "fusion_lat": 0.0, "lat": 38.90101966666667, "name": "2c77cc33d3d5380a766e275a6397519c", "fusion_lon": 0.0, "bike_id": "2c77cc33d3d5380a766e275a6397519c", "is_disabled": 0, "is_reserved": 0}, {"rental_uris": {"ios": "https://dc.lft.to/lastmile_qr_scan", "android": "https://dc.lft.to/lastmile_qr_scan"}, "lon": -76.94754816666666, "type": "electric_scooter", "fusion_lat": 0.0, "lat": 38.900578, "name": "29e464d4f63043e96abee9023f6312b0", "fusion_lon": 0.0, "bike_id": "29e464d4f63043e96abee9023f6312b0", "is_disabled": 0, "is_reserved": 0}, {"rental_uris": {"ios": "https://dc.lft.to/lastmile_qr_scan", "android": "https://dc.lft.to/lastmile_qr_scan"}, "lon": -77.00199883333333, "type": "electric_scooter", "fusion_lat": 0.0, "lat": 38.90030516666667, "name": "def4f40ac5fdeab7cc9dd9d628fd3b14", "fusion_lon": 0.0, "bike_id": "def4f40ac5fdeab7cc9dd9d628fd3b14", "is_disabled": 0, "is_reserved": 0}, {"rental_uris": {"ios": "https://dc.lft.to/lastmile_qr_scan", "android": "https://dc.lft.to/lastmile_qr_scan"}, "lon": -76.959858, "type": "electric_scooter", "fusion_lat": 0.0, "lat": 38.8804385, "name": "5b2cf1fb55b532f2cd760341c99a92e7", "fusion_lon": 0.0, "bike_id": "5b2cf1fb55b532f2cd760341c99a92e7", "is_disabled": 0, "is_reserved": 0}, {"rental_uris": {"ios": "https://dc.lft.to/lastmile_qr_scan", "android": "https://dc.lft.to/lastmile_qr_scan"}, "lon": -77.04802433333333, "type": "electric_bike", "fusion_lat": 0.0, "lat": 38.8881285, "name": "ad1a52f6a88b913e6548e672aa46a9e2", "fusion_lon": 0.0, "bike_id": "ad1a52f6a88b913e6548e672aa46a9e2", "is_disabled": 0, "is_reserved": 0}, {"rental_uris": {"ios": "https://dc.lft.to/lastmile_qr_scan", "android": "https://dc.lft.to/lastmile_qr_scan"}, "lon": -76.98370716666666, "type": "electric_scooter", "fusion_lat": 0.0, "lat": 38.895552, "name": "f56c882da84d699519b38ccca755f0b9", "fusion_lon": 0.0, "bike_id": "f56c882da84d699519b38ccca755f0b9", "is_disabled": 0, "is_reserved": 0}, {"rental_uris": {"ios": "https://dc.lft.to/lastmile_qr_scan", "android": "https://dc.lft.to/lastmile_qr_scan"}, "lon": -76.933646, "type": "electric_scooter", "fusion_lat": 0.0, "lat": 38.899201166666664, "name": "0a08ff89ecce4ec219c47f4f8242be7f", "fusion_lon": 0.0, "bike_id": "0a08ff89ecce4ec219c47f4f8242be7f", "is_disabled": 0, "is_reserved": 0}, {"rental_uris": {"ios": "https://dc.lft.to/lastmile_qr_scan", "android": "https://dc.lft.to/lastmile_qr_scan"}, "lon": -77.03456416666667, "type": "electric_scooter", "fusion_lat": 0.0, "lat": 38.91666516666667, "name": "c2fe4d46d338a7fe8ed7668fb3b0f65e", "fusion_lon": 0.0, "bike_id": "c2fe4d46d338a7fe8ed7668fb3b0f65e", "is_disabled": 0, "is_reserved": 0}, {"rental_uris": {"ios": "https://dc.lft.to/lastmile_qr_scan", "android": "https://dc.lft.to/lastmile_qr_scan"}, "lon": -76.9559495, "type": "electric_scooter", "fusion_lat": 0.0, "lat": 38.8876495, "name": "e1602f76b8fa5533b20f1f885be01d7b", "fusion_lon": 0.0, "bike_id": "e1602f76b8fa5533b20f1f885be01d7b", "is_disabled": 0, "is_reserved": 0}, {"rental_uris": {"ios": "https://dc.lft.to/lastmile_qr_scan", "android": "https://dc.lft.to/lastmile_qr_scan"}, "lon": -77.02223416666666, "type": "electric_scooter", "fusion_lat": 0.0, "lat": 38.89221783333333, "name": "67e9aa318cf5adfd61c17847a138e8ea", "fusion_lon": 0.0, "bike_id": "67e9aa318cf5adfd61c17847a138e8ea", "is_disabled": 0, "is_reserved": 0}, {"rental_uris": {"ios": "https://dc.lft.to/lastmile_qr_scan", "android": "https://dc.lft.to/lastmile_qr_scan"}, "lon": -77.03871266666667, "type": "electric_scooter", "fusion_lat": 0.0, "lat": 38.93435916666667, "name": "b4d2c0f40b03db0dadd95b0e9530c43d", "fusion_lon": 0.0, "bike_id": "b4d2c0f40b03db0dadd95b0e9530c43d", "is_disabled": 0, "is_reserved": 0}, {"rental_uris": {"ios": "https://dc.lft.to/lastmile_qr_scan", "android": "https://dc.lft.to/lastmile_qr_scan"}, "lon": -77.03185916666666, "type": "electric_scooter", "fusion_lat": 0.0, "lat": 38.91861316666667, "name": "a498892bd99c2acb3045b261fa888d30", "fusion_lon": 0.0, "bike_id": "a498892bd99c2acb3045b261fa888d30", "is_disabled": 0, "is_reserved": 0}, {"rental_uris": {"ios": "https://dc.lft.to/lastmile_qr_scan", "android": "https://dc.lft.to/lastmile_qr_scan"}, "lon": -77.04171866666667, "type": "electric_scooter", "fusion_lat": 0.0, "lat": 38.920035, "name": "9009d597682f15462de1afb75f2d1d30", "fusion_lon": 0.0, "bike_id": "9009d597682f15462de1afb75f2d1d30", "is_disabled": 0, "is_reserved": 0}, {"rental_uris": {"ios": "https://dc.lft.to/lastmile_qr_scan", "android": "https://dc.lft.to/lastmile_qr_scan"}, "lon": -77.0212415, "type": "electric_scooter", "fusion_lat": 0.0, "lat": 38.9160925, "name": "540a7d4a2670521723888e806497ef2e", "fusion_lon": 0.0, "bike_id": "540a7d4a2670521723888e806497ef2e", "is_disabled": 0, "is_reserved": 0}, {"rental_uris": {"ios": "https://dc.lft.to/lastmile_qr_scan", "android": "https://dc.lft.to/lastmile_qr_scan"}, "lon": -77.02364816666666, "type": "electric_scooter", "fusion_lat": 0.0, "lat": 38.93697016666667, "name": "b5a3ddb3072355ba39e88827caf207d4", "fusion_lon": 0.0, "bike_id": "b5a3ddb3072355ba39e88827caf207d4", "is_disabled": 0, "is_reserved": 0}, {"rental_uris": {"ios": "https://dc.lft.to/lastmile_qr_scan", "android": "https://dc.lft.to/lastmile_qr_scan"}, "lon": -77.0220485, "type": "electric_scooter", "fusion_lat": 0.0, "lat": 38.89835716666666, "name": "c73ed1c6f00e879ebc0b8ffea8c2e625", "fusion_lon": 0.0, "bike_id": "c73ed1c6f00e879ebc0b8ffea8c2e625", "is_disabled": 0, "is_reserved": 0}, {"rental_uris": {"ios": "https://dc.lft.to/lastmile_qr_scan", "android": "https://dc.lft.to/lastmile_qr_scan"}, "lon": -77.03178583333333, "type": "electric_scooter", "fusion_lat": 0.0, "lat": 38.92963866666667, "name": "4c850957cf6e01759fdc27d0eb678a8d", "fusion_lon": 0.0, "bike_id": "4c850957cf6e01759fdc27d0eb678a8d", "is_disabled": 0, "is_reserved": 0}, {"rental_uris": {"ios": "https://dc.lft.to/lastmile_qr_scan", "android": "https://dc.lft.to/lastmile_qr_scan"}, "lon": -77.040375, "type": "electric_scooter", "fusion_lat": 0.0, "lat": 38.9246695, "name": "d3c7ca04de94825cd8b3dffe5574c741", "fusion_lon": 0.0, "bike_id": "d3c7ca04de94825cd8b3dffe5574c741", "is_disabled": 0, "is_reserved": 0}, {"rental_uris": {"ios": "https://dc.lft.to/lastmile_qr_scan", "android": "https://dc.lft.to/lastmile_qr_scan"}, "lon": -77.07027433333333, "type": "electric_bike", "fusion_lat": 0.0, "lat": 38.918778833333334, "name": "a61e9b114307c206ceb7e62e5dd7d113", "fusion_lon": 0.0, "bike_id": "a61e9b114307c206ceb7e62e5dd7d113", "is_disabled": 0, "is_reserved": 0}, {"rental_uris": {"ios": "https://dc.lft.to/lastmile_qr_scan", "android": "https://dc.lft.to/lastmile_qr_scan"}, "lon": -77.0296855, "type": "electric_scooter", "fusion_lat": 0.0, "lat": 38.91059883333333, "name": "894777f6dc808dbd7a4122f019652010", "fusion_lon": 0.0, "bike_id": "894777f6dc808dbd7a4122f019652010", "is_disabled": 0, "is_reserved": 0}, {"rental_uris": {"ios": "https://dc.lft.to/lastmile_qr_scan", "android": "https://dc.lft.to/lastmile_qr_scan"}, "lon": -77.0332075, "type": "electric_scooter", "fusion_lat": 0.0, "lat": 38.9264965, "name": "3bf829e0e7cb1bae709dc3eb92edd932", "fusion_lon": 0.0, "bike_id": "3bf829e0e7cb1bae709dc3eb92edd932", "is_disabled": 0, "is_reserved": 0}, {"rental_uris": {"ios": "https://dc.lft.to/lastmile_qr_scan", "android": "https://dc.lft.to/lastmile_qr_scan"}, "lon": -76.98020566666666, "type": "electric_scooter", "fusion_lat": 0.0, "lat": 38.8876565, "name": "669bfe647ef30867f014478fe50734d5", "fusion_lon": 0.0, "bike_id": "669bfe647ef30867f014478fe50734d5", "is_disabled": 0, "is_reserved": 0}, {"rental_uris": {"ios": "https://dc.lft.to/lastmile_qr_scan", "android": "https://dc.lft.to/lastmile_qr_scan"}, "lon": -77.107979, "type": "electric_bike", "fusion_lat": 0.0, "lat": 38.879996166666665, "name": "f29315e732857e9651cf51caaa5d58bf", "fusion_lon": 0.0, "bike_id": "f29315e732857e9651cf51caaa5d58bf", "is_disabled": 0, "is_reserved": 0}, {"rental_uris": {"ios": "https://dc.lft.to/lastmile_qr_scan", "android": "https://dc.lft.to/lastmile_qr_scan"}, "lon": -76.99832033333334, "type": "electric_scooter", "fusion_lat": 0.0, "lat": 38.923423166666666, "name": "c52c71d737177081acbb98c3a50bfa51", "fusion_lon": 0.0, "bike_id": "c52c71d737177081acbb98c3a50bfa51", "is_disabled": 0, "is_reserved": 0}, {"rental_uris": {"ios": "https://dc.lft.to/lastmile_qr_scan", "android": "https://dc.lft.to/lastmile_qr_scan"}, "lon": -77.00513166666667, "type": "electric_scooter", "fusion_lat": 0.0, "lat": 38.896758, "name": "8dbf55ca4c2a51ddd3829354a775a345", "fusion_lon": 0.0, "bike_id": "8dbf55ca4c2a51ddd3829354a775a345", "is_disabled": 0, "is_reserved": 0}, {"rental_uris": {"ios": "https://dc.lft.to/lastmile_qr_scan", "android": "https://dc.lft.to/lastmile_qr_scan"}, "lon": -77.037297, "type": "electric_scooter", "fusion_lat": 0.0, "lat": 38.91707183333333, "name": "002ea0315860d6db5ba71fe603528d7b", "fusion_lon": 0.0, "bike_id": "002ea0315860d6db5ba71fe603528d7b", "is_disabled": 0, "is_reserved": 0}, {"rental_uris": {"ios": "https://dc.lft.to/lastmile_qr_scan", "android": "https://dc.lft.to/lastmile_qr_scan"}, "lon": -76.97268333333334, "type": "electric_bike", "fusion_lat": 0.0, "lat": 38.91973216666667, "name": "121411e301d0455f001548839c303432", "fusion_lon": 0.0, "bike_id": "121411e301d0455f001548839c303432", "is_disabled": 0, "is_reserved": 0}, {"rental_uris": {"ios": "https://dc.lft.to/lastmile_qr_scan", "android": "https://dc.lft.to/lastmile_qr_scan"}, "lon": -77.04107283333333, "type": "electric_scooter", "fusion_lat": 0.0, "lat": 38.924406, "name": "6491d2832ea64b465e3c5ab5b3048982", "fusion_lon": 0.0, "bike_id": "6491d2832ea64b465e3c5ab5b3048982", "is_disabled": 0, "is_reserved": 0}, {"rental_uris": {"ios": "https://dc.lft.to/lastmile_qr_scan", "android": "https://dc.lft.to/lastmile_qr_scan"}, "lon": -77.02591266666667, "type": "electric_scooter", "fusion_lat": 0.0, "lat": 38.89264383333333, "name": "948591a847076e49c5ab9355509df218", "fusion_lon": 0.0, "bike_id": "948591a847076e49c5ab9355509df218", "is_disabled": 0, "is_reserved": 0}, {"rental_uris": {"ios": "https://dc.lft.to/lastmile_qr_scan", "android": "https://dc.lft.to/lastmile_qr_scan"}, "lon": -76.974879, "type": "electric_bike", "fusion_lat": 0.0, "lat": 38.92008916666666, "name": "06c60dbbacff1ce6cb5f29b23e400024", "fusion_lon": 0.0, "bike_id": "06c60dbbacff1ce6cb5f29b23e400024", "is_disabled": 0, "is_reserved": 0}, {"rental_uris": {"ios": "https://dc.lft.to/lastmile_qr_scan", "android": "https://dc.lft.to/lastmile_qr_scan"}, "lon": -77.0248665, "type": "electric_scooter", "fusion_lat": 0.0, "lat": 38.916965833333336, "name": "08489c3d79f5aa318051f2cfac9f02a5", "fusion_lon": 0.0, "bike_id": "08489c3d79f5aa318051f2cfac9f02a5", "is_disabled": 0, "is_reserved": 0}, {"rental_uris": {"ios": "https://dc.lft.to/lastmile_qr_scan", "android": "https://dc.lft.to/lastmile_qr_scan"}, "lon": -77.04865516666666, "type": "electric_scooter", "fusion_lat": 0.0, "lat": 38.908524666666665, "name": "8376715765478a068b4a72bcc1407607", "fusion_lon": 0.0, "bike_id": "8376715765478a068b4a72bcc1407607", "is_disabled": 0, "is_reserved": 0}, {"rental_uris": {"ios": "https://dc.lft.to/lastmile_qr_scan", "android": "https://dc.lft.to/lastmile_qr_scan"}, "lon": -77.06088566666666, "type": "electric_scooter", "fusion_lat": 0.0, "lat": 38.91274033333333, "name": "213e7243d9d4ebce269fcc3d6e4789ea", "fusion_lon": 0.0, "bike_id": "213e7243d9d4ebce269fcc3d6e4789ea", "is_disabled": 0, "is_reserved": 0}, {"rental_uris": {"ios": "https://dc.lft.to/lastmile_qr_scan", "android": "https://dc.lft.to/lastmile_qr_scan"}, "lon": -77.032203, "type": "electric_scooter", "fusion_lat": 0.0, "lat": 38.926708, "name": "a72f6b558eeadd4fcadac1a0d396d955", "fusion_lon": 0.0, "bike_id": "a72f6b558eeadd4fcadac1a0d396d955", "is_disabled": 0, "is_reserved": 0}, {"rental_uris": {"ios": "https://dc.lft.to/lastmile_qr_scan", "android": "https://dc.lft.to/lastmile_qr_scan"}, "lon": -77.005276, "type": "electric_scooter", "fusion_lat": 0.0, "lat": 38.90257616666667, "name": "580f4dff110c7930547ba3f0e2488f70", "fusion_lon": 0.0, "bike_id": "580f4dff110c7930547ba3f0e2488f70", "is_disabled": 0, "is_reserved": 0}, {"rental_uris": {"ios": "https://dc.lft.to/lastmile_qr_scan", "android": "https://dc.lft.to/lastmile_qr_scan"}, "lon": -77.05810166666667, "type": "electric_scooter", "fusion_lat": 0.0, "lat": 38.934497666666665, "name": "0cad2dd83fef1301110c25d6c84fbe78", "fusion_lon": 0.0, "bike_id": "0cad2dd83fef1301110c25d6c84fbe78", "is_disabled": 0, "is_reserved": 0}, {"rental_uris": {"ios": "https://dc.lft.to/lastmile_qr_scan", "android": "https://dc.lft.to/lastmile_qr_scan"}, "lon": -77.0233555, "type": "electric_scooter", "fusion_lat": 0.0, "lat": 38.92514533333333, "name": "5eb36156f80f7f8f5bd396b234324c28", "fusion_lon": 0.0, "bike_id": "5eb36156f80f7f8f5bd396b234324c28", "is_disabled": 0, "is_reserved": 0}, {"rental_uris": {"ios": "https://dc.lft.to/lastmile_qr_scan", "android": "https://dc.lft.to/lastmile_qr_scan"}, "lon": -77.0089015, "type": "electric_scooter", "fusion_lat": 0.0, "lat": 38.914185333333336, "name": "55b1c8e2eb74c2cad16a98c9b5a4695e", "fusion_lon": 0.0, "bike_id": "55b1c8e2eb74c2cad16a98c9b5a4695e", "is_disabled": 0, "is_reserved": 0}, {"rental_uris": {"ios": "https://dc.lft.to/lastmile_qr_scan", "android": "https://dc.lft.to/lastmile_qr_scan"}, "lon": -77.03517616666667, "type": "electric_scooter", "fusion_lat": 0.0, "lat": 38.935981166666664, "name": "81e0b045dfe669b2c8a98bf30b425e16", "fusion_lon": 0.0, "bike_id": "81e0b045dfe669b2c8a98bf30b425e16", "is_disabled": 0, "is_reserved": 0}, {"rental_uris": {"ios": "https://dc.lft.to/lastmile_qr_scan", "android": "https://dc.lft.to/lastmile_qr_scan"}, "lon": -76.974019, "type": "electric_scooter", "fusion_lat": 0.0, "lat": 38.901591833333335, "name": "6ed68ecae31206610fb27fda64a58ff9", "fusion_lon": 0.0, "bike_id": "6ed68ecae31206610fb27fda64a58ff9", "is_disabled": 0, "is_reserved": 0}, {"rental_uris": {"ios": "https://dc.lft.to/lastmile_qr_scan", "android": "https://dc.lft.to/lastmile_qr_scan"}, "lon": -76.9371635, "type": "electric_scooter", "fusion_lat": 0.0, "lat": 38.895877166666665, "name": "ef7a2b4055513684953c4d40864abbe7", "fusion_lon": 0.0, "bike_id": "ef7a2b4055513684953c4d40864abbe7", "is_disabled": 0, "is_reserved": 0}, {"rental_uris": {"ios": "https://dc.lft.to/lastmile_qr_scan", "android": "https://dc.lft.to/lastmile_qr_scan"}, "lon": -76.967539, "type": "electric_bike", "fusion_lat": 0.0, "lat": 38.875502, "name": "8a839d9796dae529886eb38dc02d7efb", "fusion_lon": 0.0, "bike_id": "8a839d9796dae529886eb38dc02d7efb", "is_disabled": 0, "is_reserved": 0}, {"rental_uris": {"ios": "https://dc.lft.to/lastmile_qr_scan", "android": "https://dc.lft.to/lastmile_qr_scan"}, "lon": -77.02209966666666, "type": "electric_scooter", "fusion_lat": 0.0, "lat": 38.905399333333335, "name": "fa3b5323999eae084836f190d19a2915", "fusion_lon": 0.0, "bike_id": "fa3b5323999eae084836f190d19a2915", "is_disabled": 0, "is_reserved": 0}, {"rental_uris": {"ios": "https://dc.lft.to/lastmile_qr_scan", "android": "https://dc.lft.to/lastmile_qr_scan"}, "lon": -77.0110825, "type": "electric_scooter", "fusion_lat": 0.0, "lat": 38.90024433333333, "name": "6794ff16c4c11273e633ceb806546866", "fusion_lon": 0.0, "bike_id": "6794ff16c4c11273e633ceb806546866", "is_disabled": 0, "is_reserved": 0}, {"rental_uris": {"ios": "https://dc.lft.to/lastmile_qr_scan", "android": "https://dc.lft.to/lastmile_qr_scan"}, "lon": -77.05010016666667, "type": "electric_scooter", "fusion_lat": 0.0, "lat": 38.907348, "name": "9eaf62d897f96cebe56410724242dcde", "fusion_lon": 0.0, "bike_id": "9eaf62d897f96cebe56410724242dcde", "is_disabled": 0, "is_reserved": 0}, {"rental_uris": {"ios": "https://dc.lft.to/lastmile_qr_scan", "android": "https://dc.lft.to/lastmile_qr_scan"}, "lon": -77.040073, "type": "electric_scooter", "fusion_lat": 0.0, "lat": 38.932549333333334, "name": "b42f9ae318468999a7704b01c40c2199", "fusion_lon": 0.0, "bike_id": "b42f9ae318468999a7704b01c40c2199", "is_disabled": 0, "is_reserved": 0}, {"rental_uris": {"ios": "https://dc.lft.to/lastmile_qr_scan", "android": "https://dc.lft.to/lastmile_qr_scan"}, "lon": -76.9969365, "type": "electric_scooter", "fusion_lat": 0.0, "lat": 38.90014133333333, "name": "c0e49dae0ea90769185f03b4822314dc", "fusion_lon": 0.0, "bike_id": "c0e49dae0ea90769185f03b4822314dc", "is_disabled": 0, "is_reserved": 0}, {"rental_uris": {"ios": "https://dc.lft.to/lastmile_qr_scan", "android": "https://dc.lft.to/lastmile_qr_scan"}, "lon": -77.05070883333333, "type": "electric_scooter", "fusion_lat": 0.0, "lat": 38.90064566666667, "name": "5dbdb6f646de882d74cdb4d7cb54070d", "fusion_lon": 0.0, "bike_id": "5dbdb6f646de882d74cdb4d7cb54070d", "is_disabled": 0, "is_reserved": 0}, {"rental_uris": {"ios": "https://dc.lft.to/lastmile_qr_scan", "android": "https://dc.lft.to/lastmile_qr_scan"}, "lon": -77.02021533333334, "type": "electric_scooter", "fusion_lat": 0.0, "lat": 38.916469, "name": "b2fa3e0a2a8cc4c17492df9dcbc58f48", "fusion_lon": 0.0, "bike_id": "b2fa3e0a2a8cc4c17492df9dcbc58f48", "is_disabled": 0, "is_reserved": 0}, {"rental_uris": {"ios": "https://dc.lft.to/lastmile_qr_scan", "android": "https://dc.lft.to/lastmile_qr_scan"}, "lon": -76.982614, "type": "electric_scooter", "fusion_lat": 0.0, "lat": 38.863524166666664, "name": "d7747df1bd842914cce83bcaacbaba24", "fusion_lon": 0.0, "bike_id": "d7747df1bd842914cce83bcaacbaba24", "is_disabled": 0, "is_reserved": 0}, {"rental_uris": {"ios": "https://dc.lft.to/lastmile_qr_scan", "android": "https://dc.lft.to/lastmile_qr_scan"}, "lon": -77.01433433333334, "type": "electric_scooter", "fusion_lat": 0.0, "lat": 38.92990983333333, "name": "ffcaaaa0bd93e6e62f1e3cbf42327557", "fusion_lon": 0.0, "bike_id": "ffcaaaa0bd93e6e62f1e3cbf42327557", "is_disabled": 0, "is_reserved": 0}, {"rental_uris": {"ios": "https://dc.lft.to/lastmile_qr_scan", "android": "https://dc.lft.to/lastmile_qr_scan"}, "lon": -77.04661866666666, "type": "electric_scooter", "fusion_lat": 0.0, "lat": 38.9009075, "name": "1d84ee36d9ea9482969ae7ff252b5cbd", "fusion_lon": 0.0, "bike_id": "1d84ee36d9ea9482969ae7ff252b5cbd", "is_disabled": 0, "is_reserved": 0}, {"rental_uris": {"ios": "https://dc.lft.to/lastmile_qr_scan", "android": "https://dc.lft.to/lastmile_qr_scan"}, "lon": -77.05339333333333, "type": "electric_scooter", "fusion_lat": 0.0, "lat": 38.903596, "name": "aafaea6854d8b45de96a57c2fce1af8b", "fusion_lon": 0.0, "bike_id": "aafaea6854d8b45de96a57c2fce1af8b", "is_disabled": 0, "is_reserved": 0}, {"rental_uris": {"ios": "https://dc.lft.to/lastmile_qr_scan", "android": "https://dc.lft.to/lastmile_qr_scan"}, "lon": -77.03846583333333, "type": "electric_scooter", "fusion_lat": 0.0, "lat": 38.91667066666667, "name": "cb503d13deb1389cb4c12d01483930d0", "fusion_lon": 0.0, "bike_id": "cb503d13deb1389cb4c12d01483930d0", "is_disabled": 0, "is_reserved": 0}, {"rental_uris": {"ios": "https://dc.lft.to/lastmile_qr_scan", "android": "https://dc.lft.to/lastmile_qr_scan"}, "lon": -77.12897266666667, "type": "electric_bike", "fusion_lat": 0.0, "lat": 38.86377483333333, "name": "4d56f4899b4360e1f062726798977e39", "fusion_lon": 0.0, "bike_id": "4d56f4899b4360e1f062726798977e39", "is_disabled": 0, "is_reserved": 0}, {"rental_uris": {"ios": "https://dc.lft.to/lastmile_qr_scan", "android": "https://dc.lft.to/lastmile_qr_scan"}, "lon": -77.067689, "type": "electric_bike", "fusion_lat": 0.0, "lat": 38.91544316666667, "name": "4947ef052bb45d82b34c4e620d317063", "fusion_lon": 0.0, "bike_id": "4947ef052bb45d82b34c4e620d317063", "is_disabled": 0, "is_reserved": 0}, {"rental_uris": {"ios": "https://dc.lft.to/lastmile_qr_scan", "android": "https://dc.lft.to/lastmile_qr_scan"}, "lon": -77.03182533333333, "type": "electric_scooter", "fusion_lat": 0.0, "lat": 38.8873195, "name": "88575158fce69e772118f9be17cee8bd", "fusion_lon": 0.0, "bike_id": "88575158fce69e772118f9be17cee8bd", "is_disabled": 0, "is_reserved": 0}, {"rental_uris": {"ios": "https://dc.lft.to/lastmile_qr_scan", "android": "https://dc.lft.to/lastmile_qr_scan"}, "lon": -77.04386266666667, "type": "electric_scooter", "fusion_lat": 0.0, "lat": 38.91025833333333, "name": "f2d9621d9020c125c94c8b8ac7f47cc6", "fusion_lon": 0.0, "bike_id": "f2d9621d9020c125c94c8b8ac7f47cc6", "is_disabled": 0, "is_reserved": 0}, {"rental_uris": {"ios": "https://dc.lft.to/lastmile_qr_scan", "android": "https://dc.lft.to/lastmile_qr_scan"}, "lon": -77.03220416666667, "type": "electric_scooter", "fusion_lat": 0.0, "lat": 38.926719166666665, "name": "8f85ec0b0437c1f960be8c92b1836f14", "fusion_lon": 0.0, "bike_id": "8f85ec0b0437c1f960be8c92b1836f14", "is_disabled": 0, "is_reserved": 0}, {"rental_uris": {"ios": "https://dc.lft.to/lastmile_qr_scan", "android": "https://dc.lft.to/lastmile_qr_scan"}, "lon": -76.98959966666666, "type": "electric_scooter", "fusion_lat": 0.0, "lat": 38.9002455, "name": "95534908d22a25e7ff1eb5d6f3cdf56c", "fusion_lon": 0.0, "bike_id": "95534908d22a25e7ff1eb5d6f3cdf56c", "is_disabled": 0, "is_reserved": 0}, {"rental_uris": {"ios": "https://dc.lft.to/lastmile_qr_scan", "android": "https://dc.lft.to/lastmile_qr_scan"}, "lon": -76.92889883333334, "type": "electric_scooter", "fusion_lat": 0.0, "lat": 38.89331383333333, "name": "56c118fdd270558820a7cd76109f9e85", "fusion_lon": 0.0, "bike_id": "56c118fdd270558820a7cd76109f9e85", "is_disabled": 0, "is_reserved": 0}, {"rental_uris": {"ios": "https://dc.lft.to/lastmile_qr_scan", "android": "https://dc.lft.to/lastmile_qr_scan"}, "lon": -77.00116, "type": "electric_scooter", "fusion_lat": 0.0, "lat": 38.9038005, "name": "d1ad2298a938e4985c6fd585810d0a62", "fusion_lon": 0.0, "bike_id": "d1ad2298a938e4985c6fd585810d0a62", "is_disabled": 0, "is_reserved": 0}, {"rental_uris": {"ios": "https://dc.lft.to/lastmile_qr_scan", "android": "https://dc.lft.to/lastmile_qr_scan"}, "lon": -77.04608583333334, "type": "electric_scooter", "fusion_lat": 0.0, "lat": 38.90389166666667, "name": "de3bd1b02fc36777311680d58b7c344b", "fusion_lon": 0.0, "bike_id": "de3bd1b02fc36777311680d58b7c344b", "is_disabled": 0, "is_reserved": 0}, {"rental_uris": {"ios": "https://dc.lft.to/lastmile_qr_scan", "android": "https://dc.lft.to/lastmile_qr_scan"}, "lon": -77.01115016666667, "type": "electric_scooter", "fusion_lat": 0.0, "lat": 38.915543666666665, "name": "01e20d2d67870c80875fdb36c58b062d", "fusion_lon": 0.0, "bike_id": "01e20d2d67870c80875fdb36c58b062d", "is_disabled": 0, "is_reserved": 0}, {"rental_uris": {"ios": "https://dc.lft.to/lastmile_qr_scan", "android": "https://dc.lft.to/lastmile_qr_scan"}, "lon": -77.0270185, "type": "electric_scooter", "fusion_lat": 0.0, "lat": 38.949821, "name": "75b1d0a40cc3d7d0bc7467318e481e64", "fusion_lon": 0.0, "bike_id": "75b1d0a40cc3d7d0bc7467318e481e64", "is_disabled": 0, "is_reserved": 0}, {"rental_uris": {"ios": "https://dc.lft.to/lastmile_qr_scan", "android": "https://dc.lft.to/lastmile_qr_scan"}, "lon": -77.02219166666667, "type": "electric_scooter", "fusion_lat": 0.0, "lat": 38.892234333333334, "name": "430ea4d81051e74a9a1838a0a02d5eb7", "fusion_lon": 0.0, "bike_id": "430ea4d81051e74a9a1838a0a02d5eb7", "is_disabled": 0, "is_reserved": 0}, {"rental_uris": {"ios": "https://dc.lft.to/lastmile_qr_scan", "android": "https://dc.lft.to/lastmile_qr_scan"}, "lon": -77.03180883333333, "type": "electric_scooter", "fusion_lat": 0.0, "lat": 38.91276883333333, "name": "0de25585e4f20c92322fe92281736612", "fusion_lon": 0.0, "bike_id": "0de25585e4f20c92322fe92281736612", "is_disabled": 0, "is_reserved": 0}, {"rental_uris": {"ios": "https://dc.lft.to/lastmile_qr_scan", "android": "https://dc.lft.to/lastmile_qr_scan"}, "lon": -77.03186616666666, "type": "electric_scooter", "fusion_lat": 0.0, "lat": 38.899567166666664, "name": "b9e06b406d887572898086e1b0345bf4", "fusion_lon": 0.0, "bike_id": "b9e06b406d887572898086e1b0345bf4", "is_disabled": 0, "is_reserved": 0}, {"rental_uris": {"ios": "https://dc.lft.to/lastmile_qr_scan", "android": "https://dc.lft.to/lastmile_qr_scan"}, "lon": -77.03348433333333, "type": "electric_scooter", "fusion_lat": 0.0, "lat": 38.885364833333334, "name": "baf9223b692f45c27efc0e37652352d4", "fusion_lon": 0.0, "bike_id": "baf9223b692f45c27efc0e37652352d4", "is_disabled": 0, "is_reserved": 0}, {"rental_uris": {"ios": "https://dc.lft.to/lastmile_qr_scan", "android": "https://dc.lft.to/lastmile_qr_scan"}, "lon": -77.0075255, "type": "electric_scooter", "fusion_lat": 0.0, "lat": 38.8791825, "name": "96674681da60a3e55f288243492534f0", "fusion_lon": 0.0, "bike_id": "96674681da60a3e55f288243492534f0", "is_disabled": 0, "is_reserved": 0}, {"rental_uris": {"ios": "https://dc.lft.to/lastmile_qr_scan", "android": "https://dc.lft.to/lastmile_qr_scan"}, "lon": -77.044599, "type": "electric_scooter", "fusion_lat": 0.0, "lat": 38.91020683333333, "name": "445fa2f9f925fa2fb5e43508e17e87cb", "fusion_lon": 0.0, "bike_id": "445fa2f9f925fa2fb5e43508e17e87cb", "is_disabled": 0, "is_reserved": 0}, {"rental_uris": {"ios": "https://dc.lft.to/lastmile_qr_scan", "android": "https://dc.lft.to/lastmile_qr_scan"}, "lon": -76.96628966666667, "type": "electric_bike", "fusion_lat": 0.0, "lat": 38.9420135, "name": "938c0f77630dace5d1c5c378a68550d5", "fusion_lon": 0.0, "bike_id": "938c0f77630dace5d1c5c378a68550d5", "is_disabled": 0, "is_reserved": 0}, {"rental_uris": {"ios": "https://dc.lft.to/lastmile_qr_scan", "android": "https://dc.lft.to/lastmile_qr_scan"}, "lon": -77.01401133333333, "type": "electric_scooter", "fusion_lat": 0.0, "lat": 38.92820833333333, "name": "30e52805e143c9712130e3b7de07dc83", "fusion_lon": 0.0, "bike_id": "30e52805e143c9712130e3b7de07dc83", "is_disabled": 0, "is_reserved": 0}, {"rental_uris": {"ios": "https://dc.lft.to/lastmile_qr_scan", "android": "https://dc.lft.to/lastmile_qr_scan"}, "lon": -77.1784615, "type": "electric_bike", "fusion_lat": 0.0, "lat": 39.0890175, "name": "27826a3a7f1d7c6c30a5feaad80c6ffb", "fusion_lon": 0.0, "bike_id": "27826a3a7f1d7c6c30a5feaad80c6ffb", "is_disabled": 0, "is_reserved": 0}, {"rental_uris": {"ios": "https://dc.lft.to/lastmile_qr_scan", "android": "https://dc.lft.to/lastmile_qr_scan"}, "lon": -76.97826416666666, "type": "electric_bike", "fusion_lat": 0.0, "lat": 38.84613433333333, "name": "a50e30dd71a0b279445ba437b0f2ba52", "fusion_lon": 0.0, "bike_id": "a50e30dd71a0b279445ba437b0f2ba52", "is_disabled": 0, "is_reserved": 0}, {"rental_uris": {"ios": "https://dc.lft.to/lastmile_qr_scan", "android": "https://dc.lft.to/lastmile_qr_scan"}, "lon": -77.04662266666666, "type": "electric_scooter", "fusion_lat": 0.0, "lat": 38.90535533333333, "name": "64678f73213f1fe99a19e8c579eb0a13", "fusion_lon": 0.0, "bike_id": "64678f73213f1fe99a19e8c579eb0a13", "is_disabled": 0, "is_reserved": 0}, {"rental_uris": {"ios": "https://dc.lft.to/lastmile_qr_scan", "android": "https://dc.lft.to/lastmile_qr_scan"}, "lon": -77.02949433333333, "type": "electric_scooter", "fusion_lat": 0.0, "lat": 38.90506466666667, "name": "5d387042bcbe9cc6457384308ee9fae4", "fusion_lon": 0.0, "bike_id": "5d387042bcbe9cc6457384308ee9fae4", "is_disabled": 0, "is_reserved": 0}, {"rental_uris": {"ios": "https://dc.lft.to/lastmile_qr_scan", "android": "https://dc.lft.to/lastmile_qr_scan"}, "lon": -76.99894983333333, "type": "electric_bike", "fusion_lat": 0.0, "lat": 38.9531175, "name": "98f6c75f51aaf2a9db490390fb5a2046", "fusion_lon": 0.0, "bike_id": "98f6c75f51aaf2a9db490390fb5a2046", "is_disabled": 0, "is_reserved": 0}, {"rental_uris": {"ios": "https://dc.lft.to/lastmile_qr_scan", "android": "https://dc.lft.to/lastmile_qr_scan"}, "lon": -77.12623733333334, "type": "electric_bike", "fusion_lat": 0.0, "lat": 39.058153833333336, "name": "df110ad3fce4018235c838ea2e03c2a8", "fusion_lon": 0.0, "bike_id": "df110ad3fce4018235c838ea2e03c2a8", "is_disabled": 0, "is_reserved": 0}, {"rental_uris": {"ios": "https://dc.lft.to/lastmile_qr_scan", "android": "https://dc.lft.to/lastmile_qr_scan"}, "lon": -77.041322, "type": "electric_scooter", "fusion_lat": 0.0, "lat": 38.900048166666664, "name": "919df6a4952447d9ffabba95ac4a74dc", "fusion_lon": 0.0, "bike_id": "919df6a4952447d9ffabba95ac4a74dc", "is_disabled": 0, "is_reserved": 0}, {"rental_uris": {"ios": "https://dc.lft.to/lastmile_qr_scan", "android": "https://dc.lft.to/lastmile_qr_scan"}, "lon": -76.9574845, "type": "electric_scooter", "fusion_lat": 0.0, "lat": 38.88430433333333, "name": "81ee519a5e4d667ddbbb7ea4a0bc1cf0", "fusion_lon": 0.0, "bike_id": "81ee519a5e4d667ddbbb7ea4a0bc1cf0", "is_disabled": 0, "is_reserved": 0}, {"rental_uris": {"ios": "https://dc.lft.to/lastmile_qr_scan", "android": "https://dc.lft.to/lastmile_qr_scan"}, "lon": -77.03651066666667, "type": "electric_scooter", "fusion_lat": 0.0, "lat": 38.9550435, "name": "fe61e188ee7edd01fe5df5c1f02390cb", "fusion_lon": 0.0, "bike_id": "fe61e188ee7edd01fe5df5c1f02390cb", "is_disabled": 0, "is_reserved": 0}, {"rental_uris": {"ios": "https://dc.lft.to/lastmile_qr_scan", "android": "https://dc.lft.to/lastmile_qr_scan"}, "lon": -77.03400616666667, "type": "electric_scooter", "fusion_lat": 0.0, "lat": 38.9227, "name": "297237eda9ed225e8aa51d3c9390dc41", "fusion_lon": 0.0, "bike_id": "297237eda9ed225e8aa51d3c9390dc41", "is_disabled": 0, "is_reserved": 0}, {"rental_uris": {"ios": "https://dc.lft.to/lastmile_qr_scan", "android": "https://dc.lft.to/lastmile_qr_scan"}, "lon": -77.05203333333333, "type": "electric_scooter", "fusion_lat": 0.0, "lat": 38.9259275, "name": "b22e372b41d856fb0db7ebbb9da7591a", "fusion_lon": 0.0, "bike_id": "b22e372b41d856fb0db7ebbb9da7591a", "is_disabled": 0, "is_reserved": 0}, {"rental_uris": {"ios": "https://dc.lft.to/lastmile_qr_scan", "android": "https://dc.lft.to/lastmile_qr_scan"}, "lon": -77.04207416666667, "type": "electric_scooter", "fusion_lat": 0.0, "lat": 38.907325166666666, "name": "6b03de902a13dff85ec75394b9718954", "fusion_lon": 0.0, "bike_id": "6b03de902a13dff85ec75394b9718954", "is_disabled": 0, "is_reserved": 0}, {"rental_uris": {"ios": "https://dc.lft.to/lastmile_qr_scan", "android": "https://dc.lft.to/lastmile_qr_scan"}, "lon": -77.12498816666667, "type": "electric_bike", "fusion_lat": 0.0, "lat": 39.02425183333333, "name": "1f44d7ad0e8ea63f88962d1c5a706cfc", "fusion_lon": 0.0, "bike_id": "1f44d7ad0e8ea63f88962d1c5a706cfc", "is_disabled": 0, "is_reserved": 0}, {"rental_uris": {"ios": "https://dc.lft.to/lastmile_qr_scan", "android": "https://dc.lft.to/lastmile_qr_scan"}, "lon": -77.05627233333334, "type": "electric_scooter", "fusion_lat": 0.0, "lat": 38.906114, "name": "bb6068a87007d8d36cb49b0bf5e00887", "fusion_lon": 0.0, "bike_id": "bb6068a87007d8d36cb49b0bf5e00887", "is_disabled": 0, "is_reserved": 0}, {"rental_uris": {"ios": "https://dc.lft.to/lastmile_qr_scan", "android": "https://dc.lft.to/lastmile_qr_scan"}, "lon": -77.083656, "type": "electric_scooter", "fusion_lat": 0.0, "lat": 38.930376333333335, "name": "f93b184f94de0ed35c3a500c001d91c8", "fusion_lon": 0.0, "bike_id": "f93b184f94de0ed35c3a500c001d91c8", "is_disabled": 0, "is_reserved": 0}, {"rental_uris": {"ios": "https://dc.lft.to/lastmile_qr_scan", "android": "https://dc.lft.to/lastmile_qr_scan"}, "lon": -77.0512875, "type": "electric_scooter", "fusion_lat": 0.0, "lat": 38.9023015, "name": "411914c4fcbf4a46743066236bf28c29", "fusion_lon": 0.0, "bike_id": "411914c4fcbf4a46743066236bf28c29", "is_disabled": 0, "is_reserved": 0}, {"rental_uris": {"ios": "https://dc.lft.to/lastmile_qr_scan", "android": "https://dc.lft.to/lastmile_qr_scan"}, "lon": -77.04949616666667, "type": "electric_scooter", "fusion_lat": 0.0, "lat": 38.89659783333333, "name": "7e9fb9c67c99a3377feb47f028821fd2", "fusion_lon": 0.0, "bike_id": "7e9fb9c67c99a3377feb47f028821fd2", "is_disabled": 0, "is_reserved": 0}, {"rental_uris": {"ios": "https://dc.lft.to/lastmile_qr_scan", "android": "https://dc.lft.to/lastmile_qr_scan"}, "lon": -77.039265, "type": "electric_scooter", "fusion_lat": 0.0, "lat": 38.899856166666666, "name": "26d8c89ba03e62ebddd41735f5a866a4", "fusion_lon": 0.0, "bike_id": "26d8c89ba03e62ebddd41735f5a866a4", "is_disabled": 0, "is_reserved": 0}, {"rental_uris": {"ios": "https://dc.lft.to/lastmile_qr_scan", "android": "https://dc.lft.to/lastmile_qr_scan"}, "lon": -77.12735333333333, "type": "electric_bike", "fusion_lat": 0.0, "lat": 38.8882445, "name": "03c840f3c7f89d4f738837c6705f60eb", "fusion_lon": 0.0, "bike_id": "03c840f3c7f89d4f738837c6705f60eb", "is_disabled": 0, "is_reserved": 0}, {"rental_uris": {"ios": "https://dc.lft.to/lastmile_qr_scan", "android": "https://dc.lft.to/lastmile_qr_scan"}, "lon": -77.0300055, "type": "electric_scooter", "fusion_lat": 0.0, "lat": 38.9248355, "name": "8fdc08feefda3da0ec3bc0bedaccd8ad", "fusion_lon": 0.0, "bike_id": "8fdc08feefda3da0ec3bc0bedaccd8ad", "is_disabled": 0, "is_reserved": 0}, {"rental_uris": {"ios": "https://dc.lft.to/lastmile_qr_scan", "android": "https://dc.lft.to/lastmile_qr_scan"}, "lon": -77.03251533333334, "type": "electric_scooter", "fusion_lat": 0.0, "lat": 38.911206, "name": "d1c61279715ebd035b79e47f536c3d90", "fusion_lon": 0.0, "bike_id": "d1c61279715ebd035b79e47f536c3d90", "is_disabled": 0, "is_reserved": 0}, {"rental_uris": {"ios": "https://dc.lft.to/lastmile_qr_scan", "android": "https://dc.lft.to/lastmile_qr_scan"}, "lon": -77.0260745, "type": "electric_scooter", "fusion_lat": 0.0, "lat": 38.91696066666667, "name": "d9f053e43437c1f73264102de8afc0aa", "fusion_lon": 0.0, "bike_id": "d9f053e43437c1f73264102de8afc0aa", "is_disabled": 0, "is_reserved": 0}, {"rental_uris": {"ios": "https://dc.lft.to/lastmile_qr_scan", "android": "https://dc.lft.to/lastmile_qr_scan"}, "lon": -76.937874, "type": "electric_scooter", "fusion_lat": 0.0, "lat": 38.912873833333336, "name": "e801e92dc6cd9e256817e89b889df1b3", "fusion_lon": 0.0, "bike_id": "e801e92dc6cd9e256817e89b889df1b3", "is_disabled": 0, "is_reserved": 0}, {"rental_uris": {"ios": "https://dc.lft.to/lastmile_qr_scan", "android": "https://dc.lft.to/lastmile_qr_scan"}, "lon": -77.0611035, "type": "electric_scooter", "fusion_lat": 0.0, "lat": 38.905047333333336, "name": "9529713e7e76388813c785c5b320f5ea", "fusion_lon": 0.0, "bike_id": "9529713e7e76388813c785c5b320f5ea", "is_disabled": 0, "is_reserved": 0}, {"rental_uris": {"ios": "https://dc.lft.to/lastmile_qr_scan", "android": "https://dc.lft.to/lastmile_qr_scan"}, "lon": -76.978864, "type": "electric_scooter", "fusion_lat": 0.0, "lat": 38.91672783333333, "name": "cee9b3d329c98a64efbaa2faa0fdd534", "fusion_lon": 0.0, "bike_id": "cee9b3d329c98a64efbaa2faa0fdd534", "is_disabled": 0, "is_reserved": 0}, {"rental_uris": {"ios": "https://dc.lft.to/lastmile_qr_scan", "android": "https://dc.lft.to/lastmile_qr_scan"}, "lon": -76.98767816666667, "type": "electric_scooter", "fusion_lat": 0.0, "lat": 38.911737, "name": "72fbe74d88a39813c4c58e3ddeb70937", "fusion_lon": 0.0, "bike_id": "72fbe74d88a39813c4c58e3ddeb70937", "is_disabled": 0, "is_reserved": 0}, {"rental_uris": {"ios": "https://dc.lft.to/lastmile_qr_scan", "android": "https://dc.lft.to/lastmile_qr_scan"}, "lon": -77.00853583333334, "type": "electric_scooter", "fusion_lat": 0.0, "lat": 38.92596116666667, "name": "79b00c75cd692a0fa2fc25970f42b2df", "fusion_lon": 0.0, "bike_id": "79b00c75cd692a0fa2fc25970f42b2df", "is_disabled": 0, "is_reserved": 0}, {"rental_uris": {"ios": "https://dc.lft.to/lastmile_qr_scan", "android": "https://dc.lft.to/lastmile_qr_scan"}, "lon": -76.99540166666667, "type": "electric_scooter", "fusion_lat": 0.0, "lat": 38.926695, "name": "d088a98b25d33dfc6ba85397c001283d", "fusion_lon": 0.0, "bike_id": "d088a98b25d33dfc6ba85397c001283d", "is_disabled": 0, "is_reserved": 0}, {"rental_uris": {"ios": "https://dc.lft.to/lastmile_qr_scan", "android": "https://dc.lft.to/lastmile_qr_scan"}, "lon": -77.01755216666666, "type": "electric_scooter", "fusion_lat": 0.0, "lat": 38.9389435, "name": "3bbd0819969b615d73b97274d9d7dc03", "fusion_lon": 0.0, "bike_id": "3bbd0819969b615d73b97274d9d7dc03", "is_disabled": 0, "is_reserved": 0}, {"rental_uris": {"ios": "https://dc.lft.to/lastmile_qr_scan", "android": "https://dc.lft.to/lastmile_qr_scan"}, "lon": -76.99769233333333, "type": "electric_bike", "fusion_lat": 0.0, "lat": 38.909297333333335, "name": "52b98be96700e72180fa9297f5e0a52d", "fusion_lon": 0.0, "bike_id": "52b98be96700e72180fa9297f5e0a52d", "is_disabled": 0, "is_reserved": 0}, {"rental_uris": {"ios": "https://dc.lft.to/lastmile_qr_scan", "android": "https://dc.lft.to/lastmile_qr_scan"}, "lon": -77.02314083333333, "type": "electric_scooter", "fusion_lat": 0.0, "lat": 38.878837, "name": "d76a94e1611e3cc58d8f2c61608516ca", "fusion_lon": 0.0, "bike_id": "d76a94e1611e3cc58d8f2c61608516ca", "is_disabled": 0, "is_reserved": 0}, {"rental_uris": {"ios": "https://dc.lft.to/lastmile_qr_scan", "android": "https://dc.lft.to/lastmile_qr_scan"}, "lon": -77.04468616666666, "type": "electric_scooter", "fusion_lat": 0.0, "lat": 38.8967255, "name": "1200b1e39d6de6520e9daf45074ba30f", "fusion_lon": 0.0, "bike_id": "1200b1e39d6de6520e9daf45074ba30f", "is_disabled": 0, "is_reserved": 0}, {"rental_uris": {"ios": "https://dc.lft.to/lastmile_qr_scan", "android": "https://dc.lft.to/lastmile_qr_scan"}, "lon": -77.00343683333334, "type": "electric_scooter", "fusion_lat": 0.0, "lat": 38.908182333333336, "name": "3a42468f5a83c9a7d3139911300a2908", "fusion_lon": 0.0, "bike_id": "3a42468f5a83c9a7d3139911300a2908", "is_disabled": 0, "is_reserved": 0}, {"rental_uris": {"ios": "https://dc.lft.to/lastmile_qr_scan", "android": "https://dc.lft.to/lastmile_qr_scan"}, "lon": -77.011153, "type": "electric_scooter", "fusion_lat": 0.0, "lat": 38.8949525, "name": "e0076d65ab93755853ec53f5f897a786", "fusion_lon": 0.0, "bike_id": "e0076d65ab93755853ec53f5f897a786", "is_disabled": 0, "is_reserved": 0}, {"rental_uris": {"ios": "https://dc.lft.to/lastmile_qr_scan", "android": "https://dc.lft.to/lastmile_qr_scan"}, "lon": -77.02397266666667, "type": "electric_scooter", "fusion_lat": 0.0, "lat": 38.91681283333333, "name": "fb697b1414184931be8c8a6c91488c45", "fusion_lon": 0.0, "bike_id": "fb697b1414184931be8c8a6c91488c45", "is_disabled": 0, "is_reserved": 0}, {"rental_uris": {"ios": "https://dc.lft.to/lastmile_qr_scan", "android": "https://dc.lft.to/lastmile_qr_scan"}, "lon": -76.975557, "type": "electric_scooter", "fusion_lat": 0.0, "lat": 38.9043935, "name": "1164bd148b023906bdf8d41ba566252a", "fusion_lon": 0.0, "bike_id": "1164bd148b023906bdf8d41ba566252a", "is_disabled": 0, "is_reserved": 0}, {"rental_uris": {"ios": "https://dc.lft.to/lastmile_qr_scan", "android": "https://dc.lft.to/lastmile_qr_scan"}, "lon": -76.98892166666667, "type": "electric_scooter", "fusion_lat": 0.0, "lat": 38.8665845, "name": "c933d01ef7c36f0829e35ea25a440a2c", "fusion_lon": 0.0, "bike_id": "c933d01ef7c36f0829e35ea25a440a2c", "is_disabled": 0, "is_reserved": 0}, {"rental_uris": {"ios": "https://dc.lft.to/lastmile_qr_scan", "android": "https://dc.lft.to/lastmile_qr_scan"}, "lon": -76.9780015, "type": "electric_scooter", "fusion_lat": 0.0, "lat": 38.903158833333336, "name": "89eea098a55fe7dd62a3d10af208112e", "fusion_lon": 0.0, "bike_id": "89eea098a55fe7dd62a3d10af208112e", "is_disabled": 0, "is_reserved": 0}, {"rental_uris": {"ios": "https://dc.lft.to/lastmile_qr_scan", "android": "https://dc.lft.to/lastmile_qr_scan"}, "lon": -76.98575683333334, "type": "electric_scooter", "fusion_lat": 0.0, "lat": 38.861605, "name": "e8f376874e706d9f09c58abf6ef8ade4", "fusion_lon": 0.0, "bike_id": "e8f376874e706d9f09c58abf6ef8ade4", "is_disabled": 0, "is_reserved": 0}, {"rental_uris": {"ios": "https://dc.lft.to/lastmile_qr_scan", "android": "https://dc.lft.to/lastmile_qr_scan"}, "lon": -77.04836416666667, "type": "electric_scooter", "fusion_lat": 0.0, "lat": 38.903706666666665, "name": "1f3b5b9aab15f435a5405acb226a502e", "fusion_lon": 0.0, "bike_id": "1f3b5b9aab15f435a5405acb226a502e", "is_disabled": 0, "is_reserved": 0}, {"rental_uris": {"ios": "https://dc.lft.to/lastmile_qr_scan", "android": "https://dc.lft.to/lastmile_qr_scan"}, "lon": -76.97213833333333, "type": "electric_bike", "fusion_lat": 0.0, "lat": 38.84481616666667, "name": "afc45b89fa8f381163efc558f5998774", "fusion_lon": 0.0, "bike_id": "afc45b89fa8f381163efc558f5998774", "is_disabled": 0, "is_reserved": 0}, {"rental_uris": {"ios": "https://dc.lft.to/lastmile_qr_scan", "android": "https://dc.lft.to/lastmile_qr_scan"}, "lon": -77.02526616666667, "type": "electric_scooter", "fusion_lat": 0.0, "lat": 38.94150116666667, "name": "f720ec92ee94be4f579cb04173ded0ed", "fusion_lon": 0.0, "bike_id": "f720ec92ee94be4f579cb04173ded0ed", "is_disabled": 0, "is_reserved": 0}, {"rental_uris": {"ios": "https://dc.lft.to/lastmile_qr_scan", "android": "https://dc.lft.to/lastmile_qr_scan"}, "lon": -77.0317385, "type": "electric_scooter", "fusion_lat": 0.0, "lat": 38.9097175, "name": "f46f1793b3beda506ad816ff03f12575", "fusion_lon": 0.0, "bike_id": "f46f1793b3beda506ad816ff03f12575", "is_disabled": 0, "is_reserved": 0}, {"rental_uris": {"ios": "https://dc.lft.to/lastmile_qr_scan", "android": "https://dc.lft.to/lastmile_qr_scan"}, "lon": -77.03214333333334, "type": "electric_scooter", "fusion_lat": 0.0, "lat": 38.93382, "name": "c8f1d0a5ec0677625d8f23ad5bead78e", "fusion_lon": 0.0, "bike_id": "c8f1d0a5ec0677625d8f23ad5bead78e", "is_disabled": 0, "is_reserved": 0}, {"rental_uris": {"ios": "https://dc.lft.to/lastmile_qr_scan", "android": "https://dc.lft.to/lastmile_qr_scan"}, "lon": -77.01123916666667, "type": "electric_scooter", "fusion_lat": 0.0, "lat": 38.912679833333335, "name": "ef6ef0df4471b355438a930bb7f1ce0b", "fusion_lon": 0.0, "bike_id": "ef6ef0df4471b355438a930bb7f1ce0b", "is_disabled": 0, "is_reserved": 0}, {"rental_uris": {"ios": "https://dc.lft.to/lastmile_qr_scan", "android": "https://dc.lft.to/lastmile_qr_scan"}, "lon": -77.04196816666666, "type": "electric_scooter", "fusion_lat": 0.0, "lat": 38.916784, "name": "58dbe2ff5a016f7813f209d4e59f8412", "fusion_lon": 0.0, "bike_id": "58dbe2ff5a016f7813f209d4e59f8412", "is_disabled": 0, "is_reserved": 0}, {"rental_uris": {"ios": "https://dc.lft.to/lastmile_qr_scan", "android": "https://dc.lft.to/lastmile_qr_scan"}, "lon": -77.06121483333334, "type": "electric_bike", "fusion_lat": 0.0, "lat": 38.90199633333334, "name": "3438e27f17cbfd46dae1aeaac37480ea", "fusion_lon": 0.0, "bike_id": "3438e27f17cbfd46dae1aeaac37480ea", "is_disabled": 0, "is_reserved": 0}, {"rental_uris": {"ios": "https://dc.lft.to/lastmile_qr_scan", "android": "https://dc.lft.to/lastmile_qr_scan"}, "lon": -77.02748383333333, "type": "electric_scooter", "fusion_lat": 0.0, "lat": 38.9396065, "name": "a4e9d5f1abd791afbe652ff14da88a27", "fusion_lon": 0.0, "bike_id": "a4e9d5f1abd791afbe652ff14da88a27", "is_disabled": 0, "is_reserved": 0}, {"rental_uris": {"ios": "https://dc.lft.to/lastmile_qr_scan", "android": "https://dc.lft.to/lastmile_qr_scan"}, "lon": -77.05527066666667, "type": "electric_scooter", "fusion_lat": 0.0, "lat": 38.92789666666667, "name": "e49056ee1c6b1385f6af753eb88c314b", "fusion_lon": 0.0, "bike_id": "e49056ee1c6b1385f6af753eb88c314b", "is_disabled": 0, "is_reserved": 0}, {"rental_uris": {"ios": "https://dc.lft.to/lastmile_qr_scan", "android": "https://dc.lft.to/lastmile_qr_scan"}, "lon": -77.02139283333334, "type": "electric_scooter", "fusion_lat": 0.0, "lat": 38.89497133333333, "name": "893b502286052a5e99fc38cc53b6bbcf", "fusion_lon": 0.0, "bike_id": "893b502286052a5e99fc38cc53b6bbcf", "is_disabled": 0, "is_reserved": 0}, {"rental_uris": {"ios": "https://dc.lft.to/lastmile_qr_scan", "android": "https://dc.lft.to/lastmile_qr_scan"}, "lon": -77.00071366666667, "type": "electric_scooter", "fusion_lat": 0.0, "lat": 38.9073075, "name": "9c888df7ed3f25780ceac950e876a975", "fusion_lon": 0.0, "bike_id": "9c888df7ed3f25780ceac950e876a975", "is_disabled": 0, "is_reserved": 0}, {"rental_uris": {"ios": "https://dc.lft.to/lastmile_qr_scan", "android": "https://dc.lft.to/lastmile_qr_scan"}, "lon": -77.0173905, "type": "electric_bike", "fusion_lat": 0.0, "lat": 39.00016733333333, "name": "e4e29e9e9e1e8f8fa246be009ff64058", "fusion_lon": 0.0, "bike_id": "e4e29e9e9e1e8f8fa246be009ff64058", "is_disabled": 0, "is_reserved": 0}, {"rental_uris": {"ios": "https://dc.lft.to/lastmile_qr_scan", "android": "https://dc.lft.to/lastmile_qr_scan"}, "lon": -77.0346425, "type": "electric_scooter", "fusion_lat": 0.0, "lat": 38.921570833333334, "name": "34c537f636bafbd68370fe95c6f6a0db", "fusion_lon": 0.0, "bike_id": "34c537f636bafbd68370fe95c6f6a0db", "is_disabled": 0, "is_reserved": 0}, {"rental_uris": {"ios": "https://dc.lft.to/lastmile_qr_scan", "android": "https://dc.lft.to/lastmile_qr_scan"}, "lon": -77.05694483333333, "type": "electric_scooter", "fusion_lat": 0.0, "lat": 38.905522833333336, "name": "7c71176f0e8fd643ef4aa7a3ff445c8b", "fusion_lon": 0.0, "bike_id": "7c71176f0e8fd643ef4aa7a3ff445c8b", "is_disabled": 0, "is_reserved": 0}, {"rental_uris": {"ios": "https://dc.lft.to/lastmile_qr_scan", "android": "https://dc.lft.to/lastmile_qr_scan"}, "lon": -77.03238166666667, "type": "electric_scooter", "fusion_lat": 0.0, "lat": 38.915532166666665, "name": "b8a216f3da797b5de05480358eac9120", "fusion_lon": 0.0, "bike_id": "b8a216f3da797b5de05480358eac9120", "is_disabled": 0, "is_reserved": 0}, {"rental_uris": {"ios": "https://dc.lft.to/lastmile_qr_scan", "android": "https://dc.lft.to/lastmile_qr_scan"}, "lon": -76.99974, "type": "electric_scooter", "fusion_lat": 0.0, "lat": 38.8383905, "name": "cfd0fb9fafd7c35b0ff70f2a6c65c1d9", "fusion_lon": 0.0, "bike_id": "cfd0fb9fafd7c35b0ff70f2a6c65c1d9", "is_disabled": 0, "is_reserved": 0}, {"rental_uris": {"ios": "https://dc.lft.to/lastmile_qr_scan", "android": "https://dc.lft.to/lastmile_qr_scan"}, "lon": -77.00419466666666, "type": "electric_scooter", "fusion_lat": 0.0, "lat": 38.905597, "name": "6002b9d9da9fa549fc645ab2cd97e39a", "fusion_lon": 0.0, "bike_id": "6002b9d9da9fa549fc645ab2cd97e39a", "is_disabled": 0, "is_reserved": 0}, {"rental_uris": {"ios": "https://dc.lft.to/lastmile_qr_scan", "android": "https://dc.lft.to/lastmile_qr_scan"}, "lon": -77.05117016666667, "type": "electric_scooter", "fusion_lat": 0.0, "lat": 38.90121333333333, "name": "b018dedc3091b2353b090144e89b4d73", "fusion_lon": 0.0, "bike_id": "b018dedc3091b2353b090144e89b4d73", "is_disabled": 0, "is_reserved": 0}, {"rental_uris": {"ios": "https://dc.lft.to/lastmile_qr_scan", "android": "https://dc.lft.to/lastmile_qr_scan"}, "lon": -76.96517583333333, "type": "electric_scooter", "fusion_lat": 0.0, "lat": 38.87866533333333, "name": "a91fdd85fc894331002cb88661180649", "fusion_lon": 0.0, "bike_id": "a91fdd85fc894331002cb88661180649", "is_disabled": 0, "is_reserved": 0}, {"rental_uris": {"ios": "https://dc.lft.to/lastmile_qr_scan", "android": "https://dc.lft.to/lastmile_qr_scan"}, "lon": -77.069813, "type": "electric_scooter", "fusion_lat": 0.0, "lat": 38.954858, "name": "087e75882a286e320ed4a61144b75549", "fusion_lon": 0.0, "bike_id": "087e75882a286e320ed4a61144b75549", "is_disabled": 0, "is_reserved": 0}, {"rental_uris": {"ios": "https://dc.lft.to/lastmile_qr_scan", "android": "https://dc.lft.to/lastmile_qr_scan"}, "lon": -77.00221933333333, "type": "electric_scooter", "fusion_lat": 0.0, "lat": 38.900236666666665, "name": "1e3831483c9a31a810410e5301c261dd", "fusion_lon": 0.0, "bike_id": "1e3831483c9a31a810410e5301c261dd", "is_disabled": 0, "is_reserved": 0}, {"rental_uris": {"ios": "https://dc.lft.to/lastmile_qr_scan", "android": "https://dc.lft.to/lastmile_qr_scan"}, "lon": -77.03958533333333, "type": "electric_scooter", "fusion_lat": 0.0, "lat": 38.895347, "name": "c5c658d75720d507bcc1fa4fea9bed74", "fusion_lon": 0.0, "bike_id": "c5c658d75720d507bcc1fa4fea9bed74", "is_disabled": 0, "is_reserved": 0}, {"rental_uris": {"ios": "https://dc.lft.to/lastmile_qr_scan", "android": "https://dc.lft.to/lastmile_qr_scan"}, "lon": -76.99497133333334, "type": "electric_bike", "fusion_lat": 0.0, "lat": 39.000021833333335, "name": "cb44dc5253efadd67d33c896482e4bb2", "fusion_lon": 0.0, "bike_id": "cb44dc5253efadd67d33c896482e4bb2", "is_disabled": 0, "is_reserved": 0}, {"rental_uris": {"ios": "https://dc.lft.to/lastmile_qr_scan", "android": "https://dc.lft.to/lastmile_qr_scan"}, "lon": -77.07562483333334, "type": "electric_scooter", "fusion_lat": 0.0, "lat": 38.914312833333334, "name": "349cc464a58d325537977daaa06f5439", "fusion_lon": 0.0, "bike_id": "349cc464a58d325537977daaa06f5439", "is_disabled": 0, "is_reserved": 0}, {"rental_uris": {"ios": "https://dc.lft.to/lastmile_qr_scan", "android": "https://dc.lft.to/lastmile_qr_scan"}, "lon": -77.03667866666666, "type": "electric_scooter", "fusion_lat": 0.0, "lat": 38.92937333333333, "name": "f57fd44c1cdfbc54ca3ae6dc56e9fd20", "fusion_lon": 0.0, "bike_id": "f57fd44c1cdfbc54ca3ae6dc56e9fd20", "is_disabled": 0, "is_reserved": 0}, {"rental_uris": {"ios": "https://dc.lft.to/lastmile_qr_scan", "android": "https://dc.lft.to/lastmile_qr_scan"}, "lon": -77.07560633333334, "type": "electric_scooter", "fusion_lat": 0.0, "lat": 38.9209235, "name": "14b23e814fe962097da52d3b541f8cb9", "fusion_lon": 0.0, "bike_id": "14b23e814fe962097da52d3b541f8cb9", "is_disabled": 0, "is_reserved": 0}, {"rental_uris": {"ios": "https://dc.lft.to/lastmile_qr_scan", "android": "https://dc.lft.to/lastmile_qr_scan"}, "lon": -77.01783983333333, "type": "electric_scooter", "fusion_lat": 0.0, "lat": 38.884, "name": "a8a383dc49cd7d4505a57983f1d6ef0a", "fusion_lon": 0.0, "bike_id": "a8a383dc49cd7d4505a57983f1d6ef0a", "is_disabled": 0, "is_reserved": 0}, {"rental_uris": {"ios": "https://dc.lft.to/lastmile_qr_scan", "android": "https://dc.lft.to/lastmile_qr_scan"}, "lon": -77.027116, "type": "electric_scooter", "fusion_lat": 0.0, "lat": 38.918215833333335, "name": "76c177dff7c0e9f3a15b9f12545f45bb", "fusion_lon": 0.0, "bike_id": "76c177dff7c0e9f3a15b9f12545f45bb", "is_disabled": 0, "is_reserved": 0}, {"rental_uris": {"ios": "https://dc.lft.to/lastmile_qr_scan", "android": "https://dc.lft.to/lastmile_qr_scan"}, "lon": -77.03183133333333, "type": "electric_scooter", "fusion_lat": 0.0, "lat": 38.9162085, "name": "7438e4da39c7b86dc01ef51db6312861", "fusion_lon": 0.0, "bike_id": "7438e4da39c7b86dc01ef51db6312861", "is_disabled": 0, "is_reserved": 0}, {"rental_uris": {"ios": "https://dc.lft.to/lastmile_qr_scan", "android": "https://dc.lft.to/lastmile_qr_scan"}, "lon": -77.021664, "type": "electric_scooter", "fusion_lat": 0.0, "lat": 38.89399866666667, "name": "a049d643f0136271f76463808d2930e7", "fusion_lon": 0.0, "bike_id": "a049d643f0136271f76463808d2930e7", "is_disabled": 0, "is_reserved": 0}, {"rental_uris": {"ios": "https://dc.lft.to/lastmile_qr_scan", "android": "https://dc.lft.to/lastmile_qr_scan"}, "lon": -77.02711366666666, "type": "electric_scooter", "fusion_lat": 0.0, "lat": 38.92486516666666, "name": "d1b6280c21eb4dcb0386ac61f25dd26b", "fusion_lon": 0.0, "bike_id": "d1b6280c21eb4dcb0386ac61f25dd26b", "is_disabled": 0, "is_reserved": 0}, {"rental_uris": {"ios": "https://dc.lft.to/lastmile_qr_scan", "android": "https://dc.lft.to/lastmile_qr_scan"}, "lon": -77.02807933333334, "type": "electric_scooter", "fusion_lat": 0.0, "lat": 38.89629766666667, "name": "f580d912dd35f510b94b6b64767b65e1", "fusion_lon": 0.0, "bike_id": "f580d912dd35f510b94b6b64767b65e1", "is_disabled": 0, "is_reserved": 0}, {"rental_uris": {"ios": "https://dc.lft.to/lastmile_qr_scan", "android": "https://dc.lft.to/lastmile_qr_scan"}, "lon": -77.032081, "type": "electric_scooter", "fusion_lat": 0.0, "lat": 38.91110966666667, "name": "f3cff669678473aa2fc37d0fbfb4f180", "fusion_lon": 0.0, "bike_id": "f3cff669678473aa2fc37d0fbfb4f180", "is_disabled": 0, "is_reserved": 0}, {"rental_uris": {"ios": "https://dc.lft.to/lastmile_qr_scan", "android": "https://dc.lft.to/lastmile_qr_scan"}, "lon": -77.07320833333333, "type": "electric_scooter", "fusion_lat": 0.0, "lat": 38.9249275, "name": "577fb94f3506d21ccaf09d43a7e59268", "fusion_lon": 0.0, "bike_id": "577fb94f3506d21ccaf09d43a7e59268", "is_disabled": 0, "is_reserved": 0}, {"rental_uris": {"ios": "https://dc.lft.to/lastmile_qr_scan", "android": "https://dc.lft.to/lastmile_qr_scan"}, "lon": -76.9730285, "type": "electric_scooter", "fusion_lat": 0.0, "lat": 38.91986566666667, "name": "999329767553a19ca2b87b7435a0c729", "fusion_lon": 0.0, "bike_id": "999329767553a19ca2b87b7435a0c729", "is_disabled": 0, "is_reserved": 0}, {"rental_uris": {"ios": "https://dc.lft.to/lastmile_qr_scan", "android": "https://dc.lft.to/lastmile_qr_scan"}, "lon": -77.04130883333333, "type": "electric_scooter", "fusion_lat": 0.0, "lat": 38.9425285, "name": "93c003e23da49aed4e4476b4e09fa914", "fusion_lon": 0.0, "bike_id": "93c003e23da49aed4e4476b4e09fa914", "is_disabled": 0, "is_reserved": 0}, {"rental_uris": {"ios": "https://dc.lft.to/lastmile_qr_scan", "android": "https://dc.lft.to/lastmile_qr_scan"}, "lon": -77.03263316666667, "type": "electric_scooter", "fusion_lat": 0.0, "lat": 38.937386833333335, "name": "25aab079904550c82d3772164d18682a", "fusion_lon": 0.0, "bike_id": "25aab079904550c82d3772164d18682a", "is_disabled": 0, "is_reserved": 0}, {"rental_uris": {"ios": "https://dc.lft.to/lastmile_qr_scan", "android": "https://dc.lft.to/lastmile_qr_scan"}, "lon": -76.98999083333334, "type": "electric_scooter", "fusion_lat": 0.0, "lat": 38.86505733333333, "name": "623168bd357cc349d2993794faa0b1bd", "fusion_lon": 0.0, "bike_id": "623168bd357cc349d2993794faa0b1bd", "is_disabled": 0, "is_reserved": 0}, {"rental_uris": {"ios": "https://dc.lft.to/lastmile_qr_scan", "android": "https://dc.lft.to/lastmile_qr_scan"}, "lon": -77.034791, "type": "electric_scooter", "fusion_lat": 0.0, "lat": 38.908333166666665, "name": "dcaadbdc14b56af48e917e67da6a3a9e", "fusion_lon": 0.0, "bike_id": "dcaadbdc14b56af48e917e67da6a3a9e", "is_disabled": 0, "is_reserved": 0}, {"rental_uris": {"ios": "https://dc.lft.to/lastmile_qr_scan", "android": "https://dc.lft.to/lastmile_qr_scan"}, "lon": -76.9815645, "type": "electric_scooter", "fusion_lat": 0.0, "lat": 38.932977666666666, "name": "582d5cdeac90866510ae97ecae637f39", "fusion_lon": 0.0, "bike_id": "582d5cdeac90866510ae97ecae637f39", "is_disabled": 0, "is_reserved": 0}, {"rental_uris": {"ios": "https://dc.lft.to/lastmile_qr_scan", "android": "https://dc.lft.to/lastmile_qr_scan"}, "lon": -77.04677133333334, "type": "electric_scooter", "fusion_lat": 0.0, "lat": 38.900651333333336, "name": "e1dda63043f91aa0c449ce18b6895fad", "fusion_lon": 0.0, "bike_id": "e1dda63043f91aa0c449ce18b6895fad", "is_disabled": 0, "is_reserved": 0}, {"rental_uris": {"ios": "https://dc.lft.to/lastmile_qr_scan", "android": "https://dc.lft.to/lastmile_qr_scan"}, "lon": -76.98690116666667, "type": "electric_scooter", "fusion_lat": 0.0, "lat": 38.907002166666665, "name": "110d9a7650c9f48ce687589e45245a3f", "fusion_lon": 0.0, "bike_id": "110d9a7650c9f48ce687589e45245a3f", "is_disabled": 0, "is_reserved": 0}, {"rental_uris": {"ios": "https://dc.lft.to/lastmile_qr_scan", "android": "https://dc.lft.to/lastmile_qr_scan"}, "lon": -77.04067266666667, "type": "electric_scooter", "fusion_lat": 0.0, "lat": 38.92650116666667, "name": "925fcf3bce3cf058614cb4c307b08ec3", "fusion_lon": 0.0, "bike_id": "925fcf3bce3cf058614cb4c307b08ec3", "is_disabled": 0, "is_reserved": 0}, {"rental_uris": {"ios": "https://dc.lft.to/lastmile_qr_scan", "android": "https://dc.lft.to/lastmile_qr_scan"}, "lon": -77.04025066666667, "type": "electric_scooter", "fusion_lat": 0.0, "lat": 38.91839383333333, "name": "bd679ee6d7c981939f430c5288617dd9", "fusion_lon": 0.0, "bike_id": "bd679ee6d7c981939f430c5288617dd9", "is_disabled": 0, "is_reserved": 0}, {"rental_uris": {"ios": "https://dc.lft.to/lastmile_qr_scan", "android": "https://dc.lft.to/lastmile_qr_scan"}, "lon": -77.02951016666667, "type": "electric_scooter", "fusion_lat": 0.0, "lat": 38.897193, "name": "4b1bf45255f2a8fb86d7073b4eda5965", "fusion_lon": 0.0, "bike_id": "4b1bf45255f2a8fb86d7073b4eda5965", "is_disabled": 0, "is_reserved": 0}, {"rental_uris": {"ios": "https://dc.lft.to/lastmile_qr_scan", "android": "https://dc.lft.to/lastmile_qr_scan"}, "lon": -77.02404416666667, "type": "electric_scooter", "fusion_lat": 0.0, "lat": 38.93094883333333, "name": "5e267f5603d0ad12726882dc80373344", "fusion_lon": 0.0, "bike_id": "5e267f5603d0ad12726882dc80373344", "is_disabled": 0, "is_reserved": 0}, {"rental_uris": {"ios": "https://dc.lft.to/lastmile_qr_scan", "android": "https://dc.lft.to/lastmile_qr_scan"}, "lon": -77.02691966666667, "type": "electric_scooter", "fusion_lat": 0.0, "lat": 38.9036775, "name": "480271e3268640ca5c02b69009784274", "fusion_lon": 0.0, "bike_id": "480271e3268640ca5c02b69009784274", "is_disabled": 0, "is_reserved": 0}, {"rental_uris": {"ios": "https://dc.lft.to/lastmile_qr_scan", "android": "https://dc.lft.to/lastmile_qr_scan"}, "lon": -76.904338, "type": "electric_bike", "fusion_lat": 0.0, "lat": 38.8977545, "name": "1e1908436da10c548095789b41092156", "fusion_lon": 0.0, "bike_id": "1e1908436da10c548095789b41092156", "is_disabled": 0, "is_reserved": 0}, {"rental_uris": {"ios": "https://dc.lft.to/lastmile_qr_scan", "android": "https://dc.lft.to/lastmile_qr_scan"}, "lon": -77.0468415, "type": "electric_scooter", "fusion_lat": 0.0, "lat": 38.892267333333336, "name": "319d219851c68bec88d94c7ba24ec838", "fusion_lon": 0.0, "bike_id": "319d219851c68bec88d94c7ba24ec838", "is_disabled": 0, "is_reserved": 0}, {"rental_uris": {"ios": "https://dc.lft.to/lastmile_qr_scan", "android": "https://dc.lft.to/lastmile_qr_scan"}, "lon": -77.04829733333334, "type": "electric_scooter", "fusion_lat": 0.0, "lat": 38.920375, "name": "9f8ad30b219d1f9826161cf14a7e07b2", "fusion_lon": 0.0, "bike_id": "9f8ad30b219d1f9826161cf14a7e07b2", "is_disabled": 0, "is_reserved": 0}, {"rental_uris": {"ios": "https://dc.lft.to/lastmile_qr_scan", "android": "https://dc.lft.to/lastmile_qr_scan"}, "lon": -77.02395066666666, "type": "electric_scooter", "fusion_lat": 0.0, "lat": 38.9309175, "name": "9f0c8a50f5c749359a4cca5da459cc9c", "fusion_lon": 0.0, "bike_id": "9f0c8a50f5c749359a4cca5da459cc9c", "is_disabled": 0, "is_reserved": 0}, {"rental_uris": {"ios": "https://dc.lft.to/lastmile_qr_scan", "android": "https://dc.lft.to/lastmile_qr_scan"}, "lon": -77.04110216666666, "type": "electric_scooter", "fusion_lat": 0.0, "lat": 38.92126916666667, "name": "ec4ad4462b6c2cc3bbf9acb52d0e6120", "fusion_lon": 0.0, "bike_id": "ec4ad4462b6c2cc3bbf9acb52d0e6120", "is_disabled": 0, "is_reserved": 0}, {"rental_uris": {"ios": "https://dc.lft.to/lastmile_qr_scan", "android": "https://dc.lft.to/lastmile_qr_scan"}, "lon": -77.019626, "type": "electric_scooter", "fusion_lat": 0.0, "lat": 38.93411433333333, "name": "85a7df61051c07a7d62465dc5b077072", "fusion_lon": 0.0, "bike_id": "85a7df61051c07a7d62465dc5b077072", "is_disabled": 0, "is_reserved": 0}, {"rental_uris": {"ios": "https://dc.lft.to/lastmile_qr_scan", "android": "https://dc.lft.to/lastmile_qr_scan"}, "lon": -77.02397733333333, "type": "electric_scooter", "fusion_lat": 0.0, "lat": 38.89553083333333, "name": "231db991e457864e4c1dad4050259cc4", "fusion_lon": 0.0, "bike_id": "231db991e457864e4c1dad4050259cc4", "is_disabled": 0, "is_reserved": 0}, {"rental_uris": {"ios": "https://dc.lft.to/lastmile_qr_scan", "android": "https://dc.lft.to/lastmile_qr_scan"}, "lon": -77.032741, "type": "electric_scooter", "fusion_lat": 0.0, "lat": 38.939007833333335, "name": "cd388d132a40a4dd5b91828182817949", "fusion_lon": 0.0, "bike_id": "cd388d132a40a4dd5b91828182817949", "is_disabled": 0, "is_reserved": 0}, {"rental_uris": {"ios": "https://dc.lft.to/lastmile_qr_scan", "android": "https://dc.lft.to/lastmile_qr_scan"}, "lon": -76.93522, "type": "electric_bike", "fusion_lat": 0.0, "lat": 38.955505, "name": "3f97d22188256817d47f140cbcd715f0", "fusion_lon": 0.0, "bike_id": "3f97d22188256817d47f140cbcd715f0", "is_disabled": 0, "is_reserved": 0}, {"rental_uris": {"ios": "https://dc.lft.to/lastmile_qr_scan", "android": "https://dc.lft.to/lastmile_qr_scan"}, "lon": -76.98002516666666, "type": "electric_scooter", "fusion_lat": 0.0, "lat": 38.8997595, "name": "3dab95f61c46b8c6420216a84b4f73fa", "fusion_lon": 0.0, "bike_id": "3dab95f61c46b8c6420216a84b4f73fa", "is_disabled": 0, "is_reserved": 0}, {"rental_uris": {"ios": "https://dc.lft.to/lastmile_qr_scan", "android": "https://dc.lft.to/lastmile_qr_scan"}, "lon": -77.04385816666667, "type": "electric_scooter", "fusion_lat": 0.0, "lat": 38.91657433333334, "name": "6b2392630180725f2b5cbd67bdc01293", "fusion_lon": 0.0, "bike_id": "6b2392630180725f2b5cbd67bdc01293", "is_disabled": 0, "is_reserved": 0}, {"rental_uris": {"ios": "https://dc.lft.to/lastmile_qr_scan", "android": "https://dc.lft.to/lastmile_qr_scan"}, "lon": -77.07683, "type": "electric_bike", "fusion_lat": 0.0, "lat": 38.83194683333333, "name": "62cd12b0f0a400bb050665ad9d1a2467", "fusion_lon": 0.0, "bike_id": "62cd12b0f0a400bb050665ad9d1a2467", "is_disabled": 0, "is_reserved": 0}, {"rental_uris": {"ios": "https://dc.lft.to/lastmile_qr_scan", "android": "https://dc.lft.to/lastmile_qr_scan"}, "lon": -77.03215316666666, "type": "electric_scooter", "fusion_lat": 0.0, "lat": 38.918292, "name": "d78f6a5924df0d3dde22fd72be77f880", "fusion_lon": 0.0, "bike_id": "d78f6a5924df0d3dde22fd72be77f880", "is_disabled": 0, "is_reserved": 0}, {"rental_uris": {"ios": "https://dc.lft.to/lastmile_qr_scan", "android": "https://dc.lft.to/lastmile_qr_scan"}, "lon": -77.04381516666666, "type": "electric_scooter", "fusion_lat": 0.0, "lat": 38.920678833333334, "name": "10466c9a7231388ee2f1944ce73e2bc2", "fusion_lon": 0.0, "bike_id": "10466c9a7231388ee2f1944ce73e2bc2", "is_disabled": 0, "is_reserved": 0}, {"rental_uris": {"ios": "https://dc.lft.to/lastmile_qr_scan", "android": "https://dc.lft.to/lastmile_qr_scan"}, "lon": -77.032256, "type": "electric_scooter", "fusion_lat": 0.0, "lat": 38.9258625, "name": "4993a6a8efb7d58cc13406837c3dc852", "fusion_lon": 0.0, "bike_id": "4993a6a8efb7d58cc13406837c3dc852", "is_disabled": 0, "is_reserved": 0}, {"rental_uris": {"ios": "https://dc.lft.to/lastmile_qr_scan", "android": "https://dc.lft.to/lastmile_qr_scan"}, "lon": -77.02411116666667, "type": "electric_scooter", "fusion_lat": 0.0, "lat": 38.89221083333333, "name": "227ff2cadff313dcc1c2e3f0fe26beed", "fusion_lon": 0.0, "bike_id": "227ff2cadff313dcc1c2e3f0fe26beed", "is_disabled": 0, "is_reserved": 0}, {"rental_uris": {"ios": "https://dc.lft.to/lastmile_qr_scan", "android": "https://dc.lft.to/lastmile_qr_scan"}, "lon": -77.0372455, "type": "electric_scooter", "fusion_lat": 0.0, "lat": 38.93362416666667, "name": "34f9a67dc5a73219531c5914ff2e1cf9", "fusion_lon": 0.0, "bike_id": "34f9a67dc5a73219531c5914ff2e1cf9", "is_disabled": 0, "is_reserved": 0}, {"rental_uris": {"ios": "https://dc.lft.to/lastmile_qr_scan", "android": "https://dc.lft.to/lastmile_qr_scan"}, "lon": -77.02210983333333, "type": "electric_scooter", "fusion_lat": 0.0, "lat": 38.894366, "name": "fe8f043db20f85c4e62e203879461435", "fusion_lon": 0.0, "bike_id": "fe8f043db20f85c4e62e203879461435", "is_disabled": 0, "is_reserved": 0}, {"rental_uris": {"ios": "https://dc.lft.to/lastmile_qr_scan", "android": "https://dc.lft.to/lastmile_qr_scan"}, "lon": -77.05126033333333, "type": "electric_scooter", "fusion_lat": 0.0, "lat": 38.902355166666666, "name": "c6157bd08a6752db99279f946e14646b", "fusion_lon": 0.0, "bike_id": "c6157bd08a6752db99279f946e14646b", "is_disabled": 0, "is_reserved": 0}, {"rental_uris": {"ios": "https://dc.lft.to/lastmile_qr_scan", "android": "https://dc.lft.to/lastmile_qr_scan"}, "lon": -77.04173716666666, "type": "electric_scooter", "fusion_lat": 0.0, "lat": 38.91155233333333, "name": "e8c4de278737b1e071753ef72b3fe283", "fusion_lon": 0.0, "bike_id": "e8c4de278737b1e071753ef72b3fe283", "is_disabled": 0, "is_reserved": 0}, {"rental_uris": {"ios": "https://dc.lft.to/lastmile_qr_scan", "android": "https://dc.lft.to/lastmile_qr_scan"}, "lon": -77.11202683333333, "type": "electric_bike", "fusion_lat": 0.0, "lat": 38.813073833333334, "name": "705b7918da962e0aed3e114dce467ec7", "fusion_lon": 0.0, "bike_id": "705b7918da962e0aed3e114dce467ec7", "is_disabled": 0, "is_reserved": 0}, {"rental_uris": {"ios": "https://dc.lft.to/lastmile_qr_scan", "android": "https://dc.lft.to/lastmile_qr_scan"}, "lon": -77.12258716666666, "type": "electric_bike", "fusion_lat": 0.0, "lat": 38.89191016666667, "name": "722ee681e1f00fa2ed49d85a186095c7", "fusion_lon": 0.0, "bike_id": "722ee681e1f00fa2ed49d85a186095c7", "is_disabled": 0, "is_reserved": 0}, {"rental_uris": {"ios": "https://dc.lft.to/lastmile_qr_scan", "android": "https://dc.lft.to/lastmile_qr_scan"}, "lon": -76.9462365, "type": "electric_bike", "fusion_lat": 0.0, "lat": 38.8323715, "name": "361f9cce36a318700c5042093dabcc8c", "fusion_lon": 0.0, "bike_id": "361f9cce36a318700c5042093dabcc8c", "is_disabled": 0, "is_reserved": 0}, {"rental_uris": {"ios": "https://dc.lft.to/lastmile_qr_scan", "android": "https://dc.lft.to/lastmile_qr_scan"}, "lon": -76.98543816666667, "type": "electric_scooter", "fusion_lat": 0.0, "lat": 38.90423583333333, "name": "17928bbe14843f0d7045dec689daebb7", "fusion_lon": 0.0, "bike_id": "17928bbe14843f0d7045dec689daebb7", "is_disabled": 0, "is_reserved": 0}, {"rental_uris": {"ios": "https://dc.lft.to/lastmile_qr_scan", "android": "https://dc.lft.to/lastmile_qr_scan"}, "lon": -77.021689, "type": "electric_scooter", "fusion_lat": 0.0, "lat": 38.89402183333333, "name": "93ec9214238356631f872bcf173db1c1", "fusion_lon": 0.0, "bike_id": "93ec9214238356631f872bcf173db1c1", "is_disabled": 0, "is_reserved": 0}, {"rental_uris": {"ios": "https://dc.lft.to/lastmile_qr_scan", "android": "https://dc.lft.to/lastmile_qr_scan"}, "lon": -77.025331, "type": "electric_scooter", "fusion_lat": 0.0, "lat": 38.901069, "name": "6fb85a14339cde6229f2b6cea75b2fe7", "fusion_lon": 0.0, "bike_id": "6fb85a14339cde6229f2b6cea75b2fe7", "is_disabled": 0, "is_reserved": 0}, {"rental_uris": {"ios": "https://dc.lft.to/lastmile_qr_scan", "android": "https://dc.lft.to/lastmile_qr_scan"}, "lon": -77.019807, "type": "electric_scooter", "fusion_lat": 0.0, "lat": 38.9006645, "name": "8edc3135417a2dd5548b568cc94c9768", "fusion_lon": 0.0, "bike_id": "8edc3135417a2dd5548b568cc94c9768", "is_disabled": 0, "is_reserved": 0}, {"rental_uris": {"ios": "https://dc.lft.to/lastmile_qr_scan", "android": "https://dc.lft.to/lastmile_qr_scan"}, "lon": -76.93924833333334, "type": "electric_scooter", "fusion_lat": 0.0, "lat": 38.8929845, "name": "88c9059b3620181619fb6c63b814ebe9", "fusion_lon": 0.0, "bike_id": "88c9059b3620181619fb6c63b814ebe9", "is_disabled": 0, "is_reserved": 0}, {"rental_uris": {"ios": "https://dc.lft.to/lastmile_qr_scan", "android": "https://dc.lft.to/lastmile_qr_scan"}, "lon": -77.04363216666667, "type": "electric_scooter", "fusion_lat": 0.0, "lat": 38.933352, "name": "1274803ea16db489a95fbcfddeb41ed8", "fusion_lon": 0.0, "bike_id": "1274803ea16db489a95fbcfddeb41ed8", "is_disabled": 0, "is_reserved": 0}, {"rental_uris": {"ios": "https://dc.lft.to/lastmile_qr_scan", "android": "https://dc.lft.to/lastmile_qr_scan"}, "lon": -77.029806, "type": "electric_scooter", "fusion_lat": 0.0, "lat": 38.908419333333335, "name": "16284f296e5521a1ea0766a0fa402fb2", "fusion_lon": 0.0, "bike_id": "16284f296e5521a1ea0766a0fa402fb2", "is_disabled": 0, "is_reserved": 0}, {"rental_uris": {"ios": "https://dc.lft.to/lastmile_qr_scan", "android": "https://dc.lft.to/lastmile_qr_scan"},