{"data": {"bikes": [{"rental_uris": {"android": "https://dc.lft.to/lastmile_qr_scan", "ios": "https://dc.lft.to/lastmile_qr_scan"}, "name": "2f953ad7ff48fb10dd6e39ba9e32ccaa", "fusion_lat": 0.0, "lon": -77.00592433333334, "is_disabled": 0, "is_reserved": 0, "fusion_lon": 0.0, "lat": 38.90552533333333, "type": "electric_scooter", "bike_id": "2f953ad7ff48fb10dd6e39ba9e32ccaa"}, {"rental_uris": {"android": "https://dc.lft.to/lastmile_qr_scan", "ios": "https://dc.lft.to/lastmile_qr_scan"}, "name": "20073b8b06a6211532e4d85009188b55", "fusion_lat": 0.0, "lon": -77.03480316666666, "is_disabled": 0, "is_reserved": 0, "fusion_lon": 0.0, "lat": 38.911156166666665, "type": "electric_scooter", "bike_id": "20073b8b06a6211532e4d85009188b55"}, {"rental_uris": {"android": "https://dc.lft.to/lastmile_qr_scan", "ios": "https://dc.lft.to/lastmile_qr_scan"}, "name": "0164901dfdc43ff213bd9a1c14478300", "fusion_lat": 0.0, "lon": -77.00055366666666, "is_disabled": 0, "is_reserved": 0, "fusion_lon": 0.0, "lat": 38.87651983333333, "type": "electric_scooter", "bike_id": "0164901dfdc43ff213bd9a1c14478300"}, {"rental_uris": {"android": "https://dc.lft.to/lastmile_qr_scan", "ios": "https://dc.lft.to/lastmile_qr_scan"}, "name": "8f9d9ce223f5584f946240f7b7cb28c4", "fusion_lat": 0.0, "lon": -77.008892, "is_disabled": 0, "is_reserved": 0, "fusion_lon": 0.0, "lat": 38.9058115, "type": "electric_scooter", "bike_id": "8f9d9ce223f5584f946240f7b7cb28c4"}, {"rental_uris": {"android": "https://dc.lft.to/lastmile_qr_scan", "ios": "https://dc.lft.to/lastmile_qr_scan"}, "name": "d3faab1073dde2d325c6e664e599a4d8", "fusion_lat": 0.0, "lon": -77.02961833333333, "is_disabled": 0, "is_reserved": 0, "fusion_lon": 0.0, "lat": 38.92145416666666, "type": "electric_scooter", "bike_id": "d3faab1073dde2d325c6e664e599a4d8"}, {"rental_uris": {"android": "https://dc.lft.to/lastmile_qr_scan", "ios": "https://dc.lft.to/lastmile_qr_scan"}, "name": "987550daf87a279adedb3c4d933fa5d9", "fusion_lat": 0.0, "lon": -77.034378, "is_disabled": 0, "is_reserved": 0, "fusion_lon": 0.0, "lat": 38.918060833333335, "type": "electric_scooter", "bike_id": "987550daf87a279adedb3c4d933fa5d9"}, {"rental_uris": {"android": "https://dc.lft.to/lastmile_qr_scan", "ios": "https://dc.lft.to/lastmile_qr_scan"}, "name": "286a9cf5f3236b79701c7c429eb9488c", "fusion_lat": 0.0, "lon": -76.99078233333333, "is_disabled": 0, "is_reserved": 0, "fusion_lon": 0.0, "lat": 38.89817266666667, "type": "electric_bike", "bike_id": "286a9cf5f3236b79701c7c429eb9488c"}, {"rental_uris": {"android": "https://dc.lft.to/lastmile_qr_scan", "ios": "https://dc.lft.to/lastmile_qr_scan"}, "name": "f07dc618c634f17a81f7ba96550d995d", "fusion_lat": 0.0, "lon": -76.99491866666666, "is_disabled": 0, "is_reserved": 0, "fusion_lon": 0.0, "lat": 38.8624265, "type": "electric_scooter", "bike_id": "f07dc618c634f17a81f7ba96550d995d"}, {"rental_uris": {"android": "https://dc.lft.to/lastmile_qr_scan", "ios": "https://dc.lft.to/lastmile_qr_scan"}, "name": "865396ee7b7eff3a8a5b43f709002c75", "fusion_lat": 0.0, "lon": -77.02748383333333, "is_disabled": 0, "is_reserved": 0, "fusion_lon": 0.0, "lat": 38.95610283333333, "type": "electric_scooter", "bike_id": "865396ee7b7eff3a8a5b43f709002c75"}, {"rental_uris": {"android": "https://dc.lft.to/lastmile_qr_scan", "ios": "https://dc.lft.to/lastmile_qr_scan"}, "name": "57377fa4318a5ebe5ee36ff94c1d1cff", "fusion_lat": 0.0, "lon": -77.02490883333333, "is_disabled": 0, "is_reserved": 0, "fusion_lon": 0.0, "lat": 38.94197033333333, "type": "electric_scooter", "bike_id": "57377fa4318a5ebe5ee36ff94c1d1cff"}, {"rental_uris": {"android": "https://dc.lft.to/lastmile_qr_scan", "ios": "https://dc.lft.to/lastmile_qr_scan"}, "name": "62b58e4c0cfd51294fedcb9058fafbbe", "fusion_lat": 0.0, "lon": -77.02646583333333, "is_disabled": 0, "is_reserved": 0, "fusion_lon": 0.0, "lat": 38.90258566666667, "type": "electric_scooter", "bike_id": "62b58e4c0cfd51294fedcb9058fafbbe"}, {"rental_uris": {"android": "https://dc.lft.to/lastmile_qr_scan", "ios": "https://dc.lft.to/lastmile_qr_scan"}, "name": "63394db48aa176c8f402efdc277eb617", "fusion_lat": 0.0, "lon": -77.04339616666667, "is_disabled": 0, "is_reserved": 0, "fusion_lon": 0.0, "lat": 38.91442883333333, "type": "electric_scooter", "bike_id": "63394db48aa176c8f402efdc277eb617"}, {"rental_uris": {"android": "https://dc.lft.to/lastmile_qr_scan", "ios": "https://dc.lft.to/lastmile_qr_scan"}, "name": "d6508565dd3721a756b18c2c2974c128", "fusion_lat": 0.0, "lon": -77.04820783333334, "is_disabled": 0, "is_reserved": 0, "fusion_lon": 0.0, "lat": 38.91487033333333, "type": "electric_scooter", "bike_id": "d6508565dd3721a756b18c2c2974c128"}, {"rental_uris": {"android": "https://dc.lft.to/lastmile_qr_scan", "ios": "https://dc.lft.to/lastmile_qr_scan"}, "name": "f5c08804237603181e2671680bb26a02", "fusion_lat": 0.0, "lon": -76.965506, "is_disabled": 0, "is_reserved": 0, "fusion_lon": 0.0, "lat": 38.9184545, "type": "electric_scooter", "bike_id": "f5c08804237603181e2671680bb26a02"}, {"rental_uris": {"android": "https://dc.lft.to/lastmile_qr_scan", "ios": "https://dc.lft.to/lastmile_qr_scan"}, "name": "4ef4cde77d7e994d1920cf25eef97ed3", "fusion_lat": 0.0, "lon": -77.00051616666667, "is_disabled": 0, "is_reserved": 0, "fusion_lon": 0.0, "lat": 38.87634283333333, "type": "electric_scooter", "bike_id": "4ef4cde77d7e994d1920cf25eef97ed3"}, {"rental_uris": {"android": "https://dc.lft.to/lastmile_qr_scan", "ios": "https://dc.lft.to/lastmile_qr_scan"}, "name": "1a0f888c70adf627c7564a7709734bf3", "fusion_lat": 0.0, "lon": -76.97421416666667, "is_disabled": 0, "is_reserved": 0, "fusion_lon": 0.0, "lat": 38.86410333333333, "type": "electric_scooter", "bike_id": "1a0f888c70adf627c7564a7709734bf3"}, {"rental_uris": {"android": "https://dc.lft.to/lastmile_qr_scan", "ios": "https://dc.lft.to/lastmile_qr_scan"}, "name": "b0904097352dbe97def3eee0c69728ef", "fusion_lat": 0.0, "lon": -77.0317315, "is_disabled": 0, "is_reserved": 0, "fusion_lon": 0.0, "lat": 38.92912916666667, "type": "electric_scooter", "bike_id": "b0904097352dbe97def3eee0c69728ef"}, {"rental_uris": {"android": "https://dc.lft.to/lastmile_qr_scan", "ios": "https://dc.lft.to/lastmile_qr_scan"}, "name": "7aa223e9716789112e63e52bb5b391d7", "fusion_lat": 0.0, "lon": -77.03812733333334, "is_disabled": 0, "is_reserved": 0, "fusion_lon": 0.0, "lat": 38.9068285, "type": "electric_scooter", "bike_id": "7aa223e9716789112e63e52bb5b391d7"}, {"rental_uris": {"android": "https://dc.lft.to/lastmile_qr_scan", "ios": "https://dc.lft.to/lastmile_qr_scan"}, "name": "1311d9e0381b831d829c6ecb6b40d80e", "fusion_lat": 0.0, "lon": -77.02051133333333, "is_disabled": 0, "is_reserved": 0, "fusion_lon": 0.0, "lat": 38.94125066666667, "type": "electric_scooter", "bike_id": "1311d9e0381b831d829c6ecb6b40d80e"}, {"rental_uris": {"android": "https://dc.lft.to/lastmile_qr_scan", "ios": "https://dc.lft.to/lastmile_qr_scan"}, "name": "2d3f25f9d3bdc03c262b636698a4cb67", "fusion_lat": 0.0, "lon": -77.04407383333333, "is_disabled": 0, "is_reserved": 0, "fusion_lon": 0.0, "lat": 38.929533166666666, "type": "electric_scooter", "bike_id": "2d3f25f9d3bdc03c262b636698a4cb67"}, {"rental_uris": {"android": "https://dc.lft.to/lastmile_qr_scan", "ios": "https://dc.lft.to/lastmile_qr_scan"}, "name": "ff3d074f36b21d4a2ae79a446ff1d9cd", "fusion_lat": 0.0, "lon": -77.0328875, "is_disabled": 0, "is_reserved": 0, "fusion_lon": 0.0, "lat": 38.93445916666667, "type": "electric_scooter", "bike_id": "ff3d074f36b21d4a2ae79a446ff1d9cd"}, {"rental_uris": {"android": "https://dc.lft.to/lastmile_qr_scan", "ios": "https://dc.lft.to/lastmile_qr_scan"}, "name": "943d90b4d23ddd31c09df244a3638039", "fusion_lat": 0.0, "lon": -77.04682366666667, "is_disabled": 0, "is_reserved": 0, "fusion_lon": 0.0, "lat": 38.9008375, "type": "electric_scooter", "bike_id": "943d90b4d23ddd31c09df244a3638039"}, {"rental_uris": {"android": "https://dc.lft.to/lastmile_qr_scan", "ios": "https://dc.lft.to/lastmile_qr_scan"}, "name": "7cede7a0cca399b304040cf6e21f9c0a", "fusion_lat": 0.0, "lon": -77.02906833333333, "is_disabled": 0, "is_reserved": 0, "fusion_lon": 0.0, "lat": 38.90333533333333, "type": "electric_scooter", "bike_id": "7cede7a0cca399b304040cf6e21f9c0a"}, {"rental_uris": {"android": "https://dc.lft.to/lastmile_qr_scan", "ios": "https://dc.lft.to/lastmile_qr_scan"}, "name": "5043adafa976269749299e640bd545c2", "fusion_lat": 0.0, "lon": -76.90977416666666, "is_disabled": 0, "is_reserved": 0, "fusion_lon": 0.0, "lat": 38.854319833333335, "type": "electric_bike", "bike_id": "5043adafa976269749299e640bd545c2"}, {"rental_uris": {"android": "https://dc.lft.to/lastmile_qr_scan", "ios": "https://dc.lft.to/lastmile_qr_scan"}, "name": "fbf3b4cb72562bda4729528cd1dd7821", "fusion_lat": 0.0, "lon": -76.937596, "is_disabled": 0, "is_reserved": 0, "fusion_lon": 0.0, "lat": 38.890406666666664, "type": "electric_scooter", "bike_id": "fbf3b4cb72562bda4729528cd1dd7821"}, {"rental_uris": {"android": "https://dc.lft.to/lastmile_qr_scan", "ios": "https://dc.lft.to/lastmile_qr_scan"}, "name": "33d5a5908c16409ea539b22adc585bc4", "fusion_lat": 0.0, "lon": -77.016118, "is_disabled": 0, "is_reserved": 0, "fusion_lon": 0.0, "lat": 38.89972, "type": "electric_scooter", "bike_id": "33d5a5908c16409ea539b22adc585bc4"}, {"rental_uris": {"android": "https://dc.lft.to/lastmile_qr_scan", "ios": "https://dc.lft.to/lastmile_qr_scan"}, "name": "c84ae6e0147c829800d5e131d424fe09", "fusion_lat": 0.0, "lon": -77.00924666666667, "is_disabled": 0, "is_reserved": 0, "fusion_lon": 0.0, "lat": 38.89644416666667, "type": "electric_scooter", "bike_id": "c84ae6e0147c829800d5e131d424fe09"}, {"rental_uris": {"android": "https://dc.lft.to/lastmile_qr_scan", "ios": "https://dc.lft.to/lastmile_qr_scan"}, "name": "067df4dc7dca702f56caea0a38472580", "fusion_lat": 0.0, "lon": -77.003415, "is_disabled": 0, "is_reserved": 0, "fusion_lon": 0.0, "lat": 38.92264866666667, "type": "electric_scooter", "bike_id": "067df4dc7dca702f56caea0a38472580"}, {"rental_uris": {"android": "https://dc.lft.to/lastmile_qr_scan", "ios": "https://dc.lft.to/lastmile_qr_scan"}, "name": "d7a0b28e832e768c16ea74c30bee41af", "fusion_lat": 0.0, "lon": -77.06568916666667, "is_disabled": 0, "is_reserved": 0, "fusion_lon": 0.0, "lat": 38.90515716666667, "type": "electric_scooter", "bike_id": "d7a0b28e832e768c16ea74c30bee41af"}, {"rental_uris": {"android": "https://dc.lft.to/lastmile_qr_scan", "ios": "https://dc.lft.to/lastmile_qr_scan"}, "name": "bfb3a3865766d5488f4350d7e535f1e9", "fusion_lat": 0.0, "lon": -77.05839033333334, "is_disabled": 0, "is_reserved": 0, "fusion_lon": 0.0, "lat": 38.905326, "type": "electric_scooter", "bike_id": "bfb3a3865766d5488f4350d7e535f1e9"}, {"rental_uris": {"android": "https://dc.lft.to/lastmile_qr_scan", "ios": "https://dc.lft.to/lastmile_qr_scan"}, "name": "e5647ea41cc58e8daa5b2f8775950a99", "fusion_lat": 0.0, "lon": -77.0439005, "is_disabled": 0, "is_reserved": 0, "fusion_lon": 0.0, "lat": 38.9236215, "type": "electric_scooter", "bike_id": "e5647ea41cc58e8daa5b2f8775950a99"}, {"rental_uris": {"android": "https://dc.lft.to/lastmile_qr_scan", "ios": "https://dc.lft.to/lastmile_qr_scan"}, "name": "a749ca7854d59c81e72a14498958324a", "fusion_lat": 0.0, "lon": -77.04324233333334, "is_disabled": 0, "is_reserved": 0, "fusion_lon": 0.0, "lat": 38.907148666666664, "type": "electric_scooter", "bike_id": "a749ca7854d59c81e72a14498958324a"}, {"rental_uris": {"android": "https://dc.lft.to/lastmile_qr_scan", "ios": "https://dc.lft.to/lastmile_qr_scan"}, "name": "b43edf41716569f9cd8a883ca3b3916b", "fusion_lat": 0.0, "lon": -77.034758, "is_disabled": 0, "is_reserved": 0, "fusion_lon": 0.0, "lat": 38.93102616666667, "type": "electric_scooter", "bike_id": "b43edf41716569f9cd8a883ca3b3916b"}, {"rental_uris": {"android": "https://dc.lft.to/lastmile_qr_scan", "ios": "https://dc.lft.to/lastmile_qr_scan"}, "name": "b52ed6c825cb3d2492537faf8281c9da", "fusion_lat": 0.0, "lon": -77.03219816666666, "is_disabled": 0, "is_reserved": 0, "fusion_lon": 0.0, "lat": 38.887374666666666, "type": "electric_scooter", "bike_id": "b52ed6c825cb3d2492537faf8281c9da"}, {"rental_uris": {"android": "https://dc.lft.to/lastmile_qr_scan", "ios": "https://dc.lft.to/lastmile_qr_scan"}, "name": "4353a8e4aeb89ad515b4391311484f4d", "fusion_lat": 0.0, "lon": -77.03210766666666, "is_disabled": 0, "is_reserved": 0, "fusion_lon": 0.0, "lat": 38.97653716666667, "type": "electric_bike", "bike_id": "4353a8e4aeb89ad515b4391311484f4d"}, {"rental_uris": {"android": "https://dc.lft.to/lastmile_qr_scan", "ios": "https://dc.lft.to/lastmile_qr_scan"}, "name": "1c96bab29333174b3c2e435f033ab6ea", "fusion_lat": 0.0, "lon": -77.06783866666666, "is_disabled": 0, "is_reserved": 0, "fusion_lon": 0.0, "lat": 38.9052055, "type": "electric_scooter", "bike_id": "1c96bab29333174b3c2e435f033ab6ea"}, {"rental_uris": {"android": "https://dc.lft.to/lastmile_qr_scan", "ios": "https://dc.lft.to/lastmile_qr_scan"}, "name": "987bf6a8de39d7162f4c6de766fd13a4", "fusion_lat": 0.0, "lon": -77.04169166666667, "is_disabled": 0, "is_reserved": 0, "fusion_lon": 0.0, "lat": 38.91343083333334, "type": "electric_scooter", "bike_id": "987bf6a8de39d7162f4c6de766fd13a4"}, {"rental_uris": {"android": "https://dc.lft.to/lastmile_qr_scan", "ios": "https://dc.lft.to/lastmile_qr_scan"}, "name": "1754fc582802afb8a32da0f1b0d7504d", "fusion_lat": 0.0, "lon": -77.03841683333333, "is_disabled": 0, "is_reserved": 0, "fusion_lon": 0.0, "lat": 38.902792, "type": "electric_scooter", "bike_id": "1754fc582802afb8a32da0f1b0d7504d"}, {"rental_uris": {"android": "https://dc.lft.to/lastmile_qr_scan", "ios": "https://dc.lft.to/lastmile_qr_scan"}, "name": "06a499c0a86fd398a0cdb4898c13571d", "fusion_lat": 0.0, "lon": -77.02279, "is_disabled": 0, "is_reserved": 0, "fusion_lon": 0.0, "lat": 38.9164835, "type": "electric_scooter", "bike_id": "06a499c0a86fd398a0cdb4898c13571d"}, {"rental_uris": {"android": "https://dc.lft.to/lastmile_qr_scan", "ios": "https://dc.lft.to/lastmile_qr_scan"}, "name": "bf6283ab54cf56ef613b779a074faca8", "fusion_lat": 0.0, "lon": -77.002897, "is_disabled": 0, "is_reserved": 0, "fusion_lon": 0.0, "lat": 38.893616333333334, "type": "electric_scooter", "bike_id": "bf6283ab54cf56ef613b779a074faca8"}, {"rental_uris": {"android": "https://dc.lft.to/lastmile_qr_scan", "ios": "https://dc.lft.to/lastmile_qr_scan"}, "name": "5771991fcaf35fb58343c868cc067c67", "fusion_lat": 0.0, "lon": -77.0294955, "is_disabled": 0, "is_reserved": 0, "fusion_lon": 0.0, "lat": 38.904032, "type": "electric_scooter", "bike_id": "5771991fcaf35fb58343c868cc067c67"}, {"rental_uris": {"android": "https://dc.lft.to/lastmile_qr_scan", "ios": "https://dc.lft.to/lastmile_qr_scan"}, "name": "d9b5c0e656da6290c3d022be8ac454f2", "fusion_lat": 0.0, "lon": -77.01949733333333, "is_disabled": 0, "is_reserved": 0, "fusion_lon": 0.0, "lat": 38.92254766666667, "type": "electric_scooter", "bike_id": "d9b5c0e656da6290c3d022be8ac454f2"}, {"rental_uris": {"android": "https://dc.lft.to/lastmile_qr_scan", "ios": "https://dc.lft.to/lastmile_qr_scan"}, "name": "4ba7c598368e2cd88e957ee0ee784114", "fusion_lat": 0.0, "lon": -77.02969033333333, "is_disabled": 0, "is_reserved": 0, "fusion_lon": 0.0, "lat": 38.898245, "type": "electric_scooter", "bike_id": "4ba7c598368e2cd88e957ee0ee784114"}, {"rental_uris": {"android": "https://dc.lft.to/lastmile_qr_scan", "ios": "https://dc.lft.to/lastmile_qr_scan"}, "name": "a3a6be3cf49a176b54efa581e7bc8929", "fusion_lat": 0.0, "lon": -77.06295916666667, "is_disabled": 0, "is_reserved": 0, "fusion_lon": 0.0, "lat": 38.906163, "type": "electric_scooter", "bike_id": "a3a6be3cf49a176b54efa581e7bc8929"}, {"rental_uris": {"android": "https://dc.lft.to/lastmile_qr_scan", "ios": "https://dc.lft.to/lastmile_qr_scan"}, "name": "7ebcc2e2ce16a35a7401474473055425", "fusion_lat": 0.0, "lon": -77.04344983333333, "is_disabled": 0, "is_reserved": 0, "fusion_lon": 0.0, "lat": 38.903757166666665, "type": "electric_scooter", "bike_id": "7ebcc2e2ce16a35a7401474473055425"}, {"rental_uris": {"android": "https://dc.lft.to/lastmile_qr_scan", "ios": "https://dc.lft.to/lastmile_qr_scan"}, "name": "d2724545e80c1898cac6eb47940b65bf", "fusion_lat": 0.0, "lon": -77.04074183333333, "is_disabled": 0, "is_reserved": 0, "fusion_lon": 0.0, "lat": 38.898428333333335, "type": "electric_scooter", "bike_id": "d2724545e80c1898cac6eb47940b65bf"}, {"rental_uris": {"android": "https://dc.lft.to/lastmile_qr_scan", "ios": "https://dc.lft.to/lastmile_qr_scan"}, "name": "145f4b07a192f1eb3dfc9ab12134b8c2", "fusion_lat": 0.0, "lon": -77.05437866666666, "is_disabled": 0, "is_reserved": 0, "fusion_lon": 0.0, "lat": 38.896048, "type": "electric_scooter", "bike_id": "145f4b07a192f1eb3dfc9ab12134b8c2"}, {"rental_uris": {"android": "https://dc.lft.to/lastmile_qr_scan", "ios": "https://dc.lft.to/lastmile_qr_scan"}, "name": "272da0bdd8764014e27217c9a4d42bdb", "fusion_lat": 0.0, "lon": -76.99586966666666, "is_disabled": 0, "is_reserved": 0, "fusion_lon": 0.0, "lat": 38.90013166666667, "type": "electric_scooter", "bike_id": "272da0bdd8764014e27217c9a4d42bdb"}, {"rental_uris": {"android": "https://dc.lft.to/lastmile_qr_scan", "ios": "https://dc.lft.to/lastmile_qr_scan"}, "name": "974324ae64b8b5422fe956453c9040e8", "fusion_lat": 0.0, "lon": -76.94826916666666, "is_disabled": 0, "is_reserved": 0, "fusion_lon": 0.0, "lat": 38.8851595, "type": "electric_scooter", "bike_id": "974324ae64b8b5422fe956453c9040e8"}, {"rental_uris": {"android": "https://dc.lft.to/lastmile_qr_scan", "ios": "https://dc.lft.to/lastmile_qr_scan"}, "name": "d1f5b875e5932127bf3fa131d261a39c", "fusion_lat": 0.0, "lon": -77.0230305, "is_disabled": 0, "is_reserved": 0, "fusion_lon": 0.0, "lat": 38.91603533333333, "type": "electric_scooter", "bike_id": "d1f5b875e5932127bf3fa131d261a39c"}, {"rental_uris": {"android": "https://dc.lft.to/lastmile_qr_scan", "ios": "https://dc.lft.to/lastmile_qr_scan"}, "name": "ea58d719eeffbffb69f3e89933db30c4", "fusion_lat": 0.0, "lon": -76.96785, "is_disabled": 0, "is_reserved": 0, "fusion_lon": 0.0, "lat": 38.87338, "type": "electric_scooter", "bike_id": "ea58d719eeffbffb69f3e89933db30c4"}, {"rental_uris": {"android": "https://dc.lft.to/lastmile_qr_scan", "ios": "https://dc.lft.to/lastmile_qr_scan"}, "name": "6f3a43ff0bf9386c11ef1cf1cdc16a8d", "fusion_lat": 0.0, "lon": -77.02202283333334, "is_disabled": 0, "is_reserved": 0, "fusion_lon": 0.0, "lat": 38.91532483333334, "type": "electric_scooter", "bike_id": "6f3a43ff0bf9386c11ef1cf1cdc16a8d"}, {"rental_uris": {"android": "https://dc.lft.to/lastmile_qr_scan", "ios": "https://dc.lft.to/lastmile_qr_scan"}, "name": "d3d95a87f3124abb1fb7dbb89a374695", "fusion_lat": 0.0, "lon": -77.03989666666666, "is_disabled": 0, "is_reserved": 0, "fusion_lon": 0.0, "lat": 38.90372716666667, "type": "electric_scooter", "bike_id": "d3d95a87f3124abb1fb7dbb89a374695"}, {"rental_uris": {"android": "https://dc.lft.to/lastmile_qr_scan", "ios": "https://dc.lft.to/lastmile_qr_scan"}, "name": "dae96033697a87ff5e8361e435f829a0", "fusion_lat": 0.0, "lon": -77.00142883333334, "is_disabled": 0, "is_reserved": 0, "fusion_lon": 0.0, "lat": 38.905171333333335, "type": "electric_scooter", "bike_id": "dae96033697a87ff5e8361e435f829a0"}, {"rental_uris": {"android": "https://dc.lft.to/lastmile_qr_scan", "ios": "https://dc.lft.to/lastmile_qr_scan"}, "name": "758992f4b42e084400a226aaebaf8bb9", "fusion_lat": 0.0, "lon": -76.99612766666667, "is_disabled": 0, "is_reserved": 0, "fusion_lon": 0.0, "lat": 38.8849335, "type": "electric_scooter", "bike_id": "758992f4b42e084400a226aaebaf8bb9"}, {"rental_uris": {"android": "https://dc.lft.to/lastmile_qr_scan", "ios": "https://dc.lft.to/lastmile_qr_scan"}, "name": "b06fd6152f55ce07696e930cca05b857", "fusion_lat": 0.0, "lon": -77.04362216666667, "is_disabled": 0, "is_reserved": 0, "fusion_lon": 0.0, "lat": 38.892365, "type": "electric_scooter", "bike_id": "b06fd6152f55ce07696e930cca05b857"}, {"rental_uris": {"android": "https://dc.lft.to/lastmile_qr_scan", "ios": "https://dc.lft.to/lastmile_qr_scan"}, "name": "051be53cded4f84fd0caf3275f9c2780", "fusion_lat": 0.0, "lon": -77.01712733333333, "is_disabled": 0, "is_reserved": 0, "fusion_lon": 0.0, "lat": 38.9051875, "type": "electric_scooter", "bike_id": "051be53cded4f84fd0caf3275f9c2780"}, {"rental_uris": {"android": "https://dc.lft.to/lastmile_qr_scan", "ios": "https://dc.lft.to/lastmile_qr_scan"}, "name": "f7dcdc235b62b3946a5ea815bdea26ab", "fusion_lat": 0.0, "lon": -76.98491366666667, "is_disabled": 0, "is_reserved": 0, "fusion_lon": 0.0, "lat": 38.88974866666667, "type": "electric_scooter", "bike_id": "f7dcdc235b62b3946a5ea815bdea26ab"}, {"rental_uris": {"android": "https://dc.lft.to/lastmile_qr_scan", "ios": "https://dc.lft.to/lastmile_qr_scan"}, "name": "d219a1090930d15a2b46ac66688fa6c0", "fusion_lat": 0.0, "lon": -77.0054555, "is_disabled": 0, "is_reserved": 0, "fusion_lon": 0.0, "lat": 38.8745915, "type": "electric_scooter", "bike_id": "d219a1090930d15a2b46ac66688fa6c0"}, {"rental_uris": {"android": "https://dc.lft.to/lastmile_qr_scan", "ios": "https://dc.lft.to/lastmile_qr_scan"}, "name": "8fe01fefb20f7729ff7647850934f9a5", "fusion_lat": 0.0, "lon": -77.02262433333334, "is_disabled": 0, "is_reserved": 0, "fusion_lon": 0.0, "lat": 38.947128, "type": "electric_scooter", "bike_id": "8fe01fefb20f7729ff7647850934f9a5"}, {"rental_uris": {"android": "https://dc.lft.to/lastmile_qr_scan", "ios": "https://dc.lft.to/lastmile_qr_scan"}, "name": "f70997e59426bf05cbfb18750da7cf2b", "fusion_lat": 0.0, "lon": -77.03296033333334, "is_disabled": 0, "is_reserved": 0, "fusion_lon": 0.0, "lat": 38.956572333333334, "type": "electric_scooter", "bike_id": "f70997e59426bf05cbfb18750da7cf2b"}, {"rental_uris": {"android": "https://dc.lft.to/lastmile_qr_scan", "ios": "https://dc.lft.to/lastmile_qr_scan"}, "name": "6ac2f09b98c386879483208abea3a74a", "fusion_lat": 0.0, "lon": -77.06566, "is_disabled": 0, "is_reserved": 0, "fusion_lon": 0.0, "lat": 38.94759066666667, "type": "electric_scooter", "bike_id": "6ac2f09b98c386879483208abea3a74a"}, {"rental_uris": {"android": "https://dc.lft.to/lastmile_qr_scan", "ios": "https://dc.lft.to/lastmile_qr_scan"}, "name": "0d033206e4f0bace40609ec6f3185948", "fusion_lat": 0.0, "lon": -77.03212833333333, "is_disabled": 0, "is_reserved": 0, "fusion_lon": 0.0, "lat": 38.918419166666666, "type": "electric_scooter", "bike_id": "0d033206e4f0bace40609ec6f3185948"}, {"rental_uris": {"android": "https://dc.lft.to/lastmile_qr_scan", "ios": "https://dc.lft.to/lastmile_qr_scan"}, "name": "ee43630749a89addc772b63e61e22381", "fusion_lat": 0.0, "lon": -77.0346405, "is_disabled": 0, "is_reserved": 0, "fusion_lon": 0.0, "lat": 38.903210666666666, "type": "electric_scooter", "bike_id": "ee43630749a89addc772b63e61e22381"}, {"rental_uris": {"android": "https://dc.lft.to/lastmile_qr_scan", "ios": "https://dc.lft.to/lastmile_qr_scan"}, "name": "5454442a50762819cfd2515b419b66c5", "fusion_lat": 0.0, "lon": -76.99576533333334, "is_disabled": 0, "is_reserved": 0, "fusion_lon": 0.0, "lat": 38.920286, "type": "electric_scooter", "bike_id": "5454442a50762819cfd2515b419b66c5"}, {"rental_uris": {"android": "https://dc.lft.to/lastmile_qr_scan", "ios": "https://dc.lft.to/lastmile_qr_scan"}, "name": "09e9c3f782167d4a3edc7b30be4dd808", "fusion_lat": 0.0, "lon": -77.0497725, "is_disabled": 0, "is_reserved": 0, "fusion_lon": 0.0, "lat": 38.89670433333333, "type": "electric_scooter", "bike_id": "09e9c3f782167d4a3edc7b30be4dd808"}, {"rental_uris": {"android": "https://dc.lft.to/lastmile_qr_scan", "ios": "https://dc.lft.to/lastmile_qr_scan"}, "name": "3cb8af1d454751556d7af74b048e4972", "fusion_lat": 0.0, "lon": -77.02516566666667, "is_disabled": 0, "is_reserved": 0, "fusion_lon": 0.0, "lat": 38.90166983333334, "type": "electric_scooter", "bike_id": "3cb8af1d454751556d7af74b048e4972"}, {"rental_uris": {"android": "https://dc.lft.to/lastmile_qr_scan", "ios": "https://dc.lft.to/lastmile_qr_scan"}, "name": "2e623d40ffecbdf7ba62b66541ffb1df", "fusion_lat": 0.0, "lon": -76.990001, "is_disabled": 0, "is_reserved": 0, "fusion_lon": 0.0, "lat": 38.86442866666667, "type": "electric_scooter", "bike_id": "2e623d40ffecbdf7ba62b66541ffb1df"}, {"rental_uris": {"android": "https://dc.lft.to/lastmile_qr_scan", "ios": "https://dc.lft.to/lastmile_qr_scan"}, "name": "50d93d54fbc12a83480052f39dd39113", "fusion_lat": 0.0, "lon": -77.04156383333333, "is_disabled": 0, "is_reserved": 0, "fusion_lon": 0.0, "lat": 38.91750116666667, "type": "electric_scooter", "bike_id": "50d93d54fbc12a83480052f39dd39113"}, {"rental_uris": {"android": "https://dc.lft.to/lastmile_qr_scan", "ios": "https://dc.lft.to/lastmile_qr_scan"}, "name": "47fd86369bdb489672c0103432f449a4", "fusion_lat": 0.0, "lon": -76.94632366666667, "is_disabled": 0, "is_reserved": 0, "fusion_lon": 0.0, "lat": 38.89844033333333, "type": "electric_scooter", "bike_id": "47fd86369bdb489672c0103432f449a4"}, {"rental_uris": {"android": "https://dc.lft.to/lastmile_qr_scan", "ios": "https://dc.lft.to/lastmile_qr_scan"}, "name": "2fb8c6459a86aef6f5c344589c8aabe2", "fusion_lat": 0.0, "lon": -77.03224116666667, "is_disabled": 0, "is_reserved": 0, "fusion_lon": 0.0, "lat": 38.92214933333333, "type": "electric_scooter", "bike_id": "2fb8c6459a86aef6f5c344589c8aabe2"}, {"rental_uris": {"android": "https://dc.lft.to/lastmile_qr_scan", "ios": "https://dc.lft.to/lastmile_qr_scan"}, "name": "a424999b53afa25d8eb105dd3d488ead", "fusion_lat": 0.0, "lon": -77.03215183333333, "is_disabled": 0, "is_reserved": 0, "fusion_lon": 0.0, "lat": 38.89223033333333, "type": "electric_scooter", "bike_id": "a424999b53afa25d8eb105dd3d488ead"}, {"rental_uris": {"android": "https://dc.lft.to/lastmile_qr_scan", "ios": "https://dc.lft.to/lastmile_qr_scan"}, "name": "90e4bb6edaedbe5515907caf5ee86f1d", "fusion_lat": 0.0, "lon": -77.00232033333333, "is_disabled": 0, "is_reserved": 0, "fusion_lon": 0.0, "lat": 38.874977666666666, "type": "electric_scooter", "bike_id": "90e4bb6edaedbe5515907caf5ee86f1d"}, {"rental_uris": {"android": "https://dc.lft.to/lastmile_qr_scan", "ios": "https://dc.lft.to/lastmile_qr_scan"}, "name": "fb87386b4ca4352bc014dab8eb0eca89", "fusion_lat": 0.0, "lon": -77.02165283333333, "is_disabled": 0, "is_reserved": 0, "fusion_lon": 0.0, "lat": 38.885107166666664, "type": "electric_scooter", "bike_id": "fb87386b4ca4352bc014dab8eb0eca89"}, {"rental_uris": {"android": "https://dc.lft.to/lastmile_qr_scan", "ios": "https://dc.lft.to/lastmile_qr_scan"}, "name": "53368b52a23ac3bfcaa313a3a2f14462", "fusion_lat": 0.0, "lon": -77.04171583333333, "is_disabled": 0, "is_reserved": 0, "fusion_lon": 0.0, "lat": 38.9134955, "type": "electric_scooter", "bike_id": "53368b52a23ac3bfcaa313a3a2f14462"}, {"rental_uris": {"android": "https://dc.lft.to/lastmile_qr_scan", "ios": "https://dc.lft.to/lastmile_qr_scan"}, "name": "d78974e6677e63ea288e331a2d4614d6", "fusion_lat": 0.0, "lon": -77.02980233333334, "is_disabled": 0, "is_reserved": 0, "fusion_lon": 0.0, "lat": 38.92458466666667, "type": "electric_scooter", "bike_id": "d78974e6677e63ea288e331a2d4614d6"}, {"rental_uris": {"android": "https://dc.lft.to/lastmile_qr_scan", "ios": "https://dc.lft.to/lastmile_qr_scan"}, "name": "2642b4290cee7642bbd26f5198029fb6", "fusion_lat": 0.0, "lon": -77.03755716666667, "is_disabled": 0, "is_reserved": 0, "fusion_lon": 0.0, "lat": 38.902510666666664, "type": "electric_scooter", "bike_id": "2642b4290cee7642bbd26f5198029fb6"}, {"rental_uris": {"android": "https://dc.lft.to/lastmile_qr_scan", "ios": "https://dc.lft.to/lastmile_qr_scan"}, "name": "e858eb6e25efa0f75f775ac1b35167cb", "fusion_lat": 0.0, "lon": -77.01896083333334, "is_disabled": 0, "is_reserved": 0, "fusion_lon": 0.0, "lat": 38.93915533333333, "type": "electric_scooter", "bike_id": "e858eb6e25efa0f75f775ac1b35167cb"}, {"rental_uris": {"android": "https://dc.lft.to/lastmile_qr_scan", "ios": "https://dc.lft.to/lastmile_qr_scan"}, "name": "b6cd21c61aacc744f36d89701eeb6db1", "fusion_lat": 0.0, "lon": -77.02943416666666, "is_disabled": 0, "is_reserved": 0, "fusion_lon": 0.0, "lat": 38.89801516666667, "type": "electric_scooter", "bike_id": "b6cd21c61aacc744f36d89701eeb6db1"}, {"rental_uris": {"android": "https://dc.lft.to/lastmile_qr_scan", "ios": "https://dc.lft.to/lastmile_qr_scan"}, "name": "aa42913652c2b728daf9f125ecdd161b", "fusion_lat": 0.0, "lon": -77.0453315, "is_disabled": 0, "is_reserved": 0, "fusion_lon": 0.0, "lat": 38.903844666666664, "type": "electric_scooter", "bike_id": "aa42913652c2b728daf9f125ecdd161b"}, {"rental_uris": {"android": "https://dc.lft.to/lastmile_qr_scan", "ios": "https://dc.lft.to/lastmile_qr_scan"}, "name": "6a2eecb17620a7961ed44aa100137511", "fusion_lat": 0.0, "lon": -77.03653533333333, "is_disabled": 0, "is_reserved": 0, "fusion_lon": 0.0, "lat": 38.9025875, "type": "electric_scooter", "bike_id": "6a2eecb17620a7961ed44aa100137511"}, {"rental_uris": {"android": "https://dc.lft.to/lastmile_qr_scan", "ios": "https://dc.lft.to/lastmile_qr_scan"}, "name": "c439637071bfe5dd85525d6a32e4957a", "fusion_lat": 0.0, "lon": -76.94792933333333, "is_disabled": 0, "is_reserved": 0, "fusion_lon": 0.0, "lat": 38.896514833333335, "type": "electric_bike", "bike_id": "c439637071bfe5dd85525d6a32e4957a"}, {"rental_uris": {"android": "https://dc.lft.to/lastmile_qr_scan", "ios": "https://dc.lft.to/lastmile_qr_scan"}, "name": "896e59e779e370cde13e8f73cada8952", "fusion_lat": 0.0, "lon": -77.0274055, "is_disabled": 0, "is_reserved": 0, "fusion_lon": 0.0, "lat": 38.924060833333336, "type": "electric_scooter", "bike_id": "896e59e779e370cde13e8f73cada8952"}, {"rental_uris": {"android": "https://dc.lft.to/lastmile_qr_scan", "ios": "https://dc.lft.to/lastmile_qr_scan"}, "name": "26b43b1bbc04839996dde738e5064d78", "fusion_lat": 0.0, "lon": -76.9846185, "is_disabled": 0, "is_reserved": 0, "fusion_lon": 0.0, "lat": 38.8936515, "type": "electric_scooter", "bike_id": "26b43b1bbc04839996dde738e5064d78"}, {"rental_uris": {"android": "https://dc.lft.to/lastmile_qr_scan", "ios": "https://dc.lft.to/lastmile_qr_scan"}, "name": "44a83e1993b76a47ccdd1cdd0f55858b", "fusion_lat": 0.0, "lon": -76.990829, "is_disabled": 0, "is_reserved": 0, "fusion_lon": 0.0, "lat": 38.842905333333334, "type": "electric_scooter", "bike_id": "44a83e1993b76a47ccdd1cdd0f55858b"}, {"rental_uris": {"android": "https://dc.lft.to/lastmile_qr_scan", "ios": "https://dc.lft.to/lastmile_qr_scan"}, "name": "f061073134636f7b8352b73426941132", "fusion_lat": 0.0, "lon": -77.03341966666666, "is_disabled": 0, "is_reserved": 0, "fusion_lon": 0.0, "lat": 38.919218666666666, "type": "electric_scooter", "bike_id": "f061073134636f7b8352b73426941132"}, {"rental_uris": {"android": "https://dc.lft.to/lastmile_qr_scan", "ios": "https://dc.lft.to/lastmile_qr_scan"}, "name": "ef958eb166e583b10350ed25d8ca6f75", "fusion_lat": 0.0, "lon": -77.011316, "is_disabled": 0, "is_reserved": 0, "fusion_lon": 0.0, "lat": 38.87081416666667, "type": "electric_scooter", "bike_id": "ef958eb166e583b10350ed25d8ca6f75"}, {"rental_uris": {"android": "https://dc.lft.to/lastmile_qr_scan", "ios": "https://dc.lft.to/lastmile_qr_scan"}, "name": "8aa02b6c673e5db8169acb6e2420091c", "fusion_lat": 0.0, "lon": -77.004689, "is_disabled": 0, "is_reserved": 0, "fusion_lon": 0.0, "lat": 38.91189083333333, "type": "electric_scooter", "bike_id": "8aa02b6c673e5db8169acb6e2420091c"}, {"rental_uris": {"android": "https://dc.lft.to/lastmile_qr_scan", "ios": "https://dc.lft.to/lastmile_qr_scan"}, "name": "d7204a9248ff2cc6c3f0c51d9add7302", "fusion_lat": 0.0, "lon": -77.02035, "is_disabled": 0, "is_reserved": 0, "fusion_lon": 0.0, "lat": 38.89269383333333, "type": "electric_scooter", "bike_id": "d7204a9248ff2cc6c3f0c51d9add7302"}, {"rental_uris": {"android": "https://dc.lft.to/lastmile_qr_scan", "ios": "https://dc.lft.to/lastmile_qr_scan"}, "name": "54c1b4cac1e601ee65b3969e102ae6d4", "fusion_lat": 0.0, "lon": -77.0240775, "is_disabled": 0, "is_reserved": 0, "fusion_lon": 0.0, "lat": 38.907452166666666, "type": "electric_scooter", "bike_id": "54c1b4cac1e601ee65b3969e102ae6d4"}, {"rental_uris": {"android": "https://dc.lft.to/lastmile_qr_scan", "ios": "https://dc.lft.to/lastmile_qr_scan"}, "name": "756c37ad55e10f28382ad9a2b5d2ad24", "fusion_lat": 0.0, "lon": -77.0378635, "is_disabled": 0, "is_reserved": 0, "fusion_lon": 0.0, "lat": 38.933225166666666, "type": "electric_scooter", "bike_id": "756c37ad55e10f28382ad9a2b5d2ad24"}, {"rental_uris": {"android": "https://dc.lft.to/lastmile_qr_scan", "ios": "https://dc.lft.to/lastmile_qr_scan"}, "name": "386a41a352986115b148608499f3b100", "fusion_lat": 0.0, "lon": -77.02492333333333, "is_disabled": 0, "is_reserved": 0, "fusion_lon": 0.0, "lat": 38.9195725, "type": "electric_scooter", "bike_id": "386a41a352986115b148608499f3b100"}, {"rental_uris": {"android": "https://dc.lft.to/lastmile_qr_scan", "ios": "https://dc.lft.to/lastmile_qr_scan"}, "name": "d4a69ddd67bbcd01c8b6921597ca5c95", "fusion_lat": 0.0, "lon": -76.99031333333333, "is_disabled": 0, "is_reserved": 0, "fusion_lon": 0.0, "lat": 38.9287155, "type": "electric_scooter", "bike_id": "d4a69ddd67bbcd01c8b6921597ca5c95"}, {"rental_uris": {"android": "https://dc.lft.to/lastmile_qr_scan", "ios": "https://dc.lft.to/lastmile_qr_scan"}, "name": "c9f6e39b68d2c3af24a24d9a6f5622a2", "fusion_lat": 0.0, "lon": -77.04316683333333, "is_disabled": 0, "is_reserved": 0, "fusion_lon": 0.0, "lat": 38.90817633333333, "type": "electric_scooter", "bike_id": "c9f6e39b68d2c3af24a24d9a6f5622a2"}, {"rental_uris": {"android": "https://dc.lft.to/lastmile_qr_scan", "ios": "https://dc.lft.to/lastmile_qr_scan"}, "name": "2802cb835316082938353c9c28108745", "fusion_lat": 0.0, "lon": -77.00031616666666, "is_disabled": 0, "is_reserved": 0, "fusion_lon": 0.0, "lat": 38.87395933333333, "type": "electric_scooter", "bike_id": "2802cb835316082938353c9c28108745"}, {"rental_uris": {"android": "https://dc.lft.to/lastmile_qr_scan", "ios": "https://dc.lft.to/lastmile_qr_scan"}, "name": "7290d73ded4216f5f73bc99ec10c6187", "fusion_lat": 0.0, "lon": -76.98768366666667, "is_disabled": 0, "is_reserved": 0, "fusion_lon": 0.0, "lat": 38.8831075, "type": "electric_scooter", "bike_id": "7290d73ded4216f5f73bc99ec10c6187"}, {"rental_uris": {"android": "https://dc.lft.to/lastmile_qr_scan", "ios": "https://dc.lft.to/lastmile_qr_scan"}, "name": "67dd98571fb48d971f2aa79b980508d1", "fusion_lat": 0.0, "lon": -77.07098116666667, "is_disabled": 0, "is_reserved": 0, "fusion_lon": 0.0, "lat": 38.91965833333333, "type": "electric_scooter", "bike_id": "67dd98571fb48d971f2aa79b980508d1"}, {"rental_uris": {"android": "https://dc.lft.to/lastmile_qr_scan", "ios": "https://dc.lft.to/lastmile_qr_scan"}, "name": "18badd84c78748e2287062e734a6803e", "fusion_lat": 0.0, "lon": -77.02573966666667, "is_disabled": 0, "is_reserved": 0, "fusion_lon": 0.0, "lat": 38.925087, "type": "electric_scooter", "bike_id": "18badd84c78748e2287062e734a6803e"}, {"rental_uris": {"android": "https://dc.lft.to/lastmile_qr_scan", "ios": "https://dc.lft.to/lastmile_qr_scan"}, "name": "c44b5aa96b7a31a341477fd630697249", "fusion_lat": 0.0, "lon": -76.946168, "is_disabled": 0, "is_reserved": 0, "fusion_lon": 0.0, "lat": 38.83235116666667, "type": "electric_bike", "bike_id": "c44b5aa96b7a31a341477fd630697249"}, {"rental_uris": {"android": "https://dc.lft.to/lastmile_qr_scan", "ios": "https://dc.lft.to/lastmile_qr_scan"}, "name": "fa2a8cdb26542ef0b1ebd152202dd3b0", "fusion_lat": 0.0, "lon": -77.065274, "is_disabled": 0, "is_reserved": 0, "fusion_lon": 0.0, "lat": 38.905274666666664, "type": "electric_scooter", "bike_id": "fa2a8cdb26542ef0b1ebd152202dd3b0"}, {"rental_uris": {"android": "https://dc.lft.to/lastmile_qr_scan", "ios": "https://dc.lft.to/lastmile_qr_scan"}, "name": "0c07c178c991360558aca4db83cbb588", "fusion_lat": 0.0, "lon": -77.04676733333334, "is_disabled": 0, "is_reserved": 0, "fusion_lon": 0.0, "lat": 38.90722383333333, "type": "electric_scooter", "bike_id": "0c07c178c991360558aca4db83cbb588"}, {"rental_uris": {"android": "https://dc.lft.to/lastmile_qr_scan", "ios": "https://dc.lft.to/lastmile_qr_scan"}, "name": "bd8f8308f8fac8db9f3c17100a99347d", "fusion_lat": 0.0, "lon": -77.03225833333333, "is_disabled": 0, "is_reserved": 0, "fusion_lon": 0.0, "lat": 38.9192455, "type": "electric_scooter", "bike_id": "bd8f8308f8fac8db9f3c17100a99347d"}, {"rental_uris": {"android": "https://dc.lft.to/lastmile_qr_scan", "ios": "https://dc.lft.to/lastmile_qr_scan"}, "name": "04ccf6e67f42926852f9441dba69811a", "fusion_lat": 0.0, "lon": -77.00232266666667, "is_disabled": 0, "is_reserved": 0, "fusion_lon": 0.0, "lat": 38.873083333333334, "type": "electric_scooter", "bike_id": "04ccf6e67f42926852f9441dba69811a"}, {"rental_uris": {"android": "https://dc.lft.to/lastmile_qr_scan", "ios": "https://dc.lft.to/lastmile_qr_scan"}, "name": "dd559bbea6159cf1b33494a46ea6aa90", "fusion_lat": 0.0, "lon": -77.03836733333333, "is_disabled": 0, "is_reserved": 0, "fusion_lon": 0.0, "lat": 38.90402533333334, "type": "electric_scooter", "bike_id": "dd559bbea6159cf1b33494a46ea6aa90"}, {"rental_uris": {"android": "https://dc.lft.to/lastmile_qr_scan", "ios": "https://dc.lft.to/lastmile_qr_scan"}, "name": "e532fbe32e5e763d9bf36cdcac3b4621", "fusion_lat": 0.0, "lon": -77.021308, "is_disabled": 0, "is_reserved": 0, "fusion_lon": 0.0, "lat": 38.89946533333333, "type": "electric_scooter", "bike_id": "e532fbe32e5e763d9bf36cdcac3b4621"}, {"rental_uris": {"android": "https://dc.lft.to/lastmile_qr_scan", "ios": "https://dc.lft.to/lastmile_qr_scan"}, "name": "13baa9da518ef05b2bc17957f841395e", "fusion_lat": 0.0, "lon": -77.01325716666666, "is_disabled": 0, "is_reserved": 0, "fusion_lon": 0.0, "lat": 38.901403333333334, "type": "electric_scooter", "bike_id": "13baa9da518ef05b2bc17957f841395e"}, {"rental_uris": {"android": "https://dc.lft.to/lastmile_qr_scan", "ios": "https://dc.lft.to/lastmile_qr_scan"}, "name": "83d2daabab504d1d1d1065162b858cc0", "fusion_lat": 0.0, "lon": -77.03207716666667, "is_disabled": 0, "is_reserved": 0, "fusion_lon": 0.0, "lat": 38.893272333333336, "type": "electric_scooter", "bike_id": "83d2daabab504d1d1d1065162b858cc0"}, {"rental_uris": {"android": "https://dc.lft.to/lastmile_qr_scan", "ios": "https://dc.lft.to/lastmile_qr_scan"}, "name": "cd132853fd3be9691cae8f19ad5425ca", "fusion_lat": 0.0, "lon": -77.03960783333333, "is_disabled": 0, "is_reserved": 0, "fusion_lon": 0.0, "lat": 38.90431616666667, "type": "electric_scooter", "bike_id": "cd132853fd3be9691cae8f19ad5425ca"}, {"rental_uris": {"android": "https://dc.lft.to/lastmile_qr_scan", "ios": "https://dc.lft.to/lastmile_qr_scan"}, "name": "e20cd60a9a5ba8ad303f9fa266e61165", "fusion_lat": 0.0, "lon": -77.030052, "is_disabled": 0, "is_reserved": 0, "fusion_lon": 0.0, "lat": 38.89605866666667, "type": "electric_scooter", "bike_id": "e20cd60a9a5ba8ad303f9fa266e61165"}, {"rental_uris": {"android": "https://dc.lft.to/lastmile_qr_scan", "ios": "https://dc.lft.to/lastmile_qr_scan"}, "name": "4cfab72d0d59726a5c82340299b0ed46", "fusion_lat": 0.0, "lon": -77.0284695, "is_disabled": 0, "is_reserved": 0, "fusion_lon": 0.0, "lat": 38.92235983333333, "type": "electric_scooter", "bike_id": "4cfab72d0d59726a5c82340299b0ed46"}, {"rental_uris": {"android": "https://dc.lft.to/lastmile_qr_scan", "ios": "https://dc.lft.to/lastmile_qr_scan"}, "name": "ccfebb9132e071f3a0652403d450f96c", "fusion_lat": 0.0, "lon": -77.024295, "is_disabled": 0, "is_reserved": 0, "fusion_lon": 0.0, "lat": 38.927587333333335, "type": "electric_scooter", "bike_id": "ccfebb9132e071f3a0652403d450f96c"}, {"rental_uris": {"android": "https://dc.lft.to/lastmile_qr_scan", "ios": "https://dc.lft.to/lastmile_qr_scan"}, "name": "47c50a2e362c425ccd0c90719f4a393f", "fusion_lat": 0.0, "lon": -77.02423333333333, "is_disabled": 0, "is_reserved": 0, "fusion_lon": 0.0, "lat": 38.894421333333334, "type": "electric_scooter", "bike_id": "47c50a2e362c425ccd0c90719f4a393f"}, {"rental_uris": {"android": "https://dc.lft.to/lastmile_qr_scan", "ios": "https://dc.lft.to/lastmile_qr_scan"}, "name": "7bd5b413c91a360087a3f9ad2c310c9a", "fusion_lat": 0.0, "lon": -77.09208416666667, "is_disabled": 0, "is_reserved": 0, "fusion_lon": 0.0, "lat": 38.9170715, "type": "electric_scooter", "bike_id": "7bd5b413c91a360087a3f9ad2c310c9a"}, {"rental_uris": {"android": "https://dc.lft.to/lastmile_qr_scan", "ios": "https://dc.lft.to/lastmile_qr_scan"}, "name": "6541501a0e3046b7f6b6bd58b40fc287", "fusion_lat": 0.0, "lon": -77.0045015, "is_disabled": 0, "is_reserved": 0, "fusion_lon": 0.0, "lat": 38.92896016666667, "type": "electric_scooter", "bike_id": "6541501a0e3046b7f6b6bd58b40fc287"}, {"rental_uris": {"android": "https://dc.lft.to/lastmile_qr_scan", "ios": "https://dc.lft.to/lastmile_qr_scan"}, "name": "308fdc32bde51bd7dcc50767d8256d4e", "fusion_lat": 0.0, "lon": -76.994884, "is_disabled": 0, "is_reserved": 0, "fusion_lon": 0.0, "lat": 38.92579766666667, "type": "electric_scooter", "bike_id": "308fdc32bde51bd7dcc50767d8256d4e"}, {"rental_uris": {"android": "https://dc.lft.to/lastmile_qr_scan", "ios": "https://dc.lft.to/lastmile_qr_scan"}, "name": "c24375b6479096b92a9e2ecece8c335d", "fusion_lat": 0.0, "lon": -76.97553016666667, "is_disabled": 0, "is_reserved": 0, "fusion_lon": 0.0, "lat": 38.902577666666666, "type": "electric_scooter", "bike_id": "c24375b6479096b92a9e2ecece8c335d"}, {"rental_uris": {"android": "https://dc.lft.to/lastmile_qr_scan", "ios": "https://dc.lft.to/lastmile_qr_scan"}, "name": "fab30e0a34e309b3d130ecaaec85364d", "fusion_lat": 0.0, "lon": -77.0325675, "is_disabled": 0, "is_reserved": 0, "fusion_lon": 0.0, "lat": 38.93025133333333, "type": "electric_scooter", "bike_id": "fab30e0a34e309b3d130ecaaec85364d"}, {"rental_uris": {"android": "https://dc.lft.to/lastmile_qr_scan", "ios": "https://dc.lft.to/lastmile_qr_scan"}, "name": "514013b688a21461b9a036c137f08245", "fusion_lat": 0.0, "lon": -77.03947133333334, "is_disabled": 0, "is_reserved": 0, "fusion_lon": 0.0, "lat": 38.90256266666667, "type": "electric_scooter", "bike_id": "514013b688a21461b9a036c137f08245"}, {"rental_uris": {"android": "https://dc.lft.to/lastmile_qr_scan", "ios": "https://dc.lft.to/lastmile_qr_scan"}, "name": "e15feb5ade701720619d856490818b3c", "fusion_lat": 0.0, "lon": -77.03991833333333, "is_disabled": 0, "is_reserved": 0, "fusion_lon": 0.0, "lat": 38.802966833333336, "type": "electric_bike", "bike_id": "e15feb5ade701720619d856490818b3c"}, {"rental_uris": {"android": "https://dc.lft.to/lastmile_qr_scan", "ios": "https://dc.lft.to/lastmile_qr_scan"}, "name": "b55da31b8dbc370ebf47ffee89913f60", "fusion_lat": 0.0, "lon": -77.03184883333333, "is_disabled": 0, "is_reserved": 0, "fusion_lon": 0.0, "lat": 38.9042625, "type": "electric_scooter", "bike_id": "b55da31b8dbc370ebf47ffee89913f60"}, {"rental_uris": {"android": "https://dc.lft.to/lastmile_qr_scan", "ios": "https://dc.lft.to/lastmile_qr_scan"}, "name": "b358654f0dfd08a68b56f66970d345b4", "fusion_lat": 0.0, "lon": -76.9888625, "is_disabled": 0, "is_reserved": 0, "fusion_lon": 0.0, "lat": 38.90211016666667, "type": "electric_scooter", "bike_id": "b358654f0dfd08a68b56f66970d345b4"}, {"rental_uris": {"android": "https://dc.lft.to/lastmile_qr_scan", "ios": "https://dc.lft.to/lastmile_qr_scan"}, "name": "722e80af6a77646b8823950a3176ee07", "fusion_lat": 0.0, "lon": -77.05303633333334, "is_disabled": 0, "is_reserved": 0, "fusion_lon": 0.0, "lat": 38.92562066666667, "type": "electric_scooter", "bike_id": "722e80af6a77646b8823950a3176ee07"}, {"rental_uris": {"android": "https://dc.lft.to/lastmile_qr_scan", "ios": "https://dc.lft.to/lastmile_qr_scan"}, "name": "804d766e0b5b89639598ad1ae2d8f0d3", "fusion_lat": 0.0, "lon": -77.01560683333334, "is_disabled": 0, "is_reserved": 0, "fusion_lon": 0.0, "lat": 38.87256583333333, "type": "electric_scooter", "bike_id": "804d766e0b5b89639598ad1ae2d8f0d3"}, {"rental_uris": {"android": "https://dc.lft.to/lastmile_qr_scan", "ios": "https://dc.lft.to/lastmile_qr_scan"}, "name": "2a6f26001e61f26969155cc76483eddf", "fusion_lat": 0.0, "lon": -77.00611266666667, "is_disabled": 0, "is_reserved": 0, "fusion_lon": 0.0, "lat": 38.90261266666667, "type": "electric_scooter", "bike_id": "2a6f26001e61f26969155cc76483eddf"}, {"rental_uris": {"android": "https://dc.lft.to/lastmile_qr_scan", "ios": "https://dc.lft.to/lastmile_qr_scan"}, "name": "c925eb35464044d30fba54035ae7ce25", "fusion_lat": 0.0, "lon": -77.04372933333333, "is_disabled": 0, "is_reserved": 0, "fusion_lon": 0.0, "lat": 38.921088833333336, "type": "electric_scooter", "bike_id": "c925eb35464044d30fba54035ae7ce25"}, {"rental_uris": {"android": "https://dc.lft.to/lastmile_qr_scan", "ios": "https://dc.lft.to/lastmile_qr_scan"}, "name": "d28c3ecdc691494a3292dcee782b3677", "fusion_lat": 0.0, "lon": -76.989307, "is_disabled": 0, "is_reserved": 0, "fusion_lon": 0.0, "lat": 38.865997166666666, "type": "electric_scooter", "bike_id": "d28c3ecdc691494a3292dcee782b3677"}, {"rental_uris": {"android": "https://dc.lft.to/lastmile_qr_scan", "ios": "https://dc.lft.to/lastmile_qr_scan"}, "name": "b4dd944d077953be2aaf57c94d559176", "fusion_lat": 0.0, "lon": -77.03914416666667, "is_disabled": 0, "is_reserved": 0, "fusion_lon": 0.0, "lat": 38.91270383333333, "type": "electric_scooter", "bike_id": "b4dd944d077953be2aaf57c94d559176"}, {"rental_uris": {"android": "https://dc.lft.to/lastmile_qr_scan", "ios": "https://dc.lft.to/lastmile_qr_scan"}, "name": "841e0bbea156b7856d7843b95ef6b2b5", "fusion_lat": 0.0, "lon": -77.0404765, "is_disabled": 0, "is_reserved": 0, "fusion_lon": 0.0, "lat": 38.9242795, "type": "electric_scooter", "bike_id": "841e0bbea156b7856d7843b95ef6b2b5"}, {"rental_uris": {"android": "https://dc.lft.to/lastmile_qr_scan", "ios": "https://dc.lft.to/lastmile_qr_scan"}, "name": "bbf99e91b3dfd39f3979b1861cee0495", "fusion_lat": 0.0, "lon": -77.059274, "is_disabled": 0, "is_reserved": 0, "fusion_lon": 0.0, "lat": 38.936636666666665, "type": "electric_scooter", "bike_id": "bbf99e91b3dfd39f3979b1861cee0495"}, {"rental_uris": {"android": "https://dc.lft.to/lastmile_qr_scan", "ios": "https://dc.lft.to/lastmile_qr_scan"}, "name": "c1b2012598670f1aed78d2af57e0dca5", "fusion_lat": 0.0, "lon": -77.06293916666667, "is_disabled": 0, "is_reserved": 0, "fusion_lon": 0.0, "lat": 38.90588, "type": "electric_scooter", "bike_id": "c1b2012598670f1aed78d2af57e0dca5"}, {"rental_uris": {"android": "https://dc.lft.to/lastmile_qr_scan", "ios": "https://dc.lft.to/lastmile_qr_scan"}, "name": "8a77f00869cd35bc719a3e11399a681c", "fusion_lat": 0.0, "lon": -77.2341, "is_disabled": 0, "is_reserved": 0, "fusion_lon": 0.0, "lat": 38.8757825, "type": "electric_bike", "bike_id": "8a77f00869cd35bc719a3e11399a681c"}, {"rental_uris": {"android": "https://dc.lft.to/lastmile_qr_scan", "ios": "https://dc.lft.to/lastmile_qr_scan"}, "name": "ec1352cdb0c4b62bf3a4a3d983cf4aa8", "fusion_lat": 0.0, "lon": -77.04330933333334, "is_disabled": 0, "is_reserved": 0, "fusion_lon": 0.0, "lat": 38.92658816666667, "type": "electric_scooter", "bike_id": "ec1352cdb0c4b62bf3a4a3d983cf4aa8"}, {"rental_uris": {"android": "https://dc.lft.to/lastmile_qr_scan", "ios": "https://dc.lft.to/lastmile_qr_scan"}, "name": "8ed0365fc4571797c1995eacb880294e", "fusion_lat": 0.0, "lon": -76.93838183333334, "is_disabled": 0, "is_reserved": 0, "fusion_lon": 0.0, "lat": 38.890119, "type": "electric_scooter", "bike_id": "8ed0365fc4571797c1995eacb880294e"}, {"rental_uris": {"android": "https://dc.lft.to/lastmile_qr_scan", "ios": "https://dc.lft.to/lastmile_qr_scan"}, "name": "ba3e8f85e58ba8a01713bc675f24f3df", "fusion_lat": 0.0, "lon": -77.04662866666666, "is_disabled": 0, "is_reserved": 0, "fusion_lon": 0.0, "lat": 38.90323733333334, "type": "electric_scooter", "bike_id": "ba3e8f85e58ba8a01713bc675f24f3df"}, {"rental_uris": {"android": "https://dc.lft.to/lastmile_qr_scan", "ios": "https://dc.lft.to/lastmile_qr_scan"}, "name": "80e6a5ecfbd2622b94667d21a606c50f", "fusion_lat": 0.0, "lon": -77.0298075, "is_disabled": 0, "is_reserved": 0, "fusion_lon": 0.0, "lat": 38.895342666666664, "type": "electric_scooter", "bike_id": "80e6a5ecfbd2622b94667d21a606c50f"}, {"rental_uris": {"android": "https://dc.lft.to/lastmile_qr_scan", "ios": "https://dc.lft.to/lastmile_qr_scan"}, "name": "39c3e63a8f4f50790c210cee3a93dcee", "fusion_lat": 0.0, "lon": -77.0480585, "is_disabled": 0, "is_reserved": 0, "fusion_lon": 0.0, "lat": 38.904492833333336, "type": "electric_scooter", "bike_id": "39c3e63a8f4f50790c210cee3a93dcee"}, {"rental_uris": {"android": "https://dc.lft.to/lastmile_qr_scan", "ios": "https://dc.lft.to/lastmile_qr_scan"}, "name": "401d18c58710303f05a6dab1fe7159b2", "fusion_lat": 0.0, "lon": -77.03688983333333, "is_disabled": 0, "is_reserved": 0, "fusion_lon": 0.0, "lat": 38.91680516666667, "type": "electric_scooter", "bike_id": "401d18c58710303f05a6dab1fe7159b2"}, {"rental_uris": {"android": "https://dc.lft.to/lastmile_qr_scan", "ios": "https://dc.lft.to/lastmile_qr_scan"}, "name": "e7d32dfa4a4477000def34c2d34db1ff", "fusion_lat": 0.0, "lon": -77.125065, "is_disabled": 0, "is_reserved": 0, "fusion_lon": 0.0, "lat": 39.0242675, "type": "electric_bike", "bike_id": "e7d32dfa4a4477000def34c2d34db1ff"}, {"rental_uris": {"android": "https://dc.lft.to/lastmile_qr_scan", "ios": "https://dc.lft.to/lastmile_qr_scan"}, "name": "a7117a653b39c407d6e4c66e9fc3e4b1", "fusion_lat": 0.0, "lon": -76.983608, "is_disabled": 0, "is_reserved": 0, "fusion_lon": 0.0, "lat": 38.86473933333333, "type": "electric_scooter", "bike_id": "a7117a653b39c407d6e4c66e9fc3e4b1"}, {"rental_uris": {"android": "https://dc.lft.to/lastmile_qr_scan", "ios": "https://dc.lft.to/lastmile_qr_scan"}, "name": "6eac18d950a4292294e795f2b20bee1d", "fusion_lat": 0.0, "lon": -77.02828983333333, "is_disabled": 0, "is_reserved": 0, "fusion_lon": 0.0, "lat": 38.94826616666667, "type": "electric_scooter", "bike_id": "6eac18d950a4292294e795f2b20bee1d"}, {"rental_uris": {"android": "https://dc.lft.to/lastmile_qr_scan", "ios": "https://dc.lft.to/lastmile_qr_scan"}, "name": "013244cb6dc12cb26a5b87cbfc7b0675", "fusion_lat": 0.0, "lon": -77.0351765, "is_disabled": 0, "is_reserved": 0, "fusion_lon": 0.0, "lat": 38.92160616666666, "type": "electric_scooter", "bike_id": "013244cb6dc12cb26a5b87cbfc7b0675"}, {"rental_uris": {"android": "https://dc.lft.to/lastmile_qr_scan", "ios": "https://dc.lft.to/lastmile_qr_scan"}, "name": "6033ba7a14265f09b2b964a59047308d", "fusion_lat": 0.0, "lon": -76.988584, "is_disabled": 0, "is_reserved": 0, "fusion_lon": 0.0, "lat": 38.90019216666666, "type": "electric_bike", "bike_id": "6033ba7a14265f09b2b964a59047308d"}, {"rental_uris": {"android": "https://dc.lft.to/lastmile_qr_scan", "ios": "https://dc.lft.to/lastmile_qr_scan"}, "name": "b79c251ab647473f934981d153da787f", "fusion_lat": 0.0, "lon": -77.03734483333334, "is_disabled": 0, "is_reserved": 0, "fusion_lon": 0.0, "lat": 38.91123266666666, "type": "electric_scooter", "bike_id": "b79c251ab647473f934981d153da787f"}, {"rental_uris": {"android": "https://dc.lft.to/lastmile_qr_scan", "ios": "https://dc.lft.to/lastmile_qr_scan"}, "name": "54f1a8c8a98722929fb0b907ec1c8fd8", "fusion_lat": 0.0, "lon": -77.0329195, "is_disabled": 0, "is_reserved": 0, "fusion_lon": 0.0, "lat": 38.95658783333333, "type": "electric_scooter", "bike_id": "54f1a8c8a98722929fb0b907ec1c8fd8"}, {"rental_uris": {"android": "https://dc.lft.to/lastmile_qr_scan", "ios": "https://dc.lft.to/lastmile_qr_scan"}, "name": "8308646b615aa5f6008256724410d9d0", "fusion_lat": 0.0, "lon": -77.06009416666667, "is_disabled": 0, "is_reserved": 0, "fusion_lon": 0.0, "lat": 38.905142166666664, "type": "electric_scooter", "bike_id": "8308646b615aa5f6008256724410d9d0"}, {"rental_uris": {"android": "https://dc.lft.to/lastmile_qr_scan", "ios": "https://dc.lft.to/lastmile_qr_scan"}, "name": "6c2cf0c8105c4b056ba43c737fcb8851", "fusion_lat": 0.0, "lon": -77.0274455, "is_disabled": 0, "is_reserved": 0, "fusion_lon": 0.0, "lat": 38.932003333333334, "type": "electric_scooter", "bike_id": "6c2cf0c8105c4b056ba43c737fcb8851"}, {"rental_uris": {"android": "https://dc.lft.to/lastmile_qr_scan", "ios": "https://dc.lft.to/lastmile_qr_scan"}, "name": "992e9c7b07e5525b322a5e4e732b3072", "fusion_lat": 0.0, "lon": -77.03336516666667, "is_disabled": 0, "is_reserved": 0, "fusion_lon": 0.0, "lat": 38.916244, "type": "electric_scooter", "bike_id": "992e9c7b07e5525b322a5e4e732b3072"}, {"rental_uris": {"android": "https://dc.lft.to/lastmile_qr_scan", "ios": "https://dc.lft.to/lastmile_qr_scan"}, "name": "409f280f05d09fba233b3fc962d0bbef", "fusion_lat": 0.0, "lon": -77.045597, "is_disabled": 0, "is_reserved": 0, "fusion_lon": 0.0, "lat": 38.90742916666667, "type": "electric_scooter", "bike_id": "409f280f05d09fba233b3fc962d0bbef"}, {"rental_uris": {"android": "https://dc.lft.to/lastmile_qr_scan", "ios": "https://dc.lft.to/lastmile_qr_scan"}, "name": "08e56a47394e632e82b927c11c4b738c", "fusion_lat": 0.0, "lon": -77.03173766666667, "is_disabled": 0, "is_reserved": 0, "fusion_lon": 0.0, "lat": 38.89738666666667, "type": "electric_scooter", "bike_id": "08e56a47394e632e82b927c11c4b738c"}, {"rental_uris": {"android": "https://dc.lft.to/lastmile_qr_scan", "ios": "https://dc.lft.to/lastmile_qr_scan"}, "name": "e2281fb3b8a08a586775aa33116723fb", "fusion_lat": 0.0, "lon": -77.00707216666666, "is_disabled": 0, "is_reserved": 0, "fusion_lon": 0.0, "lat": 38.876699, "type": "electric_scooter", "bike_id": "e2281fb3b8a08a586775aa33116723fb"}, {"rental_uris": {"android": "https://dc.lft.to/lastmile_qr_scan", "ios": "https://dc.lft.to/lastmile_qr_scan"}, "name": "c41b54efc2cfb3ffb72cb53ead6c8154", "fusion_lat": 0.0, "lon": -77.00450166666667, "is_disabled": 0, "is_reserved": 0, "fusion_lon": 0.0, "lat": 38.88973033333333, "type": "electric_scooter", "bike_id": "c41b54efc2cfb3ffb72cb53ead6c8154"}, {"rental_uris": {"android": "https://dc.lft.to/lastmile_qr_scan", "ios": "https://dc.lft.to/lastmile_qr_scan"}, "name": "4c1373bc1dc1927879f0a48eccf26218", "fusion_lat": 0.0, "lon": -77.03848616666667, "is_disabled": 0, "is_reserved": 0, "fusion_lon": 0.0, "lat": 38.909425666666664, "type": "electric_scooter", "bike_id": "4c1373bc1dc1927879f0a48eccf26218"}, {"rental_uris": {"android": "https://dc.lft.to/lastmile_qr_scan", "ios": "https://dc.lft.to/lastmile_qr_scan"}, "name": "b6d523add555222df35e635e946a558c", "fusion_lat": 0.0, "lon": -76.99054183333334, "is_disabled": 0, "is_reserved": 0, "fusion_lon": 0.0, "lat": 38.863564333333336, "type": "electric_scooter", "bike_id": "b6d523add555222df35e635e946a558c"}, {"rental_uris": {"android": "https://dc.lft.to/lastmile_qr_scan", "ios": "https://dc.lft.to/lastmile_qr_scan"}, "name": "1d21675e993fac8d2cf2a4383074fd41", "fusion_lat": 0.0, "lon": -77.0433445, "is_disabled": 0, "is_reserved": 0, "fusion_lon": 0.0, "lat": 38.9089495, "type": "electric_scooter", "bike_id": "1d21675e993fac8d2cf2a4383074fd41"}, {"rental_uris": {"android": "https://dc.lft.to/lastmile_qr_scan", "ios": "https://dc.lft.to/lastmile_qr_scan"}, "name": "38e28b7b2b386b26c2e6898836fce772", "fusion_lat": 0.0, "lon": -77.03959633333334, "is_disabled": 0, "is_reserved": 0, "fusion_lon": 0.0, "lat": 38.9019675, "type": "electric_scooter", "bike_id": "38e28b7b2b386b26c2e6898836fce772"}, {"rental_uris": {"android": "https://dc.lft.to/lastmile_qr_scan", "ios": "https://dc.lft.to/lastmile_qr_scan"}, "name": "71ca97bc0cdd1b6585203610334ba962", "fusion_lat": 0.0, "lon": -77.01536016666667, "is_disabled": 0, "is_reserved": 0, "fusion_lon": 0.0, "lat": 38.8873945, "type": "electric_scooter", "bike_id": "71ca97bc0cdd1b6585203610334ba962"}, {"rental_uris": {"android": "https://dc.lft.to/lastmile_qr_scan", "ios": "https://dc.lft.to/lastmile_qr_scan"}, "name": "dc521e8af4533a9037969d06b846052a", "fusion_lat": 0.0, "lon": -77.05790133333333, "is_disabled": 0, "is_reserved": 0, "fusion_lon": 0.0, "lat": 38.903756333333334, "type": "electric_scooter", "bike_id": "dc521e8af4533a9037969d06b846052a"}, {"rental_uris": {"android": "https://dc.lft.to/lastmile_qr_scan", "ios": "https://dc.lft.to/lastmile_qr_scan"}, "name": "46205d439f1aaf7468f78fbd3ea806a9", "fusion_lat": 0.0, "lon": -77.00374266666667, "is_disabled": 0, "is_reserved": 0, "fusion_lon": 0.0, "lat": 38.87750533333333, "type": "electric_scooter", "bike_id": "46205d439f1aaf7468f78fbd3ea806a9"}, {"rental_uris": {"android": "https://dc.lft.to/lastmile_qr_scan", "ios": "https://dc.lft.to/lastmile_qr_scan"}, "name": "10e2efaf2546103a1f3e20a487065dab", "fusion_lat": 0.0, "lon": -77.01050816666667, "is_disabled": 0, "is_reserved": 0, "fusion_lon": 0.0, "lat": 38.9002735, "type": "electric_scooter", "bike_id": "10e2efaf2546103a1f3e20a487065dab"}, {"rental_uris": {"android": "https://dc.lft.to/lastmile_qr_scan", "ios": "https://dc.lft.to/lastmile_qr_scan"}, "name": "e8152d8a6cd6472f62c8a631c676d40c", "fusion_lat": 0.0, "lon": -77.1322995, "is_disabled": 0, "is_reserved": 0, "fusion_lon": 0.0, "lat": 38.8697495, "type": "electric_bike", "bike_id": "e8152d8a6cd6472f62c8a631c676d40c"}, {"rental_uris": {"android": "https://dc.lft.to/lastmile_qr_scan", "ios": "https://dc.lft.to/lastmile_qr_scan"}, "name": "d5af0a630f8c8675e6bd773f7e9f32f8", "fusion_lat": 0.0, "lon": -77.01568783333333, "is_disabled": 0, "is_reserved": 0, "fusion_lon": 0.0, "lat": 38.891448, "type": "electric_scooter", "bike_id": "d5af0a630f8c8675e6bd773f7e9f32f8"}, {"rental_uris": {"android": "https://dc.lft.to/lastmile_qr_scan", "ios": "https://dc.lft.to/lastmile_qr_scan"}, "name": "3556f4d8e9f99c78d7b0a7c20240c381", "fusion_lat": 0.0, "lon": -77.0056895, "is_disabled": 0, "is_reserved": 0, "fusion_lon": 0.0, "lat": 38.885053, "type": "electric_scooter", "bike_id": "3556f4d8e9f99c78d7b0a7c20240c381"}, {"rental_uris": {"android": "https://dc.lft.to/lastmile_qr_scan", "ios": "https://dc.lft.to/lastmile_qr_scan"}, "name": "bc6ba9357e4a5a603df3850b05262b5e", "fusion_lat": 0.0, "lon": -77.02543066666667, "is_disabled": 0, "is_reserved": 0, "fusion_lon": 0.0, "lat": 38.900987666666666, "type": "electric_scooter", "bike_id": "bc6ba9357e4a5a603df3850b05262b5e"}, {"rental_uris": {"android": "https://dc.lft.to/lastmile_qr_scan", "ios": "https://dc.lft.to/lastmile_qr_scan"}, "name": "30ffd287ec8898dfb518837a93ed87e0", "fusion_lat": 0.0, "lon": -77.00761716666666, "is_disabled": 0, "is_reserved": 0, "fusion_lon": 0.0, "lat": 38.87654366666666, "type": "electric_scooter", "bike_id": "30ffd287ec8898dfb518837a93ed87e0"}, {"rental_uris": {"android": "https://dc.lft.to/lastmile_qr_scan", "ios": "https://dc.lft.to/lastmile_qr_scan"}, "name": "555fde27777531716108c2f3048551de", "fusion_lat": 0.0, "lon": -77.0716575, "is_disabled": 0, "is_reserved": 0, "fusion_lon": 0.0, "lat": 38.90773683333333, "type": "electric_scooter", "bike_id": "555fde27777531716108c2f3048551de"}, {"rental_uris": {"android": "https://dc.lft.to/lastmile_qr_scan", "ios": "https://dc.lft.to/lastmile_qr_scan"}, "name": "4b308230293292793969d70584dd58f6", "fusion_lat": 0.0, "lon": -77.02173066666667, "is_disabled": 0, "is_reserved": 0, "fusion_lon": 0.0, "lat": 38.942925333333335, "type": "electric_scooter", "bike_id": "4b308230293292793969d70584dd58f6"}, {"rental_uris": {"android": "https://dc.lft.to/lastmile_qr_scan", "ios": "https://dc.lft.to/lastmile_qr_scan"}, "name": "fa1f3f1755ce4bcd5e872ddcc980d172", "fusion_lat": 0.0, "lon": -77.06267983333333, "is_disabled": 0, "is_reserved": 0, "fusion_lon": 0.0, "lat": 38.90490533333333, "type": "electric_scooter", "bike_id": "fa1f3f1755ce4bcd5e872ddcc980d172"}, {"rental_uris": {"android": "https://dc.lft.to/lastmile_qr_scan", "ios": "https://dc.lft.to/lastmile_qr_scan"}, "name": "5008dc313af9e29e03522d6d10a2536a", "fusion_lat": 0.0, "lon": -77.024225, "is_disabled": 0, "is_reserved": 0, "fusion_lon": 0.0, "lat": 38.918266333333335, "type": "electric_scooter", "bike_id": "5008dc313af9e29e03522d6d10a2536a"}, {"rental_uris": {"android": "https://dc.lft.to/lastmile_qr_scan", "ios": "https://dc.lft.to/lastmile_qr_scan"}, "name": "8c35afc01d03d421be4aa9d5387feeab", "fusion_lat": 0.0, "lon": -76.99174616666667, "is_disabled": 0, "is_reserved": 0, "fusion_lon": 0.0, "lat": 38.88969733333333, "type": "electric_bike", "bike_id": "8c35afc01d03d421be4aa9d5387feeab"}, {"rental_uris": {"android": "https://dc.lft.to/lastmile_qr_scan", "ios": "https://dc.lft.to/lastmile_qr_scan"}, "name": "2eae0330a020ebdfe41eacbd02dab81d", "fusion_lat": 0.0, "lon": -77.03330683333333, "is_disabled": 0, "is_reserved": 0, "fusion_lon": 0.0, "lat": 38.89820616666667, "type": "electric_scooter", "bike_id": "2eae0330a020ebdfe41eacbd02dab81d"}, {"rental_uris": {"android": "https://dc.lft.to/lastmile_qr_scan", "ios": "https://dc.lft.to/lastmile_qr_scan"}, "name": "130e50e46bf742211136358dee810c44", "fusion_lat": 0.0, "lon": -77.04496833333333, "is_disabled": 0, "is_reserved": 0, "fusion_lon": 0.0, "lat": 38.914143833333334, "type": "electric_scooter", "bike_id": "130e50e46bf742211136358dee810c44"}, {"rental_uris": {"android": "https://dc.lft.to/lastmile_qr_scan", "ios": "https://dc.lft.to/lastmile_qr_scan"}, "name": "e06e37e50d7bfe8701cf179e27e8f2f9", "fusion_lat": 0.0, "lon": -77.032868, "is_disabled": 0, "is_reserved": 0, "fusion_lon": 0.0, "lat": 38.931006333333336, "type": "electric_scooter", "bike_id": "e06e37e50d7bfe8701cf179e27e8f2f9"}, {"rental_uris": {"android": "https://dc.lft.to/lastmile_qr_scan", "ios": "https://dc.lft.to/lastmile_qr_scan"}, "name": "1121c8c60a5ddb12f84adc95a98e5157", "fusion_lat": 0.0, "lon": -77.005768, "is_disabled": 0, "is_reserved": 0, "fusion_lon": 0.0, "lat": 38.88541333333333, "type": "electric_scooter", "bike_id": "1121c8c60a5ddb12f84adc95a98e5157"}, {"rental_uris": {"android": "https://dc.lft.to/lastmile_qr_scan", "ios": "https://dc.lft.to/lastmile_qr_scan"}, "name": "559eaccd632c7ec51cc63ee44c446481", "fusion_lat": 0.0, "lon": -76.92407383333334, "is_disabled": 0, "is_reserved": 0, "fusion_lon": 0.0, "lat": 38.8898945, "type": "electric_scooter", "bike_id": "559eaccd632c7ec51cc63ee44c446481"}, {"rental_uris": {"android": "https://dc.lft.to/lastmile_qr_scan", "ios": "https://dc.lft.to/lastmile_qr_scan"}, "name": "9970a82900e37c83d45c007b07c5840c", "fusion_lat": 0.0, "lon": -77.0296235, "is_disabled": 0, "is_reserved": 0, "fusion_lon": 0.0, "lat": 38.89358133333333, "type": "electric_scooter", "bike_id": "9970a82900e37c83d45c007b07c5840c"}, {"rental_uris": {"android": "https://dc.lft.to/lastmile_qr_scan", "ios": "https://dc.lft.to/lastmile_qr_scan"}, "name": "271d46833973ae325772673562f68907", "fusion_lat": 0.0, "lon": -77.00576983333333, "is_disabled": 0, "is_reserved": 0, "fusion_lon": 0.0, "lat": 38.885355, "type": "electric_scooter", "bike_id": "271d46833973ae325772673562f68907"}, {"rental_uris": {"android": "https://dc.lft.to/lastmile_qr_scan", "ios": "https://dc.lft.to/lastmile_qr_scan"}, "name": "c83eaa503276ff1b7ee7c98b2c1bfcf2", "fusion_lat": 0.0, "lon": -76.93415583333334, "is_disabled": 0, "is_reserved": 0, "fusion_lon": 0.0, "lat": 38.946257, "type": "electric_bike", "bike_id": "c83eaa503276ff1b7ee7c98b2c1bfcf2"}, {"rental_uris": {"android": "https://dc.lft.to/lastmile_qr_scan", "ios": "https://dc.lft.to/lastmile_qr_scan"}, "name": "4eccf0bd5fc44d6510474d25c5c80877", "fusion_lat": 0.0, "lon": -77.01256783333334, "is_disabled": 0, "is_reserved": 0, "fusion_lon": 0.0, "lat": 38.8763175, "type": "electric_scooter", "bike_id": "4eccf0bd5fc44d6510474d25c5c80877"}, {"rental_uris": {"android": "https://dc.lft.to/lastmile_qr_scan", "ios": "https://dc.lft.to/lastmile_qr_scan"}, "name": "8e5cd6fc5a56e26a61ef03d6ced9569d", "fusion_lat": 0.0, "lon": -77.0634935, "is_disabled": 0, "is_reserved": 0, "fusion_lon": 0.0, "lat": 38.9134285, "type": "electric_scooter", "bike_id": "8e5cd6fc5a56e26a61ef03d6ced9569d"}, {"rental_uris": {"android": "https://dc.lft.to/lastmile_qr_scan", "ios": "https://dc.lft.to/lastmile_qr_scan"}, "name": "c0ee92afe8afea9ef792b6a0fa58ff3a", "fusion_lat": 0.0, "lon": -76.94653833333334, "is_disabled": 0, "is_reserved": 0, "fusion_lon": 0.0, "lat": 38.89824333333333, "type": "electric_scooter", "bike_id": "c0ee92afe8afea9ef792b6a0fa58ff3a"}, {"rental_uris": {"android": "https://dc.lft.to/lastmile_qr_scan", "ios": "https://dc.lft.to/lastmile_qr_scan"}, "name": "d94190091ac2372eb26ea12f39564d77", "fusion_lat": 0.0, "lon": -77.04827583333334, "is_disabled": 0, "is_reserved": 0, "fusion_lon": 0.0, "lat": 38.8983965, "type": "electric_scooter", "bike_id": "d94190091ac2372eb26ea12f39564d77"}, {"rental_uris": {"android": "https://dc.lft.to/lastmile_qr_scan", "ios": "https://dc.lft.to/lastmile_qr_scan"}, "name": "b3d7a24ad40ae9e9e27169ba7bd61689", "fusion_lat": 0.0, "lon": -77.03999116666667, "is_disabled": 0, "is_reserved": 0, "fusion_lon": 0.0, "lat": 38.9141935, "type": "electric_scooter", "bike_id": "b3d7a24ad40ae9e9e27169ba7bd61689"}, {"rental_uris": {"android": "https://dc.lft.to/lastmile_qr_scan", "ios": "https://dc.lft.to/lastmile_qr_scan"}, "name": "9cb0edb4387d5fdc554ee42cfe001b2c", "fusion_lat": 0.0, "lon": -77.03204666666667, "is_disabled": 0, "is_reserved": 0, "fusion_lon": 0.0, "lat": 38.91921716666667, "type": "electric_scooter", "bike_id": "9cb0edb4387d5fdc554ee42cfe001b2c"}, {"rental_uris": {"android": "https://dc.lft.to/lastmile_qr_scan", "ios": "https://dc.lft.to/lastmile_qr_scan"}, "name": "b925035d0aabd3bce045e7900793aa4f", "fusion_lat": 0.0, "lon": -77.35310466666667, "is_disabled": 0, "is_reserved": 0, "fusion_lon": 0.0, "lat": 38.950051, "type": "electric_bike", "bike_id": "b925035d0aabd3bce045e7900793aa4f"}, {"rental_uris": {"android": "https://dc.lft.to/lastmile_qr_scan", "ios": "https://dc.lft.to/lastmile_qr_scan"}, "name": "bc04ba6c5074259ad70e195687510a17", "fusion_lat": 0.0, "lon": -76.9970825, "is_disabled": 0, "is_reserved": 0, "fusion_lon": 0.0, "lat": 38.910819833333335, "type": "electric_scooter", "bike_id": "bc04ba6c5074259ad70e195687510a17"}, {"rental_uris": {"android": "https://dc.lft.to/lastmile_qr_scan", "ios": "https://dc.lft.to/lastmile_qr_scan"}, "name": "d28e51782fc56f57fcc4ab38bfcc4dd7", "fusion_lat": 0.0, "lon": -76.990767, "is_disabled": 0, "is_reserved": 0, "fusion_lon": 0.0, "lat": 38.86050133333333, "type": "electric_scooter", "bike_id": "d28e51782fc56f57fcc4ab38bfcc4dd7"}, {"rental_uris": {"android": "https://dc.lft.to/lastmile_qr_scan", "ios": "https://dc.lft.to/lastmile_qr_scan"}, "name": "fcf18cdb58898845c3b39fde0d071369", "fusion_lat": 0.0, "lon": -76.99943166666667, "is_disabled": 0, "is_reserved": 0, "fusion_lon": 0.0, "lat": 38.84320433333333, "type": "electric_scooter", "bike_id": "fcf18cdb58898845c3b39fde0d071369"}, {"rental_uris": {"android": "https://dc.lft.to/lastmile_qr_scan", "ios": "https://dc.lft.to/lastmile_qr_scan"}, "name": "d60bd6e0fb26e84705743c9d4dc2c976", "fusion_lat": 0.0, "lon": -77.0132025, "is_disabled": 0, "is_reserved": 0, "fusion_lon": 0.0, "lat": 38.89230166666667, "type": "electric_scooter", "bike_id": "d60bd6e0fb26e84705743c9d4dc2c976"}, {"rental_uris": {"android": "https://dc.lft.to/lastmile_qr_scan", "ios": "https://dc.lft.to/lastmile_qr_scan"}, "name": "fd7b207157ec8d3cd0c2a22b87eebf0b", "fusion_lat": 0.0, "lon": -77.01993983333334, "is_disabled": 0, "is_reserved": 0, "fusion_lon": 0.0, "lat": 38.96637916666667, "type": "electric_scooter", "bike_id": "fd7b207157ec8d3cd0c2a22b87eebf0b"}, {"rental_uris": {"android": "https://dc.lft.to/lastmile_qr_scan", "ios": "https://dc.lft.to/lastmile_qr_scan"}, "name": "69668441ee3119ee958bf380a23b285d", "fusion_lat": 0.0, "lon": -77.04648983333334, "is_disabled": 0, "is_reserved": 0, "fusion_lon": 0.0, "lat": 38.900034833333336, "type": "electric_scooter", "bike_id": "69668441ee3119ee958bf380a23b285d"}, {"rental_uris": {"android": "https://dc.lft.to/lastmile_qr_scan", "ios": "https://dc.lft.to/lastmile_qr_scan"}, "name": "fc644338234fe446f4ccb05ccbb334dc", "fusion_lat": 0.0, "lon": -77.012068, "is_disabled": 0, "is_reserved": 0, "fusion_lon": 0.0, "lat": 38.9258385, "type": "electric_scooter", "bike_id": "fc644338234fe446f4ccb05ccbb334dc"}, {"rental_uris": {"android": "https://dc.lft.to/lastmile_qr_scan", "ios": "https://dc.lft.to/lastmile_qr_scan"}, "name": "772899a1b39ea89e4481c370b838dd0d", "fusion_lat": 0.0, "lon": -76.99365183333333, "is_disabled": 0, "is_reserved": 0, "fusion_lon": 0.0, "lat": 38.928410666666664, "type": "electric_scooter", "bike_id": "772899a1b39ea89e4481c370b838dd0d"}, {"rental_uris": {"android": "https://dc.lft.to/lastmile_qr_scan", "ios": "https://dc.lft.to/lastmile_qr_scan"}, "name": "88efc3c27bf9d3419b20378da4da9325", "fusion_lat": 0.0, "lon": -76.99006866666667, "is_disabled": 0, "is_reserved": 0, "fusion_lon": 0.0, "lat": 38.86507183333333, "type": "electric_scooter", "bike_id": "88efc3c27bf9d3419b20378da4da9325"}, {"rental_uris": {"android": "https://dc.lft.to/lastmile_qr_scan", "ios": "https://dc.lft.to/lastmile_qr_scan"}, "name": "5a0a84143c818b79e1949a04338ca887", "fusion_lat": 0.0, "lon": -77.02305316666667, "is_disabled": 0, "is_reserved": 0, "fusion_lon": 0.0, "lat": 38.91724816666667, "type": "electric_scooter", "bike_id": "5a0a84143c818b79e1949a04338ca887"}, {"rental_uris": {"android": "https://dc.lft.to/lastmile_qr_scan", "ios": "https://dc.lft.to/lastmile_qr_scan"}, "name": "149f413e2fa5aa881f731cc38da9de3d", "fusion_lat": 0.0, "lon": -76.94287783333333, "is_disabled": 0, "is_reserved": 0, "fusion_lon": 0.0, "lat": 38.88305, "type": "electric_scooter", "bike_id": "149f413e2fa5aa881f731cc38da9de3d"}, {"rental_uris": {"android": "https://dc.lft.to/lastmile_qr_scan", "ios": "https://dc.lft.to/lastmile_qr_scan"}, "name": "95139b9808137f7f7ea1e4c653dcff9d", "fusion_lat": 0.0, "lon": -77.03289316666667, "is_disabled": 0, "is_reserved": 0, "fusion_lon": 0.0, "lat": 38.930476166666665, "type": "electric_scooter", "bike_id": "95139b9808137f7f7ea1e4c653dcff9d"}, {"rental_uris": {"android": "https://dc.lft.to/lastmile_qr_scan", "ios": "https://dc.lft.to/lastmile_qr_scan"}, "name": "de0a6c5a6632745a04603af27a73cd3d", "fusion_lat": 0.0, "lon": -77.07792983333333, "is_disabled": 0, "is_reserved": 0, "fusion_lon": 0.0, "lat": 38.84516516666667, "type": "electric_bike", "bike_id": "de0a6c5a6632745a04603af27a73cd3d"}, {"rental_uris": {"android": "https://dc.lft.to/lastmile_qr_scan", "ios": "https://dc.lft.to/lastmile_qr_scan"}, "name": "4aa07e416097a19ee2d814d38de26433", "fusion_lat": 0.0, "lon": -76.98331633333333, "is_disabled": 0, "is_reserved": 0, "fusion_lon": 0.0, "lat": 38.86255166666667, "type": "electric_scooter", "bike_id": "4aa07e416097a19ee2d814d38de26433"}, {"rental_uris": {"android": "https://dc.lft.to/lastmile_qr_scan", "ios": "https://dc.lft.to/lastmile_qr_scan"}, "name": "66f6d48061a8a029526f204a9cfdc0fd", "fusion_lat": 0.0, "lon": -77.02867283333333, "is_disabled": 0, "is_reserved": 0, "fusion_lon": 0.0, "lat": 38.93277666666667, "type": "electric_scooter", "bike_id": "66f6d48061a8a029526f204a9cfdc0fd"}, {"rental_uris": {"android": "https://dc.lft.to/lastmile_qr_scan", "ios": "https://dc.lft.to/lastmile_qr_scan"}, "name": "6cef1189c72d4d05fa92119f36637df6", "fusion_lat": 0.0, "lon": -77.00303566666666, "is_disabled": 0, "is_reserved": 0, "fusion_lon": 0.0, "lat": 38.905936833333335, "type": "electric_scooter", "bike_id": "6cef1189c72d4d05fa92119f36637df6"}, {"rental_uris": {"android": "https://dc.lft.to/lastmile_qr_scan", "ios": "https://dc.lft.to/lastmile_qr_scan"}, "name": "f68a2f0cba5b953a9bd25ec365732b80", "fusion_lat": 0.0, "lon": -77.03431466666666, "is_disabled": 0, "is_reserved": 0, "fusion_lon": 0.0, "lat": 38.9170575, "type": "electric_scooter", "bike_id": "f68a2f0cba5b953a9bd25ec365732b80"}, {"rental_uris": {"android": "https://dc.lft.to/lastmile_qr_scan", "ios": "https://dc.lft.to/lastmile_qr_scan"}, "name": "1a399a7594e5dde66b461363fb53b06d", "fusion_lat": 0.0, "lon": -77.032776, "is_disabled": 0, "is_reserved": 0, "fusion_lon": 0.0, "lat": 38.8989575, "type": "electric_scooter", "bike_id": "1a399a7594e5dde66b461363fb53b06d"}, {"rental_uris": {"android": "https://dc.lft.to/lastmile_qr_scan", "ios": "https://dc.lft.to/lastmile_qr_scan"}, "name": "cfdf9571d2a1b088e5411e349f3babfa", "fusion_lat": 0.0, "lon": -77.051599, "is_disabled": 0, "is_reserved": 0, "fusion_lon": 0.0, "lat": 38.90450166666667, "type": "electric_scooter", "bike_id": "cfdf9571d2a1b088e5411e349f3babfa"}, {"rental_uris": {"android": "https://dc.lft.to/lastmile_qr_scan", "ios": "https://dc.lft.to/lastmile_qr_scan"}, "name": "15f3a51568d262ad0e40cb6e07c46790", "fusion_lat": 0.0, "lon": -77.00693633333333, "is_disabled": 0, "is_reserved": 0, "fusion_lon": 0.0, "lat": 38.89598733333333, "type": "electric_scooter", "bike_id": "15f3a51568d262ad0e40cb6e07c46790"}, {"rental_uris": {"android": "https://dc.lft.to/lastmile_qr_scan", "ios": "https://dc.lft.to/lastmile_qr_scan"}, "name": "06db5906f322a67ec680eb51a3a1e67c", "fusion_lat": 0.0, "lon": -77.04248333333334, "is_disabled": 0, "is_reserved": 0, "fusion_lon": 0.0, "lat": 38.94547983333333, "type": "electric_scooter", "bike_id": "06db5906f322a67ec680eb51a3a1e67c"}, {"rental_uris": {"android": "https://dc.lft.to/lastmile_qr_scan", "ios": "https://dc.lft.to/lastmile_qr_scan"}, "name": "a393f12906abe399af5491a38161db68", "fusion_lat": 0.0, "lon": -77.06392416666667, "is_disabled": 0, "is_reserved": 0, "fusion_lon": 0.0, "lat": 38.929041166666664, "type": "electric_scooter", "bike_id": "a393f12906abe399af5491a38161db68"}, {"rental_uris": {"android": "https://dc.lft.to/lastmile_qr_scan", "ios": "https://dc.lft.to/lastmile_qr_scan"}, "name": "ef6afe30adc04e5d148f403a8f5e185b", "fusion_lat": 0.0, "lon": -77.02315716666666, "is_disabled": 0, "is_reserved": 0, "fusion_lon": 0.0, "lat": 38.91632116666667, "type": "electric_scooter", "bike_id": "ef6afe30adc04e5d148f403a8f5e185b"}, {"rental_uris": {"android": "https://dc.lft.to/lastmile_qr_scan", "ios": "https://dc.lft.to/lastmile_qr_scan"}, "name": "14137320ff5f2a7bdeb2b85f844a20d1", "fusion_lat": 0.0, "lon": -77.02704533333333, "is_disabled": 0, "is_reserved": 0, "fusion_lon": 0.0, "lat": 38.917564, "type": "electric_scooter", "bike_id": "14137320ff5f2a7bdeb2b85f844a20d1"}, {"rental_uris": {"android": "https://dc.lft.to/lastmile_qr_scan", "ios": "https://dc.lft.to/lastmile_qr_scan"}, "name": "a04a862d6a02a88446e33a84a8c9b4d0", "fusion_lat": 0.0, "lon": -77.03652016666666, "is_disabled": 0, "is_reserved": 0, "fusion_lon": 0.0, "lat": 38.912857833333334, "type": "electric_scooter", "bike_id": "a04a862d6a02a88446e33a84a8c9b4d0"}, {"rental_uris": {"android": "https://dc.lft.to/lastmile_qr_scan", "ios": "https://dc.lft.to/lastmile_qr_scan"}, "name": "04c43682d84600f7996d94fb87ce9276", "fusion_lat": 0.0, "lon": -77.06024583333334, "is_disabled": 0, "is_reserved": 0, "fusion_lon": 0.0, "lat": 38.93935416666667, "type": "electric_scooter", "bike_id": "04c43682d84600f7996d94fb87ce9276"}, {"rental_uris": {"android": "https://dc.lft.to/lastmile_qr_scan", "ios": "https://dc.lft.to/lastmile_qr_scan"}, "name": "bb9fffbd4e9cfdcc578c726004dea1e7", "fusion_lat": 0.0, "lon": -76.94121033333333, "is_disabled": 0, "is_reserved": 0, "fusion_lon": 0.0, "lat": 38.90795083333333, "type": "electric_scooter", "bike_id": "bb9fffbd4e9cfdcc578c726004dea1e7"}, {"rental_uris": {"android": "https://dc.lft.to/lastmile_qr_scan", "ios": "https://dc.lft.to/lastmile_qr_scan"}, "name": "2a07a5a66ff78d38d314d896d111a464", "fusion_lat": 0.0, "lon": -77.027552, "is_disabled": 0, "is_reserved": 0, "fusion_lon": 0.0, "lat": 38.954110666666665, "type": "electric_scooter", "bike_id": "2a07a5a66ff78d38d314d896d111a464"}, {"rental_uris": {"android": "https://dc.lft.to/lastmile_qr_scan", "ios": "https://dc.lft.to/lastmile_qr_scan"}, "name": "310825eb29487bcf16a2f74f40cbe460", "fusion_lat": 0.0, "lon": -77.0267485, "is_disabled": 0, "is_reserved": 0, "fusion_lon": 0.0, "lat": 38.91077266666667, "type": "electric_scooter", "bike_id": "310825eb29487bcf16a2f74f40cbe460"}, {"rental_uris": {"android": "https://dc.lft.to/lastmile_qr_scan", "ios": "https://dc.lft.to/lastmile_qr_scan"}, "name": "1d696e374829c5c97201a931d08e254f", "fusion_lat": 0.0, "lon": -76.96670316666666, "is_disabled": 0, "is_reserved": 0, "fusion_lon": 0.0, "lat": 38.9586515, "type": "electric_bike", "bike_id": "1d696e374829c5c97201a931d08e254f"}, {"rental_uris": {"android": "https://dc.lft.to/lastmile_qr_scan", "ios": "https://dc.lft.to/lastmile_qr_scan"}, "name": "023a68f263273f636826b61cc1c45d2f", "fusion_lat": 0.0, "lon": -77.04671366666666, "is_disabled": 0, "is_reserved": 0, "fusion_lon": 0.0, "lat": 38.899043666666664, "type": "electric_scooter", "bike_id": "023a68f263273f636826b61cc1c45d2f"}, {"rental_uris": {"android": "https://dc.lft.to/lastmile_qr_scan", "ios": "https://dc.lft.to/lastmile_qr_scan"}, "name": "5c8443e9ebb34d3dea8d30b90f807318", "fusion_lat": 0.0, "lon": -76.99457383333333, "is_disabled": 0, "is_reserved": 0, "fusion_lon": 0.0, "lat": 38.851622166666665, "type": "electric_scooter", "bike_id": "5c8443e9ebb34d3dea8d30b90f807318"}, {"rental_uris": {"android": "https://dc.lft.to/lastmile_qr_scan", "ios": "https://dc.lft.to/lastmile_qr_scan"}, "name": "6f59b9fcd9faceda009b2ddc0f86c1ab", "fusion_lat": 0.0, "lon": -77.02682466666667, "is_disabled": 0, "is_reserved": 0, "fusion_lon": 0.0, "lat": 38.8984835, "type": "electric_scooter", "bike_id": "6f59b9fcd9faceda009b2ddc0f86c1ab"}, {"rental_uris": {"android": "https://dc.lft.to/lastmile_qr_scan", "ios": "https://dc.lft.to/lastmile_qr_scan"}, "name": "2b8f164a90fb5d33e2bd259197efc127", "fusion_lat": 0.0, "lon": -77.01165933333333, "is_disabled": 0, "is_reserved": 0, "fusion_lon": 0.0, "lat": 38.87201916666667, "type": "electric_scooter", "bike_id": "2b8f164a90fb5d33e2bd259197efc127"}, {"rental_uris": {"android": "https://dc.lft.to/lastmile_qr_scan", "ios": "https://dc.lft.to/lastmile_qr_scan"}, "name": "ccca268170a8d1f89372718ac6163cd3", "fusion_lat": 0.0, "lon": -76.93746983333334, "is_disabled": 0, "is_reserved": 0, "fusion_lon": 0.0, "lat": 38.890137, "type": "electric_scooter", "bike_id": "ccca268170a8d1f89372718ac6163cd3"}, {"rental_uris": {"android": "https://dc.lft.to/lastmile_qr_scan", "ios": "https://dc.lft.to/lastmile_qr_scan"}, "name": "419320cd2c84d4b6aaef02b39558e1a7", "fusion_lat": 0.0, "lon": -77.04642416666667, "is_disabled": 0, "is_reserved": 0, "fusion_lon": 0.0, "lat": 38.90555633333334, "type": "electric_scooter", "bike_id": "419320cd2c84d4b6aaef02b39558e1a7"}, {"rental_uris": {"android": "https://dc.lft.to/lastmile_qr_scan", "ios": "https://dc.lft.to/lastmile_qr_scan"}, "name": "47d411a9f7b949f5e20e952b111626ab", "fusion_lat": 0.0, "lon": -77.01629516666667, "is_disabled": 0, "is_reserved": 0, "fusion_lon": 0.0, "lat": 38.906132166666666, "type": "electric_scooter", "bike_id": "47d411a9f7b949f5e20e952b111626ab"}, {"rental_uris": {"android": "https://dc.lft.to/lastmile_qr_scan", "ios": "https://dc.lft.to/lastmile_qr_scan"}, "name": "2780765125f80df09dac26a896f0fd8e", "fusion_lat": 0.0, "lon": -77.01385433333333, "is_disabled": 0, "is_reserved": 0, "fusion_lon": 0.0, "lat": 38.92840266666666, "type": "electric_scooter", "bike_id": "2780765125f80df09dac26a896f0fd8e"}, {"rental_uris": {"android": "https://dc.lft.to/lastmile_qr_scan", "ios": "https://dc.lft.to/lastmile_qr_scan"}, "name": "93bc44019d1d7911cb3947dd45b5f84e", "fusion_lat": 0.0, "lon": -76.9510685, "is_disabled": 0, "is_reserved": 0, "fusion_lon": 0.0, "lat": 38.887919333333336, "type": "electric_scooter", "bike_id": "93bc44019d1d7911cb3947dd45b5f84e"}, {"rental_uris": {"android": "https://dc.lft.to/lastmile_qr_scan", "ios": "https://dc.lft.to/lastmile_qr_scan"}, "name": "b89baf7ad9b34767ed696199d21d86b1", "fusion_lat": 0.0, "lon": -76.9831695, "is_disabled": 0, "is_reserved": 0, "fusion_lon": 0.0, "lat": 38.888140666666665, "type": "electric_scooter", "bike_id": "b89baf7ad9b34767ed696199d21d86b1"}, {"rental_uris": {"android": "https://dc.lft.to/lastmile_qr_scan", "ios": "https://dc.lft.to/lastmile_qr_scan"}, "name": "1e550baa366082355d0b552be7b04a99", "fusion_lat": 0.0, "lon": -77.0384305, "is_disabled": 0, "is_reserved": 0, "fusion_lon": 0.0, "lat": 38.911469333333336, "type": "electric_scooter", "bike_id": "1e550baa366082355d0b552be7b04a99"}, {"rental_uris": {"android": "https://dc.lft.to/lastmile_qr_scan", "ios": "https://dc.lft.to/lastmile_qr_scan"}, "name": "39d62bc5408e43b0f7afee6f45e9cb75", "fusion_lat": 0.0, "lon": -76.9816775, "is_disabled": 0, "is_reserved": 0, "fusion_lon": 0.0, "lat": 38.959649, "type": "electric_bike", "bike_id": "39d62bc5408e43b0f7afee6f45e9cb75"}, {"rental_uris": {"android": "https://dc.lft.to/lastmile_qr_scan", "ios": "https://dc.lft.to/lastmile_qr_scan"}, "name": "d3b456fd3e48f94e77fda00610f3ba24", "fusion_lat": 0.0, "lon": -77.05193483333333, "is_disabled": 0, "is_reserved": 0, "fusion_lon": 0.0, "lat": 38.925441, "type": "electric_scooter", "bike_id": "d3b456fd3e48f94e77fda00610f3ba24"}, {"rental_uris": {"android": "https://dc.lft.to/lastmile_qr_scan", "ios": "https://dc.lft.to/lastmile_qr_scan"}, "name": "82faeab8a54b7b2703836e216f6691e2", "fusion_lat": 0.0, "lon": -77.02789833333334, "is_disabled": 0, "is_reserved": 0, "fusion_lon": 0.0, "lat": 38.96138033333333, "type": "electric_scooter", "bike_id": "82faeab8a54b7b2703836e216f6691e2"}, {"rental_uris": {"android": "https://dc.lft.to/lastmile_qr_scan", "ios": "https://dc.lft.to/lastmile_qr_scan"}, "name": "c2e0d9255b3c969f0d39ecd15b84fd75", "fusion_lat": 0.0, "lon": -77.03206483333334, "is_disabled": 0, "is_reserved": 0, "fusion_lon": 0.0, "lat": 38.913499333333334, "type": "electric_scooter", "bike_id": "c2e0d9255b3c969f0d39ecd15b84fd75"}, {"rental_uris": {"android": "https://dc.lft.to/lastmile_qr_scan", "ios": "https://dc.lft.to/lastmile_qr_scan"}, "name": "7f99854064bb4e8a0d2c1d55a7641fd5", "fusion_lat": 0.0, "lon": -76.988815, "is_disabled": 0, "is_reserved": 0, "fusion_lon": 0.0, "lat": 38.9064035, "type": "electric_scooter", "bike_id": "7f99854064bb4e8a0d2c1d55a7641fd5"}, {"rental_uris": {"android": "https://dc.lft.to/lastmile_qr_scan", "ios": "https://dc.lft.to/lastmile_qr_scan"}, "name": "02027241719d68869c12882d0a437821", "fusion_lat": 0.0, "lon": -77.04655216666667, "is_disabled": 0, "is_reserved": 0, "fusion_lon": 0.0, "lat": 38.893385333333335, "type": "electric_scooter", "bike_id": "02027241719d68869c12882d0a437821"}, {"rental_uris": {"android": "https://dc.lft.to/lastmile_qr_scan", "ios": "https://dc.lft.to/lastmile_qr_scan"}, "name": "74037d79719af9fc6691235c8679af49", "fusion_lat": 0.0, "lon": -77.04377116666667, "is_disabled": 0, "is_reserved": 0, "fusion_lon": 0.0, "lat": 38.92574483333333, "type": "electric_scooter", "bike_id": "74037d79719af9fc6691235c8679af49"}, {"rental_uris": {"android": "https://dc.lft.to/lastmile_qr_scan", "ios": "https://dc.lft.to/lastmile_qr_scan"}, "name": "77581df383dd88c81dd93bdaae8e19c9", "fusion_lat": 0.0, "lon": -77.080515, "is_disabled": 0, "is_reserved": 0, "fusion_lon": 0.0, "lat": 38.8484005, "type": "electric_bike", "bike_id": "77581df383dd88c81dd93bdaae8e19c9"}, {"rental_uris": {"android": "https://dc.lft.to/lastmile_qr_scan", "ios": "https://dc.lft.to/lastmile_qr_scan"}, "name": "179170d591d85f57ec748e9d926897c0", "fusion_lat": 0.0, "lon": -77.04696666666666, "is_disabled": 0, "is_reserved": 0, "fusion_lon": 0.0, "lat": 38.92104783333333, "type": "electric_scooter", "bike_id": "179170d591d85f57ec748e9d926897c0"}, {"rental_uris": {"android": "https://dc.lft.to/lastmile_qr_scan", "ios": "https://dc.lft.to/lastmile_qr_scan"}, "name": "372fe7bb5deacb2942856c30b81b944c", "fusion_lat": 0.0, "lon": -76.99459866666666, "is_disabled": 0, "is_reserved": 0, "fusion_lon": 0.0, "lat": 38.86223733333333, "type": "electric_scooter", "bike_id": "372fe7bb5deacb2942856c30b81b944c"}, {"rental_uris": {"android": "https://dc.lft.to/lastmile_qr_scan", "ios": "https://dc.lft.to/lastmile_qr_scan"}, "name": "f67619e775c0d9b12412f7253762eb58", "fusion_lat": 0.0, "lon": -77.03288966666666, "is_disabled": 0, "is_reserved": 0, "fusion_lon": 0.0, "lat": 38.956376, "type": "electric_scooter", "bike_id": "f67619e775c0d9b12412f7253762eb58"}, {"rental_uris": {"android": "https://dc.lft.to/lastmile_qr_scan", "ios": "https://dc.lft.to/lastmile_qr_scan"}, "name": "cc9342599d71a9d70d3c18fe661b8cfc", "fusion_lat": 0.0, "lon": -77.02482866666666, "is_disabled": 0, "is_reserved": 0, "fusion_lon": 0.0, "lat": 38.9388335, "type": "electric_scooter", "bike_id": "cc9342599d71a9d70d3c18fe661b8cfc"}, {"rental_uris": {"android": "https://dc.lft.to/lastmile_qr_scan", "ios": "https://dc.lft.to/lastmile_qr_scan"}, "name": "5a53def6212bc2ffcdab7f5ba46be085", "fusion_lat": 0.0, "lon": -76.9553545, "is_disabled": 0, "is_reserved": 0, "fusion_lon": 0.0, "lat": 38.88765983333333, "type": "electric_scooter", "bike_id": "5a53def6212bc2ffcdab7f5ba46be085"}, {"rental_uris": {"android": "https://dc.lft.to/lastmile_qr_scan", "ios": "https://dc.lft.to/lastmile_qr_scan"}, "name": "e5ac5397abdf64dbaf831c37514849c7", "fusion_lat": 0.0, "lon": -77.0304275, "is_disabled": 0, "is_reserved": 0, "fusion_lon": 0.0, "lat": 38.922556, "type": "electric_scooter", "bike_id": "e5ac5397abdf64dbaf831c37514849c7"}, {"rental_uris": {"android": "https://dc.lft.to/lastmile_qr_scan", "ios": "https://dc.lft.to/lastmile_qr_scan"}, "name": "ca7d0794243e09c3ded79908a1369e60", "fusion_lat": 0.0, "lon": -77.02716933333333, "is_disabled": 0, "is_reserved": 0, "fusion_lon": 0.0, "lat": 38.907520166666664, "type": "electric_scooter", "bike_id": "ca7d0794243e09c3ded79908a1369e60"}, {"rental_uris": {"android": "https://dc.lft.to/lastmile_qr_scan", "ios": "https://dc.lft.to/lastmile_qr_scan"}, "name": "9cb48951438c2c0961396783896651b1", "fusion_lat": 0.0, "lon": -76.90817683333333, "is_disabled": 0, "is_reserved": 0, "fusion_lon": 0.0, "lat": 38.9945375, "type": "electric_bike", "bike_id": "9cb48951438c2c0961396783896651b1"}, {"rental_uris": {"android": "https://dc.lft.to/lastmile_qr_scan", "ios": "https://dc.lft.to/lastmile_qr_scan"}, "name": "48d4dc2b9bdbe731ec4a409b0633d232", "fusion_lat": 0.0, "lon": -77.06239833333333, "is_disabled": 0, "is_reserved": 0, "fusion_lon": 0.0, "lat": 38.9052995, "type": "electric_scooter", "bike_id": "48d4dc2b9bdbe731ec4a409b0633d232"}, {"rental_uris": {"android": "https://dc.lft.to/lastmile_qr_scan", "ios": "https://dc.lft.to/lastmile_qr_scan"}, "name": "3bd1d05f9b977215d5a1e27d240168bf", "fusion_lat": 0.0, "lon": -76.97901516666667, "is_disabled": 0, "is_reserved": 0, "fusion_lon": 0.0, "lat": 38.8548985, "type": "electric_bike", "bike_id": "3bd1d05f9b977215d5a1e27d240168bf"}, {"rental_uris": {"android": "https://dc.lft.to/lastmile_qr_scan", "ios": "https://dc.lft.to/lastmile_qr_scan"}, "name": "112684fa72af8ea82eb4347b937419c5", "fusion_lat": 0.0, "lon": -77.03623483333334, "is_disabled": 0, "is_reserved": 0, "fusion_lon": 0.0, "lat": 38.9528885, "type": "electric_scooter", "bike_id": "112684fa72af8ea82eb4347b937419c5"}, {"rental_uris": {"android": "https://dc.lft.to/lastmile_qr_scan", "ios": "https://dc.lft.to/lastmile_qr_scan"}, "name": "f877c134e8702c02a4db61a55debc974", "fusion_lat": 0.0, "lon": -77.10178466666666, "is_disabled": 0, "is_reserved": 0, "fusion_lon": 0.0, "lat": 38.925488666666666, "type": "electric_scooter", "bike_id": "f877c134e8702c02a4db61a55debc974"}, {"rental_uris": {"android": "https://dc.lft.to/lastmile_qr_scan", "ios": "https://dc.lft.to/lastmile_qr_scan"}, "name": "68f2733a8f4a676b9a3437b78378931d", "fusion_lat": 0.0, "lon": -77.00544566666666, "is_disabled": 0, "is_reserved": 0, "fusion_lon": 0.0, "lat": 38.8961585, "type": "electric_scooter", "bike_id": "68f2733a8f4a676b9a3437b78378931d"}, {"rental_uris": {"android": "https://dc.lft.to/lastmile_qr_scan", "ios": "https://dc.lft.to/lastmile_qr_scan"}, "name": "9b9f465adb0c6efb0bc28e345fde9e91", "fusion_lat": 0.0, "lon": -77.00028633333334, "is_disabled": 0, "is_reserved": 0, "fusion_lon": 0.0, "lat": 38.87497416666667, "type": "electric_scooter", "bike_id": "9b9f465adb0c6efb0bc28e345fde9e91"}, {"rental_uris": {"android": "https://dc.lft.to/lastmile_qr_scan", "ios": "https://dc.lft.to/lastmile_qr_scan"}, "name": "6153ac4d00afe2c2b4645459de530e81", "fusion_lat": 0.0, "lon": -77.07862316666667, "is_disabled": 0, "is_reserved": 0, "fusion_lon": 0.0, "lat": 38.92458966666667, "type": "electric_scooter", "bike_id": "6153ac4d00afe2c2b4645459de530e81"}, {"rental_uris": {"android": "https://dc.lft.to/lastmile_qr_scan", "ios": "https://dc.lft.to/lastmile_qr_scan"}, "name": "7bb8173c25a8347f02fe995b3a1ab66f", "fusion_lat": 0.0, "lon": -77.03495966666667, "is_disabled": 0, "is_reserved": 0, "fusion_lon": 0.0, "lat": 38.900293166666664, "type": "electric_scooter", "bike_id": "7bb8173c25a8347f02fe995b3a1ab66f"}, {"rental_uris": {"android": "https://dc.lft.to/lastmile_qr_scan", "ios": "https://dc.lft.to/lastmile_qr_scan"}, "name": "d8776d0d24d5811ff7509ccef42fcd70", "fusion_lat": 0.0, "lon": -77.0477045, "is_disabled": 0, "is_reserved": 0, "fusion_lon": 0.0, "lat": 38.9026235, "type": "electric_scooter", "bike_id": "d8776d0d24d5811ff7509ccef42fcd70"}, {"rental_uris": {"android": "https://dc.lft.to/lastmile_qr_scan", "ios": "https://dc.lft.to/lastmile_qr_scan"}, "name": "3a7168c706cb73c428c7943f87ad6cfe", "fusion_lat": 0.0, "lon": -77.03647516666666, "is_disabled": 0, "is_reserved": 0, "fusion_lon": 0.0, "lat": 38.95493716666667, "type": "electric_scooter", "bike_id": "3a7168c706cb73c428c7943f87ad6cfe"}, {"rental_uris": {"android": "https://dc.lft.to/lastmile_qr_scan", "ios": "https://dc.lft.to/lastmile_qr_scan"}, "name": "0fec8ae4e28071e363409b3256e4c3e7", "fusion_lat": 0.0, "lon": -77.1123295, "is_disabled": 0, "is_reserved": 0, "fusion_lon": 0.0, "lat": 38.82866583333333, "type": "electric_bike", "bike_id": "0fec8ae4e28071e363409b3256e4c3e7"}, {"rental_uris": {"android": "https://dc.lft.to/lastmile_qr_scan", "ios": "https://dc.lft.to/lastmile_qr_scan"}, "name": "5aef7f6e72f1d9d67ab66aba17ad1514", "fusion_lat": 0.0, "lon": -77.07686033333333, "is_disabled": 0, "is_reserved": 0, "fusion_lon": 0.0, "lat": 38.831978666666664, "type": "electric_bike", "bike_id": "5aef7f6e72f1d9d67ab66aba17ad1514"}, {"rental_uris": {"android": "https://dc.lft.to/lastmile_qr_scan", "ios": "https://dc.lft.to/lastmile_qr_scan"}, "name": "7181376c6e268b71b4aa466d09e18443", "fusion_lat": 0.0, "lon": -76.99841866666667, "is_disabled": 0, "is_reserved": 0, "fusion_lon": 0.0, "lat": 38.900257333333336, "type": "electric_scooter", "bike_id": "7181376c6e268b71b4aa466d09e18443"}, {"rental_uris": {"android": "https://dc.lft.to/lastmile_qr_scan", "ios": "https://dc.lft.to/lastmile_qr_scan"}, "name": "1a6d9d1a0515cb9d603e807fed863be1", "fusion_lat": 0.0, "lon": -77.04800066666667, "is_disabled": 0, "is_reserved": 0, "fusion_lon": 0.0, "lat": 38.90265516666667, "type": "electric_scooter", "bike_id": "1a6d9d1a0515cb9d603e807fed863be1"}, {"rental_uris": {"android": "https://dc.lft.to/lastmile_qr_scan", "ios": "https://dc.lft.to/lastmile_qr_scan"}, "name": "e5d519e998faf73fdc75c5043df1f2b7", "fusion_lat": 0.0, "lon": -77.01538416666666, "is_disabled": 0, "is_reserved": 0, "fusion_lon": 0.0, "lat": 38.914527166666666, "type": "electric_scooter", "bike_id": "e5d519e998faf73fdc75c5043df1f2b7"}, {"rental_uris": {"android": "https://dc.lft.to/lastmile_qr_scan", "ios": "https://dc.lft.to/lastmile_qr_scan"}, "name": "1e07dcd83d27d04f77e85b18a06e83f5", "fusion_lat": 0.0, "lon": -77.029157, "is_disabled": 0, "is_reserved": 0, "fusion_lon": 0.0, "lat": 38.90120366666667, "type": "electric_scooter", "bike_id": "1e07dcd83d27d04f77e85b18a06e83f5"}, {"rental_uris": {"android": "https://dc.lft.to/lastmile_qr_scan", "ios": "https://dc.lft.to/lastmile_qr_scan"}, "name": "2c5b8e78e0d0c09f33ad77b54da534a0", "fusion_lat": 0.0, "lon": -77.03032216666666, "is_disabled": 0, "is_reserved": 0, "fusion_lon": 0.0, "lat": 38.926725, "type": "electric_scooter", "bike_id": "2c5b8e78e0d0c09f33ad77b54da534a0"}, {"rental_uris": {"android": "https://dc.lft.to/lastmile_qr_scan", "ios": "https://dc.lft.to/lastmile_qr_scan"}, "name": "28eab2e93bb6898a5a411ac55025c87e", "fusion_lat": 0.0, "lon": -76.93535333333334, "is_disabled": 0, "is_reserved": 0, "fusion_lon": 0.0, "lat": 38.955442, "type": "electric_bike", "bike_id": "28eab2e93bb6898a5a411ac55025c87e"}, {"rental_uris": {"android": "https://dc.lft.to/lastmile_qr_scan", "ios": "https://dc.lft.to/lastmile_qr_scan"}, "name": "f667586ce8d418faaeea137daff2fa2d", "fusion_lat": 0.0, "lon": -77.0324405, "is_disabled": 0, "is_reserved": 0, "fusion_lon": 0.0, "lat": 38.900406833333335, "type": "electric_scooter", "bike_id": "f667586ce8d418faaeea137daff2fa2d"}, {"rental_uris": {"android": "https://dc.lft.to/lastmile_qr_scan", "ios": "https://dc.lft.to/lastmile_qr_scan"}, "name": "cd53f7076a7866aaa3ba145292754f78", "fusion_lat": 0.0, "lon": -77.02527, "is_disabled": 0, "is_reserved": 0, "fusion_lon": 0.0, "lat": 38.903656833333336, "type": "electric_scooter", "bike_id": "cd53f7076a7866aaa3ba145292754f78"}, {"rental_uris": {"android": "https://dc.lft.to/lastmile_qr_scan", "ios": "https://dc.lft.to/lastmile_qr_scan"}, "name": "399e08b25941296c952d1d2a979e213c", "fusion_lat": 0.0, "lon": -77.122627, "is_disabled": 0, "is_reserved": 0, "fusion_lon": 0.0, "lat": 38.891891, "type": "electric_bike", "bike_id": "399e08b25941296c952d1d2a979e213c"}, {"rental_uris": {"android": "https://dc.lft.to/lastmile_qr_scan", "ios": "https://dc.lft.to/lastmile_qr_scan"}, "name": "42f6a9ac79eaa9ef744778059abf2899", "fusion_lat": 0.0, "lon": -77.04602616666666, "is_disabled": 0, "is_reserved": 0, "fusion_lon": 0.0, "lat": 38.9027545, "type": "electric_scooter", "bike_id": "42f6a9ac79eaa9ef744778059abf2899"}, {"rental_uris": {"android": "https://dc.lft.to/lastmile_qr_scan", "ios": "https://dc.lft.to/lastmile_qr_scan"}, "name": "fce9b9685d02b3fc4f46c29c6cbf8298", "fusion_lat": 0.0, "lon": -76.99163733333333, "is_disabled": 0, "is_reserved": 0, "fusion_lon": 0.0, "lat": 38.8792165, "type": "electric_scooter", "bike_id": "fce9b9685d02b3fc4f46c29c6cbf8298"}, {"rental_uris": {"android": "https://dc.lft.to/lastmile_qr_scan", "ios": "https://dc.lft.to/lastmile_qr_scan"}, "name": "c558917d68bd549c8afa3b497c3261ae", "fusion_lat": 0.0, "lon": -77.0021735, "is_disabled": 0, "is_reserved": 0, "fusion_lon": 0.0, "lat": 38.877461333333336, "type": "electric_scooter", "bike_id": "c558917d68bd549c8afa3b497c3261ae"}, {"rental_uris": {"android": "https://dc.lft.to/lastmile_qr_scan", "ios": "https://dc.lft.to/lastmile_qr_scan"}, "name": "de60118ce178a57afb215a6f0419eab7", "fusion_lat": 0.0, "lon": -77.022132, "is_disabled": 0, "is_reserved": 0, "fusion_lon": 0.0, "lat": 38.89631683333333, "type": "electric_bike", "bike_id": "de60118ce178a57afb215a6f0419eab7"}, {"rental_uris": {"android": "https://dc.lft.to/lastmile_qr_scan", "ios": "https://dc.lft.to/lastmile_qr_scan"}, "name": "c07e310921a14ce27908c910aa54f421", "fusion_lat": 0.0, "lon": -77.0109945, "is_disabled": 0, "is_reserved": 0, "fusion_lon": 0.0, "lat": 38.9056095, "type": "electric_scooter", "bike_id": "c07e310921a14ce27908c910aa54f421"}, {"rental_uris": {"android": "https://dc.lft.to/lastmile_qr_scan", "ios": "https://dc.lft.to/lastmile_qr_scan"}, "name": "a39abd672564ef903bd02ab4c9732622", "fusion_lat": 0.0, "lon": -76.95517116666667, "is_disabled": 0, "is_reserved": 0, "fusion_lon": 0.0, "lat": 38.890526, "type": "electric_scooter", "bike_id": "a39abd672564ef903bd02ab4c9732622"}, {"rental_uris": {"android": "https://dc.lft.to/lastmile_qr_scan", "ios": "https://dc.lft.to/lastmile_qr_scan"}, "name": "3e041a673301f8db10ef41c6a18ab3d8", "fusion_lat": 0.0, "lon": -77.04138533333334, "is_disabled": 0, "is_reserved": 0, "fusion_lon": 0.0, "lat": 38.91682383333333, "type": "electric_scooter", "bike_id": "3e041a673301f8db10ef41c6a18ab3d8"}, {"rental_uris": {"android": "https://dc.lft.to/lastmile_qr_scan", "ios": "https://dc.lft.to/lastmile_qr_scan"}, "name": "3d24a4daec08417d8b4ea6eaf4717ac5", "fusion_lat": 0.0, "lon": -76.94636983333334, "is_disabled": 0, "is_reserved": 0, "fusion_lon": 0.0, "lat": 38.8984605, "type": "electric_scooter", "bike_id": "3d24a4daec08417d8b4ea6eaf4717ac5"}, {"rental_uris": {"android": "https://dc.lft.to/lastmile_qr_scan", "ios": "https://dc.lft.to/lastmile_qr_scan"}, "name": "0415c7228c4bd576f4631a8e24ff046f", "fusion_lat": 0.0, "lon": -77.02955216666666, "is_disabled": 0, "is_reserved": 0, "fusion_lon": 0.0, "lat": 38.922383833333335, "type": "electric_scooter", "bike_id": "0415c7228c4bd576f4631a8e24ff046f"}, {"rental_uris": {"android": "https://dc.lft.to/lastmile_qr_scan", "ios": "https://dc.lft.to/lastmile_qr_scan"}, "name": "aa57f3f054f6e3e3729772bc8c230811", "fusion_lat": 0.0, "lon": -76.92777983333333, "is_disabled": 0, "is_reserved": 0, "fusion_lon": 0.0, "lat": 38.902724166666665, "type": "electric_scooter", "bike_id": "aa57f3f054f6e3e3729772bc8c230811"}, {"rental_uris": {"android": "https://dc.lft.to/lastmile_qr_scan", "ios": "https://dc.lft.to/lastmile_qr_scan"}, "name": "ff03423d4c9cfa8956493466524821e4", "fusion_lat": 0.0, "lon": -77.04759316666667, "is_disabled": 0, "is_reserved": 0, "fusion_lon": 0.0, "lat": 38.9014705, "type": "electric_scooter", "bike_id": "ff03423d4c9cfa8956493466524821e4"}, {"rental_uris": {"android": "https://dc.lft.to/lastmile_qr_scan", "ios": "https://dc.lft.to/lastmile_qr_scan"}, "name": "7d2c720712353104e27906b6318327df", "fusion_lat": 0.0, "lon": -77.024914, "is_disabled": 0, "is_reserved": 0, "fusion_lon": 0.0, "lat": 38.94185733333333, "type": "electric_scooter", "bike_id": "7d2c720712353104e27906b6318327df"}, {"rental_uris": {"android": "https://dc.lft.to/lastmile_qr_scan", "ios": "https://dc.lft.to/lastmile_qr_scan"}, "name": "44f451f397824a0d9457c17d796efe6a", "fusion_lat": 0.0, "lon": -77.01952533333333, "is_disabled": 0, "is_reserved": 0, "fusion_lon": 0.0, "lat": 38.922544, "type": "electric_scooter", "bike_id": "44f451f397824a0d9457c17d796efe6a"}, {"rental_uris": {"android": "https://dc.lft.to/lastmile_qr_scan", "ios": "https://dc.lft.to/lastmile_qr_scan"}, "name": "21b04cb73792c23ea9eb219037720ba3", "fusion_lat": 0.0, "lon": -77.02700483333334, "is_disabled": 0, "is_reserved": 0, "fusion_lon": 0.0, "lat": 38.90660416666667, "type": "electric_scooter", "bike_id": "21b04cb73792c23ea9eb219037720ba3"}, {"rental_uris": {"android": "https://dc.lft.to/lastmile_qr_scan", "ios": "https://dc.lft.to/lastmile_qr_scan"}, "name": "8a91c8d3a5002658ba79250ea79925c4", "fusion_lat": 0.0, "lon": -76.99807416666667, "is_disabled": 0, "is_reserved": 0, "fusion_lon": 0.0, "lat": 38.876679833333334, "type": "electric_scooter", "bike_id": "8a91c8d3a5002658ba79250ea79925c4"}, {"rental_uris": {"android": "https://dc.lft.to/lastmile_qr_scan", "ios": "https://dc.lft.to/lastmile_qr_scan"}, "name": "02f0c604868e465dac9edca218f070a4", "fusion_lat": 0.0, "lon": -77.00284333333333, "is_disabled": 0, "is_reserved": 0, "fusion_lon": 0.0, "lat": 38.908821, "type": "electric_scooter", "bike_id": "02f0c604868e465dac9edca218f070a4"}, {"rental_uris": {"android": "https://dc.lft.to/lastmile_qr_scan", "ios": "https://dc.lft.to/lastmile_qr_scan"}, "name": "98e95b35807ff0415412854ab5867b00", "fusion_lat": 0.0, "lon": -76.92912483333333, "is_disabled": 0, "is_reserved": 0, "fusion_lon": 0.0, "lat": 38.98029533333333, "type": "electric_bike", "bike_id": "98e95b35807ff0415412854ab5867b00"}, {"rental_uris": {"android": "https://dc.lft.to/lastmile_qr_scan", "ios": "https://dc.lft.to/lastmile_qr_scan"}, "name": "b3351bb84213429feffd5ed5df2d137b", "fusion_lat": 0.0, "lon": -77.02639116666667, "is_disabled": 0, "is_reserved": 0, "fusion_lon": 0.0, "lat": 38.8811435, "type": "electric_scooter", "bike_id": "b3351bb84213429feffd5ed5df2d137b"}, {"rental_uris": {"android": "https://dc.lft.to/lastmile_qr_scan", "ios": "https://dc.lft.to/lastmile_qr_scan"}, "name": "95cd4d8ff25bcf0204facb9137e5e6fb", "fusion_lat": 0.0, "lon": -77.04565066666666, "is_disabled": 0, "is_reserved": 0, "fusion_lon": 0.0, "lat": 38.907422833333335, "type": "electric_scooter", "bike_id": "95cd4d8ff25bcf0204facb9137e5e6fb"}, {"rental_uris": {"android": "https://dc.lft.to/lastmile_qr_scan", "ios": "https://dc.lft.to/lastmile_qr_scan"}, "name": "65055e0a2a408be476574592e6475df5", "fusion_lat": 0.0, "lon": -77.05793016666667, "is_disabled": 0, "is_reserved": 0, "fusion_lon": 0.0, "lat": 38.93477083333333, "type": "electric_scooter", "bike_id": "65055e0a2a408be476574592e6475df5"},