{"data": {"bikes": [{"rental_uris": {"ios": "https://dc.lft.to/lastmile_qr_scan", "android": "https://dc.lft.to/lastmile_qr_scan"}, "fusion_lat": 0.0, "name": "e7ce5e17b9354a861bb8a98bc058f093", "bike_id": "e7ce5e17b9354a861bb8a98bc058f093", "is_disabled": 0, "type": "electric_scooter", "lat": 38.90044116666667, "lon": -77.0432975, "is_reserved": 0, "fusion_lon": 0.0}, {"rental_uris": {"ios": "https://dc.lft.to/lastmile_qr_scan", "android": "https://dc.lft.to/lastmile_qr_scan"}, "fusion_lat": 0.0, "name": "e4d2c8ad97725644586d390f81847f32", "bike_id": "e4d2c8ad97725644586d390f81847f32", "is_disabled": 0, "type": "electric_scooter", "lat": 38.92226216666667, "lon": -77.022345, "is_reserved": 0, "fusion_lon": 0.0}, {"rental_uris": {"ios": "https://dc.lft.to/lastmile_qr_scan", "android": "https://dc.lft.to/lastmile_qr_scan"}, "fusion_lat": 0.0, "name": "01bf9c1deb4c7234ae82742c47c39452", "bike_id": "01bf9c1deb4c7234ae82742c47c39452", "is_disabled": 0, "type": "electric_bike", "lat": 38.877324333333334, "lon": -76.9948395, "is_reserved": 0, "fusion_lon": 0.0}, {"rental_uris": {"ios": "https://dc.lft.to/lastmile_qr_scan", "android": "https://dc.lft.to/lastmile_qr_scan"}, "fusion_lat": 0.0, "name": "2500f54dc2461f2ecfdfa40b09309568", "bike_id": "2500f54dc2461f2ecfdfa40b09309568", "is_disabled": 0, "type": "electric_scooter", "lat": 38.9046425, "lon": -77.0485225, "is_reserved": 0, "fusion_lon": 0.0}, {"rental_uris": {"ios": "https://dc.lft.to/lastmile_qr_scan", "android": "https://dc.lft.to/lastmile_qr_scan"}, "fusion_lat": 0.0, "name": "c605ce6413af3c7816bed5b94ba358ec", "bike_id": "c605ce6413af3c7816bed5b94ba358ec", "is_disabled": 0, "type": "electric_scooter", "lat": 38.88671683333333, "lon": -76.93614783333334, "is_reserved": 0, "fusion_lon": 0.0}, {"rental_uris": {"ios": "https://dc.lft.to/lastmile_qr_scan", "android": "https://dc.lft.to/lastmile_qr_scan"}, "fusion_lat": 0.0, "name": "c1c9c380b81817990e03a51439a87349", "bike_id": "c1c9c380b81817990e03a51439a87349", "is_disabled": 0, "type": "electric_scooter", "lat": 38.9440405, "lon": -77.02623883333334, "is_reserved": 0, "fusion_lon": 0.0}, {"rental_uris": {"ios": "https://dc.lft.to/lastmile_qr_scan", "android": "https://dc.lft.to/lastmile_qr_scan"}, "fusion_lat": 0.0, "name": "9eac2df5ced26219011788e4fab019a1", "bike_id": "9eac2df5ced26219011788e4fab019a1", "is_disabled": 0, "type": "electric_scooter", "lat": 38.90056583333333, "lon": -77.05142583333334, "is_reserved": 0, "fusion_lon": 0.0}, {"rental_uris": {"ios": "https://dc.lft.to/lastmile_qr_scan", "android": "https://dc.lft.to/lastmile_qr_scan"}, "fusion_lat": 0.0, "name": "c74d8ce343d24368598b3c2726af14d4", "bike_id": "c74d8ce343d24368598b3c2726af14d4", "is_disabled": 0, "type": "electric_scooter", "lat": 38.916891166666666, "lon": -77.0297535, "is_reserved": 0, "fusion_lon": 0.0}, {"rental_uris": {"ios": "https://dc.lft.to/lastmile_qr_scan", "android": "https://dc.lft.to/lastmile_qr_scan"}, "fusion_lat": 0.0, "name": "796fdb689a232a485723db32147f1ce0", "bike_id": "796fdb689a232a485723db32147f1ce0", "is_disabled": 0, "type": "electric_scooter", "lat": 38.892202, "lon": -77.0321895, "is_reserved": 0, "fusion_lon": 0.0}, {"rental_uris": {"ios": "https://dc.lft.to/lastmile_qr_scan", "android": "https://dc.lft.to/lastmile_qr_scan"}, "fusion_lat": 0.0, "name": "59c6c1c37d4f73f828ad112be74c5505", "bike_id": "59c6c1c37d4f73f828ad112be74c5505", "is_disabled": 0, "type": "electric_scooter", "lat": 38.907826, "lon": -77.03858283333334, "is_reserved": 0, "fusion_lon": 0.0}, {"rental_uris": {"ios": "https://dc.lft.to/lastmile_qr_scan", "android": "https://dc.lft.to/lastmile_qr_scan"}, "fusion_lat": 0.0, "name": "e834908502221474f38249b4d9c63d2c", "bike_id": "e834908502221474f38249b4d9c63d2c", "is_disabled": 0, "type": "electric_scooter", "lat": 38.92803933333333, "lon": -77.03241783333333, "is_reserved": 0, "fusion_lon": 0.0}, {"rental_uris": {"ios": "https://dc.lft.to/lastmile_qr_scan", "android": "https://dc.lft.to/lastmile_qr_scan"}, "fusion_lat": 0.0, "name": "d7db64576ca715c55cccb9d3f842ded4", "bike_id": "d7db64576ca715c55cccb9d3f842ded4", "is_disabled": 0, "type": "electric_scooter", "lat": 38.91695683333333, "lon": -77.03138216666666, "is_reserved": 0, "fusion_lon": 0.0}, {"rental_uris": {"ios": "https://dc.lft.to/lastmile_qr_scan", "android": "https://dc.lft.to/lastmile_qr_scan"}, "fusion_lat": 0.0, "name": "73b532d4d53af85e64fdc01fed7aa58c", "bike_id": "73b532d4d53af85e64fdc01fed7aa58c", "is_disabled": 0, "type": "electric_scooter", "lat": 38.91548216666666, "lon": -77.02216066666666, "is_reserved": 0, "fusion_lon": 0.0}, {"rental_uris": {"ios": "https://dc.lft.to/lastmile_qr_scan", "android": "https://dc.lft.to/lastmile_qr_scan"}, "fusion_lat": 0.0, "name": "e84b2d3b91ac82249fba28586779e08a", "bike_id": "e84b2d3b91ac82249fba28586779e08a", "is_disabled": 0, "type": "electric_scooter", "lat": 38.911057166666666, "lon": -77.04321766666666, "is_reserved": 0, "fusion_lon": 0.0}, {"rental_uris": {"ios": "https://dc.lft.to/lastmile_qr_scan", "android": "https://dc.lft.to/lastmile_qr_scan"}, "fusion_lat": 0.0, "name": "a6898c6cbd6a4fa81e68ab39fb14f956", "bike_id": "a6898c6cbd6a4fa81e68ab39fb14f956", "is_disabled": 0, "type": "electric_scooter", "lat": 38.91556516666667, "lon": -77.03862833333334, "is_reserved": 0, "fusion_lon": 0.0}, {"rental_uris": {"ios": "https://dc.lft.to/lastmile_qr_scan", "android": "https://dc.lft.to/lastmile_qr_scan"}, "fusion_lat": 0.0, "name": "e74b9d39e7a6c52726423b1a24c6e0ac", "bike_id": "e74b9d39e7a6c52726423b1a24c6e0ac", "is_disabled": 0, "type": "electric_scooter", "lat": 38.88023283333333, "lon": -76.98823666666667, "is_reserved": 0, "fusion_lon": 0.0}, {"rental_uris": {"ios": "https://dc.lft.to/lastmile_qr_scan", "android": "https://dc.lft.to/lastmile_qr_scan"}, "fusion_lat": 0.0, "name": "70caec1f78f256ae42760ce8582995ed", "bike_id": "70caec1f78f256ae42760ce8582995ed", "is_disabled": 0, "type": "electric_bike", "lat": 38.918134, "lon": -77.22333966666666, "is_reserved": 0, "fusion_lon": 0.0}, {"rental_uris": {"ios": "https://dc.lft.to/lastmile_qr_scan", "android": "https://dc.lft.to/lastmile_qr_scan"}, "fusion_lat": 0.0, "name": "ae6da6ad3c4152014e45ec238de0cfc0", "bike_id": "ae6da6ad3c4152014e45ec238de0cfc0", "is_disabled": 0, "type": "electric_scooter", "lat": 38.89012983333333, "lon": -76.9373325, "is_reserved": 0, "fusion_lon": 0.0}, {"rental_uris": {"ios": "https://dc.lft.to/lastmile_qr_scan", "android": "https://dc.lft.to/lastmile_qr_scan"}, "fusion_lat": 0.0, "name": "e1528444c3b65a826372c503ba84aad2", "bike_id": "e1528444c3b65a826372c503ba84aad2", "is_disabled": 0, "type": "electric_scooter", "lat": 38.8762895, "lon": -76.965187, "is_reserved": 0, "fusion_lon": 0.0}, {"rental_uris": {"ios": "https://dc.lft.to/lastmile_qr_scan", "android": "https://dc.lft.to/lastmile_qr_scan"}, "fusion_lat": 0.0, "name": "1fc45ed0d63f98fc139a68edea8f881d", "bike_id": "1fc45ed0d63f98fc139a68edea8f881d", "is_disabled": 0, "type": "electric_bike", "lat": 38.969271166666665, "lon": -77.0261845, "is_reserved": 0, "fusion_lon": 0.0}, {"rental_uris": {"ios": "https://dc.lft.to/lastmile_qr_scan", "android": "https://dc.lft.to/lastmile_qr_scan"}, "fusion_lat": 0.0, "name": "6aafa010e62cbf28826b493e2150dd65", "bike_id": "6aafa010e62cbf28826b493e2150dd65", "is_disabled": 0, "type": "electric_scooter", "lat": 38.91442033333333, "lon": -77.02287866666667, "is_reserved": 0, "fusion_lon": 0.0}, {"rental_uris": {"ios": "https://dc.lft.to/lastmile_qr_scan", "android": "https://dc.lft.to/lastmile_qr_scan"}, "fusion_lat": 0.0, "name": "78801cbb27ccf0ae13f7577187dc771b", "bike_id": "78801cbb27ccf0ae13f7577187dc771b", "is_disabled": 0, "type": "electric_bike", "lat": 38.87372516666667, "lon": -77.11800233333334, "is_reserved": 0, "fusion_lon": 0.0}, {"rental_uris": {"ios": "https://dc.lft.to/lastmile_qr_scan", "android": "https://dc.lft.to/lastmile_qr_scan"}, "fusion_lat": 0.0, "name": "616b8fef44d5f6c2e6673760c7082c71", "bike_id": "616b8fef44d5f6c2e6673760c7082c71", "is_disabled": 0, "type": "electric_scooter", "lat": 38.90637666666667, "lon": -77.038841, "is_reserved": 0, "fusion_lon": 0.0}, {"rental_uris": {"ios": "https://dc.lft.to/lastmile_qr_scan", "android": "https://dc.lft.to/lastmile_qr_scan"}, "fusion_lat": 0.0, "name": "2fe62c5dcbaca7f639ccdcfb7d74dd81", "bike_id": "2fe62c5dcbaca7f639ccdcfb7d74dd81", "is_disabled": 0, "type": "electric_scooter", "lat": 38.8762875, "lon": -76.9652695, "is_reserved": 0, "fusion_lon": 0.0}, {"rental_uris": {"ios": "https://dc.lft.to/lastmile_qr_scan", "android": "https://dc.lft.to/lastmile_qr_scan"}, "fusion_lat": 0.0, "name": "1e0299227b47d652aa4487620a6a560e", "bike_id": "1e0299227b47d652aa4487620a6a560e", "is_disabled": 0, "type": "electric_scooter", "lat": 38.92676616666667, "lon": -77.0155545, "is_reserved": 0, "fusion_lon": 0.0}, {"rental_uris": {"ios": "https://dc.lft.to/lastmile_qr_scan", "android": "https://dc.lft.to/lastmile_qr_scan"}, "fusion_lat": 0.0, "name": "1a71d96e2e428de799271182e9effaa8", "bike_id": "1a71d96e2e428de799271182e9effaa8", "is_disabled": 0, "type": "electric_scooter", "lat": 38.916136, "lon": -77.04497483333333, "is_reserved": 0, "fusion_lon": 0.0}, {"rental_uris": {"ios": "https://dc.lft.to/lastmile_qr_scan", "android": "https://dc.lft.to/lastmile_qr_scan"}, "fusion_lat": 0.0, "name": "a4024bf0eaca4e094626a2b989d27f3f", "bike_id": "a4024bf0eaca4e094626a2b989d27f3f", "is_disabled": 0, "type": "electric_scooter", "lat": 38.911123833333335, "lon": -77.04477366666667, "is_reserved": 0, "fusion_lon": 0.0}, {"rental_uris": {"ios": "https://dc.lft.to/lastmile_qr_scan", "android": "https://dc.lft.to/lastmile_qr_scan"}, "fusion_lat": 0.0, "name": "3c65dc976c0f89e1654ee88fbc3d4c8c", "bike_id": "3c65dc976c0f89e1654ee88fbc3d4c8c", "is_disabled": 0, "type": "electric_scooter", "lat": 38.907299333333334, "lon": -77.02977233333333, "is_reserved": 0, "fusion_lon": 0.0}, {"rental_uris": {"ios": "https://dc.lft.to/lastmile_qr_scan", "android": "https://dc.lft.to/lastmile_qr_scan"}, "fusion_lat": 0.0, "name": "8a46369a0da2a6825e2c831d8c7aa90d", "bike_id": "8a46369a0da2a6825e2c831d8c7aa90d", "is_disabled": 0, "type": "electric_scooter", "lat": 38.881093, "lon": -76.99852166666666, "is_reserved": 0, "fusion_lon": 0.0}, {"rental_uris": {"ios": "https://dc.lft.to/lastmile_qr_scan", "android": "https://dc.lft.to/lastmile_qr_scan"}, "fusion_lat": 0.0, "name": "b6f8ff4acc2f5a89702c965a4922dbbe", "bike_id": "b6f8ff4acc2f5a89702c965a4922dbbe", "is_disabled": 0, "type": "electric_scooter", "lat": 38.88106833333333, "lon": -77.01648816666666, "is_reserved": 0, "fusion_lon": 0.0}, {"rental_uris": {"ios": "https://dc.lft.to/lastmile_qr_scan", "android": "https://dc.lft.to/lastmile_qr_scan"}, "fusion_lat": 0.0, "name": "763d10fab7e2ee5800be55040988808d", "bike_id": "763d10fab7e2ee5800be55040988808d", "is_disabled": 0, "type": "electric_scooter", "lat": 38.92153066666667, "lon": -77.02424816666667, "is_reserved": 0, "fusion_lon": 0.0}, {"rental_uris": {"ios": "https://dc.lft.to/lastmile_qr_scan", "android": "https://dc.lft.to/lastmile_qr_scan"}, "fusion_lat": 0.0, "name": "9062ae841114b74435ba7448a68d8027", "bike_id": "9062ae841114b74435ba7448a68d8027", "is_disabled": 0, "type": "electric_scooter", "lat": 38.87088033333333, "lon": -76.96861866666667, "is_reserved": 0, "fusion_lon": 0.0}, {"rental_uris": {"ios": "https://dc.lft.to/lastmile_qr_scan", "android": "https://dc.lft.to/lastmile_qr_scan"}, "fusion_lat": 0.0, "name": "0367bb60b8e67fd3d6a824b26f5bbb76", "bike_id": "0367bb60b8e67fd3d6a824b26f5bbb76", "is_disabled": 0, "type": "electric_scooter", "lat": 38.914391, "lon": -77.0217375, "is_reserved": 0, "fusion_lon": 0.0}, {"rental_uris": {"ios": "https://dc.lft.to/lastmile_qr_scan", "android": "https://dc.lft.to/lastmile_qr_scan"}, "fusion_lat": 0.0, "name": "7c12de0114deb87da9d21194f2a47ded", "bike_id": "7c12de0114deb87da9d21194f2a47ded", "is_disabled": 0, "type": "electric_scooter", "lat": 38.89873433333333, "lon": -77.02948516666666, "is_reserved": 0, "fusion_lon": 0.0}, {"rental_uris": {"ios": "https://dc.lft.to/lastmile_qr_scan", "android": "https://dc.lft.to/lastmile_qr_scan"}, "fusion_lat": 0.0, "name": "8161a6a5a75cea7840744b547c475adf", "bike_id": "8161a6a5a75cea7840744b547c475adf", "is_disabled": 0, "type": "electric_scooter", "lat": 38.907851, "lon": -77.0095615, "is_reserved": 0, "fusion_lon": 0.0}, {"rental_uris": {"ios": "https://dc.lft.to/lastmile_qr_scan", "android": "https://dc.lft.to/lastmile_qr_scan"}, "fusion_lat": 0.0, "name": "94cb52cefa12df25161fe797ebda51a0", "bike_id": "94cb52cefa12df25161fe797ebda51a0", "is_disabled": 0, "type": "electric_scooter", "lat": 38.90782316666667, "lon": -77.0342905, "is_reserved": 0, "fusion_lon": 0.0}, {"rental_uris": {"ios": "https://dc.lft.to/lastmile_qr_scan", "android": "https://dc.lft.to/lastmile_qr_scan"}, "fusion_lat": 0.0, "name": "47134b67290e39e097f1f596975d2faf", "bike_id": "47134b67290e39e097f1f596975d2faf", "is_disabled": 0, "type": "electric_scooter", "lat": 38.908663833333335, "lon": -77.04617816666666, "is_reserved": 0, "fusion_lon": 0.0}, {"rental_uris": {"ios": "https://dc.lft.to/lastmile_qr_scan", "android": "https://dc.lft.to/lastmile_qr_scan"}, "fusion_lat": 0.0, "name": "d2d967d092b4c2ea942d129da103891a", "bike_id": "d2d967d092b4c2ea942d129da103891a", "is_disabled": 0, "type": "electric_scooter", "lat": 38.8442975, "lon": -76.99779083333334, "is_reserved": 0, "fusion_lon": 0.0}, {"rental_uris": {"ios": "https://dc.lft.to/lastmile_qr_scan", "android": "https://dc.lft.to/lastmile_qr_scan"}, "fusion_lat": 0.0, "name": "e3977159c98c5cdd71be67248b2fe198", "bike_id": "e3977159c98c5cdd71be67248b2fe198", "is_disabled": 0, "type": "electric_scooter", "lat": 38.916926833333335, "lon": -77.02600066666666, "is_reserved": 0, "fusion_lon": 0.0}, {"rental_uris": {"ios": "https://dc.lft.to/lastmile_qr_scan", "android": "https://dc.lft.to/lastmile_qr_scan"}, "fusion_lat": 0.0, "name": "10380790b58d83b3e62081117da296fb", "bike_id": "10380790b58d83b3e62081117da296fb", "is_disabled": 0, "type": "electric_scooter", "lat": 38.86238933333333, "lon": -76.99490966666667, "is_reserved": 0, "fusion_lon": 0.0}, {"rental_uris": {"ios": "https://dc.lft.to/lastmile_qr_scan", "android": "https://dc.lft.to/lastmile_qr_scan"}, "fusion_lat": 0.0, "name": "334f5735c8265580ecabd71d90c99551", "bike_id": "334f5735c8265580ecabd71d90c99551", "is_disabled": 0, "type": "electric_scooter", "lat": 38.898399166666664, "lon": -76.94637466666667, "is_reserved": 0, "fusion_lon": 0.0}, {"rental_uris": {"ios": "https://dc.lft.to/lastmile_qr_scan", "android": "https://dc.lft.to/lastmile_qr_scan"}, "fusion_lat": 0.0, "name": "d69b8039208eb0973b7af19fe98f83fc", "bike_id": "d69b8039208eb0973b7af19fe98f83fc", "is_disabled": 0, "type": "electric_scooter", "lat": 38.95780283333333, "lon": -77.02759216666666, "is_reserved": 0, "fusion_lon": 0.0}, {"rental_uris": {"ios": "https://dc.lft.to/lastmile_qr_scan", "android": "https://dc.lft.to/lastmile_qr_scan"}, "fusion_lat": 0.0, "name": "02ac52475407f355573a764f0bcaa67e", "bike_id": "02ac52475407f355573a764f0bcaa67e", "is_disabled": 0, "type": "electric_scooter", "lat": 38.9191835, "lon": -77.0318045, "is_reserved": 0, "fusion_lon": 0.0}, {"rental_uris": {"ios": "https://dc.lft.to/lastmile_qr_scan", "android": "https://dc.lft.to/lastmile_qr_scan"}, "fusion_lat": 0.0, "name": "7be1a1ee076d1c1916e06b98b1e84b4c", "bike_id": "7be1a1ee076d1c1916e06b98b1e84b4c", "is_disabled": 0, "type": "electric_scooter", "lat": 38.924564833333335, "lon": -77.0522835, "is_reserved": 0, "fusion_lon": 0.0}, {"rental_uris": {"ios": "https://dc.lft.to/lastmile_qr_scan", "android": "https://dc.lft.to/lastmile_qr_scan"}, "fusion_lat": 0.0, "name": "fb3d81712c5bd868c238b37502f1b36a", "bike_id": "fb3d81712c5bd868c238b37502f1b36a", "is_disabled": 0, "type": "electric_scooter", "lat": 38.884247, "lon": -76.95751433333334, "is_reserved": 0, "fusion_lon": 0.0}, {"rental_uris": {"ios": "https://dc.lft.to/lastmile_qr_scan", "android": "https://dc.lft.to/lastmile_qr_scan"}, "fusion_lat": 0.0, "name": "1471a7a80083ce735fc438400519114c", "bike_id": "1471a7a80083ce735fc438400519114c", "is_disabled": 0, "type": "electric_scooter", "lat": 38.91985416666667, "lon": -77.03265066666667, "is_reserved": 0, "fusion_lon": 0.0}, {"rental_uris": {"ios": "https://dc.lft.to/lastmile_qr_scan", "android": "https://dc.lft.to/lastmile_qr_scan"}, "fusion_lat": 0.0, "name": "910d7620624bcea98e3bf300daf6097d", "bike_id": "910d7620624bcea98e3bf300daf6097d", "is_disabled": 0, "type": "electric_scooter", "lat": 38.904531666666664, "lon": -77.04482533333334, "is_reserved": 0, "fusion_lon": 0.0}, {"rental_uris": {"ios": "https://dc.lft.to/lastmile_qr_scan", "android": "https://dc.lft.to/lastmile_qr_scan"}, "fusion_lat": 0.0, "name": "e16d00d574fd06d642327eb7bb18c2e2", "bike_id": "e16d00d574fd06d642327eb7bb18c2e2", "is_disabled": 0, "type": "electric_scooter", "lat": 38.90532366666667, "lon": -77.05936116666666, "is_reserved": 0, "fusion_lon": 0.0}, {"rental_uris": {"ios": "https://dc.lft.to/lastmile_qr_scan", "android": "https://dc.lft.to/lastmile_qr_scan"}, "fusion_lat": 0.0, "name": "119218bf20d79889bce409b50500ffcb", "bike_id": "119218bf20d79889bce409b50500ffcb", "is_disabled": 0, "type": "electric_scooter", "lat": 38.89293816666667, "lon": -77.02178933333333, "is_reserved": 0, "fusion_lon": 0.0}, {"rental_uris": {"ios": "https://dc.lft.to/lastmile_qr_scan", "android": "https://dc.lft.to/lastmile_qr_scan"}, "fusion_lat": 0.0, "name": "498525fb48e9b266a19fb7684f5aab84", "bike_id": "498525fb48e9b266a19fb7684f5aab84", "is_disabled": 0, "type": "electric_scooter", "lat": 38.900837, "lon": -77.04914633333334, "is_reserved": 0, "fusion_lon": 0.0}, {"rental_uris": {"ios": "https://dc.lft.to/lastmile_qr_scan", "android": "https://dc.lft.to/lastmile_qr_scan"}, "fusion_lat": 0.0, "name": "f1efb59897ece64a1852d99d300f369a", "bike_id": "f1efb59897ece64a1852d99d300f369a", "is_disabled": 0, "type": "electric_scooter", "lat": 38.903226333333336, "lon": -77.0345505, "is_reserved": 0, "fusion_lon": 0.0}, {"rental_uris": {"ios": "https://dc.lft.to/lastmile_qr_scan", "android": "https://dc.lft.to/lastmile_qr_scan"}, "fusion_lat": 0.0, "name": "268c39989f7741c3267dfe1f0bc79edf", "bike_id": "268c39989f7741c3267dfe1f0bc79edf", "is_disabled": 0, "type": "electric_scooter", "lat": 38.918603, "lon": -77.04591633333334, "is_reserved": 0, "fusion_lon": 0.0}, {"rental_uris": {"ios": "https://dc.lft.to/lastmile_qr_scan", "android": "https://dc.lft.to/lastmile_qr_scan"}, "fusion_lat": 0.0, "name": "7e6da1f589c6c28d802a791683120683", "bike_id": "7e6da1f589c6c28d802a791683120683", "is_disabled": 0, "type": "electric_scooter", "lat": 38.898788, "lon": -76.93179883333333, "is_reserved": 0, "fusion_lon": 0.0}, {"rental_uris": {"ios": "https://dc.lft.to/lastmile_qr_scan", "android": "https://dc.lft.to/lastmile_qr_scan"}, "fusion_lat": 0.0, "name": "58a98a79178bc967f61a6f619a371d02", "bike_id": "58a98a79178bc967f61a6f619a371d02", "is_disabled": 0, "type": "electric_scooter", "lat": 38.91329616666667, "lon": -77.0318545, "is_reserved": 0, "fusion_lon": 0.0}, {"rental_uris": {"ios": "https://dc.lft.to/lastmile_qr_scan", "android": "https://dc.lft.to/lastmile_qr_scan"}, "fusion_lat": 0.0, "name": "7fb8da09cf599c850d98994934a43a13", "bike_id": "7fb8da09cf599c850d98994934a43a13", "is_disabled": 0, "type": "electric_scooter", "lat": 38.92815983333333, "lon": -77.02873683333334, "is_reserved": 0, "fusion_lon": 0.0}, {"rental_uris": {"ios": "https://dc.lft.to/lastmile_qr_scan", "android": "https://dc.lft.to/lastmile_qr_scan"}, "fusion_lat": 0.0, "name": "2f984bbfdcca236212bfd7a55f2826fd", "bike_id": "2f984bbfdcca236212bfd7a55f2826fd", "is_disabled": 0, "type": "electric_scooter", "lat": 38.866545333333335, "lon": -76.98520333333333, "is_reserved": 0, "fusion_lon": 0.0}, {"rental_uris": {"ios": "https://dc.lft.to/lastmile_qr_scan", "android": "https://dc.lft.to/lastmile_qr_scan"}, "fusion_lat": 0.0, "name": "84ec8264b7b2875e127c12ed27d97ae9", "bike_id": "84ec8264b7b2875e127c12ed27d97ae9", "is_disabled": 0, "type": "electric_scooter", "lat": 38.91873483333333, "lon": -77.0357005, "is_reserved": 0, "fusion_lon": 0.0}, {"rental_uris": {"ios": "https://dc.lft.to/lastmile_qr_scan", "android": "https://dc.lft.to/lastmile_qr_scan"}, "fusion_lat": 0.0, "name": "9ef9568a1cc186957a4ec69716b46424", "bike_id": "9ef9568a1cc186957a4ec69716b46424", "is_disabled": 0, "type": "electric_scooter", "lat": 38.8922665, "lon": -77.050043, "is_reserved": 0, "fusion_lon": 0.0}, {"rental_uris": {"ios": "https://dc.lft.to/lastmile_qr_scan", "android": "https://dc.lft.to/lastmile_qr_scan"}, "fusion_lat": 0.0, "name": "ec0e726f6f2e77d102bc66ccb360e9d0", "bike_id": "ec0e726f6f2e77d102bc66ccb360e9d0", "is_disabled": 0, "type": "electric_scooter", "lat": 38.908322166666665, "lon": -77.04462816666667, "is_reserved": 0, "fusion_lon": 0.0}, {"rental_uris": {"ios": "https://dc.lft.to/lastmile_qr_scan", "android": "https://dc.lft.to/lastmile_qr_scan"}, "fusion_lat": 0.0, "name": "81a90ed97284975842ba99e497280769", "bike_id": "81a90ed97284975842ba99e497280769", "is_disabled": 0, "type": "electric_scooter", "lat": 38.9285435, "lon": -77.030955, "is_reserved": 0, "fusion_lon": 0.0}, {"rental_uris": {"ios": "https://dc.lft.to/lastmile_qr_scan", "android": "https://dc.lft.to/lastmile_qr_scan"}, "fusion_lat": 0.0, "name": "41ec2a78079a8b42d084c718f577158f", "bike_id": "41ec2a78079a8b42d084c718f577158f", "is_disabled": 0, "type": "electric_scooter", "lat": 38.9076075, "lon": -77.00091866666666, "is_reserved": 0, "fusion_lon": 0.0}, {"rental_uris": {"ios": "https://dc.lft.to/lastmile_qr_scan", "android": "https://dc.lft.to/lastmile_qr_scan"}, "fusion_lat": 0.0, "name": "477b3840bcf77cc7c55f2845eb12eed0", "bike_id": "477b3840bcf77cc7c55f2845eb12eed0", "is_disabled": 0, "type": "electric_bike", "lat": 38.86206883333333, "lon": -76.99779, "is_reserved": 0, "fusion_lon": 0.0}, {"rental_uris": {"ios": "https://dc.lft.to/lastmile_qr_scan", "android": "https://dc.lft.to/lastmile_qr_scan"}, "fusion_lat": 0.0, "name": "f40e02436b1473fe51a35c3bef3f574a", "bike_id": "f40e02436b1473fe51a35c3bef3f574a", "is_disabled": 0, "type": "electric_scooter", "lat": 38.900701, "lon": -77.0271045, "is_reserved": 0, "fusion_lon": 0.0}, {"rental_uris": {"ios": "https://dc.lft.to/lastmile_qr_scan", "android": "https://dc.lft.to/lastmile_qr_scan"}, "fusion_lat": 0.0, "name": "c46e3877748d1d2c739adb7e71751c42", "bike_id": "c46e3877748d1d2c739adb7e71751c42", "is_disabled": 0, "type": "electric_scooter", "lat": 38.935301, "lon": -77.0728835, "is_reserved": 0, "fusion_lon": 0.0}, {"rental_uris": {"ios": "https://dc.lft.to/lastmile_qr_scan", "android": "https://dc.lft.to/lastmile_qr_scan"}, "fusion_lat": 0.0, "name": "5e22356ce674e25cf6c106110c35084f", "bike_id": "5e22356ce674e25cf6c106110c35084f", "is_disabled": 0, "type": "electric_scooter", "lat": 38.90731316666667, "lon": -77.03447066666666, "is_reserved": 0, "fusion_lon": 0.0}, {"rental_uris": {"ios": "https://dc.lft.to/lastmile_qr_scan", "android": "https://dc.lft.to/lastmile_qr_scan"}, "fusion_lat": 0.0, "name": "b551bc0a6315b48b07f1ff2a36b8b656", "bike_id": "b551bc0a6315b48b07f1ff2a36b8b656", "is_disabled": 0, "type": "electric_scooter", "lat": 38.938824833333335, "lon": -77.024833, "is_reserved": 0, "fusion_lon": 0.0}, {"rental_uris": {"ios": "https://dc.lft.to/lastmile_qr_scan", "android": "https://dc.lft.to/lastmile_qr_scan"}, "fusion_lat": 0.0, "name": "f63e3e8a2818b46ee2610fcc56204741", "bike_id": "f63e3e8a2818b46ee2610fcc56204741", "is_disabled": 0, "type": "electric_scooter", "lat": 38.8919335, "lon": -77.00309083333333, "is_reserved": 0, "fusion_lon": 0.0}, {"rental_uris": {"ios": "https://dc.lft.to/lastmile_qr_scan", "android": "https://dc.lft.to/lastmile_qr_scan"}, "fusion_lat": 0.0, "name": "f515a57564d6aed0888b45520ae49577", "bike_id": "f515a57564d6aed0888b45520ae49577", "is_disabled": 0, "type": "electric_scooter", "lat": 38.9237525, "lon": -77.02559166666667, "is_reserved": 0, "fusion_lon": 0.0}, {"rental_uris": {"ios": "https://dc.lft.to/lastmile_qr_scan", "android": "https://dc.lft.to/lastmile_qr_scan"}, "fusion_lat": 0.0, "name": "19d22c0eddff0c59251480a1b6aab4d2", "bike_id": "19d22c0eddff0c59251480a1b6aab4d2", "is_disabled": 0, "type": "electric_scooter", "lat": 38.902772166666665, "lon": -77.0579955, "is_reserved": 0, "fusion_lon": 0.0}, {"rental_uris": {"ios": "https://dc.lft.to/lastmile_qr_scan", "android": "https://dc.lft.to/lastmile_qr_scan"}, "fusion_lat": 0.0, "name": "a855b6254fc84cb95afa4742e1578870", "bike_id": "a855b6254fc84cb95afa4742e1578870", "is_disabled": 0, "type": "electric_scooter", "lat": 38.924412833333335, "lon": -77.04028183333334, "is_reserved": 0, "fusion_lon": 0.0}, {"rental_uris": {"ios": "https://dc.lft.to/lastmile_qr_scan", "android": "https://dc.lft.to/lastmile_qr_scan"}, "fusion_lat": 0.0, "name": "68f3c7bcfa546a802901951e7ed33017", "bike_id": "68f3c7bcfa546a802901951e7ed33017", "is_disabled": 0, "type": "electric_scooter", "lat": 38.90392933333333, "lon": -76.98093216666666, "is_reserved": 0, "fusion_lon": 0.0}, {"rental_uris": {"ios": "https://dc.lft.to/lastmile_qr_scan", "android": "https://dc.lft.to/lastmile_qr_scan"}, "fusion_lat": 0.0, "name": "c654d8d9c25a2ac8ee87eb0ade90fbab", "bike_id": "c654d8d9c25a2ac8ee87eb0ade90fbab", "is_disabled": 0, "type": "electric_scooter", "lat": 38.90347833333333, "lon": -77.01104666666667, "is_reserved": 0, "fusion_lon": 0.0}, {"rental_uris": {"ios": "https://dc.lft.to/lastmile_qr_scan", "android": "https://dc.lft.to/lastmile_qr_scan"}, "fusion_lat": 0.0, "name": "e8918a488aded384415167d26164beb0", "bike_id": "e8918a488aded384415167d26164beb0", "is_disabled": 0, "type": "electric_scooter", "lat": 38.89044033333333, "lon": -76.93769333333333, "is_reserved": 0, "fusion_lon": 0.0}, {"rental_uris": {"ios": "https://dc.lft.to/lastmile_qr_scan", "android": "https://dc.lft.to/lastmile_qr_scan"}, "fusion_lat": 0.0, "name": "f63c594487cfca536b85396227d9799c", "bike_id": "f63c594487cfca536b85396227d9799c", "is_disabled": 0, "type": "electric_scooter", "lat": 38.9045485, "lon": -77.0325635, "is_reserved": 0, "fusion_lon": 0.0}, {"rental_uris": {"ios": "https://dc.lft.to/lastmile_qr_scan", "android": "https://dc.lft.to/lastmile_qr_scan"}, "fusion_lat": 0.0, "name": "1758217949660d78eb8982a9684f5ac6", "bike_id": "1758217949660d78eb8982a9684f5ac6", "is_disabled": 0, "type": "electric_bike", "lat": 38.840288, "lon": -76.9758415, "is_reserved": 0, "fusion_lon": 0.0}, {"rental_uris": {"ios": "https://dc.lft.to/lastmile_qr_scan", "android": "https://dc.lft.to/lastmile_qr_scan"}, "fusion_lat": 0.0, "name": "40ab8f679f07cae259b15aeb78cdb57e", "bike_id": "40ab8f679f07cae259b15aeb78cdb57e", "is_disabled": 0, "type": "electric_scooter", "lat": 38.902527666666664, "lon": -77.01742433333334, "is_reserved": 0, "fusion_lon": 0.0}, {"rental_uris": {"ios": "https://dc.lft.to/lastmile_qr_scan", "android": "https://dc.lft.to/lastmile_qr_scan"}, "fusion_lat": 0.0, "name": "b5cf5ecd6e52437e611030512ff321a4", "bike_id": "b5cf5ecd6e52437e611030512ff321a4", "is_disabled": 0, "type": "electric_scooter", "lat": 38.902402, "lon": -77.034365, "is_reserved": 0, "fusion_lon": 0.0}, {"rental_uris": {"ios": "https://dc.lft.to/lastmile_qr_scan", "android": "https://dc.lft.to/lastmile_qr_scan"}, "fusion_lat": 0.0, "name": "19b7494d6f837eb56a35232613bf9ff6", "bike_id": "19b7494d6f837eb56a35232613bf9ff6", "is_disabled": 0, "type": "electric_scooter", "lat": 38.911169, "lon": -77.04360883333334, "is_reserved": 0, "fusion_lon": 0.0}, {"rental_uris": {"ios": "https://dc.lft.to/lastmile_qr_scan", "android": "https://dc.lft.to/lastmile_qr_scan"}, "fusion_lat": 0.0, "name": "3767d18dbcb2acaee298cd54c0a39149", "bike_id": "3767d18dbcb2acaee298cd54c0a39149", "is_disabled": 0, "type": "electric_scooter", "lat": 38.90587, "lon": -77.00599233333334, "is_reserved": 0, "fusion_lon": 0.0}, {"rental_uris": {"ios": "https://dc.lft.to/lastmile_qr_scan", "android": "https://dc.lft.to/lastmile_qr_scan"}, "fusion_lat": 0.0, "name": "36d3ba2b1ab72a78c698044584398c95", "bike_id": "36d3ba2b1ab72a78c698044584398c95", "is_disabled": 0, "type": "electric_scooter", "lat": 38.892216833333336, "lon": -77.026562, "is_reserved": 0, "fusion_lon": 0.0}, {"rental_uris": {"ios": "https://dc.lft.to/lastmile_qr_scan", "android": "https://dc.lft.to/lastmile_qr_scan"}, "fusion_lat": 0.0, "name": "b47858da25c5ef1ebea9079781311f9f", "bike_id": "b47858da25c5ef1ebea9079781311f9f", "is_disabled": 0, "type": "electric_scooter", "lat": 38.91327183333333, "lon": -77.03258633333333, "is_reserved": 0, "fusion_lon": 0.0}, {"rental_uris": {"ios": "https://dc.lft.to/lastmile_qr_scan", "android": "https://dc.lft.to/lastmile_qr_scan"}, "fusion_lat": 0.0, "name": "23f4cee3f9582503bb69b954fc600cd8", "bike_id": "23f4cee3f9582503bb69b954fc600cd8", "is_disabled": 0, "type": "electric_scooter", "lat": 38.90235916666666, "lon": -77.05945166666666, "is_reserved": 0, "fusion_lon": 0.0}, {"rental_uris": {"ios": "https://dc.lft.to/lastmile_qr_scan", "android": "https://dc.lft.to/lastmile_qr_scan"}, "fusion_lat": 0.0, "name": "ca6aebe7a05493ddf47c70bc687fa6cf", "bike_id": "ca6aebe7a05493ddf47c70bc687fa6cf", "is_disabled": 0, "type": "electric_scooter", "lat": 38.8921765, "lon": -77.04686133333334, "is_reserved": 0, "fusion_lon": 0.0}, {"rental_uris": {"ios": "https://dc.lft.to/lastmile_qr_scan", "android": "https://dc.lft.to/lastmile_qr_scan"}, "fusion_lat": 0.0, "name": "5546ee5bb2a4140ac0c15b1335d4c31d", "bike_id": "5546ee5bb2a4140ac0c15b1335d4c31d", "is_disabled": 0, "type": "electric_scooter", "lat": 38.9408725, "lon": -77.02722833333333, "is_reserved": 0, "fusion_lon": 0.0}, {"rental_uris": {"ios": "https://dc.lft.to/lastmile_qr_scan", "android": "https://dc.lft.to/lastmile_qr_scan"}, "fusion_lat": 0.0, "name": "f2e3dce37e7e9a2929e42c55c86a86d5", "bike_id": "f2e3dce37e7e9a2929e42c55c86a86d5", "is_disabled": 0, "type": "electric_scooter", "lat": 38.934581666666666, "lon": -77.0386795, "is_reserved": 0, "fusion_lon": 0.0}, {"rental_uris": {"ios": "https://dc.lft.to/lastmile_qr_scan", "android": "https://dc.lft.to/lastmile_qr_scan"}, "fusion_lat": 0.0, "name": "c466b9dbd2484f8a47cd6be5e1318d14", "bike_id": "c466b9dbd2484f8a47cd6be5e1318d14", "is_disabled": 0, "type": "electric_scooter", "lat": 38.88118933333333, "lon": -77.01657366666667, "is_reserved": 0, "fusion_lon": 0.0}, {"rental_uris": {"ios": "https://dc.lft.to/lastmile_qr_scan", "android": "https://dc.lft.to/lastmile_qr_scan"}, "fusion_lat": 0.0, "name": "5d908bbbb42af886afcbfe217ed1f457", "bike_id": "5d908bbbb42af886afcbfe217ed1f457", "is_disabled": 0, "type": "electric_scooter", "lat": 38.909758833333335, "lon": -77.03443616666667, "is_reserved": 0, "fusion_lon": 0.0}, {"rental_uris": {"ios": "https://dc.lft.to/lastmile_qr_scan", "android": "https://dc.lft.to/lastmile_qr_scan"}, "fusion_lat": 0.0, "name": "482d1e1c607c8a91721d273e42b39305", "bike_id": "482d1e1c607c8a91721d273e42b39305", "is_disabled": 0, "type": "electric_bike", "lat": 38.9595395, "lon": -77.10090466666666, "is_reserved": 0, "fusion_lon": 0.0}, {"rental_uris": {"ios": "https://dc.lft.to/lastmile_qr_scan", "android": "https://dc.lft.to/lastmile_qr_scan"}, "fusion_lat": 0.0, "name": "fd040ff1c5a08a3b32400bbb38cd81f3", "bike_id": "fd040ff1c5a08a3b32400bbb38cd81f3", "is_disabled": 0, "type": "electric_bike", "lat": 38.920614, "lon": -76.9976505, "is_reserved": 0, "fusion_lon": 0.0}, {"rental_uris": {"ios": "https://dc.lft.to/lastmile_qr_scan", "android": "https://dc.lft.to/lastmile_qr_scan"}, "fusion_lat": 0.0, "name": "ef2fd3a0e24b88e8c0274b86bcaa9e75", "bike_id": "ef2fd3a0e24b88e8c0274b86bcaa9e75", "is_disabled": 0, "type": "electric_scooter", "lat": 38.895134, "lon": -77.02802166666666, "is_reserved": 0, "fusion_lon": 0.0}, {"rental_uris": {"ios": "https://dc.lft.to/lastmile_qr_scan", "android": "https://dc.lft.to/lastmile_qr_scan"}, "fusion_lat": 0.0, "name": "047c4c7e31da60f52879e1399160ca3b", "bike_id": "047c4c7e31da60f52879e1399160ca3b", "is_disabled": 0, "type": "electric_scooter", "lat": 38.917465166666666, "lon": -77.02402133333334, "is_reserved": 0, "fusion_lon": 0.0}, {"rental_uris": {"ios": "https://dc.lft.to/lastmile_qr_scan", "android": "https://dc.lft.to/lastmile_qr_scan"}, "fusion_lat": 0.0, "name": "5e3cbcd20a765ebfa88038fd68a594d0", "bike_id": "5e3cbcd20a765ebfa88038fd68a594d0", "is_disabled": 0, "type": "electric_scooter", "lat": 38.94957216666667, "lon": -77.02722483333334, "is_reserved": 0, "fusion_lon": 0.0}, {"rental_uris": {"ios": "https://dc.lft.to/lastmile_qr_scan", "android": "https://dc.lft.to/lastmile_qr_scan"}, "fusion_lat": 0.0, "name": "afe67fa408d5fc75731d4b246a1c2cb7", "bike_id": "afe67fa408d5fc75731d4b246a1c2cb7", "is_disabled": 0, "type": "electric_scooter", "lat": 38.91226266666666, "lon": -77.03183333333334, "is_reserved": 0, "fusion_lon": 0.0}, {"rental_uris": {"ios": "https://dc.lft.to/lastmile_qr_scan", "android": "https://dc.lft.to/lastmile_qr_scan"}, "fusion_lat": 0.0, "name": "5b22f201648ef3c5ea5e775670fc11ee", "bike_id": "5b22f201648ef3c5ea5e775670fc11ee", "is_disabled": 0, "type": "electric_scooter", "lat": 38.906321166666665, "lon": -77.00605183333333, "is_reserved": 0, "fusion_lon": 0.0}, {"rental_uris": {"ios": "https://dc.lft.to/lastmile_qr_scan", "android": "https://dc.lft.to/lastmile_qr_scan"}, "fusion_lat": 0.0, "name": "5ff63c60d0ea2a4d48d502e31689a8bb", "bike_id": "5ff63c60d0ea2a4d48d502e31689a8bb", "is_disabled": 0, "type": "electric_bike", "lat": 38.945521, "lon": -77.027274, "is_reserved": 0, "fusion_lon": 0.0}, {"rental_uris": {"ios": "https://dc.lft.to/lastmile_qr_scan", "android": "https://dc.lft.to/lastmile_qr_scan"}, "fusion_lat": 0.0, "name": "a7774af668ba263d755c77f273f2b689", "bike_id": "a7774af668ba263d755c77f273f2b689", "is_disabled": 0, "type": "electric_scooter", "lat": 38.8921985, "lon": -77.0321315, "is_reserved": 0, "fusion_lon": 0.0}, {"rental_uris": {"ios": "https://dc.lft.to/lastmile_qr_scan", "android": "https://dc.lft.to/lastmile_qr_scan"}, "fusion_lat": 0.0, "name": "03e6470b5dc95fdc8eb1824f5a70af40", "bike_id": "03e6470b5dc95fdc8eb1824f5a70af40", "is_disabled": 0, "type": "electric_scooter", "lat": 38.91748966666667, "lon": -77.02400866666666, "is_reserved": 0, "fusion_lon": 0.0}, {"rental_uris": {"ios": "https://dc.lft.to/lastmile_qr_scan", "android": "https://dc.lft.to/lastmile_qr_scan"}, "fusion_lat": 0.0, "name": "fee30f7787be4b6b000116a6d0577c44", "bike_id": "fee30f7787be4b6b000116a6d0577c44", "is_disabled": 0, "type": "electric_scooter", "lat": 38.8982245, "lon": -76.98779133333333, "is_reserved": 0, "fusion_lon": 0.0}, {"rental_uris": {"ios": "https://dc.lft.to/lastmile_qr_scan", "android": "https://dc.lft.to/lastmile_qr_scan"}, "fusion_lat": 0.0, "name": "a47bb9c52726c2b22875dc53acd2d7cd", "bike_id": "a47bb9c52726c2b22875dc53acd2d7cd", "is_disabled": 0, "type": "electric_scooter", "lat": 38.9235805, "lon": -77.051354, "is_reserved": 0, "fusion_lon": 0.0}, {"rental_uris": {"ios": "https://dc.lft.to/lastmile_qr_scan", "android": "https://dc.lft.to/lastmile_qr_scan"}, "fusion_lat": 0.0, "name": "1a0bc592b58a9c9a6ff2da95d7c3e5ca", "bike_id": "1a0bc592b58a9c9a6ff2da95d7c3e5ca", "is_disabled": 0, "type": "electric_scooter", "lat": 38.919245333333336, "lon": -77.03416266666666, "is_reserved": 0, "fusion_lon": 0.0}, {"rental_uris": {"ios": "https://dc.lft.to/lastmile_qr_scan", "android": "https://dc.lft.to/lastmile_qr_scan"}, "fusion_lat": 0.0, "name": "14fdc6f6debb6e4df0f9a9ceec3dfc53", "bike_id": "14fdc6f6debb6e4df0f9a9ceec3dfc53", "is_disabled": 0, "type": "electric_scooter", "lat": 38.921986, "lon": -77.042439, "is_reserved": 0, "fusion_lon": 0.0}, {"rental_uris": {"ios": "https://dc.lft.to/lastmile_qr_scan", "android": "https://dc.lft.to/lastmile_qr_scan"}, "fusion_lat": 0.0, "name": "91764f5b8c069cef7e1aa75619e40264", "bike_id": "91764f5b8c069cef7e1aa75619e40264", "is_disabled": 0, "type": "electric_scooter", "lat": 38.92669816666667, "lon": -77.032274, "is_reserved": 0, "fusion_lon": 0.0}, {"rental_uris": {"ios": "https://dc.lft.to/lastmile_qr_scan", "android": "https://dc.lft.to/lastmile_qr_scan"}, "fusion_lat": 0.0, "name": "acfb10be2165c5725b502feae7596d48", "bike_id": "acfb10be2165c5725b502feae7596d48", "is_disabled": 0, "type": "electric_scooter", "lat": 38.92649266666667, "lon": -77.04137766666666, "is_reserved": 0, "fusion_lon": 0.0}, {"rental_uris": {"ios": "https://dc.lft.to/lastmile_qr_scan", "android": "https://dc.lft.to/lastmile_qr_scan"}, "fusion_lat": 0.0, "name": "f9e1478e808115c9450d7ab28d05be3a", "bike_id": "f9e1478e808115c9450d7ab28d05be3a", "is_disabled": 0, "type": "electric_bike", "lat": 38.93356466666667, "lon": -77.09964133333334, "is_reserved": 0, "fusion_lon": 0.0}, {"rental_uris": {"ios": "https://dc.lft.to/lastmile_qr_scan", "android": "https://dc.lft.to/lastmile_qr_scan"}, "fusion_lat": 0.0, "name": "d07d6aa6bf3c6d57fa0aa0db1c978d65", "bike_id": "d07d6aa6bf3c6d57fa0aa0db1c978d65", "is_disabled": 0, "type": "electric_scooter", "lat": 38.90003033333333, "lon": -77.04487616666667, "is_reserved": 0, "fusion_lon": 0.0}, {"rental_uris": {"ios": "https://dc.lft.to/lastmile_qr_scan", "android": "https://dc.lft.to/lastmile_qr_scan"}, "fusion_lat": 0.0, "name": "b8c03c0e7426bcd0842d9e5d866d2652", "bike_id": "b8c03c0e7426bcd0842d9e5d866d2652", "is_disabled": 0, "type": "electric_bike", "lat": 38.871066, "lon": -76.92329116666667, "is_reserved": 0, "fusion_lon": 0.0}, {"rental_uris": {"ios": "https://dc.lft.to/lastmile_qr_scan", "android": "https://dc.lft.to/lastmile_qr_scan"}, "fusion_lat": 0.0, "name": "4efeb96574fde7b6d246a8db45a2a8d3", "bike_id": "4efeb96574fde7b6d246a8db45a2a8d3", "is_disabled": 0, "type": "electric_scooter", "lat": 38.91839733333333, "lon": -77.03438766666666, "is_reserved": 0, "fusion_lon": 0.0}, {"rental_uris": {"ios": "https://dc.lft.to/lastmile_qr_scan", "android": "https://dc.lft.to/lastmile_qr_scan"}, "fusion_lat": 0.0, "name": "6f3aa2fde47e6dad09e865a4e6f02a77", "bike_id": "6f3aa2fde47e6dad09e865a4e6f02a77", "is_disabled": 0, "type": "electric_scooter", "lat": 38.89976333333333, "lon": -77.03181, "is_reserved": 0, "fusion_lon": 0.0}, {"rental_uris": {"ios": "https://dc.lft.to/lastmile_qr_scan", "android": "https://dc.lft.to/lastmile_qr_scan"}, "fusion_lat": 0.0, "name": "e340265aa37b197ace6f549d85e5a504", "bike_id": "e340265aa37b197ace6f549d85e5a504", "is_disabled": 0, "type": "electric_scooter", "lat": 38.89753616666667, "lon": -76.941886, "is_reserved": 0, "fusion_lon": 0.0}, {"rental_uris": {"ios": "https://dc.lft.to/lastmile_qr_scan", "android": "https://dc.lft.to/lastmile_qr_scan"}, "fusion_lat": 0.0, "name": "249f2f16d62e71708a7e03f4700cc686", "bike_id": "249f2f16d62e71708a7e03f4700cc686", "is_disabled": 0, "type": "electric_scooter", "lat": 38.92365566666667, "lon": -77.019162, "is_reserved": 0, "fusion_lon": 0.0}, {"rental_uris": {"ios": "https://dc.lft.to/lastmile_qr_scan", "android": "https://dc.lft.to/lastmile_qr_scan"}, "fusion_lat": 0.0, "name": "86bb296f5d522331c4096c51ad6c45d8", "bike_id": "86bb296f5d522331c4096c51ad6c45d8", "is_disabled": 0, "type": "electric_scooter", "lat": 38.90961516666667, "lon": -77.02580683333333, "is_reserved": 0, "fusion_lon": 0.0}, {"rental_uris": {"ios": "https://dc.lft.to/lastmile_qr_scan", "android": "https://dc.lft.to/lastmile_qr_scan"}, "fusion_lat": 0.0, "name": "53bf4c230ef539eeb6b4a437b856c0b7", "bike_id": "53bf4c230ef539eeb6b4a437b856c0b7", "is_disabled": 0, "type": "electric_scooter", "lat": 38.917376833333336, "lon": -77.0230245, "is_reserved": 0, "fusion_lon": 0.0}, {"rental_uris": {"ios": "https://dc.lft.to/lastmile_qr_scan", "android": "https://dc.lft.to/lastmile_qr_scan"}, "fusion_lat": 0.0, "name": "6065b35cfcb4df896470629d80bb2a40", "bike_id": "6065b35cfcb4df896470629d80bb2a40", "is_disabled": 0, "type": "electric_scooter", "lat": 38.91689433333333, "lon": -77.02602516666667, "is_reserved": 0, "fusion_lon": 0.0}, {"rental_uris": {"ios": "https://dc.lft.to/lastmile_qr_scan", "android": "https://dc.lft.to/lastmile_qr_scan"}, "fusion_lat": 0.0, "name": "673090b572b006769ee31d1216577a36", "bike_id": "673090b572b006769ee31d1216577a36", "is_disabled": 0, "type": "electric_scooter", "lat": 38.918022, "lon": -77.04018933333333, "is_reserved": 0, "fusion_lon": 0.0}, {"rental_uris": {"ios": "https://dc.lft.to/lastmile_qr_scan", "android": "https://dc.lft.to/lastmile_qr_scan"}, "fusion_lat": 0.0, "name": "1b204cceea5ba543fde8f31a63c2ad6e", "bike_id": "1b204cceea5ba543fde8f31a63c2ad6e", "is_disabled": 0, "type": "electric_scooter", "lat": 38.94926233333333, "lon": -77.019451, "is_reserved": 0, "fusion_lon": 0.0}, {"rental_uris": {"ios": "https://dc.lft.to/lastmile_qr_scan", "android": "https://dc.lft.to/lastmile_qr_scan"}, "fusion_lat": 0.0, "name": "6a1f09c094e0501749ad8e087bb7ba6b", "bike_id": "6a1f09c094e0501749ad8e087bb7ba6b", "is_disabled": 0, "type": "electric_scooter", "lat": 38.922403333333335, "lon": -77.03409283333333, "is_reserved": 0, "fusion_lon": 0.0}, {"rental_uris": {"ios": "https://dc.lft.to/lastmile_qr_scan", "android": "https://dc.lft.to/lastmile_qr_scan"}, "fusion_lat": 0.0, "name": "ce61199150bebb9e7e7f71d965cef21b", "bike_id": "ce61199150bebb9e7e7f71d965cef21b", "is_disabled": 0, "type": "electric_scooter", "lat": 38.91781233333333, "lon": -77.02348433333333, "is_reserved": 0, "fusion_lon": 0.0}, {"rental_uris": {"ios": "https://dc.lft.to/lastmile_qr_scan", "android": "https://dc.lft.to/lastmile_qr_scan"}, "fusion_lat": 0.0, "name": "108093eac627bec6162a550d9071d880", "bike_id": "108093eac627bec6162a550d9071d880", "is_disabled": 0, "type": "electric_scooter", "lat": 38.9072415, "lon": -77.03422883333333, "is_reserved": 0, "fusion_lon": 0.0}, {"rental_uris": {"ios": "https://dc.lft.to/lastmile_qr_scan", "android": "https://dc.lft.to/lastmile_qr_scan"}, "fusion_lat": 0.0, "name": "8925d4b0c5f4420fdba518ee4f28effa", "bike_id": "8925d4b0c5f4420fdba518ee4f28effa", "is_disabled": 0, "type": "electric_scooter", "lat": 38.926677166666664, "lon": -77.014724, "is_reserved": 0, "fusion_lon": 0.0}, {"rental_uris": {"ios": "https://dc.lft.to/lastmile_qr_scan", "android": "https://dc.lft.to/lastmile_qr_scan"}, "fusion_lat": 0.0, "name": "43d245610f821916628c3627abf11dbd", "bike_id": "43d245610f821916628c3627abf11dbd", "is_disabled": 0, "type": "electric_scooter", "lat": 38.90948783333333, "lon": -77.04060583333333, "is_reserved": 0, "fusion_lon": 0.0}, {"rental_uris": {"ios": "https://dc.lft.to/lastmile_qr_scan", "android": "https://dc.lft.to/lastmile_qr_scan"}, "fusion_lat": 0.0, "name": "917a2fbacfdab26655634c580ca7624f", "bike_id": "917a2fbacfdab26655634c580ca7624f", "is_disabled": 0, "type": "electric_bike", "lat": 38.855101, "lon": -77.12015966666667, "is_reserved": 0, "fusion_lon": 0.0}, {"rental_uris": {"ios": "https://dc.lft.to/lastmile_qr_scan", "android": "https://dc.lft.to/lastmile_qr_scan"}, "fusion_lat": 0.0, "name": "35a45459ecc3218372a6855be01e26a8", "bike_id": "35a45459ecc3218372a6855be01e26a8", "is_disabled": 0, "type": "electric_scooter", "lat": 38.91564233333333, "lon": -77.03150183333334, "is_reserved": 0, "fusion_lon": 0.0}, {"rental_uris": {"ios": "https://dc.lft.to/lastmile_qr_scan", "android": "https://dc.lft.to/lastmile_qr_scan"}, "fusion_lat": 0.0, "name": "62a6d824364b616321c19c3b1cab1c1d", "bike_id": "62a6d824364b616321c19c3b1cab1c1d", "is_disabled": 0, "type": "electric_scooter", "lat": 38.90787916666667, "lon": -77.03188566666667, "is_reserved": 0, "fusion_lon": 0.0}, {"rental_uris": {"ios": "https://dc.lft.to/lastmile_qr_scan", "android": "https://dc.lft.to/lastmile_qr_scan"}, "fusion_lat": 0.0, "name": "374c3e919fc27fd641dac1fb0b0fd26b", "bike_id": "374c3e919fc27fd641dac1fb0b0fd26b", "is_disabled": 0, "type": "electric_scooter", "lat": 38.92439666666667, "lon": -77.02154066666667, "is_reserved": 0, "fusion_lon": 0.0}, {"rental_uris": {"ios": "https://dc.lft.to/lastmile_qr_scan", "android": "https://dc.lft.to/lastmile_qr_scan"}, "fusion_lat": 0.0, "name": "8ecc135920a22416f1ae2b7953189917", "bike_id": "8ecc135920a22416f1ae2b7953189917", "is_disabled": 0, "type": "electric_scooter", "lat": 38.88583633333333, "lon": -77.017584, "is_reserved": 0, "fusion_lon": 0.0}, {"rental_uris": {"ios": "https://dc.lft.to/lastmile_qr_scan", "android": "https://dc.lft.to/lastmile_qr_scan"}, "fusion_lat": 0.0, "name": "a150274069367974ea35f329b67012ad", "bike_id": "a150274069367974ea35f329b67012ad", "is_disabled": 0, "type": "electric_scooter", "lat": 38.8957125, "lon": -77.0321085, "is_reserved": 0, "fusion_lon": 0.0}, {"rental_uris": {"ios": "https://dc.lft.to/lastmile_qr_scan", "android": "https://dc.lft.to/lastmile_qr_scan"}, "fusion_lat": 0.0, "name": "dcdee181c80ddddb9d0dd03d249c746a", "bike_id": "dcdee181c80ddddb9d0dd03d249c746a", "is_disabled": 0, "type": "electric_scooter", "lat": 38.892211, "lon": -77.041981, "is_reserved": 0, "fusion_lon": 0.0}, {"rental_uris": {"ios": "https://dc.lft.to/lastmile_qr_scan", "android": "https://dc.lft.to/lastmile_qr_scan"}, "fusion_lat": 0.0, "name": "18035030be40a1d33150a8b39f372ef1", "bike_id": "18035030be40a1d33150a8b39f372ef1", "is_disabled": 0, "type": "electric_scooter", "lat": 38.90415933333333, "lon": -77.06890383333334, "is_reserved": 0, "fusion_lon": 0.0}, {"rental_uris": {"ios": "https://dc.lft.to/lastmile_qr_scan", "android": "https://dc.lft.to/lastmile_qr_scan"}, "fusion_lat": 0.0, "name": "7d6a36d711dfc4cc35b6443af2701255", "bike_id": "7d6a36d711dfc4cc35b6443af2701255", "is_disabled": 0, "type": "electric_scooter", "lat": 38.903827166666666, "lon": -77.04503883333334, "is_reserved": 0, "fusion_lon": 0.0}, {"rental_uris": {"ios": "https://dc.lft.to/lastmile_qr_scan", "android": "https://dc.lft.to/lastmile_qr_scan"}, "fusion_lat": 0.0, "name": "562b932db1bb4f8a2e549ed16da57ecd", "bike_id": "562b932db1bb4f8a2e549ed16da57ecd", "is_disabled": 0, "type": "electric_scooter", "lat": 38.902932166666666, "lon": -77.03385133333333, "is_reserved": 0, "fusion_lon": 0.0}, {"rental_uris": {"ios": "https://dc.lft.to/lastmile_qr_scan", "android": "https://dc.lft.to/lastmile_qr_scan"}, "fusion_lat": 0.0, "name": "df909fb9eb99e9e4633fa5c2f5e1acb5", "bike_id": "df909fb9eb99e9e4633fa5c2f5e1acb5", "is_disabled": 0, "type": "electric_scooter", "lat": 38.878955, "lon": -76.9351895, "is_reserved": 0, "fusion_lon": 0.0}, {"rental_uris": {"ios": "https://dc.lft.to/lastmile_qr_scan", "android": "https://dc.lft.to/lastmile_qr_scan"}, "fusion_lat": 0.0, "name": "c496ffb04fc0b2d6c31b0129fdd6222d", "bike_id": "c496ffb04fc0b2d6c31b0129fdd6222d", "is_disabled": 0, "type": "electric_scooter", "lat": 38.92336733333333, "lon": -77.05331533333333, "is_reserved": 0, "fusion_lon": 0.0}, {"rental_uris": {"ios": "https://dc.lft.to/lastmile_qr_scan", "android": "https://dc.lft.to/lastmile_qr_scan"}, "fusion_lat": 0.0, "name": "3d901b6b93542551e91db915e9dc4852", "bike_id": "3d901b6b93542551e91db915e9dc4852", "is_disabled": 0, "type": "electric_scooter", "lat": 38.89875983333334, "lon": -77.0327695, "is_reserved": 0, "fusion_lon": 0.0}, {"rental_uris": {"ios": "https://dc.lft.to/lastmile_qr_scan", "android": "https://dc.lft.to/lastmile_qr_scan"}, "fusion_lat": 0.0, "name": "34b4b634259e3249d6086a0aa1fee4bc", "bike_id": "34b4b634259e3249d6086a0aa1fee4bc", "is_disabled": 0, "type": "electric_scooter", "lat": 38.90272016666667, "lon": -77.03445266666667, "is_reserved": 0, "fusion_lon": 0.0}, {"rental_uris": {"ios": "https://dc.lft.to/lastmile_qr_scan", "android": "https://dc.lft.to/lastmile_qr_scan"}, "fusion_lat": 0.0, "name": "6d66f591b320295905932e50f539d00a", "bike_id": "6d66f591b320295905932e50f539d00a", "is_disabled": 0, "type": "electric_scooter", "lat": 38.9327375, "lon": -77.03517, "is_reserved": 0, "fusion_lon": 0.0}, {"rental_uris": {"ios": "https://dc.lft.to/lastmile_qr_scan", "android": "https://dc.lft.to/lastmile_qr_scan"}, "fusion_lat": 0.0, "name": "6d5d7c0c970f9013aa1beeb0fd1d9f9e", "bike_id": "6d5d7c0c970f9013aa1beeb0fd1d9f9e", "is_disabled": 0, "type": "electric_scooter", "lat": 38.88593083333333, "lon": -77.01766433333333, "is_reserved": 0, "fusion_lon": 0.0}, {"rental_uris": {"ios": "https://dc.lft.to/lastmile_qr_scan", "android": "https://dc.lft.to/lastmile_qr_scan"}, "fusion_lat": 0.0, "name": "af321f2a95b3385517ae9315b806ca05", "bike_id": "af321f2a95b3385517ae9315b806ca05", "is_disabled": 0, "type": "electric_scooter", "lat": 38.895503, "lon": -77.009184, "is_reserved": 0, "fusion_lon": 0.0}, {"rental_uris": {"ios": "https://dc.lft.to/lastmile_qr_scan", "android": "https://dc.lft.to/lastmile_qr_scan"}, "fusion_lat": 0.0, "name": "385d975d105502d0931132b090c739fc", "bike_id": "385d975d105502d0931132b090c739fc", "is_disabled": 0, "type": "electric_scooter", "lat": 38.93939983333333, "lon": -77.07524116666667, "is_reserved": 0, "fusion_lon": 0.0}, {"rental_uris": {"ios": "https://dc.lft.to/lastmile_qr_scan", "android": "https://dc.lft.to/lastmile_qr_scan"}, "fusion_lat": 0.0, "name": "dc231d32d9a6b4ebf2103bde26be7798", "bike_id": "dc231d32d9a6b4ebf2103bde26be7798", "is_disabled": 0, "type": "electric_scooter", "lat": 38.9307335, "lon": -77.02156666666667, "is_reserved": 0, "fusion_lon": 0.0}, {"rental_uris": {"ios": "https://dc.lft.to/lastmile_qr_scan", "android": "https://dc.lft.to/lastmile_qr_scan"}, "fusion_lat": 0.0, "name": "3b4e95aeb9c18d75043b97d3d566cb2d", "bike_id": "3b4e95aeb9c18d75043b97d3d566cb2d", "is_disabled": 0, "type": "electric_scooter", "lat": 38.92389933333333, "lon": -77.02691783333333, "is_reserved": 0, "fusion_lon": 0.0}, {"rental_uris": {"ios": "https://dc.lft.to/lastmile_qr_scan", "android": "https://dc.lft.to/lastmile_qr_scan"}, "fusion_lat": 0.0, "name": "c002ec1f09aa8d3fdeed4609a9e71001", "bike_id": "c002ec1f09aa8d3fdeed4609a9e71001", "is_disabled": 0, "type": "electric_scooter", "lat": 38.918128, "lon": -77.03127266666667, "is_reserved": 0, "fusion_lon": 0.0}, {"rental_uris": {"ios": "https://dc.lft.to/lastmile_qr_scan", "android": "https://dc.lft.to/lastmile_qr_scan"}, "fusion_lat": 0.0, "name": "03b4e15daf62bd5310ccae7312c259f4", "bike_id": "03b4e15daf62bd5310ccae7312c259f4", "is_disabled": 0, "type": "electric_scooter", "lat": 38.932006666666666, "lon": -77.03854733333333, "is_reserved": 0, "fusion_lon": 0.0}, {"rental_uris": {"ios": "https://dc.lft.to/lastmile_qr_scan", "android": "https://dc.lft.to/lastmile_qr_scan"}, "fusion_lat": 0.0, "name": "abc9d7fda2511a9335aa1089478cc4f8", "bike_id": "abc9d7fda2511a9335aa1089478cc4f8", "is_disabled": 0, "type": "electric_scooter", "lat": 38.90942616666667, "lon": -77.059349, "is_reserved": 0, "fusion_lon": 0.0}, {"rental_uris": {"ios": "https://dc.lft.to/lastmile_qr_scan", "android": "https://dc.lft.to/lastmile_qr_scan"}, "fusion_lat": 0.0, "name": "138a7e2b04063a548fc66bee34fa2718", "bike_id": "138a7e2b04063a548fc66bee34fa2718", "is_disabled": 0, "type": "electric_bike", "lat": 38.999951333333335, "lon": -76.92500116666666, "is_reserved": 0, "fusion_lon": 0.0}, {"rental_uris": {"ios": "https://dc.lft.to/lastmile_qr_scan", "android": "https://dc.lft.to/lastmile_qr_scan"}, "fusion_lat": 0.0, "name": "0442afca59beaa833a5a3f549a6fe161", "bike_id": "0442afca59beaa833a5a3f549a6fe161", "is_disabled": 0, "type": "electric_scooter", "lat": 38.90960966666667, "lon": -77.03201316666667, "is_reserved": 0, "fusion_lon": 0.0}, {"rental_uris": {"ios": "https://dc.lft.to/lastmile_qr_scan", "android": "https://dc.lft.to/lastmile_qr_scan"}, "fusion_lat": 0.0, "name": "edf02b3ffc705f67ac7712ac6826ff27", "bike_id": "edf02b3ffc705f67ac7712ac6826ff27", "is_disabled": 0, "type": "electric_scooter", "lat": 38.90115016666667, "lon": -77.02645466666667, "is_reserved": 0, "fusion_lon": 0.0}, {"rental_uris": {"ios": "https://dc.lft.to/lastmile_qr_scan", "android": "https://dc.lft.to/lastmile_qr_scan"}, "fusion_lat": 0.0, "name": "321f9592a508d8b6f175d82696c6adad", "bike_id": "321f9592a508d8b6f175d82696c6adad", "is_disabled": 0, "type": "electric_scooter", "lat": 38.91387733333333, "lon": -77.03958066666667, "is_reserved": 0, "fusion_lon": 0.0}, {"rental_uris": {"ios": "https://dc.lft.to/lastmile_qr_scan", "android": "https://dc.lft.to/lastmile_qr_scan"}, "fusion_lat": 0.0, "name": "5847cf6c45c88ec998d0f31129d11201", "bike_id": "5847cf6c45c88ec998d0f31129d11201", "is_disabled": 0, "type": "electric_scooter", "lat": 38.916845, "lon": -77.02813616666667, "is_reserved": 0, "fusion_lon": 0.0}, {"rental_uris": {"ios": "https://dc.lft.to/lastmile_qr_scan", "android": "https://dc.lft.to/lastmile_qr_scan"}, "fusion_lat": 0.0, "name": "c4b775921d67fe8dbdcd3a8bd4678073", "bike_id": "c4b775921d67fe8dbdcd3a8bd4678073", "is_disabled": 0, "type": "electric_bike", "lat": 38.876759, "lon": -77.014438, "is_reserved": 0, "fusion_lon": 0.0}, {"rental_uris": {"ios": "https://dc.lft.to/lastmile_qr_scan", "android": "https://dc.lft.to/lastmile_qr_scan"}, "fusion_lat": 0.0, "name": "dcdd3e3f0c449108e841826228732b33", "bike_id": "dcdd3e3f0c449108e841826228732b33", "is_disabled": 0, "type": "electric_scooter", "lat": 38.907945, "lon": -77.0383585, "is_reserved": 0, "fusion_lon": 0.0}, {"rental_uris": {"ios": "https://dc.lft.to/lastmile_qr_scan", "android": "https://dc.lft.to/lastmile_qr_scan"}, "fusion_lat": 0.0, "name": "cbbed75e49fd14e7f89a312088554b8e", "bike_id": "cbbed75e49fd14e7f89a312088554b8e", "is_disabled": 0, "type": "electric_scooter", "lat": 38.89215883333333, "lon": -77.03159833333333, "is_reserved": 0, "fusion_lon": 0.0}, {"rental_uris": {"ios": "https://dc.lft.to/lastmile_qr_scan", "android": "https://dc.lft.to/lastmile_qr_scan"}, "fusion_lat": 0.0, "name": "17ca28f7389643faeef193581e33d82e", "bike_id": "17ca28f7389643faeef193581e33d82e", "is_disabled": 0, "type": "electric_scooter", "lat": 38.888117, "lon": -76.93340916666666, "is_reserved": 0, "fusion_lon": 0.0}, {"rental_uris": {"ios": "https://dc.lft.to/lastmile_qr_scan", "android": "https://dc.lft.to/lastmile_qr_scan"}, "fusion_lat": 0.0, "name": "15ada1446866733f9c5192e5b68b65f3", "bike_id": "15ada1446866733f9c5192e5b68b65f3", "is_disabled": 0, "type": "electric_bike", "lat": 38.83984133333333, "lon": -77.005689, "is_reserved": 0, "fusion_lon": 0.0}, {"rental_uris": {"ios": "https://dc.lft.to/lastmile_qr_scan", "android": "https://dc.lft.to/lastmile_qr_scan"}, "fusion_lat": 0.0, "name": "df5ac4efb0fd538ecd2758aa00fd32b8", "bike_id": "df5ac4efb0fd538ecd2758aa00fd32b8", "is_disabled": 0, "type": "electric_scooter", "lat": 38.920367166666665, "lon": -77.034058, "is_reserved": 0, "fusion_lon": 0.0}, {"rental_uris": {"ios": "https://dc.lft.to/lastmile_qr_scan", "android": "https://dc.lft.to/lastmile_qr_scan"}, "fusion_lat": 0.0, "name": "29b7a2054dff157ff8ac88f6ee754213", "bike_id": "29b7a2054dff157ff8ac88f6ee754213", "is_disabled": 0, "type": "electric_scooter", "lat": 38.8668425, "lon": -76.985208, "is_reserved": 0, "fusion_lon": 0.0}, {"rental_uris": {"ios": "https://dc.lft.to/lastmile_qr_scan", "android": "https://dc.lft.to/lastmile_qr_scan"}, "fusion_lat": 0.0, "name": "94712303b7274a597d0bd880872b2c6d", "bike_id": "94712303b7274a597d0bd880872b2c6d", "is_disabled": 0, "type": "electric_scooter", "lat": 38.90893366666667, "lon": -77.03212383333333, "is_reserved": 0, "fusion_lon": 0.0}, {"rental_uris": {"ios": "https://dc.lft.to/lastmile_qr_scan", "android": "https://dc.lft.to/lastmile_qr_scan"}, "fusion_lat": 0.0, "name": "d226f2d8fc5040c0960cd16e25a6d0ea", "bike_id": "d226f2d8fc5040c0960cd16e25a6d0ea", "is_disabled": 0, "type": "electric_scooter", "lat": 38.931758, "lon": -77.07066483333334, "is_reserved": 0, "fusion_lon": 0.0}, {"rental_uris": {"ios": "https://dc.lft.to/lastmile_qr_scan", "android": "https://dc.lft.to/lastmile_qr_scan"}, "fusion_lat": 0.0, "name": "4019198ff64966fbda0c0b2cd2bb42dc", "bike_id": "4019198ff64966fbda0c0b2cd2bb42dc", "is_disabled": 0, "type": "electric_scooter", "lat": 38.91803783333334, "lon": -77.02493333333334, "is_reserved": 0, "fusion_lon": 0.0}, {"rental_uris": {"ios": "https://dc.lft.to/lastmile_qr_scan", "android": "https://dc.lft.to/lastmile_qr_scan"}, "fusion_lat": 0.0, "name": "920c0c8ee77a242848fa7fb3e7575c24", "bike_id": "920c0c8ee77a242848fa7fb3e7575c24", "is_disabled": 0, "type": "electric_scooter", "lat": 38.90073683333333, "lon": -77.0271055, "is_reserved": 0, "fusion_lon": 0.0}, {"rental_uris": {"ios": "https://dc.lft.to/lastmile_qr_scan", "android": "https://dc.lft.to/lastmile_qr_scan"}, "fusion_lat": 0.0, "name": "0916847b55512da26413443c4ee63ee4", "bike_id": "0916847b55512da26413443c4ee63ee4", "is_disabled": 0, "type": "electric_scooter", "lat": 38.93968433333333, "lon": -77.02160466666666, "is_reserved": 0, "fusion_lon": 0.0}, {"rental_uris": {"ios": "https://dc.lft.to/lastmile_qr_scan", "android": "https://dc.lft.to/lastmile_qr_scan"}, "fusion_lat": 0.0, "name": "f4f78993539afee4aae5fbf81d569e47", "bike_id": "f4f78993539afee4aae5fbf81d569e47", "is_disabled": 0, "type": "electric_scooter", "lat": 38.88727733333333, "lon": -77.02823666666667, "is_reserved": 0, "fusion_lon": 0.0}, {"rental_uris": {"ios": "https://dc.lft.to/lastmile_qr_scan", "android": "https://dc.lft.to/lastmile_qr_scan"}, "fusion_lat": 0.0, "name": "a033bd565e3dce778c0f8a6e66870c3d", "bike_id": "a033bd565e3dce778c0f8a6e66870c3d", "is_disabled": 0, "type": "electric_scooter", "lat": 38.91077083333333, "lon": -77.02097966666666, "is_reserved": 0, "fusion_lon": 0.0}, {"rental_uris": {"ios": "https://dc.lft.to/lastmile_qr_scan", "android": "https://dc.lft.to/lastmile_qr_scan"}, "fusion_lat": 0.0, "name": "90af22896abce68583bfc7e50014bf3d", "bike_id": "90af22896abce68583bfc7e50014bf3d", "is_disabled": 0, "type": "electric_scooter", "lat": 38.937342, "lon": -77.03587766666666, "is_reserved": 0, "fusion_lon": 0.0}, {"rental_uris": {"ios": "https://dc.lft.to/lastmile_qr_scan", "android": "https://dc.lft.to/lastmile_qr_scan"}, "fusion_lat": 0.0, "name": "6ef5812354aa048bac83a280783384e0", "bike_id": "6ef5812354aa048bac83a280783384e0", "is_disabled": 0, "type": "electric_scooter", "lat": 38.898683166666665, "lon": -77.0218755, "is_reserved": 0, "fusion_lon": 0.0}, {"rental_uris": {"ios": "https://dc.lft.to/lastmile_qr_scan", "android": "https://dc.lft.to/lastmile_qr_scan"}, "fusion_lat": 0.0, "name": "ae38e81c37132b50c6723a5f202a8d41", "bike_id": "ae38e81c37132b50c6723a5f202a8d41", "is_disabled": 0, "type": "electric_scooter", "lat": 38.9257075, "lon": -77.02853633333334, "is_reserved": 0, "fusion_lon": 0.0}, {"rental_uris": {"ios": "https://dc.lft.to/lastmile_qr_scan", "android": "https://dc.lft.to/lastmile_qr_scan"}, "fusion_lat": 0.0, "name": "eb1bc5236ca3e81a95f1021ae063ee91", "bike_id": "eb1bc5236ca3e81a95f1021ae063ee91", "is_disabled": 0, "type": "electric_scooter", "lat": 38.8972675, "lon": -77.04685516666666, "is_reserved": 0, "fusion_lon": 0.0}, {"rental_uris": {"ios": "https://dc.lft.to/lastmile_qr_scan", "android": "https://dc.lft.to/lastmile_qr_scan"}, "fusion_lat": 0.0, "name": "baa6724df560ae158d82a60fd4a8953e", "bike_id": "baa6724df560ae158d82a60fd4a8953e", "is_disabled": 0, "type": "electric_scooter", "lat": 38.89221033333333, "lon": -77.03219433333334, "is_reserved": 0, "fusion_lon": 0.0}, {"rental_uris": {"ios": "https://dc.lft.to/lastmile_qr_scan", "android": "https://dc.lft.to/lastmile_qr_scan"}, "fusion_lat": 0.0, "name": "2b0a624120122c65be7e7344085068b9", "bike_id": "2b0a624120122c65be7e7344085068b9", "is_disabled": 0, "type": "electric_scooter", "lat": 38.917274666666664, "lon": -77.04174716666667, "is_reserved": 0, "fusion_lon": 0.0}, {"rental_uris": {"ios": "https://dc.lft.to/lastmile_qr_scan", "android": "https://dc.lft.to/lastmile_qr_scan"}, "fusion_lat": 0.0, "name": "ddc02fc9d371bfa17193b06db1263f7b", "bike_id": "ddc02fc9d371bfa17193b06db1263f7b", "is_disabled": 0, "type": "electric_scooter", "lat": 38.90521233333333, "lon": -77.04741116666666, "is_reserved": 0, "fusion_lon": 0.0}, {"rental_uris": {"ios": "https://dc.lft.to/lastmile_qr_scan", "android": "https://dc.lft.to/lastmile_qr_scan"}, "fusion_lat": 0.0, "name": "d6805a76e7c1d986f6a872e5e3f3eab9", "bike_id": "d6805a76e7c1d986f6a872e5e3f3eab9", "is_disabled": 0, "type": "electric_scooter", "lat": 38.870809666666666, "lon": -77.01373583333333, "is_reserved": 0, "fusion_lon": 0.0}, {"rental_uris": {"ios": "https://dc.lft.to/lastmile_qr_scan", "android": "https://dc.lft.to/lastmile_qr_scan"}, "fusion_lat": 0.0, "name": "147eb7695084f558fda8edc34bbfdda1", "bike_id": "147eb7695084f558fda8edc34bbfdda1", "is_disabled": 0, "type": "electric_bike", "lat": 38.90630783333334, "lon": -77.03912516666666, "is_reserved": 0, "fusion_lon": 0.0}, {"rental_uris": {"ios": "https://dc.lft.to/lastmile_qr_scan", "android": "https://dc.lft.to/lastmile_qr_scan"}, "fusion_lat": 0.0, "name": "13f0791a2507ec4eb05e513aba344587", "bike_id": "13f0791a2507ec4eb05e513aba344587", "is_disabled": 0, "type": "electric_scooter", "lat": 38.87909066666667, "lon": -76.991369, "is_reserved": 0, "fusion_lon": 0.0}, {"rental_uris": {"ios": "https://dc.lft.to/lastmile_qr_scan", "android": "https://dc.lft.to/lastmile_qr_scan"}, "fusion_lat": 0.0, "name": "782282b0790cc01ca91408d59a249ca5", "bike_id": "782282b0790cc01ca91408d59a249ca5", "is_disabled": 0, "type": "electric_scooter", "lat": 38.8982195, "lon": -76.9302375, "is_reserved": 0, "fusion_lon": 0.0}, {"rental_uris": {"ios": "https://dc.lft.to/lastmile_qr_scan", "android": "https://dc.lft.to/lastmile_qr_scan"}, "fusion_lat": 0.0, "name": "4b3eb99b82e5ea1f1dd0d8db1b89febf", "bike_id": "4b3eb99b82e5ea1f1dd0d8db1b89febf", "is_disabled": 0, "type": "electric_scooter", "lat": 38.8966585, "lon": -77.02458483333334, "is_reserved": 0, "fusion_lon": 0.0}, {"rental_uris": {"ios": "https://dc.lft.to/lastmile_qr_scan", "android": "https://dc.lft.to/lastmile_qr_scan"}, "fusion_lat": 0.0, "name": "772808e06770b211e20bf1a3ac968e94", "bike_id": "772808e06770b211e20bf1a3ac968e94", "is_disabled": 0, "type": "electric_scooter", "lat": 38.90719416666666, "lon": -77.028859, "is_reserved": 0, "fusion_lon": 0.0}, {"rental_uris": {"ios": "https://dc.lft.to/lastmile_qr_scan", "android": "https://dc.lft.to/lastmile_qr_scan"}, "fusion_lat": 0.0, "name": "80f7a539a3d73846a71765211ff60522", "bike_id": "80f7a539a3d73846a71765211ff60522", "is_disabled": 0, "type": "electric_scooter", "lat": 38.85673383333334, "lon": -76.98175216666667, "is_reserved": 0, "fusion_lon": 0.0}, {"rental_uris": {"ios": "https://dc.lft.to/lastmile_qr_scan", "android": "https://dc.lft.to/lastmile_qr_scan"}, "fusion_lat": 0.0, "name": "cebc87b30cc4f5a11ddfdfb5049402b1", "bike_id": "cebc87b30cc4f5a11ddfdfb5049402b1", "is_disabled": 0, "type": "electric_scooter", "lat": 38.895000333333336, "lon": -76.94874283333333, "is_reserved": 0, "fusion_lon": 0.0}, {"rental_uris": {"ios": "https://dc.lft.to/lastmile_qr_scan", "android": "https://dc.lft.to/lastmile_qr_scan"}, "fusion_lat": 0.0, "name": "5f96191440b1377272aba91a9cf1b25d", "bike_id": "5f96191440b1377272aba91a9cf1b25d", "is_disabled": 0, "type": "electric_scooter", "lat": 38.926648166666666, "lon": -77.0151135, "is_reserved": 0, "fusion_lon": 0.0}, {"rental_uris": {"ios": "https://dc.lft.to/lastmile_qr_scan", "android": "https://dc.lft.to/lastmile_qr_scan"}, "fusion_lat": 0.0, "name": "80c0b34b24494de53864a06c089f8216", "bike_id": "80c0b34b24494de53864a06c089f8216", "is_disabled": 0, "type": "electric_scooter", "lat": 38.91809033333333, "lon": -77.02710333333333, "is_reserved": 0, "fusion_lon": 0.0}, {"rental_uris": {"ios": "https://dc.lft.to/lastmile_qr_scan", "android": "https://dc.lft.to/lastmile_qr_scan"}, "fusion_lat": 0.0, "name": "5cb012b2d9f6ea983141ffdf4a60342c", "bike_id": "5cb012b2d9f6ea983141ffdf4a60342c", "is_disabled": 0, "type": "electric_scooter", "lat": 38.892201666666665, "lon": -77.02225716666666, "is_reserved": 0, "fusion_lon": 0.0}, {"rental_uris": {"ios": "https://dc.lft.to/lastmile_qr_scan", "android": "https://dc.lft.to/lastmile_qr_scan"}, "fusion_lat": 0.0, "name": "1f18feae5730d669e006ee0623fd86ff", "bike_id": "1f18feae5730d669e006ee0623fd86ff", "is_disabled": 0, "type": "electric_scooter", "lat": 38.92927, "lon": -77.0376585, "is_reserved": 0, "fusion_lon": 0.0}, {"rental_uris": {"ios": "https://dc.lft.to/lastmile_qr_scan", "android": "https://dc.lft.to/lastmile_qr_scan"}, "fusion_lat": 0.0, "name": "81b0ad9d4329069de187b9e75b1df634", "bike_id": "81b0ad9d4329069de187b9e75b1df634", "is_disabled": 0, "type": "electric_scooter", "lat": 38.91562966666667, "lon": -77.022136, "is_reserved": 0, "fusion_lon": 0.0}, {"rental_uris": {"ios": "https://dc.lft.to/lastmile_qr_scan", "android": "https://dc.lft.to/lastmile_qr_scan"}, "fusion_lat": 0.0, "name": "6e3ccf9c674aab926db1d76d29fa7737", "bike_id": "6e3ccf9c674aab926db1d76d29fa7737", "is_disabled": 0, "type": "electric_scooter", "lat": 38.90684866666667, "lon": -77.02712683333333, "is_reserved": 0, "fusion_lon": 0.0}, {"rental_uris": {"ios": "https://dc.lft.to/lastmile_qr_scan", "android": "https://dc.lft.to/lastmile_qr_scan"}, "fusion_lat": 0.0, "name": "ec93652b0c67c6e5ffc495461fb49f3e", "bike_id": "ec93652b0c67c6e5ffc495461fb49f3e", "is_disabled": 0, "type": "electric_scooter", "lat": 38.91814566666667, "lon": -77.0417355, "is_reserved": 0, "fusion_lon": 0.0}, {"rental_uris": {"ios": "https://dc.lft.to/lastmile_qr_scan", "android": "https://dc.lft.to/lastmile_qr_scan"}, "fusion_lat": 0.0, "name": "f32d710f4445c9789919159166f95145", "bike_id": "f32d710f4445c9789919159166f95145", "is_disabled": 0, "type": "electric_scooter", "lat": 38.91564183333333, "lon": -77.0119785, "is_reserved": 0, "fusion_lon": 0.0}, {"rental_uris": {"ios": "https://dc.lft.to/lastmile_qr_scan", "android": "https://dc.lft.to/lastmile_qr_scan"}, "fusion_lat": 0.0, "name": "b1a853a8090c58c7e98b58a014d47cd5", "bike_id": "b1a853a8090c58c7e98b58a014d47cd5", "is_disabled": 0, "type": "electric_scooter", "lat": 38.917442, "lon": -77.023986, "is_reserved": 0, "fusion_lon": 0.0}, {"rental_uris": {"ios": "https://dc.lft.to/lastmile_qr_scan", "android": "https://dc.lft.to/lastmile_qr_scan"}, "fusion_lat": 0.0, "name": "510fe09f926e2bda43e5a84072e21dfb", "bike_id": "510fe09f926e2bda43e5a84072e21dfb", "is_disabled": 0, "type": "electric_scooter", "lat": 38.901064166666664, "lon": -77.043061, "is_reserved": 0, "fusion_lon": 0.0}, {"rental_uris": {"ios": "https://dc.lft.to/lastmile_qr_scan", "android": "https://dc.lft.to/lastmile_qr_scan"}, "fusion_lat": 0.0, "name": "32dd7826f514737f128e0a6cea17e1fa", "bike_id": "32dd7826f514737f128e0a6cea17e1fa", "is_disabled": 0, "type": "electric_scooter", "lat": 38.920593333333336, "lon": -77.04193583333333, "is_reserved": 0, "fusion_lon": 0.0}, {"rental_uris": {"ios": "https://dc.lft.to/lastmile_qr_scan", "android": "https://dc.lft.to/lastmile_qr_scan"}, "fusion_lat": 0.0, "name": "da114cb2e306f621eac3f0c4eac39cac", "bike_id": "da114cb2e306f621eac3f0c4eac39cac", "is_disabled": 0, "type": "electric_scooter", "lat": 38.92136816666667, "lon": -77.00849033333333, "is_reserved": 0, "fusion_lon": 0.0}, {"rental_uris": {"ios": "https://dc.lft.to/lastmile_qr_scan", "android": "https://dc.lft.to/lastmile_qr_scan"}, "fusion_lat": 0.0, "name": "b936a5eafde72e14f6a0c37ffa77797a", "bike_id": "b936a5eafde72e14f6a0c37ffa77797a", "is_disabled": 0, "type": "electric_scooter", "lat": 38.934869, "lon": -77.07267833333333, "is_reserved": 0, "fusion_lon": 0.0}, {"rental_uris": {"ios": "https://dc.lft.to/lastmile_qr_scan", "android": "https://dc.lft.to/lastmile_qr_scan"}, "fusion_lat": 0.0, "name": "70b9db797d402daf82481454c2734cda", "bike_id": "70b9db797d402daf82481454c2734cda", "is_disabled": 0, "type": "electric_scooter", "lat": 38.91560233333333, "lon": -77.0117125, "is_reserved": 0, "fusion_lon": 0.0}, {"rental_uris": {"ios": "https://dc.lft.to/lastmile_qr_scan", "android": "https://dc.lft.to/lastmile_qr_scan"}, "fusion_lat": 0.0, "name": "f1f50d2decd4a84289e736d0fd8ba3b2", "bike_id": "f1f50d2decd4a84289e736d0fd8ba3b2", "is_disabled": 0, "type": "electric_scooter", "lat": 38.9295415, "lon": -76.990878, "is_reserved": 0, "fusion_lon": 0.0}, {"rental_uris": {"ios": "https://dc.lft.to/lastmile_qr_scan", "android": "https://dc.lft.to/lastmile_qr_scan"}, "fusion_lat": 0.0, "name": "817f17a51d136a56d5e3e40b61aaf452", "bike_id": "817f17a51d136a56d5e3e40b61aaf452", "is_disabled": 0, "type": "electric_scooter", "lat": 38.909644166666666, "lon": -76.9960555, "is_reserved": 0, "fusion_lon": 0.0}, {"rental_uris": {"ios": "https://dc.lft.to/lastmile_qr_scan", "android": "https://dc.lft.to/lastmile_qr_scan"}, "fusion_lat": 0.0, "name": "d78bb599f52ef5d9397982424c391d3a", "bike_id": "d78bb599f52ef5d9397982424c391d3a", "is_disabled": 0, "type": "electric_scooter", "lat": 38.92054266666667, "lon": -77.04188083333334, "is_reserved": 0, "fusion_lon": 0.0}, {"rental_uris": {"ios": "https://dc.lft.to/lastmile_qr_scan", "android": "https://dc.lft.to/lastmile_qr_scan"}, "fusion_lat": 0.0, "name": "00fb19bb5826fd0ff624155452ff2e37", "bike_id": "00fb19bb5826fd0ff624155452ff2e37", "is_disabled": 0, "type": "electric_scooter", "lat": 38.8984135, "lon": -76.946317, "is_reserved": 0, "fusion_lon": 0.0}, {"rental_uris": {"ios": "https://dc.lft.to/lastmile_qr_scan", "android": "https://dc.lft.to/lastmile_qr_scan"}, "fusion_lat": 0.0, "name": "4cd1e20f3c1fa4120e1babae057de48c", "bike_id": "4cd1e20f3c1fa4120e1babae057de48c", "is_disabled": 0, "type": "electric_scooter", "lat": 38.91106833333333, "lon": -77.01712383333333, "is_reserved": 0, "fusion_lon": 0.0}, {"rental_uris": {"ios": "https://dc.lft.to/lastmile_qr_scan", "android": "https://dc.lft.to/lastmile_qr_scan"}, "fusion_lat": 0.0, "name": "80ddd0463969372b39bc8167ede2307f", "bike_id": "80ddd0463969372b39bc8167ede2307f", "is_disabled": 0, "type": "electric_scooter", "lat": 38.887182, "lon": -76.99615983333334, "is_reserved": 0, "fusion_lon": 0.0}, {"rental_uris": {"ios": "https://dc.lft.to/lastmile_qr_scan", "android": "https://dc.lft.to/lastmile_qr_scan"}, "fusion_lat": 0.0, "name": "b1d47ed06aacc1e1fe7af4ffcf305ebb", "bike_id": "b1d47ed06aacc1e1fe7af4ffcf305ebb", "is_disabled": 0, "type": "electric_scooter", "lat": 38.9181635, "lon": -77.032532, "is_reserved": 0, "fusion_lon": 0.0}, {"rental_uris": {"ios": "https://dc.lft.to/lastmile_qr_scan", "android": "https://dc.lft.to/lastmile_qr_scan"}, "fusion_lat": 0.0, "name": "c50f7306c52f37acaf9793b507eab889", "bike_id": "c50f7306c52f37acaf9793b507eab889", "is_disabled": 0, "type": "electric_scooter", "lat": 38.9248135, "lon": -77.031847, "is_reserved": 0, "fusion_lon": 0.0}, {"rental_uris": {"ios": "https://dc.lft.to/lastmile_qr_scan", "android": "https://dc.lft.to/lastmile_qr_scan"}, "fusion_lat": 0.0, "name": "2f71ccc0b42877895880bcfad8bf311c", "bike_id": "2f71ccc0b42877895880bcfad8bf311c", "is_disabled": 0, "type": "electric_scooter", "lat": 38.95932633333334, "lon": -77.0312465, "is_reserved": 0, "fusion_lon": 0.0}, {"rental_uris": {"ios": "https://dc.lft.to/lastmile_qr_scan", "android": "https://dc.lft.to/lastmile_qr_scan"}, "fusion_lat": 0.0, "name": "ed6f70e76f57d6bc7ebd5e9cbf931ac0", "bike_id": "ed6f70e76f57d6bc7ebd5e9cbf931ac0", "is_disabled": 0, "type": "electric_scooter", "lat": 38.892283, "lon": -77.05002366666666, "is_reserved": 0, "fusion_lon": 0.0}, {"rental_uris": {"ios": "https://dc.lft.to/lastmile_qr_scan", "android": "https://dc.lft.to/lastmile_qr_scan"}, "fusion_lat": 0.0, "name": "579830365b41a41408761abb3dba6497", "bike_id": "579830365b41a41408761abb3dba6497", "is_disabled": 0, "type": "electric_bike", "lat": 38.98496333333333, "lon": -76.98188666666667, "is_reserved": 0, "fusion_lon": 0.0}, {"rental_uris": {"ios": "https://dc.lft.to/lastmile_qr_scan", "android": "https://dc.lft.to/lastmile_qr_scan"}, "fusion_lat": 0.0, "name": "39de1dbb1737371f8e69385aa0e9eefa", "bike_id": "39de1dbb1737371f8e69385aa0e9eefa", "is_disabled": 0, "type": "electric_scooter", "lat": 38.90425033333333, "lon": -77.03443083333333, "is_reserved": 0, "fusion_lon": 0.0}, {"rental_uris": {"ios": "https://dc.lft.to/lastmile_qr_scan", "android": "https://dc.lft.to/lastmile_qr_scan"}, "fusion_lat": 0.0, "name": "3465de3e5f98dd093edfd21614ad8518", "bike_id": "3465de3e5f98dd093edfd21614ad8518", "is_disabled": 0, "type": "electric_bike", "lat": 38.982695166666666, "lon": -77.01772, "is_reserved": 0, "fusion_lon": 0.0}, {"rental_uris": {"ios": "https://dc.lft.to/lastmile_qr_scan", "android": "https://dc.lft.to/lastmile_qr_scan"}, "fusion_lat": 0.0, "name": "f6ac8947c976e1814c7ca6ffc28be45b", "bike_id": "f6ac8947c976e1814c7ca6ffc28be45b", "is_disabled": 0, "type": "electric_bike", "lat": 38.80574583333333, "lon": -77.06860816666666, "is_reserved": 0, "fusion_lon": 0.0}, {"rental_uris": {"ios": "https://dc.lft.to/lastmile_qr_scan", "android": "https://dc.lft.to/lastmile_qr_scan"}, "fusion_lat": 0.0, "name": "cbb08ec23e690e4dd1772c772d7cf510", "bike_id": "cbb08ec23e690e4dd1772c772d7cf510", "is_disabled": 0, "type": "electric_scooter", "lat": 38.897121, "lon": -77.02675033333334, "is_reserved": 0, "fusion_lon": 0.0}, {"rental_uris": {"ios": "https://dc.lft.to/lastmile_qr_scan", "android": "https://dc.lft.to/lastmile_qr_scan"}, "fusion_lat": 0.0, "name": "168e68a31a4b355e5dc2442b8675219c", "bike_id": "168e68a31a4b355e5dc2442b8675219c", "is_disabled": 0, "type": "electric_scooter", "lat": 38.90970883333333, "lon": -77.03212733333334, "is_reserved": 0, "fusion_lon": 0.0}, {"rental_uris": {"ios": "https://dc.lft.to/lastmile_qr_scan", "android": "https://dc.lft.to/lastmile_qr_scan"}, "fusion_lat": 0.0, "name": "53127ca5fba8c78529bb88b90f4269bb", "bike_id": "53127ca5fba8c78529bb88b90f4269bb", "is_disabled": 0, "type": "electric_bike", "lat": 38.958782166666666, "lon": -77.01033966666667, "is_reserved": 0, "fusion_lon": 0.0}, {"rental_uris": {"ios": "https://dc.lft.to/lastmile_qr_scan", "android": "https://dc.lft.to/lastmile_qr_scan"}, "fusion_lat": 0.0, "name": "cd0820d692d5b1bcddeebf7d0f8525a0", "bike_id": "cd0820d692d5b1bcddeebf7d0f8525a0", "is_disabled": 0, "type": "electric_scooter", "lat": 38.894515166666665, "lon": -76.97805616666666, "is_reserved": 0, "fusion_lon": 0.0}, {"rental_uris": {"ios": "https://dc.lft.to/lastmile_qr_scan", "android": "https://dc.lft.to/lastmile_qr_scan"}, "fusion_lat": 0.0, "name": "1f6bfdd7fd9480c9f28db2241ee96eeb", "bike_id": "1f6bfdd7fd9480c9f28db2241ee96eeb", "is_disabled": 0, "type": "electric_scooter", "lat": 38.9029735, "lon": -77.03382833333333, "is_reserved": 0, "fusion_lon": 0.0}, {"rental_uris": {"ios": "https://dc.lft.to/lastmile_qr_scan", "android": "https://dc.lft.to/lastmile_qr_scan"}, "fusion_lat": 0.0, "name": "ba3f55aa09a3329598c92ed9e57042af", "bike_id": "ba3f55aa09a3329598c92ed9e57042af", "is_disabled": 0, "type": "electric_scooter", "lat": 38.892998, "lon": -77.02180216666666, "is_reserved": 0, "fusion_lon": 0.0}, {"rental_uris": {"ios": "https://dc.lft.to/lastmile_qr_scan", "android": "https://dc.lft.to/lastmile_qr_scan"}, "fusion_lat": 0.0, "name": "92e0dc755e057f9502c44f7d14d8792f", "bike_id": "92e0dc755e057f9502c44f7d14d8792f", "is_disabled": 0, "type": "electric_scooter", "lat": 38.91711566666667, "lon": -77.0257335, "is_reserved": 0, "fusion_lon": 0.0}, {"rental_uris": {"ios": "https://dc.lft.to/lastmile_qr_scan", "android": "https://dc.lft.to/lastmile_qr_scan"}, "fusion_lat": 0.0, "name": "47840511d46645970db989de5793f68d", "bike_id": "47840511d46645970db989de5793f68d", "is_disabled": 0, "type": "electric_scooter", "lat": 38.89529866666667, "lon": -77.02427333333333, "is_reserved": 0, "fusion_lon": 0.0}, {"rental_uris": {"ios": "https://dc.lft.to/lastmile_qr_scan", "android": "https://dc.lft.to/lastmile_qr_scan"}, "fusion_lat": 0.0, "name": "f30b72595081394212bd6ac48517bd3e", "bike_id": "f30b72595081394212bd6ac48517bd3e", "is_disabled": 0, "type": "electric_bike", "lat": 38.9631465, "lon": -77.03329616666667, "is_reserved": 0, "fusion_lon": 0.0}, {"rental_uris": {"ios": "https://dc.lft.to/lastmile_qr_scan", "android": "https://dc.lft.to/lastmile_qr_scan"}, "fusion_lat": 0.0, "name": "2601afb6eac1448e8af7719948ec0f0d", "bike_id": "2601afb6eac1448e8af7719948ec0f0d", "is_disabled": 0, "type": "electric_scooter", "lat": 38.9470235, "lon": -77.02164333333333, "is_reserved": 0, "fusion_lon": 0.0}, {"rental_uris": {"ios": "https://dc.lft.to/lastmile_qr_scan", "android": "https://dc.lft.to/lastmile_qr_scan"}, "fusion_lat": 0.0, "name": "142f76ff90b947c908ad44d4fa58bfbc", "bike_id": "142f76ff90b947c908ad44d4fa58bfbc", "is_disabled": 0, "type": "electric_scooter", "lat": 38.9081055, "lon": -77.038358, "is_reserved": 0, "fusion_lon": 0.0}, {"rental_uris": {"ios": "https://dc.lft.to/lastmile_qr_scan", "android": "https://dc.lft.to/lastmile_qr_scan"}, "fusion_lat": 0.0, "name": "1e1de4b56796a502b612cbbd718028d1", "bike_id": "1e1de4b56796a502b612cbbd718028d1", "is_disabled": 0, "type": "electric_scooter", "lat": 38.90274133333333, "lon": -77.03440016666667, "is_reserved": 0, "fusion_lon": 0.0}, {"rental_uris": {"ios": "https://dc.lft.to/lastmile_qr_scan", "android": "https://dc.lft.to/lastmile_qr_scan"}, "fusion_lat": 0.0, "name": "e5cc097510346239274267c44162f78e", "bike_id": "e5cc097510346239274267c44162f78e", "is_disabled": 0, "type": "electric_scooter", "lat": 38.93272433333333, "lon": -77.03637866666666, "is_reserved": 0, "fusion_lon": 0.0}, {"rental_uris": {"ios": "https://dc.lft.to/lastmile_qr_scan", "android": "https://dc.lft.to/lastmile_qr_scan"}, "fusion_lat": 0.0, "name": "0fff19219e52d1d67e96ddc2da8633e7", "bike_id": "0fff19219e52d1d67e96ddc2da8633e7", "is_disabled": 0, "type": "electric_scooter", "lat": 38.89874316666667, "lon": -77.02782283333333, "is_reserved": 0, "fusion_lon": 0.0}, {"rental_uris": {"ios": "https://dc.lft.to/lastmile_qr_scan", "android": "https://dc.lft.to/lastmile_qr_scan"}, "fusion_lat": 0.0, "name": "6c01f33f15bfe9e1d5e8dbf2480c10a2", "bike_id": "6c01f33f15bfe9e1d5e8dbf2480c10a2", "is_disabled": 0, "type": "electric_scooter", "lat": 38.90583783333334, "lon": -77.00592883333333, "is_reserved": 0, "fusion_lon": 0.0}, {"rental_uris": {"ios": "https://dc.lft.to/lastmile_qr_scan", "android": "https://dc.lft.to/lastmile_qr_scan"}, "fusion_lat": 0.0, "name": "3ccff41c1e25596868441e0fd5f7d1dd", "bike_id": "3ccff41c1e25596868441e0fd5f7d1dd", "is_disabled": 0, "type": "electric_scooter", "lat": 38.902866, "lon": -77.0417135, "is_reserved": 0, "fusion_lon": 0.0}, {"rental_uris": {"ios": "https://dc.lft.to/lastmile_qr_scan", "android": "https://dc.lft.to/lastmile_qr_scan"}, "fusion_lat": 0.0, "name": "e160eb0893df3a0cd6bda7d068ca4a2b", "bike_id": "e160eb0893df3a0cd6bda7d068ca4a2b", "is_disabled": 0, "type": "electric_scooter", "lat": 38.92533933333333, "lon": -77.0524875, "is_reserved": 0, "fusion_lon": 0.0}, {"rental_uris": {"ios": "https://dc.lft.to/lastmile_qr_scan", "android": "https://dc.lft.to/lastmile_qr_scan"}, "fusion_lat": 0.0, "name": "eef7abc0e3ea671535c64eb14f9dc6da", "bike_id": "eef7abc0e3ea671535c64eb14f9dc6da", "is_disabled": 0, "type": "electric_scooter", "lat": 38.9022525, "lon": -77.060266, "is_reserved": 0, "fusion_lon": 0.0}, {"rental_uris": {"ios": "https://dc.lft.to/lastmile_qr_scan", "android": "https://dc.lft.to/lastmile_qr_scan"}, "fusion_lat": 0.0, "name": "1a04117752e578f874e8e0fae98b5bf1", "bike_id": "1a04117752e578f874e8e0fae98b5bf1", "is_disabled": 0, "type": "electric_scooter", "lat": 38.91479733333333, "lon": -77.0255745, "is_reserved": 0, "fusion_lon": 0.0}, {"rental_uris": {"ios": "https://dc.lft.to/lastmile_qr_scan", "android": "https://dc.lft.to/lastmile_qr_scan"}, "fusion_lat": 0.0, "name": "9e5a9a9aa40f794c20f2d68032881cc7", "bike_id": "9e5a9a9aa40f794c20f2d68032881cc7", "is_disabled": 0, "type": "electric_scooter", "lat": 38.921426, "lon": -77.043581, "is_reserved": 0, "fusion_lon": 0.0}, {"rental_uris": {"ios": "https://dc.lft.to/lastmile_qr_scan", "android": "https://dc.lft.to/lastmile_qr_scan"}, "fusion_lat": 0.0, "name": "57ce1fe25b8d105aba7cd7ee294818df", "bike_id": "57ce1fe25b8d105aba7cd7ee294818df", "is_disabled": 0, "type": "electric_scooter", "lat": 38.93255083333333, "lon": -76.99528216666667, "is_reserved": 0, "fusion_lon": 0.0}, {"rental_uris": {"ios": "https://dc.lft.to/lastmile_qr_scan", "android": "https://dc.lft.to/lastmile_qr_scan"}, "fusion_lat": 0.0, "name": "5af60d7bd6ae97ab8bd2dd3564b88343", "bike_id": "5af60d7bd6ae97ab8bd2dd3564b88343", "is_disabled": 0, "type": "electric_scooter", "lat": 38.909686, "lon": -77.026956, "is_reserved": 0, "fusion_lon": 0.0}, {"rental_uris": {"ios": "https://dc.lft.to/lastmile_qr_scan", "android": "https://dc.lft.to/lastmile_qr_scan"}, "fusion_lat": 0.0, "name": "529242d6f74ac4b3bbc2007c4687e15a", "bike_id": "529242d6f74ac4b3bbc2007c4687e15a", "is_disabled": 0, "type": "electric_scooter", "lat": 38.89223483333333, "lon": -77.03186816666667, "is_reserved": 0, "fusion_lon": 0.0}, {"rental_uris": {"ios": "https://dc.lft.to/lastmile_qr_scan", "android": "https://dc.lft.to/lastmile_qr_scan"}, "fusion_lat": 0.0, "name": "a2ddc2a65f0172768f5ee04ba9d7ef70", "bike_id": "a2ddc2a65f0172768f5ee04ba9d7ef70", "is_disabled": 0, "type": "electric_scooter", "lat": 38.920571, "lon": -77.04191983333334, "is_reserved": 0, "fusion_lon": 0.0}, {"rental_uris": {"ios": "https://dc.lft.to/lastmile_qr_scan", "android": "https://dc.lft.to/lastmile_qr_scan"}, "fusion_lat": 0.0, "name": "e4c986d2a687bdd51c672ee5e50e1fee", "bike_id": "e4c986d2a687bdd51c672ee5e50e1fee", "is_disabled": 0, "type": "electric_scooter", "lat": 38.90337566666667, "lon": -77.03170483333334, "is_reserved": 0, "fusion_lon": 0.0}, {"rental_uris": {"ios": "https://dc.lft.to/lastmile_qr_scan", "android": "https://dc.lft.to/lastmile_qr_scan"}, "fusion_lat": 0.0, "name": "3b55fe6c4115e674c36b71abe8a5f399", "bike_id": "3b55fe6c4115e674c36b71abe8a5f399", "is_disabled": 0, "type": "electric_scooter", "lat": 38.90621866666667, "lon": -77.0217445, "is_reserved": 0, "fusion_lon": 0.0}, {"rental_uris": {"ios": "https://dc.lft.to/lastmile_qr_scan", "android": "https://dc.lft.to/lastmile_qr_scan"}, "fusion_lat": 0.0, "name": "788dbfd6ab3253d3d0c1feb48f921f36", "bike_id": "788dbfd6ab3253d3d0c1feb48f921f36", "is_disabled": 0, "type": "electric_scooter", "lat": 38.91427133333333, "lon": -77.02810116666667, "is_reserved": 0, "fusion_lon": 0.0}, {"rental_uris": {"ios": "https://dc.lft.to/lastmile_qr_scan", "android": "https://dc.lft.to/lastmile_qr_scan"}, "fusion_lat": 0.0, "name": "4ab1a731f5916e15bc27af47d9d82bc5", "bike_id": "4ab1a731f5916e15bc27af47d9d82bc5", "is_disabled": 0, "type": "electric_scooter", "lat": 38.908103833333335, "lon": -77.0383505, "is_reserved": 0, "fusion_lon": 0.0}, {"rental_uris": {"ios": "https://dc.lft.to/lastmile_qr_scan", "android": "https://dc.lft.to/lastmile_qr_scan"}, "fusion_lat": 0.0, "name": "7263c977ae031b964b76b67840770204", "bike_id": "7263c977ae031b964b76b67840770204", "is_disabled": 0, "type": "electric_scooter", "lat": 38.92043533333333, "lon": -77.03282066666667, "is_reserved": 0, "fusion_lon": 0.0}, {"rental_uris": {"ios": "https://dc.lft.to/lastmile_qr_scan", "android": "https://dc.lft.to/lastmile_qr_scan"}, "fusion_lat": 0.0, "name": "48e6b381d880c65c6bc2ab9df3ae4616", "bike_id": "48e6b381d880c65c6bc2ab9df3ae4616", "is_disabled": 0, "type": "electric_scooter", "lat": 38.93572366666667, "lon": -77.0375545, "is_reserved": 0, "fusion_lon": 0.0}, {"rental_uris": {"ios": "https://dc.lft.to/lastmile_qr_scan", "android": "https://dc.lft.to/lastmile_qr_scan"}, "fusion_lat": 0.0, "name": "eba51c23eb42c8c281de4454a67dcf2b", "bike_id": "eba51c23eb42c8c281de4454a67dcf2b", "is_disabled": 0, "type": "electric_scooter", "lat": 38.915526, "lon": -77.03162083333333, "is_reserved": 0, "fusion_lon": 0.0}, {"rental_uris": {"ios": "https://dc.lft.to/lastmile_qr_scan", "android": "https://dc.lft.to/lastmile_qr_scan"}, "fusion_lat": 0.0, "name": "40aea63a71695164d6e694019f7ea169", "bike_id": "40aea63a71695164d6e694019f7ea169", "is_disabled": 0, "type": "electric_scooter", "lat": 38.90378283333333, "lon": -77.03637383333333, "is_reserved": 0, "fusion_lon": 0.0}, {"rental_uris": {"ios": "https://dc.lft.to/lastmile_qr_scan", "android": "https://dc.lft.to/lastmile_qr_scan"}, "fusion_lat": 0.0, "name": "c6ed63fb88411d1e353e5cdb857c05bd", "bike_id": "c6ed63fb88411d1e353e5cdb857c05bd", "is_disabled": 0, "type": "electric_scooter", "lat": 38.9096505, "lon": -77.0228705, "is_reserved": 0, "fusion_lon": 0.0}, {"rental_uris": {"ios": "https://dc.lft.to/lastmile_qr_scan", "android": "https://dc.lft.to/lastmile_qr_scan"}, "fusion_lat": 0.0, "name": "27bcbbf956838c14a0e43bab30a0aaab", "bike_id": "27bcbbf956838c14a0e43bab30a0aaab", "is_disabled": 0, "type": "electric_scooter", "lat": 38.93359483333333, "lon": -77.057329, "is_reserved": 0, "fusion_lon": 0.0}, {"rental_uris": {"ios": "https://dc.lft.to/lastmile_qr_scan", "android": "https://dc.lft.to/lastmile_qr_scan"}, "fusion_lat": 0.0, "name": "ba1be2d9f38cca7150be14372e902a56", "bike_id": "ba1be2d9f38cca7150be14372e902a56", "is_disabled": 0, "type": "electric_scooter", "lat": 38.9031665, "lon": -77.06277483333334, "is_reserved": 0, "fusion_lon": 0.0}, {"rental_uris": {"ios": "https://dc.lft.to/lastmile_qr_scan", "android": "https://dc.lft.to/lastmile_qr_scan"}, "fusion_lat": 0.0, "name": "dae1cf3ffafdee419aaf8149747f4209", "bike_id": "dae1cf3ffafdee419aaf8149747f4209", "is_disabled": 0, "type": "electric_scooter", "lat": 38.91123416666667, "lon": -77.02693283333333, "is_reserved": 0, "fusion_lon": 0.0}, {"rental_uris": {"ios": "https://dc.lft.to/lastmile_qr_scan", "android": "https://dc.lft.to/lastmile_qr_scan"}, "fusion_lat": 0.0, "name": "984420b94d1f2e0602acb6f52e3035f8", "bike_id": "984420b94d1f2e0602acb6f52e3035f8", "is_disabled": 0, "type": "electric_scooter", "lat": 38.90725333333334, "lon": -77.0036865, "is_reserved": 0, "fusion_lon": 0.0}, {"rental_uris": {"ios": "https://dc.lft.to/lastmile_qr_scan", "android": "https://dc.lft.to/lastmile_qr_scan"}, "fusion_lat": 0.0, "name": "b923b90e4151377507742a4fbd179714", "bike_id": "b923b90e4151377507742a4fbd179714", "is_disabled": 0, "type": "electric_bike", "lat": 38.813427833333336, "lon": -77.0492815, "is_reserved": 0, "fusion_lon": 0.0}, {"rental_uris": {"ios": "https://dc.lft.to/lastmile_qr_scan", "android": "https://dc.lft.to/lastmile_qr_scan"}, "fusion_lat": 0.0, "name": "97da9e0d74bf968c8683269f2b422e19", "bike_id": "97da9e0d74bf968c8683269f2b422e19", "is_disabled": 0, "type": "electric_scooter", "lat": 38.902877, "lon": -77.03382483333333, "is_reserved": 0, "fusion_lon": 0.0}, {"rental_uris": {"ios": "https://dc.lft.to/lastmile_qr_scan", "android": "https://dc.lft.to/lastmile_qr_scan"}, "fusion_lat": 0.0, "name": "4d19b1f18bcde796b36cea87f52e06a1", "bike_id": "4d19b1f18bcde796b36cea87f52e06a1", "is_disabled": 0, "type": "electric_scooter", "lat": 38.9072775, "lon": -77.0276265, "is_reserved": 0, "fusion_lon": 0.0}, {"rental_uris": {"ios": "https://dc.lft.to/lastmile_qr_scan", "android": "https://dc.lft.to/lastmile_qr_scan"}, "fusion_lat": 0.0, "name": "e5dd81fe303c03eb620f270a49734f5d", "bike_id": "e5dd81fe303c03eb620f270a49734f5d", "is_disabled": 0, "type": "electric_scooter", "lat": 38.916766833333334, "lon": -77.03186766666667, "is_reserved": 0, "fusion_lon": 0.0}, {"rental_uris": {"ios": "https://dc.lft.to/lastmile_qr_scan", "android": "https://dc.lft.to/lastmile_qr_scan"}, "fusion_lat": 0.0, "name": "c43898a7424bec52195345cceab79f65", "bike_id": "c43898a7424bec52195345cceab79f65", "is_disabled": 0, "type": "electric_bike", "lat": 38.857987666666666, "lon": -76.987555, "is_reserved": 0, "fusion_lon": 0.0}, {"rental_uris": {"ios": "https://dc.lft.to/lastmile_qr_scan", "android": "https://dc.lft.to/lastmile_qr_scan"}, "fusion_lat": 0.0, "name": "735345d242b6f1aba793672ef04f6454", "bike_id": "735345d242b6f1aba793672ef04f6454", "is_disabled": 0, "type": "electric_scooter", "lat": 38.9342085, "lon": -77.05548816666666, "is_reserved": 0, "fusion_lon": 0.0}, {"rental_uris": {"ios": "https://dc.lft.to/lastmile_qr_scan", "android": "https://dc.lft.to/lastmile_qr_scan"}, "fusion_lat": 0.0, "name": "d442c8d7d36c4124ec9f400ea05f22d1", "bike_id": "d442c8d7d36c4124ec9f400ea05f22d1", "is_disabled": 0, "type": "electric_scooter", "lat": 38.90280116666667, "lon": -77.0364125, "is_reserved": 0, "fusion_lon": 0.0}, {"rental_uris": {"ios": "https://dc.lft.to/lastmile_qr_scan", "android": "https://dc.lft.to/lastmile_qr_scan"}, "fusion_lat": 0.0, "name": "32ce588061ec27309454c9b6081b36eb", "bike_id": "32ce588061ec27309454c9b6081b36eb", "is_disabled": 0, "type": "electric_scooter", "lat": 38.901084833333336, "lon": -77.03176283333333, "is_reserved": 0, "fusion_lon": 0.0}, {"rental_uris": {"ios": "https://dc.lft.to/lastmile_qr_scan", "android": "https://dc.lft.to/lastmile_qr_scan"}, "fusion_lat": 0.0, "name": "478d254c4bdd14d8195e83a7bcc536ab", "bike_id": "478d254c4bdd14d8195e83a7bcc536ab", "is_disabled": 0, "type": "electric_scooter", "lat": 38.9540105, "lon": -77.02793433333333, "is_reserved": 0, "fusion_lon": 0.0}, {"rental_uris": {"ios": "https://dc.lft.to/lastmile_qr_scan", "android": "https://dc.lft.to/lastmile_qr_scan"}, "fusion_lat": 0.0, "name": "abe60b628ddc1c33ca56c5f9c1feca07", "bike_id": "abe60b628ddc1c33ca56c5f9c1feca07", "is_disabled": 0, "type": "electric_scooter", "lat": 38.90512366666667, "lon": -77.04165883333333, "is_reserved": 0, "fusion_lon": 0.0}, {"rental_uris": {"ios": "https://dc.lft.to/lastmile_qr_scan", "android": "https://dc.lft.to/lastmile_qr_scan"}, "fusion_lat": 0.0, "name": "3b4e6ec178a4c84fdd602c7ddd5916b5", "bike_id": "3b4e6ec178a4c84fdd602c7ddd5916b5", "is_disabled": 0, "type": "electric_scooter", "lat": 38.95777833333333, "lon": -77.02759366666666, "is_reserved": 0, "fusion_lon": 0.0}, {"rental_uris": {"ios": "https://dc.lft.to/lastmile_qr_scan", "android": "https://dc.lft.to/lastmile_qr_scan"}, "fusion_lat": 0.0, "name": "208459437653fc7b65ce420e9366fd42", "bike_id": "208459437653fc7b65ce420e9366fd42", "is_disabled": 0, "type": "electric_scooter", "lat": 38.915488, "lon": -77.02216433333334, "is_reserved": 0, "fusion_lon": 0.0}, {"rental_uris": {"ios": "https://dc.lft.to/lastmile_qr_scan", "android": "https://dc.lft.to/lastmile_qr_scan"}, "fusion_lat": 0.0, "name": "ce68b65df0144930b501c8a6273f2fba", "bike_id": "ce68b65df0144930b501c8a6273f2fba", "is_disabled": 0, "type": "electric_scooter", "lat": 38.907409, "lon": -77.04200066666667, "is_reserved": 0, "fusion_lon": 0.0}, {"rental_uris": {"ios": "https://dc.lft.to/lastmile_qr_scan", "android": "https://dc.lft.to/lastmile_qr_scan"}, "fusion_lat": 0.0, "name": "907a542ea87c557b1b1790e177d12432", "bike_id": "907a542ea87c557b1b1790e177d12432", "is_disabled": 0, "type": "electric_scooter", "lat": 38.892178333333334, "lon": -77.04146683333333, "is_reserved": 0, "fusion_lon": 0.0}, {"rental_uris": {"ios": "https://dc.lft.to/lastmile_qr_scan", "android": "https://dc.lft.to/lastmile_qr_scan"}, "fusion_lat": 0.0, "name": "8ad229f89862b7dbc4862dc35f97de3c", "bike_id": "8ad229f89862b7dbc4862dc35f97de3c", "is_disabled": 0, "type": "electric_scooter", "lat": 38.91697583333333, "lon": -77.03361816666667, "is_reserved": 0, "fusion_lon": 0.0}, {"rental_uris": {"ios": "https://dc.lft.to/lastmile_qr_scan", "android": "https://dc.lft.to/lastmile_qr_scan"}, "fusion_lat": 0.0, "name": "f97fe373decc8762c3b61f5a32eb9e6f", "bike_id": "f97fe373decc8762c3b61f5a32eb9e6f", "is_disabled": 0, "type": "electric_scooter", "lat": 38.9140815, "lon": -77.01307916666667, "is_reserved": 0, "fusion_lon": 0.0}, {"rental_uris": {"ios": "https://dc.lft.to/lastmile_qr_scan", "android": "https://dc.lft.to/lastmile_qr_scan"}, "fusion_lat": 0.0, "name": "7105d0014f7b93f2032fd1ac8aae5665", "bike_id": "7105d0014f7b93f2032fd1ac8aae5665", "is_disabled": 0, "type": "electric_scooter", "lat": 38.9086475, "lon": -77.04589433333334, "is_reserved": 0, "fusion_lon": 0.0}, {"rental_uris": {"ios": "https://dc.lft.to/lastmile_qr_scan", "android": "https://dc.lft.to/lastmile_qr_scan"}, "fusion_lat": 0.0, "name": "d27d5613cd9d523bcd9d247d0a1a4316", "bike_id": "d27d5613cd9d523bcd9d247d0a1a4316", "is_disabled": 0, "type": "electric_scooter", "lat": 38.918139333333336, "lon": -77.032118, "is_reserved": 0, "fusion_lon": 0.0}, {"rental_uris": {"ios": "https://dc.lft.to/lastmile_qr_scan", "android": "https://dc.lft.to/lastmile_qr_scan"}, "fusion_lat": 0.0, "name": "58a77f1aecee284329036269161115d9", "bike_id": "58a77f1aecee284329036269161115d9", "is_disabled": 0, "type": "electric_scooter", "lat": 38.900066, "lon": -76.9981685, "is_reserved": 0, "fusion_lon": 0.0}, {"rental_uris": {"ios": "https://dc.lft.to/lastmile_qr_scan", "android": "https://dc.lft.to/lastmile_qr_scan"}, "fusion_lat": 0.0, "name": "24f9b7012132682da9c9bd6a0e384440", "bike_id": "24f9b7012132682da9c9bd6a0e384440", "is_disabled": 0, "type": "electric_scooter", "lat": 38.90330083333333, "lon": -76.97595066666666, "is_reserved": 0, "fusion_lon": 0.0}, {"rental_uris": {"ios": "https://dc.lft.to/lastmile_qr_scan", "android": "https://dc.lft.to/lastmile_qr_scan"}, "fusion_lat": 0.0, "name": "051f3044ee4bfd29a27eb7aec251d4c7", "bike_id": "051f3044ee4bfd29a27eb7aec251d4c7", "is_disabled": 0, "type": "electric_scooter", "lat": 38.91842833333333, "lon": -77.03441766666667, "is_reserved": 0, "fusion_lon": 0.0}, {"rental_uris": {"ios": "https://dc.lft.to/lastmile_qr_scan", "android": "https://dc.lft.to/lastmile_qr_scan"}, "fusion_lat": 0.0, "name": "db7ddf2759def8c10198b9895fbce920", "bike_id": "db7ddf2759def8c10198b9895fbce920", "is_disabled": 0, "type": "electric_scooter", "lat": 38.93143333333333, "lon": -77.0335395, "is_reserved": 0, "fusion_lon": 0.0}, {"rental_uris": {"ios": "https://dc.lft.to/lastmile_qr_scan", "android": "https://dc.lft.to/lastmile_qr_scan"}, "fusion_lat": 0.0, "name": "ef0600d45b0cc7e4c433088c01d608e8", "bike_id": "ef0600d45b0cc7e4c433088c01d608e8", "is_disabled": 0, "type": "electric_scooter", "lat": 38.92404833333333, "lon": -77.02544616666667, "is_reserved": 0, "fusion_lon": 0.0}, {"rental_uris": {"ios": "https://dc.lft.to/lastmile_qr_scan", "android": "https://dc.lft.to/lastmile_qr_scan"}, "fusion_lat": 0.0, "name": "88b19d67c34c2f1ea0353f7e4303d996", "bike_id": "88b19d67c34c2f1ea0353f7e4303d996", "is_disabled": 0, "type": "electric_scooter", "lat": 38.9027895, "lon": -77.03848116666667, "is_reserved": 0, "fusion_lon": 0.0}, {"rental_uris": {"ios": "https://dc.lft.to/lastmile_qr_scan", "android": "https://dc.lft.to/lastmile_qr_scan"}, "fusion_lat": 0.0, "name": "45208e7685b00d8a2264a60d6a574b9e", "bike_id": "45208e7685b00d8a2264a60d6a574b9e", "is_disabled": 0, "type": "electric_scooter", "lat": 38.9104895, "lon": -77.05582733333334, "is_reserved": 0, "fusion_lon": 0.0}, {"rental_uris": {"ios": "https://dc.lft.to/lastmile_qr_scan", "android": "https://dc.lft.to/lastmile_qr_scan"}, "fusion_lat": 0.0, "name": "284391302cbab0845e78a9b07d3c2f1f", "bike_id": "284391302cbab0845e78a9b07d3c2f1f", "is_disabled": 0, "type": "electric_scooter", "lat": 38.9236395, "lon": -77.05129816666667, "is_reserved": 0, "fusion_lon": 0.0}, {"rental_uris": {"ios": "https://dc.lft.to/lastmile_qr_scan", "android": "https://dc.lft.to/lastmile_qr_scan"}, "fusion_lat": 0.0, "name": "3b5736582e85ffed1761fc3572341749", "bike_id": "3b5736582e85ffed1761fc3572341749", "is_disabled": 0, "type": "electric_scooter", "lat": 38.91910983333333, "lon": -77.03196283333334, "is_reserved": 0, "fusion_lon": 0.0}, {"rental_uris": {"ios": "https://dc.lft.to/lastmile_qr_scan", "android": "https://dc.lft.to/lastmile_qr_scan"}, "fusion_lat": 0.0, "name": "eddd8cb23b846755e90cb664e82657d1", "bike_id": "eddd8cb23b846755e90cb664e82657d1", "is_disabled": 0, "type": "electric_scooter", "lat": 38.918145333333335, "lon": -77.03213883333333, "is_reserved": 0, "fusion_lon": 0.0}, {"rental_uris": {"ios": "https://dc.lft.to/lastmile_qr_scan", "android": "https://dc.lft.to/lastmile_qr_scan"}, "fusion_lat": 0.0, "name": "728035e876f48acde91261861d903dc9", "bike_id": "728035e876f48acde91261861d903dc9", "is_disabled": 0, "type": "electric_bike", "lat": 38.92853616666667, "lon": -77.2221645, "is_reserved": 0, "fusion_lon": 0.0}, {"rental_uris": {"ios": "https://dc.lft.to/lastmile_qr_scan", "android": "https://dc.lft.to/lastmile_qr_scan"}, "fusion_lat": 0.0, "name": "2af6560992791fc30148c846b5aeb2af", "bike_id": "2af6560992791fc30148c846b5aeb2af", "is_disabled": 0, "type": "electric_scooter", "lat": 38.89976766666667, "lon": -76.939897, "is_reserved": 0, "fusion_lon": 0.0}, {"rental_uris": {"ios": "https://dc.lft.to/lastmile_qr_scan", "android": "https://dc.lft.to/lastmile_qr_scan"}, "fusion_lat": 0.0, "name": "ff3eb6a92159d3d931ec7a8e18691d55", "bike_id": "ff3eb6a92159d3d931ec7a8e18691d55", "is_disabled": 0, "type": "electric_bike", "lat": 39.08854733333333, "lon": -77.17842233333333, "is_reserved": 0, "fusion_lon": 0.0}, {"rental_uris": {"ios": "https://dc.lft.to/lastmile_qr_scan", "android": "https://dc.lft.to/lastmile_qr_scan"}, "fusion_lat": 0.0, "name": "ff2b94b14aa098ce2d41af7e26c8e14d", "bike_id": "ff2b94b14aa098ce2d41af7e26c8e14d", "is_disabled": 0, "type": "electric_scooter", "lat": 38.90677733333333, "lon": -77.0269405, "is_reserved": 0, "fusion_lon": 0.0}, {"rental_uris": {"ios": "https://dc.lft.to/lastmile_qr_scan", "android": "https://dc.lft.to/lastmile_qr_scan"}, "fusion_lat": 0.0, "name": "d1969698bc0ef19daef2a2c89e09306b", "bike_id": "d1969698bc0ef19daef2a2c89e09306b", "is_disabled": 0, "type": "electric_scooter", "lat": 38.915515666666664, "lon": -77.02416483333333, "is_reserved": 0, "fusion_lon": 0.0}, {"rental_uris": {"ios": "https://dc.lft.to/lastmile_qr_scan", "android": "https://dc.lft.to/lastmile_qr_scan"}, "fusion_lat": 0.0, "name": "916937ecb06f713bd6054552edd61be7", "bike_id": "916937ecb06f713bd6054552edd61be7", "is_disabled": 0, "type": "electric_bike", "lat": 38.87480516666667, "lon": -76.96529716666667, "is_reserved": 0, "fusion_lon": 0.0}, {"rental_uris": {"ios": "https://dc.lft.to/lastmile_qr_scan", "android": "https://dc.lft.to/lastmile_qr_scan"}, "fusion_lat": 0.0, "name": "4400db60528a075db507e399fc703c60", "bike_id": "4400db60528a075db507e399fc703c60", "is_disabled": 0, "type": "electric_bike", "lat": 38.91581733333334, "lon": -76.97879116666667, "is_reserved": 0, "fusion_lon": 0.0}, {"rental_uris": {"ios": "https://dc.lft.to/lastmile_qr_scan", "android": "https://dc.lft.to/lastmile_qr_scan"}, "fusion_lat": 0.0, "name": "44bc1e7302d200d29608a5e8eae76fab", "bike_id": "44bc1e7302d200d29608a5e8eae76fab", "is_disabled": 0, "type": "electric_scooter", "lat": 38.92253866666667, "lon": -77.01937583333333, "is_reserved": 0, "fusion_lon": 0.0}, {"rental_uris": {"ios": "https://dc.lft.to/lastmile_qr_scan", "android": "https://dc.lft.to/lastmile_qr_scan"}, "fusion_lat": 0.0, "name": "c353ada47156100ee42b4908fddb4cf3", "bike_id": "c353ada47156100ee42b4908fddb4cf3", "is_disabled": 0, "type": "electric_scooter", "lat": 38.907881, "lon": -77.032052, "is_reserved": 0, "fusion_lon": 0.0}, {"rental_uris": {"ios": "https://dc.lft.to/lastmile_qr_scan", "android": "https://dc.lft.to/lastmile_qr_scan"}, "fusion_lat": 0.0, "name": "8b20367fb1e2c5ebace28318dfb1fa6e", "bike_id": "8b20367fb1e2c5ebace28318dfb1fa6e", "is_disabled": 0, "type": "electric_scooter", "lat": 38.92168866666667, "lon": -77.04018083333334, "is_reserved": 0, "fusion_lon": 0.0}, {"rental_uris": {"ios": "https://dc.lft.to/lastmile_qr_scan", "android": "https://dc.lft.to/lastmile_qr_scan"}, "fusion_lat": 0.0, "name": "3b1e43e8a1840a652d1076852cf5fc73", "bike_id": "3b1e43e8a1840a652d1076852cf5fc73", "is_disabled": 0, "type": "electric_scooter", "lat": 38.89606583333333, "lon": -77.02602916666666, "is_reserved": 0, "fusion_lon": 0.0}, {"rental_uris": {"ios": "https://dc.lft.to/lastmile_qr_scan", "android": "https://dc.lft.to/lastmile_qr_scan"}, "fusion_lat": 0.0, "name": "f8c57ca3a69887e8c1b344965d68e9b3", "bike_id": "f8c57ca3a69887e8c1b344965d68e9b3", "is_disabled": 0, "type": "electric_scooter", "lat": 38.91685666666667, "lon": -77.02965966666666, "is_reserved": 0, "fusion_lon": 0.0}, {"rental_uris": {"ios": "https://dc.lft.to/lastmile_qr_scan", "android": "https://dc.lft.to/lastmile_qr_scan"},