{"data": {"bikes": [{"type": "electric_scooter", "bike_id": "02abe4ce8797ac383724fda63350bd6b", "is_disabled": 0, "name": "02abe4ce8797ac383724fda63350bd6b", "lon": -77.0326445, "is_reserved": 0, "fusion_lon": 0.0, "lat": 38.898967166666665, "rental_uris": {"android": "https://dc.lft.to/lastmile_qr_scan", "ios": "https://dc.lft.to/lastmile_qr_scan"}, "fusion_lat": 0.0}, {"type": "electric_scooter", "bike_id": "4de72e8ec1f3e308502bdd701f09dff9", "is_disabled": 0, "name": "4de72e8ec1f3e308502bdd701f09dff9", "lon": -77.017938, "is_reserved": 0, "fusion_lon": 0.0, "lat": 38.91987733333333, "rental_uris": {"android": "https://dc.lft.to/lastmile_qr_scan", "ios": "https://dc.lft.to/lastmile_qr_scan"}, "fusion_lat": 0.0}, {"type": "electric_scooter", "bike_id": "65bcdc6cf8fce3c3124712a8e602a2ab", "is_disabled": 0, "name": "65bcdc6cf8fce3c3124712a8e602a2ab", "lon": -77.02209766666667, "is_reserved": 0, "fusion_lon": 0.0, "lat": 38.90538883333333, "rental_uris": {"android": "https://dc.lft.to/lastmile_qr_scan", "ios": "https://dc.lft.to/lastmile_qr_scan"}, "fusion_lat": 0.0}, {"type": "electric_scooter", "bike_id": "980cfe0f797ce6e9e6ba747a1fb02583", "is_disabled": 0, "name": "980cfe0f797ce6e9e6ba747a1fb02583", "lon": -77.02197833333334, "is_reserved": 0, "fusion_lon": 0.0, "lat": 38.9246605, "rental_uris": {"android": "https://dc.lft.to/lastmile_qr_scan", "ios": "https://dc.lft.to/lastmile_qr_scan"}, "fusion_lat": 0.0}, {"type": "electric_scooter", "bike_id": "7942f3bcd2dc0384477ddbd7b81e00a9", "is_disabled": 0, "name": "7942f3bcd2dc0384477ddbd7b81e00a9", "lon": -76.986041, "is_reserved": 0, "fusion_lon": 0.0, "lat": 38.90651183333333, "rental_uris": {"android": "https://dc.lft.to/lastmile_qr_scan", "ios": "https://dc.lft.to/lastmile_qr_scan"}, "fusion_lat": 0.0}, {"type": "electric_bike", "bike_id": "fe792743458cc5d04eea46908d6886b7", "is_disabled": 0, "name": "fe792743458cc5d04eea46908d6886b7", "lon": -76.9971655, "is_reserved": 0, "fusion_lon": 0.0, "lat": 38.998510333333336, "rental_uris": {"android": "https://dc.lft.to/lastmile_qr_scan", "ios": "https://dc.lft.to/lastmile_qr_scan"}, "fusion_lat": 0.0}, {"type": "electric_scooter", "bike_id": "a0386e7a98c1c8e56f41a3c380ceaff2", "is_disabled": 0, "name": "a0386e7a98c1c8e56f41a3c380ceaff2", "lon": -77.00211466666667, "is_reserved": 0, "fusion_lon": 0.0, "lat": 38.9244655, "rental_uris": {"android": "https://dc.lft.to/lastmile_qr_scan", "ios": "https://dc.lft.to/lastmile_qr_scan"}, "fusion_lat": 0.0}, {"type": "electric_scooter", "bike_id": "a7e09900acd899a8efc0a8e1cefd4613", "is_disabled": 0, "name": "a7e09900acd899a8efc0a8e1cefd4613", "lon": -77.01793416666666, "is_reserved": 0, "fusion_lon": 0.0, "lat": 38.919955, "rental_uris": {"android": "https://dc.lft.to/lastmile_qr_scan", "ios": "https://dc.lft.to/lastmile_qr_scan"}, "fusion_lat": 0.0}, {"type": "electric_bike", "bike_id": "b550ac8b89e7dadadc63644cc348779f", "is_disabled": 0, "name": "b550ac8b89e7dadadc63644cc348779f", "lon": -76.97435283333333, "is_reserved": 0, "fusion_lon": 0.0, "lat": 38.855828833333334, "rental_uris": {"android": "https://dc.lft.to/lastmile_qr_scan", "ios": "https://dc.lft.to/lastmile_qr_scan"}, "fusion_lat": 0.0}, {"type": "electric_scooter", "bike_id": "687852dcb3f36e2717c113eed4c4265a", "is_disabled": 0, "name": "687852dcb3f36e2717c113eed4c4265a", "lon": -76.99446133333333, "is_reserved": 0, "fusion_lon": 0.0, "lat": 38.82766083333333, "rental_uris": {"android": "https://dc.lft.to/lastmile_qr_scan", "ios": "https://dc.lft.to/lastmile_qr_scan"}, "fusion_lat": 0.0}, {"type": "electric_scooter", "bike_id": "33b11a3c995fdca4235d77392ab79671", "is_disabled": 0, "name": "33b11a3c995fdca4235d77392ab79671", "lon": -77.04996616666666, "is_reserved": 0, "fusion_lon": 0.0, "lat": 38.90512916666667, "rental_uris": {"android": "https://dc.lft.to/lastmile_qr_scan", "ios": "https://dc.lft.to/lastmile_qr_scan"}, "fusion_lat": 0.0}, {"type": "electric_scooter", "bike_id": "86aa266932a617c22469443af830e4a5", "is_disabled": 0, "name": "86aa266932a617c22469443af830e4a5", "lon": -77.04334433333334, "is_reserved": 0, "fusion_lon": 0.0, "lat": 38.904173166666666, "rental_uris": {"android": "https://dc.lft.to/lastmile_qr_scan", "ios": "https://dc.lft.to/lastmile_qr_scan"}, "fusion_lat": 0.0}, {"type": "electric_scooter", "bike_id": "ea8c854826a3480c31965bc87de44d5c", "is_disabled": 0, "name": "ea8c854826a3480c31965bc87de44d5c", "lon": -77.00588383333333, "is_reserved": 0, "fusion_lon": 0.0, "lat": 38.90285016666667, "rental_uris": {"android": "https://dc.lft.to/lastmile_qr_scan", "ios": "https://dc.lft.to/lastmile_qr_scan"}, "fusion_lat": 0.0}, {"type": "electric_scooter", "bike_id": "731719487b274ff08a97838bc896fc66", "is_disabled": 0, "name": "731719487b274ff08a97838bc896fc66", "lon": -77.034463, "is_reserved": 0, "fusion_lon": 0.0, "lat": 38.90806716666667, "rental_uris": {"android": "https://dc.lft.to/lastmile_qr_scan", "ios": "https://dc.lft.to/lastmile_qr_scan"}, "fusion_lat": 0.0}, {"type": "electric_scooter", "bike_id": "53151365f47380c7e6d1bae4780b78b7", "is_disabled": 0, "name": "53151365f47380c7e6d1bae4780b78b7", "lon": -77.0318355, "is_reserved": 0, "fusion_lon": 0.0, "lat": 38.919043333333335, "rental_uris": {"android": "https://dc.lft.to/lastmile_qr_scan", "ios": "https://dc.lft.to/lastmile_qr_scan"}, "fusion_lat": 0.0}, {"type": "electric_scooter", "bike_id": "f8c040ba15bc4332e9ee8ebf5627d6de", "is_disabled": 0, "name": "f8c040ba15bc4332e9ee8ebf5627d6de", "lon": -77.0238225, "is_reserved": 0, "fusion_lon": 0.0, "lat": 38.90967116666667, "rental_uris": {"android": "https://dc.lft.to/lastmile_qr_scan", "ios": "https://dc.lft.to/lastmile_qr_scan"}, "fusion_lat": 0.0}, {"type": "electric_scooter", "bike_id": "b3360b544838e456cd9d44f652885e60", "is_disabled": 0, "name": "b3360b544838e456cd9d44f652885e60", "lon": -77.02643483333334, "is_reserved": 0, "fusion_lon": 0.0, "lat": 38.93099183333333, "rental_uris": {"android": "https://dc.lft.to/lastmile_qr_scan", "ios": "https://dc.lft.to/lastmile_qr_scan"}, "fusion_lat": 0.0}, {"type": "electric_scooter", "bike_id": "98515a002239f8b2c451f241acd14cab", "is_disabled": 0, "name": "98515a002239f8b2c451f241acd14cab", "lon": -76.98992633333333, "is_reserved": 0, "fusion_lon": 0.0, "lat": 38.86439433333334, "rental_uris": {"android": "https://dc.lft.to/lastmile_qr_scan", "ios": "https://dc.lft.to/lastmile_qr_scan"}, "fusion_lat": 0.0}, {"type": "electric_scooter", "bike_id": "7f921ba34aed6d3723f0c083e6364a3d", "is_disabled": 0, "name": "7f921ba34aed6d3723f0c083e6364a3d", "lon": -77.04858816666666, "is_reserved": 0, "fusion_lon": 0.0, "lat": 38.8992065, "rental_uris": {"android": "https://dc.lft.to/lastmile_qr_scan", "ios": "https://dc.lft.to/lastmile_qr_scan"}, "fusion_lat": 0.0}, {"type": "electric_scooter", "bike_id": "ef31be0bdea0bb6f403e074ecbbb30a3", "is_disabled": 0, "name": "ef31be0bdea0bb6f403e074ecbbb30a3", "lon": -77.01614583333334, "is_reserved": 0, "fusion_lon": 0.0, "lat": 38.90602616666666, "rental_uris": {"android": "https://dc.lft.to/lastmile_qr_scan", "ios": "https://dc.lft.to/lastmile_qr_scan"}, "fusion_lat": 0.0}, {"type": "electric_scooter", "bike_id": "8eae88e6f7fc88ec4d7b7c7b12a88e88", "is_disabled": 0, "name": "8eae88e6f7fc88ec4d7b7c7b12a88e88", "lon": -76.98305, "is_reserved": 0, "fusion_lon": 0.0, "lat": 38.868841333333336, "rental_uris": {"android": "https://dc.lft.to/lastmile_qr_scan", "ios": "https://dc.lft.to/lastmile_qr_scan"}, "fusion_lat": 0.0}, {"type": "electric_scooter", "bike_id": "fd41cd547e3803335752a56835a45453", "is_disabled": 0, "name": "fd41cd547e3803335752a56835a45453", "lon": -77.03414883333333, "is_reserved": 0, "fusion_lon": 0.0, "lat": 38.9309345, "rental_uris": {"android": "https://dc.lft.to/lastmile_qr_scan", "ios": "https://dc.lft.to/lastmile_qr_scan"}, "fusion_lat": 0.0}, {"type": "electric_scooter", "bike_id": "77f3975abc481f8963663a3627bd5e22", "is_disabled": 0, "name": "77f3975abc481f8963663a3627bd5e22", "lon": -77.0384975, "is_reserved": 0, "fusion_lon": 0.0, "lat": 38.911253333333335, "rental_uris": {"android": "https://dc.lft.to/lastmile_qr_scan", "ios": "https://dc.lft.to/lastmile_qr_scan"}, "fusion_lat": 0.0}, {"type": "electric_scooter", "bike_id": "a7a69e91547daee5e56bbaea22167fd4", "is_disabled": 0, "name": "a7a69e91547daee5e56bbaea22167fd4", "lon": -77.0395705, "is_reserved": 0, "fusion_lon": 0.0, "lat": 38.90831566666667, "rental_uris": {"android": "https://dc.lft.to/lastmile_qr_scan", "ios": "https://dc.lft.to/lastmile_qr_scan"}, "fusion_lat": 0.0}, {"type": "electric_scooter", "bike_id": "dc07685029e0bed8fb0293401bd2bf43", "is_disabled": 0, "name": "dc07685029e0bed8fb0293401bd2bf43", "lon": -77.03148533333334, "is_reserved": 0, "fusion_lon": 0.0, "lat": 38.9169145, "rental_uris": {"android": "https://dc.lft.to/lastmile_qr_scan", "ios": "https://dc.lft.to/lastmile_qr_scan"}, "fusion_lat": 0.0}, {"type": "electric_scooter", "bike_id": "66dbe7efd04facdbecd195e2d980c219", "is_disabled": 0, "name": "66dbe7efd04facdbecd195e2d980c219", "lon": -76.9951635, "is_reserved": 0, "fusion_lon": 0.0, "lat": 38.8878645, "rental_uris": {"android": "https://dc.lft.to/lastmile_qr_scan", "ios": "https://dc.lft.to/lastmile_qr_scan"}, "fusion_lat": 0.0}, {"type": "electric_scooter", "bike_id": "6042ac4acb6070c6a5ec158ae274bf2d", "is_disabled": 0, "name": "6042ac4acb6070c6a5ec158ae274bf2d", "lon": -77.043445, "is_reserved": 0, "fusion_lon": 0.0, "lat": 38.90493, "rental_uris": {"android": "https://dc.lft.to/lastmile_qr_scan", "ios": "https://dc.lft.to/lastmile_qr_scan"}, "fusion_lat": 0.0}, {"type": "electric_scooter", "bike_id": "67d8adc61bd06e1c02a3edd9c8eddf0d", "is_disabled": 0, "name": "67d8adc61bd06e1c02a3edd9c8eddf0d", "lon": -77.00210866666667, "is_reserved": 0, "fusion_lon": 0.0, "lat": 38.914570166666664, "rental_uris": {"android": "https://dc.lft.to/lastmile_qr_scan", "ios": "https://dc.lft.to/lastmile_qr_scan"}, "fusion_lat": 0.0}, {"type": "electric_bike", "bike_id": "08b53cb3191c35b66144b2160d125bac", "is_disabled": 0, "name": "08b53cb3191c35b66144b2160d125bac", "lon": -76.9454325, "is_reserved": 0, "fusion_lon": 0.0, "lat": 38.983020333333336, "rental_uris": {"android": "https://dc.lft.to/lastmile_qr_scan", "ios": "https://dc.lft.to/lastmile_qr_scan"}, "fusion_lat": 0.0}, {"type": "electric_scooter", "bike_id": "b7177a77493c801791877cbf11980101", "is_disabled": 0, "name": "b7177a77493c801791877cbf11980101", "lon": -77.0966775, "is_reserved": 0, "fusion_lon": 0.0, "lat": 38.917627833333334, "rental_uris": {"android": "https://dc.lft.to/lastmile_qr_scan", "ios": "https://dc.lft.to/lastmile_qr_scan"}, "fusion_lat": 0.0}, {"type": "electric_scooter", "bike_id": "f52b23c467d68b390a75a1fe02de4274", "is_disabled": 0, "name": "f52b23c467d68b390a75a1fe02de4274", "lon": -77.028448, "is_reserved": 0, "fusion_lon": 0.0, "lat": 38.93309383333333, "rental_uris": {"android": "https://dc.lft.to/lastmile_qr_scan", "ios": "https://dc.lft.to/lastmile_qr_scan"}, "fusion_lat": 0.0}, {"type": "electric_scooter", "bike_id": "9dfc34527a16357009c95dd6c7e268fa", "is_disabled": 0, "name": "9dfc34527a16357009c95dd6c7e268fa", "lon": -77.03993616666666, "is_reserved": 0, "fusion_lon": 0.0, "lat": 38.9342685, "rental_uris": {"android": "https://dc.lft.to/lastmile_qr_scan", "ios": "https://dc.lft.to/lastmile_qr_scan"}, "fusion_lat": 0.0}, {"type": "electric_scooter", "bike_id": "50d2addbfddb7806bed4f5650dc34a96", "is_disabled": 0, "name": "50d2addbfddb7806bed4f5650dc34a96", "lon": -77.03555016666667, "is_reserved": 0, "fusion_lon": 0.0, "lat": 38.9035355, "rental_uris": {"android": "https://dc.lft.to/lastmile_qr_scan", "ios": "https://dc.lft.to/lastmile_qr_scan"}, "fusion_lat": 0.0}, {"type": "electric_bike", "bike_id": "5e0c2e67025301b697fe8ce0b56f420f", "is_disabled": 0, "name": "5e0c2e67025301b697fe8ce0b56f420f", "lon": -76.95246116666667, "is_reserved": 0, "fusion_lon": 0.0, "lat": 38.88462166666667, "rental_uris": {"android": "https://dc.lft.to/lastmile_qr_scan", "ios": "https://dc.lft.to/lastmile_qr_scan"}, "fusion_lat": 0.0}, {"type": "electric_scooter", "bike_id": "23fe585b10d3e1a8666fd01fbbefe6e2", "is_disabled": 0, "name": "23fe585b10d3e1a8666fd01fbbefe6e2", "lon": -77.003167, "is_reserved": 0, "fusion_lon": 0.0, "lat": 38.89526766666667, "rental_uris": {"android": "https://dc.lft.to/lastmile_qr_scan", "ios": "https://dc.lft.to/lastmile_qr_scan"}, "fusion_lat": 0.0}, {"type": "electric_scooter", "bike_id": "85ee3dab2a1fa561c4d27ab3a88522d7", "is_disabled": 0, "name": "85ee3dab2a1fa561c4d27ab3a88522d7", "lon": -77.009175, "is_reserved": 0, "fusion_lon": 0.0, "lat": 38.900281666666665, "rental_uris": {"android": "https://dc.lft.to/lastmile_qr_scan", "ios": "https://dc.lft.to/lastmile_qr_scan"}, "fusion_lat": 0.0}, {"type": "electric_scooter", "bike_id": "f81396a863a7a38674cbc95ae070cc68", "is_disabled": 0, "name": "f81396a863a7a38674cbc95ae070cc68", "lon": -77.03054783333333, "is_reserved": 0, "fusion_lon": 0.0, "lat": 38.90015483333333, "rental_uris": {"android": "https://dc.lft.to/lastmile_qr_scan", "ios": "https://dc.lft.to/lastmile_qr_scan"}, "fusion_lat": 0.0}, {"type": "electric_bike", "bike_id": "befa936d980ca5e66fe487c9ddc17d80", "is_disabled": 0, "name": "befa936d980ca5e66fe487c9ddc17d80", "lon": -77.064582, "is_reserved": 0, "fusion_lon": 0.0, "lat": 38.905120833333335, "rental_uris": {"android": "https://dc.lft.to/lastmile_qr_scan", "ios": "https://dc.lft.to/lastmile_qr_scan"}, "fusion_lat": 0.0}, {"type": "electric_scooter", "bike_id": "cd9d54967374c759a4a3334f3b82eb3d", "is_disabled": 0, "name": "cd9d54967374c759a4a3334f3b82eb3d", "lon": -77.00065833333333, "is_reserved": 0, "fusion_lon": 0.0, "lat": 38.87687866666667, "rental_uris": {"android": "https://dc.lft.to/lastmile_qr_scan", "ios": "https://dc.lft.to/lastmile_qr_scan"}, "fusion_lat": 0.0}, {"type": "electric_bike", "bike_id": "71038a237d9f711aa638431b7f76ceab", "is_disabled": 0, "name": "71038a237d9f711aa638431b7f76ceab", "lon": -77.02868716666667, "is_reserved": 0, "fusion_lon": 0.0, "lat": 38.92129933333333, "rental_uris": {"android": "https://dc.lft.to/lastmile_qr_scan", "ios": "https://dc.lft.to/lastmile_qr_scan"}, "fusion_lat": 0.0}, {"type": "electric_scooter", "bike_id": "e035763a0395ded13b1734b9317119fd", "is_disabled": 0, "name": "e035763a0395ded13b1734b9317119fd", "lon": -77.02183733333334, "is_reserved": 0, "fusion_lon": 0.0, "lat": 38.894765, "rental_uris": {"android": "https://dc.lft.to/lastmile_qr_scan", "ios": "https://dc.lft.to/lastmile_qr_scan"}, "fusion_lat": 0.0}, {"type": "electric_scooter", "bike_id": "62b68bca21f125fd8e8ab04a91937dc6", "is_disabled": 0, "name": "62b68bca21f125fd8e8ab04a91937dc6", "lon": -76.93754116666666, "is_reserved": 0, "fusion_lon": 0.0, "lat": 38.8786175, "rental_uris": {"android": "https://dc.lft.to/lastmile_qr_scan", "ios": "https://dc.lft.to/lastmile_qr_scan"}, "fusion_lat": 0.0}, {"type": "electric_scooter", "bike_id": "8e59f52571817ab032c83d811bbbeb2c", "is_disabled": 0, "name": "8e59f52571817ab032c83d811bbbeb2c", "lon": -77.0438815, "is_reserved": 0, "fusion_lon": 0.0, "lat": 38.90571683333334, "rental_uris": {"android": "https://dc.lft.to/lastmile_qr_scan", "ios": "https://dc.lft.to/lastmile_qr_scan"}, "fusion_lat": 0.0}, {"type": "electric_scooter", "bike_id": "6379cf4381f7ba6f761fd43c169a8924", "is_disabled": 0, "name": "6379cf4381f7ba6f761fd43c169a8924", "lon": -77.02008916666666, "is_reserved": 0, "fusion_lon": 0.0, "lat": 38.900488, "rental_uris": {"android": "https://dc.lft.to/lastmile_qr_scan", "ios": "https://dc.lft.to/lastmile_qr_scan"}, "fusion_lat": 0.0}, {"type": "electric_bike", "bike_id": "3bf4e196ef84f2baa9a309eab1703e6f", "is_disabled": 0, "name": "3bf4e196ef84f2baa9a309eab1703e6f", "lon": -76.99642166666666, "is_reserved": 0, "fusion_lon": 0.0, "lat": 38.898822, "rental_uris": {"android": "https://dc.lft.to/lastmile_qr_scan", "ios": "https://dc.lft.to/lastmile_qr_scan"}, "fusion_lat": 0.0}, {"type": "electric_scooter", "bike_id": "da14eedc6ed4f023cf3a4a0d8865083f", "is_disabled": 0, "name": "da14eedc6ed4f023cf3a4a0d8865083f", "lon": -77.0330195, "is_reserved": 0, "fusion_lon": 0.0, "lat": 38.9262495, "rental_uris": {"android": "https://dc.lft.to/lastmile_qr_scan", "ios": "https://dc.lft.to/lastmile_qr_scan"}, "fusion_lat": 0.0}, {"type": "electric_scooter", "bike_id": "5979bbd1d609d2f086bfb7487867a501", "is_disabled": 0, "name": "5979bbd1d609d2f086bfb7487867a501", "lon": -77.03665733333334, "is_reserved": 0, "fusion_lon": 0.0, "lat": 38.922687, "rental_uris": {"android": "https://dc.lft.to/lastmile_qr_scan", "ios": "https://dc.lft.to/lastmile_qr_scan"}, "fusion_lat": 0.0}, {"type": "electric_scooter", "bike_id": "bb5a77bc8e345e2dc8f34c7e69be648b", "is_disabled": 0, "name": "bb5a77bc8e345e2dc8f34c7e69be648b", "lon": -77.03538716666667, "is_reserved": 0, "fusion_lon": 0.0, "lat": 38.924716, "rental_uris": {"android": "https://dc.lft.to/lastmile_qr_scan", "ios": "https://dc.lft.to/lastmile_qr_scan"}, "fusion_lat": 0.0}, {"type": "electric_scooter", "bike_id": "bf0bd5f9ae8a40019b543b0b6bee2e29", "is_disabled": 0, "name": "bf0bd5f9ae8a40019b543b0b6bee2e29", "lon": -76.94251916666667, "is_reserved": 0, "fusion_lon": 0.0, "lat": 38.898489833333336, "rental_uris": {"android": "https://dc.lft.to/lastmile_qr_scan", "ios": "https://dc.lft.to/lastmile_qr_scan"}, "fusion_lat": 0.0}, {"type": "electric_scooter", "bike_id": "a87d6bfc75d22eb79dafd398a08c38c1", "is_disabled": 0, "name": "a87d6bfc75d22eb79dafd398a08c38c1", "lon": -77.034465, "is_reserved": 0, "fusion_lon": 0.0, "lat": 38.9106975, "rental_uris": {"android": "https://dc.lft.to/lastmile_qr_scan", "ios": "https://dc.lft.to/lastmile_qr_scan"}, "fusion_lat": 0.0}, {"type": "electric_scooter", "bike_id": "f1be614a101c588ad785a43f0de75b44", "is_disabled": 0, "name": "f1be614a101c588ad785a43f0de75b44", "lon": -77.04345483333333, "is_reserved": 0, "fusion_lon": 0.0, "lat": 38.896385333333335, "rental_uris": {"android": "https://dc.lft.to/lastmile_qr_scan", "ios": "https://dc.lft.to/lastmile_qr_scan"}, "fusion_lat": 0.0}, {"type": "electric_scooter", "bike_id": "e5524781a667b702eb865811a71ce070", "is_disabled": 0, "name": "e5524781a667b702eb865811a71ce070", "lon": -77.00337283333333, "is_reserved": 0, "fusion_lon": 0.0, "lat": 38.8935085, "rental_uris": {"android": "https://dc.lft.to/lastmile_qr_scan", "ios": "https://dc.lft.to/lastmile_qr_scan"}, "fusion_lat": 0.0}, {"type": "electric_scooter", "bike_id": "67b1b2b0d6c723cbf7a6c471b351a459", "is_disabled": 0, "name": "67b1b2b0d6c723cbf7a6c471b351a459", "lon": -77.03755, "is_reserved": 0, "fusion_lon": 0.0, "lat": 38.905492333333335, "rental_uris": {"android": "https://dc.lft.to/lastmile_qr_scan", "ios": "https://dc.lft.to/lastmile_qr_scan"}, "fusion_lat": 0.0}, {"type": "electric_scooter", "bike_id": "31b33ee983a619c38e4d809e8cc503dc", "is_disabled": 0, "name": "31b33ee983a619c38e4d809e8cc503dc", "lon": -77.03363433333334, "is_reserved": 0, "fusion_lon": 0.0, "lat": 38.92751333333333, "rental_uris": {"android": "https://dc.lft.to/lastmile_qr_scan", "ios": "https://dc.lft.to/lastmile_qr_scan"}, "fusion_lat": 0.0}, {"type": "electric_scooter", "bike_id": "05797b3aa8649d52abd017537dd5ab45", "is_disabled": 0, "name": "05797b3aa8649d52abd017537dd5ab45", "lon": -77.03185466666666, "is_reserved": 0, "fusion_lon": 0.0, "lat": 38.9002565, "rental_uris": {"android": "https://dc.lft.to/lastmile_qr_scan", "ios": "https://dc.lft.to/lastmile_qr_scan"}, "fusion_lat": 0.0}, {"type": "electric_scooter", "bike_id": "b450868508976f2c05096344272bd227", "is_disabled": 0, "name": "b450868508976f2c05096344272bd227", "lon": -77.03520066666667, "is_reserved": 0, "fusion_lon": 0.0, "lat": 38.922376166666666, "rental_uris": {"android": "https://dc.lft.to/lastmile_qr_scan", "ios": "https://dc.lft.to/lastmile_qr_scan"}, "fusion_lat": 0.0}, {"type": "electric_scooter", "bike_id": "165621821ae3a02889cb0708e7272702", "is_disabled": 0, "name": "165621821ae3a02889cb0708e7272702", "lon": -77.02552366666667, "is_reserved": 0, "fusion_lon": 0.0, "lat": 38.8835465, "rental_uris": {"android": "https://dc.lft.to/lastmile_qr_scan", "ios": "https://dc.lft.to/lastmile_qr_scan"}, "fusion_lat": 0.0}, {"type": "electric_scooter", "bike_id": "43cace8fd827bed70aa9a3a4a0d275f6", "is_disabled": 0, "name": "43cace8fd827bed70aa9a3a4a0d275f6", "lon": -77.0382975, "is_reserved": 0, "fusion_lon": 0.0, "lat": 38.907888, "rental_uris": {"android": "https://dc.lft.to/lastmile_qr_scan", "ios": "https://dc.lft.to/lastmile_qr_scan"}, "fusion_lat": 0.0}, {"type": "electric_scooter", "bike_id": "3266cb8e3f7881c6dae7af0093cf8d81", "is_disabled": 0, "name": "3266cb8e3f7881c6dae7af0093cf8d81", "lon": -76.98647083333333, "is_reserved": 0, "fusion_lon": 0.0, "lat": 38.855075, "rental_uris": {"android": "https://dc.lft.to/lastmile_qr_scan", "ios": "https://dc.lft.to/lastmile_qr_scan"}, "fusion_lat": 0.0}, {"type": "electric_scooter", "bike_id": "fd21da716a5d164902f290df8ef627d6", "is_disabled": 0, "name": "fd21da716a5d164902f290df8ef627d6", "lon": -76.98575583333333, "is_reserved": 0, "fusion_lon": 0.0, "lat": 38.90016983333334, "rental_uris": {"android": "https://dc.lft.to/lastmile_qr_scan", "ios": "https://dc.lft.to/lastmile_qr_scan"}, "fusion_lat": 0.0}, {"type": "electric_scooter", "bike_id": "c4a8c181a03c07e23b677cd7f7e9d861", "is_disabled": 0, "name": "c4a8c181a03c07e23b677cd7f7e9d861", "lon": -77.0016465, "is_reserved": 0, "fusion_lon": 0.0, "lat": 38.91914533333333, "rental_uris": {"android": "https://dc.lft.to/lastmile_qr_scan", "ios": "https://dc.lft.to/lastmile_qr_scan"}, "fusion_lat": 0.0}, {"type": "electric_scooter", "bike_id": "393fd6f001d9e965b4d816b67dff03bd", "is_disabled": 0, "name": "393fd6f001d9e965b4d816b67dff03bd", "lon": -77.01976016666667, "is_reserved": 0, "fusion_lon": 0.0, "lat": 38.87594216666667, "rental_uris": {"android": "https://dc.lft.to/lastmile_qr_scan", "ios": "https://dc.lft.to/lastmile_qr_scan"}, "fusion_lat": 0.0}, {"type": "electric_scooter", "bike_id": "64512a01fe662a9bb90042ae6ddfbef0", "is_disabled": 0, "name": "64512a01fe662a9bb90042ae6ddfbef0", "lon": -77.02979533333334, "is_reserved": 0, "fusion_lon": 0.0, "lat": 38.907213, "rental_uris": {"android": "https://dc.lft.to/lastmile_qr_scan", "ios": "https://dc.lft.to/lastmile_qr_scan"}, "fusion_lat": 0.0}, {"type": "electric_scooter", "bike_id": "24f4d6f8e9c825a295623249f0862132", "is_disabled": 0, "name": "24f4d6f8e9c825a295623249f0862132", "lon": -77.03757983333334, "is_reserved": 0, "fusion_lon": 0.0, "lat": 38.916836833333335, "rental_uris": {"android": "https://dc.lft.to/lastmile_qr_scan", "ios": "https://dc.lft.to/lastmile_qr_scan"}, "fusion_lat": 0.0}, {"type": "electric_scooter", "bike_id": "fd4a56818c00a43604e31c7fd9b8e790", "is_disabled": 0, "name": "fd4a56818c00a43604e31c7fd9b8e790", "lon": -77.0231185, "is_reserved": 0, "fusion_lon": 0.0, "lat": 38.91590466666667, "rental_uris": {"android": "https://dc.lft.to/lastmile_qr_scan", "ios": "https://dc.lft.to/lastmile_qr_scan"}, "fusion_lat": 0.0}, {"type": "electric_scooter", "bike_id": "d94cb88b7bb9c140277d9f3c6c9c8abc", "is_disabled": 0, "name": "d94cb88b7bb9c140277d9f3c6c9c8abc", "lon": -77.03178666666666, "is_reserved": 0, "fusion_lon": 0.0, "lat": 38.897084, "rental_uris": {"android": "https://dc.lft.to/lastmile_qr_scan", "ios": "https://dc.lft.to/lastmile_qr_scan"}, "fusion_lat": 0.0}, {"type": "electric_scooter", "bike_id": "83e71d82af02fc7cba810f41e07e1db9", "is_disabled": 0, "name": "83e71d82af02fc7cba810f41e07e1db9", "lon": -77.03437566666666, "is_reserved": 0, "fusion_lon": 0.0, "lat": 38.908045333333334, "rental_uris": {"android": "https://dc.lft.to/lastmile_qr_scan", "ios": "https://dc.lft.to/lastmile_qr_scan"}, "fusion_lat": 0.0}, {"type": "electric_scooter", "bike_id": "e1b58d64f5c700d595a87178ae0f6508", "is_disabled": 0, "name": "e1b58d64f5c700d595a87178ae0f6508", "lon": -77.0444415, "is_reserved": 0, "fusion_lon": 0.0, "lat": 38.922309166666665, "rental_uris": {"android": "https://dc.lft.to/lastmile_qr_scan", "ios": "https://dc.lft.to/lastmile_qr_scan"}, "fusion_lat": 0.0}, {"type": "electric_scooter", "bike_id": "e5ab8d0eb248190356aaf42828a8dab0", "is_disabled": 0, "name": "e5ab8d0eb248190356aaf42828a8dab0", "lon": -77.00712333333334, "is_reserved": 0, "fusion_lon": 0.0, "lat": 38.88491066666667, "rental_uris": {"android": "https://dc.lft.to/lastmile_qr_scan", "ios": "https://dc.lft.to/lastmile_qr_scan"}, "fusion_lat": 0.0}, {"type": "electric_bike", "bike_id": "3a2714309629a527615569a087c6004a", "is_disabled": 0, "name": "3a2714309629a527615569a087c6004a", "lon": -77.1284285, "is_reserved": 0, "fusion_lon": 0.0, "lat": 38.800512, "rental_uris": {"android": "https://dc.lft.to/lastmile_qr_scan", "ios": "https://dc.lft.to/lastmile_qr_scan"}, "fusion_lat": 0.0}, {"type": "electric_scooter", "bike_id": "4719b6591ab13ab71dea78af8030f26a", "is_disabled": 0, "name": "4719b6591ab13ab71dea78af8030f26a", "lon": -77.0429485, "is_reserved": 0, "fusion_lon": 0.0, "lat": 38.93180233333333, "rental_uris": {"android": "https://dc.lft.to/lastmile_qr_scan", "ios": "https://dc.lft.to/lastmile_qr_scan"}, "fusion_lat": 0.0}, {"type": "electric_scooter", "bike_id": "14236e9c040bc79f2040b2f348456cec", "is_disabled": 0, "name": "14236e9c040bc79f2040b2f348456cec", "lon": -77.00373566666667, "is_reserved": 0, "fusion_lon": 0.0, "lat": 38.8972585, "rental_uris": {"android": "https://dc.lft.to/lastmile_qr_scan", "ios": "https://dc.lft.to/lastmile_qr_scan"}, "fusion_lat": 0.0}, {"type": "electric_scooter", "bike_id": "788ddaead7b68def4f5038cbeeb819a7", "is_disabled": 0, "name": "788ddaead7b68def4f5038cbeeb819a7", "lon": -77.00925683333334, "is_reserved": 0, "fusion_lon": 0.0, "lat": 38.89554916666667, "rental_uris": {"android": "https://dc.lft.to/lastmile_qr_scan", "ios": "https://dc.lft.to/lastmile_qr_scan"}, "fusion_lat": 0.0}, {"type": "electric_scooter", "bike_id": "959eab802380c00267cd4b7b3cd4aff3", "is_disabled": 0, "name": "959eab802380c00267cd4b7b3cd4aff3", "lon": -77.03221666666667, "is_reserved": 0, "fusion_lon": 0.0, "lat": 38.91829766666667, "rental_uris": {"android": "https://dc.lft.to/lastmile_qr_scan", "ios": "https://dc.lft.to/lastmile_qr_scan"}, "fusion_lat": 0.0}, {"type": "electric_bike", "bike_id": "7f136826c0d5da197c62e046b1ceca3c", "is_disabled": 0, "name": "7f136826c0d5da197c62e046b1ceca3c", "lon": -77.085591, "is_reserved": 0, "fusion_lon": 0.0, "lat": 38.933186166666665, "rental_uris": {"android": "https://dc.lft.to/lastmile_qr_scan", "ios": "https://dc.lft.to/lastmile_qr_scan"}, "fusion_lat": 0.0}, {"type": "electric_scooter", "bike_id": "9a3ae9a75037dcc68d3e92a58a6f3a54", "is_disabled": 0, "name": "9a3ae9a75037dcc68d3e92a58a6f3a54", "lon": -77.00155766666667, "is_reserved": 0, "fusion_lon": 0.0, "lat": 38.821337166666666, "rental_uris": {"android": "https://dc.lft.to/lastmile_qr_scan", "ios": "https://dc.lft.to/lastmile_qr_scan"}, "fusion_lat": 0.0}, {"type": "electric_scooter", "bike_id": "61a00b0cc2446851e247762801c08cb7", "is_disabled": 0, "name": "61a00b0cc2446851e247762801c08cb7", "lon": -77.02371866666667, "is_reserved": 0, "fusion_lon": 0.0, "lat": 38.920626166666665, "rental_uris": {"android": "https://dc.lft.to/lastmile_qr_scan", "ios": "https://dc.lft.to/lastmile_qr_scan"}, "fusion_lat": 0.0}, {"type": "electric_scooter", "bike_id": "f71aba58502a540466ec9f36b9244692", "is_disabled": 0, "name": "f71aba58502a540466ec9f36b9244692", "lon": -77.00298916666667, "is_reserved": 0, "fusion_lon": 0.0, "lat": 38.8919695, "rental_uris": {"android": "https://dc.lft.to/lastmile_qr_scan", "ios": "https://dc.lft.to/lastmile_qr_scan"}, "fusion_lat": 0.0}, {"type": "electric_scooter", "bike_id": "5263130166804cab2a58deb8baea62ac", "is_disabled": 0, "name": "5263130166804cab2a58deb8baea62ac", "lon": -77.03208216666667, "is_reserved": 0, "fusion_lon": 0.0, "lat": 38.90231266666667, "rental_uris": {"android": "https://dc.lft.to/lastmile_qr_scan", "ios": "https://dc.lft.to/lastmile_qr_scan"}, "fusion_lat": 0.0}, {"type": "electric_scooter", "bike_id": "60ae2b5045bbbd8d946785b233bb8ed6", "is_disabled": 0, "name": "60ae2b5045bbbd8d946785b233bb8ed6", "lon": -76.93598433333334, "is_reserved": 0, "fusion_lon": 0.0, "lat": 38.909477333333335, "rental_uris": {"android": "https://dc.lft.to/lastmile_qr_scan", "ios": "https://dc.lft.to/lastmile_qr_scan"}, "fusion_lat": 0.0}, {"type": "electric_bike", "bike_id": "fa0b0353d6204125b8189613383c3674", "is_disabled": 0, "name": "fa0b0353d6204125b8189613383c3674", "lon": -76.95160116666666, "is_reserved": 0, "fusion_lon": 0.0, "lat": 39.0843595, "rental_uris": {"android": "https://dc.lft.to/lastmile_qr_scan", "ios": "https://dc.lft.to/lastmile_qr_scan"}, "fusion_lat": 0.0}, {"type": "electric_scooter", "bike_id": "5ecdc19e6a82fe966e33fd5ead195a7e", "is_disabled": 0, "name": "5ecdc19e6a82fe966e33fd5ead195a7e", "lon": -77.06428966666667, "is_reserved": 0, "fusion_lon": 0.0, "lat": 38.9356335, "rental_uris": {"android": "https://dc.lft.to/lastmile_qr_scan", "ios": "https://dc.lft.to/lastmile_qr_scan"}, "fusion_lat": 0.0}, {"type": "electric_scooter", "bike_id": "754021f04380ffe74998c7cfa47d8d19", "is_disabled": 0, "name": "754021f04380ffe74998c7cfa47d8d19", "lon": -77.03055766666667, "is_reserved": 0, "fusion_lon": 0.0, "lat": 38.897914666666665, "rental_uris": {"android": "https://dc.lft.to/lastmile_qr_scan", "ios": "https://dc.lft.to/lastmile_qr_scan"}, "fusion_lat": 0.0}, {"type": "electric_scooter", "bike_id": "d689714115ad34ea7404e1bc9cbb417f", "is_disabled": 0, "name": "d689714115ad34ea7404e1bc9cbb417f", "lon": -77.02735233333334, "is_reserved": 0, "fusion_lon": 0.0, "lat": 38.918099833333336, "rental_uris": {"android": "https://dc.lft.to/lastmile_qr_scan", "ios": "https://dc.lft.to/lastmile_qr_scan"}, "fusion_lat": 0.0}, {"type": "electric_scooter", "bike_id": "d7519cb29b55aab99f5be3c98a194a71", "is_disabled": 0, "name": "d7519cb29b55aab99f5be3c98a194a71", "lon": -76.99820816666667, "is_reserved": 0, "fusion_lon": 0.0, "lat": 38.907185, "rental_uris": {"android": "https://dc.lft.to/lastmile_qr_scan", "ios": "https://dc.lft.to/lastmile_qr_scan"}, "fusion_lat": 0.0}, {"type": "electric_scooter", "bike_id": "453b8593f3cd40d388ede351e1731848", "is_disabled": 0, "name": "453b8593f3cd40d388ede351e1731848", "lon": -77.03222583333333, "is_reserved": 0, "fusion_lon": 0.0, "lat": 38.925476333333336, "rental_uris": {"android": "https://dc.lft.to/lastmile_qr_scan", "ios": "https://dc.lft.to/lastmile_qr_scan"}, "fusion_lat": 0.0}, {"type": "electric_scooter", "bike_id": "7ed114983a4b9cde70d66fd93d9132f4", "is_disabled": 0, "name": "7ed114983a4b9cde70d66fd93d9132f4", "lon": -77.04257783333334, "is_reserved": 0, "fusion_lon": 0.0, "lat": 38.903309166666666, "rental_uris": {"android": "https://dc.lft.to/lastmile_qr_scan", "ios": "https://dc.lft.to/lastmile_qr_scan"}, "fusion_lat": 0.0}, {"type": "electric_scooter", "bike_id": "d342e852e41ec9a1f072ca8e9faebfaf", "is_disabled": 0, "name": "d342e852e41ec9a1f072ca8e9faebfaf", "lon": -77.07320033333333, "is_reserved": 0, "fusion_lon": 0.0, "lat": 38.921967333333335, "rental_uris": {"android": "https://dc.lft.to/lastmile_qr_scan", "ios": "https://dc.lft.to/lastmile_qr_scan"}, "fusion_lat": 0.0}, {"type": "electric_bike", "bike_id": "e6c7655a15dcd54c565c597a3a14a3ef", "is_disabled": 0, "name": "e6c7655a15dcd54c565c597a3a14a3ef", "lon": -77.028853, "is_reserved": 0, "fusion_lon": 0.0, "lat": 38.92139516666667, "rental_uris": {"android": "https://dc.lft.to/lastmile_qr_scan", "ios": "https://dc.lft.to/lastmile_qr_scan"}, "fusion_lat": 0.0}, {"type": "electric_scooter", "bike_id": "3c15dbd58e4dcf78339eb2a2efd42526", "is_disabled": 0, "name": "3c15dbd58e4dcf78339eb2a2efd42526", "lon": -77.02126416666667, "is_reserved": 0, "fusion_lon": 0.0, "lat": 38.923756166666664, "rental_uris": {"android": "https://dc.lft.to/lastmile_qr_scan", "ios": "https://dc.lft.to/lastmile_qr_scan"}, "fusion_lat": 0.0}, {"type": "electric_scooter", "bike_id": "09aaa9f188a20edb265b6c26c2a1ebd9", "is_disabled": 0, "name": "09aaa9f188a20edb265b6c26c2a1ebd9", "lon": -77.0489455, "is_reserved": 0, "fusion_lon": 0.0, "lat": 38.905320833333334, "rental_uris": {"android": "https://dc.lft.to/lastmile_qr_scan", "ios": "https://dc.lft.to/lastmile_qr_scan"}, "fusion_lat": 0.0}, {"type": "electric_scooter", "bike_id": "9e3511bf3415e04d21abfa572013ce8a", "is_disabled": 0, "name": "9e3511bf3415e04d21abfa572013ce8a", "lon": -77.01187716666666, "is_reserved": 0, "fusion_lon": 0.0, "lat": 38.90024583333334, "rental_uris": {"android": "https://dc.lft.to/lastmile_qr_scan", "ios": "https://dc.lft.to/lastmile_qr_scan"}, "fusion_lat": 0.0}, {"type": "electric_scooter", "bike_id": "363a4fd564c0ad9d0925274472ea0125", "is_disabled": 0, "name": "363a4fd564c0ad9d0925274472ea0125", "lon": -77.0295795, "is_reserved": 0, "fusion_lon": 0.0, "lat": 38.90751133333333, "rental_uris": {"android": "https://dc.lft.to/lastmile_qr_scan", "ios": "https://dc.lft.to/lastmile_qr_scan"}, "fusion_lat": 0.0}, {"type": "electric_scooter", "bike_id": "3059267cf33701b6fe880c44721367a3", "is_disabled": 0, "name": "3059267cf33701b6fe880c44721367a3", "lon": -77.03379583333333, "is_reserved": 0, "fusion_lon": 0.0, "lat": 38.924541, "rental_uris": {"android": "https://dc.lft.to/lastmile_qr_scan", "ios": "https://dc.lft.to/lastmile_qr_scan"}, "fusion_lat": 0.0}, {"type": "electric_bike", "bike_id": "9cc8d507bd538677995f9750012c5645", "is_disabled": 0, "name": "9cc8d507bd538677995f9750012c5645", "lon": -77.07756266666667, "is_reserved": 0, "fusion_lon": 0.0, "lat": 38.8419285, "rental_uris": {"android": "https://dc.lft.to/lastmile_qr_scan", "ios": "https://dc.lft.to/lastmile_qr_scan"}, "fusion_lat": 0.0}, {"type": "electric_scooter", "bike_id": "825c8d81cd0ab2721ed7d5519935896a", "is_disabled": 0, "name": "825c8d81cd0ab2721ed7d5519935896a", "lon": -77.04053416666666, "is_reserved": 0, "fusion_lon": 0.0, "lat": 38.90501233333333, "rental_uris": {"android": "https://dc.lft.to/lastmile_qr_scan", "ios": "https://dc.lft.to/lastmile_qr_scan"}, "fusion_lat": 0.0}, {"type": "electric_scooter", "bike_id": "1693d09c2261e2ad4084fd1681777bce", "is_disabled": 0, "name": "1693d09c2261e2ad4084fd1681777bce", "lon": -77.04338266666667, "is_reserved": 0, "fusion_lon": 0.0, "lat": 38.9178015, "rental_uris": {"android": "https://dc.lft.to/lastmile_qr_scan", "ios": "https://dc.lft.to/lastmile_qr_scan"}, "fusion_lat": 0.0}, {"type": "electric_scooter", "bike_id": "7f7bd0fb2bd5cf8cb7a48b71610c6f0e", "is_disabled": 0, "name": "7f7bd0fb2bd5cf8cb7a48b71610c6f0e", "lon": -77.011808, "is_reserved": 0, "fusion_lon": 0.0, "lat": 38.900206833333336, "rental_uris": {"android": "https://dc.lft.to/lastmile_qr_scan", "ios": "https://dc.lft.to/lastmile_qr_scan"}, "fusion_lat": 0.0}, {"type": "electric_scooter", "bike_id": "c455d22afab2b321ffc318e3760a15dd", "is_disabled": 0, "name": "c455d22afab2b321ffc318e3760a15dd", "lon": -77.0345775, "is_reserved": 0, "fusion_lon": 0.0, "lat": 38.911711833333335, "rental_uris": {"android": "https://dc.lft.to/lastmile_qr_scan", "ios": "https://dc.lft.to/lastmile_qr_scan"}, "fusion_lat": 0.0}, {"type": "electric_scooter", "bike_id": "1d6dfc79e52c9c9b646757bde19d2964", "is_disabled": 0, "name": "1d6dfc79e52c9c9b646757bde19d2964", "lon": -77.04239066666666, "is_reserved": 0, "fusion_lon": 0.0, "lat": 38.92290366666667, "rental_uris": {"android": "https://dc.lft.to/lastmile_qr_scan", "ios": "https://dc.lft.to/lastmile_qr_scan"}, "fusion_lat": 0.0}, {"type": "electric_scooter", "bike_id": "217d22565d94eb4b13fa7a4d7d13e533", "is_disabled": 0, "name": "217d22565d94eb4b13fa7a4d7d13e533", "lon": -77.01514783333333, "is_reserved": 0, "fusion_lon": 0.0, "lat": 38.8934535, "rental_uris": {"android": "https://dc.lft.to/lastmile_qr_scan", "ios": "https://dc.lft.to/lastmile_qr_scan"}, "fusion_lat": 0.0}, {"type": "electric_scooter", "bike_id": "8b17d38763bca723d0bec965e7b33ccb", "is_disabled": 0, "name": "8b17d38763bca723d0bec965e7b33ccb", "lon": -76.9957365, "is_reserved": 0, "fusion_lon": 0.0, "lat": 38.900193333333334, "rental_uris": {"android": "https://dc.lft.to/lastmile_qr_scan", "ios": "https://dc.lft.to/lastmile_qr_scan"}, "fusion_lat": 0.0}, {"type": "electric_scooter", "bike_id": "91e8b082deb1f856d5569570acb7278a", "is_disabled": 0, "name": "91e8b082deb1f856d5569570acb7278a", "lon": -76.95740366666666, "is_reserved": 0, "fusion_lon": 0.0, "lat": 38.883917833333335, "rental_uris": {"android": "https://dc.lft.to/lastmile_qr_scan", "ios": "https://dc.lft.to/lastmile_qr_scan"}, "fusion_lat": 0.0}, {"type": "electric_scooter", "bike_id": "ca3c88f5e6b96c00d639cb1e9e5d85c6", "is_disabled": 0, "name": "ca3c88f5e6b96c00d639cb1e9e5d85c6", "lon": -76.98370933333334, "is_reserved": 0, "fusion_lon": 0.0, "lat": 38.892618666666664, "rental_uris": {"android": "https://dc.lft.to/lastmile_qr_scan", "ios": "https://dc.lft.to/lastmile_qr_scan"}, "fusion_lat": 0.0}, {"type": "electric_bike", "bike_id": "943cfdb8c8b145596f1767236dc86f50", "is_disabled": 0, "name": "943cfdb8c8b145596f1767236dc86f50", "lon": -77.00872333333334, "is_reserved": 0, "fusion_lon": 0.0, "lat": 38.90580766666667, "rental_uris": {"android": "https://dc.lft.to/lastmile_qr_scan", "ios": "https://dc.lft.to/lastmile_qr_scan"}, "fusion_lat": 0.0}, {"type": "electric_scooter", "bike_id": "93aaa1315b3721a2ffd9b5c1987c3def", "is_disabled": 0, "name": "93aaa1315b3721a2ffd9b5c1987c3def", "lon": -77.02690066666666, "is_reserved": 0, "fusion_lon": 0.0, "lat": 38.9494155, "rental_uris": {"android": "https://dc.lft.to/lastmile_qr_scan", "ios": "https://dc.lft.to/lastmile_qr_scan"}, "fusion_lat": 0.0}, {"type": "electric_scooter", "bike_id": "a9258c203d710b4b0763419173c084a3", "is_disabled": 0, "name": "a9258c203d710b4b0763419173c084a3", "lon": -77.04496083333333, "is_reserved": 0, "fusion_lon": 0.0, "lat": 38.919313833333334, "rental_uris": {"android": "https://dc.lft.to/lastmile_qr_scan", "ios": "https://dc.lft.to/lastmile_qr_scan"}, "fusion_lat": 0.0}, {"type": "electric_scooter", "bike_id": "6b20a82a53357c9333de6c8ac4dd6390", "is_disabled": 0, "name": "6b20a82a53357c9333de6c8ac4dd6390", "lon": -77.01452866666666, "is_reserved": 0, "fusion_lon": 0.0, "lat": 38.899338, "rental_uris": {"android": "https://dc.lft.to/lastmile_qr_scan", "ios": "https://dc.lft.to/lastmile_qr_scan"}, "fusion_lat": 0.0}, {"type": "electric_scooter", "bike_id": "60d1ece0ac4785220ae2c6d1c2acc4cd", "is_disabled": 0, "name": "60d1ece0ac4785220ae2c6d1c2acc4cd", "lon": -77.03846083333333, "is_reserved": 0, "fusion_lon": 0.0, "lat": 38.9100695, "rental_uris": {"android": "https://dc.lft.to/lastmile_qr_scan", "ios": "https://dc.lft.to/lastmile_qr_scan"}, "fusion_lat": 0.0}, {"type": "electric_scooter", "bike_id": "64082e941c8732540215b779c7d4b4b9", "is_disabled": 0, "name": "64082e941c8732540215b779c7d4b4b9", "lon": -77.02940933333333, "is_reserved": 0, "fusion_lon": 0.0, "lat": 38.906463333333335, "rental_uris": {"android": "https://dc.lft.to/lastmile_qr_scan", "ios": "https://dc.lft.to/lastmile_qr_scan"}, "fusion_lat": 0.0}, {"type": "electric_scooter", "bike_id": "1f5998d49e30d7a211f2fadf68f328fa", "is_disabled": 0, "name": "1f5998d49e30d7a211f2fadf68f328fa", "lon": -76.99157583333333, "is_reserved": 0, "fusion_lon": 0.0, "lat": 38.905262666666665, "rental_uris": {"android": "https://dc.lft.to/lastmile_qr_scan", "ios": "https://dc.lft.to/lastmile_qr_scan"}, "fusion_lat": 0.0}, {"type": "electric_bike", "bike_id": "7e19492f7aaa2016aedfe56c64574d3c", "is_disabled": 0, "name": "7e19492f7aaa2016aedfe56c64574d3c", "lon": -77.0895135, "is_reserved": 0, "fusion_lon": 0.0, "lat": 38.841050333333335, "rental_uris": {"android": "https://dc.lft.to/lastmile_qr_scan", "ios": "https://dc.lft.to/lastmile_qr_scan"}, "fusion_lat": 0.0}, {"type": "electric_scooter", "bike_id": "d0684304af0fb97827d9ddf20c6ab6de", "is_disabled": 0, "name": "d0684304af0fb97827d9ddf20c6ab6de", "lon": -77.04234233333334, "is_reserved": 0, "fusion_lon": 0.0, "lat": 38.92152683333333, "rental_uris": {"android": "https://dc.lft.to/lastmile_qr_scan", "ios": "https://dc.lft.to/lastmile_qr_scan"}, "fusion_lat": 0.0}, {"type": "electric_bike", "bike_id": "342a7461dd423d910d08650b33a83ab0", "is_disabled": 0, "name": "342a7461dd423d910d08650b33a83ab0", "lon": -76.957454, "is_reserved": 0, "fusion_lon": 0.0, "lat": 38.88855133333333, "rental_uris": {"android": "https://dc.lft.to/lastmile_qr_scan", "ios": "https://dc.lft.to/lastmile_qr_scan"}, "fusion_lat": 0.0}, {"type": "electric_scooter", "bike_id": "713420c96483323122f9db0271aab687", "is_disabled": 0, "name": "713420c96483323122f9db0271aab687", "lon": -76.94716433333333, "is_reserved": 0, "fusion_lon": 0.0, "lat": 38.8908485, "rental_uris": {"android": "https://dc.lft.to/lastmile_qr_scan", "ios": "https://dc.lft.to/lastmile_qr_scan"}, "fusion_lat": 0.0}, {"type": "electric_scooter", "bike_id": "128bec729ac2182bd67c6f68673638e2", "is_disabled": 0, "name": "128bec729ac2182bd67c6f68673638e2", "lon": -77.03937166666667, "is_reserved": 0, "fusion_lon": 0.0, "lat": 38.92464433333333, "rental_uris": {"android": "https://dc.lft.to/lastmile_qr_scan", "ios": "https://dc.lft.to/lastmile_qr_scan"}, "fusion_lat": 0.0}, {"type": "electric_scooter", "bike_id": "9807179bccf5966053b149d44ffbf29a", "is_disabled": 0, "name": "9807179bccf5966053b149d44ffbf29a", "lon": -77.02490916666666, "is_reserved": 0, "fusion_lon": 0.0, "lat": 38.894341, "rental_uris": {"android": "https://dc.lft.to/lastmile_qr_scan", "ios": "https://dc.lft.to/lastmile_qr_scan"}, "fusion_lat": 0.0}, {"type": "electric_scooter", "bike_id": "204fca4022e13973b0c1ab72ebc1389b", "is_disabled": 0, "name": "204fca4022e13973b0c1ab72ebc1389b", "lon": -77.0033275, "is_reserved": 0, "fusion_lon": 0.0, "lat": 38.89503233333333, "rental_uris": {"android": "https://dc.lft.to/lastmile_qr_scan", "ios": "https://dc.lft.to/lastmile_qr_scan"}, "fusion_lat": 0.0}, {"type": "electric_scooter", "bike_id": "395a864dcc3f7f696987c40548018ab7", "is_disabled": 0, "name": "395a864dcc3f7f696987c40548018ab7", "lon": -77.02953633333334, "is_reserved": 0, "fusion_lon": 0.0, "lat": 38.907512, "rental_uris": {"android": "https://dc.lft.to/lastmile_qr_scan", "ios": "https://dc.lft.to/lastmile_qr_scan"}, "fusion_lat": 0.0}, {"type": "electric_scooter", "bike_id": "fc803f8c4acca0738d7c1f4e9b837367", "is_disabled": 0, "name": "fc803f8c4acca0738d7c1f4e9b837367", "lon": -77.02281916666666, "is_reserved": 0, "fusion_lon": 0.0, "lat": 38.9168905, "rental_uris": {"android": "https://dc.lft.to/lastmile_qr_scan", "ios": "https://dc.lft.to/lastmile_qr_scan"}, "fusion_lat": 0.0}, {"type": "electric_scooter", "bike_id": "55463760de4744ff940c349f8c5d9152", "is_disabled": 0, "name": "55463760de4744ff940c349f8c5d9152", "lon": -76.99507, "is_reserved": 0, "fusion_lon": 0.0, "lat": 38.88076133333333, "rental_uris": {"android": "https://dc.lft.to/lastmile_qr_scan", "ios": "https://dc.lft.to/lastmile_qr_scan"}, "fusion_lat": 0.0}, {"type": "electric_bike", "bike_id": "c46617e00d77393b93d493f4c1b2928d", "is_disabled": 0, "name": "c46617e00d77393b93d493f4c1b2928d", "lon": -77.234117, "is_reserved": 0, "fusion_lon": 0.0, "lat": 38.8757915, "rental_uris": {"android": "https://dc.lft.to/lastmile_qr_scan", "ios": "https://dc.lft.to/lastmile_qr_scan"}, "fusion_lat": 0.0}, {"type": "electric_scooter", "bike_id": "565fa5edc7bbcc3f4bd664a220d9959c", "is_disabled": 0, "name": "565fa5edc7bbcc3f4bd664a220d9959c", "lon": -77.00938166666667, "is_reserved": 0, "fusion_lon": 0.0, "lat": 38.917985333333334, "rental_uris": {"android": "https://dc.lft.to/lastmile_qr_scan", "ios": "https://dc.lft.to/lastmile_qr_scan"}, "fusion_lat": 0.0}, {"type": "electric_scooter", "bike_id": "893013bfe6ddffdbf0a65d53e4181f71", "is_disabled": 0, "name": "893013bfe6ddffdbf0a65d53e4181f71", "lon": -77.0365075, "is_reserved": 0, "fusion_lon": 0.0, "lat": 38.912616, "rental_uris": {"android": "https://dc.lft.to/lastmile_qr_scan", "ios": "https://dc.lft.to/lastmile_qr_scan"}, "fusion_lat": 0.0}, {"type": "electric_scooter", "bike_id": "3425eb08f945952c8b7916d07aeb86e3", "is_disabled": 0, "name": "3425eb08f945952c8b7916d07aeb86e3", "lon": -77.02164483333334, "is_reserved": 0, "fusion_lon": 0.0, "lat": 38.91982933333333, "rental_uris": {"android": "https://dc.lft.to/lastmile_qr_scan", "ios": "https://dc.lft.to/lastmile_qr_scan"}, "fusion_lat": 0.0}, {"type": "electric_scooter", "bike_id": "168e02482c8b16053fecd5e8f262fac3", "is_disabled": 0, "name": "168e02482c8b16053fecd5e8f262fac3", "lon": -77.0611805, "is_reserved": 0, "fusion_lon": 0.0, "lat": 38.90219666666667, "rental_uris": {"android": "https://dc.lft.to/lastmile_qr_scan", "ios": "https://dc.lft.to/lastmile_qr_scan"}, "fusion_lat": 0.0}, {"type": "electric_scooter", "bike_id": "27d77a4ed8d011aaad38f27f02978347", "is_disabled": 0, "name": "27d77a4ed8d011aaad38f27f02978347", "lon": -77.06653433333334, "is_reserved": 0, "fusion_lon": 0.0, "lat": 38.95046983333334, "rental_uris": {"android": "https://dc.lft.to/lastmile_qr_scan", "ios": "https://dc.lft.to/lastmile_qr_scan"}, "fusion_lat": 0.0}, {"type": "electric_scooter", "bike_id": "ffdf6a25dd99f17481f2382ef5ecb1c0", "is_disabled": 0, "name": "ffdf6a25dd99f17481f2382ef5ecb1c0", "lon": -77.0349215, "is_reserved": 0, "fusion_lon": 0.0, "lat": 38.92903333333334, "rental_uris": {"android": "https://dc.lft.to/lastmile_qr_scan", "ios": "https://dc.lft.to/lastmile_qr_scan"}, "fusion_lat": 0.0}, {"type": "electric_scooter", "bike_id": "b1462d312929e410661a63b3c931ac75", "is_disabled": 0, "name": "b1462d312929e410661a63b3c931ac75", "lon": -77.02189266666667, "is_reserved": 0, "fusion_lon": 0.0, "lat": 38.9194995, "rental_uris": {"android": "https://dc.lft.to/lastmile_qr_scan", "ios": "https://dc.lft.to/lastmile_qr_scan"}, "fusion_lat": 0.0}, {"type": "electric_bike", "bike_id": "130017dc8aba878abb8ef9ff70c1c258", "is_disabled": 0, "name": "130017dc8aba878abb8ef9ff70c1c258", "lon": -76.93800033333333, "is_reserved": 0, "fusion_lon": 0.0, "lat": 38.9796645, "rental_uris": {"android": "https://dc.lft.to/lastmile_qr_scan", "ios": "https://dc.lft.to/lastmile_qr_scan"}, "fusion_lat": 0.0}, {"type": "electric_scooter", "bike_id": "0b79004017bfe7fd030de0e254a43aac", "is_disabled": 0, "name": "0b79004017bfe7fd030de0e254a43aac", "lon": -77.0326375, "is_reserved": 0, "fusion_lon": 0.0, "lat": 38.935222333333336, "rental_uris": {"android": "https://dc.lft.to/lastmile_qr_scan", "ios": "https://dc.lft.to/lastmile_qr_scan"}, "fusion_lat": 0.0}, {"type": "electric_bike", "bike_id": "046d54bc4be016e07b4e52acb80aeacf", "is_disabled": 0, "name": "046d54bc4be016e07b4e52acb80aeacf", "lon": -77.01350533333333, "is_reserved": 0, "fusion_lon": 0.0, "lat": 38.912457333333336, "rental_uris": {"android": "https://dc.lft.to/lastmile_qr_scan", "ios": "https://dc.lft.to/lastmile_qr_scan"}, "fusion_lat": 0.0}, {"type": "electric_scooter", "bike_id": "6f71a4eafee272177173f52436407460", "is_disabled": 0, "name": "6f71a4eafee272177173f52436407460", "lon": -77.00295866666667, "is_reserved": 0, "fusion_lon": 0.0, "lat": 38.89185883333333, "rental_uris": {"android": "https://dc.lft.to/lastmile_qr_scan", "ios": "https://dc.lft.to/lastmile_qr_scan"}, "fusion_lat": 0.0}, {"type": "electric_scooter", "bike_id": "36e1039205f4ff7e2ed08370fcca98ff", "is_disabled": 0, "name": "36e1039205f4ff7e2ed08370fcca98ff", "lon": -77.07016766666666, "is_reserved": 0, "fusion_lon": 0.0, "lat": 38.905857833333336, "rental_uris": {"android": "https://dc.lft.to/lastmile_qr_scan", "ios": "https://dc.lft.to/lastmile_qr_scan"}, "fusion_lat": 0.0}, {"type": "electric_scooter", "bike_id": "ae7f0d346130bf7c263fe2bf7aec7312", "is_disabled": 0, "name": "ae7f0d346130bf7c263fe2bf7aec7312", "lon": -77.03726766666666, "is_reserved": 0, "fusion_lon": 0.0, "lat": 38.920255833333336, "rental_uris": {"android": "https://dc.lft.to/lastmile_qr_scan", "ios": "https://dc.lft.to/lastmile_qr_scan"}, "fusion_lat": 0.0}, {"type": "electric_scooter", "bike_id": "85e685d07518241aae38d5d61c5e7949", "is_disabled": 0, "name": "85e685d07518241aae38d5d61c5e7949", "lon": -77.03356533333333, "is_reserved": 0, "fusion_lon": 0.0, "lat": 38.924325833333334, "rental_uris": {"android": "https://dc.lft.to/lastmile_qr_scan", "ios": "https://dc.lft.to/lastmile_qr_scan"}, "fusion_lat": 0.0}, {"type": "electric_bike", "bike_id": "6a37a4284c44a39d0c17fa672ddbe814", "is_disabled": 0, "name": "6a37a4284c44a39d0c17fa672ddbe814", "lon": -77.02668266666667, "is_reserved": 0, "fusion_lon": 0.0, "lat": 38.98816433333333, "rental_uris": {"android": "https://dc.lft.to/lastmile_qr_scan", "ios": "https://dc.lft.to/lastmile_qr_scan"}, "fusion_lat": 0.0}, {"type": "electric_scooter", "bike_id": "df35b226390b11ca56dfc522a634ae56", "is_disabled": 0, "name": "df35b226390b11ca56dfc522a634ae56", "lon": -77.0424705, "is_reserved": 0, "fusion_lon": 0.0, "lat": 38.91918416666667, "rental_uris": {"android": "https://dc.lft.to/lastmile_qr_scan", "ios": "https://dc.lft.to/lastmile_qr_scan"}, "fusion_lat": 0.0}, {"type": "electric_scooter", "bike_id": "638f6b529fb1e774eb018386cacb2259", "is_disabled": 0, "name": "638f6b529fb1e774eb018386cacb2259", "lon": -77.032672, "is_reserved": 0, "fusion_lon": 0.0, "lat": 38.93312733333333, "rental_uris": {"android": "https://dc.lft.to/lastmile_qr_scan", "ios": "https://dc.lft.to/lastmile_qr_scan"}, "fusion_lat": 0.0}, {"type": "electric_scooter", "bike_id": "4b0c6244bd4d4da03311d19d02c51537", "is_disabled": 0, "name": "4b0c6244bd4d4da03311d19d02c51537", "lon": -77.03641266666666, "is_reserved": 0, "fusion_lon": 0.0, "lat": 38.926996333333335, "rental_uris": {"android": "https://dc.lft.to/lastmile_qr_scan", "ios": "https://dc.lft.to/lastmile_qr_scan"}, "fusion_lat": 0.0}, {"type": "electric_scooter", "bike_id": "f39385ae3907f9721ec75c9d1858e39f", "is_disabled": 0, "name": "f39385ae3907f9721ec75c9d1858e39f", "lon": -77.021784, "is_reserved": 0, "fusion_lon": 0.0, "lat": 38.91979716666667, "rental_uris": {"android": "https://dc.lft.to/lastmile_qr_scan", "ios": "https://dc.lft.to/lastmile_qr_scan"}, "fusion_lat": 0.0}, {"type": "electric_bike", "bike_id": "6ab57b490f80b6d7da55a3934cbf1aae", "is_disabled": 0, "name": "6ab57b490f80b6d7da55a3934cbf1aae", "lon": -77.09690383333333, "is_reserved": 0, "fusion_lon": 0.0, "lat": 38.8868955, "rental_uris": {"android": "https://dc.lft.to/lastmile_qr_scan", "ios": "https://dc.lft.to/lastmile_qr_scan"}, "fusion_lat": 0.0}, {"type": "electric_scooter", "bike_id": "d3f8d5f8afd624beb24db0c69cbf4888", "is_disabled": 0, "name": "d3f8d5f8afd624beb24db0c69cbf4888", "lon": -77.04709333333334, "is_reserved": 0, "fusion_lon": 0.0, "lat": 38.90200933333333, "rental_uris": {"android": "https://dc.lft.to/lastmile_qr_scan", "ios": "https://dc.lft.to/lastmile_qr_scan"}, "fusion_lat": 0.0}, {"type": "electric_scooter", "bike_id": "b6fde8be87a92047b0a32b7e0ca6fc93", "is_disabled": 0, "name": "b6fde8be87a92047b0a32b7e0ca6fc93", "lon": -77.01337683333334, "is_reserved": 0, "fusion_lon": 0.0, "lat": 38.8811825, "rental_uris": {"android": "https://dc.lft.to/lastmile_qr_scan", "ios": "https://dc.lft.to/lastmile_qr_scan"}, "fusion_lat": 0.0}, {"type": "electric_scooter", "bike_id": "382051d06726cf02c2c35b6251316a08", "is_disabled": 0, "name": "382051d06726cf02c2c35b6251316a08", "lon": -77.03637116666667, "is_reserved": 0, "fusion_lon": 0.0, "lat": 38.90364683333333, "rental_uris": {"android": "https://dc.lft.to/lastmile_qr_scan", "ios": "https://dc.lft.to/lastmile_qr_scan"}, "fusion_lat": 0.0}, {"type": "electric_scooter", "bike_id": "dd49c7b9cd402aaed1dd0fc18a9c907c", "is_disabled": 0, "name": "dd49c7b9cd402aaed1dd0fc18a9c907c", "lon": -77.02570366666667, "is_reserved": 0, "fusion_lon": 0.0, "lat": 38.94193333333333, "rental_uris": {"android": "https://dc.lft.to/lastmile_qr_scan", "ios": "https://dc.lft.to/lastmile_qr_scan"}, "fusion_lat": 0.0}, {"type": "electric_scooter", "bike_id": "78d2c720c260881fbeb2756dbc2c766d", "is_disabled": 0, "name": "78d2c720c260881fbeb2756dbc2c766d", "lon": -77.027642, "is_reserved": 0, "fusion_lon": 0.0, "lat": 38.94130666666667, "rental_uris": {"android": "https://dc.lft.to/lastmile_qr_scan", "ios": "https://dc.lft.to/lastmile_qr_scan"}, "fusion_lat": 0.0}, {"type": "electric_scooter", "bike_id": "869fca5dd8d61d9b6daacb19469aab6e", "is_disabled": 0, "name": "869fca5dd8d61d9b6daacb19469aab6e", "lon": -77.05323116666666, "is_reserved": 0, "fusion_lon": 0.0, "lat": 38.91552316666667, "rental_uris": {"android": "https://dc.lft.to/lastmile_qr_scan", "ios": "https://dc.lft.to/lastmile_qr_scan"}, "fusion_lat": 0.0}, {"type": "electric_scooter", "bike_id": "aa0543dfd53d4fa02f3d4cd6b0aacbec", "is_disabled": 0, "name": "aa0543dfd53d4fa02f3d4cd6b0aacbec", "lon": -77.0397225, "is_reserved": 0, "fusion_lon": 0.0, "lat": 38.89893933333333, "rental_uris": {"android": "https://dc.lft.to/lastmile_qr_scan", "ios": "https://dc.lft.to/lastmile_qr_scan"}, "fusion_lat": 0.0}, {"type": "electric_bike", "bike_id": "b41a624757e93a06901b5e1c7df5f51c", "is_disabled": 0, "name": "b41a624757e93a06901b5e1c7df5f51c", "lon": -77.05271016666667, "is_reserved": 0, "fusion_lon": 0.0, "lat": 38.94086983333333, "rental_uris": {"android": "https://dc.lft.to/lastmile_qr_scan", "ios": "https://dc.lft.to/lastmile_qr_scan"}, "fusion_lat": 0.0}, {"type": "electric_scooter", "bike_id": "6d654e0d445adca450eed6bda298f404", "is_disabled": 0, "name": "6d654e0d445adca450eed6bda298f404", "lon": -77.02952916666666, "is_reserved": 0, "fusion_lon": 0.0, "lat": 38.916722, "rental_uris": {"android": "https://dc.lft.to/lastmile_qr_scan", "ios": "https://dc.lft.to/lastmile_qr_scan"}, "fusion_lat": 0.0}, {"type": "electric_bike", "bike_id": "8240ccf398d7897b41af2f1deb9eb450", "is_disabled": 0, "name": "8240ccf398d7897b41af2f1deb9eb450", "lon": -77.00722416666666, "is_reserved": 0, "fusion_lon": 0.0, "lat": 38.995049333333334, "rental_uris": {"android": "https://dc.lft.to/lastmile_qr_scan", "ios": "https://dc.lft.to/lastmile_qr_scan"}, "fusion_lat": 0.0}, {"type": "electric_scooter", "bike_id": "13309f2d99b3beab2017707c0a074a75", "is_disabled": 0, "name": "13309f2d99b3beab2017707c0a074a75", "lon": -76.99627383333333, "is_reserved": 0, "fusion_lon": 0.0, "lat": 38.87731733333333, "rental_uris": {"android": "https://dc.lft.to/lastmile_qr_scan", "ios": "https://dc.lft.to/lastmile_qr_scan"}, "fusion_lat": 0.0}, {"type": "electric_scooter", "bike_id": "698784362c77ef516d7d5f2262f3c725", "is_disabled": 0, "name": "698784362c77ef516d7d5f2262f3c725", "lon": -77.03860783333333, "is_reserved": 0, "fusion_lon": 0.0, "lat": 38.9170635, "rental_uris": {"android": "https://dc.lft.to/lastmile_qr_scan", "ios": "https://dc.lft.to/lastmile_qr_scan"}, "fusion_lat": 0.0}, {"type": "electric_scooter", "bike_id": "ae1eda0d8193644eaf3bf28e7dded23d", "is_disabled": 0, "name": "ae1eda0d8193644eaf3bf28e7dded23d", "lon": -77.03379683333333, "is_reserved": 0, "fusion_lon": 0.0, "lat": 38.91699666666667, "rental_uris": {"android": "https://dc.lft.to/lastmile_qr_scan", "ios": "https://dc.lft.to/lastmile_qr_scan"}, "fusion_lat": 0.0}, {"type": "electric_scooter", "bike_id": "4bb70b122cd6df424f3a069969acbcd8", "is_disabled": 0, "name": "4bb70b122cd6df424f3a069969acbcd8", "lon": -77.0326295, "is_reserved": 0, "fusion_lon": 0.0, "lat": 38.935173666666664, "rental_uris": {"android": "https://dc.lft.to/lastmile_qr_scan", "ios": "https://dc.lft.to/lastmile_qr_scan"}, "fusion_lat": 0.0}, {"type": "electric_scooter", "bike_id": "2a716585d48c288897a395310feb06bb", "is_disabled": 0, "name": "2a716585d48c288897a395310feb06bb", "lon": -76.9985295, "is_reserved": 0, "fusion_lon": 0.0, "lat": 38.89183833333333, "rental_uris": {"android": "https://dc.lft.to/lastmile_qr_scan", "ios": "https://dc.lft.to/lastmile_qr_scan"}, "fusion_lat": 0.0}, {"type": "electric_scooter", "bike_id": "6e099e2cc16da34efe5d1554954c70f0", "is_disabled": 0, "name": "6e099e2cc16da34efe5d1554954c70f0", "lon": -77.02836633333334, "is_reserved": 0, "fusion_lon": 0.0, "lat": 38.8872945, "rental_uris": {"android": "https://dc.lft.to/lastmile_qr_scan", "ios": "https://dc.lft.to/lastmile_qr_scan"}, "fusion_lat": 0.0}, {"type": "electric_scooter", "bike_id": "12e39e7b1470d562c170f85b100c1545", "is_disabled": 0, "name": "12e39e7b1470d562c170f85b100c1545", "lon": -77.0400285, "is_reserved": 0, "fusion_lon": 0.0, "lat": 38.8985425, "rental_uris": {"android": "https://dc.lft.to/lastmile_qr_scan", "ios": "https://dc.lft.to/lastmile_qr_scan"}, "fusion_lat": 0.0}, {"type": "electric_scooter", "bike_id": "9ba6732430eadf8a0572465117b77979", "is_disabled": 0, "name": "9ba6732430eadf8a0572465117b77979", "lon": -77.03636616666667, "is_reserved": 0, "fusion_lon": 0.0, "lat": 38.92372233333333, "rental_uris": {"android": "https://dc.lft.to/lastmile_qr_scan", "ios": "https://dc.lft.to/lastmile_qr_scan"}, "fusion_lat": 0.0}, {"type": "electric_scooter", "bike_id": "5e5d57862828a0acc718a04dcf5222ed", "is_disabled": 0, "name": "5e5d57862828a0acc718a04dcf5222ed", "lon": -77.07170383333333, "is_reserved": 0, "fusion_lon": 0.0, "lat": 38.907689166666664, "rental_uris": {"android": "https://dc.lft.to/lastmile_qr_scan", "ios": "https://dc.lft.to/lastmile_qr_scan"}, "fusion_lat": 0.0}, {"type": "electric_scooter", "bike_id": "ebd04811794dd8698caa7da693332ef9", "is_disabled": 0, "name": "ebd04811794dd8698caa7da693332ef9", "lon": -76.99726316666667, "is_reserved": 0, "fusion_lon": 0.0, "lat": 38.845476, "rental_uris": {"android": "https://dc.lft.to/lastmile_qr_scan", "ios": "https://dc.lft.to/lastmile_qr_scan"}, "fusion_lat": 0.0}, {"type": "electric_scooter", "bike_id": "30ee8bc58032a14408111342a8b4f907", "is_disabled": 0, "name": "30ee8bc58032a14408111342a8b4f907", "lon": -77.034577, "is_reserved": 0, "fusion_lon": 0.0, "lat": 38.902686, "rental_uris": {"android": "https://dc.lft.to/lastmile_qr_scan", "ios": "https://dc.lft.to/lastmile_qr_scan"}, "fusion_lat": 0.0}, {"type": "electric_scooter", "bike_id": "7aa03000038b5caec488baff410dc28a", "is_disabled": 0, "name": "7aa03000038b5caec488baff410dc28a", "lon": -77.05812833333333, "is_reserved": 0, "fusion_lon": 0.0, "lat": 38.929006333333334, "rental_uris": {"android": "https://dc.lft.to/lastmile_qr_scan", "ios": "https://dc.lft.to/lastmile_qr_scan"}, "fusion_lat": 0.0}, {"type": "electric_scooter", "bike_id": "4ebd563e782ddec835a5ff9a1ec15899", "is_disabled": 0, "name": "4ebd563e782ddec835a5ff9a1ec15899", "lon": -77.0119525, "is_reserved": 0, "fusion_lon": 0.0, "lat": 38.900281, "rental_uris": {"android": "https://dc.lft.to/lastmile_qr_scan", "ios": "https://dc.lft.to/lastmile_qr_scan"}, "fusion_lat": 0.0}, {"type": "electric_bike", "bike_id": "d088fa3546ab47fe5dffe5f010f99269", "is_disabled": 0, "name": "d088fa3546ab47fe5dffe5f010f99269", "lon": -77.04077583333333, "is_reserved": 0, "fusion_lon": 0.0, "lat": 38.830606333333336, "rental_uris": {"android": "https://dc.lft.to/lastmile_qr_scan", "ios": "https://dc.lft.to/lastmile_qr_scan"}, "fusion_lat": 0.0}, {"type": "electric_scooter", "bike_id": "54383a8da507da59b9ebb7f8bf264e30", "is_disabled": 0, "name": "54383a8da507da59b9ebb7f8bf264e30", "lon": -77.013039, "is_reserved": 0, "fusion_lon": 0.0, "lat": 38.8777765, "rental_uris": {"android": "https://dc.lft.to/lastmile_qr_scan", "ios": "https://dc.lft.to/lastmile_qr_scan"}, "fusion_lat": 0.0}, {"type": "electric_scooter", "bike_id": "b90ee880540e4d68862eccb0f1149b9a", "is_disabled": 0, "name": "b90ee880540e4d68862eccb0f1149b9a", "lon": -77.03187283333334, "is_reserved": 0, "fusion_lon": 0.0, "lat": 38.91172016666667, "rental_uris": {"android": "https://dc.lft.to/lastmile_qr_scan", "ios": "https://dc.lft.to/lastmile_qr_scan"}, "fusion_lat": 0.0}, {"type": "electric_scooter", "bike_id": "06ecaf93c95a8289d1b22dbe70a577e0", "is_disabled": 0, "name": "06ecaf93c95a8289d1b22dbe70a577e0", "lon": -77.01887116666667, "is_reserved": 0, "fusion_lon": 0.0, "lat": 38.89747233333333, "rental_uris": {"android": "https://dc.lft.to/lastmile_qr_scan", "ios": "https://dc.lft.to/lastmile_qr_scan"}, "fusion_lat": 0.0}, {"type": "electric_scooter", "bike_id": "f52374e572e0743029f9db4e32612f48", "is_disabled": 0, "name": "f52374e572e0743029f9db4e32612f48", "lon": -77.01784116666667, "is_reserved": 0, "fusion_lon": 0.0, "lat": 38.900492, "rental_uris": {"android": "https://dc.lft.to/lastmile_qr_scan", "ios": "https://dc.lft.to/lastmile_qr_scan"}, "fusion_lat": 0.0}, {"type": "electric_scooter", "bike_id": "bb02b5fe2350a96724da4bfafa2d996d", "is_disabled": 0, "name": "bb02b5fe2350a96724da4bfafa2d996d", "lon": -77.00361833333334, "is_reserved": 0, "fusion_lon": 0.0, "lat": 38.877294, "rental_uris": {"android": "https://dc.lft.to/lastmile_qr_scan", "ios": "https://dc.lft.to/lastmile_qr_scan"}, "fusion_lat": 0.0}, {"type": "electric_scooter", "bike_id": "e4497ca409109cd04e238d9a08fdad3a", "is_disabled": 0, "name": "e4497ca409109cd04e238d9a08fdad3a", "lon": -77.02094283333334, "is_reserved": 0, "fusion_lon": 0.0, "lat": 38.92677666666667, "rental_uris": {"android": "https://dc.lft.to/lastmile_qr_scan", "ios": "https://dc.lft.to/lastmile_qr_scan"}, "fusion_lat": 0.0}, {"type": "electric_scooter", "bike_id": "2e13a0f6eaae91fc057e8b2575c11018", "is_disabled": 0, "name": "2e13a0f6eaae91fc057e8b2575c11018", "lon": -77.0191655, "is_reserved": 0, "fusion_lon": 0.0, "lat": 38.923651166666666, "rental_uris": {"android": "https://dc.lft.to/lastmile_qr_scan", "ios": "https://dc.lft.to/lastmile_qr_scan"}, "fusion_lat": 0.0}, {"type": "electric_scooter", "bike_id": "344072ff627934d42306c49678c0eabf", "is_disabled": 0, "name": "344072ff627934d42306c49678c0eabf", "lon": -77.03668416666666, "is_reserved": 0, "fusion_lon": 0.0, "lat": 38.922684833333335, "rental_uris": {"android": "https://dc.lft.to/lastmile_qr_scan", "ios": "https://dc.lft.to/lastmile_qr_scan"}, "fusion_lat": 0.0}, {"type": "electric_scooter", "bike_id": "140d4069b18c350147a979a800b61466", "is_disabled": 0, "name": "140d4069b18c350147a979a800b61466", "lon": -77.0488015, "is_reserved": 0, "fusion_lon": 0.0, "lat": 38.9007845, "rental_uris": {"android": "https://dc.lft.to/lastmile_qr_scan", "ios": "https://dc.lft.to/lastmile_qr_scan"}, "fusion_lat": 0.0}, {"type": "electric_scooter", "bike_id": "09af84e326964883fc983fcef16a66cc", "is_disabled": 0, "name": "09af84e326964883fc983fcef16a66cc", "lon": -77.045559, "is_reserved": 0, "fusion_lon": 0.0, "lat": 38.9007815, "rental_uris": {"android": "https://dc.lft.to/lastmile_qr_scan", "ios": "https://dc.lft.to/lastmile_qr_scan"}, "fusion_lat": 0.0}, {"type": "electric_scooter", "bike_id": "783041fe2aebf59d978946f7b5afbde5", "is_disabled": 0, "name": "783041fe2aebf59d978946f7b5afbde5", "lon": -77.0146045, "is_reserved": 0, "fusion_lon": 0.0, "lat": 38.91770116666667, "rental_uris": {"android": "https://dc.lft.to/lastmile_qr_scan", "ios": "https://dc.lft.to/lastmile_qr_scan"}, "fusion_lat": 0.0}, {"type": "electric_scooter", "bike_id": "44685a30ec1a7d43bb372403b13b9ade", "is_disabled": 0, "name": "44685a30ec1a7d43bb372403b13b9ade", "lon": -77.0386135, "is_reserved": 0, "fusion_lon": 0.0, "lat": 38.909671833333334, "rental_uris": {"android": "https://dc.lft.to/lastmile_qr_scan", "ios": "https://dc.lft.to/lastmile_qr_scan"}, "fusion_lat": 0.0}, {"type": "electric_scooter", "bike_id": "cd6b7f2b052a8a14a3eb1615e5a556e5", "is_disabled": 0, "name": "cd6b7f2b052a8a14a3eb1615e5a556e5", "lon": -77.06275933333333, "is_reserved": 0, "fusion_lon": 0.0, "lat": 38.9058055, "rental_uris": {"android": "https://dc.lft.to/lastmile_qr_scan", "ios": "https://dc.lft.to/lastmile_qr_scan"}, "fusion_lat": 0.0}, {"type": "electric_scooter", "bike_id": "9be589e47df701bd1fa133b9c64a72cf", "is_disabled": 0, "name": "9be589e47df701bd1fa133b9c64a72cf", "lon": -77.02817933333333, "is_reserved": 0, "fusion_lon": 0.0, "lat": 38.904542, "rental_uris": {"android": "https://dc.lft.to/lastmile_qr_scan", "ios": "https://dc.lft.to/lastmile_qr_scan"}, "fusion_lat": 0.0}, {"type": "electric_scooter", "bike_id": "12a03a253ebae7d72a696f24ee5af967", "is_disabled": 0, "name": "12a03a253ebae7d72a696f24ee5af967", "lon": -77.01574983333333, "is_reserved": 0, "fusion_lon": 0.0, "lat": 38.927754666666665, "rental_uris": {"android": "https://dc.lft.to/lastmile_qr_scan", "ios": "https://dc.lft.to/lastmile_qr_scan"}, "fusion_lat": 0.0}, {"type": "electric_scooter", "bike_id": "91426ea1f9e21bd739bf34ae5708b2f1", "is_disabled": 0, "name": "91426ea1f9e21bd739bf34ae5708b2f1", "lon": -77.02278166666666, "is_reserved": 0, "fusion_lon": 0.0, "lat": 38.92682966666667, "rental_uris": {"android": "https://dc.lft.to/lastmile_qr_scan", "ios": "https://dc.lft.to/lastmile_qr_scan"}, "fusion_lat": 0.0}, {"type": "electric_scooter", "bike_id": "538db65e485f6e32993cddfb3c2951ed", "is_disabled": 0, "name": "538db65e485f6e32993cddfb3c2951ed", "lon": -77.0202105, "is_reserved": 0, "fusion_lon": 0.0, "lat": 38.92426616666667, "rental_uris": {"android": "https://dc.lft.to/lastmile_qr_scan", "ios": "https://dc.lft.to/lastmile_qr_scan"}, "fusion_lat": 0.0}, {"type": "electric_scooter", "bike_id": "7cc69177cc0e91f46b71aac6bbdac0ad", "is_disabled": 0, "name": "7cc69177cc0e91f46b71aac6bbdac0ad", "lon": -77.03422266666666, "is_reserved": 0, "fusion_lon": 0.0, "lat": 38.902435, "rental_uris": {"android": "https://dc.lft.to/lastmile_qr_scan", "ios": "https://dc.lft.to/lastmile_qr_scan"}, "fusion_lat": 0.0}, {"type": "electric_scooter", "bike_id": "e7f11e6edbe29c4e853c8a7622a822ce", "is_disabled": 0, "name": "e7f11e6edbe29c4e853c8a7622a822ce", "lon": -77.03564233333333, "is_reserved": 0, "fusion_lon": 0.0, "lat": 38.9247235, "rental_uris": {"android": "https://dc.lft.to/lastmile_qr_scan", "ios": "https://dc.lft.to/lastmile_qr_scan"}, "fusion_lat": 0.0}, {"type": "electric_bike", "bike_id": "a3684eb5280bb92f86c480fea7bd0469", "is_disabled": 0, "name": "a3684eb5280bb92f86c480fea7bd0469", "lon": -77.09959283333333, "is_reserved": 0, "fusion_lon": 0.0, "lat": 38.857793666666666, "rental_uris": {"android": "https://dc.lft.to/lastmile_qr_scan", "ios": "https://dc.lft.to/lastmile_qr_scan"}, "fusion_lat": 0.0}, {"type": "electric_scooter", "bike_id": "5d4fc088d9d7e1d9b4d9b439c2f6f164", "is_disabled": 0, "name": "5d4fc088d9d7e1d9b4d9b439c2f6f164", "lon": -77.03365333333333, "is_reserved": 0, "fusion_lon": 0.0, "lat": 38.90021316666667, "rental_uris": {"android": "https://dc.lft.to/lastmile_qr_scan", "ios": "https://dc.lft.to/lastmile_qr_scan"}, "fusion_lat": 0.0}, {"type": "electric_scooter", "bike_id": "2b4b07779120abfc8e8b2af0caceb3d9", "is_disabled": 0, "name": "2b4b07779120abfc8e8b2af0caceb3d9", "lon": -77.03899166666666, "is_reserved": 0, "fusion_lon": 0.0, "lat": 38.90652766666667, "rental_uris": {"android": "https://dc.lft.to/lastmile_qr_scan", "ios": "https://dc.lft.to/lastmile_qr_scan"}, "fusion_lat": 0.0}, {"type": "electric_scooter", "bike_id": "bacabd2331504f0fb4e37fa90bff0aa9", "is_disabled": 0, "name": "bacabd2331504f0fb4e37fa90bff0aa9", "lon": -77.07096066666666, "is_reserved": 0, "fusion_lon": 0.0, "lat": 38.91955983333333, "rental_uris": {"android": "https://dc.lft.to/lastmile_qr_scan", "ios": "https://dc.lft.to/lastmile_qr_scan"}, "fusion_lat": 0.0}, {"type": "electric_scooter", "bike_id": "dfa0f8d8c055f6a1846ee6584a1382d6", "is_disabled": 0, "name": "dfa0f8d8c055f6a1846ee6584a1382d6", "lon": -76.98700083333334, "is_reserved": 0, "fusion_lon": 0.0, "lat": 38.88830933333333, "rental_uris": {"android": "https://dc.lft.to/lastmile_qr_scan", "ios": "https://dc.lft.to/lastmile_qr_scan"}, "fusion_lat": 0.0}, {"type": "electric_scooter", "bike_id": "68958fcd237c972df1c4eef1ee0e5184", "is_disabled": 0, "name": "68958fcd237c972df1c4eef1ee0e5184", "lon": -77.04227933333334, "is_reserved": 0, "fusion_lon": 0.0, "lat": 38.91102133333333, "rental_uris": {"android": "https://dc.lft.to/lastmile_qr_scan", "ios": "https://dc.lft.to/lastmile_qr_scan"}, "fusion_lat": 0.0}, {"type": "electric_scooter", "bike_id": "9c7b98a46beff0d206d6ad6c62f72ef3", "is_disabled": 0, "name": "9c7b98a46beff0d206d6ad6c62f72ef3", "lon": -77.03863166666666, "is_reserved": 0, "fusion_lon": 0.0, "lat": 38.911773, "rental_uris": {"android": "https://dc.lft.to/lastmile_qr_scan", "ios": "https://dc.lft.to/lastmile_qr_scan"}, "fusion_lat": 0.0}, {"type": "electric_bike", "bike_id": "323e3573f26a63b2923e63a09567d35a", "is_disabled": 0, "name": "323e3573f26a63b2923e63a09567d35a", "lon": -76.91721866666667, "is_reserved": 0, "fusion_lon": 0.0, "lat": 38.880253333333336, "rental_uris": {"android": "https://dc.lft.to/lastmile_qr_scan", "ios": "https://dc.lft.to/lastmile_qr_scan"}, "fusion_lat": 0.0}, {"type": "electric_scooter", "bike_id": "2b3cc624bf088ce1871882cc49bd8f47", "is_disabled": 0, "name": "2b3cc624bf088ce1871882cc49bd8f47", "lon": -77.035224, "is_reserved": 0, "fusion_lon": 0.0, "lat": 38.900393333333334, "rental_uris": {"android": "https://dc.lft.to/lastmile_qr_scan", "ios": "https://dc.lft.to/lastmile_qr_scan"}, "fusion_lat": 0.0}, {"type": "electric_scooter", "bike_id": "f0950d5a26f1251bdd99786d5b3a2442", "is_disabled": 0, "name": "f0950d5a26f1251bdd99786d5b3a2442", "lon": -76.99770783333334, "is_reserved": 0, "fusion_lon": 0.0, "lat": 38.91108966666667, "rental_uris": {"android": "https://dc.lft.to/lastmile_qr_scan", "ios": "https://dc.lft.to/lastmile_qr_scan"}, "fusion_lat": 0.0}, {"type": "electric_scooter", "bike_id": "1997bbae43f97b4e70de218b61a9e327", "is_disabled": 0, "name": "1997bbae43f97b4e70de218b61a9e327", "lon": -77.05035483333333, "is_reserved": 0, "fusion_lon": 0.0, "lat": 38.89814533333333, "rental_uris": {"android": "https://dc.lft.to/lastmile_qr_scan", "ios": "https://dc.lft.to/lastmile_qr_scan"}, "fusion_lat": 0.0}, {"type": "electric_scooter", "bike_id": "8671a18c603b40a5036e71277a1f5ae4", "is_disabled": 0, "name": "8671a18c603b40a5036e71277a1f5ae4", "lon": -77.04426883333333, "is_reserved": 0, "fusion_lon": 0.0, "lat": 38.90114766666667, "rental_uris": {"android": "https://dc.lft.to/lastmile_qr_scan", "ios": "https://dc.lft.to/lastmile_qr_scan"}, "fusion_lat": 0.0}, {"type": "electric_scooter", "bike_id": "45a2ee4d0556ad4cf4c191ef93f99483", "is_disabled": 0, "name": "45a2ee4d0556ad4cf4c191ef93f99483", "lon": -77.0317245, "is_reserved": 0, "fusion_lon": 0.0, "lat": 38.892503166666664, "rental_uris": {"android": "https://dc.lft.to/lastmile_qr_scan", "ios": "https://dc.lft.to/lastmile_qr_scan"}, "fusion_lat": 0.0}, {"type": "electric_scooter", "bike_id": "42d14a0bca049849d80f86a0772553f9", "is_disabled": 0, "name": "42d14a0bca049849d80f86a0772553f9", "lon": -77.002912, "is_reserved": 0, "fusion_lon": 0.0, "lat": 38.891972, "rental_uris": {"android": "https://dc.lft.to/lastmile_qr_scan", "ios": "https://dc.lft.to/lastmile_qr_scan"}, "fusion_lat": 0.0}, {"type": "electric_scooter", "bike_id": "31226f91b1b967aaa8dbbf0ae514bf7b", "is_disabled": 0, "name": "31226f91b1b967aaa8dbbf0ae514bf7b", "lon": -77.02335916666667, "is_reserved": 0, "fusion_lon": 0.0, "lat": 38.922302333333334, "rental_uris": {"android": "https://dc.lft.to/lastmile_qr_scan", "ios": "https://dc.lft.to/lastmile_qr_scan"}, "fusion_lat": 0.0}, {"type": "electric_scooter", "bike_id": "9f028769b2f6326e7142e5884dad4686", "is_disabled": 0, "name": "9f028769b2f6326e7142e5884dad4686", "lon": -77.0265475, "is_reserved": 0, "fusion_lon": 0.0, "lat": 38.923697833333335, "rental_uris": {"android": "https://dc.lft.to/lastmile_qr_scan", "ios": "https://dc.lft.to/lastmile_qr_scan"}, "fusion_lat": 0.0}, {"type": "electric_bike", "bike_id": "eb2783c7eb4751b067c0d019a6ad4f9d", "is_disabled": 0, "name": "eb2783c7eb4751b067c0d019a6ad4f9d", "lon": -77.03058916666667, "is_reserved": 0, "fusion_lon": 0.0, "lat": 38.928748, "rental_uris": {"android": "https://dc.lft.to/lastmile_qr_scan", "ios": "https://dc.lft.to/lastmile_qr_scan"}, "fusion_lat": 0.0}, {"type": "electric_scooter", "bike_id": "530e4266fa00b157ef477f565abd5bdf", "is_disabled": 0, "name": "530e4266fa00b157ef477f565abd5bdf", "lon": -77.01560716666667, "is_reserved": 0, "fusion_lon": 0.0, "lat": 38.8763885, "rental_uris": {"android": "https://dc.lft.to/lastmile_qr_scan", "ios": "https://dc.lft.to/lastmile_qr_scan"}, "fusion_lat": 0.0}, {"type": "electric_scooter", "bike_id": "f68691e66c772299249b630c5bc9f432", "is_disabled": 0, "name": "f68691e66c772299249b630c5bc9f432", "lon": -76.98114516666666, "is_reserved": 0, "fusion_lon": 0.0, "lat": 38.914677833333336, "rental_uris": {"android": "https://dc.lft.to/lastmile_qr_scan", "ios": "https://dc.lft.to/lastmile_qr_scan"}, "fusion_lat": 0.0}, {"type": "electric_bike", "bike_id": "864ce3bbdd370baf451b162190196410", "is_disabled": 0, "name": "864ce3bbdd370baf451b162190196410", "lon": -77.06528616666667, "is_reserved": 0, "fusion_lon": 0.0, "lat": 38.992223333333335, "rental_uris": {"android": "https://dc.lft.to/lastmile_qr_scan", "ios": "https://dc.lft.to/lastmile_qr_scan"}, "fusion_lat": 0.0}, {"type": "electric_scooter", "bike_id": "6ce44fc08b461778d3bda12e939d769b", "is_disabled": 0, "name": "6ce44fc08b461778d3bda12e939d769b", "lon": -77.04675333333333, "is_reserved": 0, "fusion_lon": 0.0, "lat": 38.909423333333336, "rental_uris": {"android": "https://dc.lft.to/lastmile_qr_scan", "ios": "https://dc.lft.to/lastmile_qr_scan"}, "fusion_lat": 0.0}, {"type": "electric_bike", "bike_id": "dd400409391fe5cecd16138c63115635", "is_disabled": 0, "name": "dd400409391fe5cecd16138c63115635", "lon": -76.98977766666667, "is_reserved": 0, "fusion_lon": 0.0, "lat": 38.9371875, "rental_uris": {"android": "https://dc.lft.to/lastmile_qr_scan", "ios": "https://dc.lft.to/lastmile_qr_scan"}, "fusion_lat": 0.0}, {"type": "electric_bike", "bike_id": "2ee6be93fd107515067c01ede728e1a9", "is_disabled": 0, "name": "2ee6be93fd107515067c01ede728e1a9", "lon": -77.003766, "is_reserved": 0, "fusion_lon": 0.0, "lat": 38.836031166666665, "rental_uris": {"android": "https://dc.lft.to/lastmile_qr_scan", "ios": "https://dc.lft.to/lastmile_qr_scan"}, "fusion_lat": 0.0}, {"type": "electric_scooter", "bike_id": "d39007c99dc5b12c92744cbb396c741e", "is_disabled": 0, "name": "d39007c99dc5b12c92744cbb396c741e", "lon": -77.01857966666667, "is_reserved": 0, "fusion_lon": 0.0, "lat": 38.94921866666667, "rental_uris": {"android": "https://dc.lft.to/lastmile_qr_scan", "ios": "https://dc.lft.to/lastmile_qr_scan"}, "fusion_lat": 0.0}, {"type": "electric_scooter", "bike_id": "3e06e3376fa614d79da43724fcf2d520", "is_disabled": 0, "name": "3e06e3376fa614d79da43724fcf2d520", "lon": -77.03726666666667, "is_reserved": 0, "fusion_lon": 0.0, "lat": 38.920238166666664, "rental_uris": {"android": "https://dc.lft.to/lastmile_qr_scan", "ios": "https://dc.lft.to/lastmile_qr_scan"}, "fusion_lat": 0.0}, {"type": "electric_scooter", "bike_id": "0a4eb02952416530f8cb91a31d11ea63", "is_disabled": 0, "name": "0a4eb02952416530f8cb91a31d11ea63", "lon": -77.02078516666667, "is_reserved": 0, "fusion_lon": 0.0, "lat": 38.930200166666665, "rental_uris": {"android": "https://dc.lft.to/lastmile_qr_scan", "ios": "https://dc.lft.to/lastmile_qr_scan"}, "fusion_lat": 0.0}, {"type": "electric_bike", "bike_id": "9110099cc05ed28e2011a9fda3a0187b", "is_disabled": 0, "name": "9110099cc05ed28e2011a9fda3a0187b", "lon": -76.963235, "is_reserved": 0, "fusion_lon": 0.0, "lat": 38.9389375, "rental_uris": {"android": "https://dc.lft.to/lastmile_qr_scan", "ios": "https://dc.lft.to/lastmile_qr_scan"}, "fusion_lat": 0.0}, {"type": "electric_scooter", "bike_id": "ee14e51f5577e05fd80739f253bf1ff7", "is_disabled": 0, "name": "ee14e51f5577e05fd80739f253bf1ff7", "lon": -77.02093416666666, "is_reserved": 0, "fusion_lon": 0.0, "lat": 38.92146916666667, "rental_uris": {"android": "https://dc.lft.to/lastmile_qr_scan", "ios": "https://dc.lft.to/lastmile_qr_scan"}, "fusion_lat": 0.0}, {"type": "electric_scooter", "bike_id": "b4d62f20d053e62e256ffab0964ae26e", "is_disabled": 0, "name": "b4d62f20d053e62e256ffab0964ae26e", "lon": -77.0886985, "is_reserved": 0, "fusion_lon": 0.0, "lat": 38.934449, "rental_uris": {"android": "https://dc.lft.to/lastmile_qr_scan", "ios": "https://dc.lft.to/lastmile_qr_scan"}, "fusion_lat": 0.0}, {"type": "electric_scooter", "bike_id": "17a8cafed5790e6b8315bf1e59aeddc3", "is_disabled": 0, "name": "17a8cafed5790e6b8315bf1e59aeddc3", "lon": -77.0190025, "is_reserved": 0, "fusion_lon": 0.0, "lat": 38.91872266666667, "rental_uris": {"android": "https://dc.lft.to/lastmile_qr_scan", "ios": "https://dc.lft.to/lastmile_qr_scan"}, "fusion_lat": 0.0}, {"type": "electric_bike", "bike_id": "700e844e449ea8dab400498785baad43", "is_disabled": 0, "name": "700e844e449ea8dab400498785baad43", "lon": -77.05700283333333, "is_reserved": 0, "fusion_lon": 0.0, "lat": 38.90548233333333, "rental_uris": {"android": "https://dc.lft.to/lastmile_qr_scan", "ios": "https://dc.lft.to/lastmile_qr_scan"}, "fusion_lat": 0.0}, {"type": "electric_scooter", "bike_id": "102948f8d1da22035a41678aaee565c4", "is_disabled": 0, "name": "102948f8d1da22035a41678aaee565c4", "lon": -76.98699516666667, "is_reserved": 0, "fusion_lon": 0.0, "lat": 38.90015066666667, "rental_uris": {"android": "https://dc.lft.to/lastmile_qr_scan", "ios": "https://dc.lft.to/lastmile_qr_scan"}, "fusion_lat": 0.0}, {"type": "electric_scooter", "bike_id": "8da69f0b771f2b3bea8fd02e5d5b759f", "is_disabled": 0, "name": "8da69f0b771f2b3bea8fd02e5d5b759f", "lon": -77.00043966666667, "is_reserved": 0, "fusion_lon": 0.0, "lat": 38.881276666666665, "rental_uris": {"android": "https://dc.lft.to/lastmile_qr_scan", "ios": "https://dc.lft.to/lastmile_qr_scan"}, "fusion_lat": 0.0}, {"type": "electric_scooter", "bike_id": "d13a5c8914185db283e285f023ad2da8", "is_disabled": 0, "name": "d13a5c8914185db283e285f023ad2da8", "lon": -77.0138015, "is_reserved": 0, "fusion_lon": 0.0, "lat": 38.876027666666666, "rental_uris": {"android": "https://dc.lft.to/lastmile_qr_scan", "ios": "https://dc.lft.to/lastmile_qr_scan"}, "fusion_lat": 0.0}, {"type": "electric_scooter", "bike_id": "9c7ab1661b2bf98e87051bc21151f4bc", "is_disabled": 0, "name": "9c7ab1661b2bf98e87051bc21151f4bc", "lon": -77.03466733333333, "is_reserved": 0, "fusion_lon": 0.0, "lat": 38.92146283333334, "rental_uris": {"android": "https://dc.lft.to/lastmile_qr_scan", "ios": "https://dc.lft.to/lastmile_qr_scan"}, "fusion_lat": 0.0}, {"type": "electric_scooter", "bike_id": "d369eeb67401dbb8896e3066e59a95ac", "is_disabled": 0, "name": "d369eeb67401dbb8896e3066e59a95ac", "lon": -77.031687, "is_reserved": 0, "fusion_lon": 0.0, "lat": 38.916301, "rental_uris": {"android": "https://dc.lft.to/lastmile_qr_scan", "ios": "https://dc.lft.to/lastmile_qr_scan"}, "fusion_lat": 0.0}, {"type": "electric_bike", "bike_id": "438e8c23cc4a45da05a7a2978a0ce2f1", "is_disabled": 0, "name": "438e8c23cc4a45da05a7a2978a0ce2f1", "lon": -77.0027965, "is_reserved": 0, "fusion_lon": 0.0, "lat": 38.838349666666666, "rental_uris": {"android": "https://dc.lft.to/lastmile_qr_scan", "ios": "https://dc.lft.to/lastmile_qr_scan"}, "fusion_lat": 0.0}, {"type": "electric_scooter", "bike_id": "5dcc53be1600394d93d5743bd2102288", "is_disabled": 0, "name": "5dcc53be1600394d93d5743bd2102288", "lon": -77.0280515, "is_reserved": 0, "fusion_lon": 0.0, "lat": 38.899220666666665, "rental_uris": {"android": "https://dc.lft.to/lastmile_qr_scan", "ios": "https://dc.lft.to/lastmile_qr_scan"}, "fusion_lat": 0.0}, {"type": "electric_scooter", "bike_id": "d5ebddc652729bc33fc483f148dbeb85", "is_disabled": 0, "name": "d5ebddc652729bc33fc483f148dbeb85", "lon": -77.00626716666666, "is_reserved": 0, "fusion_lon": 0.0, "lat": 38.87182216666667, "rental_uris": {"android": "https://dc.lft.to/lastmile_qr_scan", "ios": "https://dc.lft.to/lastmile_qr_scan"}, "fusion_lat": 0.0}, {"type": "electric_scooter", "bike_id": "21e9aa4e1b543181ace940f8e33985d2", "is_disabled": 0, "name": "21e9aa4e1b543181ace940f8e33985d2", "lon": -77.02909333333334, "is_reserved": 0, "fusion_lon": 0.0, "lat": 38.90365033333333, "rental_uris": {"android": "https://dc.lft.to/lastmile_qr_scan", "ios": "https://dc.lft.to/lastmile_qr_scan"}, "fusion_lat": 0.0}, {"type": "electric_scooter", "bike_id": "dd9206344d9bf4d85b2f4e4ce48cdbb9", "is_disabled": 0, "name": "dd9206344d9bf4d85b2f4e4ce48cdbb9", "lon": -77.03452366666667, "is_reserved": 0, "fusion_lon": 0.0, "lat": 38.91659516666667, "rental_uris": {"android": "https://dc.lft.to/lastmile_qr_scan", "ios": "https://dc.lft.to/lastmile_qr_scan"}, "fusion_lat": 0.0}, {"type": "electric_scooter", "bike_id": "20859b5689718a35187ced937a4695ef", "is_disabled": 0, "name": "20859b5689718a35187ced937a4695ef", "lon": -77.05731583333333, "is_reserved": 0, "fusion_lon": 0.0, "lat": 38.93376166666667, "rental_uris": {"android": "https://dc.lft.to/lastmile_qr_scan", "ios": "https://dc.lft.to/lastmile_qr_scan"}, "fusion_lat": 0.0}, {"type": "electric_scooter", "bike_id": "432257641324004d7a40ce21aabc38f3", "is_disabled": 0, "name": "432257641324004d7a40ce21aabc38f3", "lon": -77.04892266666667, "is_reserved": 0, "fusion_lon": 0.0, "lat": 38.900441666666666, "rental_uris": {"android": "https://dc.lft.to/lastmile_qr_scan", "ios": "https://dc.lft.to/lastmile_qr_scan"}, "fusion_lat": 0.0}, {"type": "electric_scooter", "bike_id": "4cc993742c649a0307e876000d700289", "is_disabled": 0, "name": "4cc993742c649a0307e876000d700289", "lon": -77.01404716666667, "is_reserved": 0, "fusion_lon": 0.0, "lat": 38.928357166666665, "rental_uris": {"android": "https://dc.lft.to/lastmile_qr_scan", "ios": "https://dc.lft.to/lastmile_qr_scan"}, "fusion_lat": 0.0}, {"type": "electric_bike", "bike_id": "f674b3ce67dacf64624824b47b51b4be", "is_disabled": 0, "name": "f674b3ce67dacf64624824b47b51b4be", "lon": -76.98842966666666, "is_reserved": 0, "fusion_lon": 0.0, "lat": 38.84278916666667, "rental_uris": {"android": "https://dc.lft.to/lastmile_qr_scan", "ios": "https://dc.lft.to/lastmile_qr_scan"}, "fusion_lat": 0.0}, {"type": "electric_bike", "bike_id": "840b33feeeb718ace720a493e86fa2af", "is_disabled": 0, "name": "840b33feeeb718ace720a493e86fa2af", "lon": -77.02031266666667, "is_reserved": 0, "fusion_lon": 0.0, "lat": 38.965553, "rental_uris": {"android": "https://dc.lft.to/lastmile_qr_scan", "ios": "https://dc.lft.to/lastmile_qr_scan"}, "fusion_lat": 0.0}, {"type": "electric_scooter", "bike_id": "622c172172aafac859a1b41e5616d0b8", "is_disabled": 0, "name": "622c172172aafac859a1b41e5616d0b8", "lon": -77.01228016666667, "is_reserved": 0, "fusion_lon": 0.0, "lat": 38.893263833333336, "rental_uris": {"android": "https://dc.lft.to/lastmile_qr_scan", "ios": "https://dc.lft.to/lastmile_qr_scan"}, "fusion_lat": 0.0}, {"type": "electric_scooter", "bike_id": "a7032d7d84cd1dd973d09550cace4493", "is_disabled": 0, "name": "a7032d7d84cd1dd973d09550cace4493", "lon": -77.021794, "is_reserved": 0, "fusion_lon": 0.0, "lat": 38.909487666666664, "rental_uris": {"android": "https://dc.lft.to/lastmile_qr_scan", "ios": "https://dc.lft.to/lastmile_qr_scan"}, "fusion_lat": 0.0}, {"type": "electric_scooter", "bike_id": "559c21ab09434fdc01c4df523afae186", "is_disabled": 0, "name": "559c21ab09434fdc01c4df523afae186", "lon": -77.04017966666666, "is_reserved": 0, "fusion_lon": 0.0, "lat": 38.9244495, "rental_uris": {"android": "https://dc.lft.to/lastmile_qr_scan", "ios": "https://dc.lft.to/lastmile_qr_scan"}, "fusion_lat": 0.0}, {"type": "electric_scooter", "bike_id": "b6fa7a3867f89d2b6804ec963d9487c1", "is_disabled": 0, "name": "b6fa7a3867f89d2b6804ec963d9487c1", "lon": -77.03926933333334, "is_reserved": 0, "fusion_lon": 0.0, "lat": 38.91399233333333, "rental_uris": {"android": "https://dc.lft.to/lastmile_qr_scan", "ios": "https://dc.lft.to/lastmile_qr_scan"}, "fusion_lat": 0.0}, {"type": "electric_scooter", "bike_id": "82311a5168f3817192462d9a54a03ec3", "is_disabled": 0, "name": "82311a5168f3817192462d9a54a03ec3", "lon": -77.0362365, "is_reserved": 0, "fusion_lon": 0.0, "lat": 38.93674133333333, "rental_uris": {"android": "https://dc.lft.to/lastmile_qr_scan", "ios": "https://dc.lft.to/lastmile_qr_scan"}, "fusion_lat": 0.0}, {"type": "electric_scooter", "bike_id": "bb1eb66343a037c9972efd565511a83d", "is_disabled": 0, "name": "bb1eb66343a037c9972efd565511a83d", "lon": -77.00531983333333, "is_reserved": 0, "fusion_lon": 0.0, "lat": 38.87541, "rental_uris": {"android": "https://dc.lft.to/lastmile_qr_scan", "ios": "https://dc.lft.to/lastmile_qr_scan"}, "fusion_lat": 0.0}, {"type": "electric_bike", "bike_id": "145f215088de7b8adac3dc43d8b4084e", "is_disabled": 0, "name": "145f215088de7b8adac3dc43d8b4084e", "lon": -76.987143, "is_reserved": 0, "fusion_lon": 0.0, "lat": 38.863349, "rental_uris": {"android": "https://dc.lft.to/lastmile_qr_scan", "ios": "https://dc.lft.to/lastmile_qr_scan"}, "fusion_lat": 0.0}, {"type": "electric_scooter", "bike_id": "50353c4fe6edd8d2db170c178f1f51b4", "is_disabled": 0, "name": "50353c4fe6edd8d2db170c178f1f51b4", "lon": -76.99254, "is_reserved": 0, "fusion_lon": 0.0, "lat": 38.91968516666667, "rental_uris": {"android": "https://dc.lft.to/lastmile_qr_scan", "ios": "https://dc.lft.to/lastmile_qr_scan"}, "fusion_lat": 0.0}, {"type": "electric_scooter", "bike_id": "e520cc7e9eb8cd5c3388253125c8aed3", "is_disabled": 0, "name": "e520cc7e9eb8cd5c3388253125c8aed3", "lon": -77.04828283333333, "is_reserved": 0, "fusion_lon": 0.0, "lat": 38.89823716666667, "rental_uris": {"android": "https://dc.lft.to/lastmile_qr_scan", "ios": "https://dc.lft.to/lastmile_qr_scan"}, "fusion_lat": 0.0}, {"type": "electric_scooter", "bike_id": "fd3b1e04ff053c2148235a24f8c5a2cd", "is_disabled": 0, "name": "fd3b1e04ff053c2148235a24f8c5a2cd", "lon": -77.0561855, "is_reserved": 0, "fusion_lon": 0.0, "lat": 38.92332316666667, "rental_uris": {"android": "https://dc.lft.to/lastmile_qr_scan", "ios": "https://dc.lft.to/lastmile_qr_scan"}, "fusion_lat": 0.0}, {"type": "electric_scooter", "bike_id": "c26eace157e2102527fa1b4de00626a4", "is_disabled": 0, "name": "c26eace157e2102527fa1b4de00626a4", "lon": -77.039608, "is_reserved": 0, "fusion_lon": 0.0, "lat": 38.900131, "rental_uris": {"android": "https://dc.lft.to/lastmile_qr_scan", "ios": "https://dc.lft.to/lastmile_qr_scan"}, "fusion_lat": 0.0}, {"type": "electric_scooter", "bike_id": "ad343cd35915f15deffa848134ce0f0b", "is_disabled": 0, "name": "ad343cd35915f15deffa848134ce0f0b", "lon": -77.02807383333334, "is_reserved": 0, "fusion_lon": 0.0, "lat": 38.923151, "rental_uris": {"android": "https://dc.lft.to/lastmile_qr_scan", "ios": "https://dc.lft.to/lastmile_qr_scan"}, "fusion_lat": 0.0}, {"type": "electric_scooter", "bike_id": "7d7bd5a0558af3c36ad747a7ceacaa71", "is_disabled": 0, "name": "7d7bd5a0558af3c36ad747a7ceacaa71", "lon": -77.0400725, "is_reserved": 0, "fusion_lon": 0.0, "lat": 38.90993666666667, "rental_uris": {"android": "https://dc.lft.to/lastmile_qr_scan", "ios": "https://dc.lft.to/lastmile_qr_scan"}, "fusion_lat": 0.0}, {"type": "electric_scooter", "bike_id": "3148ace890213edaaaa8c50d84f595c8", "is_disabled": 0, "name": "3148ace890213edaaaa8c50d84f595c8", "lon": -76.994813, "is_reserved": 0, "fusion_lon": 0.0, "lat": 38.888566833333336, "rental_uris": {"android": "https://dc.lft.to/lastmile_qr_scan", "ios": "https://dc.lft.to/lastmile_qr_scan"}, "fusion_lat": 0.0}, {"type": "electric_scooter", "bike_id": "da8b1df99ff5e796eca3fe25eabfe000", "is_disabled": 0, "name": "da8b1df99ff5e796eca3fe25eabfe000", "lon": -77.03263883333334, "is_reserved": 0, "fusion_lon": 0.0, "lat": 38.93738616666667, "rental_uris": {"android": "https://dc.lft.to/lastmile_qr_scan", "ios": "https://dc.lft.to/lastmile_qr_scan"}, "fusion_lat": 0.0}, {"type": "electric_bike", "bike_id": "42012e0c62ae82aa9beedc6e3681a8d1", "is_disabled": 0, "name": "42012e0c62ae82aa9beedc6e3681a8d1", "lon": -77.016373, "is_reserved": 0, "fusion_lon": 0.0, "lat": 38.9038645, "rental_uris": {"android": "https://dc.lft.to/lastmile_qr_scan", "ios": "https://dc.lft.to/lastmile_qr_scan"}, "fusion_lat": 0.0}, {"type": "electric_scooter", "bike_id": "df228bf398913a9ddad0840a7ea22a26", "is_disabled": 0, "name": "df228bf398913a9ddad0840a7ea22a26", "lon": -77.01771933333333, "is_reserved": 0, "fusion_lon": 0.0, "lat": 38.878088166666664, "rental_uris": {"android": "https://dc.lft.to/lastmile_qr_scan", "ios": "https://dc.lft.to/lastmile_qr_scan"}, "fusion_lat": 0.0}, {"type": "electric_scooter", "bike_id": "d9173c7b2cd1f0e878ad5d345d5d4821", "is_disabled": 0, "name": "d9173c7b2cd1f0e878ad5d345d5d4821", "lon": -76.94953316666667, "is_reserved": 0, "fusion_lon": 0.0, "lat": 38.89546216666667, "rental_uris": {"android": "https://dc.lft.to/lastmile_qr_scan", "ios": "https://dc.lft.to/lastmile_qr_scan"}, "fusion_lat": 0.0}, {"type": "electric_scooter", "bike_id": "bab4b746b310367635f02b2e7882c9d0", "is_disabled": 0, "name": "bab4b746b310367635f02b2e7882c9d0", "lon": -76.99500116666667, "is_reserved": 0, "fusion_lon": 0.0, "lat": 38.88339233333333, "rental_uris": {"android": "https://dc.lft.to/lastmile_qr_scan", "ios": "https://dc.lft.to/lastmile_qr_scan"}, "fusion_lat": 0.0}, {"type": "electric_scooter", "bike_id": "ce47daeb06ecd1968ce71e7e0cabd8bb", "is_disabled": 0, "name": "ce47daeb06ecd1968ce71e7e0cabd8bb", "lon": -77.01389116666667, "is_reserved": 0, "fusion_lon": 0.0, "lat": 38.878928, "rental_uris": {"android": "https://dc.lft.to/lastmile_qr_scan", "ios": "https://dc.lft.to/lastmile_qr_scan"}, "fusion_lat": 0.0}, {"type": "electric_scooter", "bike_id": "70b661b6e74c10670330c8c85902cc70", "is_disabled": 0, "name": "70b661b6e74c10670330c8c85902cc70", "lon": -77.00568966666667, "is_reserved": 0, "fusion_lon": 0.0, "lat": 38.8850265, "rental_uris": {"android": "https://dc.lft.to/lastmile_qr_scan", "ios": "https://dc.lft.to/lastmile_qr_scan"}, "fusion_lat": 0.0}, {"type": "electric_scooter", "bike_id": "9d90d6a0217ea6f2dc64f4b72ce017cd", "is_disabled": 0, "name": "9d90d6a0217ea6f2dc64f4b72ce017cd", "lon": -77.02136133333333, "is_reserved": 0, "fusion_lon": 0.0, "lat": 38.927957166666666, "rental_uris": {"android": "https://dc.lft.to/lastmile_qr_scan", "ios": "https://dc.lft.to/lastmile_qr_scan"}, "fusion_lat": 0.0}, {"type": "electric_scooter", "bike_id": "d7f2b104e875798740d78c28d842f4ea", "is_disabled": 0, "name": "d7f2b104e875798740d78c28d842f4ea", "lon": -77.0219685, "is_reserved": 0, "fusion_lon": 0.0, "lat": 38.916428333333336, "rental_uris": {"android": "https://dc.lft.to/lastmile_qr_scan", "ios": "https://dc.lft.to/lastmile_qr_scan"}, "fusion_lat": 0.0}, {"type": "electric_scooter", "bike_id": "b1c5bc849bc90ecdb7036b89c1c155dd", "is_disabled": 0, "name": "b1c5bc849bc90ecdb7036b89c1c155dd", "lon": -76.92367233333333, "is_reserved": 0, "fusion_lon": 0.0, "lat": 38.89241916666667, "rental_uris": {"android": "https://dc.lft.to/lastmile_qr_scan", "ios": "https://dc.lft.to/lastmile_qr_scan"}, "fusion_lat": 0.0}, {"type": "electric_scooter", "bike_id": "b36e63629da5829a1f2238c1832ac4c2", "is_disabled": 0, "name": "b36e63629da5829a1f2238c1832ac4c2", "lon": -76.98854366666667, "is_reserved": 0, "fusion_lon": 0.0, "lat": 38.90697733333333, "rental_uris": {"android": "https://dc.lft.to/lastmile_qr_scan", "ios": "https://dc.lft.to/lastmile_qr_scan"}, "fusion_lat": 0.0}, {"type": "electric_scooter", "bike_id": "996135809fe0b0523b4b4f605bb68b4b", "is_disabled": 0, "name": "996135809fe0b0523b4b4f605bb68b4b", "lon": -77.03214083333333, "is_reserved": 0, "fusion_lon": 0.0, "lat": 38.928653833333335, "rental_uris": {"android": "https://dc.lft.to/lastmile_qr_scan", "ios": "https://dc.lft.to/lastmile_qr_scan"}, "fusion_lat": 0.0}, {"type": "electric_scooter", "bike_id": "f4133b4e19500acdc3304ba2f8f0493e", "is_disabled": 0, "name": "f4133b4e19500acdc3304ba2f8f0493e", "lon": -76.983672, "is_reserved": 0, "fusion_lon": 0.0, "lat": 38.922004666666666, "rental_uris": {"android": "https://dc.lft.to/lastmile_qr_scan", "ios": "https://dc.lft.to/lastmile_qr_scan"}, "fusion_lat": 0.0}, {"type": "electric_scooter", "bike_id": "12814704ab4720f953032f0550412960", "is_disabled": 0, "name": "12814704ab4720f953032f0550412960", "lon": -77.03646333333333, "is_reserved": 0, "fusion_lon": 0.0, "lat": 38.92597416666667, "rental_uris": {"android": "https://dc.lft.to/lastmile_qr_scan", "ios": "https://dc.lft.to/lastmile_qr_scan"}, "fusion_lat": 0.0}, {"type": "electric_scooter", "bike_id": "aa052a38a33827984875560ade62b53f", "is_disabled": 0, "name": "aa052a38a33827984875560ade62b53f", "lon": -77.04987533333333, "is_reserved": 0, "fusion_lon": 0.0, "lat": 38.90531516666667, "rental_uris": {"android": "https://dc.lft.to/lastmile_qr_scan", "ios": "https://dc.lft.to/lastmile_qr_scan"}, "fusion_lat": 0.0}, {"type": "electric_scooter", "bike_id": "d1fc973dc2571d41e8c68ca8a1c2bd73", "is_disabled": 0, "name": "d1fc973dc2571d41e8c68ca8a1c2bd73", "lon": -77.0090855, "is_reserved": 0, "fusion_lon": 0.0, "lat": 38.90077516666667, "rental_uris": {"android": "https://dc.lft.to/lastmile_qr_scan", "ios": "https://dc.lft.to/lastmile_qr_scan"}, "fusion_lat": 0.0}, {"type": "electric_scooter", "bike_id": "a5cd189c7d402b6f0cd8e080256d77c5", "is_disabled": 0, "name": "a5cd189c7d402b6f0cd8e080256d77c5", "lon": -77.03954966666667, "is_reserved": 0, "fusion_lon": 0.0, "lat": 38.892444833333336, "rental_uris": {"android": "https://dc.lft.to/lastmile_qr_scan", "ios": "https://dc.lft.to/lastmile_qr_scan"}, "fusion_lat": 0.0}, {"type": "electric_scooter", "bike_id": "94404ab0698e765a2860d617a59cab56", "is_disabled": 0, "name": "94404ab0698e765a2860d617a59cab56", "lon": -77.00218633333333, "is_reserved": 0, "fusion_lon": 0.0, "lat": 38.90002783333333, "rental_uris": {"android": "https://dc.lft.to/lastmile_qr_scan", "ios": "https://dc.lft.to/lastmile_qr_scan"}, "fusion_lat": 0.0}, {"type": "electric_scooter", "bike_id": "0aa83365d009a6a4d89d5ea47e00af10", "is_disabled": 0, "name": "0aa83365d009a6a4d89d5ea47e00af10", "lon": -77.06041616666667, "is_reserved": 0, "fusion_lon": 0.0, "lat": 38.902197666666666, "rental_uris": {"android": "https://dc.lft.to/lastmile_qr_scan", "ios": "https://dc.lft.to/lastmile_qr_scan"}, "fusion_lat": 0.0}, {"type": "electric_scooter", "bike_id": "baaf4f208a368129c7ea87c7d1801b26", "is_disabled": 0, "name": "baaf4f208a368129c7ea87c7d1801b26", "lon": -77.043265, "is_reserved": 0, "fusion_lon": 0.0, "lat": 38.916942666666664, "rental_uris": {"android": "https://dc.lft.to/lastmile_qr_scan", "ios": "https://dc.lft.to/lastmile_qr_scan"}, "fusion_lat": 0.0}, {"type": "electric_scooter", "bike_id": "2eeb58d5a739bb77c5cdda677f69681e", "is_disabled": 0, "name": "2eeb58d5a739bb77c5cdda677f69681e", "lon": -77.02200666666667, "is_reserved": 0, "fusion_lon": 0.0, "lat": 38.91765866666667, "rental_uris": {"android": "https://dc.lft.to/lastmile_qr_scan", "ios": "https://dc.lft.to/lastmile_qr_scan"}, "fusion_lat": 0.0}, {"type": "electric_scooter", "bike_id": "e39e47f6218f4aacfda54bfd4aa91389", "is_disabled": 0, "name": "e39e47f6218f4aacfda54bfd4aa91389", "lon": -77.03704933333333, "is_reserved": 0, "fusion_lon": 0.0, "lat": 38.9263465, "rental_uris": {"android": "https://dc.lft.to/lastmile_qr_scan", "ios": "https://dc.lft.to/lastmile_qr_scan"}, "fusion_lat": 0.0}, {"type": "electric_scooter", "bike_id": "6d0050abdd06094118c9ccb2c7e0900e", "is_disabled": 0, "name": "6d0050abdd06094118c9ccb2c7e0900e", "lon": -77.02563333333333, "is_reserved": 0, "fusion_lon": 0.0, "lat": 38.941917, "rental_uris": {"android": "https://dc.lft.to/lastmile_qr_scan", "ios": "https://dc.lft.to/lastmile_qr_scan"}, "fusion_lat": 0.0}, {"type": "electric_scooter", "bike_id": "ef0f34409bd56a0ab3e8b614f78c3ad6", "is_disabled": 0, "name": "ef0f34409bd56a0ab3e8b614f78c3ad6", "lon": -77.0183695, "is_reserved": 0, "fusion_lon": 0.0, "lat": 38.90964733333333, "rental_uris": {"android": "https://dc.lft.to/lastmile_qr_scan", "ios": "https://dc.lft.to/lastmile_qr_scan"}, "fusion_lat": 0.0}, {"type": "electric_scooter", "bike_id": "068ae1770e34862b164b68afaca58a5d", "is_disabled": 0, "name": "068ae1770e34862b164b68afaca58a5d", "lon": -77.04159783333333, "is_reserved": 0, "fusion_lon": 0.0, "lat": 38.901196166666665, "rental_uris": {"android": "https://dc.lft.to/lastmile_qr_scan", "ios": "https://dc.lft.to/lastmile_qr_scan"}, "fusion_lat": 0.0}, {"type": "electric_scooter", "bike_id": "526d51143cec70d88a4cc14c0ae9e61b", "is_disabled": 0, "name": "526d51143cec70d88a4cc14c0ae9e61b", "lon": -77.0247635, "is_reserved": 0, "fusion_lon": 0.0, "lat": 38.93858016666667, "rental_uris": {"android": "https://dc.lft.to/lastmile_qr_scan", "ios": "https://dc.lft.to/lastmile_qr_scan"}, "fusion_lat": 0.0}, {"type": "electric_scooter", "bike_id": "a8ac86050d9c1ecd2b6d0ae54b203977", "is_disabled": 0, "name": "a8ac86050d9c1ecd2b6d0ae54b203977", "lon": -77.028065, "is_reserved": 0, "fusion_lon": 0.0, "lat": 38.91427316666667, "rental_uris": {"android": "https://dc.lft.to/lastmile_qr_scan", "ios": "https://dc.lft.to/lastmile_qr_scan"}, "fusion_lat": 0.0}, {"type": "electric_scooter", "bike_id": "3b03fda7da2433e1d65fd934aa87ec94", "is_disabled": 0, "name": "3b03fda7da2433e1d65fd934aa87ec94", "lon": -77.04346766666667, "is_reserved": 0, "fusion_lon": 0.0, "lat": 38.921422166666666, "rental_uris": {"android": "https://dc.lft.to/lastmile_qr_scan", "ios": "https://dc.lft.to/lastmile_qr_scan"}, "fusion_lat": 0.0}, {"type": "electric_scooter", "bike_id": "d207a8b5e6c338ec7c3db4e33e946ab2", "is_disabled": 0, "name": "d207a8b5e6c338ec7c3db4e33e946ab2", "lon": -77.03190433333333, "is_reserved": 0, "fusion_lon": 0.0, "lat": 38.884615833333335, "rental_uris": {"android": "https://dc.lft.to/lastmile_qr_scan", "ios": "https://dc.lft.to/lastmile_qr_scan"}, "fusion_lat": 0.0}, {"type": "electric_bike", "bike_id": "cace58ada9373ff04a19e20a09c570b7", "is_disabled": 0, "name": "cace58ada9373ff04a19e20a09c570b7", "lon": -76.9075145, "is_reserved": 0, "fusion_lon": 0.0, "lat": 38.89621133333333, "rental_uris": {"android": "https://dc.lft.to/lastmile_qr_scan", "ios": "https://dc.lft.to/lastmile_qr_scan"}, "fusion_lat": 0.0}, {"type": "electric_scooter", "bike_id": "cfefe34fa3c0d1b487f4f59e4a1613e4", "is_disabled": 0, "name": "cfefe34fa3c0d1b487f4f59e4a1613e4", "lon": -77.03835416666666, "is_reserved": 0, "fusion_lon": 0.0, "lat": 38.90720233333333, "rental_uris": {"android": "https://dc.lft.to/lastmile_qr_scan", "ios": "https://dc.lft.to/lastmile_qr_scan"}, "fusion_lat": 0.0}, {"type": "electric_scooter", "bike_id": "cf0a57ba4dacfb1d771b3f0c409a4515", "is_disabled": 0, "name": "cf0a57ba4dacfb1d771b3f0c409a4515", "lon": -77.02806966666667, "is_reserved": 0, "fusion_lon": 0.0, "lat": 38.93079183333333, "rental_uris": {"android": "https://dc.lft.to/lastmile_qr_scan", "ios": "https://dc.lft.to/lastmile_qr_scan"}, "fusion_lat": 0.0}, {"type": "electric_scooter", "bike_id": "df5d421c18bba7410b63600aaf390dbe", "is_disabled": 0, "name": "df5d421c18bba7410b63600aaf390dbe", "lon": -77.05173766666667, "is_reserved": 0, "fusion_lon": 0.0, "lat": 38.902605666666666, "rental_uris": {"android": "https://dc.lft.to/lastmile_qr_scan", "ios": "https://dc.lft.to/lastmile_qr_scan"}, "fusion_lat": 0.0}, {"type": "electric_scooter", "bike_id": "c34b4e6835ffe15ccc8ada08cf033b9b", "is_disabled": 0, "name": "c34b4e6835ffe15ccc8ada08cf033b9b", "lon": -77.027352, "is_reserved": 0, "fusion_lon": 0.0, "lat": 38.92397, "rental_uris": {"android": "https://dc.lft.to/lastmile_qr_scan", "ios": "https://dc.lft.to/lastmile_qr_scan"}, "fusion_lat": 0.0}, {"type": "electric_scooter", "bike_id": "51120782decd9513df11bea40d45e12b", "is_disabled": 0, "name": "51120782decd9513df11bea40d45e12b", "lon": -77.00829166666666, "is_reserved": 0, "fusion_lon": 0.0, "lat": 38.9136405, "rental_uris": {"android": "https://dc.lft.to/lastmile_qr_scan", "ios": "https://dc.lft.to/lastmile_qr_scan"}, "fusion_lat": 0.0}, {"type": "electric_scooter", "bike_id": "8d5d678e7dfd1abcda0ff133dd38a779", "is_disabled": 0, "name": "8d5d678e7dfd1abcda0ff133dd38a779", "lon": -77.02066116666667, "is_reserved": 0, "fusion_lon": 0.0, "lat": 38.908452833333335, "rental_uris": {"android": "https://dc.lft.to/lastmile_qr_scan", "ios": "https://dc.lft.to/lastmile_qr_scan"}, "fusion_lat": 0.0}, {"type": "electric_scooter", "bike_id": "19c292eaafcbbde08e77c974ad1f9598", "is_disabled": 0, "name": "19c292eaafcbbde08e77c974ad1f9598", "lon": -77.0237205, "is_reserved": 0, "fusion_lon": 0.0, "lat": 38.91694616666667, "rental_uris": {"android": "https://dc.lft.to/lastmile_qr_scan", "ios": "https://dc.lft.to/lastmile_qr_scan"}, "fusion_lat": 0.0},