{"data": {"bikes": [{"rental_uris": {"ios": "https://dc.lft.to/lastmile_qr_scan", "android": "https://dc.lft.to/lastmile_qr_scan"}, "lon": -77.043371, "type": "electric_scooter", "fusion_lat": 0.0, "lat": 38.896617166666665, "name": "244817ae3cad9bce7ac0acc17e064db0", "fusion_lon": 0.0, "bike_id": "244817ae3cad9bce7ac0acc17e064db0", "is_disabled": 0, "is_reserved": 0}, {"rental_uris": {"ios": "https://dc.lft.to/lastmile_qr_scan", "android": "https://dc.lft.to/lastmile_qr_scan"}, "lon": -77.033343, "type": "electric_scooter", "fusion_lat": 0.0, "lat": 38.8984845, "name": "0132a525016ae24bfd614f789654b8aa", "fusion_lon": 0.0, "bike_id": "0132a525016ae24bfd614f789654b8aa", "is_disabled": 0, "is_reserved": 0}, {"rental_uris": {"ios": "https://dc.lft.to/lastmile_qr_scan", "android": "https://dc.lft.to/lastmile_qr_scan"}, "lon": -77.05139383333334, "type": "electric_scooter", "fusion_lat": 0.0, "lat": 38.90550283333334, "name": "bd1361e11ac6983477bb7ef374d41712", "fusion_lon": 0.0, "bike_id": "bd1361e11ac6983477bb7ef374d41712", "is_disabled": 0, "is_reserved": 0}, {"rental_uris": {"ios": "https://dc.lft.to/lastmile_qr_scan", "android": "https://dc.lft.to/lastmile_qr_scan"}, "lon": -77.03069933333333, "type": "electric_scooter", "fusion_lat": 0.0, "lat": 38.899735, "name": "27f759cdbeafa88b38db4b66cf93ca0a", "fusion_lon": 0.0, "bike_id": "27f759cdbeafa88b38db4b66cf93ca0a", "is_disabled": 0, "is_reserved": 0}, {"rental_uris": {"ios": "https://dc.lft.to/lastmile_qr_scan", "android": "https://dc.lft.to/lastmile_qr_scan"}, "lon": -77.0272345, "type": "electric_scooter", "fusion_lat": 0.0, "lat": 38.937929, "name": "20cd5417013e2d5fe032edeb9f1ed214", "fusion_lon": 0.0, "bike_id": "20cd5417013e2d5fe032edeb9f1ed214", "is_disabled": 0, "is_reserved": 0}, {"rental_uris": {"ios": "https://dc.lft.to/lastmile_qr_scan", "android": "https://dc.lft.to/lastmile_qr_scan"}, "lon": -77.06385116666667, "type": "electric_scooter", "fusion_lat": 0.0, "lat": 38.90842133333334, "name": "d3821ef6ef13c347058477959c33c005", "fusion_lon": 0.0, "bike_id": "d3821ef6ef13c347058477959c33c005", "is_disabled": 0, "is_reserved": 0}, {"rental_uris": {"ios": "https://dc.lft.to/lastmile_qr_scan", "android": "https://dc.lft.to/lastmile_qr_scan"}, "lon": -77.019372, "type": "electric_scooter", "fusion_lat": 0.0, "lat": 38.949282833333335, "name": "2bb7453df38122487272aadc1888bfc3", "fusion_lon": 0.0, "bike_id": "2bb7453df38122487272aadc1888bfc3", "is_disabled": 0, "is_reserved": 0}, {"rental_uris": {"ios": "https://dc.lft.to/lastmile_qr_scan", "android": "https://dc.lft.to/lastmile_qr_scan"}, "lon": -77.03845433333333, "type": "electric_scooter", "fusion_lat": 0.0, "lat": 38.91331483333333, "name": "7febd1a75b22380e7087550ad88743c0", "fusion_lon": 0.0, "bike_id": "7febd1a75b22380e7087550ad88743c0", "is_disabled": 0, "is_reserved": 0}, {"rental_uris": {"ios": "https://dc.lft.to/lastmile_qr_scan", "android": "https://dc.lft.to/lastmile_qr_scan"}, "lon": -77.03779483333334, "type": "electric_scooter", "fusion_lat": 0.0, "lat": 38.9123175, "name": "d3165e22d62a5767cc04a7cda389f501", "fusion_lon": 0.0, "bike_id": "d3165e22d62a5767cc04a7cda389f501", "is_disabled": 0, "is_reserved": 0}, {"rental_uris": {"ios": "https://dc.lft.to/lastmile_qr_scan", "android": "https://dc.lft.to/lastmile_qr_scan"}, "lon": -77.038118, "type": "electric_scooter", "fusion_lat": 0.0, "lat": 38.90680233333333, "name": "6a32a648fabcc20dcf9c04ebcf517384", "fusion_lon": 0.0, "bike_id": "6a32a648fabcc20dcf9c04ebcf517384", "is_disabled": 0, "is_reserved": 0}, {"rental_uris": {"ios": "https://dc.lft.to/lastmile_qr_scan", "android": "https://dc.lft.to/lastmile_qr_scan"}, "lon": -77.03848083333334, "type": "electric_scooter", "fusion_lat": 0.0, "lat": 38.912488333333336, "name": "29f8407ffc47d0ef63601485b6358fe1", "fusion_lon": 0.0, "bike_id": "29f8407ffc47d0ef63601485b6358fe1", "is_disabled": 0, "is_reserved": 0}, {"rental_uris": {"ios": "https://dc.lft.to/lastmile_qr_scan", "android": "https://dc.lft.to/lastmile_qr_scan"}, "lon": -77.04033883333334, "type": "electric_scooter", "fusion_lat": 0.0, "lat": 38.924312666666665, "name": "ba2195d7cadcc04351b2eec85ae5995e", "fusion_lon": 0.0, "bike_id": "ba2195d7cadcc04351b2eec85ae5995e", "is_disabled": 0, "is_reserved": 0}, {"rental_uris": {"ios": "https://dc.lft.to/lastmile_qr_scan", "android": "https://dc.lft.to/lastmile_qr_scan"}, "lon": -77.04394266666667, "type": "electric_scooter", "fusion_lat": 0.0, "lat": 38.909067, "name": "8eddd35397a1ec75154b2408b8efb102", "fusion_lon": 0.0, "bike_id": "8eddd35397a1ec75154b2408b8efb102", "is_disabled": 0, "is_reserved": 0}, {"rental_uris": {"ios": "https://dc.lft.to/lastmile_qr_scan", "android": "https://dc.lft.to/lastmile_qr_scan"}, "lon": -77.02038166666667, "type": "electric_scooter", "fusion_lat": 0.0, "lat": 38.91558916666666, "name": "bd1a977f97a393267a55f3246c918109", "fusion_lon": 0.0, "bike_id": "bd1a977f97a393267a55f3246c918109", "is_disabled": 0, "is_reserved": 0}, {"rental_uris": {"ios": "https://dc.lft.to/lastmile_qr_scan", "android": "https://dc.lft.to/lastmile_qr_scan"}, "lon": -77.05216266666666, "type": "electric_scooter", "fusion_lat": 0.0, "lat": 38.92496783333333, "name": "85a6342608ccff4893fdb221bf4c9f93", "fusion_lon": 0.0, "bike_id": "85a6342608ccff4893fdb221bf4c9f93", "is_disabled": 0, "is_reserved": 0}, {"rental_uris": {"ios": "https://dc.lft.to/lastmile_qr_scan", "android": "https://dc.lft.to/lastmile_qr_scan"}, "lon": -77.00496333333334, "type": "electric_scooter", "fusion_lat": 0.0, "lat": 38.8789235, "name": "5f886bb57b8270e0bbc4d98984ea730c", "fusion_lon": 0.0, "bike_id": "5f886bb57b8270e0bbc4d98984ea730c", "is_disabled": 0, "is_reserved": 0}, {"rental_uris": {"ios": "https://dc.lft.to/lastmile_qr_scan", "android": "https://dc.lft.to/lastmile_qr_scan"}, "lon": -76.98636866666666, "type": "electric_scooter", "fusion_lat": 0.0, "lat": 38.900119, "name": "4d3d2a96e38b34405373cde5115b1892", "fusion_lon": 0.0, "bike_id": "4d3d2a96e38b34405373cde5115b1892", "is_disabled": 0, "is_reserved": 0}, {"rental_uris": {"ios": "https://dc.lft.to/lastmile_qr_scan", "android": "https://dc.lft.to/lastmile_qr_scan"}, "lon": -77.0034405, "type": "electric_scooter", "fusion_lat": 0.0, "lat": 38.89261916666667, "name": "1aa56b96ccd954cf4093f29fb02c2e6b", "fusion_lon": 0.0, "bike_id": "1aa56b96ccd954cf4093f29fb02c2e6b", "is_disabled": 0, "is_reserved": 0}, {"rental_uris": {"ios": "https://dc.lft.to/lastmile_qr_scan", "android": "https://dc.lft.to/lastmile_qr_scan"}, "lon": -77.04117416666666, "type": "electric_scooter", "fusion_lat": 0.0, "lat": 38.9340265, "name": "003576bb4aff87d1f4390ad14f96bfa6", "fusion_lon": 0.0, "bike_id": "003576bb4aff87d1f4390ad14f96bfa6", "is_disabled": 0, "is_reserved": 0}, {"rental_uris": {"ios": "https://dc.lft.to/lastmile_qr_scan", "android": "https://dc.lft.to/lastmile_qr_scan"}, "lon": -76.99000183333334, "type": "electric_scooter", "fusion_lat": 0.0, "lat": 38.865061, "name": "1f8487565db7204545f14dc49b9142fa", "fusion_lon": 0.0, "bike_id": "1f8487565db7204545f14dc49b9142fa", "is_disabled": 0, "is_reserved": 0}, {"rental_uris": {"ios": "https://dc.lft.to/lastmile_qr_scan", "android": "https://dc.lft.to/lastmile_qr_scan"}, "lon": -76.98559733333333, "type": "electric_scooter", "fusion_lat": 0.0, "lat": 38.85587183333333, "name": "5171d2c4f07ee46ca93e00d681441251", "fusion_lon": 0.0, "bike_id": "5171d2c4f07ee46ca93e00d681441251", "is_disabled": 0, "is_reserved": 0}, {"rental_uris": {"ios": "https://dc.lft.to/lastmile_qr_scan", "android": "https://dc.lft.to/lastmile_qr_scan"}, "lon": -77.041741, "type": "electric_scooter", "fusion_lat": 0.0, "lat": 38.903536, "name": "c70769761e1501a8d7612460f89cabb5", "fusion_lon": 0.0, "bike_id": "c70769761e1501a8d7612460f89cabb5", "is_disabled": 0, "is_reserved": 0}, {"rental_uris": {"ios": "https://dc.lft.to/lastmile_qr_scan", "android": "https://dc.lft.to/lastmile_qr_scan"}, "lon": -77.03169133333333, "type": "electric_scooter", "fusion_lat": 0.0, "lat": 38.91556033333333, "name": "cf3cb53749154a064a676457b0b425d8", "fusion_lon": 0.0, "bike_id": "cf3cb53749154a064a676457b0b425d8", "is_disabled": 0, "is_reserved": 0}, {"rental_uris": {"ios": "https://dc.lft.to/lastmile_qr_scan", "android": "https://dc.lft.to/lastmile_qr_scan"}, "lon": -77.07909316666667, "type": "electric_scooter", "fusion_lat": 0.0, "lat": 38.948064333333335, "name": "cf788cc9ba542b90e9de2410101b9f4d", "fusion_lon": 0.0, "bike_id": "cf788cc9ba542b90e9de2410101b9f4d", "is_disabled": 0, "is_reserved": 0}, {"rental_uris": {"ios": "https://dc.lft.to/lastmile_qr_scan", "android": "https://dc.lft.to/lastmile_qr_scan"}, "lon": -77.04530933333334, "type": "electric_scooter", "fusion_lat": 0.0, "lat": 38.907220833333334, "name": "5f292d5aa4045b5b36e8b61c57086565", "fusion_lon": 0.0, "bike_id": "5f292d5aa4045b5b36e8b61c57086565", "is_disabled": 0, "is_reserved": 0}, {"rental_uris": {"ios": "https://dc.lft.to/lastmile_qr_scan", "android": "https://dc.lft.to/lastmile_qr_scan"}, "lon": -77.02578966666667, "type": "electric_scooter", "fusion_lat": 0.0, "lat": 38.89244766666667, "name": "d374f511bc249d24221a721c98805489", "fusion_lon": 0.0, "bike_id": "d374f511bc249d24221a721c98805489", "is_disabled": 0, "is_reserved": 0}, {"rental_uris": {"ios": "https://dc.lft.to/lastmile_qr_scan", "android": "https://dc.lft.to/lastmile_qr_scan"}, "lon": -77.009831, "type": "electric_scooter", "fusion_lat": 0.0, "lat": 38.895931833333336, "name": "1817baff41eaa75c206376b1bc8e51fb", "fusion_lon": 0.0, "bike_id": "1817baff41eaa75c206376b1bc8e51fb", "is_disabled": 0, "is_reserved": 0}, {"rental_uris": {"ios": "https://dc.lft.to/lastmile_qr_scan", "android": "https://dc.lft.to/lastmile_qr_scan"}, "lon": -77.04707366666666, "type": "electric_scooter", "fusion_lat": 0.0, "lat": 38.922347, "name": "1a5dce8084b30b9906c37c184368dc01", "fusion_lon": 0.0, "bike_id": "1a5dce8084b30b9906c37c184368dc01", "is_disabled": 0, "is_reserved": 0}, {"rental_uris": {"ios": "https://dc.lft.to/lastmile_qr_scan", "android": "https://dc.lft.to/lastmile_qr_scan"}, "lon": -77.02982983333334, "type": "electric_scooter", "fusion_lat": 0.0, "lat": 38.9073235, "name": "ed96c332ebffa48d6e43cc57cf3fb650", "fusion_lon": 0.0, "bike_id": "ed96c332ebffa48d6e43cc57cf3fb650", "is_disabled": 0, "is_reserved": 0}, {"rental_uris": {"ios": "https://dc.lft.to/lastmile_qr_scan", "android": "https://dc.lft.to/lastmile_qr_scan"}, "lon": -77.008648, "type": "electric_bike", "fusion_lat": 0.0, "lat": 38.82727033333333, "name": "12fe2bde0d432bf32ab18c9565df987b", "fusion_lon": 0.0, "bike_id": "12fe2bde0d432bf32ab18c9565df987b", "is_disabled": 0, "is_reserved": 0}, {"rental_uris": {"ios": "https://dc.lft.to/lastmile_qr_scan", "android": "https://dc.lft.to/lastmile_qr_scan"}, "lon": -77.031742, "type": "electric_scooter", "fusion_lat": 0.0, "lat": 38.9016525, "name": "7a33143b69e949ebb6a152ac5fd1563d", "fusion_lon": 0.0, "bike_id": "7a33143b69e949ebb6a152ac5fd1563d", "is_disabled": 0, "is_reserved": 0}, {"rental_uris": {"ios": "https://dc.lft.to/lastmile_qr_scan", "android": "https://dc.lft.to/lastmile_qr_scan"}, "lon": -77.02612783333333, "type": "electric_scooter", "fusion_lat": 0.0, "lat": 38.90327716666667, "name": "2d654b9a76975062c0356f45b61bb3f8", "fusion_lon": 0.0, "bike_id": "2d654b9a76975062c0356f45b61bb3f8", "is_disabled": 0, "is_reserved": 0}, {"rental_uris": {"ios": "https://dc.lft.to/lastmile_qr_scan", "android": "https://dc.lft.to/lastmile_qr_scan"}, "lon": -77.03464383333333, "type": "electric_scooter", "fusion_lat": 0.0, "lat": 38.9087445, "name": "5ad8387cf16f821ffebeb3a850e73ad9", "fusion_lon": 0.0, "bike_id": "5ad8387cf16f821ffebeb3a850e73ad9", "is_disabled": 0, "is_reserved": 0}, {"rental_uris": {"ios": "https://dc.lft.to/lastmile_qr_scan", "android": "https://dc.lft.to/lastmile_qr_scan"}, "lon": -77.003707, "type": "electric_scooter", "fusion_lat": 0.0, "lat": 38.87666466666667, "name": "9edef3b0139c41aed5efcbdf0183376b", "fusion_lon": 0.0, "bike_id": "9edef3b0139c41aed5efcbdf0183376b", "is_disabled": 0, "is_reserved": 0}, {"rental_uris": {"ios": "https://dc.lft.to/lastmile_qr_scan", "android": "https://dc.lft.to/lastmile_qr_scan"}, "lon": -77.0194445, "type": "electric_scooter", "fusion_lat": 0.0, "lat": 38.92421983333333, "name": "ed35ef5cad9470dd7453bb3ddee53e99", "fusion_lon": 0.0, "bike_id": "ed35ef5cad9470dd7453bb3ddee53e99", "is_disabled": 0, "is_reserved": 0}, {"rental_uris": {"ios": "https://dc.lft.to/lastmile_qr_scan", "android": "https://dc.lft.to/lastmile_qr_scan"}, "lon": -77.04493916666667, "type": "electric_scooter", "fusion_lat": 0.0, "lat": 38.91953016666667, "name": "08e17664c02073bf37220d55f97be678", "fusion_lon": 0.0, "bike_id": "08e17664c02073bf37220d55f97be678", "is_disabled": 0, "is_reserved": 0}, {"rental_uris": {"ios": "https://dc.lft.to/lastmile_qr_scan", "android": "https://dc.lft.to/lastmile_qr_scan"}, "lon": -77.06605633333334, "type": "electric_scooter", "fusion_lat": 0.0, "lat": 38.90520716666666, "name": "dfc45f186efc093f7da18dd164300f6e", "fusion_lon": 0.0, "bike_id": "dfc45f186efc093f7da18dd164300f6e", "is_disabled": 0, "is_reserved": 0}, {"rental_uris": {"ios": "https://dc.lft.to/lastmile_qr_scan", "android": "https://dc.lft.to/lastmile_qr_scan"}, "lon": -77.10730583333333, "type": "electric_bike", "fusion_lat": 0.0, "lat": 38.8555075, "name": "183910f97bbaed825dc701fa2a5619d0", "fusion_lon": 0.0, "bike_id": "183910f97bbaed825dc701fa2a5619d0", "is_disabled": 0, "is_reserved": 0}, {"rental_uris": {"ios": "https://dc.lft.to/lastmile_qr_scan", "android": "https://dc.lft.to/lastmile_qr_scan"}, "lon": -77.044262, "type": "electric_scooter", "fusion_lat": 0.0, "lat": 38.910844833333336, "name": "0fa0360a2bae962bdf50119d2c3da9dd", "fusion_lon": 0.0, "bike_id": "0fa0360a2bae962bdf50119d2c3da9dd", "is_disabled": 0, "is_reserved": 0}, {"rental_uris": {"ios": "https://dc.lft.to/lastmile_qr_scan", "android": "https://dc.lft.to/lastmile_qr_scan"}, "lon": -77.05269816666667, "type": "electric_scooter", "fusion_lat": 0.0, "lat": 38.898400333333335, "name": "78972607541a5c8bb373ab3d201905fa", "fusion_lon": 0.0, "bike_id": "78972607541a5c8bb373ab3d201905fa", "is_disabled": 0, "is_reserved": 0}, {"rental_uris": {"ios": "https://dc.lft.to/lastmile_qr_scan", "android": "https://dc.lft.to/lastmile_qr_scan"}, "lon": -77.0160445, "type": "electric_scooter", "fusion_lat": 0.0, "lat": 38.8722695, "name": "0c246edefdc2b997821fd70353ba551c", "fusion_lon": 0.0, "bike_id": "0c246edefdc2b997821fd70353ba551c", "is_disabled": 0, "is_reserved": 0}, {"rental_uris": {"ios": "https://dc.lft.to/lastmile_qr_scan", "android": "https://dc.lft.to/lastmile_qr_scan"}, "lon": -77.003361, "type": "electric_bike", "fusion_lat": 0.0, "lat": 38.919814333333335, "name": "256c43058d4d189186e714369eadc954", "fusion_lon": 0.0, "bike_id": "256c43058d4d189186e714369eadc954", "is_disabled": 0, "is_reserved": 0}, {"rental_uris": {"ios": "https://dc.lft.to/lastmile_qr_scan", "android": "https://dc.lft.to/lastmile_qr_scan"}, "lon": -77.00212933333333, "type": "electric_scooter", "fusion_lat": 0.0, "lat": 38.90041166666666, "name": "fd30abb0d972f5cd166323555a297317", "fusion_lon": 0.0, "bike_id": "fd30abb0d972f5cd166323555a297317", "is_disabled": 0, "is_reserved": 0}, {"rental_uris": {"ios": "https://dc.lft.to/lastmile_qr_scan", "android": "https://dc.lft.to/lastmile_qr_scan"}, "lon": -77.0386965, "type": "electric_scooter", "fusion_lat": 0.0, "lat": 38.91257266666667, "name": "da06e8a3a7824b6f95b6f2af63b88818", "fusion_lon": 0.0, "bike_id": "da06e8a3a7824b6f95b6f2af63b88818", "is_disabled": 0, "is_reserved": 0}, {"rental_uris": {"ios": "https://dc.lft.to/lastmile_qr_scan", "android": "https://dc.lft.to/lastmile_qr_scan"}, "lon": -77.0667215, "type": "electric_scooter", "fusion_lat": 0.0, "lat": 38.914067833333334, "name": "928c91756673a43e78ae222cab533969", "fusion_lon": 0.0, "bike_id": "928c91756673a43e78ae222cab533969", "is_disabled": 0, "is_reserved": 0}, {"rental_uris": {"ios": "https://dc.lft.to/lastmile_qr_scan", "android": "https://dc.lft.to/lastmile_qr_scan"}, "lon": -77.01750016666666, "type": "electric_scooter", "fusion_lat": 0.0, "lat": 38.88210816666667, "name": "54f6f30e6a301bb6e673c7e99d2a263a", "fusion_lon": 0.0, "bike_id": "54f6f30e6a301bb6e673c7e99d2a263a", "is_disabled": 0, "is_reserved": 0}, {"rental_uris": {"ios": "https://dc.lft.to/lastmile_qr_scan", "android": "https://dc.lft.to/lastmile_qr_scan"}, "lon": -77.05210433333333, "type": "electric_scooter", "fusion_lat": 0.0, "lat": 38.924366666666664, "name": "b900e05b933cfc3f031fa5bc78ef4e2d", "fusion_lon": 0.0, "bike_id": "b900e05b933cfc3f031fa5bc78ef4e2d", "is_disabled": 0, "is_reserved": 0}, {"rental_uris": {"ios": "https://dc.lft.to/lastmile_qr_scan", "android": "https://dc.lft.to/lastmile_qr_scan"}, "lon": -77.00567116666667, "type": "electric_scooter", "fusion_lat": 0.0, "lat": 38.880391833333334, "name": "434a0dbf258fea6b998360247abb27fc", "fusion_lon": 0.0, "bike_id": "434a0dbf258fea6b998360247abb27fc", "is_disabled": 0, "is_reserved": 0}, {"rental_uris": {"ios": "https://dc.lft.to/lastmile_qr_scan", "android": "https://dc.lft.to/lastmile_qr_scan"}, "lon": -77.02331466666666, "type": "electric_scooter", "fusion_lat": 0.0, "lat": 38.92936733333333, "name": "10bcbf10e578fe3c32f463252d9a9487", "fusion_lon": 0.0, "bike_id": "10bcbf10e578fe3c32f463252d9a9487", "is_disabled": 0, "is_reserved": 0}, {"rental_uris": {"ios": "https://dc.lft.to/lastmile_qr_scan", "android": "https://dc.lft.to/lastmile_qr_scan"}, "lon": -76.9890475, "type": "electric_scooter", "fusion_lat": 0.0, "lat": 38.86696933333333, "name": "577d9ba8452f9e38bd9a90ec93e740ca", "fusion_lon": 0.0, "bike_id": "577d9ba8452f9e38bd9a90ec93e740ca", "is_disabled": 0, "is_reserved": 0}, {"rental_uris": {"ios": "https://dc.lft.to/lastmile_qr_scan", "android": "https://dc.lft.to/lastmile_qr_scan"}, "lon": -77.06630933333334, "type": "electric_scooter", "fusion_lat": 0.0, "lat": 38.928041666666665, "name": "57f23bba71c1633a4e930ab1a967e0ab", "fusion_lon": 0.0, "bike_id": "57f23bba71c1633a4e930ab1a967e0ab", "is_disabled": 0, "is_reserved": 0}, {"rental_uris": {"ios": "https://dc.lft.to/lastmile_qr_scan", "android": "https://dc.lft.to/lastmile_qr_scan"}, "lon": -76.92708633333334, "type": "electric_scooter", "fusion_lat": 0.0, "lat": 38.8877165, "name": "50029f5bd668ba7d6071d5d28ddfb979", "fusion_lon": 0.0, "bike_id": "50029f5bd668ba7d6071d5d28ddfb979", "is_disabled": 0, "is_reserved": 0}, {"rental_uris": {"ios": "https://dc.lft.to/lastmile_qr_scan", "android": "https://dc.lft.to/lastmile_qr_scan"}, "lon": -77.06657333333334, "type": "electric_scooter", "fusion_lat": 0.0, "lat": 38.9268355, "name": "1641f4a40c2ca8f0b0f58c5e8c7bd577", "fusion_lon": 0.0, "bike_id": "1641f4a40c2ca8f0b0f58c5e8c7bd577", "is_disabled": 0, "is_reserved": 0}, {"rental_uris": {"ios": "https://dc.lft.to/lastmile_qr_scan", "android": "https://dc.lft.to/lastmile_qr_scan"}, "lon": -76.99024766666666, "type": "electric_scooter", "fusion_lat": 0.0, "lat": 38.86406366666667, "name": "60a7235f3ffed3fb06903e35e95f0986", "fusion_lon": 0.0, "bike_id": "60a7235f3ffed3fb06903e35e95f0986", "is_disabled": 0, "is_reserved": 0}, {"rental_uris": {"ios": "https://dc.lft.to/lastmile_qr_scan", "android": "https://dc.lft.to/lastmile_qr_scan"}, "lon": -77.03074716666667, "type": "electric_scooter", "fusion_lat": 0.0, "lat": 38.899727166666665, "name": "23a9dfc2494c3ed0fc9d766a45b84cb7", "fusion_lon": 0.0, "bike_id": "23a9dfc2494c3ed0fc9d766a45b84cb7", "is_disabled": 0, "is_reserved": 0}, {"rental_uris": {"ios": "https://dc.lft.to/lastmile_qr_scan", "android": "https://dc.lft.to/lastmile_qr_scan"}, "lon": -77.074963, "type": "electric_bike", "fusion_lat": 0.0, "lat": 38.892999333333336, "name": "f4953bbe918abb2f9ad112bed0dc6c06", "fusion_lon": 0.0, "bike_id": "f4953bbe918abb2f9ad112bed0dc6c06", "is_disabled": 0, "is_reserved": 0}, {"rental_uris": {"ios": "https://dc.lft.to/lastmile_qr_scan", "android": "https://dc.lft.to/lastmile_qr_scan"}, "lon": -77.079303, "type": "electric_scooter", "fusion_lat": 0.0, "lat": 38.9487645, "name": "54a80b3795e6211da83cc84a01c75e9a", "fusion_lon": 0.0, "bike_id": "54a80b3795e6211da83cc84a01c75e9a", "is_disabled": 0, "is_reserved": 0}, {"rental_uris": {"ios": "https://dc.lft.to/lastmile_qr_scan", "android": "https://dc.lft.to/lastmile_qr_scan"}, "lon": -77.01899983333334, "type": "electric_scooter", "fusion_lat": 0.0, "lat": 38.90557183333333, "name": "7e14f9a849acb11504b23b342653202e", "fusion_lon": 0.0, "bike_id": "7e14f9a849acb11504b23b342653202e", "is_disabled": 0, "is_reserved": 0}, {"rental_uris": {"ios": "https://dc.lft.to/lastmile_qr_scan", "android": "https://dc.lft.to/lastmile_qr_scan"}, "lon": -77.0526875, "type": "electric_scooter", "fusion_lat": 0.0, "lat": 38.910215, "name": "702560febf528cf37f74fef219c5bd2e", "fusion_lon": 0.0, "bike_id": "702560febf528cf37f74fef219c5bd2e", "is_disabled": 0, "is_reserved": 0}, {"rental_uris": {"ios": "https://dc.lft.to/lastmile_qr_scan", "android": "https://dc.lft.to/lastmile_qr_scan"}, "lon": -77.039608, "type": "electric_scooter", "fusion_lat": 0.0, "lat": 38.919949333333335, "name": "cf6dede808aa60e2a551c82af56df706", "fusion_lon": 0.0, "bike_id": "cf6dede808aa60e2a551c82af56df706", "is_disabled": 0, "is_reserved": 0}, {"rental_uris": {"ios": "https://dc.lft.to/lastmile_qr_scan", "android": "https://dc.lft.to/lastmile_qr_scan"}, "lon": -76.9373685, "type": "electric_scooter", "fusion_lat": 0.0, "lat": 38.8901425, "name": "d490b18e428110813853332ed52a3b46", "fusion_lon": 0.0, "bike_id": "d490b18e428110813853332ed52a3b46", "is_disabled": 0, "is_reserved": 0}, {"rental_uris": {"ios": "https://dc.lft.to/lastmile_qr_scan", "android": "https://dc.lft.to/lastmile_qr_scan"}, "lon": -77.00713133333333, "type": "electric_scooter", "fusion_lat": 0.0, "lat": 38.91343633333334, "name": "cb52120ebf6128dc87100d5ee9de426f", "fusion_lon": 0.0, "bike_id": "cb52120ebf6128dc87100d5ee9de426f", "is_disabled": 0, "is_reserved": 0}, {"rental_uris": {"ios": "https://dc.lft.to/lastmile_qr_scan", "android": "https://dc.lft.to/lastmile_qr_scan"}, "lon": -77.00196566666666, "type": "electric_scooter", "fusion_lat": 0.0, "lat": 38.90837633333334, "name": "fc54f2717ce28166ce5bcb7440490c46", "fusion_lon": 0.0, "bike_id": "fc54f2717ce28166ce5bcb7440490c46", "is_disabled": 0, "is_reserved": 0}, {"rental_uris": {"ios": "https://dc.lft.to/lastmile_qr_scan", "android": "https://dc.lft.to/lastmile_qr_scan"}, "lon": -77.04927916666666, "type": "electric_scooter", "fusion_lat": 0.0, "lat": 38.9005405, "name": "ada8c6c585508501a666fc279570f297", "fusion_lon": 0.0, "bike_id": "ada8c6c585508501a666fc279570f297", "is_disabled": 0, "is_reserved": 0}, {"rental_uris": {"ios": "https://dc.lft.to/lastmile_qr_scan", "android": "https://dc.lft.to/lastmile_qr_scan"}, "lon": -77.02618033333333, "type": "electric_scooter", "fusion_lat": 0.0, "lat": 38.91913616666667, "name": "e4bd8efc44261e5cc46a337093f29e07", "fusion_lon": 0.0, "bike_id": "e4bd8efc44261e5cc46a337093f29e07", "is_disabled": 0, "is_reserved": 0}, {"rental_uris": {"ios": "https://dc.lft.to/lastmile_qr_scan", "android": "https://dc.lft.to/lastmile_qr_scan"}, "lon": -77.01596633333334, "type": "electric_scooter", "fusion_lat": 0.0, "lat": 38.8961535, "name": "3147e1353e4d33caef5db8453fa058d9", "fusion_lon": 0.0, "bike_id": "3147e1353e4d33caef5db8453fa058d9", "is_disabled": 0, "is_reserved": 0}, {"rental_uris": {"ios": "https://dc.lft.to/lastmile_qr_scan", "android": "https://dc.lft.to/lastmile_qr_scan"}, "lon": -76.929988, "type": "electric_bike", "fusion_lat": 0.0, "lat": 38.88800616666666, "name": "d79888b20c578efa1d96cd8541fd2c72", "fusion_lon": 0.0, "bike_id": "d79888b20c578efa1d96cd8541fd2c72", "is_disabled": 0, "is_reserved": 0}, {"rental_uris": {"ios": "https://dc.lft.to/lastmile_qr_scan", "android": "https://dc.lft.to/lastmile_qr_scan"}, "lon": -77.01344566666667, "type": "electric_scooter", "fusion_lat": 0.0, "lat": 38.87602616666667, "name": "9e363b681bac66ab0f3863cba966cdc7", "fusion_lon": 0.0, "bike_id": "9e363b681bac66ab0f3863cba966cdc7", "is_disabled": 0, "is_reserved": 0}, {"rental_uris": {"ios": "https://dc.lft.to/lastmile_qr_scan", "android": "https://dc.lft.to/lastmile_qr_scan"}, "lon": -77.0490105, "type": "electric_bike", "fusion_lat": 0.0, "lat": 38.874945833333335, "name": "28aae50dff683a66dd92556aecadb2f1", "fusion_lon": 0.0, "bike_id": "28aae50dff683a66dd92556aecadb2f1", "is_disabled": 0, "is_reserved": 0}, {"rental_uris": {"ios": "https://dc.lft.to/lastmile_qr_scan", "android": "https://dc.lft.to/lastmile_qr_scan"}, "lon": -77.032092, "type": "electric_scooter", "fusion_lat": 0.0, "lat": 38.9072675, "name": "88b2634fa0db6cb6a9cc1c3aa2fd72fb", "fusion_lon": 0.0, "bike_id": "88b2634fa0db6cb6a9cc1c3aa2fd72fb", "is_disabled": 0, "is_reserved": 0}, {"rental_uris": {"ios": "https://dc.lft.to/lastmile_qr_scan", "android": "https://dc.lft.to/lastmile_qr_scan"}, "lon": -77.0399885, "type": "electric_scooter", "fusion_lat": 0.0, "lat": 38.91328033333333, "name": "649ccb941158e81ce0648dee7a91f450", "fusion_lon": 0.0, "bike_id": "649ccb941158e81ce0648dee7a91f450", "is_disabled": 0, "is_reserved": 0}, {"rental_uris": {"ios": "https://dc.lft.to/lastmile_qr_scan", "android": "https://dc.lft.to/lastmile_qr_scan"}, "lon": -76.99602433333334, "type": "electric_scooter", "fusion_lat": 0.0, "lat": 38.90029883333333, "name": "5964df3c67f8571db23da0d206f2091b", "fusion_lon": 0.0, "bike_id": "5964df3c67f8571db23da0d206f2091b", "is_disabled": 0, "is_reserved": 0}, {"rental_uris": {"ios": "https://dc.lft.to/lastmile_qr_scan", "android": "https://dc.lft.to/lastmile_qr_scan"}, "lon": -76.985701, "type": "electric_scooter", "fusion_lat": 0.0, "lat": 38.8988735, "name": "a43b78d9c13d708ea4033e9f77de7d00", "fusion_lon": 0.0, "bike_id": "a43b78d9c13d708ea4033e9f77de7d00", "is_disabled": 0, "is_reserved": 0}, {"rental_uris": {"ios": "https://dc.lft.to/lastmile_qr_scan", "android": "https://dc.lft.to/lastmile_qr_scan"}, "lon": -77.046787, "type": "electric_scooter", "fusion_lat": 0.0, "lat": 38.892228833333334, "name": "241adf0261f5f2a4cd8bcb4cdd3fe520", "fusion_lon": 0.0, "bike_id": "241adf0261f5f2a4cd8bcb4cdd3fe520", "is_disabled": 0, "is_reserved": 0}, {"rental_uris": {"ios": "https://dc.lft.to/lastmile_qr_scan", "android": "https://dc.lft.to/lastmile_qr_scan"}, "lon": -77.01811583333334, "type": "electric_scooter", "fusion_lat": 0.0, "lat": 38.91196866666667, "name": "76c8196f74535fe75646071a4bbb3caf", "fusion_lon": 0.0, "bike_id": "76c8196f74535fe75646071a4bbb3caf", "is_disabled": 0, "is_reserved": 0}, {"rental_uris": {"ios": "https://dc.lft.to/lastmile_qr_scan", "android": "https://dc.lft.to/lastmile_qr_scan"}, "lon": -77.03215166666666, "type": "electric_scooter", "fusion_lat": 0.0, "lat": 38.962408833333335, "name": "4309ddd78de353a71b21c3dcbb334649", "fusion_lon": 0.0, "bike_id": "4309ddd78de353a71b21c3dcbb334649", "is_disabled": 0, "is_reserved": 0}, {"rental_uris": {"ios": "https://dc.lft.to/lastmile_qr_scan", "android": "https://dc.lft.to/lastmile_qr_scan"}, "lon": -76.9465015, "type": "electric_scooter", "fusion_lat": 0.0, "lat": 38.898259833333334, "name": "397d623a8de7c7aac9b4d70a6ce97578", "fusion_lon": 0.0, "bike_id": "397d623a8de7c7aac9b4d70a6ce97578", "is_disabled": 0, "is_reserved": 0}, {"rental_uris": {"ios": "https://dc.lft.to/lastmile_qr_scan", "android": "https://dc.lft.to/lastmile_qr_scan"}, "lon": -77.06274716666667, "type": "electric_scooter", "fusion_lat": 0.0, "lat": 38.90686016666667, "name": "a3c9ddf1f2b68b8619c636d56f86355c", "fusion_lon": 0.0, "bike_id": "a3c9ddf1f2b68b8619c636d56f86355c", "is_disabled": 0, "is_reserved": 0}, {"rental_uris": {"ios": "https://dc.lft.to/lastmile_qr_scan", "android": "https://dc.lft.to/lastmile_qr_scan"}, "lon": -77.03995583333334, "type": "electric_scooter", "fusion_lat": 0.0, "lat": 38.91415116666667, "name": "b7cc44ba4285429cb12894df3bc7d582", "fusion_lon": 0.0, "bike_id": "b7cc44ba4285429cb12894df3bc7d582", "is_disabled": 0, "is_reserved": 0}, {"rental_uris": {"ios": "https://dc.lft.to/lastmile_qr_scan", "android": "https://dc.lft.to/lastmile_qr_scan"}, "lon": -77.02422816666666, "type": "electric_scooter", "fusion_lat": 0.0, "lat": 38.9182025, "name": "a9ae4edae7a314399eae4056e9f16ade", "fusion_lon": 0.0, "bike_id": "a9ae4edae7a314399eae4056e9f16ade", "is_disabled": 0, "is_reserved": 0}, {"rental_uris": {"ios": "https://dc.lft.to/lastmile_qr_scan", "android": "https://dc.lft.to/lastmile_qr_scan"}, "lon": -77.0161535, "type": "electric_scooter", "fusion_lat": 0.0, "lat": 38.87684133333333, "name": "d2536f0ef05a826eec6216c13651131e", "fusion_lon": 0.0, "bike_id": "d2536f0ef05a826eec6216c13651131e", "is_disabled": 0, "is_reserved": 0}, {"rental_uris": {"ios": "https://dc.lft.to/lastmile_qr_scan", "android": "https://dc.lft.to/lastmile_qr_scan"}, "lon": -77.10029083333333, "type": "electric_bike", "fusion_lat": 0.0, "lat": 38.99065683333333, "name": "2b7e762ecb93a946a9136d812a41a8f4", "fusion_lon": 0.0, "bike_id": "2b7e762ecb93a946a9136d812a41a8f4", "is_disabled": 0, "is_reserved": 0}, {"rental_uris": {"ios": "https://dc.lft.to/lastmile_qr_scan", "android": "https://dc.lft.to/lastmile_qr_scan"}, "lon": -77.0342085, "type": "electric_scooter", "fusion_lat": 0.0, "lat": 38.9397915, "name": "05ff6f42af7ba3d3b5659f64ab3dabf2", "fusion_lon": 0.0, "bike_id": "05ff6f42af7ba3d3b5659f64ab3dabf2", "is_disabled": 0, "is_reserved": 0}, {"rental_uris": {"ios": "https://dc.lft.to/lastmile_qr_scan", "android": "https://dc.lft.to/lastmile_qr_scan"}, "lon": -77.03975833333334, "type": "electric_scooter", "fusion_lat": 0.0, "lat": 38.900110833333336, "name": "3cb660d2717de18fc4eee4c987e24198", "fusion_lon": 0.0, "bike_id": "3cb660d2717de18fc4eee4c987e24198", "is_disabled": 0, "is_reserved": 0}, {"rental_uris": {"ios": "https://dc.lft.to/lastmile_qr_scan", "android": "https://dc.lft.to/lastmile_qr_scan"}, "lon": -76.97816883333333, "type": "electric_scooter", "fusion_lat": 0.0, "lat": 38.895199833333336, "name": "04e0dfbefb2b82b02f84d2f4631b65d7", "fusion_lon": 0.0, "bike_id": "04e0dfbefb2b82b02f84d2f4631b65d7", "is_disabled": 0, "is_reserved": 0}, {"rental_uris": {"ios": "https://dc.lft.to/lastmile_qr_scan", "android": "https://dc.lft.to/lastmile_qr_scan"}, "lon": -76.99023266666667, "type": "electric_scooter", "fusion_lat": 0.0, "lat": 38.858706, "name": "a4d8d1a56e2fc2a68a330a9d7c6c29cc", "fusion_lon": 0.0, "bike_id": "a4d8d1a56e2fc2a68a330a9d7c6c29cc", "is_disabled": 0, "is_reserved": 0}, {"rental_uris": {"ios": "https://dc.lft.to/lastmile_qr_scan", "android": "https://dc.lft.to/lastmile_qr_scan"}, "lon": -77.0174325, "type": "electric_scooter", "fusion_lat": 0.0, "lat": 38.905637666666664, "name": "7476d8cd457fb6ad9e869dfce02f066c", "fusion_lon": 0.0, "bike_id": "7476d8cd457fb6ad9e869dfce02f066c", "is_disabled": 0, "is_reserved": 0}, {"rental_uris": {"ios": "https://dc.lft.to/lastmile_qr_scan", "android": "https://dc.lft.to/lastmile_qr_scan"}, "lon": -77.0174815, "type": "electric_scooter", "fusion_lat": 0.0, "lat": 38.87734733333333, "name": "899bd7cc2edcadd9600e2a2e91923b42", "fusion_lon": 0.0, "bike_id": "899bd7cc2edcadd9600e2a2e91923b42", "is_disabled": 0, "is_reserved": 0}, {"rental_uris": {"ios": "https://dc.lft.to/lastmile_qr_scan", "android": "https://dc.lft.to/lastmile_qr_scan"}, "lon": -77.03851633333333, "type": "electric_scooter", "fusion_lat": 0.0, "lat": 38.908259, "name": "300f7560411669510c9cbca04c49ca4b", "fusion_lon": 0.0, "bike_id": "300f7560411669510c9cbca04c49ca4b", "is_disabled": 0, "is_reserved": 0}, {"rental_uris": {"ios": "https://dc.lft.to/lastmile_qr_scan", "android": "https://dc.lft.to/lastmile_qr_scan"}, "lon": -77.03616866666667, "type": "electric_scooter", "fusion_lat": 0.0, "lat": 38.937377833333336, "name": "7d4648b1bef3d2f05abe68cb02065609", "fusion_lon": 0.0, "bike_id": "7d4648b1bef3d2f05abe68cb02065609", "is_disabled": 0, "is_reserved": 0}, {"rental_uris": {"ios": "https://dc.lft.to/lastmile_qr_scan", "android": "https://dc.lft.to/lastmile_qr_scan"}, "lon": -77.06346433333333, "type": "electric_scooter", "fusion_lat": 0.0, "lat": 38.94454366666667, "name": "a587088b58fb61429b3f399adf14cb64", "fusion_lon": 0.0, "bike_id": "a587088b58fb61429b3f399adf14cb64", "is_disabled": 0, "is_reserved": 0}, {"rental_uris": {"ios": "https://dc.lft.to/lastmile_qr_scan", "android": "https://dc.lft.to/lastmile_qr_scan"}, "lon": -77.0185815, "type": "electric_scooter", "fusion_lat": 0.0, "lat": 38.892660666666664, "name": "e650d86667d5049c283a6003ade505e3", "fusion_lon": 0.0, "bike_id": "e650d86667d5049c283a6003ade505e3", "is_disabled": 0, "is_reserved": 0}, {"rental_uris": {"ios": "https://dc.lft.to/lastmile_qr_scan", "android": "https://dc.lft.to/lastmile_qr_scan"}, "lon": -77.0254435, "type": "electric_scooter", "fusion_lat": 0.0, "lat": 38.89230083333333, "name": "3b96ce28da3e4c9b3a2a03e21dc0b401", "fusion_lon": 0.0, "bike_id": "3b96ce28da3e4c9b3a2a03e21dc0b401", "is_disabled": 0, "is_reserved": 0}, {"rental_uris": {"ios": "https://dc.lft.to/lastmile_qr_scan", "android": "https://dc.lft.to/lastmile_qr_scan"}, "lon": -77.06381633333334, "type": "electric_scooter", "fusion_lat": 0.0, "lat": 38.90505566666667, "name": "29e15634af910481fa2d2b8935153a40", "fusion_lon": 0.0, "bike_id": "29e15634af910481fa2d2b8935153a40", "is_disabled": 0, "is_reserved": 0}, {"rental_uris": {"ios": "https://dc.lft.to/lastmile_qr_scan", "android": "https://dc.lft.to/lastmile_qr_scan"}, "lon": -77.004637, "type": "electric_scooter", "fusion_lat": 0.0, "lat": 38.91179983333333, "name": "57d3d01f88389d9e3950994c05750308", "fusion_lon": 0.0, "bike_id": "57d3d01f88389d9e3950994c05750308", "is_disabled": 0, "is_reserved": 0}, {"rental_uris": {"ios": "https://dc.lft.to/lastmile_qr_scan", "android": "https://dc.lft.to/lastmile_qr_scan"}, "lon": -77.0485425, "type": "electric_scooter", "fusion_lat": 0.0, "lat": 38.919602166666664, "name": "c8dad814848a4cdf4793694740082f71", "fusion_lon": 0.0, "bike_id": "c8dad814848a4cdf4793694740082f71", "is_disabled": 0, "is_reserved": 0}, {"rental_uris": {"ios": "https://dc.lft.to/lastmile_qr_scan", "android": "https://dc.lft.to/lastmile_qr_scan"}, "lon": -77.00247733333333, "type": "electric_bike", "fusion_lat": 0.0, "lat": 38.91192383333333, "name": "e14fab2c0e59a3c88da42aab7b4f1d7d", "fusion_lon": 0.0, "bike_id": "e14fab2c0e59a3c88da42aab7b4f1d7d", "is_disabled": 0, "is_reserved": 0}, {"rental_uris": {"ios": "https://dc.lft.to/lastmile_qr_scan", "android": "https://dc.lft.to/lastmile_qr_scan"}, "lon": -77.182944, "type": "electric_bike", "fusion_lat": 0.0, "lat": 38.883407166666665, "name": "00e0cdb6c33afc2358d285416073d4f6", "fusion_lon": 0.0, "bike_id": "00e0cdb6c33afc2358d285416073d4f6", "is_disabled": 0, "is_reserved": 0}, {"rental_uris": {"ios": "https://dc.lft.to/lastmile_qr_scan", "android": "https://dc.lft.to/lastmile_qr_scan"}, "lon": -77.03316533333333, "type": "electric_scooter", "fusion_lat": 0.0, "lat": 38.90151566666667, "name": "5ba151d60cf307d0cf864b9a4d711caf", "fusion_lon": 0.0, "bike_id": "5ba151d60cf307d0cf864b9a4d711caf", "is_disabled": 0, "is_reserved": 0}, {"rental_uris": {"ios": "https://dc.lft.to/lastmile_qr_scan", "android": "https://dc.lft.to/lastmile_qr_scan"}, "lon": -77.011974, "type": "electric_scooter", "fusion_lat": 0.0, "lat": 38.8999065, "name": "8ec1978af3e19091a1a824492cad7413", "fusion_lon": 0.0, "bike_id": "8ec1978af3e19091a1a824492cad7413", "is_disabled": 0, "is_reserved": 0}, {"rental_uris": {"ios": "https://dc.lft.to/lastmile_qr_scan", "android": "https://dc.lft.to/lastmile_qr_scan"}, "lon": -77.02344366666667, "type": "electric_scooter", "fusion_lat": 0.0, "lat": 38.962053166666664, "name": "dffc041f0ff1ee9b6f20a05cb27225ee", "fusion_lon": 0.0, "bike_id": "dffc041f0ff1ee9b6f20a05cb27225ee", "is_disabled": 0, "is_reserved": 0}, {"rental_uris": {"ios": "https://dc.lft.to/lastmile_qr_scan", "android": "https://dc.lft.to/lastmile_qr_scan"}, "lon": -77.00565983333334, "type": "electric_scooter", "fusion_lat": 0.0, "lat": 38.92723866666667, "name": "70cfd684b319927d5bcf3d326a9edfc4", "fusion_lon": 0.0, "bike_id": "70cfd684b319927d5bcf3d326a9edfc4", "is_disabled": 0, "is_reserved": 0}, {"rental_uris": {"ios": "https://dc.lft.to/lastmile_qr_scan", "android": "https://dc.lft.to/lastmile_qr_scan"}, "lon": -77.0573425, "type": "electric_scooter", "fusion_lat": 0.0, "lat": 38.933631, "name": "de8732b704fd6c2eb7265c8c78ec1cb7", "fusion_lon": 0.0, "bike_id": "de8732b704fd6c2eb7265c8c78ec1cb7", "is_disabled": 0, "is_reserved": 0}, {"rental_uris": {"ios": "https://dc.lft.to/lastmile_qr_scan", "android": "https://dc.lft.to/lastmile_qr_scan"}, "lon": -77.014254, "type": "electric_scooter", "fusion_lat": 0.0, "lat": 38.942268166666665, "name": "3c16c77fdb28196335fd5157c4040b12", "fusion_lon": 0.0, "bike_id": "3c16c77fdb28196335fd5157c4040b12", "is_disabled": 0, "is_reserved": 0}, {"rental_uris": {"ios": "https://dc.lft.to/lastmile_qr_scan", "android": "https://dc.lft.to/lastmile_qr_scan"}, "lon": -77.06349566666667, "type": "electric_scooter", "fusion_lat": 0.0, "lat": 38.944556166666665, "name": "aaa7aa40dc071708b0ee0031cc7548b7", "fusion_lon": 0.0, "bike_id": "aaa7aa40dc071708b0ee0031cc7548b7", "is_disabled": 0, "is_reserved": 0}, {"rental_uris": {"ios": "https://dc.lft.to/lastmile_qr_scan", "android": "https://dc.lft.to/lastmile_qr_scan"}, "lon": -77.00516233333333, "type": "electric_scooter", "fusion_lat": 0.0, "lat": 38.929032666666664, "name": "19e8a7ae938ef0dbe62792aa204c9208", "fusion_lon": 0.0, "bike_id": "19e8a7ae938ef0dbe62792aa204c9208", "is_disabled": 0, "is_reserved": 0}, {"rental_uris": {"ios": "https://dc.lft.to/lastmile_qr_scan", "android": "https://dc.lft.to/lastmile_qr_scan"}, "lon": -77.04821316666667, "type": "electric_scooter", "fusion_lat": 0.0, "lat": 38.897109666666665, "name": "ed6a70a4655d2c37616e5e18618266c6", "fusion_lon": 0.0, "bike_id": "ed6a70a4655d2c37616e5e18618266c6", "is_disabled": 0, "is_reserved": 0}, {"rental_uris": {"ios": "https://dc.lft.to/lastmile_qr_scan", "android": "https://dc.lft.to/lastmile_qr_scan"}, "lon": -77.03958583333333, "type": "electric_scooter", "fusion_lat": 0.0, "lat": 38.914872333333335, "name": "a8ffed866c08bf2d0bc441b06cae379e", "fusion_lon": 0.0, "bike_id": "a8ffed866c08bf2d0bc441b06cae379e", "is_disabled": 0, "is_reserved": 0}, {"rental_uris": {"ios": "https://dc.lft.to/lastmile_qr_scan", "android": "https://dc.lft.to/lastmile_qr_scan"}, "lon": -77.07263433333334, "type": "electric_scooter", "fusion_lat": 0.0, "lat": 38.9348195, "name": "257026dc25ab7d007529a9bca87dab00", "fusion_lon": 0.0, "bike_id": "257026dc25ab7d007529a9bca87dab00", "is_disabled": 0, "is_reserved": 0}, {"rental_uris": {"ios": "https://dc.lft.to/lastmile_qr_scan", "android": "https://dc.lft.to/lastmile_qr_scan"}, "lon": -76.99034733333333, "type": "electric_scooter", "fusion_lat": 0.0, "lat": 38.888841666666664, "name": "5f6e620b6008f40f164f887565ea2e13", "fusion_lon": 0.0, "bike_id": "5f6e620b6008f40f164f887565ea2e13", "is_disabled": 0, "is_reserved": 0}, {"rental_uris": {"ios": "https://dc.lft.to/lastmile_qr_scan", "android": "https://dc.lft.to/lastmile_qr_scan"}, "lon": -77.05318166666666, "type": "electric_scooter", "fusion_lat": 0.0, "lat": 38.923517, "name": "b550525f05e51837aecf30eeb4dab910", "fusion_lon": 0.0, "bike_id": "b550525f05e51837aecf30eeb4dab910", "is_disabled": 0, "is_reserved": 0}, {"rental_uris": {"ios": "https://dc.lft.to/lastmile_qr_scan", "android": "https://dc.lft.to/lastmile_qr_scan"}, "lon": -77.03029333333333, "type": "electric_scooter", "fusion_lat": 0.0, "lat": 38.931089, "name": "ba65408f1e3a56f8d810858c28706585", "fusion_lon": 0.0, "bike_id": "ba65408f1e3a56f8d810858c28706585", "is_disabled": 0, "is_reserved": 0}, {"rental_uris": {"ios": "https://dc.lft.to/lastmile_qr_scan", "android": "https://dc.lft.to/lastmile_qr_scan"}, "lon": -77.02204166666667, "type": "electric_scooter", "fusion_lat": 0.0, "lat": 38.8963505, "name": "fd88e16403e652ab9d67c7af1302f981", "fusion_lon": 0.0, "bike_id": "fd88e16403e652ab9d67c7af1302f981", "is_disabled": 0, "is_reserved": 0}, {"rental_uris": {"ios": "https://dc.lft.to/lastmile_qr_scan", "android": "https://dc.lft.to/lastmile_qr_scan"}, "lon": -77.03847033333334, "type": "electric_scooter", "fusion_lat": 0.0, "lat": 38.908181666666664, "name": "fd798d78eb8b3702991492dde668ecb1", "fusion_lon": 0.0, "bike_id": "fd798d78eb8b3702991492dde668ecb1", "is_disabled": 0, "is_reserved": 0}, {"rental_uris": {"ios": "https://dc.lft.to/lastmile_qr_scan", "android": "https://dc.lft.to/lastmile_qr_scan"}, "lon": -77.0020395, "type": "electric_scooter", "fusion_lat": 0.0, "lat": 38.90033366666667, "name": "0de94471401a92e61261cc5e5a8603cc", "fusion_lon": 0.0, "bike_id": "0de94471401a92e61261cc5e5a8603cc", "is_disabled": 0, "is_reserved": 0}, {"rental_uris": {"ios": "https://dc.lft.to/lastmile_qr_scan", "android": "https://dc.lft.to/lastmile_qr_scan"}, "lon": -77.03571516666666, "type": "electric_bike", "fusion_lat": 0.0, "lat": 38.9646005, "name": "94ce936f2c5bdedd5586c4bdd8b8f36a", "fusion_lon": 0.0, "bike_id": "94ce936f2c5bdedd5586c4bdd8b8f36a", "is_disabled": 0, "is_reserved": 0}, {"rental_uris": {"ios": "https://dc.lft.to/lastmile_qr_scan", "android": "https://dc.lft.to/lastmile_qr_scan"}, "lon": -77.03522216666667, "type": "electric_scooter", "fusion_lat": 0.0, "lat": 38.922287833333336, "name": "9ea5ebc665a2de82180f3ddca09724af", "fusion_lon": 0.0, "bike_id": "9ea5ebc665a2de82180f3ddca09724af", "is_disabled": 0, "is_reserved": 0}, {"rental_uris": {"ios": "https://dc.lft.to/lastmile_qr_scan", "android": "https://dc.lft.to/lastmile_qr_scan"}, "lon": -76.99822083333333, "type": "electric_scooter", "fusion_lat": 0.0, "lat": 38.888784, "name": "bfabb405614f8a4693697d8b3cac02ee", "fusion_lon": 0.0, "bike_id": "bfabb405614f8a4693697d8b3cac02ee", "is_disabled": 0, "is_reserved": 0}, {"rental_uris": {"ios": "https://dc.lft.to/lastmile_qr_scan", "android": "https://dc.lft.to/lastmile_qr_scan"}, "lon": -77.0161655, "type": "electric_scooter", "fusion_lat": 0.0, "lat": 38.907166833333335, "name": "2d1a73871821d47bdd790b6666895f15", "fusion_lon": 0.0, "bike_id": "2d1a73871821d47bdd790b6666895f15", "is_disabled": 0, "is_reserved": 0}, {"rental_uris": {"ios": "https://dc.lft.to/lastmile_qr_scan", "android": "https://dc.lft.to/lastmile_qr_scan"}, "lon": -77.02574816666667, "type": "electric_scooter", "fusion_lat": 0.0, "lat": 38.88409, "name": "f341787dba1242e860cf33c7a280d2b6", "fusion_lon": 0.0, "bike_id": "f341787dba1242e860cf33c7a280d2b6", "is_disabled": 0, "is_reserved": 0}, {"rental_uris": {"ios": "https://dc.lft.to/lastmile_qr_scan", "android": "https://dc.lft.to/lastmile_qr_scan"}, "lon": -77.04137633333333, "type": "electric_scooter", "fusion_lat": 0.0, "lat": 38.92173716666667, "name": "0fe1fdf27a83043a011135e3ec3ba04f", "fusion_lon": 0.0, "bike_id": "0fe1fdf27a83043a011135e3ec3ba04f", "is_disabled": 0, "is_reserved": 0}, {"rental_uris": {"ios": "https://dc.lft.to/lastmile_qr_scan", "android": "https://dc.lft.to/lastmile_qr_scan"}, "lon": -77.04338516666667, "type": "electric_scooter", "fusion_lat": 0.0, "lat": 38.896499, "name": "c0c61908d5639413d9f49e42313d57ec", "fusion_lon": 0.0, "bike_id": "c0c61908d5639413d9f49e42313d57ec", "is_disabled": 0, "is_reserved": 0}, {"rental_uris": {"ios": "https://dc.lft.to/lastmile_qr_scan", "android": "https://dc.lft.to/lastmile_qr_scan"}, "lon": -77.018947, "type": "electric_scooter", "fusion_lat": 0.0, "lat": 38.91184583333333, "name": "2d0690487865a635425f1d26267deab5", "fusion_lon": 0.0, "bike_id": "2d0690487865a635425f1d26267deab5", "is_disabled": 0, "is_reserved": 0}, {"rental_uris": {"ios": "https://dc.lft.to/lastmile_qr_scan", "android": "https://dc.lft.to/lastmile_qr_scan"}, "lon": -77.043654, "type": "electric_scooter", "fusion_lat": 0.0, "lat": 38.917843500000004, "name": "d59e0aae4d4e0f3e669a52bfc22b0b6a", "fusion_lon": 0.0, "bike_id": "d59e0aae4d4e0f3e669a52bfc22b0b6a", "is_disabled": 0, "is_reserved": 0}, {"rental_uris": {"ios": "https://dc.lft.to/lastmile_qr_scan", "android": "https://dc.lft.to/lastmile_qr_scan"}, "lon": -76.98512483333333, "type": "electric_scooter", "fusion_lat": 0.0, "lat": 38.906086333333334, "name": "e9372a06939bb786efbfdf73843129be", "fusion_lon": 0.0, "bike_id": "e9372a06939bb786efbfdf73843129be", "is_disabled": 0, "is_reserved": 0}, {"rental_uris": {"ios": "https://dc.lft.to/lastmile_qr_scan", "android": "https://dc.lft.to/lastmile_qr_scan"}, "lon": -76.999589, "type": "electric_scooter", "fusion_lat": 0.0, "lat": 38.9092645, "name": "4de58d54102b152edd5e8cd7a9f0ff12", "fusion_lon": 0.0, "bike_id": "4de58d54102b152edd5e8cd7a9f0ff12", "is_disabled": 0, "is_reserved": 0}, {"rental_uris": {"ios": "https://dc.lft.to/lastmile_qr_scan", "android": "https://dc.lft.to/lastmile_qr_scan"}, "lon": -77.0188185, "type": "electric_scooter", "fusion_lat": 0.0, "lat": 38.906095, "name": "23d328991566643a0d5bb666bb1e5f0d", "fusion_lon": 0.0, "bike_id": "23d328991566643a0d5bb666bb1e5f0d", "is_disabled": 0, "is_reserved": 0}, {"rental_uris": {"ios": "https://dc.lft.to/lastmile_qr_scan", "android": "https://dc.lft.to/lastmile_qr_scan"}, "lon": -77.00593416666666, "type": "electric_scooter", "fusion_lat": 0.0, "lat": 38.87735433333334, "name": "528feb4f3451f5f334b8153bf601cd06", "fusion_lon": 0.0, "bike_id": "528feb4f3451f5f334b8153bf601cd06", "is_disabled": 0, "is_reserved": 0}, {"rental_uris": {"ios": "https://dc.lft.to/lastmile_qr_scan", "android": "https://dc.lft.to/lastmile_qr_scan"}, "lon": -76.931911, "type": "electric_scooter", "fusion_lat": 0.0, "lat": 38.889939166666665, "name": "c4f4e8185157161c4ff6f8c777733b82", "fusion_lon": 0.0, "bike_id": "c4f4e8185157161c4ff6f8c777733b82", "is_disabled": 0, "is_reserved": 0}, {"rental_uris": {"ios": "https://dc.lft.to/lastmile_qr_scan", "android": "https://dc.lft.to/lastmile_qr_scan"}, "lon": -76.9734155, "type": "electric_scooter", "fusion_lat": 0.0, "lat": 38.865129833333334, "name": "a250a1658c6ff7926426a2b8c7129d92", "fusion_lon": 0.0, "bike_id": "a250a1658c6ff7926426a2b8c7129d92", "is_disabled": 0, "is_reserved": 0}, {"rental_uris": {"ios": "https://dc.lft.to/lastmile_qr_scan", "android": "https://dc.lft.to/lastmile_qr_scan"}, "lon": -77.01790216666667, "type": "electric_scooter", "fusion_lat": 0.0, "lat": 38.90412583333333, "name": "cf24846bf01ed3ccb2ba49c154d82edf", "fusion_lon": 0.0, "bike_id": "cf24846bf01ed3ccb2ba49c154d82edf", "is_disabled": 0, "is_reserved": 0}, {"rental_uris": {"ios": "https://dc.lft.to/lastmile_qr_scan", "android": "https://dc.lft.to/lastmile_qr_scan"}, "lon": -77.02706916666666, "type": "electric_scooter", "fusion_lat": 0.0, "lat": 38.9068205, "name": "2e43c64eee904918fa2512e996a7ba8b", "fusion_lon": 0.0, "bike_id": "2e43c64eee904918fa2512e996a7ba8b", "is_disabled": 0, "is_reserved": 0}, {"rental_uris": {"ios": "https://dc.lft.to/lastmile_qr_scan", "android": "https://dc.lft.to/lastmile_qr_scan"}, "lon": -77.02984533333333, "type": "electric_scooter", "fusion_lat": 0.0, "lat": 38.92473733333333, "name": "56533e990ffd254e4840fedd332d8acf", "fusion_lon": 0.0, "bike_id": "56533e990ffd254e4840fedd332d8acf", "is_disabled": 0, "is_reserved": 0}, {"rental_uris": {"ios": "https://dc.lft.to/lastmile_qr_scan", "android": "https://dc.lft.to/lastmile_qr_scan"}, "lon": -77.015018, "type": "electric_scooter", "fusion_lat": 0.0, "lat": 38.901656333333335, "name": "7efd3a2db9709d60bf78333c9373d26e", "fusion_lon": 0.0, "bike_id": "7efd3a2db9709d60bf78333c9373d26e", "is_disabled": 0, "is_reserved": 0}, {"rental_uris": {"ios": "https://dc.lft.to/lastmile_qr_scan", "android": "https://dc.lft.to/lastmile_qr_scan"}, "lon": -77.00599466666667, "type": "electric_scooter", "fusion_lat": 0.0, "lat": 38.90641816666667, "name": "d4947af7e3da3562c426f04501ea861b", "fusion_lon": 0.0, "bike_id": "d4947af7e3da3562c426f04501ea861b", "is_disabled": 0, "is_reserved": 0}, {"rental_uris": {"ios": "https://dc.lft.to/lastmile_qr_scan", "android": "https://dc.lft.to/lastmile_qr_scan"}, "lon": -77.03655133333334, "type": "electric_scooter", "fusion_lat": 0.0, "lat": 38.923025833333334, "name": "11309383de8150147d73244cbb2fba4f", "fusion_lon": 0.0, "bike_id": "11309383de8150147d73244cbb2fba4f", "is_disabled": 0, "is_reserved": 0}, {"rental_uris": {"ios": "https://dc.lft.to/lastmile_qr_scan", "android": "https://dc.lft.to/lastmile_qr_scan"}, "lon": -76.98708766666667, "type": "electric_scooter", "fusion_lat": 0.0, "lat": 38.90151266666667, "name": "5df240994b80b2cb55a5934e4721dade", "fusion_lon": 0.0, "bike_id": "5df240994b80b2cb55a5934e4721dade", "is_disabled": 0, "is_reserved": 0}, {"rental_uris": {"ios": "https://dc.lft.to/lastmile_qr_scan", "android": "https://dc.lft.to/lastmile_qr_scan"}, "lon": -77.02187716666667, "type": "electric_scooter", "fusion_lat": 0.0, "lat": 38.892436333333336, "name": "974d32ad359d43eefca29d770a6731e3", "fusion_lon": 0.0, "bike_id": "974d32ad359d43eefca29d770a6731e3", "is_disabled": 0, "is_reserved": 0}, {"rental_uris": {"ios": "https://dc.lft.to/lastmile_qr_scan", "android": "https://dc.lft.to/lastmile_qr_scan"}, "lon": -77.04516016666666, "type": "electric_scooter", "fusion_lat": 0.0, "lat": 38.907864333333336, "name": "46571e51f7d14963762e76d9a87f52f5", "fusion_lon": 0.0, "bike_id": "46571e51f7d14963762e76d9a87f52f5", "is_disabled": 0, "is_reserved": 0}, {"rental_uris": {"ios": "https://dc.lft.to/lastmile_qr_scan", "android": "https://dc.lft.to/lastmile_qr_scan"}, "lon": -77.04036316666667, "type": "electric_bike", "fusion_lat": 0.0, "lat": 38.924414166666665, "name": "1ab94887e0cb1291fd56eb43a0090c38", "fusion_lon": 0.0, "bike_id": "1ab94887e0cb1291fd56eb43a0090c38", "is_disabled": 0, "is_reserved": 0}, {"rental_uris": {"ios": "https://dc.lft.to/lastmile_qr_scan", "android": "https://dc.lft.to/lastmile_qr_scan"}, "lon": -77.038659, "type": "electric_scooter", "fusion_lat": 0.0, "lat": 38.91551366666667, "name": "b31bfaf082474da870357fd00e0d9f82", "fusion_lon": 0.0, "bike_id": "b31bfaf082474da870357fd00e0d9f82", "is_disabled": 0, "is_reserved": 0}, {"rental_uris": {"ios": "https://dc.lft.to/lastmile_qr_scan", "android": "https://dc.lft.to/lastmile_qr_scan"}, "lon": -77.03692033333333, "type": "electric_scooter", "fusion_lat": 0.0, "lat": 38.935258833333336, "name": "206097afbbae8734c9d9b6d22894ac9c", "fusion_lon": 0.0, "bike_id": "206097afbbae8734c9d9b6d22894ac9c", "is_disabled": 0, "is_reserved": 0}, {"rental_uris": {"ios": "https://dc.lft.to/lastmile_qr_scan", "android": "https://dc.lft.to/lastmile_qr_scan"}, "lon": -77.01079683333333, "type": "electric_scooter", "fusion_lat": 0.0, "lat": 38.894793166666666, "name": "a6cdb930c2967f7e2bda6f12c72692ad", "fusion_lon": 0.0, "bike_id": "a6cdb930c2967f7e2bda6f12c72692ad", "is_disabled": 0, "is_reserved": 0}, {"rental_uris": {"ios": "https://dc.lft.to/lastmile_qr_scan", "android": "https://dc.lft.to/lastmile_qr_scan"}, "lon": -77.042781, "type": "electric_scooter", "fusion_lat": 0.0, "lat": 38.9027035, "name": "e2a19fa536199786b962bc58d7d5d99d", "fusion_lon": 0.0, "bike_id": "e2a19fa536199786b962bc58d7d5d99d", "is_disabled": 0, "is_reserved": 0}, {"rental_uris": {"ios": "https://dc.lft.to/lastmile_qr_scan", "android": "https://dc.lft.to/lastmile_qr_scan"}, "lon": -76.996825, "type": "electric_scooter", "fusion_lat": 0.0, "lat": 38.90507816666667, "name": "d50620c6ec82a70f34f667ce0bcda059", "fusion_lon": 0.0, "bike_id": "d50620c6ec82a70f34f667ce0bcda059", "is_disabled": 0, "is_reserved": 0}, {"rental_uris": {"ios": "https://dc.lft.to/lastmile_qr_scan", "android": "https://dc.lft.to/lastmile_qr_scan"}, "lon": -77.02707783333334, "type": "electric_scooter", "fusion_lat": 0.0, "lat": 38.90672416666666, "name": "a3e66280a16a90fdff0e7769c70a9e8d", "fusion_lon": 0.0, "bike_id": "a3e66280a16a90fdff0e7769c70a9e8d", "is_disabled": 0, "is_reserved": 0}, {"rental_uris": {"ios": "https://dc.lft.to/lastmile_qr_scan", "android": "https://dc.lft.to/lastmile_qr_scan"}, "lon": -77.04655733333334, "type": "electric_scooter", "fusion_lat": 0.0, "lat": 38.893390333333336, "name": "ca2463485e57b72e60939c368023fa09", "fusion_lon": 0.0, "bike_id": "ca2463485e57b72e60939c368023fa09", "is_disabled": 0, "is_reserved": 0}, {"rental_uris": {"ios": "https://dc.lft.to/lastmile_qr_scan", "android": "https://dc.lft.to/lastmile_qr_scan"}, "lon": -77.10684016666667, "type": "electric_bike", "fusion_lat": 0.0, "lat": 38.935829166666664, "name": "d6471e6ee259090d10bdd72d01852f89", "fusion_lon": 0.0, "bike_id": "d6471e6ee259090d10bdd72d01852f89", "is_disabled": 0, "is_reserved": 0}, {"rental_uris": {"ios": "https://dc.lft.to/lastmile_qr_scan", "android": "https://dc.lft.to/lastmile_qr_scan"}, "lon": -77.0491475, "type": "electric_scooter", "fusion_lat": 0.0, "lat": 38.90527383333333, "name": "ff0a7c56e43133d876d0cbf05a0c3ebf", "fusion_lon": 0.0, "bike_id": "ff0a7c56e43133d876d0cbf05a0c3ebf", "is_disabled": 0, "is_reserved": 0}, {"rental_uris": {"ios": "https://dc.lft.to/lastmile_qr_scan", "android": "https://dc.lft.to/lastmile_qr_scan"}, "lon": -77.02209116666667, "type": "electric_scooter", "fusion_lat": 0.0, "lat": 38.905682, "name": "4b00feb8afcb552509c4b7d18f3eef0f", "fusion_lon": 0.0, "bike_id": "4b00feb8afcb552509c4b7d18f3eef0f", "is_disabled": 0, "is_reserved": 0}, {"rental_uris": {"ios": "https://dc.lft.to/lastmile_qr_scan", "android": "https://dc.lft.to/lastmile_qr_scan"}, "lon": -77.01831833333334, "type": "electric_bike", "fusion_lat": 0.0, "lat": 38.90862683333334, "name": "2709d7edd4a2d3e43d9c49c03cd1368d", "fusion_lon": 0.0, "bike_id": "2709d7edd4a2d3e43d9c49c03cd1368d", "is_disabled": 0, "is_reserved": 0}, {"rental_uris": {"ios": "https://dc.lft.to/lastmile_qr_scan", "android": "https://dc.lft.to/lastmile_qr_scan"}, "lon": -77.05121833333334, "type": "electric_scooter", "fusion_lat": 0.0, "lat": 38.923593, "name": "b086793da60813714586238ae8fb2f7b", "fusion_lon": 0.0, "bike_id": "b086793da60813714586238ae8fb2f7b", "is_disabled": 0, "is_reserved": 0}, {"rental_uris": {"ios": "https://dc.lft.to/lastmile_qr_scan", "android": "https://dc.lft.to/lastmile_qr_scan"}, "lon": -77.01748666666667, "type": "electric_scooter", "fusion_lat": 0.0, "lat": 38.87740816666667, "name": "7820712e404c83422842e9d148f09f16", "fusion_lon": 0.0, "bike_id": "7820712e404c83422842e9d148f09f16", "is_disabled": 0, "is_reserved": 0}, {"rental_uris": {"ios": "https://dc.lft.to/lastmile_qr_scan", "android": "https://dc.lft.to/lastmile_qr_scan"}, "lon": -77.06882483333334, "type": "electric_scooter", "fusion_lat": 0.0, "lat": 38.94036533333333, "name": "f7ea789f22bff30a5b0517b42d93fc07", "fusion_lon": 0.0, "bike_id": "f7ea789f22bff30a5b0517b42d93fc07", "is_disabled": 0, "is_reserved": 0}, {"rental_uris": {"ios": "https://dc.lft.to/lastmile_qr_scan", "android": "https://dc.lft.to/lastmile_qr_scan"}, "lon": -77.12818883333334, "type": "electric_bike", "fusion_lat": 0.0, "lat": 38.86519116666667, "name": "5fa34202ba2f7741a634b4d3e85b5823", "fusion_lon": 0.0, "bike_id": "5fa34202ba2f7741a634b4d3e85b5823", "is_disabled": 0, "is_reserved": 0}, {"rental_uris": {"ios": "https://dc.lft.to/lastmile_qr_scan", "android": "https://dc.lft.to/lastmile_qr_scan"}, "lon": -76.91599933333333, "type": "electric_bike", "fusion_lat": 0.0, "lat": 38.87981166666667, "name": "733c8b2e12977358692f500b712f505c", "fusion_lon": 0.0, "bike_id": "733c8b2e12977358692f500b712f505c", "is_disabled": 0, "is_reserved": 0}, {"rental_uris": {"ios": "https://dc.lft.to/lastmile_qr_scan", "android": "https://dc.lft.to/lastmile_qr_scan"}, "lon": -77.12984683333333, "type": "electric_bike", "fusion_lat": 0.0, "lat": 38.79988983333333, "name": "4172156e9c9c526b7f21694085179fda", "fusion_lon": 0.0, "bike_id": "4172156e9c9c526b7f21694085179fda", "is_disabled": 0, "is_reserved": 0}, {"rental_uris": {"ios": "https://dc.lft.to/lastmile_qr_scan", "android": "https://dc.lft.to/lastmile_qr_scan"}, "lon": -77.03104133333333, "type": "electric_scooter", "fusion_lat": 0.0, "lat": 38.91183783333334, "name": "a3b7b0f50f17c770795449b1577fc78c", "fusion_lon": 0.0, "bike_id": "a3b7b0f50f17c770795449b1577fc78c", "is_disabled": 0, "is_reserved": 0}, {"rental_uris": {"ios": "https://dc.lft.to/lastmile_qr_scan", "android": "https://dc.lft.to/lastmile_qr_scan"}, "lon": -77.063912, "type": "electric_scooter", "fusion_lat": 0.0, "lat": 38.929080166666665, "name": "7c05fdcff63d3ae940ee02a2909344ba", "fusion_lon": 0.0, "bike_id": "7c05fdcff63d3ae940ee02a2909344ba", "is_disabled": 0, "is_reserved": 0}, {"rental_uris": {"ios": "https://dc.lft.to/lastmile_qr_scan", "android": "https://dc.lft.to/lastmile_qr_scan"}, "lon": -77.02436433333334, "type": "electric_bike", "fusion_lat": 0.0, "lat": 38.994298, "name": "f36101049c1d54af81f197cfdd95c028", "fusion_lon": 0.0, "bike_id": "f36101049c1d54af81f197cfdd95c028", "is_disabled": 0, "is_reserved": 0}, {"rental_uris": {"ios": "https://dc.lft.to/lastmile_qr_scan", "android": "https://dc.lft.to/lastmile_qr_scan"}, "lon": -77.07052216666666, "type": "electric_bike", "fusion_lat": 0.0, "lat": 38.82440316666667, "name": "81995d3304d5eea6d766f2c62d2f2ea8", "fusion_lon": 0.0, "bike_id": "81995d3304d5eea6d766f2c62d2f2ea8", "is_disabled": 0, "is_reserved": 0}, {"rental_uris": {"ios": "https://dc.lft.to/lastmile_qr_scan", "android": "https://dc.lft.to/lastmile_qr_scan"}, "lon": -77.0247715, "type": "electric_scooter", "fusion_lat": 0.0, "lat": 38.9181345, "name": "30be5f2c7ad25a9f7d2281a88b8a36a7", "fusion_lon": 0.0, "bike_id": "30be5f2c7ad25a9f7d2281a88b8a36a7", "is_disabled": 0, "is_reserved": 0}, {"rental_uris": {"ios": "https://dc.lft.to/lastmile_qr_scan", "android": "https://dc.lft.to/lastmile_qr_scan"}, "lon": -77.0502355, "type": "electric_scooter", "fusion_lat": 0.0, "lat": 38.92356316666667, "name": "ba7ccfd99432ee0722373959b3016d71", "fusion_lon": 0.0, "bike_id": "ba7ccfd99432ee0722373959b3016d71", "is_disabled": 0, "is_reserved": 0}, {"rental_uris": {"ios": "https://dc.lft.to/lastmile_qr_scan", "android": "https://dc.lft.to/lastmile_qr_scan"}, "lon": -77.05745716666667, "type": "electric_bike", "fusion_lat": 0.0, "lat": 38.92490633333333, "name": "1cb494bb69a8f5cc0ae1e81cb06a2707", "fusion_lon": 0.0, "bike_id": "1cb494bb69a8f5cc0ae1e81cb06a2707", "is_disabled": 0, "is_reserved": 0}, {"rental_uris": {"ios": "https://dc.lft.to/lastmile_qr_scan", "android": "https://dc.lft.to/lastmile_qr_scan"}, "lon": -77.04006416666667, "type": "electric_scooter", "fusion_lat": 0.0, "lat": 38.910050166666664, "name": "5ebc29a58e3f070edf51d9c15f522d0f", "fusion_lon": 0.0, "bike_id": "5ebc29a58e3f070edf51d9c15f522d0f", "is_disabled": 0, "is_reserved": 0}, {"rental_uris": {"ios": "https://dc.lft.to/lastmile_qr_scan", "android": "https://dc.lft.to/lastmile_qr_scan"}, "lon": -77.03977066666667, "type": "electric_scooter", "fusion_lat": 0.0, "lat": 38.9026625, "name": "d65b38f6baf397b7bedf475d68071ac6", "fusion_lon": 0.0, "bike_id": "d65b38f6baf397b7bedf475d68071ac6", "is_disabled": 0, "is_reserved": 0}, {"rental_uris": {"ios": "https://dc.lft.to/lastmile_qr_scan", "android": "https://dc.lft.to/lastmile_qr_scan"}, "lon": -77.02953283333333, "type": "electric_scooter", "fusion_lat": 0.0, "lat": 38.9049785, "name": "6b3fb6edb1d0082e266bbfb13854f283", "fusion_lon": 0.0, "bike_id": "6b3fb6edb1d0082e266bbfb13854f283", "is_disabled": 0, "is_reserved": 0}, {"rental_uris": {"ios": "https://dc.lft.to/lastmile_qr_scan", "android": "https://dc.lft.to/lastmile_qr_scan"}, "lon": -77.02294033333334, "type": "electric_scooter", "fusion_lat": 0.0, "lat": 38.909626833333334, "name": "bf4fb88be962a4e032e7f01291bef0fb", "fusion_lon": 0.0, "bike_id": "bf4fb88be962a4e032e7f01291bef0fb", "is_disabled": 0, "is_reserved": 0}, {"rental_uris": {"ios": "https://dc.lft.to/lastmile_qr_scan", "android": "https://dc.lft.to/lastmile_qr_scan"}, "lon": -77.00133483333333, "type": "electric_scooter", "fusion_lat": 0.0, "lat": 38.904119333333334, "name": "e4747f4bd222bd29aabc728f391a0efb", "fusion_lon": 0.0, "bike_id": "e4747f4bd222bd29aabc728f391a0efb", "is_disabled": 0, "is_reserved": 0}, {"rental_uris": {"ios": "https://dc.lft.to/lastmile_qr_scan", "android": "https://dc.lft.to/lastmile_qr_scan"}, "lon": -77.00601133333333, "type": "electric_scooter", "fusion_lat": 0.0, "lat": 38.9055415, "name": "2cccf019b22170ac87a487411cff2bb5", "fusion_lon": 0.0, "bike_id": "2cccf019b22170ac87a487411cff2bb5", "is_disabled": 0, "is_reserved": 0}, {"rental_uris": {"ios": "https://dc.lft.to/lastmile_qr_scan", "android": "https://dc.lft.to/lastmile_qr_scan"}, "lon": -77.01968933333333, "type": "electric_scooter", "fusion_lat": 0.0, "lat": 38.878415, "name": "a5b435802dbef27f89718b5b56442a00", "fusion_lon": 0.0, "bike_id": "a5b435802dbef27f89718b5b56442a00", "is_disabled": 0, "is_reserved": 0}, {"rental_uris": {"ios": "https://dc.lft.to/lastmile_qr_scan", "android": "https://dc.lft.to/lastmile_qr_scan"}, "lon": -77.0471575, "type": "electric_scooter", "fusion_lat": 0.0, "lat": 38.909599666666665, "name": "25fe425e1eed015b0e4a730a199d51e6", "fusion_lon": 0.0, "bike_id": "25fe425e1eed015b0e4a730a199d51e6", "is_disabled": 0, "is_reserved": 0}, {"rental_uris": {"ios": "https://dc.lft.to/lastmile_qr_scan", "android": "https://dc.lft.to/lastmile_qr_scan"}, "lon": -77.07156483333333, "type": "electric_scooter", "fusion_lat": 0.0, "lat": 38.90742633333333, "name": "7f5f17467dae8bb8e68aec091397abad", "fusion_lon": 0.0, "bike_id": "7f5f17467dae8bb8e68aec091397abad", "is_disabled": 0, "is_reserved": 0}, {"rental_uris": {"ios": "https://dc.lft.to/lastmile_qr_scan", "android": "https://dc.lft.to/lastmile_qr_scan"}, "lon": -77.03442366666667, "type": "electric_scooter", "fusion_lat": 0.0, "lat": 38.918436166666666, "name": "37fa89028fdf1d60b4bbb097d654faf6", "fusion_lon": 0.0, "bike_id": "37fa89028fdf1d60b4bbb097d654faf6", "is_disabled": 0, "is_reserved": 0}, {"rental_uris": {"ios": "https://dc.lft.to/lastmile_qr_scan", "android": "https://dc.lft.to/lastmile_qr_scan"}, "lon": -77.00869783333333, "type": "electric_scooter", "fusion_lat": 0.0, "lat": 38.911785, "name": "e0469f460d4e305d9b023fa1885173c3", "fusion_lon": 0.0, "bike_id": "e0469f460d4e305d9b023fa1885173c3", "is_disabled": 0, "is_reserved": 0}, {"rental_uris": {"ios": "https://dc.lft.to/lastmile_qr_scan", "android": "https://dc.lft.to/lastmile_qr_scan"}, "lon": -76.95207983333333, "type": "electric_bike", "fusion_lat": 0.0, "lat": 38.936657833333335, "name": "ea336661c3f79a53344cbb92271235a7", "fusion_lon": 0.0, "bike_id": "ea336661c3f79a53344cbb92271235a7", "is_disabled": 0, "is_reserved": 0}, {"rental_uris": {"ios": "https://dc.lft.to/lastmile_qr_scan", "android": "https://dc.lft.to/lastmile_qr_scan"}, "lon": -76.93184116666667, "type": "electric_scooter", "fusion_lat": 0.0, "lat": 38.898778, "name": "9e7fe6c8bab6cb1dc0148b4317fc75f3", "fusion_lon": 0.0, "bike_id": "9e7fe6c8bab6cb1dc0148b4317fc75f3", "is_disabled": 0, "is_reserved": 0}, {"rental_uris": {"ios": "https://dc.lft.to/lastmile_qr_scan", "android": "https://dc.lft.to/lastmile_qr_scan"}, "lon": -77.02479266666667, "type": "electric_scooter", "fusion_lat": 0.0, "lat": 38.8969345, "name": "2ef00391e22db71d99131da70b051d31", "fusion_lon": 0.0, "bike_id": "2ef00391e22db71d99131da70b051d31", "is_disabled": 0, "is_reserved": 0}, {"rental_uris": {"ios": "https://dc.lft.to/lastmile_qr_scan", "android": "https://dc.lft.to/lastmile_qr_scan"}, "lon": -77.0250725, "type": "electric_scooter", "fusion_lat": 0.0, "lat": 38.907254, "name": "8f8b28f0d417893b21ebc12e938c9b74", "fusion_lon": 0.0, "bike_id": "8f8b28f0d417893b21ebc12e938c9b74", "is_disabled": 0, "is_reserved": 0}, {"rental_uris": {"ios": "https://dc.lft.to/lastmile_qr_scan", "android": "https://dc.lft.to/lastmile_qr_scan"}, "lon": -77.03202266666666, "type": "electric_scooter", "fusion_lat": 0.0, "lat": 38.907891, "name": "0229adac876fa6c2d9a37240f39ea5eb", "fusion_lon": 0.0, "bike_id": "0229adac876fa6c2d9a37240f39ea5eb", "is_disabled": 0, "is_reserved": 0}, {"rental_uris": {"ios": "https://dc.lft.to/lastmile_qr_scan", "android": "https://dc.lft.to/lastmile_qr_scan"}, "lon": -77.02563916666666, "type": "electric_scooter", "fusion_lat": 0.0, "lat": 38.939770333333335, "name": "430a86995ec3807c301cea071ab9337f", "fusion_lon": 0.0, "bike_id": "430a86995ec3807c301cea071ab9337f", "is_disabled": 0, "is_reserved": 0}, {"rental_uris": {"ios": "https://dc.lft.to/lastmile_qr_scan", "android": "https://dc.lft.to/lastmile_qr_scan"}, "lon": -77.04457966666666, "type": "electric_scooter", "fusion_lat": 0.0, "lat": 38.905671, "name": "9ddc7ce30ed5453f7bbaffb940ea0fcb", "fusion_lon": 0.0, "bike_id": "9ddc7ce30ed5453f7bbaffb940ea0fcb", "is_disabled": 0, "is_reserved": 0}, {"rental_uris": {"ios": "https://dc.lft.to/lastmile_qr_scan", "android": "https://dc.lft.to/lastmile_qr_scan"}, "lon": -77.038322, "type": "electric_scooter", "fusion_lat": 0.0, "lat": 38.913300666666665, "name": "c561c4fe95dcd2010e4b8afe898ebfc0", "fusion_lon": 0.0, "bike_id": "c561c4fe95dcd2010e4b8afe898ebfc0", "is_disabled": 0, "is_reserved": 0}, {"rental_uris": {"ios": "https://dc.lft.to/lastmile_qr_scan", "android": "https://dc.lft.to/lastmile_qr_scan"}, "lon": -76.96491633333333, "type": "electric_bike", "fusion_lat": 0.0, "lat": 38.87549816666667, "name": "8a17a2e212eb00f6d7d1fc11efba0848", "fusion_lon": 0.0, "bike_id": "8a17a2e212eb00f6d7d1fc11efba0848", "is_disabled": 0, "is_reserved": 0}, {"rental_uris": {"ios": "https://dc.lft.to/lastmile_qr_scan", "android": "https://dc.lft.to/lastmile_qr_scan"}, "lon": -76.98975216666666, "type": "electric_scooter", "fusion_lat": 0.0, "lat": 38.8905095, "name": "082c6562ff1248de5dd892011d04ecf3", "fusion_lon": 0.0, "bike_id": "082c6562ff1248de5dd892011d04ecf3", "is_disabled": 0, "is_reserved": 0}, {"rental_uris": {"ios": "https://dc.lft.to/lastmile_qr_scan", "android": "https://dc.lft.to/lastmile_qr_scan"}, "lon": -77.038859, "type": "electric_scooter", "fusion_lat": 0.0, "lat": 38.92305533333333, "name": "87c92817bf6483b23918e5edb769fbaa", "fusion_lon": 0.0, "bike_id": "87c92817bf6483b23918e5edb769fbaa", "is_disabled": 0, "is_reserved": 0}, {"rental_uris": {"ios": "https://dc.lft.to/lastmile_qr_scan", "android": "https://dc.lft.to/lastmile_qr_scan"}, "lon": -77.05123683333333, "type": "electric_scooter", "fusion_lat": 0.0, "lat": 38.92356183333333, "name": "4907c225400ad57b6c03dd41041da0d9", "fusion_lon": 0.0, "bike_id": "4907c225400ad57b6c03dd41041da0d9", "is_disabled": 0, "is_reserved": 0}, {"rental_uris": {"ios": "https://dc.lft.to/lastmile_qr_scan", "android": "https://dc.lft.to/lastmile_qr_scan"}, "lon": -76.98259116666667, "type": "electric_scooter", "fusion_lat": 0.0, "lat": 38.86350066666667, "name": "a7afc33c8dfb8792bd71b19c69638d1c", "fusion_lon": 0.0, "bike_id": "a7afc33c8dfb8792bd71b19c69638d1c", "is_disabled": 0, "is_reserved": 0}, {"rental_uris": {"ios": "https://dc.lft.to/lastmile_qr_scan", "android": "https://dc.lft.to/lastmile_qr_scan"}, "lon": -77.0052305, "type": "electric_scooter", "fusion_lat": 0.0, "lat": 38.92894316666667, "name": "a1f2a0b813e6d45c07e7c694285e5730", "fusion_lon": 0.0, "bike_id": "a1f2a0b813e6d45c07e7c694285e5730", "is_disabled": 0, "is_reserved": 0}, {"rental_uris": {"ios": "https://dc.lft.to/lastmile_qr_scan", "android": "https://dc.lft.to/lastmile_qr_scan"}, "lon": -77.01655733333334, "type": "electric_scooter", "fusion_lat": 0.0, "lat": 38.95326216666667, "name": "9c766e4af89c4838ea5b7c5bfcb16897", "fusion_lon": 0.0, "bike_id": "9c766e4af89c4838ea5b7c5bfcb16897", "is_disabled": 0, "is_reserved": 0}, {"rental_uris": {"ios": "https://dc.lft.to/lastmile_qr_scan", "android": "https://dc.lft.to/lastmile_qr_scan"}, "lon": -77.038153, "type": "electric_scooter", "fusion_lat": 0.0, "lat": 38.909637833333335, "name": "e634e89c28888f04cc0ba1a39d7f0705", "fusion_lon": 0.0, "bike_id": "e634e89c28888f04cc0ba1a39d7f0705", "is_disabled": 0, "is_reserved": 0}, {"rental_uris": {"ios": "https://dc.lft.to/lastmile_qr_scan", "android": "https://dc.lft.to/lastmile_qr_scan"}, "lon": -77.05437916666666, "type": "electric_scooter", "fusion_lat": 0.0, "lat": 38.89608483333333, "name": "ea33509fd441e9ec038cbff59f7845fa", "fusion_lon": 0.0, "bike_id": "ea33509fd441e9ec038cbff59f7845fa", "is_disabled": 0, "is_reserved": 0}, {"rental_uris": {"ios": "https://dc.lft.to/lastmile_qr_scan", "android": "https://dc.lft.to/lastmile_qr_scan"}, "lon": -77.00260633333333, "type": "electric_scooter", "fusion_lat": 0.0, "lat": 38.877484833333334, "name": "9a3c879673ef9046696b71c74080399a", "fusion_lon": 0.0, "bike_id": "9a3c879673ef9046696b71c74080399a", "is_disabled": 0, "is_reserved": 0}, {"rental_uris": {"ios": "https://dc.lft.to/lastmile_qr_scan", "android": "https://dc.lft.to/lastmile_qr_scan"}, "lon": -77.04792183333333, "type": "electric_scooter", "fusion_lat": 0.0, "lat": 38.8936705, "name": "eb07285f891517d20b0d1bb1107d1688", "fusion_lon": 0.0, "bike_id": "eb07285f891517d20b0d1bb1107d1688", "is_disabled": 0, "is_reserved": 0}, {"rental_uris": {"ios": "https://dc.lft.to/lastmile_qr_scan", "android": "https://dc.lft.to/lastmile_qr_scan"}, "lon": -77.04426966666666, "type": "electric_scooter", "fusion_lat": 0.0, "lat": 38.905778833333336, "name": "71a8dab2cfdb53b9f776a19ea0710bc0", "fusion_lon": 0.0, "bike_id": "71a8dab2cfdb53b9f776a19ea0710bc0", "is_disabled": 0, "is_reserved": 0}, {"rental_uris": {"ios": "https://dc.lft.to/lastmile_qr_scan", "android": "https://dc.lft.to/lastmile_qr_scan"}, "lon": -77.02125766666667, "type": "electric_scooter", "fusion_lat": 0.0, "lat": 38.9097235, "name": "41258503490b0c1404e35c8e5209ed89", "fusion_lon": 0.0, "bike_id": "41258503490b0c1404e35c8e5209ed89", "is_disabled": 0, "is_reserved": 0}, {"rental_uris": {"ios": "https://dc.lft.to/lastmile_qr_scan", "android": "https://dc.lft.to/lastmile_qr_scan"}, "lon": -76.985534, "type": "electric_bike", "fusion_lat": 0.0, "lat": 38.89215166666666, "name": "cd774a72a6d551f7d47628afee7a2e6c", "fusion_lon": 0.0, "bike_id": "cd774a72a6d551f7d47628afee7a2e6c", "is_disabled": 0, "is_reserved": 0}, {"rental_uris": {"ios": "https://dc.lft.to/lastmile_qr_scan", "android": "https://dc.lft.to/lastmile_qr_scan"}, "lon": -77.01833466666666, "type": "electric_scooter", "fusion_lat": 0.0, "lat": 38.90877666666667, "name": "9a69f65eeaf844229c73a0e767597359", "fusion_lon": 0.0, "bike_id": "9a69f65eeaf844229c73a0e767597359", "is_disabled": 0, "is_reserved": 0}, {"rental_uris": {"ios": "https://dc.lft.to/lastmile_qr_scan", "android": "https://dc.lft.to/lastmile_qr_scan"}, "lon": -77.03383, "type": "electric_scooter", "fusion_lat": 0.0, "lat": 38.93845483333333, "name": "5a29c0c57755458e835fa4e249f99575", "fusion_lon": 0.0, "bike_id": "5a29c0c57755458e835fa4e249f99575", "is_disabled": 0, "is_reserved": 0}, {"rental_uris": {"ios": "https://dc.lft.to/lastmile_qr_scan", "android": "https://dc.lft.to/lastmile_qr_scan"}, "lon": -77.01122616666666, "type": "electric_scooter", "fusion_lat": 0.0, "lat": 38.8999945, "name": "3089c38143b4c1fa11f786e07a39c5b5", "fusion_lon": 0.0, "bike_id": "3089c38143b4c1fa11f786e07a39c5b5", "is_disabled": 0, "is_reserved": 0}, {"rental_uris": {"ios": "https://dc.lft.to/lastmile_qr_scan", "android": "https://dc.lft.to/lastmile_qr_scan"}, "lon": -77.02994116666666, "type": "electric_bike", "fusion_lat": 0.0, "lat": 38.90011483333333, "name": "72a338fe0703124c65071ba6d3193d84", "fusion_lon": 0.0, "bike_id": "72a338fe0703124c65071ba6d3193d84", "is_disabled": 0, "is_reserved": 0}, {"rental_uris": {"ios": "https://dc.lft.to/lastmile_qr_scan", "android": "https://dc.lft.to/lastmile_qr_scan"}, "lon": -76.97734566666666, "type": "electric_scooter", "fusion_lat": 0.0, "lat": 38.8728645, "name": "c9200224ee78819bf8ccfad1927b290c", "fusion_lon": 0.0, "bike_id": "c9200224ee78819bf8ccfad1927b290c", "is_disabled": 0, "is_reserved": 0}, {"rental_uris": {"ios": "https://dc.lft.to/lastmile_qr_scan", "android": "https://dc.lft.to/lastmile_qr_scan"}, "lon": -76.95740983333333, "type": "electric_scooter", "fusion_lat": 0.0, "lat": 38.89217133333333, "name": "c6d1ba27b17c7a003d0fd0f06febe274", "fusion_lon": 0.0, "bike_id": "c6d1ba27b17c7a003d0fd0f06febe274", "is_disabled": 0, "is_reserved": 0}, {"rental_uris": {"ios": "https://dc.lft.to/lastmile_qr_scan", "android": "https://dc.lft.to/lastmile_qr_scan"}, "lon": -77.13179966666667, "type": "electric_bike", "fusion_lat": 0.0, "lat": 38.869093, "name": "16319543132f6432318dac4b3ba7cca2", "fusion_lon": 0.0, "bike_id": "16319543132f6432318dac4b3ba7cca2", "is_disabled": 0, "is_reserved": 0}, {"rental_uris": {"ios": "https://dc.lft.to/lastmile_qr_scan", "android": "https://dc.lft.to/lastmile_qr_scan"}, "lon": -77.037774, "type": "electric_bike", "fusion_lat": 0.0, "lat": 38.99679666666667, "name": "3797213dde244081ccdbfade42e33e3b", "fusion_lon": 0.0, "bike_id": "3797213dde244081ccdbfade42e33e3b", "is_disabled": 0, "is_reserved": 0}, {"rental_uris": {"ios": "https://dc.lft.to/lastmile_qr_scan", "android": "https://dc.lft.to/lastmile_qr_scan"}, "lon": -77.0341955, "type": "electric_scooter", "fusion_lat": 0.0, "lat": 38.929440166666666, "name": "73cff3278bf6a15c168ee6fae7f1caa8", "fusion_lon": 0.0, "bike_id": "73cff3278bf6a15c168ee6fae7f1caa8", "is_disabled": 0, "is_reserved": 0}, {"rental_uris": {"ios": "https://dc.lft.to/lastmile_qr_scan", "android": "https://dc.lft.to/lastmile_qr_scan"}, "lon": -77.03939616666666, "type": "electric_scooter", "fusion_lat": 0.0, "lat": 38.931441166666666, "name": "c9f7ef9317cf2dea71a3f9a591d6376b", "fusion_lon": 0.0, "bike_id": "c9f7ef9317cf2dea71a3f9a591d6376b", "is_disabled": 0, "is_reserved": 0}, {"rental_uris": {"ios": "https://dc.lft.to/lastmile_qr_scan", "android": "https://dc.lft.to/lastmile_qr_scan"}, "lon": -77.04794866666667, "type": "electric_scooter", "fusion_lat": 0.0, "lat": 38.91635766666667, "name": "8f7c9068a798646c1a5e7847ea038b62", "fusion_lon": 0.0, "bike_id": "8f7c9068a798646c1a5e7847ea038b62", "is_disabled": 0, "is_reserved": 0}, {"rental_uris": {"ios": "https://dc.lft.to/lastmile_qr_scan", "android": "https://dc.lft.to/lastmile_qr_scan"}, "lon": -77.03828583333333, "type": "electric_scooter", "fusion_lat": 0.0, "lat": 38.921747333333336, "name": "ca0f6af31e04acaba1e0b26e335dca02", "fusion_lon": 0.0, "bike_id": "ca0f6af31e04acaba1e0b26e335dca02", "is_disabled": 0, "is_reserved": 0}, {"rental_uris": {"ios": "https://dc.lft.to/lastmile_qr_scan", "android": "https://dc.lft.to/lastmile_qr_scan"}, "lon": -77.0188155, "type": "electric_scooter", "fusion_lat": 0.0, "lat": 38.906198333333336, "name": "df1b3de88664b8c0493a8eb765eefeb6", "fusion_lon": 0.0, "bike_id": "df1b3de88664b8c0493a8eb765eefeb6", "is_disabled": 0, "is_reserved": 0}, {"rental_uris": {"ios": "https://dc.lft.to/lastmile_qr_scan", "android": "https://dc.lft.to/lastmile_qr_scan"}, "lon": -77.04290766666666, "type": "electric_scooter", "fusion_lat": 0.0, "lat": 38.907215, "name": "c9f501bcbdf0ed190cf45dc07d9bb3b1", "fusion_lon": 0.0, "bike_id": "c9f501bcbdf0ed190cf45dc07d9bb3b1", "is_disabled": 0, "is_reserved": 0}, {"rental_uris": {"ios": "https://dc.lft.to/lastmile_qr_scan", "android": "https://dc.lft.to/lastmile_qr_scan"}, "lon": -77.0403135, "type": "electric_scooter", "fusion_lat": 0.0, "lat": 38.92434933333333, "name": "04998e3d4ae5edf70cb1879fd8d4d74a", "fusion_lon": 0.0, "bike_id": "04998e3d4ae5edf70cb1879fd8d4d74a", "is_disabled": 0, "is_reserved": 0}, {"rental_uris": {"ios": "https://dc.lft.to/lastmile_qr_scan", "android": "https://dc.lft.to/lastmile_qr_scan"}, "lon": -77.01358883333333, "type": "electric_scooter", "fusion_lat": 0.0, "lat": 38.91988333333333, "name": "0dd424866cad0d79a6e6222459acc8bb", "fusion_lon": 0.0, "bike_id": "0dd424866cad0d79a6e6222459acc8bb", "is_disabled": 0, "is_reserved": 0}, {"rental_uris": {"ios": "https://dc.lft.to/lastmile_qr_scan", "android": "https://dc.lft.to/lastmile_qr_scan"}, "lon": -77.03067, "type": "electric_scooter", "fusion_lat": 0.0, "lat": 38.88045566666667, "name": "9bc2717ac6422a03e83912441408017e", "fusion_lon": 0.0, "bike_id": "9bc2717ac6422a03e83912441408017e", "is_disabled": 0, "is_reserved": 0}, {"rental_uris": {"ios": "https://dc.lft.to/lastmile_qr_scan", "android": "https://dc.lft.to/lastmile_qr_scan"}, "lon": -77.017036, "type": "electric_scooter", "fusion_lat": 0.0, "lat": 38.90269116666666, "name": "7272bcefd3ec77d1eab7ddcf73484c7f", "fusion_lon": 0.0, "bike_id": "7272bcefd3ec77d1eab7ddcf73484c7f", "is_disabled": 0, "is_reserved": 0}, {"rental_uris": {"ios": "https://dc.lft.to/lastmile_qr_scan", "android": "https://dc.lft.to/lastmile_qr_scan"}, "lon": -77.03299866666667, "type": "electric_scooter", "fusion_lat": 0.0, "lat": 38.9032315, "name": "fbb848ba90385ce29ab7455bc13b570b", "fusion_lon": 0.0, "bike_id": "fbb848ba90385ce29ab7455bc13b570b", "is_disabled": 0, "is_reserved": 0}, {"rental_uris": {"ios": "https://dc.lft.to/lastmile_qr_scan", "android": "https://dc.lft.to/lastmile_qr_scan"}, "lon": -76.94946433333334, "type": "electric_scooter", "fusion_lat": 0.0, "lat": 38.883779833333335, "name": "fe33c8819348e55b9054ff8558afb31b", "fusion_lon": 0.0, "bike_id": "fe33c8819348e55b9054ff8558afb31b", "is_disabled": 0, "is_reserved": 0}, {"rental_uris": {"ios": "https://dc.lft.to/lastmile_qr_scan", "android": "https://dc.lft.to/lastmile_qr_scan"}, "lon": -77.0468195, "type": "electric_scooter", "fusion_lat": 0.0, "lat": 38.908645166666666, "name": "f8e6cea637c696c5a2bcee0fdececb97", "fusion_lon": 0.0, "bike_id": "f8e6cea637c696c5a2bcee0fdececb97", "is_disabled": 0, "is_reserved": 0}, {"rental_uris": {"ios": "https://dc.lft.to/lastmile_qr_scan", "android": "https://dc.lft.to/lastmile_qr_scan"}, "lon": -77.03926616666666, "type": "electric_scooter", "fusion_lat": 0.0, "lat": 38.91754016666667, "name": "327f38d10c27a3de1a9bfc38a2faef4c", "fusion_lon": 0.0, "bike_id": "327f38d10c27a3de1a9bfc38a2faef4c", "is_disabled": 0, "is_reserved": 0}, {"rental_uris": {"ios": "https://dc.lft.to/lastmile_qr_scan", "android": "https://dc.lft.to/lastmile_qr_scan"}, "lon": -77.04178366666666, "type": "electric_scooter", "fusion_lat": 0.0, "lat": 38.918557, "name": "b3c67f955d419d93787ef20344bc11cd", "fusion_lon": 0.0, "bike_id": "b3c67f955d419d93787ef20344bc11cd", "is_disabled": 0, "is_reserved": 0}, {"rental_uris": {"ios": "https://dc.lft.to/lastmile_qr_scan", "android": "https://dc.lft.to/lastmile_qr_scan"}, "lon": -77.046998, "type": "electric_scooter", "fusion_lat": 0.0, "lat": 38.921065166666665, "name": "c9404647b1628dfcc9ebe1e8b3172050", "fusion_lon": 0.0, "bike_id": "c9404647b1628dfcc9ebe1e8b3172050", "is_disabled": 0, "is_reserved": 0}, {"rental_uris": {"ios": "https://dc.lft.to/lastmile_qr_scan", "android": "https://dc.lft.to/lastmile_qr_scan"}, "lon": -77.0559635, "type": "electric_scooter", "fusion_lat": 0.0, "lat": 38.93697683333333, "name": "0f4fb683e46164dae9238d7f3f68adb2", "fusion_lon": 0.0, "bike_id": "0f4fb683e46164dae9238d7f3f68adb2", "is_disabled": 0, "is_reserved": 0}, {"rental_uris": {"ios": "https://dc.lft.to/lastmile_qr_scan", "android": "https://dc.lft.to/lastmile_qr_scan"}, "lon": -76.961748, "type": "electric_bike", "fusion_lat": 0.0, "lat": 38.918626333333336, "name": "34aed08cedf016b9fc8588e39c79ae56", "fusion_lon": 0.0, "bike_id": "34aed08cedf016b9fc8588e39c79ae56", "is_disabled": 0, "is_reserved": 0}, {"rental_uris": {"ios": "https://dc.lft.to/lastmile_qr_scan", "android": "https://dc.lft.to/lastmile_qr_scan"}, "lon": -77.03230466666666, "type": "electric_scooter", "fusion_lat": 0.0, "lat": 38.896331833333335, "name": "9b0d8c35d5c9f3dd284a17dc83e3a6a1", "fusion_lon": 0.0, "bike_id": "9b0d8c35d5c9f3dd284a17dc83e3a6a1", "is_disabled": 0, "is_reserved": 0}, {"rental_uris": {"ios": "https://dc.lft.to/lastmile_qr_scan", "android": "https://dc.lft.to/lastmile_qr_scan"}, "lon": -77.02886166666667, "type": "electric_scooter", "fusion_lat": 0.0, "lat": 38.904721333333335, "name": "fb2694f6e7b532b94f1c6ffa3259e4d3", "fusion_lon": 0.0, "bike_id": "fb2694f6e7b532b94f1c6ffa3259e4d3", "is_disabled": 0, "is_reserved": 0}, {"rental_uris": {"ios": "https://dc.lft.to/lastmile_qr_scan", "android": "https://dc.lft.to/lastmile_qr_scan"}, "lon": -77.09158466666666, "type": "electric_bike", "fusion_lat": 0.0, "lat": 38.96758833333333, "name": "9d9b2940838670111d3a72090ef0a0cb", "fusion_lon": 0.0, "bike_id": "9d9b2940838670111d3a72090ef0a0cb", "is_disabled": 0, "is_reserved": 0}, {"rental_uris": {"ios": "https://dc.lft.to/lastmile_qr_scan", "android": "https://dc.lft.to/lastmile_qr_scan"}, "lon": -77.03750583333333, "type": "electric_scooter", "fusion_lat": 0.0, "lat": 38.925761333333334, "name": "fc8fca874c9841d4a42c0a2724cc873f", "fusion_lon": 0.0, "bike_id": "fc8fca874c9841d4a42c0a2724cc873f", "is_disabled": 0, "is_reserved": 0}, {"rental_uris": {"ios": "https://dc.lft.to/lastmile_qr_scan", "android": "https://dc.lft.to/lastmile_qr_scan"}, "lon": -77.01333066666666, "type": "electric_scooter", "fusion_lat": 0.0, "lat": 38.96611216666667, "name": "e92d6552c385b46ebe7533f992804c77", "fusion_lon": 0.0, "bike_id": "e92d6552c385b46ebe7533f992804c77", "is_disabled": 0, "is_reserved": 0}, {"rental_uris": {"ios": "https://dc.lft.to/lastmile_qr_scan", "android": "https://dc.lft.to/lastmile_qr_scan"}, "lon": -77.037741, "type": "electric_scooter", "fusion_lat": 0.0, "lat": 38.9360875, "name": "1ba60c404171fd45eee01837547c5aa1", "fusion_lon": 0.0, "bike_id": "1ba60c404171fd45eee01837547c5aa1", "is_disabled": 0, "is_reserved": 0}, {"rental_uris": {"ios": "https://dc.lft.to/lastmile_qr_scan", "android": "https://dc.lft.to/lastmile_qr_scan"}, "lon": -77.04404516666666, "type": "electric_scooter", "fusion_lat": 0.0, "lat": 38.87421916666667, "name": "2e61bb4571a21cc53553decf6f6f9c81", "fusion_lon": 0.0, "bike_id": "2e61bb4571a21cc53553decf6f6f9c81", "is_disabled": 0, "is_reserved": 0}, {"rental_uris": {"ios": "https://dc.lft.to/lastmile_qr_scan", "android": "https://dc.lft.to/lastmile_qr_scan"}, "lon": -77.02315516666667, "type": "electric_scooter", "fusion_lat": 0.0, "lat": 38.88353083333333, "name": "b4e380a3a2d6338e37ba0b27ae206515", "fusion_lon": 0.0, "bike_id": "b4e380a3a2d6338e37ba0b27ae206515", "is_disabled": 0, "is_reserved": 0}, {"rental_uris": {"ios": "https://dc.lft.to/lastmile_qr_scan", "android": "https://dc.lft.to/lastmile_qr_scan"}, "lon": -77.0311815, "type": "electric_scooter", "fusion_lat": 0.0, "lat": 38.973796666666665, "name": "89560146f1fa3ad4b105bcd2d95c57b5", "fusion_lon": 0.0, "bike_id": "89560146f1fa3ad4b105bcd2d95c57b5", "is_disabled": 0, "is_reserved": 0}, {"rental_uris": {"ios": "https://dc.lft.to/lastmile_qr_scan", "android": "https://dc.lft.to/lastmile_qr_scan"}, "lon": -77.03985766666666, "type": "electric_scooter", "fusion_lat": 0.0, "lat": 38.902377333333334, "name": "4e1a862380e805c2afeaa7398861f2df", "fusion_lon": 0.0, "bike_id": "4e1a862380e805c2afeaa7398861f2df", "is_disabled": 0, "is_reserved": 0}, {"rental_uris": {"ios": "https://dc.lft.to/lastmile_qr_scan", "android": "https://dc.lft.to/lastmile_qr_scan"}, "lon": -77.0260915, "type": "electric_scooter", "fusion_lat": 0.0, "lat": 38.8997225, "name": "7b53f5087c28d1820b44eeef84fd28ec", "fusion_lon": 0.0, "bike_id": "7b53f5087c28d1820b44eeef84fd28ec", "is_disabled": 0, "is_reserved": 0}, {"rental_uris": {"ios": "https://dc.lft.to/lastmile_qr_scan", "android": "https://dc.lft.to/lastmile_qr_scan"}, "lon": -77.04196983333334, "type": "electric_scooter", "fusion_lat": 0.0, "lat": 38.912651333333336, "name": "31f82df1a6ea98c67c037d5cbe247a97", "fusion_lon": 0.0, "bike_id": "31f82df1a6ea98c67c037d5cbe247a97", "is_disabled": 0, "is_reserved": 0}, {"rental_uris": {"ios": "https://dc.lft.to/lastmile_qr_scan", "android": "https://dc.lft.to/lastmile_qr_scan"}, "lon": -77.01114683333333, "type": "electric_scooter", "fusion_lat": 0.0, "lat": 38.91618016666666, "name": "0c22d050c9a317a7abeea351d1178712", "fusion_lon": 0.0, "bike_id": "0c22d050c9a317a7abeea351d1178712", "is_disabled": 0, "is_reserved": 0}, {"rental_uris": {"ios": "https://dc.lft.to/lastmile_qr_scan", "android": "https://dc.lft.to/lastmile_qr_scan"}, "lon": -77.074706, "type": "electric_bike", "fusion_lat": 0.0, "lat": 38.92066, "name": "f72dfe75454375decaa507c4f988badc", "fusion_lon": 0.0, "bike_id": "f72dfe75454375decaa507c4f988badc", "is_disabled": 0, "is_reserved": 0}, {"rental_uris": {"ios": "https://dc.lft.to/lastmile_qr_scan", "android": "https://dc.lft.to/lastmile_qr_scan"}, "lon": -77.016128, "type": "electric_scooter", "fusion_lat": 0.0, "lat": 38.87692583333333, "name": "548a45b4aeed24519a5770a6c76a982b", "fusion_lon": 0.0, "bike_id": "548a45b4aeed24519a5770a6c76a982b", "is_disabled": 0, "is_reserved": 0}, {"rental_uris": {"ios": "https://dc.lft.to/lastmile_qr_scan", "android": "https://dc.lft.to/lastmile_qr_scan"}, "lon": -77.00209216666667, "type": "electric_scooter", "fusion_lat": 0.0, "lat": 38.90223916666667, "name": "bd7404a5c72d82433998f9d75045f8d9", "fusion_lon": 0.0, "bike_id": "bd7404a5c72d82433998f9d75045f8d9", "is_disabled": 0, "is_reserved": 0}, {"rental_uris": {"ios": "https://dc.lft.to/lastmile_qr_scan", "android": "https://dc.lft.to/lastmile_qr_scan"}, "lon": -76.91658633333333, "type": "electric_bike", "fusion_lat": 0.0, "lat": 38.86859116666667, "name": "16ab143aee8d30f6d86224e4f3155387", "fusion_lon": 0.0, "bike_id": "16ab143aee8d30f6d86224e4f3155387", "is_disabled": 0, "is_reserved": 0}, {"rental_uris": {"ios": "https://dc.lft.to/lastmile_qr_scan", "android": "https://dc.lft.to/lastmile_qr_scan"}, "lon": -77.00574033333334, "type": "electric_scooter", "fusion_lat": 0.0, "lat": 38.872194, "name": "50109456c238e4363962a25d174fd38d", "fusion_lon": 0.0, "bike_id": "50109456c238e4363962a25d174fd38d", "is_disabled": 0, "is_reserved": 0}, {"rental_uris": {"ios": "https://dc.lft.to/lastmile_qr_scan", "android": "https://dc.lft.to/lastmile_qr_scan"}, "lon": -77.0448805, "type": "electric_scooter", "fusion_lat": 0.0, "lat": 38.9193775, "name": "9c5115f318d963b487112d19947c4531", "fusion_lon": 0.0, "bike_id": "9c5115f318d963b487112d19947c4531", "is_disabled": 0, "is_reserved": 0}, {"rental_uris": {"ios": "https://dc.lft.to/lastmile_qr_scan", "android": "https://dc.lft.to/lastmile_qr_scan"}, "lon": -77.12730616666667, "type": "electric_bike", "fusion_lat": 0.0, "lat": 38.89562383333333, "name": "d5533a28851db5098b5ea75df6e74e6d", "fusion_lon": 0.0, "bike_id": "d5533a28851db5098b5ea75df6e74e6d", "is_disabled": 0, "is_reserved": 0}, {"rental_uris": {"ios": "https://dc.lft.to/lastmile_qr_scan", "android": "https://dc.lft.to/lastmile_qr_scan"}, "lon": -77.03450683333334, "type": "electric_scooter", "fusion_lat": 0.0, "lat": 38.92644416666667, "name": "ddec985738d56e9c32b449e38622d2c3", "fusion_lon": 0.0, "bike_id": "ddec985738d56e9c32b449e38622d2c3", "is_disabled": 0, "is_reserved": 0}, {"rental_uris": {"ios": "https://dc.lft.to/lastmile_qr_scan", "android": "https://dc.lft.to/lastmile_qr_scan"}, "lon": -76.998367, "type": "electric_bike", "fusion_lat": 0.0, "lat": 38.83922783333333, "name": "5a3c9ebc5d55ac0a5e05d3ca76dc584b", "fusion_lon": 0.0, "bike_id": "5a3c9ebc5d55ac0a5e05d3ca76dc584b", "is_disabled": 0, "is_reserved": 0}, {"rental_uris": {"ios": "https://dc.lft.to/lastmile_qr_scan", "android": "https://dc.lft.to/lastmile_qr_scan"}, "lon": -77.07562783333333, "type": "electric_scooter", "fusion_lat": 0.0, "lat": 38.9209805, "name": "0332b73df4af2177e2b04fe37a5ef305", "fusion_lon": 0.0, "bike_id": "0332b73df4af2177e2b04fe37a5ef305", "is_disabled": 0, "is_reserved": 0}, {"rental_uris": {"ios": "https://dc.lft.to/lastmile_qr_scan", "android": "https://dc.lft.to/lastmile_qr_scan"}, "lon": -77.01102233333333, "type": "electric_scooter", "fusion_lat": 0.0, "lat": 38.894782, "name": "2ed1928ed4d9bf160a0ece52e5a91aa5", "fusion_lon": 0.0, "bike_id": "2ed1928ed4d9bf160a0ece52e5a91aa5", "is_disabled": 0, "is_reserved": 0}, {"rental_uris": {"ios": "https://dc.lft.to/lastmile_qr_scan", "android": "https://dc.lft.to/lastmile_qr_scan"}, "lon": -76.93574283333334, "type": "electric_bike", "fusion_lat": 0.0, "lat": 38.88527416666667, "name": "dfb36e3bd2c0034ccb7247c064f0ddbe", "fusion_lon": 0.0, "bike_id": "dfb36e3bd2c0034ccb7247c064f0ddbe", "is_disabled": 0, "is_reserved": 0}, {"rental_uris": {"ios": "https://dc.lft.to/lastmile_qr_scan", "android": "https://dc.lft.to/lastmile_qr_scan"}, "lon": -76.999655, "type": "electric_scooter", "fusion_lat": 0.0, "lat": 38.9084645, "name": "c79046fecb7b47be0f50455b8f1e1e4a", "fusion_lon": 0.0, "bike_id": "c79046fecb7b47be0f50455b8f1e1e4a", "is_disabled": 0, "is_reserved": 0}, {"rental_uris": {"ios": "https://dc.lft.to/lastmile_qr_scan", "android": "https://dc.lft.to/lastmile_qr_scan"}, "lon": -77.0300355, "type": "electric_scooter", "fusion_lat": 0.0, "lat": 38.9345765, "name": "29aba6f89281fc1811cff422ab0deedb", "fusion_lon": 0.0, "bike_id": "29aba6f89281fc1811cff422ab0deedb", "is_disabled": 0, "is_reserved": 0}, {"rental_uris": {"ios": "https://dc.lft.to/lastmile_qr_scan", "android": "https://dc.lft.to/lastmile_qr_scan"}, "lon": -77.01411716666667, "type": "electric_scooter", "fusion_lat": 0.0, "lat": 38.91694016666667, "name": "ab9436146c98fd5d6ac8803e6d61785b", "fusion_lon": 0.0, "bike_id": "ab9436146c98fd5d6ac8803e6d61785b", "is_disabled": 0, "is_reserved": 0}, {"rental_uris": {"ios": "https://dc.lft.to/lastmile_qr_scan", "android": "https://dc.lft.to/lastmile_qr_scan"}, "lon": -77.004966, "type": "electric_scooter", "fusion_lat": 0.0, "lat": 38.878942, "name": "bc56b1239baa609784ef8c425e36ab90", "fusion_lon": 0.0, "bike_id": "bc56b1239baa609784ef8c425e36ab90", "is_disabled": 0, "is_reserved": 0}, {"rental_uris": {"ios": "https://dc.lft.to/lastmile_qr_scan", "android": "https://dc.lft.to/lastmile_qr_scan"}, "lon": -77.0265065, "type": "electric_scooter", "fusion_lat": 0.0, "lat": 38.9386335, "name": "07f5bd284c2c39e2b9119add2e0323dc", "fusion_lon": 0.0, "bike_id": "07f5bd284c2c39e2b9119add2e0323dc", "is_disabled": 0, "is_reserved": 0}, {"rental_uris": {"ios": "https://dc.lft.to/lastmile_qr_scan", "android": "https://dc.lft.to/lastmile_qr_scan"}, "lon": -77.02570866666667, "type": "electric_scooter", "fusion_lat": 0.0, "lat": 38.887444333333335, "name": "dd66793ebfb89111da01ca5bc70d062c", "fusion_lon": 0.0, "bike_id": "dd66793ebfb89111da01ca5bc70d062c", "is_disabled": 0, "is_reserved": 0}, {"rental_uris": {"ios": "https://dc.lft.to/lastmile_qr_scan", "android": "https://dc.lft.to/lastmile_qr_scan"}, "lon": -77.041012, "type": "electric_scooter", "fusion_lat": 0.0, "lat": 38.923685166666665, "name": "c0a74fdc7153ea793a0f9caaf0e3acfc", "fusion_lon": 0.0, "bike_id": "c0a74fdc7153ea793a0f9caaf0e3acfc", "is_disabled": 0, "is_reserved": 0}, {"rental_uris": {"ios": "https://dc.lft.to/lastmile_qr_scan", "android": "https://dc.lft.to/lastmile_qr_scan"}, "lon": -77.0364425, "type": "electric_scooter", "fusion_lat": 0.0, "lat": 38.913087166666664, "name": "b4775b4832a7c662ad6aa39ec7862393", "fusion_lon": 0.0, "bike_id": "b4775b4832a7c662ad6aa39ec7862393", "is_disabled": 0, "is_reserved": 0}, {"rental_uris": {"ios": "https://dc.lft.to/lastmile_qr_scan", "android": "https://dc.lft.to/lastmile_qr_scan"}, "lon": -76.94970383333333, "type": "electric_scooter", "fusion_lat": 0.0, "lat": 38.89374816666667, "name": "d31e7c823e22ae75a8c48ccd1505141f", "fusion_lon": 0.0, "bike_id": "d31e7c823e22ae75a8c48ccd1505141f", "is_disabled": 0, "is_reserved": 0}, {"rental_uris": {"ios": "https://dc.lft.to/lastmile_qr_scan", "android": "https://dc.lft.to/lastmile_qr_scan"}, "lon": -77.0375235, "type": "electric_scooter", "fusion_lat": 0.0, "lat": 38.914761166666665, "name": "7a93aacea41c78f2acf03522ee3f9317", "fusion_lon": 0.0, "bike_id": "7a93aacea41c78f2acf03522ee3f9317", "is_disabled": 0, "is_reserved": 0}, {"rental_uris": {"ios": "https://dc.lft.to/lastmile_qr_scan", "android": "https://dc.lft.to/lastmile_qr_scan"}, "lon": -77.0415085, "type": "electric_scooter", "fusion_lat": 0.0, "lat": 38.917873666666665, "name": "700dc8e29e1e8dda5309d1690e0ca3e5", "fusion_lon": 0.0, "bike_id": "700dc8e29e1e8dda5309d1690e0ca3e5", "is_disabled": 0, "is_reserved": 0}, {"rental_uris": {"ios": "https://dc.lft.to/lastmile_qr_scan", "android": "https://dc.lft.to/lastmile_qr_scan"}, "lon": -76.9802085, "type": "electric_scooter", "fusion_lat": 0.0, "lat": 38.903813166666666, "name": "7fb607a97067f1a3e1f7292cd388fb04", "fusion_lon": 0.0, "bike_id": "7fb607a97067f1a3e1f7292cd388fb04", "is_disabled": 0, "is_reserved": 0}, {"rental_uris": {"ios": "https://dc.lft.to/lastmile_qr_scan", "android": "https://dc.lft.to/lastmile_qr_scan"}, "lon": -77.0107585, "type": "electric_bike", "fusion_lat": 0.0, "lat": 38.962619333333336, "name": "4123866db2ea8bc607887ccd7c8b1129", "fusion_lon": 0.0, "bike_id": "4123866db2ea8bc607887ccd7c8b1129", "is_disabled": 0, "is_reserved": 0}, {"rental_uris": {"ios": "https://dc.lft.to/lastmile_qr_scan", "android": "https://dc.lft.to/lastmile_qr_scan"}, "lon": -77.0379915, "type": "electric_bike", "fusion_lat": 0.0, "lat": 38.930677333333335, "name": "63e5b1f74b0ce2bed2054daf101930f7", "fusion_lon": 0.0, "bike_id": "63e5b1f74b0ce2bed2054daf101930f7", "is_disabled": 0, "is_reserved": 0}, {"rental_uris": {"ios": "https://dc.lft.to/lastmile_qr_scan", "android": "https://dc.lft.to/lastmile_qr_scan"}, "lon": -77.02081916666667, "type": "electric_scooter", "fusion_lat": 0.0, "lat": 38.88185933333333, "name": "3b879c80dfe1f334165bec2becd106d8", "fusion_lon": 0.0, "bike_id": "3b879c80dfe1f334165bec2becd106d8", "is_disabled": 0, "is_reserved": 0}, {"rental_uris": {"ios": "https://dc.lft.to/lastmile_qr_scan", "android": "https://dc.lft.to/lastmile_qr_scan"}, "lon": -77.02109666666666, "type": "electric_scooter", "fusion_lat": 0.0, "lat": 38.894749833333336, "name": "07dc4c6e76f029fdc5300c11aee35a7b", "fusion_lon": 0.0, "bike_id": "07dc4c6e76f029fdc5300c11aee35a7b", "is_disabled": 0, "is_reserved": 0}, {"rental_uris": {"ios": "https://dc.lft.to/lastmile_qr_scan", "android": "https://dc.lft.to/lastmile_qr_scan"}, "lon": -77.02005633333333, "type": "electric_scooter", "fusion_lat": 0.0, "lat": 38.9026575, "name": "057b007633b7337b789d0395cb63b373", "fusion_lon": 0.0, "bike_id": "057b007633b7337b789d0395cb63b373", "is_disabled": 0, "is_reserved": 0}, {"rental_uris": {"ios": "https://dc.lft.to/lastmile_qr_scan", "android": "https://dc.lft.to/lastmile_qr_scan"}, "lon": -77.02602216666666, "type": "electric_scooter", "fusion_lat": 0.0, "lat": 38.97589116666666, "name": "509362545bf9821096494e3f50889ffc", "fusion_lon": 0.0, "bike_id": "509362545bf9821096494e3f50889ffc", "is_disabled": 0, "is_reserved": 0}, {"rental_uris": {"ios": "https://dc.lft.to/lastmile_qr_scan", "android": "https://dc.lft.to/lastmile_qr_scan"}, "lon": -77.05297416666667, "type": "electric_scooter", "fusion_lat": 0.0, "lat": 38.927911333333334, "name": "6b43e8eef01043915a6f2d9120570eca", "fusion_lon": 0.0, "bike_id": "6b43e8eef01043915a6f2d9120570eca", "is_disabled": 0, "is_reserved": 0}, {"rental_uris": {"ios": "https://dc.lft.to/lastmile_qr_scan", "android": "https://dc.lft.to/lastmile_qr_scan"}, "lon": -77.026885, "type": "electric_scooter", "fusion_lat": 0.0, "lat": 38.906437, "name": "950a00a25ced49cbd4b62cec77f5c502", "fusion_lon": 0.0, "bike_id": "950a00a25ced49cbd4b62cec77f5c502", "is_disabled": 0, "is_reserved": 0}, {"rental_uris": {"ios": "https://dc.lft.to/lastmile_qr_scan", "android": "https://dc.lft.to/lastmile_qr_scan"}, "lon": -77.0535375, "type": "electric_scooter", "fusion_lat": 0.0, "lat": 38.92793866666667, "name": "0f195594608d685913c57ebda2a2b0eb", "fusion_lon": 0.0, "bike_id": "0f195594608d685913c57ebda2a2b0eb", "is_disabled": 0, "is_reserved": 0}, {"rental_uris": {"ios": "https://dc.lft.to/lastmile_qr_scan", "android": "https://dc.lft.to/lastmile_qr_scan"}, "lon": -77.02392866666666, "type": "electric_scooter", "fusion_lat": 0.0, "lat": 38.9159155, "name": "d8d241a7216c72da890d0d89e259465c", "fusion_lon": 0.0, "bike_id": "d8d241a7216c72da890d0d89e259465c", "is_disabled": 0, "is_reserved": 0}, {"rental_uris": {"ios": "https://dc.lft.to/lastmile_qr_scan", "android": "https://dc.lft.to/lastmile_qr_scan"}, "lon": -77.0522025, "type": "electric_scooter", "fusion_lat": 0.0, "lat": 38.924968166666666, "name": "afce3e596c0ab30364d2ebfe0d9b1263", "fusion_lon": 0.0, "bike_id": "afce3e596c0ab30364d2ebfe0d9b1263", "is_disabled": 0, "is_reserved": 0}, {"rental_uris": {"ios": "https://dc.lft.to/lastmile_qr_scan", "android": "https://dc.lft.to/lastmile_qr_scan"}, "lon": -77.0269225, "type": "electric_scooter", "fusion_lat": 0.0, "lat": 38.90875, "name": "3564937e933c36637c7ed5c1d5891500", "fusion_lon": 0.0, "bike_id": "3564937e933c36637c7ed5c1d5891500", "is_disabled": 0, "is_reserved": 0}, {"rental_uris": {"ios": "https://dc.lft.to/lastmile_qr_scan", "android": "https://dc.lft.to/lastmile_qr_scan"}, "lon": -77.06631033333333, "type": "electric_scooter", "fusion_lat": 0.0, "lat": 38.913688666666665, "name": "c3b3d892dd839378278e55ef966ce73b", "fusion_lon": 0.0, "bike_id": "c3b3d892dd839378278e55ef966ce73b", "is_disabled": 0, "is_reserved": 0}, {"rental_uris": {"ios": "https://dc.lft.to/lastmile_qr_scan", "android": "https://dc.lft.to/lastmile_qr_scan"}, "lon": -77.01827333333334, "type": "electric_scooter", "fusion_lat": 0.0, "lat": 38.8771025, "name": "eb4d0b89b6a0f0776cb23cb0ea901ac9", "fusion_lon": 0.0, "bike_id": "eb4d0b89b6a0f0776cb23cb0ea901ac9", "is_disabled": 0, "is_reserved": 0}, {"rental_uris": {"ios": "https://dc.lft.to/lastmile_qr_scan", "android": "https://dc.lft.to/lastmile_qr_scan"}, "lon": -76.98374133333333, "type": "electric_scooter", "fusion_lat": 0.0, "lat": 38.8603335, "name": "ec3aef802518a135c6c88ea7561e209f", "fusion_lon": 0.0, "bike_id": "ec3aef802518a135c6c88ea7561e209f", "is_disabled": 0, "is_reserved": 0}, {"rental_uris": {"ios": "https://dc.lft.to/lastmile_qr_scan", "android": "https://dc.lft.to/lastmile_qr_scan"}, "lon": -77.04893283333334, "type": "electric_scooter", "fusion_lat": 0.0, "lat": 38.906056, "name": "79ab5b24da2191ee20f3bfe24bb6e740", "fusion_lon": 0.0, "bike_id": "79ab5b24da2191ee20f3bfe24bb6e740", "is_disabled": 0, "is_reserved": 0}, {"rental_uris": {"ios": "https://dc.lft.to/lastmile_qr_scan", "android": "https://dc.lft.to/lastmile_qr_scan"}, "lon": -77.12896733333334, "type": "electric_bike", "fusion_lat": 0.0, "lat": 38.863775833333335, "name": "1bbf5b0689c25d8cbc802dbe140bdb08", "fusion_lon": 0.0, "bike_id": "1bbf5b0689c25d8cbc802dbe140bdb08", "is_disabled": 0, "is_reserved": 0}, {"rental_uris": {"ios": "https://dc.lft.to/lastmile_qr_scan", "android": "https://dc.lft.to/lastmile_qr_scan"}, "lon": -77.051537, "type": "electric_scooter", "fusion_lat": 0.0, "lat": 38.89770516666667, "name": "35a4d610d99c3f244cbdf7126af107ba", "fusion_lon": 0.0, "bike_id": "35a4d610d99c3f244cbdf7126af107ba", "is_disabled": 0, "is_reserved": 0}, {"rental_uris": {"ios": "https://dc.lft.to/lastmile_qr_scan", "android": "https://dc.lft.to/lastmile_qr_scan"}, "lon": -77.04246133333334, "type": "electric_scooter", "fusion_lat": 0.0, "lat": 38.92068316666666, "name": "bfabba2258bc35dc2f47587e17029a59", "fusion_lon": 0.0, "bike_id": "bfabba2258bc35dc2f47587e17029a59", "is_disabled": 0, "is_reserved": 0}, {"rental_uris": {"ios": "https://dc.lft.to/lastmile_qr_scan", "android": "https://dc.lft.to/lastmile_qr_scan"}, "lon": -77.0338515, "type": "electric_scooter", "fusion_lat": 0.0, "lat": 38.886588, "name": "a53478a2c4281f03719375c05f820085", "fusion_lon": 0.0, "bike_id": "a53478a2c4281f03719375c05f820085", "is_disabled": 0, "is_reserved": 0}, {"rental_uris": {"ios": "https://dc.lft.to/lastmile_qr_scan", "android": "https://dc.lft.to/lastmile_qr_scan"}, "lon": -77.00641283333333, "type": "electric_scooter", "fusion_lat": 0.0, "lat": 38.91710666666667, "name": "fabb5b136952c2cd7fbf63a34e6ded17", "fusion_lon": 0.0, "bike_id": "fabb5b136952c2cd7fbf63a34e6ded17", "is_disabled": 0, "is_reserved": 0}, {"rental_uris": {"ios": "https://dc.lft.to/lastmile_qr_scan", "android": "https://dc.lft.to/lastmile_qr_scan"}, "lon": -77.02392266666666, "type": "electric_scooter", "fusion_lat": 0.0, "lat": 38.9159335, "name": "833e9ada7779be45c281ac37ec5ffb12", "fusion_lon": 0.0, "bike_id": "833e9ada7779be45c281ac37ec5ffb12", "is_disabled": 0, "is_reserved": 0}, {"rental_uris": {"ios": "https://dc.lft.to/lastmile_qr_scan", "android": "https://dc.lft.to/lastmile_qr_scan"},