{"data": {"bikes": [{"bike_id": "211b2951e4430e8cc7849bc01806f4f3", "fusion_lon": 0.0, "lon": -77.045954, "name": "211b2951e4430e8cc7849bc01806f4f3", "is_disabled": 0, "rental_uris": {"android": "https://dc.lft.to/lastmile_qr_scan", "ios": "https://dc.lft.to/lastmile_qr_scan"}, "type": "electric_scooter", "lat": 38.918636, "is_reserved": 0, "fusion_lat": 0.0}, {"bike_id": "34a9d50c876c1cb7314deaefa28adb64", "fusion_lon": 0.0, "lon": -77.00263183333334, "name": "34a9d50c876c1cb7314deaefa28adb64", "is_disabled": 0, "rental_uris": {"android": "https://dc.lft.to/lastmile_qr_scan", "ios": "https://dc.lft.to/lastmile_qr_scan"}, "type": "electric_scooter", "lat": 38.9057015, "is_reserved": 0, "fusion_lat": 0.0}, {"bike_id": "107b0afd16e6218ec239df38c6fbd240", "fusion_lon": 0.0, "lon": -76.9977715, "name": "107b0afd16e6218ec239df38c6fbd240", "is_disabled": 0, "rental_uris": {"android": "https://dc.lft.to/lastmile_qr_scan", "ios": "https://dc.lft.to/lastmile_qr_scan"}, "type": "electric_scooter", "lat": 38.84422983333333, "is_reserved": 0, "fusion_lat": 0.0}, {"bike_id": "6739cf61daaeb498f09d2fce33c2f520", "fusion_lon": 0.0, "lon": -76.95754733333334, "name": "6739cf61daaeb498f09d2fce33c2f520", "is_disabled": 0, "rental_uris": {"android": "https://dc.lft.to/lastmile_qr_scan", "ios": "https://dc.lft.to/lastmile_qr_scan"}, "type": "electric_scooter", "lat": 38.88430183333333, "is_reserved": 0, "fusion_lat": 0.0}, {"bike_id": "506bcc6ac49cbf81157999c8e05f5055", "fusion_lon": 0.0, "lon": -77.10600233333334, "name": "506bcc6ac49cbf81157999c8e05f5055", "is_disabled": 0, "rental_uris": {"android": "https://dc.lft.to/lastmile_qr_scan", "ios": "https://dc.lft.to/lastmile_qr_scan"}, "type": "electric_bike", "lat": 38.92898916666667, "is_reserved": 0, "fusion_lat": 0.0}, {"bike_id": "447336cd83b651115afae1ece46b011d", "fusion_lon": 0.0, "lon": -77.03468866666667, "name": "447336cd83b651115afae1ece46b011d", "is_disabled": 0, "rental_uris": {"android": "https://dc.lft.to/lastmile_qr_scan", "ios": "https://dc.lft.to/lastmile_qr_scan"}, "type": "electric_scooter", "lat": 38.905657166666664, "is_reserved": 0, "fusion_lat": 0.0}, {"bike_id": "2f43989d1bf37d0cf9493332de8f5205", "fusion_lon": 0.0, "lon": -77.01585233333333, "name": "2f43989d1bf37d0cf9493332de8f5205", "is_disabled": 0, "rental_uris": {"android": "https://dc.lft.to/lastmile_qr_scan", "ios": "https://dc.lft.to/lastmile_qr_scan"}, "type": "electric_scooter", "lat": 38.916779, "is_reserved": 0, "fusion_lat": 0.0}, {"bike_id": "ea7b9e7cf4407d92accd3cd46aaa0fb9", "fusion_lon": 0.0, "lon": -76.94969216666667, "name": "ea7b9e7cf4407d92accd3cd46aaa0fb9", "is_disabled": 0, "rental_uris": {"android": "https://dc.lft.to/lastmile_qr_scan", "ios": "https://dc.lft.to/lastmile_qr_scan"}, "type": "electric_scooter", "lat": 38.8936135, "is_reserved": 0, "fusion_lat": 0.0}, {"bike_id": "ee2dfd1b7fe32a30b55f06bee6d33bf1", "fusion_lon": 0.0, "lon": -77.04865916666667, "name": "ee2dfd1b7fe32a30b55f06bee6d33bf1", "is_disabled": 0, "rental_uris": {"android": "https://dc.lft.to/lastmile_qr_scan", "ios": "https://dc.lft.to/lastmile_qr_scan"}, "type": "electric_scooter", "lat": 38.91523766666667, "is_reserved": 0, "fusion_lat": 0.0}, {"bike_id": "dfb99f9e451ae97fbaa4bbee0eb64e6c", "fusion_lon": 0.0, "lon": -76.980719, "name": "dfb99f9e451ae97fbaa4bbee0eb64e6c", "is_disabled": 0, "rental_uris": {"android": "https://dc.lft.to/lastmile_qr_scan", "ios": "https://dc.lft.to/lastmile_qr_scan"}, "type": "electric_scooter", "lat": 38.90173766666667, "is_reserved": 0, "fusion_lat": 0.0}, {"bike_id": "3b6cac67def527f954fcc79a5dfebbec", "fusion_lon": 0.0, "lon": -77.001074, "name": "3b6cac67def527f954fcc79a5dfebbec", "is_disabled": 0, "rental_uris": {"android": "https://dc.lft.to/lastmile_qr_scan", "ios": "https://dc.lft.to/lastmile_qr_scan"}, "type": "electric_scooter", "lat": 38.87656616666666, "is_reserved": 0, "fusion_lat": 0.0}, {"bike_id": "7c6395ea44d04bd6b54d3577def57b66", "fusion_lon": 0.0, "lon": -77.02127033333333, "name": "7c6395ea44d04bd6b54d3577def57b66", "is_disabled": 0, "rental_uris": {"android": "https://dc.lft.to/lastmile_qr_scan", "ios": "https://dc.lft.to/lastmile_qr_scan"}, "type": "electric_scooter", "lat": 38.88743783333334, "is_reserved": 0, "fusion_lat": 0.0}, {"bike_id": "ccda93fcac98741d9843a77b13f19631", "fusion_lon": 0.0, "lon": -77.04479283333333, "name": "ccda93fcac98741d9843a77b13f19631", "is_disabled": 0, "rental_uris": {"android": "https://dc.lft.to/lastmile_qr_scan", "ios": "https://dc.lft.to/lastmile_qr_scan"}, "type": "electric_scooter", "lat": 38.911631166666666, "is_reserved": 0, "fusion_lat": 0.0}, {"bike_id": "c994bdcb5443d71882c1d2595a194ef1", "fusion_lon": 0.0, "lon": -77.03881433333333, "name": "c994bdcb5443d71882c1d2595a194ef1", "is_disabled": 0, "rental_uris": {"android": "https://dc.lft.to/lastmile_qr_scan", "ios": "https://dc.lft.to/lastmile_qr_scan"}, "type": "electric_scooter", "lat": 38.9170865, "is_reserved": 0, "fusion_lat": 0.0}, {"bike_id": "3d8b3c283f91adc02727ae26839f35e3", "fusion_lon": 0.0, "lon": -76.932323, "name": "3d8b3c283f91adc02727ae26839f35e3", "is_disabled": 0, "rental_uris": {"android": "https://dc.lft.to/lastmile_qr_scan", "ios": "https://dc.lft.to/lastmile_qr_scan"}, "type": "electric_bike", "lat": 38.86595716666667, "is_reserved": 0, "fusion_lat": 0.0}, {"bike_id": "270e653741b43974b862027ff8a7b55d", "fusion_lon": 0.0, "lon": -77.034035, "name": "270e653741b43974b862027ff8a7b55d", "is_disabled": 0, "rental_uris": {"android": "https://dc.lft.to/lastmile_qr_scan", "ios": "https://dc.lft.to/lastmile_qr_scan"}, "type": "electric_scooter", "lat": 38.919687333333336, "is_reserved": 0, "fusion_lat": 0.0}, {"bike_id": "9c7b4593197c0ffdd779559e473d6396", "fusion_lon": 0.0, "lon": -77.036763, "name": "9c7b4593197c0ffdd779559e473d6396", "is_disabled": 0, "rental_uris": {"android": "https://dc.lft.to/lastmile_qr_scan", "ios": "https://dc.lft.to/lastmile_qr_scan"}, "type": "electric_scooter", "lat": 38.91710616666667, "is_reserved": 0, "fusion_lat": 0.0}, {"bike_id": "515394990f2036eec68d1278810fa8db", "fusion_lon": 0.0, "lon": -77.03490766666667, "name": "515394990f2036eec68d1278810fa8db", "is_disabled": 0, "rental_uris": {"android": "https://dc.lft.to/lastmile_qr_scan", "ios": "https://dc.lft.to/lastmile_qr_scan"}, "type": "electric_bike", "lat": 38.9353885, "is_reserved": 0, "fusion_lat": 0.0}, {"bike_id": "677e652a58fb53f40f3f357a7dc6ffdb", "fusion_lon": 0.0, "lon": -77.0174585, "name": "677e652a58fb53f40f3f357a7dc6ffdb", "is_disabled": 0, "rental_uris": {"android": "https://dc.lft.to/lastmile_qr_scan", "ios": "https://dc.lft.to/lastmile_qr_scan"}, "type": "electric_scooter", "lat": 38.8833335, "is_reserved": 0, "fusion_lat": 0.0}, {"bike_id": "11b1987a85a0ebce6691163fcc7c950a", "fusion_lon": 0.0, "lon": -77.02888566666667, "name": "11b1987a85a0ebce6691163fcc7c950a", "is_disabled": 0, "rental_uris": {"android": "https://dc.lft.to/lastmile_qr_scan", "ios": "https://dc.lft.to/lastmile_qr_scan"}, "type": "electric_scooter", "lat": 38.904486, "is_reserved": 0, "fusion_lat": 0.0}, {"bike_id": "c1cf313271301c608566fada24261614", "fusion_lon": 0.0, "lon": -77.03420383333334, "name": "c1cf313271301c608566fada24261614", "is_disabled": 0, "rental_uris": {"android": "https://dc.lft.to/lastmile_qr_scan", "ios": "https://dc.lft.to/lastmile_qr_scan"}, "type": "electric_scooter", "lat": 38.919196, "is_reserved": 0, "fusion_lat": 0.0}, {"bike_id": "e36d44608cde469766d402eaf14f270c", "fusion_lon": 0.0, "lon": -77.03006566666667, "name": "e36d44608cde469766d402eaf14f270c", "is_disabled": 0, "rental_uris": {"android": "https://dc.lft.to/lastmile_qr_scan", "ios": "https://dc.lft.to/lastmile_qr_scan"}, "type": "electric_scooter", "lat": 38.91721016666666, "is_reserved": 0, "fusion_lat": 0.0}, {"bike_id": "45033eb927ce60eeaaad10d3f6290352", "fusion_lon": 0.0, "lon": -77.02183816666667, "name": "45033eb927ce60eeaaad10d3f6290352", "is_disabled": 0, "rental_uris": {"android": "https://dc.lft.to/lastmile_qr_scan", "ios": "https://dc.lft.to/lastmile_qr_scan"}, "type": "electric_scooter", "lat": 38.914267, "is_reserved": 0, "fusion_lat": 0.0}, {"bike_id": "6767bca578bc00d6010181bc16c0db88", "fusion_lon": 0.0, "lon": -76.990299, "name": "6767bca578bc00d6010181bc16c0db88", "is_disabled": 0, "rental_uris": {"android": "https://dc.lft.to/lastmile_qr_scan", "ios": "https://dc.lft.to/lastmile_qr_scan"}, "type": "electric_scooter", "lat": 38.865217333333334, "is_reserved": 0, "fusion_lat": 0.0}, {"bike_id": "3c00024877f76e1855868b179f2f6912", "fusion_lon": 0.0, "lon": -77.02340533333333, "name": "3c00024877f76e1855868b179f2f6912", "is_disabled": 0, "rental_uris": {"android": "https://dc.lft.to/lastmile_qr_scan", "ios": "https://dc.lft.to/lastmile_qr_scan"}, "type": "electric_scooter", "lat": 38.90727616666667, "is_reserved": 0, "fusion_lat": 0.0}, {"bike_id": "f1a5e7c85219cc5991c9615a1c031175", "fusion_lon": 0.0, "lon": -77.12963633333334, "name": "f1a5e7c85219cc5991c9615a1c031175", "is_disabled": 0, "rental_uris": {"android": "https://dc.lft.to/lastmile_qr_scan", "ios": "https://dc.lft.to/lastmile_qr_scan"}, "type": "electric_bike", "lat": 38.8522115, "is_reserved": 0, "fusion_lat": 0.0}, {"bike_id": "eac476076b7a8981be01489a54e9caa7", "fusion_lon": 0.0, "lon": -77.05523433333333, "name": "eac476076b7a8981be01489a54e9caa7", "is_disabled": 0, "rental_uris": {"android": "https://dc.lft.to/lastmile_qr_scan", "ios": "https://dc.lft.to/lastmile_qr_scan"}, "type": "electric_scooter", "lat": 38.89729416666667, "is_reserved": 0, "fusion_lat": 0.0}, {"bike_id": "77f4cef60b9ea7c942375693caca0b62", "fusion_lon": 0.0, "lon": -77.01492566666667, "name": "77f4cef60b9ea7c942375693caca0b62", "is_disabled": 0, "rental_uris": {"android": "https://dc.lft.to/lastmile_qr_scan", "ios": "https://dc.lft.to/lastmile_qr_scan"}, "type": "electric_scooter", "lat": 38.876697166666666, "is_reserved": 0, "fusion_lat": 0.0}, {"bike_id": "f3d328dbf45b33432ea438bf3f38f5d8", "fusion_lon": 0.0, "lon": -77.0311645, "name": "f3d328dbf45b33432ea438bf3f38f5d8", "is_disabled": 0, "rental_uris": {"android": "https://dc.lft.to/lastmile_qr_scan", "ios": "https://dc.lft.to/lastmile_qr_scan"}, "type": "electric_scooter", "lat": 38.919211, "is_reserved": 0, "fusion_lat": 0.0}, {"bike_id": "35015062778e20c5a45097c233330e94", "fusion_lon": 0.0, "lon": -77.03088533333333, "name": "35015062778e20c5a45097c233330e94", "is_disabled": 0, "rental_uris": {"android": "https://dc.lft.to/lastmile_qr_scan", "ios": "https://dc.lft.to/lastmile_qr_scan"}, "type": "electric_scooter", "lat": 38.922488333333334, "is_reserved": 0, "fusion_lat": 0.0}, {"bike_id": "1f1390a6bba2341460582f11bd09ffeb", "fusion_lon": 0.0, "lon": -77.00583266666666, "name": "1f1390a6bba2341460582f11bd09ffeb", "is_disabled": 0, "rental_uris": {"android": "https://dc.lft.to/lastmile_qr_scan", "ios": "https://dc.lft.to/lastmile_qr_scan"}, "type": "electric_scooter", "lat": 38.9057235, "is_reserved": 0, "fusion_lat": 0.0}, {"bike_id": "4b8bea2a2f9de44c99e325a4e914ea03", "fusion_lon": 0.0, "lon": -77.0283585, "name": "4b8bea2a2f9de44c99e325a4e914ea03", "is_disabled": 0, "rental_uris": {"android": "https://dc.lft.to/lastmile_qr_scan", "ios": "https://dc.lft.to/lastmile_qr_scan"}, "type": "electric_scooter", "lat": 38.924798, "is_reserved": 0, "fusion_lat": 0.0}, {"bike_id": "c4f2896af89a8adf365ebc96bc1d928b", "fusion_lon": 0.0, "lon": -77.036639, "name": "c4f2896af89a8adf365ebc96bc1d928b", "is_disabled": 0, "rental_uris": {"android": "https://dc.lft.to/lastmile_qr_scan", "ios": "https://dc.lft.to/lastmile_qr_scan"}, "type": "electric_scooter", "lat": 38.93626733333333, "is_reserved": 0, "fusion_lat": 0.0}, {"bike_id": "f5d059457260e151b93d587cb2255d82", "fusion_lon": 0.0, "lon": -77.01142216666666, "name": "f5d059457260e151b93d587cb2255d82", "is_disabled": 0, "rental_uris": {"android": "https://dc.lft.to/lastmile_qr_scan", "ios": "https://dc.lft.to/lastmile_qr_scan"}, "type": "electric_scooter", "lat": 38.906408, "is_reserved": 0, "fusion_lat": 0.0}, {"bike_id": "61e006c784f9e69efee67de14505e97e", "fusion_lon": 0.0, "lon": -77.0319805, "name": "61e006c784f9e69efee67de14505e97e", "is_disabled": 0, "rental_uris": {"android": "https://dc.lft.to/lastmile_qr_scan", "ios": "https://dc.lft.to/lastmile_qr_scan"}, "type": "electric_scooter", "lat": 38.91594116666667, "is_reserved": 0, "fusion_lat": 0.0}, {"bike_id": "689e751616957db937abaae8a0778f1c", "fusion_lon": 0.0, "lon": -77.01451383333334, "name": "689e751616957db937abaae8a0778f1c", "is_disabled": 0, "rental_uris": {"android": "https://dc.lft.to/lastmile_qr_scan", "ios": "https://dc.lft.to/lastmile_qr_scan"}, "type": "electric_scooter", "lat": 38.917823166666665, "is_reserved": 0, "fusion_lat": 0.0}, {"bike_id": "9b3f22a148a8f2ac7f537b329bc5662e", "fusion_lon": 0.0, "lon": -77.1131755, "name": "9b3f22a148a8f2ac7f537b329bc5662e", "is_disabled": 0, "rental_uris": {"android": "https://dc.lft.to/lastmile_qr_scan", "ios": "https://dc.lft.to/lastmile_qr_scan"}, "type": "electric_bike", "lat": 38.831546833333334, "is_reserved": 0, "fusion_lat": 0.0}, {"bike_id": "3e8c8965b270918fca7c692dbf7d2b5d", "fusion_lon": 0.0, "lon": -77.20843316666667, "name": "3e8c8965b270918fca7c692dbf7d2b5d", "is_disabled": 0, "rental_uris": {"android": "https://dc.lft.to/lastmile_qr_scan", "ios": "https://dc.lft.to/lastmile_qr_scan"}, "type": "electric_bike", "lat": 38.9246775, "is_reserved": 0, "fusion_lat": 0.0}, {"bike_id": "eb642914cb5bf0c4ff93ac97c99d622c", "fusion_lon": 0.0, "lon": -77.02037983333334, "name": "eb642914cb5bf0c4ff93ac97c99d622c", "is_disabled": 0, "rental_uris": {"android": "https://dc.lft.to/lastmile_qr_scan", "ios": "https://dc.lft.to/lastmile_qr_scan"}, "type": "electric_scooter", "lat": 38.908423, "is_reserved": 0, "fusion_lat": 0.0}, {"bike_id": "4afe1291e3cf8526aa74153918e3de4e", "fusion_lon": 0.0, "lon": -76.997168, "name": "4afe1291e3cf8526aa74153918e3de4e", "is_disabled": 0, "rental_uris": {"android": "https://dc.lft.to/lastmile_qr_scan", "ios": "https://dc.lft.to/lastmile_qr_scan"}, "type": "electric_scooter", "lat": 38.922063666666666, "is_reserved": 0, "fusion_lat": 0.0}, {"bike_id": "95f208610e0ad31109f8aaa529410055", "fusion_lon": 0.0, "lon": -76.98040283333333, "name": "95f208610e0ad31109f8aaa529410055", "is_disabled": 0, "rental_uris": {"android": "https://dc.lft.to/lastmile_qr_scan", "ios": "https://dc.lft.to/lastmile_qr_scan"}, "type": "electric_scooter", "lat": 38.853317, "is_reserved": 0, "fusion_lat": 0.0}, {"bike_id": "a54d1fee6d35fee03ba14a2964655eb3", "fusion_lon": 0.0, "lon": -76.99267283333333, "name": "a54d1fee6d35fee03ba14a2964655eb3", "is_disabled": 0, "rental_uris": {"android": "https://dc.lft.to/lastmile_qr_scan", "ios": "https://dc.lft.to/lastmile_qr_scan"}, "type": "electric_scooter", "lat": 38.903948666666665, "is_reserved": 0, "fusion_lat": 0.0}, {"bike_id": "5b1716fc45ba62904f5a7bb6a0a01c55", "fusion_lon": 0.0, "lon": -77.11309133333333, "name": "5b1716fc45ba62904f5a7bb6a0a01c55", "is_disabled": 0, "rental_uris": {"android": "https://dc.lft.to/lastmile_qr_scan", "ios": "https://dc.lft.to/lastmile_qr_scan"}, "type": "electric_bike", "lat": 38.8556535, "is_reserved": 0, "fusion_lat": 0.0}, {"bike_id": "6dfef2a344910f1c1f993338da756718", "fusion_lon": 0.0, "lon": -77.0487185, "name": "6dfef2a344910f1c1f993338da756718", "is_disabled": 0, "rental_uris": {"android": "https://dc.lft.to/lastmile_qr_scan", "ios": "https://dc.lft.to/lastmile_qr_scan"}, "type": "electric_scooter", "lat": 38.892222333333336, "is_reserved": 0, "fusion_lat": 0.0}, {"bike_id": "1782716de0100c830b3dd1f6cccb4f66", "fusion_lon": 0.0, "lon": -77.01951016666666, "name": "1782716de0100c830b3dd1f6cccb4f66", "is_disabled": 0, "rental_uris": {"android": "https://dc.lft.to/lastmile_qr_scan", "ios": "https://dc.lft.to/lastmile_qr_scan"}, "type": "electric_scooter", "lat": 38.924230666666666, "is_reserved": 0, "fusion_lat": 0.0}, {"bike_id": "04ab8621fe756b24348d0c5c8a840435", "fusion_lon": 0.0, "lon": -77.047088, "name": "04ab8621fe756b24348d0c5c8a840435", "is_disabled": 0, "rental_uris": {"android": "https://dc.lft.to/lastmile_qr_scan", "ios": "https://dc.lft.to/lastmile_qr_scan"}, "type": "electric_scooter", "lat": 38.92103783333334, "is_reserved": 0, "fusion_lat": 0.0}, {"bike_id": "d11088b27ff7989e5f9a3ecb93abfd29", "fusion_lon": 0.0, "lon": -77.0241065, "name": "d11088b27ff7989e5f9a3ecb93abfd29", "is_disabled": 0, "rental_uris": {"android": "https://dc.lft.to/lastmile_qr_scan", "ios": "https://dc.lft.to/lastmile_qr_scan"}, "type": "electric_scooter", "lat": 38.9175005, "is_reserved": 0, "fusion_lat": 0.0}, {"bike_id": "38fad2c75bc704dd5f2a51fd7bef2ad5", "fusion_lon": 0.0, "lon": -77.03375983333333, "name": "38fad2c75bc704dd5f2a51fd7bef2ad5", "is_disabled": 0, "rental_uris": {"android": "https://dc.lft.to/lastmile_qr_scan", "ios": "https://dc.lft.to/lastmile_qr_scan"}, "type": "electric_scooter", "lat": 38.928983333333335, "is_reserved": 0, "fusion_lat": 0.0}, {"bike_id": "5c5e7b39791efa4add4891e624829d89", "fusion_lon": 0.0, "lon": -77.02345533333333, "name": "5c5e7b39791efa4add4891e624829d89", "is_disabled": 0, "rental_uris": {"android": "https://dc.lft.to/lastmile_qr_scan", "ios": "https://dc.lft.to/lastmile_qr_scan"}, "type": "electric_scooter", "lat": 38.946113833333335, "is_reserved": 0, "fusion_lat": 0.0}, {"bike_id": "e665bafee66512cd3b2ed51908a03bbc", "fusion_lon": 0.0, "lon": -77.0324305, "name": "e665bafee66512cd3b2ed51908a03bbc", "is_disabled": 0, "rental_uris": {"android": "https://dc.lft.to/lastmile_qr_scan", "ios": "https://dc.lft.to/lastmile_qr_scan"}, "type": "electric_scooter", "lat": 38.92356733333333, "is_reserved": 0, "fusion_lat": 0.0}, {"bike_id": "d9e37ae9d18a9598f4f658bd8da298ad", "fusion_lon": 0.0, "lon": -77.01757883333333, "name": "d9e37ae9d18a9598f4f658bd8da298ad", "is_disabled": 0, "rental_uris": {"android": "https://dc.lft.to/lastmile_qr_scan", "ios": "https://dc.lft.to/lastmile_qr_scan"}, "type": "electric_scooter", "lat": 38.883264, "is_reserved": 0, "fusion_lat": 0.0}, {"bike_id": "da01963de5248b51d9201d8525523530", "fusion_lon": 0.0, "lon": -76.986343, "name": "da01963de5248b51d9201d8525523530", "is_disabled": 0, "rental_uris": {"android": "https://dc.lft.to/lastmile_qr_scan", "ios": "https://dc.lft.to/lastmile_qr_scan"}, "type": "electric_scooter", "lat": 38.880416333333336, "is_reserved": 0, "fusion_lat": 0.0}, {"bike_id": "294f0b38969758a6b87243a4dab860ee", "fusion_lon": 0.0, "lon": -77.027991, "name": "294f0b38969758a6b87243a4dab860ee", "is_disabled": 0, "rental_uris": {"android": "https://dc.lft.to/lastmile_qr_scan", "ios": "https://dc.lft.to/lastmile_qr_scan"}, "type": "electric_scooter", "lat": 38.92972616666667, "is_reserved": 0, "fusion_lat": 0.0}, {"bike_id": "d1181d2e2cb0fd2087725066a88888ca", "fusion_lon": 0.0, "lon": -77.02509783333333, "name": "d1181d2e2cb0fd2087725066a88888ca", "is_disabled": 0, "rental_uris": {"android": "https://dc.lft.to/lastmile_qr_scan", "ios": "https://dc.lft.to/lastmile_qr_scan"}, "type": "electric_scooter", "lat": 38.92097966666667, "is_reserved": 0, "fusion_lat": 0.0}, {"bike_id": "22d1653bf922348097078f31db84f567", "fusion_lon": 0.0, "lon": -77.027309, "name": "22d1653bf922348097078f31db84f567", "is_disabled": 0, "rental_uris": {"android": "https://dc.lft.to/lastmile_qr_scan", "ios": "https://dc.lft.to/lastmile_qr_scan"}, "type": "electric_bike", "lat": 38.94556566666667, "is_reserved": 0, "fusion_lat": 0.0}, {"bike_id": "d09f751574a8d1dd5ba9446a45b3d751", "fusion_lon": 0.0, "lon": -76.9772835, "name": "d09f751574a8d1dd5ba9446a45b3d751", "is_disabled": 0, "rental_uris": {"android": "https://dc.lft.to/lastmile_qr_scan", "ios": "https://dc.lft.to/lastmile_qr_scan"}, "type": "electric_scooter", "lat": 38.89512366666666, "is_reserved": 0, "fusion_lat": 0.0}, {"bike_id": "8fa016278cefb67e226213182be89c32", "fusion_lon": 0.0, "lon": -77.0158095, "name": "8fa016278cefb67e226213182be89c32", "is_disabled": 0, "rental_uris": {"android": "https://dc.lft.to/lastmile_qr_scan", "ios": "https://dc.lft.to/lastmile_qr_scan"}, "type": "electric_scooter", "lat": 38.8917975, "is_reserved": 0, "fusion_lat": 0.0}, {"bike_id": "d48cf0df8ff1c9d96e720358af8ed1c0", "fusion_lon": 0.0, "lon": -77.07351083333333, "name": "d48cf0df8ff1c9d96e720358af8ed1c0", "is_disabled": 0, "rental_uris": {"android": "https://dc.lft.to/lastmile_qr_scan", "ios": "https://dc.lft.to/lastmile_qr_scan"}, "type": "electric_bike", "lat": 38.93059316666667, "is_reserved": 0, "fusion_lat": 0.0}, {"bike_id": "51c918282e29016a7c1ac7835b1ce84e", "fusion_lon": 0.0, "lon": -77.02377033333333, "name": "51c918282e29016a7c1ac7835b1ce84e", "is_disabled": 0, "rental_uris": {"android": "https://dc.lft.to/lastmile_qr_scan", "ios": "https://dc.lft.to/lastmile_qr_scan"}, "type": "electric_scooter", "lat": 38.903756, "is_reserved": 0, "fusion_lat": 0.0}, {"bike_id": "13990baa42d3669cf495894e17b8c00e", "fusion_lon": 0.0, "lon": -77.05422466666667, "name": "13990baa42d3669cf495894e17b8c00e", "is_disabled": 0, "rental_uris": {"android": "https://dc.lft.to/lastmile_qr_scan", "ios": "https://dc.lft.to/lastmile_qr_scan"}, "type": "electric_bike", "lat": 38.935171, "is_reserved": 0, "fusion_lat": 0.0}, {"bike_id": "50e45b9ea8131c5785fd97dd1d63546a", "fusion_lon": 0.0, "lon": -77.04145333333334, "name": "50e45b9ea8131c5785fd97dd1d63546a", "is_disabled": 0, "rental_uris": {"android": "https://dc.lft.to/lastmile_qr_scan", "ios": "https://dc.lft.to/lastmile_qr_scan"}, "type": "electric_scooter", "lat": 38.92642933333333, "is_reserved": 0, "fusion_lat": 0.0}, {"bike_id": "20e3998bd2cd07226306efaca4d538fd", "fusion_lon": 0.0, "lon": -76.92336, "name": "20e3998bd2cd07226306efaca4d538fd", "is_disabled": 0, "rental_uris": {"android": "https://dc.lft.to/lastmile_qr_scan", "ios": "https://dc.lft.to/lastmile_qr_scan"}, "type": "electric_bike", "lat": 38.8710955, "is_reserved": 0, "fusion_lat": 0.0}, {"bike_id": "26efcd8e8f6dc9a26cd756279d50b81f", "fusion_lon": 0.0, "lon": -77.0131205, "name": "26efcd8e8f6dc9a26cd756279d50b81f", "is_disabled": 0, "rental_uris": {"android": "https://dc.lft.to/lastmile_qr_scan", "ios": "https://dc.lft.to/lastmile_qr_scan"}, "type": "electric_scooter", "lat": 38.9013405, "is_reserved": 0, "fusion_lat": 0.0}, {"bike_id": "7e44b21835a2afb54055a7685b7c966f", "fusion_lon": 0.0, "lon": -77.05783983333333, "name": "7e44b21835a2afb54055a7685b7c966f", "is_disabled": 0, "rental_uris": {"android": "https://dc.lft.to/lastmile_qr_scan", "ios": "https://dc.lft.to/lastmile_qr_scan"}, "type": "electric_scooter", "lat": 38.900991833333336, "is_reserved": 0, "fusion_lat": 0.0}, {"bike_id": "1341ae0c67b3b6dbf3ff647e16e19b42", "fusion_lon": 0.0, "lon": -77.02888166666666, "name": "1341ae0c67b3b6dbf3ff647e16e19b42", "is_disabled": 0, "rental_uris": {"android": "https://dc.lft.to/lastmile_qr_scan", "ios": "https://dc.lft.to/lastmile_qr_scan"}, "type": "electric_scooter", "lat": 38.90429, "is_reserved": 0, "fusion_lat": 0.0}, {"bike_id": "5565ec248397c7677bf9f11fc1c276ff", "fusion_lon": 0.0, "lon": -77.023958, "name": "5565ec248397c7677bf9f11fc1c276ff", "is_disabled": 0, "rental_uris": {"android": "https://dc.lft.to/lastmile_qr_scan", "ios": "https://dc.lft.to/lastmile_qr_scan"}, "type": "electric_scooter", "lat": 38.907389, "is_reserved": 0, "fusion_lat": 0.0}, {"bike_id": "b572eb6147b8f384b9f636257acb2888", "fusion_lon": 0.0, "lon": -77.0383875, "name": "b572eb6147b8f384b9f636257acb2888", "is_disabled": 0, "rental_uris": {"android": "https://dc.lft.to/lastmile_qr_scan", "ios": "https://dc.lft.to/lastmile_qr_scan"}, "type": "electric_scooter", "lat": 38.9095995, "is_reserved": 0, "fusion_lat": 0.0}, {"bike_id": "00b98c043fe14414a8bcd8bc3d5b23bb", "fusion_lon": 0.0, "lon": -77.12482183333333, "name": "00b98c043fe14414a8bcd8bc3d5b23bb", "is_disabled": 0, "rental_uris": {"android": "https://dc.lft.to/lastmile_qr_scan", "ios": "https://dc.lft.to/lastmile_qr_scan"}, "type": "electric_bike", "lat": 38.85395483333333, "is_reserved": 0, "fusion_lat": 0.0}, {"bike_id": "7ae8cf92cff606771a83eb4fb2b39934", "fusion_lon": 0.0, "lon": -77.00569633333333, "name": "7ae8cf92cff606771a83eb4fb2b39934", "is_disabled": 0, "rental_uris": {"android": "https://dc.lft.to/lastmile_qr_scan", "ios": "https://dc.lft.to/lastmile_qr_scan"}, "type": "electric_scooter", "lat": 38.8850375, "is_reserved": 0, "fusion_lat": 0.0}, {"bike_id": "077aa12583b8c21c49e7aa34b393db07", "fusion_lon": 0.0, "lon": -77.0374085, "name": "077aa12583b8c21c49e7aa34b393db07", "is_disabled": 0, "rental_uris": {"android": "https://dc.lft.to/lastmile_qr_scan", "ios": "https://dc.lft.to/lastmile_qr_scan"}, "type": "electric_scooter", "lat": 38.916199, "is_reserved": 0, "fusion_lat": 0.0}, {"bike_id": "2ab1d612130ce127a4c4f19f23c39c42", "fusion_lon": 0.0, "lon": -77.03256833333333, "name": "2ab1d612130ce127a4c4f19f23c39c42", "is_disabled": 0, "rental_uris": {"android": "https://dc.lft.to/lastmile_qr_scan", "ios": "https://dc.lft.to/lastmile_qr_scan"}, "type": "electric_scooter", "lat": 38.915569833333336, "is_reserved": 0, "fusion_lat": 0.0}, {"bike_id": "68540f88615495cf3541138e7ccd6c4b", "fusion_lon": 0.0, "lon": -76.97597983333333, "name": "68540f88615495cf3541138e7ccd6c4b", "is_disabled": 0, "rental_uris": {"android": "https://dc.lft.to/lastmile_qr_scan", "ios": "https://dc.lft.to/lastmile_qr_scan"}, "type": "electric_scooter", "lat": 38.88411383333333, "is_reserved": 0, "fusion_lat": 0.0}, {"bike_id": "e4d83b53b67954085ccf918310b0366a", "fusion_lon": 0.0, "lon": -76.97536466666666, "name": "e4d83b53b67954085ccf918310b0366a", "is_disabled": 0, "rental_uris": {"android": "https://dc.lft.to/lastmile_qr_scan", "ios": "https://dc.lft.to/lastmile_qr_scan"}, "type": "electric_bike", "lat": 38.84013983333333, "is_reserved": 0, "fusion_lat": 0.0}, {"bike_id": "1b454a82beb8b1d54871a7f5b4448bef", "fusion_lon": 0.0, "lon": -77.0418515, "name": "1b454a82beb8b1d54871a7f5b4448bef", "is_disabled": 0, "rental_uris": {"android": "https://dc.lft.to/lastmile_qr_scan", "ios": "https://dc.lft.to/lastmile_qr_scan"}, "type": "electric_scooter", "lat": 38.92040166666666, "is_reserved": 0, "fusion_lat": 0.0}, {"bike_id": "7d70aca800758c563a0dce66e4a200f9", "fusion_lon": 0.0, "lon": -77.02711566666666, "name": "7d70aca800758c563a0dce66e4a200f9", "is_disabled": 0, "rental_uris": {"android": "https://dc.lft.to/lastmile_qr_scan", "ios": "https://dc.lft.to/lastmile_qr_scan"}, "type": "electric_scooter", "lat": 38.922347333333335, "is_reserved": 0, "fusion_lat": 0.0}, {"bike_id": "547389bf80da8264648bd2cb057792b0", "fusion_lon": 0.0, "lon": -77.00318066666667, "name": "547389bf80da8264648bd2cb057792b0", "is_disabled": 0, "rental_uris": {"android": "https://dc.lft.to/lastmile_qr_scan", "ios": "https://dc.lft.to/lastmile_qr_scan"}, "type": "electric_scooter", "lat": 38.90121033333333, "is_reserved": 0, "fusion_lat": 0.0}, {"bike_id": "84b9f7153baf9255b725491652a14c34", "fusion_lon": 0.0, "lon": -77.02338516666667, "name": "84b9f7153baf9255b725491652a14c34", "is_disabled": 0, "rental_uris": {"android": "https://dc.lft.to/lastmile_qr_scan", "ios": "https://dc.lft.to/lastmile_qr_scan"}, "type": "electric_scooter", "lat": 38.9446885, "is_reserved": 0, "fusion_lat": 0.0}, {"bike_id": "b05621e361d79b3a80fe97f0fbe16845", "fusion_lon": 0.0, "lon": -77.02796333333333, "name": "b05621e361d79b3a80fe97f0fbe16845", "is_disabled": 0, "rental_uris": {"android": "https://dc.lft.to/lastmile_qr_scan", "ios": "https://dc.lft.to/lastmile_qr_scan"}, "type": "electric_scooter", "lat": 38.930775, "is_reserved": 0, "fusion_lat": 0.0}, {"bike_id": "d9320b1d88dc7a833fb814d87b812ae5", "fusion_lon": 0.0, "lon": -76.97772933333333, "name": "d9320b1d88dc7a833fb814d87b812ae5", "is_disabled": 0, "rental_uris": {"android": "https://dc.lft.to/lastmile_qr_scan", "ios": "https://dc.lft.to/lastmile_qr_scan"}, "type": "electric_scooter", "lat": 38.87067366666667, "is_reserved": 0, "fusion_lat": 0.0}, {"bike_id": "b0e1b24ed03c0c086b14644498fd2643", "fusion_lon": 0.0, "lon": -77.02684916666666, "name": "b0e1b24ed03c0c086b14644498fd2643", "is_disabled": 0, "rental_uris": {"android": "https://dc.lft.to/lastmile_qr_scan", "ios": "https://dc.lft.to/lastmile_qr_scan"}, "type": "electric_scooter", "lat": 38.912655, "is_reserved": 0, "fusion_lat": 0.0}, {"bike_id": "781c20d877671669ba502b1295366ba2", "fusion_lon": 0.0, "lon": -77.04876183333333, "name": "781c20d877671669ba502b1295366ba2", "is_disabled": 0, "rental_uris": {"android": "https://dc.lft.to/lastmile_qr_scan", "ios": "https://dc.lft.to/lastmile_qr_scan"}, "type": "electric_scooter", "lat": 38.909798333333335, "is_reserved": 0, "fusion_lat": 0.0}, {"bike_id": "bc608b8b5f5ce986a97e37943311cf2e", "fusion_lon": 0.0, "lon": -77.02530316666666, "name": "bc608b8b5f5ce986a97e37943311cf2e", "is_disabled": 0, "rental_uris": {"android": "https://dc.lft.to/lastmile_qr_scan", "ios": "https://dc.lft.to/lastmile_qr_scan"}, "type": "electric_scooter", "lat": 38.89821516666667, "is_reserved": 0, "fusion_lat": 0.0}, {"bike_id": "ca3fba84b0a6c6999c99f7bcdabe9154", "fusion_lon": 0.0, "lon": -77.015335, "name": "ca3fba84b0a6c6999c99f7bcdabe9154", "is_disabled": 0, "rental_uris": {"android": "https://dc.lft.to/lastmile_qr_scan", "ios": "https://dc.lft.to/lastmile_qr_scan"}, "type": "electric_scooter", "lat": 38.8841165, "is_reserved": 0, "fusion_lat": 0.0}, {"bike_id": "9b3b37cfad06265fa8938dd5e284f2fa", "fusion_lon": 0.0, "lon": -76.99912966666666, "name": "9b3b37cfad06265fa8938dd5e284f2fa", "is_disabled": 0, "rental_uris": {"android": "https://dc.lft.to/lastmile_qr_scan", "ios": "https://dc.lft.to/lastmile_qr_scan"}, "type": "electric_bike", "lat": 38.89205416666667, "is_reserved": 0, "fusion_lat": 0.0}, {"bike_id": "e4219ed64460bc7915814e70c8648705", "fusion_lon": 0.0, "lon": -77.04607216666666, "name": "e4219ed64460bc7915814e70c8648705", "is_disabled": 0, "rental_uris": {"android": "https://dc.lft.to/lastmile_qr_scan", "ios": "https://dc.lft.to/lastmile_qr_scan"}, "type": "electric_scooter", "lat": 38.91722716666666, "is_reserved": 0, "fusion_lat": 0.0}, {"bike_id": "2bea3839574b0dc5e37969fa90865b40", "fusion_lon": 0.0, "lon": -77.02166766666667, "name": "2bea3839574b0dc5e37969fa90865b40", "is_disabled": 0, "rental_uris": {"android": "https://dc.lft.to/lastmile_qr_scan", "ios": "https://dc.lft.to/lastmile_qr_scan"}, "type": "electric_scooter", "lat": 38.926120833333336, "is_reserved": 0, "fusion_lat": 0.0}, {"bike_id": "b1329bd3fe8db8bc8e1b5ac76f6d74ec", "fusion_lon": 0.0, "lon": -77.00798366666666, "name": "b1329bd3fe8db8bc8e1b5ac76f6d74ec", "is_disabled": 0, "rental_uris": {"android": "https://dc.lft.to/lastmile_qr_scan", "ios": "https://dc.lft.to/lastmile_qr_scan"}, "type": "electric_bike", "lat": 38.949160166666665, "is_reserved": 0, "fusion_lat": 0.0}, {"bike_id": "96f931edc47cbf78653d1872989edf98", "fusion_lon": 0.0, "lon": -77.03640633333333, "name": "96f931edc47cbf78653d1872989edf98", "is_disabled": 0, "rental_uris": {"android": "https://dc.lft.to/lastmile_qr_scan", "ios": "https://dc.lft.to/lastmile_qr_scan"}, "type": "electric_scooter", "lat": 38.923469833333336, "is_reserved": 0, "fusion_lat": 0.0}, {"bike_id": "f45b0a146467224bceee4f29bb76905a", "fusion_lon": 0.0, "lon": -77.02950133333333, "name": "f45b0a146467224bceee4f29bb76905a", "is_disabled": 0, "rental_uris": {"android": "https://dc.lft.to/lastmile_qr_scan", "ios": "https://dc.lft.to/lastmile_qr_scan"}, "type": "electric_scooter", "lat": 38.90503416666667, "is_reserved": 0, "fusion_lat": 0.0}, {"bike_id": "8e1d58e721ea51d21187db792b2a88cc", "fusion_lon": 0.0, "lon": -77.029597, "name": "8e1d58e721ea51d21187db792b2a88cc", "is_disabled": 0, "rental_uris": {"android": "https://dc.lft.to/lastmile_qr_scan", "ios": "https://dc.lft.to/lastmile_qr_scan"}, "type": "electric_scooter", "lat": 38.92333683333333, "is_reserved": 0, "fusion_lat": 0.0}, {"bike_id": "473bb14d9f498ba40075390fd578c060", "fusion_lon": 0.0, "lon": -76.990315, "name": "473bb14d9f498ba40075390fd578c060", "is_disabled": 0, "rental_uris": {"android": "https://dc.lft.to/lastmile_qr_scan", "ios": "https://dc.lft.to/lastmile_qr_scan"}, "type": "electric_scooter", "lat": 38.901863666666664, "is_reserved": 0, "fusion_lat": 0.0}, {"bike_id": "addf74d11123a998ed965ede2c4ff41f", "fusion_lon": 0.0, "lon": -77.02201233333334, "name": "addf74d11123a998ed965ede2c4ff41f", "is_disabled": 0, "rental_uris": {"android": "https://dc.lft.to/lastmile_qr_scan", "ios": "https://dc.lft.to/lastmile_qr_scan"}, "type": "electric_scooter", "lat": 38.911028, "is_reserved": 0, "fusion_lat": 0.0}, {"bike_id": "031c6fb9cecd404f5810f8282f801659", "fusion_lon": 0.0, "lon": -77.005911, "name": "031c6fb9cecd404f5810f8282f801659", "is_disabled": 0, "rental_uris": {"android": "https://dc.lft.to/lastmile_qr_scan", "ios": "https://dc.lft.to/lastmile_qr_scan"}, "type": "electric_scooter", "lat": 38.905583666666665, "is_reserved": 0, "fusion_lat": 0.0}, {"bike_id": "4f47b614f8aa21dedc2c3f49d6fb9c9f", "fusion_lon": 0.0, "lon": -77.03986233333333, "name": "4f47b614f8aa21dedc2c3f49d6fb9c9f", "is_disabled": 0, "rental_uris": {"android": "https://dc.lft.to/lastmile_qr_scan", "ios": "https://dc.lft.to/lastmile_qr_scan"}, "type": "electric_scooter", "lat": 38.925798, "is_reserved": 0, "fusion_lat": 0.0}, {"bike_id": "e6cf6a89caa72ed54e0dc8c261624c3b", "fusion_lon": 0.0, "lon": -77.025384, "name": "e6cf6a89caa72ed54e0dc8c261624c3b", "is_disabled": 0, "rental_uris": {"android": "https://dc.lft.to/lastmile_qr_scan", "ios": "https://dc.lft.to/lastmile_qr_scan"}, "type": "electric_scooter", "lat": 38.909619, "is_reserved": 0, "fusion_lat": 0.0}, {"bike_id": "9a6a71fe08d72c371f4fe389d9e9a5c3", "fusion_lon": 0.0, "lon": -77.023488, "name": "9a6a71fe08d72c371f4fe389d9e9a5c3", "is_disabled": 0, "rental_uris": {"android": "https://dc.lft.to/lastmile_qr_scan", "ios": "https://dc.lft.to/lastmile_qr_scan"}, "type": "electric_scooter", "lat": 38.94612566666667, "is_reserved": 0, "fusion_lat": 0.0}, {"bike_id": "b63bacd200a8968def791c42c89a4697", "fusion_lon": 0.0, "lon": -76.98837733333333, "name": "b63bacd200a8968def791c42c89a4697", "is_disabled": 0, "rental_uris": {"android": "https://dc.lft.to/lastmile_qr_scan", "ios": "https://dc.lft.to/lastmile_qr_scan"}, "type": "electric_scooter", "lat": 38.892581666666665, "is_reserved": 0, "fusion_lat": 0.0}, {"bike_id": "8d297fc8e49994703357fff2b75014a9", "fusion_lon": 0.0, "lon": -77.032578, "name": "8d297fc8e49994703357fff2b75014a9", "is_disabled": 0, "rental_uris": {"android": "https://dc.lft.to/lastmile_qr_scan", "ios": "https://dc.lft.to/lastmile_qr_scan"}, "type": "electric_scooter", "lat": 38.91402566666667, "is_reserved": 0, "fusion_lat": 0.0}, {"bike_id": "27673f313f68639e912d5bce446a397c", "fusion_lon": 0.0, "lon": -77.02512783333333, "name": "27673f313f68639e912d5bce446a397c", "is_disabled": 0, "rental_uris": {"android": "https://dc.lft.to/lastmile_qr_scan", "ios": "https://dc.lft.to/lastmile_qr_scan"}, "type": "electric_scooter", "lat": 38.9041905, "is_reserved": 0, "fusion_lat": 0.0}, {"bike_id": "65075e630b443af66e92c0a9e59d04ab", "fusion_lon": 0.0, "lon": -76.9871325, "name": "65075e630b443af66e92c0a9e59d04ab", "is_disabled": 0, "rental_uris": {"android": "https://dc.lft.to/lastmile_qr_scan", "ios": "https://dc.lft.to/lastmile_qr_scan"}, "type": "electric_scooter", "lat": 38.866972, "is_reserved": 0, "fusion_lat": 0.0}, {"bike_id": "9be7d988a884d883aef10b768f96e237", "fusion_lon": 0.0, "lon": -77.02097916666666, "name": "9be7d988a884d883aef10b768f96e237", "is_disabled": 0, "rental_uris": {"android": "https://dc.lft.to/lastmile_qr_scan", "ios": "https://dc.lft.to/lastmile_qr_scan"}, "type": "electric_scooter", "lat": 38.93120433333333, "is_reserved": 0, "fusion_lat": 0.0}, {"bike_id": "23871b5a258da8982f4ac00bba96427e", "fusion_lon": 0.0, "lon": -77.039115, "name": "23871b5a258da8982f4ac00bba96427e", "is_disabled": 0, "rental_uris": {"android": "https://dc.lft.to/lastmile_qr_scan", "ios": "https://dc.lft.to/lastmile_qr_scan"}, "type": "electric_scooter", "lat": 38.92471783333333, "is_reserved": 0, "fusion_lat": 0.0}, {"bike_id": "130b4b6ce1bf23d6dce2fcaed69dfcf8", "fusion_lon": 0.0, "lon": -77.0145765, "name": "130b4b6ce1bf23d6dce2fcaed69dfcf8", "is_disabled": 0, "rental_uris": {"android": "https://dc.lft.to/lastmile_qr_scan", "ios": "https://dc.lft.to/lastmile_qr_scan"}, "type": "electric_scooter", "lat": 38.918226833333335, "is_reserved": 0, "fusion_lat": 0.0}, {"bike_id": "5a99b90b33d26a096988748e8251ca62", "fusion_lon": 0.0, "lon": -77.02981916666667, "name": "5a99b90b33d26a096988748e8251ca62", "is_disabled": 0, "rental_uris": {"android": "https://dc.lft.to/lastmile_qr_scan", "ios": "https://dc.lft.to/lastmile_qr_scan"}, "type": "electric_scooter", "lat": 38.934410166666666, "is_reserved": 0, "fusion_lat": 0.0}, {"bike_id": "748f08958d4d4f9bf97d91444b6cf108", "fusion_lon": 0.0, "lon": -77.02716366666667, "name": "748f08958d4d4f9bf97d91444b6cf108", "is_disabled": 0, "rental_uris": {"android": "https://dc.lft.to/lastmile_qr_scan", "ios": "https://dc.lft.to/lastmile_qr_scan"}, "type": "electric_scooter", "lat": 38.90665083333333, "is_reserved": 0, "fusion_lat": 0.0}, {"bike_id": "6623aaf9b7faeaea58ba1763803516e0", "fusion_lon": 0.0, "lon": -77.07726, "name": "6623aaf9b7faeaea58ba1763803516e0", "is_disabled": 0, "rental_uris": {"android": "https://dc.lft.to/lastmile_qr_scan", "ios": "https://dc.lft.to/lastmile_qr_scan"}, "type": "electric_scooter", "lat": 38.95766116666667, "is_reserved": 0, "fusion_lat": 0.0}, {"bike_id": "cc0fbfbb2a74bb628fd2e59979d0e6ca", "fusion_lon": 0.0, "lon": -77.03373433333333, "name": "cc0fbfbb2a74bb628fd2e59979d0e6ca", "is_disabled": 0, "rental_uris": {"android": "https://dc.lft.to/lastmile_qr_scan", "ios": "https://dc.lft.to/lastmile_qr_scan"}, "type": "electric_scooter", "lat": 38.93224333333333, "is_reserved": 0, "fusion_lat": 0.0}, {"bike_id": "13298acc23468b1b9df9a19ce4df0d1a", "fusion_lon": 0.0, "lon": -77.02788666666666, "name": "13298acc23468b1b9df9a19ce4df0d1a", "is_disabled": 0, "rental_uris": {"android": "https://dc.lft.to/lastmile_qr_scan", "ios": "https://dc.lft.to/lastmile_qr_scan"}, "type": "electric_scooter", "lat": 38.93062233333333, "is_reserved": 0, "fusion_lat": 0.0}, {"bike_id": "dd7d89addf697318685119e8834e4ee8", "fusion_lon": 0.0, "lon": -77.02372383333334, "name": "dd7d89addf697318685119e8834e4ee8", "is_disabled": 0, "rental_uris": {"android": "https://dc.lft.to/lastmile_qr_scan", "ios": "https://dc.lft.to/lastmile_qr_scan"}, "type": "electric_scooter", "lat": 38.919526, "is_reserved": 0, "fusion_lat": 0.0}, {"bike_id": "f595a8ff558d5e63304556344b620d96", "fusion_lon": 0.0, "lon": -77.03204366666667, "name": "f595a8ff558d5e63304556344b620d96", "is_disabled": 0, "rental_uris": {"android": "https://dc.lft.to/lastmile_qr_scan", "ios": "https://dc.lft.to/lastmile_qr_scan"}, "type": "electric_scooter", "lat": 38.91474066666667, "is_reserved": 0, "fusion_lat": 0.0}, {"bike_id": "b1991995587b1e0e6032e8b8aab600cf", "fusion_lon": 0.0, "lon": -77.0512425, "name": "b1991995587b1e0e6032e8b8aab600cf", "is_disabled": 0, "rental_uris": {"android": "https://dc.lft.to/lastmile_qr_scan", "ios": "https://dc.lft.to/lastmile_qr_scan"}, "type": "electric_scooter", "lat": 38.90525683333333, "is_reserved": 0, "fusion_lat": 0.0}, {"bike_id": "13fc500f382e0f15f64a20c2ae40d19d", "fusion_lon": 0.0, "lon": -77.01498066666667, "name": "13fc500f382e0f15f64a20c2ae40d19d", "is_disabled": 0, "rental_uris": {"android": "https://dc.lft.to/lastmile_qr_scan", "ios": "https://dc.lft.to/lastmile_qr_scan"}, "type": "electric_scooter", "lat": 38.876765666666664, "is_reserved": 0, "fusion_lat": 0.0}, {"bike_id": "38bcdac04227ee447987ee565dbf92a7", "fusion_lon": 0.0, "lon": -77.02706133333334, "name": "38bcdac04227ee447987ee565dbf92a7", "is_disabled": 0, "rental_uris": {"android": "https://dc.lft.to/lastmile_qr_scan", "ios": "https://dc.lft.to/lastmile_qr_scan"}, "type": "electric_scooter", "lat": 38.906656166666664, "is_reserved": 0, "fusion_lat": 0.0}, {"bike_id": "8a3baef8e7b2703618944c2b1c9b6a47", "fusion_lon": 0.0, "lon": -76.99001183333333, "name": "8a3baef8e7b2703618944c2b1c9b6a47", "is_disabled": 0, "rental_uris": {"android": "https://dc.lft.to/lastmile_qr_scan", "ios": "https://dc.lft.to/lastmile_qr_scan"}, "type": "electric_scooter", "lat": 38.92449283333333, "is_reserved": 0, "fusion_lat": 0.0}, {"bike_id": "92ef1ae1c21bd81c1ef95cd797ba268e", "fusion_lon": 0.0, "lon": -77.0275495, "name": "92ef1ae1c21bd81c1ef95cd797ba268e", "is_disabled": 0, "rental_uris": {"android": "https://dc.lft.to/lastmile_qr_scan", "ios": "https://dc.lft.to/lastmile_qr_scan"}, "type": "electric_scooter", "lat": 38.951641333333335, "is_reserved": 0, "fusion_lat": 0.0}, {"bike_id": "dc09d3593e5df9a3db8a0f6f65a98e78", "fusion_lon": 0.0, "lon": -77.13107833333333, "name": "dc09d3593e5df9a3db8a0f6f65a98e78", "is_disabled": 0, "rental_uris": {"android": "https://dc.lft.to/lastmile_qr_scan", "ios": "https://dc.lft.to/lastmile_qr_scan"}, "type": "electric_bike", "lat": 39.0242895, "is_reserved": 0, "fusion_lat": 0.0}, {"bike_id": "70a1e674c2c8568e162b626c28819260", "fusion_lon": 0.0, "lon": -76.9474535, "name": "70a1e674c2c8568e162b626c28819260", "is_disabled": 0, "rental_uris": {"android": "https://dc.lft.to/lastmile_qr_scan", "ios": "https://dc.lft.to/lastmile_qr_scan"}, "type": "electric_scooter", "lat": 38.896647333333334, "is_reserved": 0, "fusion_lat": 0.0}, {"bike_id": "c818298ce85e7dcd5a98528ad4ef7a7f", "fusion_lon": 0.0, "lon": -77.0607765, "name": "c818298ce85e7dcd5a98528ad4ef7a7f", "is_disabled": 0, "rental_uris": {"android": "https://dc.lft.to/lastmile_qr_scan", "ios": "https://dc.lft.to/lastmile_qr_scan"}, "type": "electric_bike", "lat": 38.88581383333333, "is_reserved": 0, "fusion_lat": 0.0}, {"bike_id": "6a59dbe72802f3a4dc96fe006ce266b4", "fusion_lon": 0.0, "lon": -77.0947945, "name": "6a59dbe72802f3a4dc96fe006ce266b4", "is_disabled": 0, "rental_uris": {"android": "https://dc.lft.to/lastmile_qr_scan", "ios": "https://dc.lft.to/lastmile_qr_scan"}, "type": "electric_bike", "lat": 39.0304185, "is_reserved": 0, "fusion_lat": 0.0}, {"bike_id": "04e08db3b2323166fa25151faa10cecd", "fusion_lon": 0.0, "lon": -77.03203866666666, "name": "04e08db3b2323166fa25151faa10cecd", "is_disabled": 0, "rental_uris": {"android": "https://dc.lft.to/lastmile_qr_scan", "ios": "https://dc.lft.to/lastmile_qr_scan"}, "type": "electric_scooter", "lat": 38.91574766666667, "is_reserved": 0, "fusion_lat": 0.0}, {"bike_id": "a522db7ce29f99a2d020bd4cfcc8cfea", "fusion_lon": 0.0, "lon": -77.020907, "name": "a522db7ce29f99a2d020bd4cfcc8cfea", "is_disabled": 0, "rental_uris": {"android": "https://dc.lft.to/lastmile_qr_scan", "ios": "https://dc.lft.to/lastmile_qr_scan"}, "type": "electric_bike", "lat": 38.94105316666667, "is_reserved": 0, "fusion_lat": 0.0}, {"bike_id": "3fc3d37486fd1e0575e86c40164d7bdb", "fusion_lon": 0.0, "lon": -77.04348433333334, "name": "3fc3d37486fd1e0575e86c40164d7bdb", "is_disabled": 0, "rental_uris": {"android": "https://dc.lft.to/lastmile_qr_scan", "ios": "https://dc.lft.to/lastmile_qr_scan"}, "type": "electric_scooter", "lat": 38.907275166666665, "is_reserved": 0, "fusion_lat": 0.0}, {"bike_id": "72fdbb75b8d217661f67613b71160994", "fusion_lon": 0.0, "lon": -77.0321335, "name": "72fdbb75b8d217661f67613b71160994", "is_disabled": 0, "rental_uris": {"android": "https://dc.lft.to/lastmile_qr_scan", "ios": "https://dc.lft.to/lastmile_qr_scan"}, "type": "electric_scooter", "lat": 38.917094, "is_reserved": 0, "fusion_lat": 0.0}, {"bike_id": "6dd17bc6f28112e0f01bde9300a29cf4", "fusion_lon": 0.0, "lon": -76.99392733333333, "name": "6dd17bc6f28112e0f01bde9300a29cf4", "is_disabled": 0, "rental_uris": {"android": "https://dc.lft.to/lastmile_qr_scan", "ios": "https://dc.lft.to/lastmile_qr_scan"}, "type": "electric_scooter", "lat": 38.92163216666667, "is_reserved": 0, "fusion_lat": 0.0}, {"bike_id": "0e26d1fff222bd5fdc8990140363922e", "fusion_lon": 0.0, "lon": -77.034714, "name": "0e26d1fff222bd5fdc8990140363922e", "is_disabled": 0, "rental_uris": {"android": "https://dc.lft.to/lastmile_qr_scan", "ios": "https://dc.lft.to/lastmile_qr_scan"}, "type": "electric_scooter", "lat": 38.908077166666665, "is_reserved": 0, "fusion_lat": 0.0}, {"bike_id": "8705ad73e32b30a8cfe193e0167c8d9c", "fusion_lon": 0.0, "lon": -77.0590665, "name": "8705ad73e32b30a8cfe193e0167c8d9c", "is_disabled": 0, "rental_uris": {"android": "https://dc.lft.to/lastmile_qr_scan", "ios": "https://dc.lft.to/lastmile_qr_scan"}, "type": "electric_scooter", "lat": 38.933511833333334, "is_reserved": 0, "fusion_lat": 0.0}, {"bike_id": "2d458f1f8623546fd72fff89641cafa6", "fusion_lon": 0.0, "lon": -77.0319135, "name": "2d458f1f8623546fd72fff89641cafa6", "is_disabled": 0, "rental_uris": {"android": "https://dc.lft.to/lastmile_qr_scan", "ios": "https://dc.lft.to/lastmile_qr_scan"}, "type": "electric_scooter", "lat": 38.905372166666666, "is_reserved": 0, "fusion_lat": 0.0}, {"bike_id": "1c2a9ec6c64146ab186981770af03f3f", "fusion_lon": 0.0, "lon": -77.03469033333333, "name": "1c2a9ec6c64146ab186981770af03f3f", "is_disabled": 0, "rental_uris": {"android": "https://dc.lft.to/lastmile_qr_scan", "ios": "https://dc.lft.to/lastmile_qr_scan"}, "type": "electric_scooter", "lat": 38.90754, "is_reserved": 0, "fusion_lat": 0.0}, {"bike_id": "10821d4cd59713ef9ca8c4ed4fd52172", "fusion_lon": 0.0, "lon": -77.026703, "name": "10821d4cd59713ef9ca8c4ed4fd52172", "is_disabled": 0, "rental_uris": {"android": "https://dc.lft.to/lastmile_qr_scan", "ios": "https://dc.lft.to/lastmile_qr_scan"}, "type": "electric_scooter", "lat": 38.971941, "is_reserved": 0, "fusion_lat": 0.0}, {"bike_id": "546216ab1c071b8d1d64b7f80f60943c", "fusion_lon": 0.0, "lon": -77.02684816666667, "name": "546216ab1c071b8d1d64b7f80f60943c", "is_disabled": 0, "rental_uris": {"android": "https://dc.lft.to/lastmile_qr_scan", "ios": "https://dc.lft.to/lastmile_qr_scan"}, "type": "electric_scooter", "lat": 38.8981525, "is_reserved": 0, "fusion_lat": 0.0}, {"bike_id": "08f449283aa7c687aa9bb8855628669c", "fusion_lon": 0.0, "lon": -76.933471, "name": "08f449283aa7c687aa9bb8855628669c", "is_disabled": 0, "rental_uris": {"android": "https://dc.lft.to/lastmile_qr_scan", "ios": "https://dc.lft.to/lastmile_qr_scan"}, "type": "electric_scooter", "lat": 38.888176666666666, "is_reserved": 0, "fusion_lat": 0.0}, {"bike_id": "ff1f9208bf6ccdaad73fe88593bfecc4", "fusion_lon": 0.0, "lon": -77.024697, "name": "ff1f9208bf6ccdaad73fe88593bfecc4", "is_disabled": 0, "rental_uris": {"android": "https://dc.lft.to/lastmile_qr_scan", "ios": "https://dc.lft.to/lastmile_qr_scan"}, "type": "electric_scooter", "lat": 38.931031833333336, "is_reserved": 0, "fusion_lat": 0.0}, {"bike_id": "36beccc87617af2e4acedded348b5aec", "fusion_lon": 0.0, "lon": -76.98783316666666, "name": "36beccc87617af2e4acedded348b5aec", "is_disabled": 0, "rental_uris": {"android": "https://dc.lft.to/lastmile_qr_scan", "ios": "https://dc.lft.to/lastmile_qr_scan"}, "type": "electric_bike", "lat": 38.86592383333333, "is_reserved": 0, "fusion_lat": 0.0}, {"bike_id": "a3d2152463afd7eb75a100d3dec66e8c", "fusion_lon": 0.0, "lon": -77.0588515, "name": "a3d2152463afd7eb75a100d3dec66e8c", "is_disabled": 0, "rental_uris": {"android": "https://dc.lft.to/lastmile_qr_scan", "ios": "https://dc.lft.to/lastmile_qr_scan"}, "type": "electric_scooter", "lat": 38.91825266666667, "is_reserved": 0, "fusion_lat": 0.0}, {"bike_id": "bdbc55cc76fe78a9eacc6434be9cd80d", "fusion_lon": 0.0, "lon": -77.02853966666666, "name": "bdbc55cc76fe78a9eacc6434be9cd80d", "is_disabled": 0, "rental_uris": {"android": "https://dc.lft.to/lastmile_qr_scan", "ios": "https://dc.lft.to/lastmile_qr_scan"}, "type": "electric_scooter", "lat": 38.927632333333335, "is_reserved": 0, "fusion_lat": 0.0}, {"bike_id": "3cc89bf4c654e279fdc7bdd44231a930", "fusion_lon": 0.0, "lon": -76.98395433333333, "name": "3cc89bf4c654e279fdc7bdd44231a930", "is_disabled": 0, "rental_uris": {"android": "https://dc.lft.to/lastmile_qr_scan", "ios": "https://dc.lft.to/lastmile_qr_scan"}, "type": "electric_scooter", "lat": 38.866994, "is_reserved": 0, "fusion_lat": 0.0}, {"bike_id": "9715a4717e4a51edeacaa973d0a04457", "fusion_lon": 0.0, "lon": -76.99143516666666, "name": "9715a4717e4a51edeacaa973d0a04457", "is_disabled": 0, "rental_uris": {"android": "https://dc.lft.to/lastmile_qr_scan", "ios": "https://dc.lft.to/lastmile_qr_scan"}, "type": "electric_scooter", "lat": 38.879058, "is_reserved": 0, "fusion_lat": 0.0}, {"bike_id": "98142e411a389f70b14f6f4beb362fe5", "fusion_lon": 0.0, "lon": -77.00068933333333, "name": "98142e411a389f70b14f6f4beb362fe5", "is_disabled": 0, "rental_uris": {"android": "https://dc.lft.to/lastmile_qr_scan", "ios": "https://dc.lft.to/lastmile_qr_scan"}, "type": "electric_scooter", "lat": 38.9002465, "is_reserved": 0, "fusion_lat": 0.0}, {"bike_id": "aa0a1987ff6fa5bc022f9c4a084ce050", "fusion_lon": 0.0, "lon": -77.04686466666666, "name": "aa0a1987ff6fa5bc022f9c4a084ce050", "is_disabled": 0, "rental_uris": {"android": "https://dc.lft.to/lastmile_qr_scan", "ios": "https://dc.lft.to/lastmile_qr_scan"}, "type": "electric_scooter", "lat": 38.897258, "is_reserved": 0, "fusion_lat": 0.0}, {"bike_id": "7c44111040c51dedac9aa60e8690bbbe", "fusion_lon": 0.0, "lon": -77.015867, "name": "7c44111040c51dedac9aa60e8690bbbe", "is_disabled": 0, "rental_uris": {"android": "https://dc.lft.to/lastmile_qr_scan", "ios": "https://dc.lft.to/lastmile_qr_scan"}, "type": "electric_scooter", "lat": 38.950144, "is_reserved": 0, "fusion_lat": 0.0}, {"bike_id": "587ee41593d0c961cb1313b54f9a48e5", "fusion_lon": 0.0, "lon": -77.02285683333334, "name": "587ee41593d0c961cb1313b54f9a48e5", "is_disabled": 0, "rental_uris": {"android": "https://dc.lft.to/lastmile_qr_scan", "ios": "https://dc.lft.to/lastmile_qr_scan"}, "type": "electric_scooter", "lat": 38.8905785, "is_reserved": 0, "fusion_lat": 0.0}, {"bike_id": "c9d7af5e1fac1ef5ed70842cf7f87fb1", "fusion_lon": 0.0, "lon": -77.02980333333333, "name": "c9d7af5e1fac1ef5ed70842cf7f87fb1", "is_disabled": 0, "rental_uris": {"android": "https://dc.lft.to/lastmile_qr_scan", "ios": "https://dc.lft.to/lastmile_qr_scan"}, "type": "electric_scooter", "lat": 38.94595666666667, "is_reserved": 0, "fusion_lat": 0.0}, {"bike_id": "3647e0591a336a0c8cda5b017cee9c96", "fusion_lon": 0.0, "lon": -77.02854516666666, "name": "3647e0591a336a0c8cda5b017cee9c96", "is_disabled": 0, "rental_uris": {"android": "https://dc.lft.to/lastmile_qr_scan", "ios": "https://dc.lft.to/lastmile_qr_scan"}, "type": "electric_scooter", "lat": 38.9257205, "is_reserved": 0, "fusion_lat": 0.0}, {"bike_id": "b456b24b48115bdbbe0e78c37958f2b6", "fusion_lon": 0.0, "lon": -77.027079, "name": "b456b24b48115bdbbe0e78c37958f2b6", "is_disabled": 0, "rental_uris": {"android": "https://dc.lft.to/lastmile_qr_scan", "ios": "https://dc.lft.to/lastmile_qr_scan"}, "type": "electric_scooter", "lat": 38.906899, "is_reserved": 0, "fusion_lat": 0.0}, {"bike_id": "5e0beb5f63e366db9b8ddb70366250af", "fusion_lon": 0.0, "lon": -77.03574033333334, "name": "5e0beb5f63e366db9b8ddb70366250af", "is_disabled": 0, "rental_uris": {"android": "https://dc.lft.to/lastmile_qr_scan", "ios": "https://dc.lft.to/lastmile_qr_scan"}, "type": "electric_scooter", "lat": 38.923294166666665, "is_reserved": 0, "fusion_lat": 0.0}, {"bike_id": "3868c6313e688ee55ed2c5add908eae9", "fusion_lon": 0.0, "lon": -77.00727283333333, "name": "3868c6313e688ee55ed2c5add908eae9", "is_disabled": 0, "rental_uris": {"android": "https://dc.lft.to/lastmile_qr_scan", "ios": "https://dc.lft.to/lastmile_qr_scan"}, "type": "electric_scooter", "lat": 38.8849255, "is_reserved": 0, "fusion_lat": 0.0}, {"bike_id": "e9656272364f9ea52a69e33f652281ed", "fusion_lon": 0.0, "lon": -77.02712166666667, "name": "e9656272364f9ea52a69e33f652281ed", "is_disabled": 0, "rental_uris": {"android": "https://dc.lft.to/lastmile_qr_scan", "ios": "https://dc.lft.to/lastmile_qr_scan"}, "type": "electric_scooter", "lat": 38.90667066666666, "is_reserved": 0, "fusion_lat": 0.0}, {"bike_id": "75648df948cf713bd9e3ce913916bb00", "fusion_lon": 0.0, "lon": -77.0527565, "name": "75648df948cf713bd9e3ce913916bb00", "is_disabled": 0, "rental_uris": {"android": "https://dc.lft.to/lastmile_qr_scan", "ios": "https://dc.lft.to/lastmile_qr_scan"}, "type": "electric_scooter", "lat": 38.92539583333333, "is_reserved": 0, "fusion_lat": 0.0}, {"bike_id": "ab341735d93ee3700c5ecc6aa60bc87d", "fusion_lon": 0.0, "lon": -77.01754166666667, "name": "ab341735d93ee3700c5ecc6aa60bc87d", "is_disabled": 0, "rental_uris": {"android": "https://dc.lft.to/lastmile_qr_scan", "ios": "https://dc.lft.to/lastmile_qr_scan"}, "type": "electric_scooter", "lat": 38.87719633333333, "is_reserved": 0, "fusion_lat": 0.0}, {"bike_id": "3822c5a0a3183a3e7f6d741989597ef0", "fusion_lon": 0.0, "lon": -76.99818016666667, "name": "3822c5a0a3183a3e7f6d741989597ef0", "is_disabled": 0, "rental_uris": {"android": "https://dc.lft.to/lastmile_qr_scan", "ios": "https://dc.lft.to/lastmile_qr_scan"}, "type": "electric_scooter", "lat": 38.90821366666667, "is_reserved": 0, "fusion_lat": 0.0}, {"bike_id": "add2edf94eefed92ea57b754d3093e15", "fusion_lon": 0.0, "lon": -77.03134433333334, "name": "add2edf94eefed92ea57b754d3093e15", "is_disabled": 0, "rental_uris": {"android": "https://dc.lft.to/lastmile_qr_scan", "ios": "https://dc.lft.to/lastmile_qr_scan"}, "type": "electric_scooter", "lat": 38.918260333333336, "is_reserved": 0, "fusion_lat": 0.0}, {"bike_id": "39b37029134ce9dee625a5e5d02d3b05", "fusion_lon": 0.0, "lon": -76.99353133333334, "name": "39b37029134ce9dee625a5e5d02d3b05", "is_disabled": 0, "rental_uris": {"android": "https://dc.lft.to/lastmile_qr_scan", "ios": "https://dc.lft.to/lastmile_qr_scan"}, "type": "electric_bike", "lat": 38.845063333333336, "is_reserved": 0, "fusion_lat": 0.0}, {"bike_id": "6388ed3b4beac3ab71f60483345e4a32", "fusion_lon": 0.0, "lon": -77.01751666666667, "name": "6388ed3b4beac3ab71f60483345e4a32", "is_disabled": 0, "rental_uris": {"android": "https://dc.lft.to/lastmile_qr_scan", "ios": "https://dc.lft.to/lastmile_qr_scan"}, "type": "electric_scooter", "lat": 38.88329183333333, "is_reserved": 0, "fusion_lat": 0.0}, {"bike_id": "c008f403b56600088e0eed97ac1bf3b0", "fusion_lon": 0.0, "lon": -76.98706016666667, "name": "c008f403b56600088e0eed97ac1bf3b0", "is_disabled": 0, "rental_uris": {"android": "https://dc.lft.to/lastmile_qr_scan", "ios": "https://dc.lft.to/lastmile_qr_scan"}, "type": "electric_scooter", "lat": 38.85963816666667, "is_reserved": 0, "fusion_lat": 0.0}, {"bike_id": "4ac4738a859f00a17ff324b110abc268", "fusion_lon": 0.0, "lon": -76.9655885, "name": "4ac4738a859f00a17ff324b110abc268", "is_disabled": 0, "rental_uris": {"android": "https://dc.lft.to/lastmile_qr_scan", "ios": "https://dc.lft.to/lastmile_qr_scan"}, "type": "electric_scooter", "lat": 38.918975833333334, "is_reserved": 0, "fusion_lat": 0.0}, {"bike_id": "843bda3c36db3c22555e3a4afb79c81d", "fusion_lon": 0.0, "lon": -77.03639816666667, "name": "843bda3c36db3c22555e3a4afb79c81d", "is_disabled": 0, "rental_uris": {"android": "https://dc.lft.to/lastmile_qr_scan", "ios": "https://dc.lft.to/lastmile_qr_scan"}, "type": "electric_scooter", "lat": 38.931753, "is_reserved": 0, "fusion_lat": 0.0}, {"bike_id": "68227b43b7eea87932d6ae32e6eaf2e8", "fusion_lon": 0.0, "lon": -77.041172, "name": "68227b43b7eea87932d6ae32e6eaf2e8", "is_disabled": 0, "rental_uris": {"android": "https://dc.lft.to/lastmile_qr_scan", "ios": "https://dc.lft.to/lastmile_qr_scan"}, "type": "electric_scooter", "lat": 38.9244875, "is_reserved": 0, "fusion_lat": 0.0}, {"bike_id": "0a6af411804cdb63e2f822ad4f9be9e2", "fusion_lon": 0.0, "lon": -77.03990233333333, "name": "0a6af411804cdb63e2f822ad4f9be9e2", "is_disabled": 0, "rental_uris": {"android": "https://dc.lft.to/lastmile_qr_scan", "ios": "https://dc.lft.to/lastmile_qr_scan"}, "type": "electric_bike", "lat": 38.93332566666667, "is_reserved": 0, "fusion_lat": 0.0}, {"bike_id": "8b1653851a02ec52946fd7d1830e8aad", "fusion_lon": 0.0, "lon": -77.04484, "name": "8b1653851a02ec52946fd7d1830e8aad", "is_disabled": 0, "rental_uris": {"android": "https://dc.lft.to/lastmile_qr_scan", "ios": "https://dc.lft.to/lastmile_qr_scan"}, "type": "electric_scooter", "lat": 38.90110083333333, "is_reserved": 0, "fusion_lat": 0.0}, {"bike_id": "b1ded87ed7ad2b134e6a38f7601f02fe", "fusion_lon": 0.0, "lon": -77.07914933333333, "name": "b1ded87ed7ad2b134e6a38f7601f02fe", "is_disabled": 0, "rental_uris": {"android": "https://dc.lft.to/lastmile_qr_scan", "ios": "https://dc.lft.to/lastmile_qr_scan"}, "type": "electric_bike", "lat": 38.8022625, "is_reserved": 0, "fusion_lat": 0.0}, {"bike_id": "99bc56746780c37896f18ed628fdac1d", "fusion_lon": 0.0, "lon": -77.16090416666667, "name": "99bc56746780c37896f18ed628fdac1d", "is_disabled": 0, "rental_uris": {"android": "https://dc.lft.to/lastmile_qr_scan", "ios": "https://dc.lft.to/lastmile_qr_scan"}, "type": "electric_bike", "lat": 38.886827833333335, "is_reserved": 0, "fusion_lat": 0.0}, {"bike_id": "1715544a705fb365dd1cb1caf47e2733", "fusion_lon": 0.0, "lon": -76.9884015, "name": "1715544a705fb365dd1cb1caf47e2733", "is_disabled": 0, "rental_uris": {"android": "https://dc.lft.to/lastmile_qr_scan", "ios": "https://dc.lft.to/lastmile_qr_scan"}, "type": "electric_bike", "lat": 38.842758, "is_reserved": 0, "fusion_lat": 0.0}, {"bike_id": "e1c78fe11e4242646335973650c24434", "fusion_lon": 0.0, "lon": -77.04321333333333, "name": "e1c78fe11e4242646335973650c24434", "is_disabled": 0, "rental_uris": {"android": "https://dc.lft.to/lastmile_qr_scan", "ios": "https://dc.lft.to/lastmile_qr_scan"}, "type": "electric_scooter", "lat": 38.902179833333335, "is_reserved": 0, "fusion_lat": 0.0}, {"bike_id": "e38f142cb5b90eab9f3909a57acf436d", "fusion_lon": 0.0, "lon": -77.0325945, "name": "e38f142cb5b90eab9f3909a57acf436d", "is_disabled": 0, "rental_uris": {"android": "https://dc.lft.to/lastmile_qr_scan", "ios": "https://dc.lft.to/lastmile_qr_scan"}, "type": "electric_scooter", "lat": 38.93305816666667, "is_reserved": 0, "fusion_lat": 0.0}, {"bike_id": "11d52adb58be54c5a9eb596231eeffce", "fusion_lon": 0.0, "lon": -76.98253216666667, "name": "11d52adb58be54c5a9eb596231eeffce", "is_disabled": 0, "rental_uris": {"android": "https://dc.lft.to/lastmile_qr_scan", "ios": "https://dc.lft.to/lastmile_qr_scan"}, "type": "electric_bike", "lat": 38.9533295, "is_reserved": 0, "fusion_lat": 0.0}, {"bike_id": "1149f1de56b83f55cfae5ef0fd431dca", "fusion_lon": 0.0, "lon": -77.02694316666667, "name": "1149f1de56b83f55cfae5ef0fd431dca", "is_disabled": 0, "rental_uris": {"android": "https://dc.lft.to/lastmile_qr_scan", "ios": "https://dc.lft.to/lastmile_qr_scan"}, "type": "electric_scooter", "lat": 38.881905333333336, "is_reserved": 0, "fusion_lat": 0.0}, {"bike_id": "d0fab0a72f48038eb35915780777f6dd", "fusion_lon": 0.0, "lon": -77.05088666666667, "name": "d0fab0a72f48038eb35915780777f6dd", "is_disabled": 0, "rental_uris": {"android": "https://dc.lft.to/lastmile_qr_scan", "ios": "https://dc.lft.to/lastmile_qr_scan"}, "type": "electric_bike", "lat": 38.813359166666665, "is_reserved": 0, "fusion_lat": 0.0}, {"bike_id": "6d54a9905f5f3fb74b8322c3e371fb87", "fusion_lon": 0.0, "lon": -77.01667566666667, "name": "6d54a9905f5f3fb74b8322c3e371fb87", "is_disabled": 0, "rental_uris": {"android": "https://dc.lft.to/lastmile_qr_scan", "ios": "https://dc.lft.to/lastmile_qr_scan"}, "type": "electric_scooter", "lat": 38.881307, "is_reserved": 0, "fusion_lat": 0.0}, {"bike_id": "1dec6f99655c9f7d1abdea83306cdf93", "fusion_lon": 0.0, "lon": -77.02345283333334, "name": "1dec6f99655c9f7d1abdea83306cdf93", "is_disabled": 0, "rental_uris": {"android": "https://dc.lft.to/lastmile_qr_scan", "ios": "https://dc.lft.to/lastmile_qr_scan"}, "type": "electric_scooter", "lat": 38.9073145, "is_reserved": 0, "fusion_lat": 0.0}, {"bike_id": "691f9ec793a25c890003fd8402bae9ee", "fusion_lon": 0.0, "lon": -76.98633416666667, "name": "691f9ec793a25c890003fd8402bae9ee", "is_disabled": 0, "rental_uris": {"android": "https://dc.lft.to/lastmile_qr_scan", "ios": "https://dc.lft.to/lastmile_qr_scan"}, "type": "electric_scooter", "lat": 38.880412, "is_reserved": 0, "fusion_lat": 0.0}, {"bike_id": "1748e25c23122e79e6c838b945a98d96", "fusion_lon": 0.0, "lon": -77.11599566666666, "name": "1748e25c23122e79e6c838b945a98d96", "is_disabled": 0, "rental_uris": {"android": "https://dc.lft.to/lastmile_qr_scan", "ios": "https://dc.lft.to/lastmile_qr_scan"}, "type": "electric_bike", "lat": 39.07496166666667, "is_reserved": 0, "fusion_lat": 0.0}, {"bike_id": "6f280cc07197e64253653401a8edeed0", "fusion_lon": 0.0, "lon": -77.02167416666667, "name": "6f280cc07197e64253653401a8edeed0", "is_disabled": 0, "rental_uris": {"android": "https://dc.lft.to/lastmile_qr_scan", "ios": "https://dc.lft.to/lastmile_qr_scan"}, "type": "electric_scooter", "lat": 38.90956116666667, "is_reserved": 0, "fusion_lat": 0.0}, {"bike_id": "f43fd85937bae7ed9cd3887e8df5453f", "fusion_lon": 0.0, "lon": -77.036538, "name": "f43fd85937bae7ed9cd3887e8df5453f", "is_disabled": 0, "rental_uris": {"android": "https://dc.lft.to/lastmile_qr_scan", "ios": "https://dc.lft.to/lastmile_qr_scan"}, "type": "electric_scooter", "lat": 38.923837, "is_reserved": 0, "fusion_lat": 0.0}, {"bike_id": "69aca33a9caf8187ca7bb6cd4c5d0b9a", "fusion_lon": 0.0, "lon": -76.98455666666666, "name": "69aca33a9caf8187ca7bb6cd4c5d0b9a", "is_disabled": 0, "rental_uris": {"android": "https://dc.lft.to/lastmile_qr_scan", "ios": "https://dc.lft.to/lastmile_qr_scan"}, "type": "electric_scooter", "lat": 38.880161333333334, "is_reserved": 0, "fusion_lat": 0.0}, {"bike_id": "2b48663a64c4326ed4697c717ab8be45", "fusion_lon": 0.0, "lon": -77.11016333333333, "name": "2b48663a64c4326ed4697c717ab8be45", "is_disabled": 0, "rental_uris": {"android": "https://dc.lft.to/lastmile_qr_scan", "ios": "https://dc.lft.to/lastmile_qr_scan"}, "type": "electric_bike", "lat": 38.84742833333333, "is_reserved": 0, "fusion_lat": 0.0}, {"bike_id": "2e2eeb8964f2dbc43b5e8c0eeb433da2", "fusion_lon": 0.0, "lon": -76.99790116666667, "name": "2e2eeb8964f2dbc43b5e8c0eeb433da2", "is_disabled": 0, "rental_uris": {"android": "https://dc.lft.to/lastmile_qr_scan", "ios": "https://dc.lft.to/lastmile_qr_scan"}, "type": "electric_scooter", "lat": 38.90907633333333, "is_reserved": 0, "fusion_lat": 0.0}, {"bike_id": "0a08e68db7153742b425265a3a4ba545", "fusion_lon": 0.0, "lon": -77.02484066666666, "name": "0a08e68db7153742b425265a3a4ba545", "is_disabled": 0, "rental_uris": {"android": "https://dc.lft.to/lastmile_qr_scan", "ios": "https://dc.lft.to/lastmile_qr_scan"}, "type": "electric_scooter", "lat": 38.909770333333334, "is_reserved": 0, "fusion_lat": 0.0}, {"bike_id": "16ab49cba1ea0825d7a66da3aea1fac2", "fusion_lon": 0.0, "lon": -76.99533916666667, "name": "16ab49cba1ea0825d7a66da3aea1fac2", "is_disabled": 0, "rental_uris": {"android": "https://dc.lft.to/lastmile_qr_scan", "ios": "https://dc.lft.to/lastmile_qr_scan"}, "type": "electric_scooter", "lat": 38.9266965, "is_reserved": 0, "fusion_lat": 0.0}, {"bike_id": "09a49f05b04806ade63ba7a1579f900d", "fusion_lon": 0.0, "lon": -77.04833716666667, "name": "09a49f05b04806ade63ba7a1579f900d", "is_disabled": 0, "rental_uris": {"android": "https://dc.lft.to/lastmile_qr_scan", "ios": "https://dc.lft.to/lastmile_qr_scan"}, "type": "electric_scooter", "lat": 38.9019145, "is_reserved": 0, "fusion_lat": 0.0}, {"bike_id": "713ee4388a71a98d4c061b1a2d8eee9f", "fusion_lon": 0.0, "lon": -76.92885966666667, "name": "713ee4388a71a98d4c061b1a2d8eee9f", "is_disabled": 0, "rental_uris": {"android": "https://dc.lft.to/lastmile_qr_scan", "ios": "https://dc.lft.to/lastmile_qr_scan"}, "type": "electric_scooter", "lat": 38.885187, "is_reserved": 0, "fusion_lat": 0.0}, {"bike_id": "b9fea9fdf3d79816ae91103238642d01", "fusion_lon": 0.0, "lon": -77.09806466666667, "name": "b9fea9fdf3d79816ae91103238642d01", "is_disabled": 0, "rental_uris": {"android": "https://dc.lft.to/lastmile_qr_scan", "ios": "https://dc.lft.to/lastmile_qr_scan"}, "type": "electric_bike", "lat": 38.85027383333333, "is_reserved": 0, "fusion_lat": 0.0}, {"bike_id": "9e6ada12553d7201e347c34811269518", "fusion_lon": 0.0, "lon": -77.09963466666666, "name": "9e6ada12553d7201e347c34811269518", "is_disabled": 0, "rental_uris": {"android": "https://dc.lft.to/lastmile_qr_scan", "ios": "https://dc.lft.to/lastmile_qr_scan"}, "type": "electric_bike", "lat": 38.85793783333333, "is_reserved": 0, "fusion_lat": 0.0}, {"bike_id": "9a6c6678a03a7dd1ff18c7754f02bd54", "fusion_lon": 0.0, "lon": -77.00144883333333, "name": "9a6c6678a03a7dd1ff18c7754f02bd54", "is_disabled": 0, "rental_uris": {"android": "https://dc.lft.to/lastmile_qr_scan", "ios": "https://dc.lft.to/lastmile_qr_scan"}, "type": "electric_scooter", "lat": 38.907290833333334, "is_reserved": 0, "fusion_lat": 0.0}, {"bike_id": "06a11b709a8e2cead25cc141adae8752", "fusion_lon": 0.0, "lon": -76.97950566666667, "name": "06a11b709a8e2cead25cc141adae8752", "is_disabled": 0, "rental_uris": {"android": "https://dc.lft.to/lastmile_qr_scan", "ios": "https://dc.lft.to/lastmile_qr_scan"}, "type": "electric_scooter", "lat": 38.945226, "is_reserved": 0, "fusion_lat": 0.0}, {"bike_id": "cbb1860b4342bdc3410a947fc6cdaf33", "fusion_lon": 0.0, "lon": -77.02065566666667, "name": "cbb1860b4342bdc3410a947fc6cdaf33", "is_disabled": 0, "rental_uris": {"android": "https://dc.lft.to/lastmile_qr_scan", "ios": "https://dc.lft.to/lastmile_qr_scan"}, "type": "electric_bike", "lat": 38.964442, "is_reserved": 0, "fusion_lat": 0.0}, {"bike_id": "bc237c74d85614da093460e846d36d9c", "fusion_lon": 0.0, "lon": -77.0296365, "name": "bc237c74d85614da093460e846d36d9c", "is_disabled": 0, "rental_uris": {"android": "https://dc.lft.to/lastmile_qr_scan", "ios": "https://dc.lft.to/lastmile_qr_scan"}, "type": "electric_scooter", "lat": 38.9072805, "is_reserved": 0, "fusion_lat": 0.0}, {"bike_id": "13bf13204e820a512a5fcba502e45bf4", "fusion_lon": 0.0, "lon": -77.00964866666666, "name": "13bf13204e820a512a5fcba502e45bf4", "is_disabled": 0, "rental_uris": {"android": "https://dc.lft.to/lastmile_qr_scan", "ios": "https://dc.lft.to/lastmile_qr_scan"}, "type": "electric_scooter", "lat": 38.907913, "is_reserved": 0, "fusion_lat": 0.0}, {"bike_id": "8ef480b908ea2086658e33bbc9728bb9", "fusion_lon": 0.0, "lon": -77.035977, "name": "8ef480b908ea2086658e33bbc9728bb9", "is_disabled": 0, "rental_uris": {"android": "https://dc.lft.to/lastmile_qr_scan", "ios": "https://dc.lft.to/lastmile_qr_scan"}, "type": "electric_scooter", "lat": 38.9128005, "is_reserved": 0, "fusion_lat": 0.0}, {"bike_id": "c8cd3ed6e661025b38c8c8c4010166b6", "fusion_lon": 0.0, "lon": -77.02665166666667, "name": "c8cd3ed6e661025b38c8c8c4010166b6", "is_disabled": 0, "rental_uris": {"android": "https://dc.lft.to/lastmile_qr_scan", "ios": "https://dc.lft.to/lastmile_qr_scan"}, "type": "electric_scooter", "lat": 38.922158833333334, "is_reserved": 0, "fusion_lat": 0.0}, {"bike_id": "618404633a3ddce529efef9802009520", "fusion_lon": 0.0, "lon": -77.04648166666666, "name": "618404633a3ddce529efef9802009520", "is_disabled": 0, "rental_uris": {"android": "https://dc.lft.to/lastmile_qr_scan", "ios": "https://dc.lft.to/lastmile_qr_scan"}, "type": "electric_scooter", "lat": 38.905475833333334, "is_reserved": 0, "fusion_lat": 0.0}, {"bike_id": "5857f1c711cfa3717084c1f40c90c126", "fusion_lon": 0.0, "lon": -77.04706433333334, "name": "5857f1c711cfa3717084c1f40c90c126", "is_disabled": 0, "rental_uris": {"android": "https://dc.lft.to/lastmile_qr_scan", "ios": "https://dc.lft.to/lastmile_qr_scan"}, "type": "electric_scooter", "lat": 38.901332333333336, "is_reserved": 0, "fusion_lat": 0.0}, {"bike_id": "0d968f1f2c926198c27c9a4fa5affea4", "fusion_lon": 0.0, "lon": -77.01755416666667, "name": "0d968f1f2c926198c27c9a4fa5affea4", "is_disabled": 0, "rental_uris": {"android": "https://dc.lft.to/lastmile_qr_scan", "ios": "https://dc.lft.to/lastmile_qr_scan"}, "type": "electric_scooter", "lat": 38.877201166666666, "is_reserved": 0, "fusion_lat": 0.0}, {"bike_id": "91341700bb0968fd183841a4298f9929", "fusion_lon": 0.0, "lon": -77.01742283333333, "name": "91341700bb0968fd183841a4298f9929", "is_disabled": 0, "rental_uris": {"android": "https://dc.lft.to/lastmile_qr_scan", "ios": "https://dc.lft.to/lastmile_qr_scan"}, "type": "electric_scooter", "lat": 38.877682, "is_reserved": 0, "fusion_lat": 0.0}, {"bike_id": "25f6296e37bfb10adca18950f21bec5b", "fusion_lon": 0.0, "lon": -77.0221625, "name": "25f6296e37bfb10adca18950f21bec5b", "is_disabled": 0, "rental_uris": {"android": "https://dc.lft.to/lastmile_qr_scan", "ios": "https://dc.lft.to/lastmile_qr_scan"}, "type": "electric_scooter", "lat": 38.9156305, "is_reserved": 0, "fusion_lat": 0.0}, {"bike_id": "855863b7872739247143683d56192782", "fusion_lon": 0.0, "lon": -77.036371, "name": "855863b7872739247143683d56192782", "is_disabled": 0, "rental_uris": {"android": "https://dc.lft.to/lastmile_qr_scan", "ios": "https://dc.lft.to/lastmile_qr_scan"}, "type": "electric_scooter", "lat": 38.93177766666667, "is_reserved": 0, "fusion_lat": 0.0}, {"bike_id": "58d39012dac93816265f59d2b4873bfb", "fusion_lon": 0.0, "lon": -77.027029, "name": "58d39012dac93816265f59d2b4873bfb", "is_disabled": 0, "rental_uris": {"android": "https://dc.lft.to/lastmile_qr_scan", "ios": "https://dc.lft.to/lastmile_qr_scan"}, "type": "electric_scooter", "lat": 38.906671, "is_reserved": 0, "fusion_lat": 0.0}, {"bike_id": "56c309eb3c1dfa786044db183f56f0be", "fusion_lon": 0.0, "lon": -76.99610016666666, "name": "56c309eb3c1dfa786044db183f56f0be", "is_disabled": 0, "rental_uris": {"android": "https://dc.lft.to/lastmile_qr_scan", "ios": "https://dc.lft.to/lastmile_qr_scan"}, "type": "electric_scooter", "lat": 38.903625, "is_reserved": 0, "fusion_lat": 0.0}, {"bike_id": "f66174d675b750786f9db039d7491e53", "fusion_lon": 0.0, "lon": -77.04802216666667, "name": "f66174d675b750786f9db039d7491e53", "is_disabled": 0, "rental_uris": {"android": "https://dc.lft.to/lastmile_qr_scan", "ios": "https://dc.lft.to/lastmile_qr_scan"}, "type": "electric_scooter", "lat": 38.892229, "is_reserved": 0, "fusion_lat": 0.0}, {"bike_id": "f60051e1abeb4b6ada9796ac4604d090", "fusion_lon": 0.0, "lon": -77.03256433333334, "name": "f60051e1abeb4b6ada9796ac4604d090", "is_disabled": 0, "rental_uris": {"android": "https://dc.lft.to/lastmile_qr_scan", "ios": "https://dc.lft.to/lastmile_qr_scan"}, "type": "electric_scooter", "lat": 38.928593, "is_reserved": 0, "fusion_lat": 0.0}, {"bike_id": "37e8622ea6201fca8a8ec1ffc7ecc06b", "fusion_lon": 0.0, "lon": -77.0258975, "name": "37e8622ea6201fca8a8ec1ffc7ecc06b", "is_disabled": 0, "rental_uris": {"android": "https://dc.lft.to/lastmile_qr_scan", "ios": "https://dc.lft.to/lastmile_qr_scan"}, "type": "electric_scooter", "lat": 38.90518083333333, "is_reserved": 0, "fusion_lat": 0.0}, {"bike_id": "e291d5330027d2ecdfed61da5d8b4311", "fusion_lon": 0.0, "lon": -77.02562583333334, "name": "e291d5330027d2ecdfed61da5d8b4311", "is_disabled": 0, "rental_uris": {"android": "https://dc.lft.to/lastmile_qr_scan", "ios": "https://dc.lft.to/lastmile_qr_scan"}, "type": "electric_scooter", "lat": 38.925322, "is_reserved": 0, "fusion_lat": 0.0}, {"bike_id": "aa5ce61d18a3676c8bbf9ba5b4529848", "fusion_lon": 0.0, "lon": -77.02699166666666, "name": "aa5ce61d18a3676c8bbf9ba5b4529848", "is_disabled": 0, "rental_uris": {"android": "https://dc.lft.to/lastmile_qr_scan", "ios": "https://dc.lft.to/lastmile_qr_scan"}, "type": "electric_scooter", "lat": 38.924035, "is_reserved": 0, "fusion_lat": 0.0}, {"bike_id": "83ec906eb48794a86101e8c1b29d5e6d", "fusion_lon": 0.0, "lon": -76.986163, "name": "83ec906eb48794a86101e8c1b29d5e6d", "is_disabled": 0, "rental_uris": {"android": "https://dc.lft.to/lastmile_qr_scan", "ios": "https://dc.lft.to/lastmile_qr_scan"}, "type": "electric_scooter", "lat": 38.938264333333336, "is_reserved": 0, "fusion_lat": 0.0}, {"bike_id": "cfb5256b708b10dbca0655767716f001", "fusion_lon": 0.0, "lon": -77.01855033333334, "name": "cfb5256b708b10dbca0655767716f001", "is_disabled": 0, "rental_uris": {"android": "https://dc.lft.to/lastmile_qr_scan", "ios": "https://dc.lft.to/lastmile_qr_scan"}, "type": "electric_scooter", "lat": 38.91528266666667, "is_reserved": 0, "fusion_lat": 0.0}, {"bike_id": "49690848b1f788965b70d7cb98b30b60", "fusion_lon": 0.0, "lon": -77.02716933333333, "name": "49690848b1f788965b70d7cb98b30b60", "is_disabled": 0, "rental_uris": {"android": "https://dc.lft.to/lastmile_qr_scan", "ios": "https://dc.lft.to/lastmile_qr_scan"}, "type": "electric_scooter", "lat": 38.9495395, "is_reserved": 0, "fusion_lat": 0.0}, {"bike_id": "04036dea2fe2867b19c0654dd8d7dc7a", "fusion_lon": 0.0, "lon": -76.936129, "name": "04036dea2fe2867b19c0654dd8d7dc7a", "is_disabled": 0, "rental_uris": {"android": "https://dc.lft.to/lastmile_qr_scan", "ios": "https://dc.lft.to/lastmile_qr_scan"}, "type": "electric_scooter", "lat": 38.886688666666664, "is_reserved": 0, "fusion_lat": 0.0}, {"bike_id": "89b21720307102bf7424b4b69e24df7a", "fusion_lon": 0.0, "lon": -77.01222533333333, "name": "89b21720307102bf7424b4b69e24df7a", "is_disabled": 0, "rental_uris": {"android": "https://dc.lft.to/lastmile_qr_scan", "ios": "https://dc.lft.to/lastmile_qr_scan"}, "type": "electric_scooter", "lat": 38.91547033333333, "is_reserved": 0, "fusion_lat": 0.0}, {"bike_id": "8e92253ed77b76d2449f63771d54ca1d", "fusion_lon": 0.0, "lon": -76.99781516666667, "name": "8e92253ed77b76d2449f63771d54ca1d", "is_disabled": 0, "rental_uris": {"android": "https://dc.lft.to/lastmile_qr_scan", "ios": "https://dc.lft.to/lastmile_qr_scan"}, "type": "electric_scooter", "lat": 38.9090675, "is_reserved": 0, "fusion_lat": 0.0}, {"bike_id": "5888194702e07d8ca2abe0bf3f04a75d", "fusion_lon": 0.0, "lon": -77.02511133333333, "name": "5888194702e07d8ca2abe0bf3f04a75d", "is_disabled": 0, "rental_uris": {"android": "https://dc.lft.to/lastmile_qr_scan", "ios": "https://dc.lft.to/lastmile_qr_scan"}, "type": "electric_scooter", "lat": 38.915664, "is_reserved": 0, "fusion_lat": 0.0}, {"bike_id": "2f62c8d937a2aa04841590ef0de6ba48", "fusion_lon": 0.0, "lon": -77.01222666666666, "name": "2f62c8d937a2aa04841590ef0de6ba48", "is_disabled": 0, "rental_uris": {"android": "https://dc.lft.to/lastmile_qr_scan", "ios": "https://dc.lft.to/lastmile_qr_scan"}, "type": "electric_scooter", "lat": 38.91530266666667, "is_reserved": 0, "fusion_lat": 0.0}, {"bike_id": "1785d5b143b2f9cab034a082d49a6691", "fusion_lon": 0.0, "lon": -77.01778666666667, "name": "1785d5b143b2f9cab034a082d49a6691", "is_disabled": 0, "rental_uris": {"android": "https://dc.lft.to/lastmile_qr_scan", "ios": "https://dc.lft.to/lastmile_qr_scan"}, "type": "electric_scooter", "lat": 38.944198166666666, "is_reserved": 0, "fusion_lat": 0.0}, {"bike_id": "b190f3d9b3302b53a3d7a31834d7036d", "fusion_lon": 0.0, "lon": -77.02386383333334, "name": "b190f3d9b3302b53a3d7a31834d7036d", "is_disabled": 0, "rental_uris": {"android": "https://dc.lft.to/lastmile_qr_scan", "ios": "https://dc.lft.to/lastmile_qr_scan"}, "type": "electric_scooter", "lat": 38.9021105, "is_reserved": 0, "fusion_lat": 0.0}, {"bike_id": "ecdaedc141aa044bbb34fcfa402f4507", "fusion_lon": 0.0, "lon": -77.03870566666667, "name": "ecdaedc141aa044bbb34fcfa402f4507", "is_disabled": 0, "rental_uris": {"android": "https://dc.lft.to/lastmile_qr_scan", "ios": "https://dc.lft.to/lastmile_qr_scan"}, "type": "electric_scooter", "lat": 38.92150433333333, "is_reserved": 0, "fusion_lat": 0.0}, {"bike_id": "87840c741e52c600feb3ed7719439b6d", "fusion_lon": 0.0, "lon": -76.99502916666667, "name": "87840c741e52c600feb3ed7719439b6d", "is_disabled": 0, "rental_uris": {"android": "https://dc.lft.to/lastmile_qr_scan", "ios": "https://dc.lft.to/lastmile_qr_scan"}, "type": "electric_scooter", "lat": 38.89905066666667, "is_reserved": 0, "fusion_lat": 0.0}, {"bike_id": "4f3391ce629c6f93bccc30d625dfce80", "fusion_lon": 0.0, "lon": -76.997318, "name": "4f3391ce629c6f93bccc30d625dfce80", "is_disabled": 0, "rental_uris": {"android": "https://dc.lft.to/lastmile_qr_scan", "ios": "https://dc.lft.to/lastmile_qr_scan"}, "type": "electric_scooter", "lat": 38.907939166666665, "is_reserved": 0, "fusion_lat": 0.0}, {"bike_id": "1cd1ef24dbcfad60a40a79f52c660368", "fusion_lon": 0.0, "lon": -76.94637583333333, "name": "1cd1ef24dbcfad60a40a79f52c660368", "is_disabled": 0, "rental_uris": {"android": "https://dc.lft.to/lastmile_qr_scan", "ios": "https://dc.lft.to/lastmile_qr_scan"}, "type": "electric_scooter", "lat": 38.89844183333334, "is_reserved": 0, "fusion_lat": 0.0}, {"bike_id": "c404010a3eb222b9b5e71cf46124d410", "fusion_lon": 0.0, "lon": -76.98836666666666, "name": "c404010a3eb222b9b5e71cf46124d410", "is_disabled": 0, "rental_uris": {"android": "https://dc.lft.to/lastmile_qr_scan", "ios": "https://dc.lft.to/lastmile_qr_scan"}, "type": "electric_scooter", "lat": 38.9003485, "is_reserved": 0, "fusion_lat": 0.0}, {"bike_id": "894cc8e5a9f9303551506c235c70bd48", "fusion_lon": 0.0, "lon": -77.03277433333334, "name": "894cc8e5a9f9303551506c235c70bd48", "is_disabled": 0, "rental_uris": {"android": "https://dc.lft.to/lastmile_qr_scan", "ios": "https://dc.lft.to/lastmile_qr_scan"}, "type": "electric_scooter", "lat": 38.93447916666667, "is_reserved": 0, "fusion_lat": 0.0}, {"bike_id": "bc205f8e88cc8f0cf63afc0c0f575bec", "fusion_lon": 0.0, "lon": -77.02085866666667, "name": "bc205f8e88cc8f0cf63afc0c0f575bec", "is_disabled": 0, "rental_uris": {"android": "https://dc.lft.to/lastmile_qr_scan", "ios": "https://dc.lft.to/lastmile_qr_scan"}, "type": "electric_scooter", "lat": 38.92709333333333, "is_reserved": 0, "fusion_lat": 0.0}, {"bike_id": "27d51dab9da05b035dc7916baeffb1ab", "fusion_lon": 0.0, "lon": -77.1252575, "name": "27d51dab9da05b035dc7916baeffb1ab", "is_disabled": 0, "rental_uris": {"android": "https://dc.lft.to/lastmile_qr_scan", "ios": "https://dc.lft.to/lastmile_qr_scan"}, "type": "electric_bike", "lat": 39.05630466666667, "is_reserved": 0, "fusion_lat": 0.0}, {"bike_id": "d32d6f836c5ec0b00eb1885e948e4cf8", "fusion_lon": 0.0, "lon": -76.98493583333334, "name": "d32d6f836c5ec0b00eb1885e948e4cf8", "is_disabled": 0, "rental_uris": {"android": "https://dc.lft.to/lastmile_qr_scan", "ios": "https://dc.lft.to/lastmile_qr_scan"}, "type": "electric_scooter", "lat": 38.866799666666665, "is_reserved": 0, "fusion_lat": 0.0}, {"bike_id": "b45b45dfa907f17809a3f9c5e272da59", "fusion_lon": 0.0, "lon": -77.03468033333333, "name": "b45b45dfa907f17809a3f9c5e272da59", "is_disabled": 0, "rental_uris": {"android": "https://dc.lft.to/lastmile_qr_scan", "ios": "https://dc.lft.to/lastmile_qr_scan"}, "type": "electric_scooter", "lat": 38.902735166666666, "is_reserved": 0, "fusion_lat": 0.0}, {"bike_id": "982fd8465b8c6eeddbfbe042878bfb02", "fusion_lon": 0.0, "lon": -77.03857783333333, "name": "982fd8465b8c6eeddbfbe042878bfb02", "is_disabled": 0, "rental_uris": {"android": "https://dc.lft.to/lastmile_qr_scan", "ios": "https://dc.lft.to/lastmile_qr_scan"}, "type": "electric_scooter", "lat": 38.915469333333334, "is_reserved": 0, "fusion_lat": 0.0}, {"bike_id": "622b9213cf2562d60b410a2ec2e6ea83", "fusion_lon": 0.0, "lon": -77.049727, "name": "622b9213cf2562d60b410a2ec2e6ea83", "is_disabled": 0, "rental_uris": {"android": "https://dc.lft.to/lastmile_qr_scan", "ios": "https://dc.lft.to/lastmile_qr_scan"}, "type": "electric_bike", "lat": 38.832191, "is_reserved": 0, "fusion_lat": 0.0}, {"bike_id": "609eb84ec62133531c24c6409e98c603", "fusion_lon": 0.0, "lon": -77.03582083333333, "name": "609eb84ec62133531c24c6409e98c603", "is_disabled": 0, "rental_uris": {"android": "https://dc.lft.to/lastmile_qr_scan", "ios": "https://dc.lft.to/lastmile_qr_scan"}, "type": "electric_scooter", "lat": 38.93473816666667, "is_reserved": 0, "fusion_lat": 0.0}, {"bike_id": "dab322fa040355750fac585cbdc8669f", "fusion_lon": 0.0, "lon": -77.01224416666666, "name": "dab322fa040355750fac585cbdc8669f", "is_disabled": 0, "rental_uris": {"android": "https://dc.lft.to/lastmile_qr_scan", "ios": "https://dc.lft.to/lastmile_qr_scan"}, "type": "electric_scooter", "lat": 38.91530066666667, "is_reserved": 0, "fusion_lat": 0.0}, {"bike_id": "53d810dc4a82b7a9a1ac28375c3144e8", "fusion_lon": 0.0, "lon": -76.98995783333334, "name": "53d810dc4a82b7a9a1ac28375c3144e8", "is_disabled": 0, "rental_uris": {"android": "https://dc.lft.to/lastmile_qr_scan", "ios": "https://dc.lft.to/lastmile_qr_scan"}, "type": "electric_scooter", "lat": 38.864976, "is_reserved": 0, "fusion_lat": 0.0}, {"bike_id": "9a5fc1d395ad69da920dce728e6d8ea4", "fusion_lon": 0.0, "lon": -77.03671333333334, "name": "9a5fc1d395ad69da920dce728e6d8ea4", "is_disabled": 0, "rental_uris": {"android": "https://dc.lft.to/lastmile_qr_scan", "ios": "https://dc.lft.to/lastmile_qr_scan"}, "type": "electric_scooter", "lat": 38.93089533333333, "is_reserved": 0, "fusion_lat": 0.0}, {"bike_id": "14dac908c868347dd182d76c30ba799a", "fusion_lon": 0.0, "lon": -77.02686833333334, "name": "14dac908c868347dd182d76c30ba799a", "is_disabled": 0, "rental_uris": {"android": "https://dc.lft.to/lastmile_qr_scan", "ios": "https://dc.lft.to/lastmile_qr_scan"}, "type": "electric_scooter", "lat": 38.91263416666666, "is_reserved": 0, "fusion_lat": 0.0}, {"bike_id": "3ebdd8336bfea765e742ae92e6312b0d", "fusion_lon": 0.0, "lon": -77.02171533333333, "name": "3ebdd8336bfea765e742ae92e6312b0d", "is_disabled": 0, "rental_uris": {"android": "https://dc.lft.to/lastmile_qr_scan", "ios": "https://dc.lft.to/lastmile_qr_scan"}, "type": "electric_scooter", "lat": 38.898843, "is_reserved": 0, "fusion_lat": 0.0}, {"bike_id": "e56b9b67a5feb24657543c02ae98bb92", "fusion_lon": 0.0, "lon": -77.02204166666667, "name": "e56b9b67a5feb24657543c02ae98bb92", "is_disabled": 0, "rental_uris": {"android": "https://dc.lft.to/lastmile_qr_scan", "ios": "https://dc.lft.to/lastmile_qr_scan"}, "type": "electric_scooter", "lat": 38.902198166666665, "is_reserved": 0, "fusion_lat": 0.0}, {"bike_id": "279b123d50acd22341063f732f57aa7e", "fusion_lon": 0.0, "lon": -77.038845, "name": "279b123d50acd22341063f732f57aa7e", "is_disabled": 0, "rental_uris": {"android": "https://dc.lft.to/lastmile_qr_scan", "ios": "https://dc.lft.to/lastmile_qr_scan"}, "type": "electric_scooter", "lat": 38.932438833333336, "is_reserved": 0, "fusion_lat": 0.0}, {"bike_id": "b2c0353352c399d5d6991591e54b2842", "fusion_lon": 0.0, "lon": -77.04014816666667, "name": "b2c0353352c399d5d6991591e54b2842", "is_disabled": 0, "rental_uris": {"android": "https://dc.lft.to/lastmile_qr_scan", "ios": "https://dc.lft.to/lastmile_qr_scan"}, "type": "electric_scooter", "lat": 38.9216605, "is_reserved": 0, "fusion_lat": 0.0}, {"bike_id": "edbf7b9c675227f7abc3ec65bc70fcf7", "fusion_lon": 0.0, "lon": -76.99515333333333, "name": "edbf7b9c675227f7abc3ec65bc70fcf7", "is_disabled": 0, "rental_uris": {"android": "https://dc.lft.to/lastmile_qr_scan", "ios": "https://dc.lft.to/lastmile_qr_scan"}, "type": "electric_scooter", "lat": 38.862561666666664, "is_reserved": 0, "fusion_lat": 0.0}, {"bike_id": "a1db42714fa005b5d42976db85949a3b", "fusion_lon": 0.0, "lon": -77.00215916666667, "name": "a1db42714fa005b5d42976db85949a3b", "is_disabled": 0, "rental_uris": {"android": "https://dc.lft.to/lastmile_qr_scan", "ios": "https://dc.lft.to/lastmile_qr_scan"}, "type": "electric_scooter", "lat": 38.920481, "is_reserved": 0, "fusion_lat": 0.0}, {"bike_id": "489ca522e27a52c68da7effc1d00b5ae", "fusion_lon": 0.0, "lon": -77.00124583333333, "name": "489ca522e27a52c68da7effc1d00b5ae", "is_disabled": 0, "rental_uris": {"android": "https://dc.lft.to/lastmile_qr_scan", "ios": "https://dc.lft.to/lastmile_qr_scan"}, "type": "electric_scooter", "lat": 38.877892833333334, "is_reserved": 0, "fusion_lat": 0.0}, {"bike_id": "890363f1d45a155eda0ce274cd92dbbc", "fusion_lon": 0.0, "lon": -77.043138, "name": "890363f1d45a155eda0ce274cd92dbbc", "is_disabled": 0, "rental_uris": {"android": "https://dc.lft.to/lastmile_qr_scan", "ios": "https://dc.lft.to/lastmile_qr_scan"}, "type": "electric_scooter", "lat": 38.91878066666666, "is_reserved": 0, "fusion_lat": 0.0}, {"bike_id": "59044ffeeb0b26a72a7665cc2403efb0", "fusion_lon": 0.0, "lon": -77.028099, "name": "59044ffeeb0b26a72a7665cc2403efb0", "is_disabled": 0, "rental_uris": {"android": "https://dc.lft.to/lastmile_qr_scan", "ios": "https://dc.lft.to/lastmile_qr_scan"}, "type": "electric_scooter", "lat": 38.93086483333333, "is_reserved": 0, "fusion_lat": 0.0}, {"bike_id": "8a4e35c1a410b767eb8282bc67fa3216", "fusion_lon": 0.0, "lon": -76.988377, "name": "8a4e35c1a410b767eb8282bc67fa3216", "is_disabled": 0, "rental_uris": {"android": "https://dc.lft.to/lastmile_qr_scan", "ios": "https://dc.lft.to/lastmile_qr_scan"}, "type": "electric_scooter", "lat": 38.900354, "is_reserved": 0, "fusion_lat": 0.0}, {"bike_id": "0fd22e7064338081b5ce58a1e8904cca", "fusion_lon": 0.0, "lon": -77.041312, "name": "0fd22e7064338081b5ce58a1e8904cca", "is_disabled": 0, "rental_uris": {"android": "https://dc.lft.to/lastmile_qr_scan", "ios": "https://dc.lft.to/lastmile_qr_scan"}, "type": "electric_scooter", "lat": 38.921717, "is_reserved": 0, "fusion_lat": 0.0}, {"bike_id": "1cc90d14d2b41d924df0c1c8f7ecacc9", "fusion_lon": 0.0, "lon": -77.04478983333334, "name": "1cc90d14d2b41d924df0c1c8f7ecacc9", "is_disabled": 0, "rental_uris": {"android": "https://dc.lft.to/lastmile_qr_scan", "ios": "https://dc.lft.to/lastmile_qr_scan"}, "type": "electric_scooter", "lat": 38.913699333333334, "is_reserved": 0, "fusion_lat": 0.0}, {"bike_id": "398c4fa7cab941394082f95eef52b2bd", "fusion_lon": 0.0, "lon": -77.07356283333333, "name": "398c4fa7cab941394082f95eef52b2bd", "is_disabled": 0, "rental_uris": {"android": "https://dc.lft.to/lastmile_qr_scan", "ios": "https://dc.lft.to/lastmile_qr_scan"}, "type": "electric_bike", "lat": 38.9617095, "is_reserved": 0, "fusion_lat": 0.0}, {"bike_id": "2aaa9ca301cb6a9bcd3f02c1f3a6be6f", "fusion_lon": 0.0, "lon": -77.02441783333333, "name": "2aaa9ca301cb6a9bcd3f02c1f3a6be6f", "is_disabled": 0, "rental_uris": {"android": "https://dc.lft.to/lastmile_qr_scan", "ios": "https://dc.lft.to/lastmile_qr_scan"}, "type": "electric_scooter", "lat": 38.9021665, "is_reserved": 0, "fusion_lat": 0.0}, {"bike_id": "108cfe1fd23880969975915b23c42cbb", "fusion_lon": 0.0, "lon": -76.99092016666667, "name": "108cfe1fd23880969975915b23c42cbb", "is_disabled": 0, "rental_uris": {"android": "https://dc.lft.to/lastmile_qr_scan", "ios": "https://dc.lft.to/lastmile_qr_scan"}, "type": "electric_scooter", "lat": 38.88231533333333, "is_reserved": 0, "fusion_lat": 0.0}, {"bike_id": "00699dcc4a520cac2c95711c1dfc726c", "fusion_lon": 0.0, "lon": -76.93734983333333, "name": "00699dcc4a520cac2c95711c1dfc726c", "is_disabled": 0, "rental_uris": {"android": "https://dc.lft.to/lastmile_qr_scan", "ios": "https://dc.lft.to/lastmile_qr_scan"}, "type": "electric_scooter", "lat": 38.8901595, "is_reserved": 0, "fusion_lat": 0.0}, {"bike_id": "c5f5cf9ef85592292f499069a1c47f84", "fusion_lon": 0.0, "lon": -77.0140675, "name": "c5f5cf9ef85592292f499069a1c47f84", "is_disabled": 0, "rental_uris": {"android": "https://dc.lft.to/lastmile_qr_scan", "ios": "https://dc.lft.to/lastmile_qr_scan"}, "type": "electric_scooter", "lat": 38.887460833333336, "is_reserved": 0, "fusion_lat": 0.0}, {"bike_id": "438fedff8c43d131d7f46a2743dc3874", "fusion_lon": 0.0, "lon": -77.00201833333334, "name": "438fedff8c43d131d7f46a2743dc3874", "is_disabled": 0, "rental_uris": {"android": "https://dc.lft.to/lastmile_qr_scan", "ios": "https://dc.lft.to/lastmile_qr_scan"}, "type": "electric_scooter", "lat": 38.902403666666665, "is_reserved": 0, "fusion_lat": 0.0}, {"bike_id": "9c70ed50d5ac7dfb2b91d0963722057e", "fusion_lon": 0.0, "lon": -77.0222365, "name": "9c70ed50d5ac7dfb2b91d0963722057e", "is_disabled": 0, "rental_uris": {"android": "https://dc.lft.to/lastmile_qr_scan", "ios": "https://dc.lft.to/lastmile_qr_scan"}, "type": "electric_scooter", "lat": 38.892200833333334, "is_reserved": 0, "fusion_lat": 0.0}, {"bike_id": "c3ca7c15354925aa043cb5f921b22f26", "fusion_lon": 0.0, "lon": -77.02692966666666, "name": "c3ca7c15354925aa043cb5f921b22f26", "is_disabled": 0, "rental_uris": {"android": "https://dc.lft.to/lastmile_qr_scan", "ios": "https://dc.lft.to/lastmile_qr_scan"}, "type": "electric_scooter", "lat": 38.899794666666665, "is_reserved": 0, "fusion_lat": 0.0}, {"bike_id": "058ac1b7e46eaf07cf4b1f7ab6825e88", "fusion_lon": 0.0, "lon": -77.00974483333333, "name": "058ac1b7e46eaf07cf4b1f7ab6825e88", "is_disabled": 0, "rental_uris": {"android": "https://dc.lft.to/lastmile_qr_scan", "ios": "https://dc.lft.to/lastmile_qr_scan"}, "type": "electric_bike", "lat": 38.96137916666667, "is_reserved": 0, "fusion_lat": 0.0}, {"bike_id": "b3df3507c5d15d4c431667af71c11762", "fusion_lon": 0.0, "lon": -77.0487525, "name": "b3df3507c5d15d4c431667af71c11762", "is_disabled": 0, "rental_uris": {"android": "https://dc.lft.to/lastmile_qr_scan", "ios": "https://dc.lft.to/lastmile_qr_scan"}, "type": "electric_scooter", "lat": 38.906427666666666, "is_reserved": 0, "fusion_lat": 0.0}, {"bike_id": "96ff4e891b2abfc848276d7deb45e580", "fusion_lon": 0.0, "lon": -77.00597383333333, "name": "96ff4e891b2abfc848276d7deb45e580", "is_disabled": 0, "rental_uris": {"android": "https://dc.lft.to/lastmile_qr_scan", "ios": "https://dc.lft.to/lastmile_qr_scan"}, "type": "electric_scooter", "lat": 38.905624, "is_reserved": 0, "fusion_lat": 0.0}, {"bike_id": "d72ef2d3f30981b7772e30e04641ca93", "fusion_lon": 0.0, "lon": -77.02940316666667, "name": "d72ef2d3f30981b7772e30e04641ca93", "is_disabled": 0, "rental_uris": {"android": "https://dc.lft.to/lastmile_qr_scan", "ios": "https://dc.lft.to/lastmile_qr_scan"}, "type": "electric_scooter", "lat": 38.899547166666665, "is_reserved": 0, "fusion_lat": 0.0}, {"bike_id": "d6f1f041e3e7917657ed0ec500dbc1ba", "fusion_lon": 0.0, "lon": -76.99906933333334, "name": "d6f1f041e3e7917657ed0ec500dbc1ba", "is_disabled": 0, "rental_uris": {"android": "https://dc.lft.to/lastmile_qr_scan", "ios": "https://dc.lft.to/lastmile_qr_scan"}, "type": "electric_scooter", "lat": 38.948142833333335, "is_reserved": 0, "fusion_lat": 0.0}, {"bike_id": "cdebad043e690b34ffff09eb063baed4", "fusion_lon": 0.0, "lon": -76.99874483333333, "name": "cdebad043e690b34ffff09eb063baed4", "is_disabled": 0, "rental_uris": {"android": "https://dc.lft.to/lastmile_qr_scan", "ios": "https://dc.lft.to/lastmile_qr_scan"}, "type": "electric_scooter", "lat": 38.900301666666664, "is_reserved": 0, "fusion_lat": 0.0}, {"bike_id": "b2ecb2c4be6fdc72af51057ef3d3906d", "fusion_lon": 0.0, "lon": -77.04713183333334, "name": "b2ecb2c4be6fdc72af51057ef3d3906d", "is_disabled": 0, "rental_uris": {"android": "https://dc.lft.to/lastmile_qr_scan", "ios": "https://dc.lft.to/lastmile_qr_scan"}, "type": "electric_scooter", "lat": 38.921102833333336, "is_reserved": 0, "fusion_lat": 0.0}, {"bike_id": "4c7b5f93bb1395cc094fb9d502f9e28b", "fusion_lon": 0.0, "lon": -77.0358805, "name": "4c7b5f93bb1395cc094fb9d502f9e28b", "is_disabled": 0, "rental_uris": {"android": "https://dc.lft.to/lastmile_qr_scan", "ios": "https://dc.lft.to/lastmile_qr_scan"}, "type": "electric_scooter", "lat": 38.93672516666667, "is_reserved": 0, "fusion_lat": 0.0}, {"bike_id": "1c5e23076fb71c31383c8ff0d0c354b7", "fusion_lon": 0.0, "lon": -77.02213016666667, "name": "1c5e23076fb71c31383c8ff0d0c354b7", "is_disabled": 0, "rental_uris": {"android": "https://dc.lft.to/lastmile_qr_scan", "ios": "https://dc.lft.to/lastmile_qr_scan"}, "type": "electric_scooter", "lat": 38.91552, "is_reserved": 0, "fusion_lat": 0.0}, {"bike_id": "139f4c70600c00d70198af8207300a05", "fusion_lon": 0.0, "lon": -77.139002, "name": "139f4c70600c00d70198af8207300a05", "is_disabled": 0, "rental_uris": {"android": "https://dc.lft.to/lastmile_qr_scan", "ios": "https://dc.lft.to/lastmile_qr_scan"}, "type": "electric_bike", "lat": 38.896849, "is_reserved": 0, "fusion_lat": 0.0}, {"bike_id": "c07061416d3d7bf298a286c6d292e93f", "fusion_lon": 0.0, "lon": -76.97950266666666, "name": "c07061416d3d7bf298a286c6d292e93f", "is_disabled": 0, "rental_uris": {"android": "https://dc.lft.to/lastmile_qr_scan", "ios": "https://dc.lft.to/lastmile_qr_scan"}, "type": "electric_scooter", "lat": 38.916892833333335, "is_reserved": 0, "fusion_lat": 0.0}, {"bike_id": "1d335a874c1b059ed656325de71d239a", "fusion_lon": 0.0, "lon": -77.0335905, "name": "1d335a874c1b059ed656325de71d239a", "is_disabled": 0, "rental_uris": {"android": "https://dc.lft.to/lastmile_qr_scan", "ios": "https://dc.lft.to/lastmile_qr_scan"}, "type": "electric_scooter", "lat": 38.8849905, "is_reserved": 0, "fusion_lat": 0.0}, {"bike_id": "d4d6dea8f4e595e65e2ca1fa54cba3d4", "fusion_lon": 0.0, "lon": -77.06338316666667, "name": "d4d6dea8f4e595e65e2ca1fa54cba3d4", "is_disabled": 0, "rental_uris": {"android": "https://dc.lft.to/lastmile_qr_scan", "ios": "https://dc.lft.to/lastmile_qr_scan"}, "type": "electric_scooter", "lat": 38.9067835, "is_reserved": 0, "fusion_lat": 0.0}, {"bike_id": "6a03762028d44794370fb7036aae0d60", "fusion_lon": 0.0, "lon": -77.04235833333334, "name": "6a03762028d44794370fb7036aae0d60", "is_disabled": 0, "rental_uris": {"android": "https://dc.lft.to/lastmile_qr_scan", "ios": "https://dc.lft.to/lastmile_qr_scan"}, "type": "electric_scooter", "lat": 38.91789266666667, "is_reserved": 0, "fusion_lat": 0.0}, {"bike_id": "9257c0df6cc75cf86d67fbb9040f1eb7", "fusion_lon": 0.0, "lon": -77.045124, "name": "9257c0df6cc75cf86d67fbb9040f1eb7", "is_disabled": 0, "rental_uris": {"android": "https://dc.lft.to/lastmile_qr_scan", "ios": "https://dc.lft.to/lastmile_qr_scan"}, "type": "electric_scooter", "lat": 38.8860385, "is_reserved": 0, "fusion_lat": 0.0}, {"bike_id": "122f7c72b14d0cc92e1ceb042f1c3b2c", "fusion_lon": 0.0, "lon": -77.02284933333334, "name": "122f7c72b14d0cc92e1ceb042f1c3b2c", "is_disabled": 0, "rental_uris": {"android": "https://dc.lft.to/lastmile_qr_scan", "ios": "https://dc.lft.to/lastmile_qr_scan"}, "type": "electric_scooter", "lat": 38.91601, "is_reserved": 0, "fusion_lat": 0.0}, {"bike_id": "5a7d14ee5d733d765d1741181d29db9c", "fusion_lon": 0.0, "lon": -77.11050216666666, "name": "5a7d14ee5d733d765d1741181d29db9c", "is_disabled": 0, "rental_uris": {"android": "https://dc.lft.to/lastmile_qr_scan", "ios": "https://dc.lft.to/lastmile_qr_scan"}, "type": "electric_bike", "lat": 38.870780333333336, "is_reserved": 0, "fusion_lat": 0.0}, {"bike_id": "3f8c53fc016729b4a78655eac4ac25e1", "fusion_lon": 0.0, "lon": -76.931971, "name": "3f8c53fc016729b4a78655eac4ac25e1", "is_disabled": 0, "rental_uris": {"android": "https://dc.lft.to/lastmile_qr_scan", "ios": "https://dc.lft.to/lastmile_qr_scan"}, "type": "electric_scooter", "lat": 38.8987845, "is_reserved": 0, "fusion_lat": 0.0}, {"bike_id": "525193d9f6d7e32f9144ac03e251d459", "fusion_lon": 0.0, "lon": -77.03512916666666, "name": "525193d9f6d7e32f9144ac03e251d459", "is_disabled": 0, "rental_uris": {"android": "https://dc.lft.to/lastmile_qr_scan", "ios": "https://dc.lft.to/lastmile_qr_scan"}, "type": "electric_bike", "lat": 38.96203216666667, "is_reserved": 0, "fusion_lat": 0.0}, {"bike_id": "6afeb6c1a75796e6060f4410af155dfc", "fusion_lon": 0.0, "lon": -77.03869716666667, "name": "6afeb6c1a75796e6060f4410af155dfc", "is_disabled": 0, "rental_uris": {"android": "https://dc.lft.to/lastmile_qr_scan", "ios": "https://dc.lft.to/lastmile_qr_scan"}, "type": "electric_scooter", "lat": 38.918218, "is_reserved": 0, "fusion_lat": 0.0}, {"bike_id": "5a4b402233c2138fd86ed25171012ecc", "fusion_lon": 0.0, "lon": -77.02542166666667, "name": "5a4b402233c2138fd86ed25171012ecc", "is_disabled": 0, "rental_uris": {"android": "https://dc.lft.to/lastmile_qr_scan", "ios": "https://dc.lft.to/lastmile_qr_scan"}, "type": "electric_scooter", "lat": 38.94113383333333, "is_reserved": 0, "fusion_lat": 0.0}, {"bike_id": "18c0c5cf05b5beac97fe8d9a133e5ee2", "fusion_lon": 0.0, "lon": -77.04180766666667, "name": "18c0c5cf05b5beac97fe8d9a133e5ee2", "is_disabled": 0, "rental_uris": {"android": "https://dc.lft.to/lastmile_qr_scan", "ios": "https://dc.lft.to/lastmile_qr_scan"}, "type": "electric_scooter", "lat": 38.90575366666667, "is_reserved": 0, "fusion_lat": 0.0}, {"bike_id": "ed17729e07795956df0557aa53f021cd", "fusion_lon": 0.0, "lon": -77.03067733333333, "name": "ed17729e07795956df0557aa53f021cd", "is_disabled": 0, "rental_uris": {"android": "https://dc.lft.to/lastmile_qr_scan", "ios": "https://dc.lft.to/lastmile_qr_scan"}, "type": "electric_scooter", "lat": 38.92251, "is_reserved": 0, "fusion_lat": 0.0}, {"bike_id": "398b4f949ed8d9d098f243c6add25b02", "fusion_lon": 0.0, "lon": -77.0424215, "name": "398b4f949ed8d9d098f243c6add25b02", "is_disabled": 0, "rental_uris": {"android": "https://dc.lft.to/lastmile_qr_scan", "ios": "https://dc.lft.to/lastmile_qr_scan"}, "type": "electric_scooter", "lat": 38.922168, "is_reserved": 0, "fusion_lat": 0.0}, {"bike_id": "cbcd673f50344f98d22575ccd60b6c8b", "fusion_lon": 0.0, "lon": -77.03448033333333, "name": "cbcd673f50344f98d22575ccd60b6c8b", "is_disabled": 0, "rental_uris": {"android": "https://dc.lft.to/lastmile_qr_scan", "ios": "https://dc.lft.to/lastmile_qr_scan"}, "type": "electric_scooter", "lat": 38.90727916666667, "is_reserved": 0, "fusion_lat": 0.0}, {"bike_id": "d3460904304caec89e3035bcd7eec7fc", "fusion_lon": 0.0, "lon": -77.00600883333334, "name": "d3460904304caec89e3035bcd7eec7fc", "is_disabled": 0, "rental_uris": {"android": "https://dc.lft.to/lastmile_qr_scan", "ios": "https://dc.lft.to/lastmile_qr_scan"}, "type": "electric_scooter", "lat": 38.90560516666667, "is_reserved": 0, "fusion_lat": 0.0}, {"bike_id": "7da7e63c4583822bca7d4401a82b64c5", "fusion_lon": 0.0, "lon": -77.0154695, "name": "7da7e63c4583822bca7d4401a82b64c5", "is_disabled": 0, "rental_uris": {"android": "https://dc.lft.to/lastmile_qr_scan", "ios": "https://dc.lft.to/lastmile_qr_scan"}, "type": "electric_scooter", "lat": 38.891364333333335, "is_reserved": 0, "fusion_lat": 0.0}, {"bike_id": "8bb09651e90226e7b19f89db2ff54ca4", "fusion_lon": 0.0, "lon": -77.05087516666667, "name": "8bb09651e90226e7b19f89db2ff54ca4", "is_disabled": 0, "rental_uris": {"android": "https://dc.lft.to/lastmile_qr_scan", "ios": "https://dc.lft.to/lastmile_qr_scan"}, "type": "electric_scooter", "lat": 38.9233525, "is_reserved": 0, "fusion_lat": 0.0}, {"bike_id": "0e813b8b7f84eeef758f78e81ae84c53", "fusion_lon": 0.0, "lon": -77.0240875, "name": "0e813b8b7f84eeef758f78e81ae84c53", "is_disabled": 0, "rental_uris": {"android": "https://dc.lft.to/lastmile_qr_scan", "ios": "https://dc.lft.to/lastmile_qr_scan"}, "type": "electric_scooter", "lat": 38.917531, "is_reserved": 0, "fusion_lat": 0.0}, {"bike_id": "caf5d9ff7d1ca4cba7049a6355e292b5", "fusion_lon": 0.0, "lon": -77.0281025, "name": "caf5d9ff7d1ca4cba7049a6355e292b5", "is_disabled": 0, "rental_uris": {"android": "https://dc.lft.to/lastmile_qr_scan", "ios": "https://dc.lft.to/lastmile_qr_scan"}, "type": "electric_scooter", "lat": 38.9308695, "is_reserved": 0, "fusion_lat": 0.0}, {"bike_id": "b7735981a6688fc6f7a27283a45afe14", "fusion_lon": 0.0, "lon": -77.028096, "name": "b7735981a6688fc6f7a27283a45afe14", "is_disabled": 0, "rental_uris": {"android": "https://dc.lft.to/lastmile_qr_scan", "ios": "https://dc.lft.to/lastmile_qr_scan"}, "type": "electric_scooter", "lat": 38.91693166666667, "is_reserved": 0, "fusion_lat": 0.0}, {"bike_id": "21ad590daca599ec74f156ad6ceded4d", "fusion_lon": 0.0, "lon": -77.02085716666667, "name": "21ad590daca599ec74f156ad6ceded4d", "is_disabled": 0, "rental_uris": {"android": "https://dc.lft.to/lastmile_qr_scan", "ios": "https://dc.lft.to/lastmile_qr_scan"}, "type": "electric_scooter", "lat": 38.927131, "is_reserved": 0, "fusion_lat": 0.0}, {"bike_id": "9f97acbbdd4074665d8025555702adca", "fusion_lon": 0.0, "lon": -77.01199566666666, "name": "9f97acbbdd4074665d8025555702adca", "is_disabled": 0, "rental_uris": {"android": "https://dc.lft.to/lastmile_qr_scan", "ios": "https://dc.lft.to/lastmile_qr_scan"}, "type": "electric_scooter", "lat": 38.900110166666664, "is_reserved": 0, "fusion_lat": 0.0}, {"bike_id": "15f5ab4e23aa0069bdd9157a2958d685", "fusion_lon": 0.0, "lon": -77.04548033333333, "name": "15f5ab4e23aa0069bdd9157a2958d685", "is_disabled": 0, "rental_uris": {"android": "https://dc.lft.to/lastmile_qr_scan", "ios": "https://dc.lft.to/lastmile_qr_scan"},