{"data": {"bikes": [{"is_reserved": 0, "type": "electric_scooter", "fusion_lat": 0.0, "is_disabled": 0, "rental_uris": {"ios": "https://dc.lft.to/lastmile_qr_scan", "android": "https://dc.lft.to/lastmile_qr_scan"}, "bike_id": "b5f16d557227858c96690ede3e96a027", "lat": 38.909558, "name": "b5f16d557227858c96690ede3e96a027", "lon": -77.02278616666666, "fusion_lon": 0.0}, {"is_reserved": 0, "type": "electric_scooter", "fusion_lat": 0.0, "is_disabled": 0, "rental_uris": {"ios": "https://dc.lft.to/lastmile_qr_scan", "android": "https://dc.lft.to/lastmile_qr_scan"}, "bike_id": "b5baff7658ed9891f959b601bb464eb5", "lat": 38.93053533333333, "name": "b5baff7658ed9891f959b601bb464eb5", "lon": -77.0336165, "fusion_lon": 0.0}, {"is_reserved": 0, "type": "electric_scooter", "fusion_lat": 0.0, "is_disabled": 0, "rental_uris": {"ios": "https://dc.lft.to/lastmile_qr_scan", "android": "https://dc.lft.to/lastmile_qr_scan"}, "bike_id": "4d8d4baaf707c40d386a555243c65c9e", "lat": 38.89194766666667, "name": "4d8d4baaf707c40d386a555243c65c9e", "lon": -77.01553283333334, "fusion_lon": 0.0}, {"is_reserved": 0, "type": "electric_scooter", "fusion_lat": 0.0, "is_disabled": 0, "rental_uris": {"ios": "https://dc.lft.to/lastmile_qr_scan", "android": "https://dc.lft.to/lastmile_qr_scan"}, "bike_id": "4b9ab68952d1e6bc3866d3a0dd10981f", "lat": 38.910465333333335, "name": "4b9ab68952d1e6bc3866d3a0dd10981f", "lon": -76.99802566666666, "fusion_lon": 0.0}, {"is_reserved": 0, "type": "electric_scooter", "fusion_lat": 0.0, "is_disabled": 0, "rental_uris": {"ios": "https://dc.lft.to/lastmile_qr_scan", "android": "https://dc.lft.to/lastmile_qr_scan"}, "bike_id": "12579b9c1f87a316f94b2ad385a6d512", "lat": 38.922408833333336, "name": "12579b9c1f87a316f94b2ad385a6d512", "lon": -77.036636, "fusion_lon": 0.0}, {"is_reserved": 0, "type": "electric_scooter", "fusion_lat": 0.0, "is_disabled": 0, "rental_uris": {"ios": "https://dc.lft.to/lastmile_qr_scan", "android": "https://dc.lft.to/lastmile_qr_scan"}, "bike_id": "6ab4dbd05936ea486772770013c000ef", "lat": 38.9012185, "name": "6ab4dbd05936ea486772770013c000ef", "lon": -77.00362666666666, "fusion_lon": 0.0}, {"is_reserved": 0, "type": "electric_scooter", "fusion_lat": 0.0, "is_disabled": 0, "rental_uris": {"ios": "https://dc.lft.to/lastmile_qr_scan", "android": "https://dc.lft.to/lastmile_qr_scan"}, "bike_id": "22f1e5aa634510c5d2a9b062cc2b566c", "lat": 38.895625833333334, "name": "22f1e5aa634510c5d2a9b062cc2b566c", "lon": -77.02755716666667, "fusion_lon": 0.0}, {"is_reserved": 0, "type": "electric_scooter", "fusion_lat": 0.0, "is_disabled": 0, "rental_uris": {"ios": "https://dc.lft.to/lastmile_qr_scan", "android": "https://dc.lft.to/lastmile_qr_scan"}, "bike_id": "8bcc9d5bc7a969adcaaa3ac7b8eb46ba", "lat": 38.89276066666667, "name": "8bcc9d5bc7a969adcaaa3ac7b8eb46ba", "lon": -77.045035, "fusion_lon": 0.0}, {"is_reserved": 0, "type": "electric_bike", "fusion_lat": 0.0, "is_disabled": 0, "rental_uris": {"ios": "https://dc.lft.to/lastmile_qr_scan", "android": "https://dc.lft.to/lastmile_qr_scan"}, "bike_id": "59ced082e181c62167d99a1a7a40b30b", "lat": 38.938598666666664, "name": "59ced082e181c62167d99a1a7a40b30b", "lon": -76.99414266666666, "fusion_lon": 0.0}, {"is_reserved": 0, "type": "electric_scooter", "fusion_lat": 0.0, "is_disabled": 0, "rental_uris": {"ios": "https://dc.lft.to/lastmile_qr_scan", "android": "https://dc.lft.to/lastmile_qr_scan"}, "bike_id": "10e96b48f7ff23d1e6edb8fc2bc0d211", "lat": 38.92037533333333, "name": "10e96b48f7ff23d1e6edb8fc2bc0d211", "lon": -77.0259125, "fusion_lon": 0.0}, {"is_reserved": 0, "type": "electric_scooter", "fusion_lat": 0.0, "is_disabled": 0, "rental_uris": {"ios": "https://dc.lft.to/lastmile_qr_scan", "android": "https://dc.lft.to/lastmile_qr_scan"}, "bike_id": "c211d5c104abe9df75cf09e81c21e6d4", "lat": 38.8717625, "name": "c211d5c104abe9df75cf09e81c21e6d4", "lon": -77.00616733333334, "fusion_lon": 0.0}, {"is_reserved": 0, "type": "electric_scooter", "fusion_lat": 0.0, "is_disabled": 0, "rental_uris": {"ios": "https://dc.lft.to/lastmile_qr_scan", "android": "https://dc.lft.to/lastmile_qr_scan"}, "bike_id": "c60d45359c5b63171b65472f379679cf", "lat": 38.9233005, "name": "c60d45359c5b63171b65472f379679cf", "lon": -77.0351605, "fusion_lon": 0.0}, {"is_reserved": 0, "type": "electric_bike", "fusion_lat": 0.0, "is_disabled": 0, "rental_uris": {"ios": "https://dc.lft.to/lastmile_qr_scan", "android": "https://dc.lft.to/lastmile_qr_scan"}, "bike_id": "07fa94fa7a8d45ab3ae3768ab86a8e15", "lat": 38.83580383333333, "name": "07fa94fa7a8d45ab3ae3768ab86a8e15", "lon": -76.99022783333334, "fusion_lon": 0.0}, {"is_reserved": 0, "type": "electric_scooter", "fusion_lat": 0.0, "is_disabled": 0, "rental_uris": {"ios": "https://dc.lft.to/lastmile_qr_scan", "android": "https://dc.lft.to/lastmile_qr_scan"}, "bike_id": "22d8957f3bdc82f3613e72c2cef30677", "lat": 38.92706116666667, "name": "22d8957f3bdc82f3613e72c2cef30677", "lon": -77.02092466666667, "fusion_lon": 0.0}, {"is_reserved": 0, "type": "electric_bike", "fusion_lat": 0.0, "is_disabled": 0, "rental_uris": {"ios": "https://dc.lft.to/lastmile_qr_scan", "android": "https://dc.lft.to/lastmile_qr_scan"}, "bike_id": "9a576a1466edbfc6d323850b4b94c3b2", "lat": 38.967753333333334, "name": "9a576a1466edbfc6d323850b4b94c3b2", "lon": -76.99650466666667, "fusion_lon": 0.0}, {"is_reserved": 0, "type": "electric_bike", "fusion_lat": 0.0, "is_disabled": 0, "rental_uris": {"ios": "https://dc.lft.to/lastmile_qr_scan", "android": "https://dc.lft.to/lastmile_qr_scan"}, "bike_id": "d9d88f9119b26452e55edd388a63cb0d", "lat": 38.91662, "name": "d9d88f9119b26452e55edd388a63cb0d", "lon": -76.98120716666666, "fusion_lon": 0.0}, {"is_reserved": 0, "type": "electric_scooter", "fusion_lat": 0.0, "is_disabled": 0, "rental_uris": {"ios": "https://dc.lft.to/lastmile_qr_scan", "android": "https://dc.lft.to/lastmile_qr_scan"}, "bike_id": "b110f2a68c61f6e23d4a32f9421ea4de", "lat": 38.912451, "name": "b110f2a68c61f6e23d4a32f9421ea4de", "lon": -77.0091865, "fusion_lon": 0.0}, {"is_reserved": 0, "type": "electric_scooter", "fusion_lat": 0.0, "is_disabled": 0, "rental_uris": {"ios": "https://dc.lft.to/lastmile_qr_scan", "android": "https://dc.lft.to/lastmile_qr_scan"}, "bike_id": "0eb198ee8d3a92385ddfd4c198a6c191", "lat": 38.8794305, "name": "0eb198ee8d3a92385ddfd4c198a6c191", "lon": -77.01274766666667, "fusion_lon": 0.0}, {"is_reserved": 0, "type": "electric_scooter", "fusion_lat": 0.0, "is_disabled": 0, "rental_uris": {"ios": "https://dc.lft.to/lastmile_qr_scan", "android": "https://dc.lft.to/lastmile_qr_scan"}, "bike_id": "2e56591a038d19432c6065046f0de897", "lat": 38.90017566666667, "name": "2e56591a038d19432c6065046f0de897", "lon": -77.01198333333333, "fusion_lon": 0.0}, {"is_reserved": 0, "type": "electric_scooter", "fusion_lat": 0.0, "is_disabled": 0, "rental_uris": {"ios": "https://dc.lft.to/lastmile_qr_scan", "android": "https://dc.lft.to/lastmile_qr_scan"}, "bike_id": "cf3d14ad4168867deec5f1b5d5a726d3", "lat": 38.895837, "name": "cf3d14ad4168867deec5f1b5d5a726d3", "lon": -77.02294783333333, "fusion_lon": 0.0}, {"is_reserved": 0, "type": "electric_scooter", "fusion_lat": 0.0, "is_disabled": 0, "rental_uris": {"ios": "https://dc.lft.to/lastmile_qr_scan", "android": "https://dc.lft.to/lastmile_qr_scan"}, "bike_id": "6a71f5b9d4c2d61500a091e0c2730746", "lat": 38.886987, "name": "6a71f5b9d4c2d61500a091e0c2730746", "lon": -77.000679, "fusion_lon": 0.0}, {"is_reserved": 0, "type": "electric_scooter", "fusion_lat": 0.0, "is_disabled": 0, "rental_uris": {"ios": "https://dc.lft.to/lastmile_qr_scan", "android": "https://dc.lft.to/lastmile_qr_scan"}, "bike_id": "f438aa8986f04eb37bb9357da4a3e37f", "lat": 38.933456166666666, "name": "f438aa8986f04eb37bb9357da4a3e37f", "lon": -76.99438883333333, "fusion_lon": 0.0}, {"is_reserved": 0, "type": "electric_scooter", "fusion_lat": 0.0, "is_disabled": 0, "rental_uris": {"ios": "https://dc.lft.to/lastmile_qr_scan", "android": "https://dc.lft.to/lastmile_qr_scan"}, "bike_id": "4470eac38ced51963d17fc4ef80748c0", "lat": 38.899251, "name": "4470eac38ced51963d17fc4ef80748c0", "lon": -77.04001233333334, "fusion_lon": 0.0}, {"is_reserved": 0, "type": "electric_scooter", "fusion_lat": 0.0, "is_disabled": 0, "rental_uris": {"ios": "https://dc.lft.to/lastmile_qr_scan", "android": "https://dc.lft.to/lastmile_qr_scan"}, "bike_id": "f8c2d6c7475d0373407ba383441480a9", "lat": 38.90057266666667, "name": "f8c2d6c7475d0373407ba383441480a9", "lon": -77.0067455, "fusion_lon": 0.0}, {"is_reserved": 0, "type": "electric_scooter", "fusion_lat": 0.0, "is_disabled": 0, "rental_uris": {"ios": "https://dc.lft.to/lastmile_qr_scan", "android": "https://dc.lft.to/lastmile_qr_scan"}, "bike_id": "4099b78133c0f501d2defa75957b87a7", "lat": 38.898251333333334, "name": "4099b78133c0f501d2defa75957b87a7", "lon": -77.02718066666667, "fusion_lon": 0.0}, {"is_reserved": 0, "type": "electric_scooter", "fusion_lat": 0.0, "is_disabled": 0, "rental_uris": {"ios": "https://dc.lft.to/lastmile_qr_scan", "android": "https://dc.lft.to/lastmile_qr_scan"}, "bike_id": "6ae7e357985a76dcb96ebfac1459b13c", "lat": 38.90641183333334, "name": "6ae7e357985a76dcb96ebfac1459b13c", "lon": -76.98023033333334, "fusion_lon": 0.0}, {"is_reserved": 0, "type": "electric_scooter", "fusion_lat": 0.0, "is_disabled": 0, "rental_uris": {"ios": "https://dc.lft.to/lastmile_qr_scan", "android": "https://dc.lft.to/lastmile_qr_scan"}, "bike_id": "998a97ecf29a69a92b8daf312bc1b0b4", "lat": 38.91628466666667, "name": "998a97ecf29a69a92b8daf312bc1b0b4", "lon": -77.0320995, "fusion_lon": 0.0}, {"is_reserved": 0, "type": "electric_scooter", "fusion_lat": 0.0, "is_disabled": 0, "rental_uris": {"ios": "https://dc.lft.to/lastmile_qr_scan", "android": "https://dc.lft.to/lastmile_qr_scan"}, "bike_id": "1015df0ba3e455445eb8f7740178b0d9", "lat": 38.92070616666667, "name": "1015df0ba3e455445eb8f7740178b0d9", "lon": -77.02514016666667, "fusion_lon": 0.0}, {"is_reserved": 0, "type": "electric_scooter", "fusion_lat": 0.0, "is_disabled": 0, "rental_uris": {"ios": "https://dc.lft.to/lastmile_qr_scan", "android": "https://dc.lft.to/lastmile_qr_scan"}, "bike_id": "fc26230984ed2a4da864ed6cc53bff4c", "lat": 38.876560166666664, "name": "fc26230984ed2a4da864ed6cc53bff4c", "lon": -77.01568166666667, "fusion_lon": 0.0}, {"is_reserved": 0, "type": "electric_scooter", "fusion_lat": 0.0, "is_disabled": 0, "rental_uris": {"ios": "https://dc.lft.to/lastmile_qr_scan", "android": "https://dc.lft.to/lastmile_qr_scan"}, "bike_id": "00b841ae6a3d34a4413868cf893c30c1", "lat": 38.903327166666664, "name": "00b841ae6a3d34a4413868cf893c30c1", "lon": -76.97591233333333, "fusion_lon": 0.0}, {"is_reserved": 0, "type": "electric_bike", "fusion_lat": 0.0, "is_disabled": 0, "rental_uris": {"ios": "https://dc.lft.to/lastmile_qr_scan", "android": "https://dc.lft.to/lastmile_qr_scan"}, "bike_id": "1915c890efc966f004431ecf08a949b1", "lat": 38.939643, "name": "1915c890efc966f004431ecf08a949b1", "lon": -77.037618, "fusion_lon": 0.0}, {"is_reserved": 0, "type": "electric_scooter", "fusion_lat": 0.0, "is_disabled": 0, "rental_uris": {"ios": "https://dc.lft.to/lastmile_qr_scan", "android": "https://dc.lft.to/lastmile_qr_scan"}, "bike_id": "443671c5f853abe4203d7114da49091e", "lat": 38.87371483333333, "name": "443671c5f853abe4203d7114da49091e", "lon": -77.00134733333333, "fusion_lon": 0.0}, {"is_reserved": 0, "type": "electric_scooter", "fusion_lat": 0.0, "is_disabled": 0, "rental_uris": {"ios": "https://dc.lft.to/lastmile_qr_scan", "android": "https://dc.lft.to/lastmile_qr_scan"}, "bike_id": "d378b08967c62976692a5cbcb73d0229", "lat": 38.92107333333333, "name": "d378b08967c62976692a5cbcb73d0229", "lon": -77.04701983333334, "fusion_lon": 0.0}, {"is_reserved": 0, "type": "electric_scooter", "fusion_lat": 0.0, "is_disabled": 0, "rental_uris": {"ios": "https://dc.lft.to/lastmile_qr_scan", "android": "https://dc.lft.to/lastmile_qr_scan"}, "bike_id": "d1e5bae7c49e8020bbb70e5bfd5fac20", "lat": 38.894921333333336, "name": "d1e5bae7c49e8020bbb70e5bfd5fac20", "lon": -77.022975, "fusion_lon": 0.0}, {"is_reserved": 0, "type": "electric_scooter", "fusion_lat": 0.0, "is_disabled": 0, "rental_uris": {"ios": "https://dc.lft.to/lastmile_qr_scan", "android": "https://dc.lft.to/lastmile_qr_scan"}, "bike_id": "fa9814e99439669d73ca0598388f6ecb", "lat": 38.92087166666666, "name": "fa9814e99439669d73ca0598388f6ecb", "lon": -77.02411116666667, "fusion_lon": 0.0}, {"is_reserved": 0, "type": "electric_scooter", "fusion_lat": 0.0, "is_disabled": 0, "rental_uris": {"ios": "https://dc.lft.to/lastmile_qr_scan", "android": "https://dc.lft.to/lastmile_qr_scan"}, "bike_id": "d9155ab7400a2a63085bc48f5c895281", "lat": 38.878372, "name": "d9155ab7400a2a63085bc48f5c895281", "lon": -77.006917, "fusion_lon": 0.0}, {"is_reserved": 0, "type": "electric_bike", "fusion_lat": 0.0, "is_disabled": 0, "rental_uris": {"ios": "https://dc.lft.to/lastmile_qr_scan", "android": "https://dc.lft.to/lastmile_qr_scan"}, "bike_id": "15e8fa39059dbaf935b386ad20de0be6", "lat": 38.8648895, "name": "15e8fa39059dbaf935b386ad20de0be6", "lon": -76.9698525, "fusion_lon": 0.0}, {"is_reserved": 0, "type": "electric_scooter", "fusion_lat": 0.0, "is_disabled": 0, "rental_uris": {"ios": "https://dc.lft.to/lastmile_qr_scan", "android": "https://dc.lft.to/lastmile_qr_scan"}, "bike_id": "3388be1925aa446f6dad1cfd2fd6cac4", "lat": 38.91658783333333, "name": "3388be1925aa446f6dad1cfd2fd6cac4", "lon": -77.04387916666667, "fusion_lon": 0.0}, {"is_reserved": 0, "type": "electric_bike", "fusion_lat": 0.0, "is_disabled": 0, "rental_uris": {"ios": "https://dc.lft.to/lastmile_qr_scan", "android": "https://dc.lft.to/lastmile_qr_scan"}, "bike_id": "4e73eb719ba30832dfa569943dc994a1", "lat": 38.8051725, "name": "4e73eb719ba30832dfa569943dc994a1", "lon": -77.0433875, "fusion_lon": 0.0}, {"is_reserved": 0, "type": "electric_scooter", "fusion_lat": 0.0, "is_disabled": 0, "rental_uris": {"ios": "https://dc.lft.to/lastmile_qr_scan", "android": "https://dc.lft.to/lastmile_qr_scan"}, "bike_id": "9b66e8be57e848ed23d433c5c11e562b", "lat": 38.910340166666664, "name": "9b66e8be57e848ed23d433c5c11e562b", "lon": -76.98560516666667, "fusion_lon": 0.0}, {"is_reserved": 0, "type": "electric_scooter", "fusion_lat": 0.0, "is_disabled": 0, "rental_uris": {"ios": "https://dc.lft.to/lastmile_qr_scan", "android": "https://dc.lft.to/lastmile_qr_scan"}, "bike_id": "68c9b49a49c1ec82eb6db248489ac446", "lat": 38.902688, "name": "68c9b49a49c1ec82eb6db248489ac446", "lon": -77.05915983333334, "fusion_lon": 0.0}, {"is_reserved": 0, "type": "electric_scooter", "fusion_lat": 0.0, "is_disabled": 0, "rental_uris": {"ios": "https://dc.lft.to/lastmile_qr_scan", "android": "https://dc.lft.to/lastmile_qr_scan"}, "bike_id": "6a5d17c8043268b343018e18a6022ff5", "lat": 38.928305333333334, "name": "6a5d17c8043268b343018e18a6022ff5", "lon": -77.01396083333333, "fusion_lon": 0.0}, {"is_reserved": 0, "type": "electric_scooter", "fusion_lat": 0.0, "is_disabled": 0, "rental_uris": {"ios": "https://dc.lft.to/lastmile_qr_scan", "android": "https://dc.lft.to/lastmile_qr_scan"}, "bike_id": "ecd6cb0db1635432bf597bb665481424", "lat": 38.89826583333333, "name": "ecd6cb0db1635432bf597bb665481424", "lon": -77.02715883333333, "fusion_lon": 0.0}, {"is_reserved": 0, "type": "electric_scooter", "fusion_lat": 0.0, "is_disabled": 0, "rental_uris": {"ios": "https://dc.lft.to/lastmile_qr_scan", "android": "https://dc.lft.to/lastmile_qr_scan"}, "bike_id": "3bcba167a2090bba548e759187516157", "lat": 38.9304855, "name": "3bcba167a2090bba548e759187516157", "lon": -77.032076, "fusion_lon": 0.0}, {"is_reserved": 0, "type": "electric_bike", "fusion_lat": 0.0, "is_disabled": 0, "rental_uris": {"ios": "https://dc.lft.to/lastmile_qr_scan", "android": "https://dc.lft.to/lastmile_qr_scan"}, "bike_id": "2a79db59ee4697bfd69b9fa2fc1b8f59", "lat": 38.920342833333336, "name": "2a79db59ee4697bfd69b9fa2fc1b8f59", "lon": -76.97959683333333, "fusion_lon": 0.0}, {"is_reserved": 0, "type": "electric_scooter", "fusion_lat": 0.0, "is_disabled": 0, "rental_uris": {"ios": "https://dc.lft.to/lastmile_qr_scan", "android": "https://dc.lft.to/lastmile_qr_scan"}, "bike_id": "32e57205a2ada00d6ba73d67eae1aee4", "lat": 38.9396745, "name": "32e57205a2ada00d6ba73d67eae1aee4", "lon": -77.03431466666666, "fusion_lon": 0.0}, {"is_reserved": 0, "type": "electric_scooter", "fusion_lat": 0.0, "is_disabled": 0, "rental_uris": {"ios": "https://dc.lft.to/lastmile_qr_scan", "android": "https://dc.lft.to/lastmile_qr_scan"}, "bike_id": "fee44785138f1762af2a3f3f663cae9c", "lat": 38.895300166666665, "name": "fee44785138f1762af2a3f3f663cae9c", "lon": -77.02947083333333, "fusion_lon": 0.0}, {"is_reserved": 0, "type": "electric_scooter", "fusion_lat": 0.0, "is_disabled": 0, "rental_uris": {"ios": "https://dc.lft.to/lastmile_qr_scan", "android": "https://dc.lft.to/lastmile_qr_scan"}, "bike_id": "d3cd8c4ffdd7a4beeb5dc92405e36dbb", "lat": 38.91461133333333, "name": "d3cd8c4ffdd7a4beeb5dc92405e36dbb", "lon": -77.03186833333334, "fusion_lon": 0.0}, {"is_reserved": 0, "type": "electric_scooter", "fusion_lat": 0.0, "is_disabled": 0, "rental_uris": {"ios": "https://dc.lft.to/lastmile_qr_scan", "android": "https://dc.lft.to/lastmile_qr_scan"}, "bike_id": "34b8c39a13ecb245b3ce2bd333fe082b", "lat": 38.920770833333336, "name": "34b8c39a13ecb245b3ce2bd333fe082b", "lon": -77.02507933333334, "fusion_lon": 0.0}, {"is_reserved": 0, "type": "electric_scooter", "fusion_lat": 0.0, "is_disabled": 0, "rental_uris": {"ios": "https://dc.lft.to/lastmile_qr_scan", "android": "https://dc.lft.to/lastmile_qr_scan"}, "bike_id": "3c2110c6b7757a496baab9f6490424fa", "lat": 38.916908, "name": "3c2110c6b7757a496baab9f6490424fa", "lon": -77.092178, "fusion_lon": 0.0}, {"is_reserved": 0, "type": "electric_scooter", "fusion_lat": 0.0, "is_disabled": 0, "rental_uris": {"ios": "https://dc.lft.to/lastmile_qr_scan", "android": "https://dc.lft.to/lastmile_qr_scan"}, "bike_id": "e57de80e874d9ee465c5b303b48be792", "lat": 38.920729666666666, "name": "e57de80e874d9ee465c5b303b48be792", "lon": -77.02515216666667, "fusion_lon": 0.0}, {"is_reserved": 0, "type": "electric_scooter", "fusion_lat": 0.0, "is_disabled": 0, "rental_uris": {"ios": "https://dc.lft.to/lastmile_qr_scan", "android": "https://dc.lft.to/lastmile_qr_scan"}, "bike_id": "7a1c43627d93ab93f7c47784c37457f9", "lat": 38.922832666666665, "name": "7a1c43627d93ab93f7c47784c37457f9", "lon": -77.03656733333334, "fusion_lon": 0.0}, {"is_reserved": 0, "type": "electric_scooter", "fusion_lat": 0.0, "is_disabled": 0, "rental_uris": {"ios": "https://dc.lft.to/lastmile_qr_scan", "android": "https://dc.lft.to/lastmile_qr_scan"}, "bike_id": "fcad7befdd232e6ac31d096d384ab2e8", "lat": 38.897233666666665, "name": "fcad7befdd232e6ac31d096d384ab2e8", "lon": -77.04366883333333, "fusion_lon": 0.0}, {"is_reserved": 0, "type": "electric_scooter", "fusion_lat": 0.0, "is_disabled": 0, "rental_uris": {"ios": "https://dc.lft.to/lastmile_qr_scan", "android": "https://dc.lft.to/lastmile_qr_scan"}, "bike_id": "5612f577a5f07f8784341c278b7e5e27", "lat": 38.92418833333333, "name": "5612f577a5f07f8784341c278b7e5e27", "lon": -77.03545083333333, "fusion_lon": 0.0}, {"is_reserved": 0, "type": "electric_scooter", "fusion_lat": 0.0, "is_disabled": 0, "rental_uris": {"ios": "https://dc.lft.to/lastmile_qr_scan", "android": "https://dc.lft.to/lastmile_qr_scan"}, "bike_id": "643b9a6c64a8acfd7befc68f3cdbc901", "lat": 38.92510583333333, "name": "643b9a6c64a8acfd7befc68f3cdbc901", "lon": -77.04447183333333, "fusion_lon": 0.0}, {"is_reserved": 0, "type": "electric_scooter", "fusion_lat": 0.0, "is_disabled": 0, "rental_uris": {"ios": "https://dc.lft.to/lastmile_qr_scan", "android": "https://dc.lft.to/lastmile_qr_scan"}, "bike_id": "8c3ee7f4b133f0bf285214c985406984", "lat": 38.90681816666667, "name": "8c3ee7f4b133f0bf285214c985406984", "lon": -77.04546616666667, "fusion_lon": 0.0}, {"is_reserved": 0, "type": "electric_scooter", "fusion_lat": 0.0, "is_disabled": 0, "rental_uris": {"ios": "https://dc.lft.to/lastmile_qr_scan", "android": "https://dc.lft.to/lastmile_qr_scan"}, "bike_id": "01ad7c56d472f6c99417109e788914c3", "lat": 38.892234, "name": "01ad7c56d472f6c99417109e788914c3", "lon": -77.0265565, "fusion_lon": 0.0}, {"is_reserved": 0, "type": "electric_scooter", "fusion_lat": 0.0, "is_disabled": 0, "rental_uris": {"ios": "https://dc.lft.to/lastmile_qr_scan", "android": "https://dc.lft.to/lastmile_qr_scan"}, "bike_id": "a2a5886e696e9bce013f18fd9c07d31a", "lat": 38.91256466666667, "name": "a2a5886e696e9bce013f18fd9c07d31a", "lon": -77.04598316666667, "fusion_lon": 0.0}, {"is_reserved": 0, "type": "electric_bike", "fusion_lat": 0.0, "is_disabled": 0, "rental_uris": {"ios": "https://dc.lft.to/lastmile_qr_scan", "android": "https://dc.lft.to/lastmile_qr_scan"}, "bike_id": "87cb1a709bda8a77537860d3682a1250", "lat": 38.842775833333334, "name": "87cb1a709bda8a77537860d3682a1250", "lon": -76.9884195, "fusion_lon": 0.0}, {"is_reserved": 0, "type": "electric_scooter", "fusion_lat": 0.0, "is_disabled": 0, "rental_uris": {"ios": "https://dc.lft.to/lastmile_qr_scan", "android": "https://dc.lft.to/lastmile_qr_scan"}, "bike_id": "e29f90f7138f0352949e1598f6c5f7db", "lat": 38.90038783333333, "name": "e29f90f7138f0352949e1598f6c5f7db", "lon": -76.9950615, "fusion_lon": 0.0}, {"is_reserved": 0, "type": "electric_scooter", "fusion_lat": 0.0, "is_disabled": 0, "rental_uris": {"ios": "https://dc.lft.to/lastmile_qr_scan", "android": "https://dc.lft.to/lastmile_qr_scan"}, "bike_id": "6e2af55533852f291cdcfdb347b27d60", "lat": 38.912987666666666, "name": "6e2af55533852f291cdcfdb347b27d60", "lon": -77.031806, "fusion_lon": 0.0}, {"is_reserved": 0, "type": "electric_scooter", "fusion_lat": 0.0, "is_disabled": 0, "rental_uris": {"ios": "https://dc.lft.to/lastmile_qr_scan", "android": "https://dc.lft.to/lastmile_qr_scan"}, "bike_id": "10a1ab833e376f09eabec26cb039e393", "lat": 38.9198695, "name": "10a1ab833e376f09eabec26cb039e393", "lon": -76.97305733333333, "fusion_lon": 0.0}, {"is_reserved": 0, "type": "electric_scooter", "fusion_lat": 0.0, "is_disabled": 0, "rental_uris": {"ios": "https://dc.lft.to/lastmile_qr_scan", "android": "https://dc.lft.to/lastmile_qr_scan"}, "bike_id": "88cd8fcaa1ace355c99db84412a643c8", "lat": 38.905712666666666, "name": "88cd8fcaa1ace355c99db84412a643c8", "lon": -77.01719283333334, "fusion_lon": 0.0}, {"is_reserved": 0, "type": "electric_bike", "fusion_lat": 0.0, "is_disabled": 0, "rental_uris": {"ios": "https://dc.lft.to/lastmile_qr_scan", "android": "https://dc.lft.to/lastmile_qr_scan"}, "bike_id": "1cf9da3f8ed23d268457215672846682", "lat": 38.908107666666666, "name": "1cf9da3f8ed23d268457215672846682", "lon": -77.03852283333333, "fusion_lon": 0.0}, {"is_reserved": 0, "type": "electric_scooter", "fusion_lat": 0.0, "is_disabled": 0, "rental_uris": {"ios": "https://dc.lft.to/lastmile_qr_scan", "android": "https://dc.lft.to/lastmile_qr_scan"}, "bike_id": "935d8d87f6ec52ee3154a3ad828eb076", "lat": 38.945879833333336, "name": "935d8d87f6ec52ee3154a3ad828eb076", "lon": -77.02033783333333, "fusion_lon": 0.0}, {"is_reserved": 0, "type": "electric_scooter", "fusion_lat": 0.0, "is_disabled": 0, "rental_uris": {"ios": "https://dc.lft.to/lastmile_qr_scan", "android": "https://dc.lft.to/lastmile_qr_scan"}, "bike_id": "b548993ba88c9b067407cab919f19513", "lat": 38.892208, "name": "b548993ba88c9b067407cab919f19513", "lon": -77.043264, "fusion_lon": 0.0}, {"is_reserved": 0, "type": "electric_scooter", "fusion_lat": 0.0, "is_disabled": 0, "rental_uris": {"ios": "https://dc.lft.to/lastmile_qr_scan", "android": "https://dc.lft.to/lastmile_qr_scan"}, "bike_id": "69b929e99e2fade4e9da6a8e6cf6e90d", "lat": 38.89494033333333, "name": "69b929e99e2fade4e9da6a8e6cf6e90d", "lon": -77.02296733333333, "fusion_lon": 0.0}, {"is_reserved": 0, "type": "electric_scooter", "fusion_lat": 0.0, "is_disabled": 0, "rental_uris": {"ios": "https://dc.lft.to/lastmile_qr_scan", "android": "https://dc.lft.to/lastmile_qr_scan"}, "bike_id": "417d6771d6d24abf4addd7108970ec93", "lat": 38.892309, "name": "417d6771d6d24abf4addd7108970ec93", "lon": -77.02823066666667, "fusion_lon": 0.0}, {"is_reserved": 0, "type": "electric_bike", "fusion_lat": 0.0, "is_disabled": 0, "rental_uris": {"ios": "https://dc.lft.to/lastmile_qr_scan", "android": "https://dc.lft.to/lastmile_qr_scan"}, "bike_id": "e50e01390611388f301a697b200ed670", "lat": 38.901288666666666, "name": "e50e01390611388f301a697b200ed670", "lon": -76.99598733333333, "fusion_lon": 0.0}, {"is_reserved": 0, "type": "electric_scooter", "fusion_lat": 0.0, "is_disabled": 0, "rental_uris": {"ios": "https://dc.lft.to/lastmile_qr_scan", "android": "https://dc.lft.to/lastmile_qr_scan"}, "bike_id": "8fe4cfee83ee233e0753158b15d4f3cd", "lat": 38.892222333333336, "name": "8fe4cfee83ee233e0753158b15d4f3cd", "lon": -77.022338, "fusion_lon": 0.0}, {"is_reserved": 0, "type": "electric_scooter", "fusion_lat": 0.0, "is_disabled": 0, "rental_uris": {"ios": "https://dc.lft.to/lastmile_qr_scan", "android": "https://dc.lft.to/lastmile_qr_scan"}, "bike_id": "679ac27ead6b598f80f2b9f390487252", "lat": 38.91711933333333, "name": "679ac27ead6b598f80f2b9f390487252", "lon": -77.04168266666667, "fusion_lon": 0.0}, {"is_reserved": 0, "type": "electric_scooter", "fusion_lat": 0.0, "is_disabled": 0, "rental_uris": {"ios": "https://dc.lft.to/lastmile_qr_scan", "android": "https://dc.lft.to/lastmile_qr_scan"}, "bike_id": "47390296b553ace32c8c8f977fd37dd6", "lat": 38.9178045, "name": "47390296b553ace32c8c8f977fd37dd6", "lon": -77.02374266666666, "fusion_lon": 0.0}, {"is_reserved": 0, "type": "electric_scooter", "fusion_lat": 0.0, "is_disabled": 0, "rental_uris": {"ios": "https://dc.lft.to/lastmile_qr_scan", "android": "https://dc.lft.to/lastmile_qr_scan"}, "bike_id": "d094650d92106a892aacf49e72d7cbf8", "lat": 38.9366175, "name": "d094650d92106a892aacf49e72d7cbf8", "lon": -77.06607866666667, "fusion_lon": 0.0}, {"is_reserved": 0, "type": "electric_bike", "fusion_lat": 0.0, "is_disabled": 0, "rental_uris": {"ios": "https://dc.lft.to/lastmile_qr_scan", "android": "https://dc.lft.to/lastmile_qr_scan"}, "bike_id": "5ddfd499a6c7892c5b049663fac38766", "lat": 38.964294333333335, "name": "5ddfd499a6c7892c5b049663fac38766", "lon": -77.031905, "fusion_lon": 0.0}, {"is_reserved": 0, "type": "electric_scooter", "fusion_lat": 0.0, "is_disabled": 0, "rental_uris": {"ios": "https://dc.lft.to/lastmile_qr_scan", "android": "https://dc.lft.to/lastmile_qr_scan"}, "bike_id": "3da24229f85e2c86793bc75278201ad6", "lat": 38.887396, "name": "3da24229f85e2c86793bc75278201ad6", "lon": -77.02634083333334, "fusion_lon": 0.0}, {"is_reserved": 0, "type": "electric_scooter", "fusion_lat": 0.0, "is_disabled": 0, "rental_uris": {"ios": "https://dc.lft.to/lastmile_qr_scan", "android": "https://dc.lft.to/lastmile_qr_scan"}, "bike_id": "a2284e5a3c5b179bd170e6b72dcd5e89", "lat": 38.888366166666664, "name": "a2284e5a3c5b179bd170e6b72dcd5e89", "lon": -77.04905033333333, "fusion_lon": 0.0}, {"is_reserved": 0, "type": "electric_scooter", "fusion_lat": 0.0, "is_disabled": 0, "rental_uris": {"ios": "https://dc.lft.to/lastmile_qr_scan", "android": "https://dc.lft.to/lastmile_qr_scan"}, "bike_id": "8cfea53892d4def7ae83892f65b5c864", "lat": 38.918544, "name": "8cfea53892d4def7ae83892f65b5c864", "lon": -76.9655405, "fusion_lon": 0.0}, {"is_reserved": 0, "type": "electric_scooter", "fusion_lat": 0.0, "is_disabled": 0, "rental_uris": {"ios": "https://dc.lft.to/lastmile_qr_scan", "android": "https://dc.lft.to/lastmile_qr_scan"}, "bike_id": "fc38b6693ae31d71c9eba17fe173228a", "lat": 38.925366333333336, "name": "fc38b6693ae31d71c9eba17fe173228a", "lon": -77.03475933333333, "fusion_lon": 0.0}, {"is_reserved": 0, "type": "electric_scooter", "fusion_lat": 0.0, "is_disabled": 0, "rental_uris": {"ios": "https://dc.lft.to/lastmile_qr_scan", "android": "https://dc.lft.to/lastmile_qr_scan"}, "bike_id": "6e4274e8db00b327535388ad393079a0", "lat": 38.94195916666666, "name": "6e4274e8db00b327535388ad393079a0", "lon": -77.08822933333333, "fusion_lon": 0.0}, {"is_reserved": 0, "type": "electric_scooter", "fusion_lat": 0.0, "is_disabled": 0, "rental_uris": {"ios": "https://dc.lft.to/lastmile_qr_scan", "android": "https://dc.lft.to/lastmile_qr_scan"}, "bike_id": "18571bc5de699ca43d99ce4645f50dc9", "lat": 38.9074095, "name": "18571bc5de699ca43d99ce4645f50dc9", "lon": -77.03978316666667, "fusion_lon": 0.0}, {"is_reserved": 0, "type": "electric_scooter", "fusion_lat": 0.0, "is_disabled": 0, "rental_uris": {"ios": "https://dc.lft.to/lastmile_qr_scan", "android": "https://dc.lft.to/lastmile_qr_scan"}, "bike_id": "e5c39a1a2fd62c3b3cfb5f9cb1ced1c9", "lat": 38.8923325, "name": "e5c39a1a2fd62c3b3cfb5f9cb1ced1c9", "lon": -77.0238455, "fusion_lon": 0.0}, {"is_reserved": 0, "type": "electric_scooter", "fusion_lat": 0.0, "is_disabled": 0, "rental_uris": {"ios": "https://dc.lft.to/lastmile_qr_scan", "android": "https://dc.lft.to/lastmile_qr_scan"}, "bike_id": "59a83ab8255be9622d5370d398ba19af", "lat": 38.9025255, "name": "59a83ab8255be9622d5370d398ba19af", "lon": -77.04702166666667, "fusion_lon": 0.0}, {"is_reserved": 0, "type": "electric_scooter", "fusion_lat": 0.0, "is_disabled": 0, "rental_uris": {"ios": "https://dc.lft.to/lastmile_qr_scan", "android": "https://dc.lft.to/lastmile_qr_scan"}, "bike_id": "a9ab01652d12cfaf6df26742b22c206b", "lat": 38.9250255, "name": "a9ab01652d12cfaf6df26742b22c206b", "lon": -77.0244525, "fusion_lon": 0.0}, {"is_reserved": 0, "type": "electric_scooter", "fusion_lat": 0.0, "is_disabled": 0, "rental_uris": {"ios": "https://dc.lft.to/lastmile_qr_scan", "android": "https://dc.lft.to/lastmile_qr_scan"}, "bike_id": "134051d3795f0e5d4f0ffb9d41e265b0", "lat": 38.920276666666666, "name": "134051d3795f0e5d4f0ffb9d41e265b0", "lon": -77.03122883333333, "fusion_lon": 0.0}, {"is_reserved": 0, "type": "electric_scooter", "fusion_lat": 0.0, "is_disabled": 0, "rental_uris": {"ios": "https://dc.lft.to/lastmile_qr_scan", "android": "https://dc.lft.to/lastmile_qr_scan"}, "bike_id": "cbfd47dc5e934f6b16227994218acaec", "lat": 38.905513, "name": "cbfd47dc5e934f6b16227994218acaec", "lon": -77.04858066666667, "fusion_lon": 0.0}, {"is_reserved": 0, "type": "electric_scooter", "fusion_lat": 0.0, "is_disabled": 0, "rental_uris": {"ios": "https://dc.lft.to/lastmile_qr_scan", "android": "https://dc.lft.to/lastmile_qr_scan"}, "bike_id": "242e7f14195acd85236d4e3cee5733a4", "lat": 38.90077133333333, "name": "242e7f14195acd85236d4e3cee5733a4", "lon": -77.04835416666667, "fusion_lon": 0.0}, {"is_reserved": 0, "type": "electric_scooter", "fusion_lat": 0.0, "is_disabled": 0, "rental_uris": {"ios": "https://dc.lft.to/lastmile_qr_scan", "android": "https://dc.lft.to/lastmile_qr_scan"}, "bike_id": "cdf9752bdfcef932a94e79f0922f8944", "lat": 38.944624166666664, "name": "cdf9752bdfcef932a94e79f0922f8944", "lon": -77.00656, "fusion_lon": 0.0}, {"is_reserved": 0, "type": "electric_scooter", "fusion_lat": 0.0, "is_disabled": 0, "rental_uris": {"ios": "https://dc.lft.to/lastmile_qr_scan", "android": "https://dc.lft.to/lastmile_qr_scan"}, "bike_id": "cf51bbb99d124e0e641c4f623ab118c7", "lat": 38.902665, "name": "cf51bbb99d124e0e641c4f623ab118c7", "lon": -76.98982316666667, "fusion_lon": 0.0}, {"is_reserved": 0, "type": "electric_scooter", "fusion_lat": 0.0, "is_disabled": 0, "rental_uris": {"ios": "https://dc.lft.to/lastmile_qr_scan", "android": "https://dc.lft.to/lastmile_qr_scan"}, "bike_id": "8805f90bed3f44546086276cde1acad2", "lat": 38.920724, "name": "8805f90bed3f44546086276cde1acad2", "lon": -77.02519416666667, "fusion_lon": 0.0}, {"is_reserved": 0, "type": "electric_scooter", "fusion_lat": 0.0, "is_disabled": 0, "rental_uris": {"ios": "https://dc.lft.to/lastmile_qr_scan", "android": "https://dc.lft.to/lastmile_qr_scan"}, "bike_id": "9ce805aa5569058a598cdcf7a5b2f966", "lat": 38.91211916666666, "name": "9ce805aa5569058a598cdcf7a5b2f966", "lon": -77.006639, "fusion_lon": 0.0}, {"is_reserved": 0, "type": "electric_scooter", "fusion_lat": 0.0, "is_disabled": 0, "rental_uris": {"ios": "https://dc.lft.to/lastmile_qr_scan", "android": "https://dc.lft.to/lastmile_qr_scan"}, "bike_id": "8f2e1507f5b6f7932fe3d4cbfe34c7b2", "lat": 38.89962666666667, "name": "8f2e1507f5b6f7932fe3d4cbfe34c7b2", "lon": -77.02181433333334, "fusion_lon": 0.0}, {"is_reserved": 0, "type": "electric_scooter", "fusion_lat": 0.0, "is_disabled": 0, "rental_uris": {"ios": "https://dc.lft.to/lastmile_qr_scan", "android": "https://dc.lft.to/lastmile_qr_scan"}, "bike_id": "6c9e671a7069dbb6bb07971e653580e2", "lat": 38.87115266666667, "name": "6c9e671a7069dbb6bb07971e653580e2", "lon": -77.00756516666667, "fusion_lon": 0.0}, {"is_reserved": 0, "type": "electric_scooter", "fusion_lat": 0.0, "is_disabled": 0, "rental_uris": {"ios": "https://dc.lft.to/lastmile_qr_scan", "android": "https://dc.lft.to/lastmile_qr_scan"}, "bike_id": "84b6d588cedf9e609c35c0e7e36cad4a", "lat": 38.93367533333333, "name": "84b6d588cedf9e609c35c0e7e36cad4a", "lon": -77.07245, "fusion_lon": 0.0}, {"is_reserved": 0, "type": "electric_scooter", "fusion_lat": 0.0, "is_disabled": 0, "rental_uris": {"ios": "https://dc.lft.to/lastmile_qr_scan", "android": "https://dc.lft.to/lastmile_qr_scan"}, "bike_id": "8c50ba55c3c90c0d35d177d48e778ce4", "lat": 38.89562866666667, "name": "8c50ba55c3c90c0d35d177d48e778ce4", "lon": -77.02937766666666, "fusion_lon": 0.0}, {"is_reserved": 0, "type": "electric_scooter", "fusion_lat": 0.0, "is_disabled": 0, "rental_uris": {"ios": "https://dc.lft.to/lastmile_qr_scan", "android": "https://dc.lft.to/lastmile_qr_scan"}, "bike_id": "34760545d3f5165d42204b4c63beb679", "lat": 38.91358866666667, "name": "34760545d3f5165d42204b4c63beb679", "lon": -77.04659, "fusion_lon": 0.0}, {"is_reserved": 0, "type": "electric_scooter", "fusion_lat": 0.0, "is_disabled": 0, "rental_uris": {"ios": "https://dc.lft.to/lastmile_qr_scan", "android": "https://dc.lft.to/lastmile_qr_scan"}, "bike_id": "f6fa706d65c97e15e80f16aea2c18e01", "lat": 38.935397, "name": "f6fa706d65c97e15e80f16aea2c18e01", "lon": -77.054494, "fusion_lon": 0.0}, {"is_reserved": 0, "type": "electric_scooter", "fusion_lat": 0.0, "is_disabled": 0, "rental_uris": {"ios": "https://dc.lft.to/lastmile_qr_scan", "android": "https://dc.lft.to/lastmile_qr_scan"}, "bike_id": "c9bb2735dd741aa17c35e9335601c0fe", "lat": 38.92932283333333, "name": "c9bb2735dd741aa17c35e9335601c0fe", "lon": -77.03272616666666, "fusion_lon": 0.0}, {"is_reserved": 0, "type": "electric_scooter", "fusion_lat": 0.0, "is_disabled": 0, "rental_uris": {"ios": "https://dc.lft.to/lastmile_qr_scan", "android": "https://dc.lft.to/lastmile_qr_scan"}, "bike_id": "5299f1b301985365642fd84447593df6", "lat": 38.89247016666667, "name": "5299f1b301985365642fd84447593df6", "lon": -77.04659316666667, "fusion_lon": 0.0}, {"is_reserved": 0, "type": "electric_scooter", "fusion_lat": 0.0, "is_disabled": 0, "rental_uris": {"ios": "https://dc.lft.to/lastmile_qr_scan", "android": "https://dc.lft.to/lastmile_qr_scan"}, "bike_id": "05a7d6f05b526456548cbf9e2dce6df5", "lat": 38.870693333333335, "name": "05a7d6f05b526456548cbf9e2dce6df5", "lon": -76.9812925, "fusion_lon": 0.0}, {"is_reserved": 0, "type": "electric_bike", "fusion_lat": 0.0, "is_disabled": 0, "rental_uris": {"ios": "https://dc.lft.to/lastmile_qr_scan", "android": "https://dc.lft.to/lastmile_qr_scan"}, "bike_id": "1cdfd078249c49f600473a5d7ff64fb0", "lat": 38.97342783333333, "name": "1cdfd078249c49f600473a5d7ff64fb0", "lon": -77.0179795, "fusion_lon": 0.0}, {"is_reserved": 0, "type": "electric_scooter", "fusion_lat": 0.0, "is_disabled": 0, "rental_uris": {"ios": "https://dc.lft.to/lastmile_qr_scan", "android": "https://dc.lft.to/lastmile_qr_scan"}, "bike_id": "4e89e63a9ab3825acedd543042587233", "lat": 38.9285915, "name": "4e89e63a9ab3825acedd543042587233", "lon": -77.078886, "fusion_lon": 0.0}, {"is_reserved": 0, "type": "electric_scooter", "fusion_lat": 0.0, "is_disabled": 0, "rental_uris": {"ios": "https://dc.lft.to/lastmile_qr_scan", "android": "https://dc.lft.to/lastmile_qr_scan"}, "bike_id": "7d26458eb6153f09733cec8e576dec11", "lat": 38.88363983333333, "name": "7d26458eb6153f09733cec8e576dec11", "lon": -76.9279055, "fusion_lon": 0.0}, {"is_reserved": 0, "type": "electric_scooter", "fusion_lat": 0.0, "is_disabled": 0, "rental_uris": {"ios": "https://dc.lft.to/lastmile_qr_scan", "android": "https://dc.lft.to/lastmile_qr_scan"}, "bike_id": "bb0d805107d25f8726852c1089650709", "lat": 38.90253666666667, "name": "bb0d805107d25f8726852c1089650709", "lon": -76.92849816666667, "fusion_lon": 0.0}, {"is_reserved": 0, "type": "electric_scooter", "fusion_lat": 0.0, "is_disabled": 0, "rental_uris": {"ios": "https://dc.lft.to/lastmile_qr_scan", "android": "https://dc.lft.to/lastmile_qr_scan"}, "bike_id": "86c6959ccddffbfa8b77b5bb198088e2", "lat": 38.9026105, "name": "86c6959ccddffbfa8b77b5bb198088e2", "lon": -77.03440066666667, "fusion_lon": 0.0}, {"is_reserved": 0, "type": "electric_scooter", "fusion_lat": 0.0, "is_disabled": 0, "rental_uris": {"ios": "https://dc.lft.to/lastmile_qr_scan", "android": "https://dc.lft.to/lastmile_qr_scan"}, "bike_id": "860faaebbcbb2b854d4ab02b4547d2d5", "lat": 38.912766500000004, "name": "860faaebbcbb2b854d4ab02b4547d2d5", "lon": -77.03141716666667, "fusion_lon": 0.0}, {"is_reserved": 0, "type": "electric_scooter", "fusion_lat": 0.0, "is_disabled": 0, "rental_uris": {"ios": "https://dc.lft.to/lastmile_qr_scan", "android": "https://dc.lft.to/lastmile_qr_scan"}, "bike_id": "1257c543b1110b3d768e1802fa91ada1", "lat": 38.919079833333335, "name": "1257c543b1110b3d768e1802fa91ada1", "lon": -77.04801266666666, "fusion_lon": 0.0}, {"is_reserved": 0, "type": "electric_scooter", "fusion_lat": 0.0, "is_disabled": 0, "rental_uris": {"ios": "https://dc.lft.to/lastmile_qr_scan", "android": "https://dc.lft.to/lastmile_qr_scan"}, "bike_id": "d4ab88a611aeb25e20fcc08b768815af", "lat": 38.89220366666667, "name": "d4ab88a611aeb25e20fcc08b768815af", "lon": -77.04325583333333, "fusion_lon": 0.0}, {"is_reserved": 0, "type": "electric_scooter", "fusion_lat": 0.0, "is_disabled": 0, "rental_uris": {"ios": "https://dc.lft.to/lastmile_qr_scan", "android": "https://dc.lft.to/lastmile_qr_scan"}, "bike_id": "61566f67f9422b7d4ca2a15d7c53c12b", "lat": 38.87643933333333, "name": "61566f67f9422b7d4ca2a15d7c53c12b", "lon": -77.00822983333333, "fusion_lon": 0.0}, {"is_reserved": 0, "type": "electric_scooter", "fusion_lat": 0.0, "is_disabled": 0, "rental_uris": {"ios": "https://dc.lft.to/lastmile_qr_scan", "android": "https://dc.lft.to/lastmile_qr_scan"}, "bike_id": "b463e005121ecb02996b767cd32e0386", "lat": 38.892205833333335, "name": "b463e005121ecb02996b767cd32e0386", "lon": -77.044544, "fusion_lon": 0.0}, {"is_reserved": 0, "type": "electric_bike", "fusion_lat": 0.0, "is_disabled": 0, "rental_uris": {"ios": "https://dc.lft.to/lastmile_qr_scan", "android": "https://dc.lft.to/lastmile_qr_scan"}, "bike_id": "39178bac6311157146550d2043ea75a9", "lat": 38.900305833333334, "name": "39178bac6311157146550d2043ea75a9", "lon": -76.99155866666666, "fusion_lon": 0.0}, {"is_reserved": 0, "type": "electric_scooter", "fusion_lat": 0.0, "is_disabled": 0, "rental_uris": {"ios": "https://dc.lft.to/lastmile_qr_scan", "android": "https://dc.lft.to/lastmile_qr_scan"}, "bike_id": "e6c52d477bc69692f623f84ad85ba2c3", "lat": 38.887138666666665, "name": "e6c52d477bc69692f623f84ad85ba2c3", "lon": -77.03194816666667, "fusion_lon": 0.0}, {"is_reserved": 0, "type": "electric_bike", "fusion_lat": 0.0, "is_disabled": 0, "rental_uris": {"ios": "https://dc.lft.to/lastmile_qr_scan", "android": "https://dc.lft.to/lastmile_qr_scan"}, "bike_id": "6ed4c542bb237fd254251e008b9bd85c", "lat": 38.94834133333333, "name": "6ed4c542bb237fd254251e008b9bd85c", "lon": -77.054307, "fusion_lon": 0.0}, {"is_reserved": 0, "type": "electric_scooter", "fusion_lat": 0.0, "is_disabled": 0, "rental_uris": {"ios": "https://dc.lft.to/lastmile_qr_scan", "android": "https://dc.lft.to/lastmile_qr_scan"}, "bike_id": "814bcb4cff21bde0fbdcac682e216d36", "lat": 38.892037, "name": "814bcb4cff21bde0fbdcac682e216d36", "lon": -76.92920816666667, "fusion_lon": 0.0}, {"is_reserved": 0, "type": "electric_scooter", "fusion_lat": 0.0, "is_disabled": 0, "rental_uris": {"ios": "https://dc.lft.to/lastmile_qr_scan", "android": "https://dc.lft.to/lastmile_qr_scan"}, "bike_id": "46b8e1450dc0cc1f0d515d36eab72816", "lat": 38.9261215, "name": "46b8e1450dc0cc1f0d515d36eab72816", "lon": -77.02160483333333, "fusion_lon": 0.0}, {"is_reserved": 0, "type": "electric_scooter", "fusion_lat": 0.0, "is_disabled": 0, "rental_uris": {"ios": "https://dc.lft.to/lastmile_qr_scan", "android": "https://dc.lft.to/lastmile_qr_scan"}, "bike_id": "b3d2e5ee31d67eb765342558f81bcc16", "lat": 38.893701666666665, "name": "b3d2e5ee31d67eb765342558f81bcc16", "lon": -77.0196555, "fusion_lon": 0.0}, {"is_reserved": 0, "type": "electric_scooter", "fusion_lat": 0.0, "is_disabled": 0, "rental_uris": {"ios": "https://dc.lft.to/lastmile_qr_scan", "android": "https://dc.lft.to/lastmile_qr_scan"}, "bike_id": "e17185a5e60d553bfb98f48cffd456a3", "lat": 38.8898935, "name": "e17185a5e60d553bfb98f48cffd456a3", "lon": -76.98814716666666, "fusion_lon": 0.0}, {"is_reserved": 0, "type": "electric_scooter", "fusion_lat": 0.0, "is_disabled": 0, "rental_uris": {"ios": "https://dc.lft.to/lastmile_qr_scan", "android": "https://dc.lft.to/lastmile_qr_scan"}, "bike_id": "e32deb435379c26077f54b35f26247fd", "lat": 38.92469166666667, "name": "e32deb435379c26077f54b35f26247fd", "lon": -77.03547866666666, "fusion_lon": 0.0}, {"is_reserved": 0, "type": "electric_scooter", "fusion_lat": 0.0, "is_disabled": 0, "rental_uris": {"ios": "https://dc.lft.to/lastmile_qr_scan", "android": "https://dc.lft.to/lastmile_qr_scan"}, "bike_id": "0388666c90cb5a382b44f3955642eaf9", "lat": 38.87662916666667, "name": "0388666c90cb5a382b44f3955642eaf9", "lon": -77.00328966666666, "fusion_lon": 0.0}, {"is_reserved": 0, "type": "electric_scooter", "fusion_lat": 0.0, "is_disabled": 0, "rental_uris": {"ios": "https://dc.lft.to/lastmile_qr_scan", "android": "https://dc.lft.to/lastmile_qr_scan"}, "bike_id": "b2dec3aa5a30cb6b0854f61a9e9b034a", "lat": 38.898373166666666, "name": "b2dec3aa5a30cb6b0854f61a9e9b034a", "lon": -76.98823616666667, "fusion_lon": 0.0}, {"is_reserved": 0, "type": "electric_scooter", "fusion_lat": 0.0, "is_disabled": 0, "rental_uris": {"ios": "https://dc.lft.to/lastmile_qr_scan", "android": "https://dc.lft.to/lastmile_qr_scan"}, "bike_id": "1c780760c4bae6c6249e5ed87cb4b04e", "lat": 38.88105066666667, "name": "1c780760c4bae6c6249e5ed87cb4b04e", "lon": -77.02635383333333, "fusion_lon": 0.0}, {"is_reserved": 0, "type": "electric_scooter", "fusion_lat": 0.0, "is_disabled": 0, "rental_uris": {"ios": "https://dc.lft.to/lastmile_qr_scan", "android": "https://dc.lft.to/lastmile_qr_scan"}, "bike_id": "ff73a75eb8d77606413e0e56eb104f87", "lat": 38.9278955, "name": "ff73a75eb8d77606413e0e56eb104f87", "lon": -77.031526, "fusion_lon": 0.0}, {"is_reserved": 0, "type": "electric_scooter", "fusion_lat": 0.0, "is_disabled": 0, "rental_uris": {"ios": "https://dc.lft.to/lastmile_qr_scan", "android": "https://dc.lft.to/lastmile_qr_scan"}, "bike_id": "d8d3b3c8a559dbe43fa915ac9ccbdc49", "lat": 38.898686833333336, "name": "d8d3b3c8a559dbe43fa915ac9ccbdc49", "lon": -77.04665933333334, "fusion_lon": 0.0}, {"is_reserved": 0, "type": "electric_scooter", "fusion_lat": 0.0, "is_disabled": 0, "rental_uris": {"ios": "https://dc.lft.to/lastmile_qr_scan", "android": "https://dc.lft.to/lastmile_qr_scan"}, "bike_id": "26dd0b5605f3a52dd46203f36f23f08d", "lat": 38.89496883333333, "name": "26dd0b5605f3a52dd46203f36f23f08d", "lon": -77.02296266666667, "fusion_lon": 0.0}, {"is_reserved": 0, "type": "electric_scooter", "fusion_lat": 0.0, "is_disabled": 0, "rental_uris": {"ios": "https://dc.lft.to/lastmile_qr_scan", "android": "https://dc.lft.to/lastmile_qr_scan"}, "bike_id": "63af1adcc82f53d7c89f5ac983a262ca", "lat": 38.90242, "name": "63af1adcc82f53d7c89f5ac983a262ca", "lon": -76.990317, "fusion_lon": 0.0}, {"is_reserved": 0, "type": "electric_scooter", "fusion_lat": 0.0, "is_disabled": 0, "rental_uris": {"ios": "https://dc.lft.to/lastmile_qr_scan", "android": "https://dc.lft.to/lastmile_qr_scan"}, "bike_id": "cb1e682c747d211e5e1ca097867072fd", "lat": 38.90507433333333, "name": "cb1e682c747d211e5e1ca097867072fd", "lon": -76.99043966666666, "fusion_lon": 0.0}, {"is_reserved": 0, "type": "electric_scooter", "fusion_lat": 0.0, "is_disabled": 0, "rental_uris": {"ios": "https://dc.lft.to/lastmile_qr_scan", "android": "https://dc.lft.to/lastmile_qr_scan"}, "bike_id": "42b96240f4ff17ef7809e5a7856cafa2", "lat": 38.900563166666664, "name": "42b96240f4ff17ef7809e5a7856cafa2", "lon": -77.05033133333333, "fusion_lon": 0.0}, {"is_reserved": 0, "type": "electric_bike", "fusion_lat": 0.0, "is_disabled": 0, "rental_uris": {"ios": "https://dc.lft.to/lastmile_qr_scan", "android": "https://dc.lft.to/lastmile_qr_scan"}, "bike_id": "784cc514592d2a12a715c99171bbecf2", "lat": 38.940982, "name": "784cc514592d2a12a715c99171bbecf2", "lon": -76.9562605, "fusion_lon": 0.0}, {"is_reserved": 0, "type": "electric_scooter", "fusion_lat": 0.0, "is_disabled": 0, "rental_uris": {"ios": "https://dc.lft.to/lastmile_qr_scan", "android": "https://dc.lft.to/lastmile_qr_scan"}, "bike_id": "880318b6207fcd16efa87f7707711bb6", "lat": 38.9060525, "name": "880318b6207fcd16efa87f7707711bb6", "lon": -77.06302633333334, "fusion_lon": 0.0}, {"is_reserved": 0, "type": "electric_scooter", "fusion_lat": 0.0, "is_disabled": 0, "rental_uris": {"ios": "https://dc.lft.to/lastmile_qr_scan", "android": "https://dc.lft.to/lastmile_qr_scan"}, "bike_id": "72773a1bc83c27ef46f779e0fc82e980", "lat": 38.96758, "name": "72773a1bc83c27ef46f779e0fc82e980", "lon": -77.03420783333334, "fusion_lon": 0.0}, {"is_reserved": 0, "type": "electric_scooter", "fusion_lat": 0.0, "is_disabled": 0, "rental_uris": {"ios": "https://dc.lft.to/lastmile_qr_scan", "android": "https://dc.lft.to/lastmile_qr_scan"}, "bike_id": "94b1e86fe4950bc059ec5caee5e79052", "lat": 38.88489366666667, "name": "94b1e86fe4950bc059ec5caee5e79052", "lon": -77.02331, "fusion_lon": 0.0}, {"is_reserved": 0, "type": "electric_bike", "fusion_lat": 0.0, "is_disabled": 0, "rental_uris": {"ios": "https://dc.lft.to/lastmile_qr_scan", "android": "https://dc.lft.to/lastmile_qr_scan"}, "bike_id": "acb484d0ebed4a8d8f8eda0d67ace6ed", "lat": 38.88660766666667, "name": "acb484d0ebed4a8d8f8eda0d67ace6ed", "lon": -77.16231583333334, "fusion_lon": 0.0}, {"is_reserved": 0, "type": "electric_scooter", "fusion_lat": 0.0, "is_disabled": 0, "rental_uris": {"ios": "https://dc.lft.to/lastmile_qr_scan", "android": "https://dc.lft.to/lastmile_qr_scan"}, "bike_id": "93288e33e44cee8b44c0c427a9d8291a", "lat": 38.91694066666667, "name": "93288e33e44cee8b44c0c427a9d8291a", "lon": -77.0272215, "fusion_lon": 0.0}, {"is_reserved": 0, "type": "electric_scooter", "fusion_lat": 0.0, "is_disabled": 0, "rental_uris": {"ios": "https://dc.lft.to/lastmile_qr_scan", "android": "https://dc.lft.to/lastmile_qr_scan"}, "bike_id": "006fa42dec6f55e73587f5d6c6fb484b", "lat": 38.927622166666666, "name": "006fa42dec6f55e73587f5d6c6fb484b", "lon": -77.02372416666667, "fusion_lon": 0.0}, {"is_reserved": 0, "type": "electric_scooter", "fusion_lat": 0.0, "is_disabled": 0, "rental_uris": {"ios": "https://dc.lft.to/lastmile_qr_scan", "android": "https://dc.lft.to/lastmile_qr_scan"}, "bike_id": "9586ef52fffd47154baa35250be04bbd", "lat": 38.92269983333333, "name": "9586ef52fffd47154baa35250be04bbd", "lon": -77.04238533333333, "fusion_lon": 0.0}, {"is_reserved": 0, "type": "electric_scooter", "fusion_lat": 0.0, "is_disabled": 0, "rental_uris": {"ios": "https://dc.lft.to/lastmile_qr_scan", "android": "https://dc.lft.to/lastmile_qr_scan"}, "bike_id": "c522722fad0e3cfac48a1c23ad708bc7", "lat": 38.89734833333333, "name": "c522722fad0e3cfac48a1c23ad708bc7", "lon": -77.04992083333333, "fusion_lon": 0.0}, {"is_reserved": 0, "type": "electric_scooter", "fusion_lat": 0.0, "is_disabled": 0, "rental_uris": {"ios": "https://dc.lft.to/lastmile_qr_scan", "android": "https://dc.lft.to/lastmile_qr_scan"}, "bike_id": "22440a86594ab169afcb602bf0fb13b3", "lat": 38.91682983333333, "name": "22440a86594ab169afcb602bf0fb13b3", "lon": -77.02483666666667, "fusion_lon": 0.0}, {"is_reserved": 0, "type": "electric_scooter", "fusion_lat": 0.0, "is_disabled": 0, "rental_uris": {"ios": "https://dc.lft.to/lastmile_qr_scan", "android": "https://dc.lft.to/lastmile_qr_scan"}, "bike_id": "1f4fc4ec9eee01b48bdee200bcc520fc", "lat": 38.95629783333333, "name": "1f4fc4ec9eee01b48bdee200bcc520fc", "lon": -77.02211266666667, "fusion_lon": 0.0}, {"is_reserved": 0, "type": "electric_scooter", "fusion_lat": 0.0, "is_disabled": 0, "rental_uris": {"ios": "https://dc.lft.to/lastmile_qr_scan", "android": "https://dc.lft.to/lastmile_qr_scan"}, "bike_id": "ddb3a0c985acfd540663bf3ec96c7cb2", "lat": 38.92260683333333, "name": "ddb3a0c985acfd540663bf3ec96c7cb2", "lon": -77.0366515, "fusion_lon": 0.0}, {"is_reserved": 0, "type": "electric_scooter", "fusion_lat": 0.0, "is_disabled": 0, "rental_uris": {"ios": "https://dc.lft.to/lastmile_qr_scan", "android": "https://dc.lft.to/lastmile_qr_scan"}, "bike_id": "393751f3f9c9cef9fe0e791c7f9fa72d", "lat": 38.899016833333334, "name": "393751f3f9c9cef9fe0e791c7f9fa72d", "lon": -77.0499405, "fusion_lon": 0.0}, {"is_reserved": 0, "type": "electric_scooter", "fusion_lat": 0.0, "is_disabled": 0, "rental_uris": {"ios": "https://dc.lft.to/lastmile_qr_scan", "android": "https://dc.lft.to/lastmile_qr_scan"}, "bike_id": "79b4a01bc6735249d1e2d514a3c5ce68", "lat": 38.920199333333336, "name": "79b4a01bc6735249d1e2d514a3c5ce68", "lon": -77.01707216666667, "fusion_lon": 0.0}, {"is_reserved": 0, "type": "electric_scooter", "fusion_lat": 0.0, "is_disabled": 0, "rental_uris": {"ios": "https://dc.lft.to/lastmile_qr_scan", "android": "https://dc.lft.to/lastmile_qr_scan"}, "bike_id": "c129931f3fab1cf49bc1c22f5fd535af", "lat": 38.938672833333335, "name": "c129931f3fab1cf49bc1c22f5fd535af", "lon": -77.07235183333333, "fusion_lon": 0.0}, {"is_reserved": 0, "type": "electric_scooter", "fusion_lat": 0.0, "is_disabled": 0, "rental_uris": {"ios": "https://dc.lft.to/lastmile_qr_scan", "android": "https://dc.lft.to/lastmile_qr_scan"}, "bike_id": "03fad5818668d3ac0a984a62b35a5710", "lat": 38.902094166666664, "name": "03fad5818668d3ac0a984a62b35a5710", "lon": -77.06120483333333, "fusion_lon": 0.0}, {"is_reserved": 0, "type": "electric_bike", "fusion_lat": 0.0, "is_disabled": 0, "rental_uris": {"ios": "https://dc.lft.to/lastmile_qr_scan", "android": "https://dc.lft.to/lastmile_qr_scan"}, "bike_id": "bb3aa5c91d03c3686d65fbf89018efab", "lat": 38.8326945, "name": "bb3aa5c91d03c3686d65fbf89018efab", "lon": -77.08369783333333, "fusion_lon": 0.0}, {"is_reserved": 0, "type": "electric_scooter", "fusion_lat": 0.0, "is_disabled": 0, "rental_uris": {"ios": "https://dc.lft.to/lastmile_qr_scan", "android": "https://dc.lft.to/lastmile_qr_scan"}, "bike_id": "22c12c9a5c6102e92a6ff4717f866edb", "lat": 38.9170405, "name": "22c12c9a5c6102e92a6ff4717f866edb", "lon": -77.0417405, "fusion_lon": 0.0}, {"is_reserved": 0, "type": "electric_scooter", "fusion_lat": 0.0, "is_disabled": 0, "rental_uris": {"ios": "https://dc.lft.to/lastmile_qr_scan", "android": "https://dc.lft.to/lastmile_qr_scan"}, "bike_id": "e5f8928baa97e56110cacf48c65f4da6", "lat": 38.9393075, "name": "e5f8928baa97e56110cacf48c65f4da6", "lon": -77.07252966666667, "fusion_lon": 0.0}, {"is_reserved": 0, "type": "electric_scooter", "fusion_lat": 0.0, "is_disabled": 0, "rental_uris": {"ios": "https://dc.lft.to/lastmile_qr_scan", "android": "https://dc.lft.to/lastmile_qr_scan"}, "bike_id": "0b42583e3605380171765e74699e6870", "lat": 38.94855833333333, "name": "0b42583e3605380171765e74699e6870", "lon": -77.07885866666666, "fusion_lon": 0.0}, {"is_reserved": 0, "type": "electric_scooter", "fusion_lat": 0.0, "is_disabled": 0, "rental_uris": {"ios": "https://dc.lft.to/lastmile_qr_scan", "android": "https://dc.lft.to/lastmile_qr_scan"}, "bike_id": "2ccc3f368f82c2ea90fe3e386d5a11b3", "lat": 38.897676, "name": "2ccc3f368f82c2ea90fe3e386d5a11b3", "lon": -77.05034, "fusion_lon": 0.0}, {"is_reserved": 0, "type": "electric_scooter", "fusion_lat": 0.0, "is_disabled": 0, "rental_uris": {"ios": "https://dc.lft.to/lastmile_qr_scan", "android": "https://dc.lft.to/lastmile_qr_scan"}, "bike_id": "0947028765b26b75c9558b86e3c45add", "lat": 38.905866, "name": "0947028765b26b75c9558b86e3c45add", "lon": -77.0445125, "fusion_lon": 0.0}, {"is_reserved": 0, "type": "electric_scooter", "fusion_lat": 0.0, "is_disabled": 0, "rental_uris": {"ios": "https://dc.lft.to/lastmile_qr_scan", "android": "https://dc.lft.to/lastmile_qr_scan"}, "bike_id": "78990a223aad050eec7552ac08470c61", "lat": 38.880104333333335, "name": "78990a223aad050eec7552ac08470c61", "lon": -76.99736133333333, "fusion_lon": 0.0}, {"is_reserved": 0, "type": "electric_scooter", "fusion_lat": 0.0, "is_disabled": 0, "rental_uris": {"ios": "https://dc.lft.to/lastmile_qr_scan", "android": "https://dc.lft.to/lastmile_qr_scan"}, "bike_id": "67b33ae81be823af2505cf1f7c617e56", "lat": 38.89219833333333, "name": "67b33ae81be823af2505cf1f7c617e56", "lon": -77.02222633333334, "fusion_lon": 0.0}, {"is_reserved": 0, "type": "electric_scooter", "fusion_lat": 0.0, "is_disabled": 0, "rental_uris": {"ios": "https://dc.lft.to/lastmile_qr_scan", "android": "https://dc.lft.to/lastmile_qr_scan"}, "bike_id": "20e6d77032973405d00f474da7eeaa5b", "lat": 38.876737166666665, "name": "20e6d77032973405d00f474da7eeaa5b", "lon": -77.01759783333334, "fusion_lon": 0.0}, {"is_reserved": 0, "type": "electric_scooter", "fusion_lat": 0.0, "is_disabled": 0, "rental_uris": {"ios": "https://dc.lft.to/lastmile_qr_scan", "android": "https://dc.lft.to/lastmile_qr_scan"}, "bike_id": "26f63a29067142e9735553c37c0878fa", "lat": 38.91849716666667, "name": "26f63a29067142e9735553c37c0878fa", "lon": -77.0410685, "fusion_lon": 0.0}, {"is_reserved": 0, "type": "electric_scooter", "fusion_lat": 0.0, "is_disabled": 0, "rental_uris": {"ios": "https://dc.lft.to/lastmile_qr_scan", "android": "https://dc.lft.to/lastmile_qr_scan"}, "bike_id": "1897d0cf1418276daacee0c27f72c82b", "lat": 38.92715533333333, "name": "1897d0cf1418276daacee0c27f72c82b", "lon": -77.036903, "fusion_lon": 0.0}, {"is_reserved": 0, "type": "electric_scooter", "fusion_lat": 0.0, "is_disabled": 0, "rental_uris": {"ios": "https://dc.lft.to/lastmile_qr_scan", "android": "https://dc.lft.to/lastmile_qr_scan"}, "bike_id": "867e462b3d1f76bb9bbf1ab2b10f3bb5", "lat": 38.89673716666667, "name": "867e462b3d1f76bb9bbf1ab2b10f3bb5", "lon": -77.04341066666667, "fusion_lon": 0.0}, {"is_reserved": 0, "type": "electric_scooter", "fusion_lat": 0.0, "is_disabled": 0, "rental_uris": {"ios": "https://dc.lft.to/lastmile_qr_scan", "android": "https://dc.lft.to/lastmile_qr_scan"}, "bike_id": "481d8a0ee354d031bf091166d817ead0", "lat": 38.905394666666666, "name": "481d8a0ee354d031bf091166d817ead0", "lon": -77.05916733333333, "fusion_lon": 0.0}, {"is_reserved": 0, "type": "electric_scooter", "fusion_lat": 0.0, "is_disabled": 0, "rental_uris": {"ios": "https://dc.lft.to/lastmile_qr_scan", "android": "https://dc.lft.to/lastmile_qr_scan"}, "bike_id": "30f1a208fd1627ac6437dc0a146d435f", "lat": 38.892461, "name": "30f1a208fd1627ac6437dc0a146d435f", "lon": -77.03209366666667, "fusion_lon": 0.0}, {"is_reserved": 0, "type": "electric_scooter", "fusion_lat": 0.0, "is_disabled": 0, "rental_uris": {"ios": "https://dc.lft.to/lastmile_qr_scan", "android": "https://dc.lft.to/lastmile_qr_scan"}, "bike_id": "ecee961de2eb8a3639b289b77e118f5d", "lat": 38.898798166666666, "name": "ecee961de2eb8a3639b289b77e118f5d", "lon": -76.93179266666667, "fusion_lon": 0.0}, {"is_reserved": 0, "type": "electric_scooter", "fusion_lat": 0.0, "is_disabled": 0, "rental_uris": {"ios": "https://dc.lft.to/lastmile_qr_scan", "android": "https://dc.lft.to/lastmile_qr_scan"}, "bike_id": "9ef16920fc8201842189df7084959bdd", "lat": 38.927238, "name": "9ef16920fc8201842189df7084959bdd", "lon": -77.0514375, "fusion_lon": 0.0}, {"is_reserved": 0, "type": "electric_bike", "fusion_lat": 0.0, "is_disabled": 0, "rental_uris": {"ios": "https://dc.lft.to/lastmile_qr_scan", "android": "https://dc.lft.to/lastmile_qr_scan"}, "bike_id": "7a9018f05616eb8250959dd6093a3f16", "lat": 38.97436733333333, "name": "7a9018f05616eb8250959dd6093a3f16", "lon": -77.096154, "fusion_lon": 0.0}, {"is_reserved": 0, "type": "electric_scooter", "fusion_lat": 0.0, "is_disabled": 0, "rental_uris": {"ios": "https://dc.lft.to/lastmile_qr_scan", "android": "https://dc.lft.to/lastmile_qr_scan"}, "bike_id": "7a0ad6f0662d8c4c35590f22e92f7046", "lat": 38.89249316666667, "name": "7a0ad6f0662d8c4c35590f22e92f7046", "lon": -77.0334765, "fusion_lon": 0.0}, {"is_reserved": 0, "type": "electric_scooter", "fusion_lat": 0.0, "is_disabled": 0, "rental_uris": {"ios": "https://dc.lft.to/lastmile_qr_scan", "android": "https://dc.lft.to/lastmile_qr_scan"}, "bike_id": "b63bbaedba3556dc6a5e87ef31e78fd6", "lat": 38.95555316666667, "name": "b63bbaedba3556dc6a5e87ef31e78fd6", "lon": -77.03320616666667, "fusion_lon": 0.0}, {"is_reserved": 0, "type": "electric_scooter", "fusion_lat": 0.0, "is_disabled": 0, "rental_uris": {"ios": "https://dc.lft.to/lastmile_qr_scan", "android": "https://dc.lft.to/lastmile_qr_scan"}, "bike_id": "c57a4d9c08e34508410bb0d8093ab8df", "lat": 38.898412666666665, "name": "c57a4d9c08e34508410bb0d8093ab8df", "lon": -77.00210466666667, "fusion_lon": 0.0}, {"is_reserved": 0, "type": "electric_scooter", "fusion_lat": 0.0, "is_disabled": 0, "rental_uris": {"ios": "https://dc.lft.to/lastmile_qr_scan", "android": "https://dc.lft.to/lastmile_qr_scan"}, "bike_id": "8f2c802c10a3739d210c0b142f521c77", "lat": 38.855476333333336, "name": "8f2c802c10a3739d210c0b142f521c77", "lon": -76.986559, "fusion_lon": 0.0}, {"is_reserved": 0, "type": "electric_scooter", "fusion_lat": 0.0, "is_disabled": 0, "rental_uris": {"ios": "https://dc.lft.to/lastmile_qr_scan", "android": "https://dc.lft.to/lastmile_qr_scan"}, "bike_id": "4bb5f3f1e96f41f667b9884442cf09ba", "lat": 38.897300666666666, "name": "4bb5f3f1e96f41f667b9884442cf09ba", "lon": -77.00324483333333, "fusion_lon": 0.0}, {"is_reserved": 0, "type": "electric_bike", "fusion_lat": 0.0, "is_disabled": 0, "rental_uris": {"ios": "https://dc.lft.to/lastmile_qr_scan", "android": "https://dc.lft.to/lastmile_qr_scan"}, "bike_id": "ac8ef4378a409bc326255fdd820ea666", "lat": 38.86551383333333, "name": "ac8ef4378a409bc326255fdd820ea666", "lon": -76.9415545, "fusion_lon": 0.0}, {"is_reserved": 0, "type": "electric_scooter", "fusion_lat": 0.0, "is_disabled": 0, "rental_uris": {"ios": "https://dc.lft.to/lastmile_qr_scan", "android": "https://dc.lft.to/lastmile_qr_scan"}, "bike_id": "3fb29f20725a8d34614aafc9e3384877", "lat": 38.967969333333336, "name": "3fb29f20725a8d34614aafc9e3384877", "lon": -77.02428116666667, "fusion_lon": 0.0}, {"is_reserved": 0, "type": "electric_scooter", "fusion_lat": 0.0, "is_disabled": 0, "rental_uris": {"ios": "https://dc.lft.to/lastmile_qr_scan", "android": "https://dc.lft.to/lastmile_qr_scan"}, "bike_id": "96df80016795463a0d38a5dae9fbdfb0", "lat": 38.92177516666667, "name": "96df80016795463a0d38a5dae9fbdfb0", "lon": -77.03819283333333, "fusion_lon": 0.0}, {"is_reserved": 0, "type": "electric_scooter", "fusion_lat": 0.0, "is_disabled": 0, "rental_uris": {"ios": "https://dc.lft.to/lastmile_qr_scan", "android": "https://dc.lft.to/lastmile_qr_scan"}, "bike_id": "97c947761ed86b58b83eeb668c324b50", "lat": 38.91244983333333, "name": "97c947761ed86b58b83eeb668c324b50", "lon": -76.98673383333333, "fusion_lon": 0.0}, {"is_reserved": 0, "type": "electric_bike", "fusion_lat": 0.0, "is_disabled": 0, "rental_uris": {"ios": "https://dc.lft.to/lastmile_qr_scan", "android": "https://dc.lft.to/lastmile_qr_scan"}, "bike_id": "6f4271795a2b9a198597af770993d8b7", "lat": 38.8051505, "name": "6f4271795a2b9a198597af770993d8b7", "lon": -77.04341333333333, "fusion_lon": 0.0}, {"is_reserved": 0, "type": "electric_scooter", "fusion_lat": 0.0, "is_disabled": 0, "rental_uris": {"ios": "https://dc.lft.to/lastmile_qr_scan", "android": "https://dc.lft.to/lastmile_qr_scan"}, "bike_id": "b93d109fc96e8851f6a0f8b8a7604c77", "lat": 38.9045385, "name": "b93d109fc96e8851f6a0f8b8a7604c77", "lon": -76.93374033333333, "fusion_lon": 0.0}, {"is_reserved": 0, "type": "electric_bike", "fusion_lat": 0.0, "is_disabled": 0, "rental_uris": {"ios": "https://dc.lft.to/lastmile_qr_scan", "android": "https://dc.lft.to/lastmile_qr_scan"}, "bike_id": "09778c481d2b76e489a6f4bed122b7ad", "lat": 38.9402695, "name": "09778c481d2b76e489a6f4bed122b7ad", "lon": -76.97580783333333, "fusion_lon": 0.0}, {"is_reserved": 0, "type": "electric_scooter", "fusion_lat": 0.0, "is_disabled": 0, "rental_uris": {"ios": "https://dc.lft.to/lastmile_qr_scan", "android": "https://dc.lft.to/lastmile_qr_scan"}, "bike_id": "0f1519e53a6212907a406fd6811f330a", "lat": 38.897831333333336, "name": "0f1519e53a6212907a406fd6811f330a", "lon": -77.04783883333333, "fusion_lon": 0.0}, {"is_reserved": 0, "type": "electric_scooter", "fusion_lat": 0.0, "is_disabled": 0, "rental_uris": {"ios": "https://dc.lft.to/lastmile_qr_scan", "android": "https://dc.lft.to/lastmile_qr_scan"}, "bike_id": "96b63c70d00b1852e1524951a0209bb1", "lat": 38.874413, "name": "96b63c70d00b1852e1524951a0209bb1", "lon": -77.00929766666667, "fusion_lon": 0.0}, {"is_reserved": 0, "type": "electric_scooter", "fusion_lat": 0.0, "is_disabled": 0, "rental_uris": {"ios": "https://dc.lft.to/lastmile_qr_scan", "android": "https://dc.lft.to/lastmile_qr_scan"}, "bike_id": "5b59fb2d270c4b18721546bb14c379ce", "lat": 38.89722883333334, "name": "5b59fb2d270c4b18721546bb14c379ce", "lon": -77.02459766666666, "fusion_lon": 0.0}, {"is_reserved": 0, "type": "electric_scooter", "fusion_lat": 0.0, "is_disabled": 0, "rental_uris": {"ios": "https://dc.lft.to/lastmile_qr_scan", "android": "https://dc.lft.to/lastmile_qr_scan"}, "bike_id": "2ee21d6466bbadc07a24de11b616e849", "lat": 38.92175366666667, "name": "2ee21d6466bbadc07a24de11b616e849", "lon": -77.0210755, "fusion_lon": 0.0}, {"is_reserved": 0, "type": "electric_scooter", "fusion_lat": 0.0, "is_disabled": 0, "rental_uris": {"ios": "https://dc.lft.to/lastmile_qr_scan", "android": "https://dc.lft.to/lastmile_qr_scan"}, "bike_id": "469c0cf5b5e5c327fb8809401e120cd8", "lat": 38.923721666666665, "name": "469c0cf5b5e5c327fb8809401e120cd8", "lon": -77.0191935, "fusion_lon": 0.0}, {"is_reserved": 0, "type": "electric_scooter", "fusion_lat": 0.0, "is_disabled": 0, "rental_uris": {"ios": "https://dc.lft.to/lastmile_qr_scan", "android": "https://dc.lft.to/lastmile_qr_scan"}, "bike_id": "c6df23ac6db14cca4460e0ca29ca8502", "lat": 38.901190166666666, "name": "c6df23ac6db14cca4460e0ca29ca8502", "lon": -77.00365466666666, "fusion_lon": 0.0}, {"is_reserved": 0, "type": "electric_scooter", "fusion_lat": 0.0, "is_disabled": 0, "rental_uris": {"ios": "https://dc.lft.to/lastmile_qr_scan", "android": "https://dc.lft.to/lastmile_qr_scan"}, "bike_id": "a9623b5f676f2c6a84d26b437e5f714a", "lat": 38.89881883333334, "name": "a9623b5f676f2c6a84d26b437e5f714a", "lon": -76.93171066666666, "fusion_lon": 0.0}, {"is_reserved": 0, "type": "electric_scooter", "fusion_lat": 0.0, "is_disabled": 0, "rental_uris": {"ios": "https://dc.lft.to/lastmile_qr_scan", "android": "https://dc.lft.to/lastmile_qr_scan"}, "bike_id": "674e2a6390b7a31aec3eb3e6b7b54f1f", "lat": 38.964262833333336, "name": "674e2a6390b7a31aec3eb3e6b7b54f1f", "lon": -77.07427716666666, "fusion_lon": 0.0}, {"is_reserved": 0, "type": "electric_scooter", "fusion_lat": 0.0, "is_disabled": 0, "rental_uris": {"ios": "https://dc.lft.to/lastmile_qr_scan", "android": "https://dc.lft.to/lastmile_qr_scan"}, "bike_id": "5735c48c75f71720a24d48716c384790", "lat": 38.9169315, "name": "5735c48c75f71720a24d48716c384790", "lon": -77.053012, "fusion_lon": 0.0}, {"is_reserved": 0, "type": "electric_scooter", "fusion_lat": 0.0, "is_disabled": 0, "rental_uris": {"ios": "https://dc.lft.to/lastmile_qr_scan", "android": "https://dc.lft.to/lastmile_qr_scan"}, "bike_id": "3efeface60546a2e12f9edf644ec4d88", "lat": 38.8979915, "name": "3efeface60546a2e12f9edf644ec4d88", "lon": -77.05200816666667, "fusion_lon": 0.0}, {"is_reserved": 0, "type": "electric_scooter", "fusion_lat": 0.0, "is_disabled": 0, "rental_uris": {"ios": "https://dc.lft.to/lastmile_qr_scan", "android": "https://dc.lft.to/lastmile_qr_scan"}, "bike_id": "e44af674c94a33fabc95b7261ae5c6fd", "lat": 38.90146416666666, "name": "e44af674c94a33fabc95b7261ae5c6fd", "lon": -77.02308283333333, "fusion_lon": 0.0}, {"is_reserved": 0, "type": "electric_scooter", "fusion_lat": 0.0, "is_disabled": 0, "rental_uris": {"ios": "https://dc.lft.to/lastmile_qr_scan", "android": "https://dc.lft.to/lastmile_qr_scan"}, "bike_id": "35a9c75ac3cbe1cc208c78a118fbeb85", "lat": 38.9107905, "name": "35a9c75ac3cbe1cc208c78a118fbeb85", "lon": -77.0218045, "fusion_lon": 0.0}, {"is_reserved": 0, "type": "electric_bike", "fusion_lat": 0.0, "is_disabled": 0, "rental_uris": {"ios": "https://dc.lft.to/lastmile_qr_scan", "android": "https://dc.lft.to/lastmile_qr_scan"}, "bike_id": "7179999bf46cd976d2310f941335e4ae", "lat": 38.834254666666666, "name": "7179999bf46cd976d2310f941335e4ae", "lon": -77.05027933333334, "fusion_lon": 0.0}, {"is_reserved": 0, "type": "electric_scooter", "fusion_lat": 0.0, "is_disabled": 0, "rental_uris": {"ios": "https://dc.lft.to/lastmile_qr_scan", "android": "https://dc.lft.to/lastmile_qr_scan"}, "bike_id": "c9245aa190171c30fde2b004d2c5b587", "lat": 38.898273833333334, "name": "c9245aa190171c30fde2b004d2c5b587", "lon": -77.0463975, "fusion_lon": 0.0}, {"is_reserved": 0, "type": "electric_scooter", "fusion_lat": 0.0, "is_disabled": 0, "rental_uris": {"ios": "https://dc.lft.to/lastmile_qr_scan", "android": "https://dc.lft.to/lastmile_qr_scan"}, "bike_id": "dc1105aabb4b9c5044f0f78f9fe2e686", "lat": 38.9356875, "name": "dc1105aabb4b9c5044f0f78f9fe2e686", "lon": -77.07366133333333, "fusion_lon": 0.0}, {"is_reserved": 0, "type": "electric_scooter", "fusion_lat": 0.0, "is_disabled": 0, "rental_uris": {"ios": "https://dc.lft.to/lastmile_qr_scan", "android": "https://dc.lft.to/lastmile_qr_scan"}, "bike_id": "ac73ad65aaa78269307f3077a661592e", "lat": 38.91443366666667, "name": "ac73ad65aaa78269307f3077a661592e", "lon": -76.98447033333333, "fusion_lon": 0.0}, {"is_reserved": 0, "type": "electric_scooter", "fusion_lat": 0.0, "is_disabled": 0, "rental_uris": {"ios": "https://dc.lft.to/lastmile_qr_scan", "android": "https://dc.lft.to/lastmile_qr_scan"}, "bike_id": "1bcb018c9f31974122b14c3689d3d3dc", "lat": 38.857148, "name": "1bcb018c9f31974122b14c3689d3d3dc", "lon": -76.9810115, "fusion_lon": 0.0}, {"is_reserved": 0, "type": "electric_scooter", "fusion_lat": 0.0, "is_disabled": 0, "rental_uris": {"ios": "https://dc.lft.to/lastmile_qr_scan", "android": "https://dc.lft.to/lastmile_qr_scan"}, "bike_id": "4189bb68cbb7209e409b67d0f9a9f03a", "lat": 38.9015735, "name": "4189bb68cbb7209e409b67d0f9a9f03a", "lon": -77.0296515, "fusion_lon": 0.0}, {"is_reserved": 0, "type": "electric_bike", "fusion_lat": 0.0, "is_disabled": 0, "rental_uris": {"ios": "https://dc.lft.to/lastmile_qr_scan", "android": "https://dc.lft.to/lastmile_qr_scan"}, "bike_id": "fb96c7a24d98210fd24385ef38832356", "lat": 38.927899, "name": "fb96c7a24d98210fd24385ef38832356", "lon": -77.22925283333333, "fusion_lon": 0.0}, {"is_reserved": 0, "type": "electric_scooter", "fusion_lat": 0.0, "is_disabled": 0, "rental_uris": {"ios": "https://dc.lft.to/lastmile_qr_scan", "android": "https://dc.lft.to/lastmile_qr_scan"}, "bike_id": "dfcc40444d5a85e508fe806efcc06c6d", "lat": 38.88536833333333, "name": "dfcc40444d5a85e508fe806efcc06c6d", "lon": -76.9853805, "fusion_lon": 0.0}, {"is_reserved": 0, "type": "electric_scooter", "fusion_lat": 0.0, "is_disabled": 0, "rental_uris": {"ios": "https://dc.lft.to/lastmile_qr_scan", "android": "https://dc.lft.to/lastmile_qr_scan"}, "bike_id": "493a5fb25f50a2b2d896a98610c42fe2", "lat": 38.89331283333333, "name": "493a5fb25f50a2b2d896a98610c42fe2", "lon": -76.9288905, "fusion_lon": 0.0}, {"is_reserved": 0, "type": "electric_scooter", "fusion_lat": 0.0, "is_disabled": 0, "rental_uris": {"ios": "https://dc.lft.to/lastmile_qr_scan", "android": "https://dc.lft.to/lastmile_qr_scan"}, "bike_id": "ade27998ae1432d4b6b4306fe0fb735c", "lat": 38.929993, "name": "ade27998ae1432d4b6b4306fe0fb735c", "lon": -77.0380035, "fusion_lon": 0.0}, {"is_reserved": 0, "type": "electric_scooter", "fusion_lat": 0.0, "is_disabled": 0, "rental_uris": {"ios": "https://dc.lft.to/lastmile_qr_scan", "android": "https://dc.lft.to/lastmile_qr_scan"}, "bike_id": "ce4e09f42f591df5596c9c95f51fd927", "lat": 38.95633816666667, "name": "ce4e09f42f591df5596c9c95f51fd927", "lon": -77.036328, "fusion_lon": 0.0}, {"is_reserved": 0, "type": "electric_scooter", "fusion_lat": 0.0, "is_disabled": 0, "rental_uris": {"ios": "https://dc.lft.to/lastmile_qr_scan", "android": "https://dc.lft.to/lastmile_qr_scan"}, "bike_id": "96fef7c5eef99618e761850837456edc", "lat": 38.9000465, "name": "96fef7c5eef99618e761850837456edc", "lon": -77.02008183333334, "fusion_lon": 0.0}, {"is_reserved": 0, "type": "electric_scooter", "fusion_lat": 0.0, "is_disabled": 0, "rental_uris": {"ios": "https://dc.lft.to/lastmile_qr_scan", "android": "https://dc.lft.to/lastmile_qr_scan"}, "bike_id": "e47ea7b976234c4df889131d7c3b7ae2", "lat": 38.925271, "name": "e47ea7b976234c4df889131d7c3b7ae2", "lon": -77.035365, "fusion_lon": 0.0}, {"is_reserved": 0, "type": "electric_scooter", "fusion_lat": 0.0, "is_disabled": 0, "rental_uris": {"ios": "https://dc.lft.to/lastmile_qr_scan", "android": "https://dc.lft.to/lastmile_qr_scan"}, "bike_id": "23d1e79677d2d6bf4b9f14184520767b", "lat": 38.912531666666666, "name": "23d1e79677d2d6bf4b9f14184520767b", "lon": -77.00989566666667, "fusion_lon": 0.0}, {"is_reserved": 0, "type": "electric_scooter", "fusion_lat": 0.0, "is_disabled": 0, "rental_uris": {"ios": "https://dc.lft.to/lastmile_qr_scan", "android": "https://dc.lft.to/lastmile_qr_scan"}, "bike_id": "8f8362aa0f76671b4fa2f6996e2473e4", "lat": 38.899579333333335, "name": "8f8362aa0f76671b4fa2f6996e2473e4", "lon": -77.01499583333333, "fusion_lon": 0.0}, {"is_reserved": 0, "type": "electric_scooter", "fusion_lat": 0.0, "is_disabled": 0, "rental_uris": {"ios": "https://dc.lft.to/lastmile_qr_scan", "android": "https://dc.lft.to/lastmile_qr_scan"}, "bike_id": "7fef8ca23cae9147cb466f2f1952fb98", "lat": 38.948275, "name": "7fef8ca23cae9147cb466f2f1952fb98", "lon": -77.08003083333334, "fusion_lon": 0.0}, {"is_reserved": 0, "type": "electric_scooter", "fusion_lat": 0.0, "is_disabled": 0, "rental_uris": {"ios": "https://dc.lft.to/lastmile_qr_scan", "android": "https://dc.lft.to/lastmile_qr_scan"}, "bike_id": "fac1ccb46036c57a077c6180335c46a8", "lat": 38.930656166666665, "name": "fac1ccb46036c57a077c6180335c46a8", "lon": -77.02337466666667, "fusion_lon": 0.0}, {"is_reserved": 0, "type": "electric_scooter", "fusion_lat": 0.0, "is_disabled": 0, "rental_uris": {"ios": "https://dc.lft.to/lastmile_qr_scan", "android": "https://dc.lft.to/lastmile_qr_scan"}, "bike_id": "835a638412c6abf58763dd8e49d70555", "lat": 38.901504, "name": "835a638412c6abf58763dd8e49d70555", "lon": -77.041098, "fusion_lon": 0.0}, {"is_reserved": 0, "type": "electric_scooter", "fusion_lat": 0.0, "is_disabled": 0, "rental_uris": {"ios": "https://dc.lft.to/lastmile_qr_scan", "android": "https://dc.lft.to/lastmile_qr_scan"}, "bike_id": "754b720212cde5be8b23b16320a00cb3", "lat": 38.90355666666667, "name": "754b720212cde5be8b23b16320a00cb3", "lon": -77.06003666666666, "fusion_lon": 0.0}, {"is_reserved": 0, "type": "electric_scooter", "fusion_lat": 0.0, "is_disabled": 0, "rental_uris": {"ios": "https://dc.lft.to/lastmile_qr_scan", "android": "https://dc.lft.to/lastmile_qr_scan"}, "bike_id": "52c33d25e17c0c247a40e6a237a21ce2", "lat": 38.89740833333333, "name": "52c33d25e17c0c247a40e6a237a21ce2", "lon": -76.9994045, "fusion_lon": 0.0}, {"is_reserved": 0, "type": "electric_scooter", "fusion_lat": 0.0, "is_disabled": 0, "rental_uris": {"ios": "https://dc.lft.to/lastmile_qr_scan", "android": "https://dc.lft.to/lastmile_qr_scan"}, "bike_id": "438a727cd8927c45f09a7a36248f7e38", "lat": 38.917982333333335, "name": "438a727cd8927c45f09a7a36248f7e38", "lon": -77.03131283333333, "fusion_lon": 0.0}, {"is_reserved": 0, "type": "electric_scooter", "fusion_lat": 0.0, "is_disabled": 0, "rental_uris": {"ios": "https://dc.lft.to/lastmile_qr_scan", "android": "https://dc.lft.to/lastmile_qr_scan"}, "bike_id": "d86b1886e1e057141eb78cbd03fba2bd", "lat": 38.9016885, "name": "d86b1886e1e057141eb78cbd03fba2bd", "lon": -77.04875266666667, "fusion_lon": 0.0}, {"is_reserved": 0, "type": "electric_bike", "fusion_lat": 0.0, "is_disabled": 0, "rental_uris": {"ios": "https://dc.lft.to/lastmile_qr_scan", "android": "https://dc.lft.to/lastmile_qr_scan"}, "bike_id": "c54276b0b1e24697d195686f81ea1256", "lat": 38.90218683333333, "name": "c54276b0b1e24697d195686f81ea1256", "lon": -76.93176666666666, "fusion_lon": 0.0}, {"is_reserved": 0, "type": "electric_scooter", "fusion_lat": 0.0, "is_disabled": 0, "rental_uris": {"ios": "https://dc.lft.to/lastmile_qr_scan", "android": "https://dc.lft.to/lastmile_qr_scan"}, "bike_id": "57f76370d12ee2841854dd1e80a03cc6", "lat": 38.9246255, "name": "57f76370d12ee2841854dd1e80a03cc6", "lon": -77.057594, "fusion_lon": 0.0}, {"is_reserved": 0, "type": "electric_scooter", "fusion_lat": 0.0, "is_disabled": 0, "rental_uris": {"ios": "https://dc.lft.to/lastmile_qr_scan", "android": "https://dc.lft.to/lastmile_qr_scan"}, "bike_id": "bab275c005c6e61d562c6f2b83f99f89", "lat": 38.9241695, "name": "bab275c005c6e61d562c6f2b83f99f89", "lon": -77.04482916666667, "fusion_lon": 0.0}, {"is_reserved": 0, "type": "electric_bike", "fusion_lat": 0.0, "is_disabled": 0, "rental_uris": {"ios": "https://dc.lft.to/lastmile_qr_scan", "android": "https://dc.lft.to/lastmile_qr_scan"}, "bike_id": "b283aec04ef84b586c10aca6a5fd86f8", "lat": 38.83864783333333, "name": "b283aec04ef84b586c10aca6a5fd86f8", "lon": -76.99704683333333, "fusion_lon": 0.0}, {"is_reserved": 0, "type": "electric_scooter", "fusion_lat": 0.0, "is_disabled": 0, "rental_uris": {"ios": "https://dc.lft.to/lastmile_qr_scan", "android": "https://dc.lft.to/lastmile_qr_scan"}, "bike_id": "a792c611dac3314c6527bc296ab399a1", "lat": 38.915595333333336, "name": "a792c611dac3314c6527bc296ab399a1", "lon": -77.04092716666666, "fusion_lon": 0.0}, {"is_reserved": 0, "type": "electric_scooter", "fusion_lat": 0.0, "is_disabled": 0, "rental_uris": {"ios": "https://dc.lft.to/lastmile_qr_scan", "android": "https://dc.lft.to/lastmile_qr_scan"}, "bike_id": "a235ece3abd4e7fd647c7cbc63079ab1", "lat": 38.883791333333335, "name": "a235ece3abd4e7fd647c7cbc63079ab1", "lon": -77.03034966666667, "fusion_lon": 0.0}, {"is_reserved": 0, "type": "electric_scooter", "fusion_lat": 0.0, "is_disabled": 0, "rental_uris": {"ios": "https://dc.lft.to/lastmile_qr_scan", "android": "https://dc.lft.to/lastmile_qr_scan"}, "bike_id": "1e165225b65fa4c21b52f24cb93dd28d", "lat": 38.881499833333336, "name": "1e165225b65fa4c21b52f24cb93dd28d", "lon": -77.01314233333333, "fusion_lon": 0.0}, {"is_reserved": 0, "type": "electric_bike", "fusion_lat": 0.0, "is_disabled": 0, "rental_uris": {"ios": "https://dc.lft.to/lastmile_qr_scan", "android": "https://dc.lft.to/lastmile_qr_scan"}, "bike_id": "6e775aebebc98e81e2978b303c583adb", "lat": 38.942655333333335, "name": "6e775aebebc98e81e2978b303c583adb", "lon": -76.990754, "fusion_lon": 0.0}, {"is_reserved": 0, "type": "electric_scooter", "fusion_lat": 0.0, "is_disabled": 0, "rental_uris": {"ios": "https://dc.lft.to/lastmile_qr_scan", "android": "https://dc.lft.to/lastmile_qr_scan"}, "bike_id": "27b5184b67bfc7cc13e8adeee6818cf4", "lat": 38.899969166666665, "name": "27b5184b67bfc7cc13e8adeee6818cf4", "lon": -77.052309, "fusion_lon": 0.0}, {"is_reserved": 0, "type": "electric_scooter", "fusion_lat": 0.0, "is_disabled": 0, "rental_uris": {"ios": "https://dc.lft.to/lastmile_qr_scan", "android": "https://dc.lft.to/lastmile_qr_scan"}, "bike_id": "a948402e7a0a516e4656a6c9f76584a2", "lat": 38.89227316666667, "name": "a948402e7a0a516e4656a6c9f76584a2", "lon": -77.0464085, "fusion_lon": 0.0}, {"is_reserved": 0, "type": "electric_scooter", "fusion_lat": 0.0, "is_disabled": 0, "rental_uris": {"ios": "https://dc.lft.to/lastmile_qr_scan", "android": "https://dc.lft.to/lastmile_qr_scan"}, "bike_id": "06f90a630d20aed7c3899d356d85741f", "lat": 38.90221533333333, "name": "06f90a630d20aed7c3899d356d85741f", "lon": -77.0173675, "fusion_lon": 0.0}, {"is_reserved": 0, "type": "electric_scooter", "fusion_lat": 0.0, "is_disabled": 0, "rental_uris": {"ios": "https://dc.lft.to/lastmile_qr_scan", "android": "https://dc.lft.to/lastmile_qr_scan"}, "bike_id": "1800491f5d6c715692dd30a028e7a5b7", "lat": 38.917726, "name": "1800491f5d6c715692dd30a028e7a5b7", "lon": -77.04182766666666, "fusion_lon": 0.0}, {"is_reserved": 0, "type": "electric_scooter", "fusion_lat": 0.0, "is_disabled": 0, "rental_uris": {"ios": "https://dc.lft.to/lastmile_qr_scan", "android": "https://dc.lft.to/lastmile_qr_scan"}, "bike_id": "175c27746a1ef6ae924cc416605cd491", "lat": 38.91125983333333, "name": "175c27746a1ef6ae924cc416605cd491", "lon": -77.03641416666666, "fusion_lon": 0.0}, {"is_reserved": 0, "type": "electric_bike", "fusion_lat": 0.0, "is_disabled": 0, "rental_uris": {"ios": "https://dc.lft.to/lastmile_qr_scan", "android": "https://dc.lft.to/lastmile_qr_scan"}, "bike_id": "cfae901e49216e9b6db844d2e0650b24", "lat": 38.8961555, "name": "cfae901e49216e9b6db844d2e0650b24", "lon": -76.907478, "fusion_lon": 0.0}, {"is_reserved": 0, "type": "electric_scooter", "fusion_lat": 0.0, "is_disabled": 0, "rental_uris": {"ios": "https://dc.lft.to/lastmile_qr_scan", "android": "https://dc.lft.to/lastmile_qr_scan"}, "bike_id": "329d376c9672e9fff6021b4f48e2b048", "lat": 38.914148833333336, "name": "329d376c9672e9fff6021b4f48e2b048", "lon": -77.03164333333334, "fusion_lon": 0.0}, {"is_reserved": 0, "type": "electric_scooter", "fusion_lat": 0.0, "is_disabled": 0, "rental_uris": {"ios": "https://dc.lft.to/lastmile_qr_scan", "android": "https://dc.lft.to/lastmile_qr_scan"}, "bike_id": "e0ce7521c0d3b55d01ba2615afbec143", "lat": 38.92414766666667, "name": "e0ce7521c0d3b55d01ba2615afbec143", "lon": -77.02004083333334, "fusion_lon": 0.0}, {"is_reserved": 0, "type": "electric_scooter", "fusion_lat": 0.0, "is_disabled": 0, "rental_uris": {"ios": "https://dc.lft.to/lastmile_qr_scan", "android": "https://dc.lft.to/lastmile_qr_scan"}, "bike_id": "76b66bab67ba43e7586112635a7c7f8b", "lat": 38.90248533333333, "name": "76b66bab67ba43e7586112635a7c7f8b", "lon": -77.0348045, "fusion_lon": 0.0}, {"is_reserved": 0, "type": "electric_scooter", "fusion_lat": 0.0, "is_disabled": 0, "rental_uris": {"ios": "https://dc.lft.to/lastmile_qr_scan", "android": "https://dc.lft.to/lastmile_qr_scan"}, "bike_id": "4d2acc3ebc8e35cf226c871162284750", "lat": 38.95750983333333, "name": "4d2acc3ebc8e35cf226c871162284750", "lon": -77.02216066666666, "fusion_lon": 0.0}, {"is_reserved": 0, "type": "electric_scooter", "fusion_lat": 0.0, "is_disabled": 0, "rental_uris": {"ios": "https://dc.lft.to/lastmile_qr_scan", "android": "https://dc.lft.to/lastmile_qr_scan"}, "bike_id": "503c51fd3a15d2296aa3ad651f05573d", "lat": 38.95685233333333, "name": "503c51fd3a15d2296aa3ad651f05573d", "lon": -77.0223445, "fusion_lon": 0.0}, {"is_reserved": 0, "type": "electric_scooter", "fusion_lat": 0.0, "is_disabled": 0, "rental_uris": {"ios": "https://dc.lft.to/lastmile_qr_scan", "android": "https://dc.lft.to/lastmile_qr_scan"}, "bike_id": "b1f6426f33071945bcc8f0cd88de0767", "lat": 38.905722833333336, "name": "b1f6426f33071945bcc8f0cd88de0767", "lon": -77.030788, "fusion_lon": 0.0}, {"is_reserved": 0, "type": "electric_scooter", "fusion_lat": 0.0, "is_disabled": 0, "rental_uris": {"ios": "https://dc.lft.to/lastmile_qr_scan", "android": "https://dc.lft.to/lastmile_qr_scan"}, "bike_id": "718ae726be9117fadab65f4f854b2bba", "lat": 38.90096666666667, "name": "718ae726be9117fadab65f4f854b2bba", "lon": -77.04774783333333, "fusion_lon": 0.0}, {"is_reserved": 0, "type": "electric_scooter", "fusion_lat": 0.0, "is_disabled": 0, "rental_uris": {"ios": "https://dc.lft.to/lastmile_qr_scan", "android": "https://dc.lft.to/lastmile_qr_scan"}, "bike_id": "eccce20eceeb3842cdfaa710e210837a", "lat": 38.88513566666666, "name": "eccce20eceeb3842cdfaa710e210837a", "lon": -76.92445233333333, "fusion_lon": 0.0}, {"is_reserved": 0, "type": "electric_scooter", "fusion_lat": 0.0, "is_disabled": 0, "rental_uris": {"ios": "https://dc.lft.to/lastmile_qr_scan", "android": "https://dc.lft.to/lastmile_qr_scan"}, "bike_id": "6f5f2a920956deb041927c104b119805", "lat": 38.885273166666664, "name": "6f5f2a920956deb041927c104b119805", "lon": -76.98058133333333, "fusion_lon": 0.0}, {"is_reserved": 0, "type": "electric_scooter", "fusion_lat": 0.0, "is_disabled": 0, "rental_uris": {"ios": "https://dc.lft.to/lastmile_qr_scan", "android": "https://dc.lft.to/lastmile_qr_scan"}, "bike_id": "af349007f7ea9f1c8dbb974ce6893f8e", "lat": 38.897379666666666, "name": "af349007f7ea9f1c8dbb974ce6893f8e", "lon": -77.0261035, "fusion_lon": 0.0}, {"is_reserved": 0, "type": "electric_bike", "fusion_lat": 0.0, "is_disabled": 0, "rental_uris": {"ios": "https://dc.lft.to/lastmile_qr_scan", "android": "https://dc.lft.to/lastmile_qr_scan"}, "bike_id": "22f8c118000b477f2090218a78a6ad4a", "lat": 38.824238666666666, "name": "22f8c118000b477f2090218a78a6ad4a", "lon": -77.12041616666667, "fusion_lon": 0.0}, {"is_reserved": 0, "type": "electric_bike", "fusion_lat": 0.0, "is_disabled": 0, "rental_uris": {"ios": "https://dc.lft.to/lastmile_qr_scan", "android": "https://dc.lft.to/lastmile_qr_scan"}, "bike_id": "8cf2d1aaf2d4d099b0d78c675ee425b2", "lat": 38.8562585, "name": "8cf2d1aaf2d4d099b0d78c675ee425b2", "lon": -77.06841583333333, "fusion_lon": 0.0}, {"is_reserved": 0, "type": "electric_scooter", "fusion_lat": 0.0, "is_disabled": 0, "rental_uris": {"ios": "https://dc.lft.to/lastmile_qr_scan", "android": "https://dc.lft.to/lastmile_qr_scan"}, "bike_id": "fc209d3e35a5c7ae45c04e69f94b679d", "lat": 38.876069666666666, "name": "fc209d3e35a5c7ae45c04e69f94b679d", "lon": -77.005795, "fusion_lon": 0.0}, {"is_reserved": 0, "type": "electric_scooter", "fusion_lat": 0.0, "is_disabled": 0, "rental_uris": {"ios": "https://dc.lft.to/lastmile_qr_scan", "android": "https://dc.lft.to/lastmile_qr_scan"}, "bike_id": "a76181b4f29d1ad3359e14cc8c08803c", "lat": 38.8983405, "name": "a76181b4f29d1ad3359e14cc8c08803c", "lon": -77.00053233333334, "fusion_lon": 0.0}, {"is_reserved": 0, "type": "electric_scooter", "fusion_lat": 0.0, "is_disabled": 0, "rental_uris": {"ios": "https://dc.lft.to/lastmile_qr_scan", "android": "https://dc.lft.to/lastmile_qr_scan"}, "bike_id": "e63f7c70a3ca558f613d107efc834273", "lat": 38.922610166666665, "name": "e63f7c70a3ca558f613d107efc834273", "lon": -77.03662233333333, "fusion_lon": 0.0}, {"is_reserved": 0, "type": "electric_scooter", "fusion_lat": 0.0, "is_disabled": 0, "rental_uris": {"ios": "https://dc.lft.to/lastmile_qr_scan", "android": "https://dc.lft.to/lastmile_qr_scan"}, "bike_id": "07ca876ac47f87b4777bc3ade0b51182", "lat": 38.91706333333333, "name": "07ca876ac47f87b4777bc3ade0b51182", "lon": -77.02898516666667, "fusion_lon": 0.0}, {"is_reserved": 0, "type": "electric_bike", "fusion_lat": 0.0, "is_disabled": 0, "rental_uris": {"ios": "https://dc.lft.to/lastmile_qr_scan", "android": "https://dc.lft.to/lastmile_qr_scan"}, "bike_id": "81a4c9e7a32c6fb8a89d2a4e011c0c9f", "lat": 38.86558333333333, "name": "81a4c9e7a32c6fb8a89d2a4e011c0c9f", "lon": -76.97473233333334, "fusion_lon": 0.0}, {"is_reserved": 0, "type": "electric_scooter", "fusion_lat": 0.0, "is_disabled": 0, "rental_uris": {"ios": "https://dc.lft.to/lastmile_qr_scan", "android": "https://dc.lft.to/lastmile_qr_scan"}, "bike_id": "0a41fbeace7b6e7c6f4e09871ddc1f32", "lat": 38.9006415, "name": "0a41fbeace7b6e7c6f4e09871ddc1f32", "lon": -77.0133295, "fusion_lon": 0.0}, {"is_reserved": 0, "type": "electric_scooter", "fusion_lat": 0.0, "is_disabled": 0, "rental_uris": {"ios": "https://dc.lft.to/lastmile_qr_scan", "android": "https://dc.lft.to/lastmile_qr_scan"}, "bike_id": "34b115cbc87c0e134cd6a75aab49915e", "lat": 38.929514166666664, "name": "34b115cbc87c0e134cd6a75aab49915e", "lon": -77.05486583333334, "fusion_lon": 0.0}, {"is_reserved": 0, "type": "electric_scooter", "fusion_lat": 0.0, "is_disabled": 0, "rental_uris": {"ios": "https://dc.lft.to/lastmile_qr_scan", "android": "https://dc.lft.to/lastmile_qr_scan"}, "bike_id": "c788f0b4fbcba8b737ecf186a6d03a2a", "lat": 38.885817333333335, "name": "c788f0b4fbcba8b737ecf186a6d03a2a", "lon": -77.01227283333333, "fusion_lon": 0.0}, {"is_reserved": 0, "type": "electric_scooter", "fusion_lat": 0.0, "is_disabled": 0, "rental_uris": {"ios": "https://dc.lft.to/lastmile_qr_scan", "android": "https://dc.lft.to/lastmile_qr_scan"}, "bike_id": "5e6463c8436d3d2447f9af8b9da154b3", "lat": 38.928679, "name": "5e6463c8436d3d2447f9af8b9da154b3", "lon": -77.0348195, "fusion_lon": 0.0}, {"is_reserved": 0, "type": "electric_scooter", "fusion_lat": 0.0, "is_disabled": 0, "rental_uris": {"ios": "https://dc.lft.to/lastmile_qr_scan", "android": "https://dc.lft.to/lastmile_qr_scan"}, "bike_id": "3c6ebc02d18533baf1f35701427e6243", "lat": 38.917345166666664, "name": "3c6ebc02d18533baf1f35701427e6243", "lon": -77.025949, "fusion_lon": 0.0}, {"is_reserved": 0, "type": "electric_scooter", "fusion_lat": 0.0, "is_disabled": 0, "rental_uris": {"ios": "https://dc.lft.to/lastmile_qr_scan", "android": "https://dc.lft.to/lastmile_qr_scan"}, "bike_id": "f9d9dedba0d9ca0c6a0e60f4a04c8674", "lat": 38.95637216666667, "name": "f9d9dedba0d9ca0c6a0e60f4a04c8674", "lon": -77.03632983333334, "fusion_lon": 0.0}, {"is_reserved": 0, "type": "electric_scooter", "fusion_lat": 0.0, "is_disabled": 0, "rental_uris": {"ios": "https://dc.lft.to/lastmile_qr_scan", "android": "https://dc.lft.to/lastmile_qr_scan"}, "bike_id": "5d6a1b42a59f58648fb82a4232810263", "lat": 38.893142166666664, "name": "5d6a1b42a59f58648fb82a4232810263", "lon": -77.01201466666667, "fusion_lon": 0.0}, {"is_reserved": 0, "type": "electric_scooter", "fusion_lat": 0.0, "is_disabled": 0, "rental_uris": {"ios": "https://dc.lft.to/lastmile_qr_scan", "android": "https://dc.lft.to/lastmile_qr_scan"}, "bike_id": "bdeac9b227534d2b39550771c16d3b28", "lat": 38.92611633333333, "name": "bdeac9b227534d2b39550771c16d3b28", "lon": -77.02163433333334, "fusion_lon": 0.0}, {"is_reserved": 0, "type": "electric_scooter", "fusion_lat": 0.0, "is_disabled": 0, "rental_uris": {"ios": "https://dc.lft.to/lastmile_qr_scan", "android": "https://dc.lft.to/lastmile_qr_scan"}, "bike_id": "439ccc5c5c5e4217a911c7461b82fb77", "lat": 38.910253166666664, "name": "439ccc5c5c5e4217a911c7461b82fb77", "lon": -77.02819033333333, "fusion_lon": 0.0}, {"is_reserved": 0, "type": "electric_scooter", "fusion_lat": 0.0, "is_disabled": 0, "rental_uris": {"ios": "https://dc.lft.to/lastmile_qr_scan", "android": "https://dc.lft.to/lastmile_qr_scan"}, "bike_id": "2cc8e065d26174e22aa6399fe9078bb8", "lat": 38.929962, "name": "2cc8e065d26174e22aa6399fe9078bb8", "lon": -77.02170266666667, "fusion_lon": 0.0}, {"is_reserved": 0, "type": "electric_bike", "fusion_lat": 0.0, "is_disabled": 0, "rental_uris": {"ios": "https://dc.lft.to/lastmile_qr_scan", "android": "https://dc.lft.to/lastmile_qr_scan"}, "bike_id": "15b9b9dee973b650a2a887f81cfd68ba", "lat": 38.9351835, "name": "15b9b9dee973b650a2a887f81cfd68ba", "lon": -76.98352416666667, "fusion_lon": 0.0}, {"is_reserved": 0, "type": "electric_scooter", "fusion_lat": 0.0, "is_disabled": 0, "rental_uris": {"ios": "https://dc.lft.to/lastmile_qr_scan", "android": "https://dc.lft.to/lastmile_qr_scan"}, "bike_id": "06e626faf4467c49115653c9372de9f3", "lat": 38.936932166666665, "name": "06e626faf4467c49115653c9372de9f3", "lon": -77.02397, "fusion_lon": 0.0}, {"is_reserved": 0, "type": "electric_scooter", "fusion_lat": 0.0, "is_disabled": 0, "rental_uris": {"ios": "https://dc.lft.to/lastmile_qr_scan", "android": "https://dc.lft.to/lastmile_qr_scan"}, "bike_id": "a52114cd3e5e6091098e6e0c3bc1e63d", "lat": 38.923563333333334, "name": "a52114cd3e5e6091098e6e0c3bc1e63d", "lon": -77.03449366666666, "fusion_lon": 0.0}, {"is_reserved": 0, "type": "electric_scooter", "fusion_lat": 0.0, "is_disabled": 0, "rental_uris": {"ios": "https://dc.lft.to/lastmile_qr_scan", "android": "https://dc.lft.to/lastmile_qr_scan"}, "bike_id": "8089f47f5acc054d5c641920b5bce4b5", "lat": 38.9371465, "name": "8089f47f5acc054d5c641920b5bce4b5", "lon": -77.03633983333333, "fusion_lon": 0.0}, {"is_reserved": 0, "type": "electric_bike", "fusion_lat": 0.0, "is_disabled": 0, "rental_uris": {"ios": "https://dc.lft.to/lastmile_qr_scan", "android": "https://dc.lft.to/lastmile_qr_scan"}, "bike_id": "1ce1265eea88d2ad3b8dbfb237e5bc25", "lat": 38.89080416666667, "name": "1ce1265eea88d2ad3b8dbfb237e5bc25", "lon": -76.95470416666667, "fusion_lon": 0.0}, {"is_reserved": 0, "type": "electric_scooter", "fusion_lat": 0.0, "is_disabled": 0, "rental_uris": {"ios": "https://dc.lft.to/lastmile_qr_scan", "android": "https://dc.lft.to/lastmile_qr_scan"}, "bike_id": "8b0aa97a6a716c1e0f2cea2ddc6c6563", "lat": 38.9035065, "name": "8b0aa97a6a716c1e0f2cea2ddc6c6563", "lon": -77.02585916666666, "fusion_lon": 0.0}, {"is_reserved": 0, "type": "electric_scooter", "fusion_lat": 0.0, "is_disabled": 0, "rental_uris": {"ios": "https://dc.lft.to/lastmile_qr_scan", "android": "https://dc.lft.to/lastmile_qr_scan"}, "bike_id": "c7581c807c23fa7b4ed3cd8d51ac9e6c", "lat": 38.9097175, "name": "c7581c807c23fa7b4ed3cd8d51ac9e6c", "lon": -77.03365583333333, "fusion_lon": 0.0}, {"is_reserved": 0, "type": "electric_scooter", "fusion_lat": 0.0, "is_disabled": 0, "rental_uris": {"ios": "https://dc.lft.to/lastmile_qr_scan", "android": "https://dc.lft.to/lastmile_qr_scan"}, "bike_id": "2bb9695031165e44c54a28b0200dd872", "lat": 38.900263333333335, "name": "2bb9695031165e44c54a28b0200dd872", "lon": -77.03471383333333, "fusion_lon": 0.0}, {"is_reserved": 0, "type": "electric_scooter", "fusion_lat": 0.0, "is_disabled": 0, "rental_uris": {"ios": "https://dc.lft.to/lastmile_qr_scan", "android": "https://dc.lft.to/lastmile_qr_scan"}, "bike_id": "afe85f4aa188451c7aabee75e1da6729", "lat": 38.913768166666664, "name": "afe85f4aa188451c7aabee75e1da6729", "lon": -77.02189416666667, "fusion_lon": 0.0}, {"is_reserved": 0, "type": "electric_bike", "fusion_lat": 0.0, "is_disabled": 0, "rental_uris": {"ios": "https://dc.lft.to/lastmile_qr_scan", "android": "https://dc.lft.to/lastmile_qr_scan"}, "bike_id": "ff221cf72ccdb82e5b845ae9c4464bad", "lat": 38.8579445, "name": "ff221cf72ccdb82e5b845ae9c4464bad", "lon": -76.98748883333333, "fusion_lon": 0.0}, {"is_reserved": 0, "type": "electric_scooter", "fusion_lat": 0.0, "is_disabled": 0, "rental_uris": {"ios": "https://dc.lft.to/lastmile_qr_scan", "android": "https://dc.lft.to/lastmile_qr_scan"}, "bike_id": "052756ce19f1d340205e13c36f1f1e4e", "lat": 38.90718733333333, "name": "052756ce19f1d340205e13c36f1f1e4e", "lon": -77.00499516666666, "fusion_lon": 0.0}, {"is_reserved": 0, "type": "electric_scooter", "fusion_lat": 0.0, "is_disabled": 0, "rental_uris": {"ios": "https://dc.lft.to/lastmile_qr_scan", "android": "https://dc.lft.to/lastmile_qr_scan"}, "bike_id": "4701f49b31fdcd065dd598ecea52689b", "lat": 38.93880216666667, "name": "4701f49b31fdcd065dd598ecea52689b", "lon": -77.02831516666667, "fusion_lon": 0.0}, {"is_reserved": 0, "type": "electric_scooter", "fusion_lat": 0.0, "is_disabled": 0, "rental_uris": {"ios": "https://dc.lft.to/lastmile_qr_scan", "android": "https://dc.lft.to/lastmile_qr_scan"}, "bike_id": "ad4c8404b03fb8dae458292c709ad0e0", "lat": 38.885014166666664, "name": "ad4c8404b03fb8dae458292c709ad0e0", "lon": -76.99754616666667, "fusion_lon": 0.0}, {"is_reserved": 0, "type": "electric_bike", "fusion_lat": 0.0, "is_disabled": 0, "rental_uris": {"ios": "https://dc.lft.to/lastmile_qr_scan", "android": "https://dc.lft.to/lastmile_qr_scan"}, "bike_id": "08760148be5ac093e6485bd21a07191d", "lat": 38.90388266666667, "name": "08760148be5ac093e6485bd21a07191d", "lon": -77.0630855, "fusion_lon": 0.0}, {"is_reserved": 0, "type": "electric_scooter", "fusion_lat": 0.0, "is_disabled": 0, "rental_uris": {"ios": "https://dc.lft.to/lastmile_qr_scan", "android": "https://dc.lft.to/lastmile_qr_scan"}, "bike_id": "039b04c2be7b7a73ada00092993f6d5e", "lat": 38.92200583333333, "name": "039b04c2be7b7a73ada00092993f6d5e", "lon": -76.997004, "fusion_lon": 0.0}, {"is_reserved": 0, "type": "electric_bike", "fusion_lat": 0.0, "is_disabled": 0, "rental_uris": {"ios": "https://dc.lft.to/lastmile_qr_scan", "android": "https://dc.lft.to/lastmile_qr_scan"}, "bike_id": "e449c8a6385323d5d19d1a59a4cdb7f5", "lat": 38.97847516666667, "name": "e449c8a6385323d5d19d1a59a4cdb7f5", "lon": -77.09098466666667, "fusion_lon": 0.0}, {"is_reserved": 0, "type": "electric_bike", "fusion_lat": 0.0, "is_disabled": 0, "rental_uris": {"ios": "https://dc.lft.to/lastmile_qr_scan", "android": "https://dc.lft.to/lastmile_qr_scan"}, "bike_id": "5db2ed2899579ca0dc90a986105db395", "lat": 39.02622483333333, "name": "5db2ed2899579ca0dc90a986105db395", "lon": -77.03882783333333, "fusion_lon": 0.0}, {"is_reserved": 0, "type": "electric_scooter", "fusion_lat": 0.0, "is_disabled": 0, "rental_uris": {"ios": "https://dc.lft.to/lastmile_qr_scan", "android": "https://dc.lft.to/lastmile_qr_scan"}, "bike_id": "484e81f2e618774e4de726f190d7a3dd", "lat": 38.8922735, "name": "484e81f2e618774e4de726f190d7a3dd", "lon": -77.02538233333334, "fusion_lon": 0.0}, {"is_reserved": 0, "type": "electric_scooter", "fusion_lat": 0.0, "is_disabled": 0, "rental_uris": {"ios": "https://dc.lft.to/lastmile_qr_scan", "android": "https://dc.lft.to/lastmile_qr_scan"}, "bike_id": "d726ed7f37550cd4eb26dd36262eb2e6", "lat": 38.901967666666664, "name": "d726ed7f37550cd4eb26dd36262eb2e6", "lon": -77.000699, "fusion_lon": 0.0}, {"is_reserved": 0, "type": "electric_scooter", "fusion_lat": 0.0, "is_disabled": 0, "rental_uris": {"ios": "https://dc.lft.to/lastmile_qr_scan", "android": "https://dc.lft.to/lastmile_qr_scan"}, "bike_id": "11afeaa23a078bf8f55cffe7b0d0c9e3", "lat": 38.88992733333333, "name": "11afeaa23a078bf8f55cffe7b0d0c9e3", "lon": -76.988394, "fusion_lon": 0.0}, {"is_reserved": 0, "type": "electric_scooter", "fusion_lat": 0.0, "is_disabled": 0, "rental_uris": {"ios": "https://dc.lft.to/lastmile_qr_scan", "android": "https://dc.lft.to/lastmile_qr_scan"}, "bike_id": "f1f93a28c0c3dbc02762759f8709a61a", "lat": 38.924934, "name": "f1f93a28c0c3dbc02762759f8709a61a", "lon": -77.0433665, "fusion_lon": 0.0}, {"is_reserved": 0, "type": "electric_scooter", "fusion_lat": 0.0, "is_disabled": 0, "rental_uris": {"ios": "https://dc.lft.to/lastmile_qr_scan", "android": "https://dc.lft.to/lastmile_qr_scan"}, "bike_id": "bae08a685cdd21255da5aaf963a4fec1", "lat": 38.90114333333333, "name": "bae08a685cdd21255da5aaf963a4fec1", "lon": -77.03185816666667, "fusion_lon": 0.0}, {"is_reserved": 0, "type": "electric_scooter", "fusion_lat": 0.0, "is_disabled": 0, "rental_uris": {"ios": "https://dc.lft.to/lastmile_qr_scan", "android": "https://dc.lft.to/lastmile_qr_scan"}, "bike_id": "7ed13cb9603fbb8355e93d68ec9d55ab", "lat": 38.881207333333336, "name": "7ed13cb9603fbb8355e93d68ec9d55ab", "lon": -77.00210933333334, "fusion_lon": 0.0}, {"is_reserved": 0, "type": "electric_scooter", "fusion_lat": 0.0, "is_disabled": 0, "rental_uris": {"ios": "https://dc.lft.to/lastmile_qr_scan", "android": "https://dc.lft.to/lastmile_qr_scan"}, "bike_id": "cf8cd696e1513baeee91ea2384f36a4b", "lat": 38.927095666666666, "name": "cf8cd696e1513baeee91ea2384f36a4b", "lon": -76.9607955, "fusion_lon": 0.0}, {"is_reserved": 0, "type": "electric_scooter", "fusion_lat": 0.0, "is_disabled": 0, "rental_uris": {"ios": "https://dc.lft.to/lastmile_qr_scan", "android": "https://dc.lft.to/lastmile_qr_scan"}, "bike_id": "72cd580c8be97c3547670002024270c0", "lat": 38.897670833333336, "name": "72cd580c8be97c3547670002024270c0", "lon": -77.05031216666667, "fusion_lon": 0.0}, {"is_reserved": 0, "type": "electric_scooter", "fusion_lat": 0.0, "is_disabled": 0, "rental_uris": {"ios": "https://dc.lft.to/lastmile_qr_scan", "android": "https://dc.lft.to/lastmile_qr_scan"}, "bike_id": "e3ba4420274429e6a328bffa0963dfdf", "lat": 38.928867, "name": "e3ba4420274429e6a328bffa0963dfdf", "lon": -77.03730266666666, "fusion_lon": 0.0}, {"is_reserved": 0, "type": "electric_scooter", "fusion_lat": 0.0, "is_disabled": 0, "rental_uris": {"ios": "https://dc.lft.to/lastmile_qr_scan", "android": "https://dc.lft.to/lastmile_qr_scan"}, "bike_id": "308f9b940853170c1e7b59446edde017", "lat": 38.9097105, "name": "308f9b940853170c1e7b59446edde017", "lon": -77.02206916666667, "fusion_lon": 0.0}, {"is_reserved": 0, "type": "electric_scooter", "fusion_lat": 0.0, "is_disabled": 0, "rental_uris": {"ios": "https://dc.lft.to/lastmile_qr_scan", "android": "https://dc.lft.to/lastmile_qr_scan"}, "bike_id": "4e90b00358026569a8b72c36fa277c97", "lat": 38.880984833333336, "name": "4e90b00358026569a8b72c36fa277c97", "lon": -77.026382, "fusion_lon": 0.0}, {"is_reserved": 0, "type": "electric_scooter", "fusion_lat": 0.0, "is_disabled": 0, "rental_uris": {"ios": "https://dc.lft.to/lastmile_qr_scan", "android": "https://dc.lft.to/lastmile_qr_scan"}, "bike_id": "5af70589dfc3ab2e2429c41d25747587", "lat": 38.923191833333334, "name": "5af70589dfc3ab2e2429c41d25747587", "lon": -77.01954266666667, "fusion_lon": 0.0}, {"is_reserved": 0, "type": "electric_scooter", "fusion_lat": 0.0, "is_disabled": 0, "rental_uris": {"ios": "https://dc.lft.to/lastmile_qr_scan", "android": "https://dc.lft.to/lastmile_qr_scan"}, "bike_id": "6bfd80c5e0a7c1c4875f15656dd8b12a", "lat": 38.9169595, "name": "6bfd80c5e0a7c1c4875f15656dd8b12a", "lon": -77.039335, "fusion_lon": 0.0}, {"is_reserved": 0, "type": "electric_scooter", "fusion_lat": 0.0, "is_disabled": 0, "rental_uris": {"ios": "https://dc.lft.to/lastmile_qr_scan", "android": "https://dc.lft.to/lastmile_qr_scan"}, "bike_id": "4ecf2958fcd47794e2c8fbe5fa71fbee", "lat": 38.923340333333336, "name": "4ecf2958fcd47794e2c8fbe5fa71fbee", "lon": -77.0450355, "fusion_lon": 0.0}, {"is_reserved": 0, "type": "electric_bike", "fusion_lat": 0.0, "is_disabled": 0, "rental_uris": {"ios": "https://dc.lft.to/lastmile_qr_scan", "android": "https://dc.lft.to/lastmile_qr_scan"}, "bike_id": "ef67d27c8e57530f80af1d2b82539bb3", "lat": 38.92031583333333, "name": "ef67d27c8e57530f80af1d2b82539bb3", "lon": -77.03082033333334, "fusion_lon": 0.0}, {"is_reserved": 0, "type": "electric_scooter", "fusion_lat": 0.0, "is_disabled": 0, "rental_uris": {"ios": "https://dc.lft.to/lastmile_qr_scan", "android": "https://dc.lft.to/lastmile_qr_scan"}, "bike_id": "3be35ea958b9ff8806447b9013c5f9cf", "lat": 38.91725316666667, "name": "3be35ea958b9ff8806447b9013c5f9cf", "lon": -77.02499983333334, "fusion_lon": 0.0}, {"is_reserved": 0, "type": "electric_scooter", "fusion_lat": 0.0, "is_disabled": 0, "rental_uris": {"ios": "https://dc.lft.to/lastmile_qr_scan", "android": "https://dc.lft.to/lastmile_qr_scan"}, "bike_id": "3647dc464113f3cd7a2b3c6b05e8ae57", "lat": 38.9210655, "name": "3647dc464113f3cd7a2b3c6b05e8ae57", "lon": -77.030489, "fusion_lon": 0.0}, {"is_reserved": 0, "type": "electric_scooter", "fusion_lat": 0.0, "is_disabled": 0, "rental_uris": {"ios": "https://dc.lft.to/lastmile_qr_scan", "android": "https://dc.lft.to/lastmile_qr_scan"}, "bike_id": "2fce8c2da52df999d94cb19e0246044d", "lat": 38.90784583333333, "name": "2fce8c2da52df999d94cb19e0246044d", "lon": -77.06911583333333, "fusion_lon": 0.0}, {"is_reserved": 0, "type": "electric_scooter", "fusion_lat": 0.0, "is_disabled": 0, "rental_uris": {"ios": "https://dc.lft.to/lastmile_qr_scan", "android": "https://dc.lft.to/lastmile_qr_scan"}, "bike_id": "0c90d4e15440a8e1077eb4a5c4ba3e75", "lat": 38.9506585, "name": "0c90d4e15440a8e1077eb4a5c4ba3e75", "lon": -77.06537716666666, "fusion_lon": 0.0},