{"data": {"bikes": [{"type": "electric_scooter", "fusion_lon": 0.0, "bike_id": "5c575141d5fdf09016a3bc60c7802f7d", "is_disabled": 0, "lat": 38.919517, "rental_uris": {"ios": "https://dc.lft.to/lastmile_qr_scan", "android": "https://dc.lft.to/lastmile_qr_scan"}, "is_reserved": 0, "lon": -77.01777783333333, "fusion_lat": 0.0, "name": "5c575141d5fdf09016a3bc60c7802f7d"}, {"type": "electric_bike", "fusion_lon": 0.0, "bike_id": "5f95dc916a790406f67c831a37d974e7", "is_disabled": 0, "lat": 38.846869166666664, "rental_uris": {"ios": "https://dc.lft.to/lastmile_qr_scan", "android": "https://dc.lft.to/lastmile_qr_scan"}, "is_reserved": 0, "lon": -76.9828605, "fusion_lat": 0.0, "name": "5f95dc916a790406f67c831a37d974e7"}, {"type": "electric_scooter", "fusion_lon": 0.0, "bike_id": "a2569928de77c849c86c87a6a0996727", "is_disabled": 0, "lat": 38.8934535, "rental_uris": {"ios": "https://dc.lft.to/lastmile_qr_scan", "android": "https://dc.lft.to/lastmile_qr_scan"}, "is_reserved": 0, "lon": -76.952271, "fusion_lat": 0.0, "name": "a2569928de77c849c86c87a6a0996727"}, {"type": "electric_scooter", "fusion_lon": 0.0, "bike_id": "b602c53cd1f114ec3a83b9ec44d0793e", "is_disabled": 0, "lat": 38.89731166666667, "rental_uris": {"ios": "https://dc.lft.to/lastmile_qr_scan", "android": "https://dc.lft.to/lastmile_qr_scan"}, "is_reserved": 0, "lon": -77.01911683333333, "fusion_lat": 0.0, "name": "b602c53cd1f114ec3a83b9ec44d0793e"}, {"type": "electric_bike", "fusion_lon": 0.0, "bike_id": "d9597d1ba3d74d4e56f84a41fe18bc37", "is_disabled": 0, "lat": 38.93571766666667, "rental_uris": {"ios": "https://dc.lft.to/lastmile_qr_scan", "android": "https://dc.lft.to/lastmile_qr_scan"}, "is_reserved": 0, "lon": -77.10611683333333, "fusion_lat": 0.0, "name": "d9597d1ba3d74d4e56f84a41fe18bc37"}, {"type": "electric_scooter", "fusion_lon": 0.0, "bike_id": "bc824736558a1080ebdaa420271918f5", "is_disabled": 0, "lat": 38.91270766666667, "rental_uris": {"ios": "https://dc.lft.to/lastmile_qr_scan", "android": "https://dc.lft.to/lastmile_qr_scan"}, "is_reserved": 0, "lon": -77.0415075, "fusion_lat": 0.0, "name": "bc824736558a1080ebdaa420271918f5"}, {"type": "electric_scooter", "fusion_lon": 0.0, "bike_id": "eca3e77625fee477f77340eba9c8d103", "is_disabled": 0, "lat": 38.90453216666667, "rental_uris": {"ios": "https://dc.lft.to/lastmile_qr_scan", "android": "https://dc.lft.to/lastmile_qr_scan"}, "is_reserved": 0, "lon": -77.0580475, "fusion_lat": 0.0, "name": "eca3e77625fee477f77340eba9c8d103"}, {"type": "electric_scooter", "fusion_lon": 0.0, "bike_id": "58b694dcd8d90ee02b752348d71e6edf", "is_disabled": 0, "lat": 38.97212916666667, "rental_uris": {"ios": "https://dc.lft.to/lastmile_qr_scan", "android": "https://dc.lft.to/lastmile_qr_scan"}, "is_reserved": 0, "lon": -77.03333983333333, "fusion_lat": 0.0, "name": "58b694dcd8d90ee02b752348d71e6edf"}, {"type": "electric_scooter", "fusion_lon": 0.0, "bike_id": "1e67bc1e996322d2183f2a6dbf6650a6", "is_disabled": 0, "lat": 38.90838766666667, "rental_uris": {"ios": "https://dc.lft.to/lastmile_qr_scan", "android": "https://dc.lft.to/lastmile_qr_scan"}, "is_reserved": 0, "lon": -77.0336885, "fusion_lat": 0.0, "name": "1e67bc1e996322d2183f2a6dbf6650a6"}, {"type": "electric_scooter", "fusion_lon": 0.0, "bike_id": "9648f38403899b470dd8d452b942d2d8", "is_disabled": 0, "lat": 38.918178833333336, "rental_uris": {"ios": "https://dc.lft.to/lastmile_qr_scan", "android": "https://dc.lft.to/lastmile_qr_scan"}, "is_reserved": 0, "lon": -77.03257, "fusion_lat": 0.0, "name": "9648f38403899b470dd8d452b942d2d8"}, {"type": "electric_scooter", "fusion_lon": 0.0, "bike_id": "600d3fd687d5bf4b908202176ea835cb", "is_disabled": 0, "lat": 38.929844333333335, "rental_uris": {"ios": "https://dc.lft.to/lastmile_qr_scan", "android": "https://dc.lft.to/lastmile_qr_scan"}, "is_reserved": 0, "lon": -77.03658, "fusion_lat": 0.0, "name": "600d3fd687d5bf4b908202176ea835cb"}, {"type": "electric_scooter", "fusion_lon": 0.0, "bike_id": "58bd2415352298ceb9ff283a8ebea284", "is_disabled": 0, "lat": 38.896108166666664, "rental_uris": {"ios": "https://dc.lft.to/lastmile_qr_scan", "android": "https://dc.lft.to/lastmile_qr_scan"}, "is_reserved": 0, "lon": -77.05437183333333, "fusion_lat": 0.0, "name": "58bd2415352298ceb9ff283a8ebea284"}, {"type": "electric_scooter", "fusion_lon": 0.0, "bike_id": "2fa694989cc2a24b1ff5131b5c88023c", "is_disabled": 0, "lat": 38.90851083333333, "rental_uris": {"ios": "https://dc.lft.to/lastmile_qr_scan", "android": "https://dc.lft.to/lastmile_qr_scan"}, "is_reserved": 0, "lon": -77.033285, "fusion_lat": 0.0, "name": "2fa694989cc2a24b1ff5131b5c88023c"}, {"type": "electric_scooter", "fusion_lon": 0.0, "bike_id": "8943c14fd0065ba18abcb7b2fe75cd65", "is_disabled": 0, "lat": 38.912546166666665, "rental_uris": {"ios": "https://dc.lft.to/lastmile_qr_scan", "android": "https://dc.lft.to/lastmile_qr_scan"}, "is_reserved": 0, "lon": -77.032057, "fusion_lat": 0.0, "name": "8943c14fd0065ba18abcb7b2fe75cd65"}, {"type": "electric_scooter", "fusion_lon": 0.0, "bike_id": "ec183a6cb87ff75fa3e7533cf174e52f", "is_disabled": 0, "lat": 38.901259333333336, "rental_uris": {"ios": "https://dc.lft.to/lastmile_qr_scan", "android": "https://dc.lft.to/lastmile_qr_scan"}, "is_reserved": 0, "lon": -77.03801066666666, "fusion_lat": 0.0, "name": "ec183a6cb87ff75fa3e7533cf174e52f"}, {"type": "electric_scooter", "fusion_lon": 0.0, "bike_id": "a78afeb1293f596a501462f7046c5ebd", "is_disabled": 0, "lat": 38.911163333333334, "rental_uris": {"ios": "https://dc.lft.to/lastmile_qr_scan", "android": "https://dc.lft.to/lastmile_qr_scan"}, "is_reserved": 0, "lon": -77.00602733333334, "fusion_lat": 0.0, "name": "a78afeb1293f596a501462f7046c5ebd"}, {"type": "electric_scooter", "fusion_lon": 0.0, "bike_id": "806f4651243cbcbdc8422677a800aae0", "is_disabled": 0, "lat": 38.93054083333333, "rental_uris": {"ios": "https://dc.lft.to/lastmile_qr_scan", "android": "https://dc.lft.to/lastmile_qr_scan"}, "is_reserved": 0, "lon": -77.05839633333333, "fusion_lat": 0.0, "name": "806f4651243cbcbdc8422677a800aae0"}, {"type": "electric_scooter", "fusion_lon": 0.0, "bike_id": "e655fd87e9d53c90e5af8baa5dd1af8c", "is_disabled": 0, "lat": 38.9352455, "rental_uris": {"ios": "https://dc.lft.to/lastmile_qr_scan", "android": "https://dc.lft.to/lastmile_qr_scan"}, "is_reserved": 0, "lon": -77.032635, "fusion_lat": 0.0, "name": "e655fd87e9d53c90e5af8baa5dd1af8c"}, {"type": "electric_scooter", "fusion_lon": 0.0, "bike_id": "772a251a8b0b6f8947ef43bb1ab5c816", "is_disabled": 0, "lat": 38.93560083333333, "rental_uris": {"ios": "https://dc.lft.to/lastmile_qr_scan", "android": "https://dc.lft.to/lastmile_qr_scan"}, "is_reserved": 0, "lon": -77.0637275, "fusion_lat": 0.0, "name": "772a251a8b0b6f8947ef43bb1ab5c816"}, {"type": "electric_bike", "fusion_lon": 0.0, "bike_id": "e8b06757166e456561d679a059ae3e5b", "is_disabled": 0, "lat": 38.919652, "rental_uris": {"ios": "https://dc.lft.to/lastmile_qr_scan", "android": "https://dc.lft.to/lastmile_qr_scan"}, "is_reserved": 0, "lon": -76.97127766666667, "fusion_lat": 0.0, "name": "e8b06757166e456561d679a059ae3e5b"}, {"type": "electric_scooter", "fusion_lon": 0.0, "bike_id": "c1cb5dbf4e0728ba740679aef3ddb998", "is_disabled": 0, "lat": 38.90041816666667, "rental_uris": {"ios": "https://dc.lft.to/lastmile_qr_scan", "android": "https://dc.lft.to/lastmile_qr_scan"}, "is_reserved": 0, "lon": -77.01183366666666, "fusion_lat": 0.0, "name": "c1cb5dbf4e0728ba740679aef3ddb998"}, {"type": "electric_scooter", "fusion_lon": 0.0, "bike_id": "2ba5ed4ea8c8636c1643735071af236a", "is_disabled": 0, "lat": 38.901425333333336, "rental_uris": {"ios": "https://dc.lft.to/lastmile_qr_scan", "android": "https://dc.lft.to/lastmile_qr_scan"}, "is_reserved": 0, "lon": -77.0397105, "fusion_lat": 0.0, "name": "2ba5ed4ea8c8636c1643735071af236a"}, {"type": "electric_scooter", "fusion_lon": 0.0, "bike_id": "f5cae1fb4627ae9149bf0d42b51082f6", "is_disabled": 0, "lat": 38.907189333333335, "rental_uris": {"ios": "https://dc.lft.to/lastmile_qr_scan", "android": "https://dc.lft.to/lastmile_qr_scan"}, "is_reserved": 0, "lon": -77.04201133333333, "fusion_lat": 0.0, "name": "f5cae1fb4627ae9149bf0d42b51082f6"}, {"type": "electric_scooter", "fusion_lon": 0.0, "bike_id": "7fef29a2eebfc2caac5997bd3d30d80c", "is_disabled": 0, "lat": 38.88302733333333, "rental_uris": {"ios": "https://dc.lft.to/lastmile_qr_scan", "android": "https://dc.lft.to/lastmile_qr_scan"}, "is_reserved": 0, "lon": -76.94853683333334, "fusion_lat": 0.0, "name": "7fef29a2eebfc2caac5997bd3d30d80c"}, {"type": "electric_scooter", "fusion_lon": 0.0, "bike_id": "475fd685d10f0099c2ee79f3e650b9d6", "is_disabled": 0, "lat": 38.9142155, "rental_uris": {"ios": "https://dc.lft.to/lastmile_qr_scan", "android": "https://dc.lft.to/lastmile_qr_scan"}, "is_reserved": 0, "lon": -77.04147716666667, "fusion_lat": 0.0, "name": "475fd685d10f0099c2ee79f3e650b9d6"}, {"type": "electric_scooter", "fusion_lon": 0.0, "bike_id": "9a504770a857667ed2addfa2aea41dd6", "is_disabled": 0, "lat": 38.90180516666667, "rental_uris": {"ios": "https://dc.lft.to/lastmile_qr_scan", "android": "https://dc.lft.to/lastmile_qr_scan"}, "is_reserved": 0, "lon": -76.9282385, "fusion_lat": 0.0, "name": "9a504770a857667ed2addfa2aea41dd6"}, {"type": "electric_scooter", "fusion_lon": 0.0, "bike_id": "0eb6e79a72d2899cd3ba03ce5654f7ab", "is_disabled": 0, "lat": 38.950211, "rental_uris": {"ios": "https://dc.lft.to/lastmile_qr_scan", "android": "https://dc.lft.to/lastmile_qr_scan"}, "is_reserved": 0, "lon": -77.06726266666666, "fusion_lat": 0.0, "name": "0eb6e79a72d2899cd3ba03ce5654f7ab"}, {"type": "electric_bike", "fusion_lon": 0.0, "bike_id": "fa4f06d253b023dc73790ac375c2fc9a", "is_disabled": 0, "lat": 38.8190825, "rental_uris": {"ios": "https://dc.lft.to/lastmile_qr_scan", "android": "https://dc.lft.to/lastmile_qr_scan"}, "is_reserved": 0, "lon": -77.12647483333333, "fusion_lat": 0.0, "name": "fa4f06d253b023dc73790ac375c2fc9a"}, {"type": "electric_scooter", "fusion_lon": 0.0, "bike_id": "d22c6763647702245eb8876bf62c1c29", "is_disabled": 0, "lat": 38.8974945, "rental_uris": {"ios": "https://dc.lft.to/lastmile_qr_scan", "android": "https://dc.lft.to/lastmile_qr_scan"}, "is_reserved": 0, "lon": -77.00346, "fusion_lat": 0.0, "name": "d22c6763647702245eb8876bf62c1c29"}, {"type": "electric_scooter", "fusion_lon": 0.0, "bike_id": "3df6aeafc71c035a6805321202b465c1", "is_disabled": 0, "lat": 38.9181985, "rental_uris": {"ios": "https://dc.lft.to/lastmile_qr_scan", "android": "https://dc.lft.to/lastmile_qr_scan"}, "is_reserved": 0, "lon": -77.03129166666666, "fusion_lat": 0.0, "name": "3df6aeafc71c035a6805321202b465c1"}, {"type": "electric_scooter", "fusion_lon": 0.0, "bike_id": "2a7c79e6cd218a67621635334d50a498", "is_disabled": 0, "lat": 38.9194955, "rental_uris": {"ios": "https://dc.lft.to/lastmile_qr_scan", "android": "https://dc.lft.to/lastmile_qr_scan"}, "is_reserved": 0, "lon": -77.01780383333333, "fusion_lat": 0.0, "name": "2a7c79e6cd218a67621635334d50a498"}, {"type": "electric_scooter", "fusion_lon": 0.0, "bike_id": "feb0d692eb54797ffbd26aa271074763", "is_disabled": 0, "lat": 38.8787125, "rental_uris": {"ios": "https://dc.lft.to/lastmile_qr_scan", "android": "https://dc.lft.to/lastmile_qr_scan"}, "is_reserved": 0, "lon": -76.96259583333334, "fusion_lat": 0.0, "name": "feb0d692eb54797ffbd26aa271074763"}, {"type": "electric_scooter", "fusion_lon": 0.0, "bike_id": "b34273619a7e224a2519a7ae6140905c", "is_disabled": 0, "lat": 38.89220483333333, "rental_uris": {"ios": "https://dc.lft.to/lastmile_qr_scan", "android": "https://dc.lft.to/lastmile_qr_scan"}, "is_reserved": 0, "lon": -77.03219466666667, "fusion_lat": 0.0, "name": "b34273619a7e224a2519a7ae6140905c"}, {"type": "electric_scooter", "fusion_lon": 0.0, "bike_id": "370430f16ff1cc379f5abb391c29c911", "is_disabled": 0, "lat": 38.90577366666667, "rental_uris": {"ios": "https://dc.lft.to/lastmile_qr_scan", "android": "https://dc.lft.to/lastmile_qr_scan"}, "is_reserved": 0, "lon": -77.043498, "fusion_lat": 0.0, "name": "370430f16ff1cc379f5abb391c29c911"}, {"type": "electric_scooter", "fusion_lon": 0.0, "bike_id": "f96ce1c346a9b99317901d5d1539e620", "is_disabled": 0, "lat": 38.89478733333333, "rental_uris": {"ios": "https://dc.lft.to/lastmile_qr_scan", "android": "https://dc.lft.to/lastmile_qr_scan"}, "is_reserved": 0, "lon": -77.0217385, "fusion_lat": 0.0, "name": "f96ce1c346a9b99317901d5d1539e620"}, {"type": "electric_scooter", "fusion_lon": 0.0, "bike_id": "a7e1ff196621da1cb7eaf97d2f919310", "is_disabled": 0, "lat": 38.912235833333334, "rental_uris": {"ios": "https://dc.lft.to/lastmile_qr_scan", "android": "https://dc.lft.to/lastmile_qr_scan"}, "is_reserved": 0, "lon": -77.0435375, "fusion_lat": 0.0, "name": "a7e1ff196621da1cb7eaf97d2f919310"}, {"type": "electric_scooter", "fusion_lon": 0.0, "bike_id": "0c82e14db212ff594230f4aaf7067b44", "is_disabled": 0, "lat": 38.91206283333333, "rental_uris": {"ios": "https://dc.lft.to/lastmile_qr_scan", "android": "https://dc.lft.to/lastmile_qr_scan"}, "is_reserved": 0, "lon": -77.05710783333333, "fusion_lat": 0.0, "name": "0c82e14db212ff594230f4aaf7067b44"}, {"type": "electric_scooter", "fusion_lon": 0.0, "bike_id": "b25fff1ca78ffdc232c64133a453477d", "is_disabled": 0, "lat": 38.9012865, "rental_uris": {"ios": "https://dc.lft.to/lastmile_qr_scan", "android": "https://dc.lft.to/lastmile_qr_scan"}, "is_reserved": 0, "lon": -77.0435525, "fusion_lat": 0.0, "name": "b25fff1ca78ffdc232c64133a453477d"}, {"type": "electric_scooter", "fusion_lon": 0.0, "bike_id": "eb44c2ece46f1d0f912a09bbe93fd80b", "is_disabled": 0, "lat": 38.90194316666667, "rental_uris": {"ios": "https://dc.lft.to/lastmile_qr_scan", "android": "https://dc.lft.to/lastmile_qr_scan"}, "is_reserved": 0, "lon": -77.021818, "fusion_lat": 0.0, "name": "eb44c2ece46f1d0f912a09bbe93fd80b"}, {"type": "electric_scooter", "fusion_lon": 0.0, "bike_id": "63769eeb8e7f173ad8bf54210d23584c", "is_disabled": 0, "lat": 38.89414883333333, "rental_uris": {"ios": "https://dc.lft.to/lastmile_qr_scan", "android": "https://dc.lft.to/lastmile_qr_scan"}, "is_reserved": 0, "lon": -77.0220025, "fusion_lat": 0.0, "name": "63769eeb8e7f173ad8bf54210d23584c"}, {"type": "electric_scooter", "fusion_lon": 0.0, "bike_id": "41e7cc8b9aaee551a7809d8221e35767", "is_disabled": 0, "lat": 38.83778016666667, "rental_uris": {"ios": "https://dc.lft.to/lastmile_qr_scan", "android": "https://dc.lft.to/lastmile_qr_scan"}, "is_reserved": 0, "lon": -76.99835016666667, "fusion_lat": 0.0, "name": "41e7cc8b9aaee551a7809d8221e35767"}, {"type": "electric_scooter", "fusion_lon": 0.0, "bike_id": "52f8a49983237c7980a6770a3ba81ec9", "is_disabled": 0, "lat": 38.904134166666665, "rental_uris": {"ios": "https://dc.lft.to/lastmile_qr_scan", "android": "https://dc.lft.to/lastmile_qr_scan"}, "is_reserved": 0, "lon": -76.97331616666666, "fusion_lat": 0.0, "name": "52f8a49983237c7980a6770a3ba81ec9"}, {"type": "electric_scooter", "fusion_lon": 0.0, "bike_id": "692db2dc4e06abd744794c186e3bf37d", "is_disabled": 0, "lat": 38.90249683333333, "rental_uris": {"ios": "https://dc.lft.to/lastmile_qr_scan", "android": "https://dc.lft.to/lastmile_qr_scan"}, "is_reserved": 0, "lon": -77.03413483333334, "fusion_lat": 0.0, "name": "692db2dc4e06abd744794c186e3bf37d"}, {"type": "electric_scooter", "fusion_lon": 0.0, "bike_id": "6cc62a480d3255cfed67e5e7b1690bd7", "is_disabled": 0, "lat": 38.926294166666665, "rental_uris": {"ios": "https://dc.lft.to/lastmile_qr_scan", "android": "https://dc.lft.to/lastmile_qr_scan"}, "is_reserved": 0, "lon": -77.04188166666667, "fusion_lat": 0.0, "name": "6cc62a480d3255cfed67e5e7b1690bd7"}, {"type": "electric_scooter", "fusion_lon": 0.0, "bike_id": "39ba5a0f634e30bef4a90693b55b0f89", "is_disabled": 0, "lat": 38.899876, "rental_uris": {"ios": "https://dc.lft.to/lastmile_qr_scan", "android": "https://dc.lft.to/lastmile_qr_scan"}, "is_reserved": 0, "lon": -76.994888, "fusion_lat": 0.0, "name": "39ba5a0f634e30bef4a90693b55b0f89"}, {"type": "electric_scooter", "fusion_lon": 0.0, "bike_id": "28402bd38db24c1ea7f8721ef6e54c9f", "is_disabled": 0, "lat": 38.923179166666664, "rental_uris": {"ios": "https://dc.lft.to/lastmile_qr_scan", "android": "https://dc.lft.to/lastmile_qr_scan"}, "is_reserved": 0, "lon": -77.03911733333334, "fusion_lat": 0.0, "name": "28402bd38db24c1ea7f8721ef6e54c9f"}, {"type": "electric_scooter", "fusion_lon": 0.0, "bike_id": "3fb911c2c03493c426fba066e78e07a8", "is_disabled": 0, "lat": 38.905901166666666, "rental_uris": {"ios": "https://dc.lft.to/lastmile_qr_scan", "android": "https://dc.lft.to/lastmile_qr_scan"}, "is_reserved": 0, "lon": -77.01609066666667, "fusion_lat": 0.0, "name": "3fb911c2c03493c426fba066e78e07a8"}, {"type": "electric_scooter", "fusion_lon": 0.0, "bike_id": "66a9e4ff8290dc6efddd6a52c5c1c950", "is_disabled": 0, "lat": 38.89222266666667, "rental_uris": {"ios": "https://dc.lft.to/lastmile_qr_scan", "android": "https://dc.lft.to/lastmile_qr_scan"}, "is_reserved": 0, "lon": -77.0436445, "fusion_lat": 0.0, "name": "66a9e4ff8290dc6efddd6a52c5c1c950"}, {"type": "electric_scooter", "fusion_lon": 0.0, "bike_id": "fbcdbda0d11cd81d2cc6caf28eb1accc", "is_disabled": 0, "lat": 38.958398, "rental_uris": {"ios": "https://dc.lft.to/lastmile_qr_scan", "android": "https://dc.lft.to/lastmile_qr_scan"}, "is_reserved": 0, "lon": -77.08471083333333, "fusion_lat": 0.0, "name": "fbcdbda0d11cd81d2cc6caf28eb1accc"}, {"type": "electric_scooter", "fusion_lon": 0.0, "bike_id": "b9a93bc7a8e4c632388546ee08af7101", "is_disabled": 0, "lat": 38.936971666666665, "rental_uris": {"ios": "https://dc.lft.to/lastmile_qr_scan", "android": "https://dc.lft.to/lastmile_qr_scan"}, "is_reserved": 0, "lon": -77.0600365, "fusion_lat": 0.0, "name": "b9a93bc7a8e4c632388546ee08af7101"}, {"type": "electric_scooter", "fusion_lon": 0.0, "bike_id": "08beedeca7db4a1a459ef5ada14e56c9", "is_disabled": 0, "lat": 38.916317666666664, "rental_uris": {"ios": "https://dc.lft.to/lastmile_qr_scan", "android": "https://dc.lft.to/lastmile_qr_scan"}, "is_reserved": 0, "lon": -77.046091, "fusion_lat": 0.0, "name": "08beedeca7db4a1a459ef5ada14e56c9"}, {"type": "electric_bike", "fusion_lon": 0.0, "bike_id": "d24bee718d492d58ae1acdba2f6d9ae4", "is_disabled": 0, "lat": 38.819145666666664, "rental_uris": {"ios": "https://dc.lft.to/lastmile_qr_scan", "android": "https://dc.lft.to/lastmile_qr_scan"}, "is_reserved": 0, "lon": -77.12650983333333, "fusion_lat": 0.0, "name": "d24bee718d492d58ae1acdba2f6d9ae4"}, {"type": "electric_scooter", "fusion_lon": 0.0, "bike_id": "050e2391d40bd104cb7ca195bcf0fbd1", "is_disabled": 0, "lat": 38.90107183333333, "rental_uris": {"ios": "https://dc.lft.to/lastmile_qr_scan", "android": "https://dc.lft.to/lastmile_qr_scan"}, "is_reserved": 0, "lon": -77.02467583333333, "fusion_lat": 0.0, "name": "050e2391d40bd104cb7ca195bcf0fbd1"}, {"type": "electric_scooter", "fusion_lon": 0.0, "bike_id": "ecea27937bcd0aa7ed4d53e996626df4", "is_disabled": 0, "lat": 38.88710666666667, "rental_uris": {"ios": "https://dc.lft.to/lastmile_qr_scan", "android": "https://dc.lft.to/lastmile_qr_scan"}, "is_reserved": 0, "lon": -77.02830933333334, "fusion_lat": 0.0, "name": "ecea27937bcd0aa7ed4d53e996626df4"}, {"type": "electric_scooter", "fusion_lon": 0.0, "bike_id": "a9592942952549049a73a861b1772698", "is_disabled": 0, "lat": 38.926171833333335, "rental_uris": {"ios": "https://dc.lft.to/lastmile_qr_scan", "android": "https://dc.lft.to/lastmile_qr_scan"}, "is_reserved": 0, "lon": -77.0215815, "fusion_lat": 0.0, "name": "a9592942952549049a73a861b1772698"}, {"type": "electric_scooter", "fusion_lon": 0.0, "bike_id": "8021f7d1930f805593f78a10f6dcd636", "is_disabled": 0, "lat": 38.854629, "rental_uris": {"ios": "https://dc.lft.to/lastmile_qr_scan", "android": "https://dc.lft.to/lastmile_qr_scan"}, "is_reserved": 0, "lon": -76.97227916666667, "fusion_lat": 0.0, "name": "8021f7d1930f805593f78a10f6dcd636"}, {"type": "electric_scooter", "fusion_lon": 0.0, "bike_id": "4f40a3a1cbf729336df4d0ac8f5b075c", "is_disabled": 0, "lat": 38.927904833333336, "rental_uris": {"ios": "https://dc.lft.to/lastmile_qr_scan", "android": "https://dc.lft.to/lastmile_qr_scan"}, "is_reserved": 0, "lon": -77.03139716666666, "fusion_lat": 0.0, "name": "4f40a3a1cbf729336df4d0ac8f5b075c"}, {"type": "electric_scooter", "fusion_lon": 0.0, "bike_id": "180de9e68920ff9fbd2af1a81e1f1eb8", "is_disabled": 0, "lat": 38.899152666666666, "rental_uris": {"ios": "https://dc.lft.to/lastmile_qr_scan", "android": "https://dc.lft.to/lastmile_qr_scan"}, "is_reserved": 0, "lon": -76.93380733333333, "fusion_lat": 0.0, "name": "180de9e68920ff9fbd2af1a81e1f1eb8"}, {"type": "electric_scooter", "fusion_lon": 0.0, "bike_id": "6360622ffaddf1100873746a9c9aec84", "is_disabled": 0, "lat": 38.91983616666667, "rental_uris": {"ios": "https://dc.lft.to/lastmile_qr_scan", "android": "https://dc.lft.to/lastmile_qr_scan"}, "is_reserved": 0, "lon": -77.02167633333333, "fusion_lat": 0.0, "name": "6360622ffaddf1100873746a9c9aec84"}, {"type": "electric_scooter", "fusion_lon": 0.0, "bike_id": "15fa51a7326793ed0f3f73b99b5b21c7", "is_disabled": 0, "lat": 38.944531, "rental_uris": {"ios": "https://dc.lft.to/lastmile_qr_scan", "android": "https://dc.lft.to/lastmile_qr_scan"}, "is_reserved": 0, "lon": -77.02799583333334, "fusion_lat": 0.0, "name": "15fa51a7326793ed0f3f73b99b5b21c7"}, {"type": "electric_scooter", "fusion_lon": 0.0, "bike_id": "7575e588dee2d868c5fcbc3a6f39dda9", "is_disabled": 0, "lat": 38.920603166666666, "rental_uris": {"ios": "https://dc.lft.to/lastmile_qr_scan", "android": "https://dc.lft.to/lastmile_qr_scan"}, "is_reserved": 0, "lon": -77.03803516666666, "fusion_lat": 0.0, "name": "7575e588dee2d868c5fcbc3a6f39dda9"}, {"type": "electric_scooter", "fusion_lon": 0.0, "bike_id": "3ff90d0d91295aaaf593d417b09ba99b", "is_disabled": 0, "lat": 38.8772815, "rental_uris": {"ios": "https://dc.lft.to/lastmile_qr_scan", "android": "https://dc.lft.to/lastmile_qr_scan"}, "is_reserved": 0, "lon": -77.017554, "fusion_lat": 0.0, "name": "3ff90d0d91295aaaf593d417b09ba99b"}, {"type": "electric_scooter", "fusion_lon": 0.0, "bike_id": "faef9d9680eb05295a22f7e9130982ea", "is_disabled": 0, "lat": 38.903783, "rental_uris": {"ios": "https://dc.lft.to/lastmile_qr_scan", "android": "https://dc.lft.to/lastmile_qr_scan"}, "is_reserved": 0, "lon": -77.06682116666667, "fusion_lat": 0.0, "name": "faef9d9680eb05295a22f7e9130982ea"}, {"type": "electric_scooter", "fusion_lon": 0.0, "bike_id": "cc67b567267283306cb2176a8e85b9be", "is_disabled": 0, "lat": 38.92117666666667, "rental_uris": {"ios": "https://dc.lft.to/lastmile_qr_scan", "android": "https://dc.lft.to/lastmile_qr_scan"}, "is_reserved": 0, "lon": -77.01767933333333, "fusion_lat": 0.0, "name": "cc67b567267283306cb2176a8e85b9be"}, {"type": "electric_scooter", "fusion_lon": 0.0, "bike_id": "7daa8deb52013759ce4c550ba5e32fbe", "is_disabled": 0, "lat": 38.92720516666667, "rental_uris": {"ios": "https://dc.lft.to/lastmile_qr_scan", "android": "https://dc.lft.to/lastmile_qr_scan"}, "is_reserved": 0, "lon": -77.0208625, "fusion_lat": 0.0, "name": "7daa8deb52013759ce4c550ba5e32fbe"}, {"type": "electric_scooter", "fusion_lon": 0.0, "bike_id": "63d91203fa86b50a3b442480c01d5491", "is_disabled": 0, "lat": 38.910540166666664, "rental_uris": {"ios": "https://dc.lft.to/lastmile_qr_scan", "android": "https://dc.lft.to/lastmile_qr_scan"}, "is_reserved": 0, "lon": -77.0434855, "fusion_lat": 0.0, "name": "63d91203fa86b50a3b442480c01d5491"}, {"type": "electric_scooter", "fusion_lon": 0.0, "bike_id": "d38d962722164cbaf2f9184c4c889585", "is_disabled": 0, "lat": 38.9247355, "rental_uris": {"ios": "https://dc.lft.to/lastmile_qr_scan", "android": "https://dc.lft.to/lastmile_qr_scan"}, "is_reserved": 0, "lon": -77.030616, "fusion_lat": 0.0, "name": "d38d962722164cbaf2f9184c4c889585"}, {"type": "electric_scooter", "fusion_lon": 0.0, "bike_id": "0188db4b0da900c7c3451ae921475946", "is_disabled": 0, "lat": 38.89509866666667, "rental_uris": {"ios": "https://dc.lft.to/lastmile_qr_scan", "android": "https://dc.lft.to/lastmile_qr_scan"}, "is_reserved": 0, "lon": -77.02818166666667, "fusion_lat": 0.0, "name": "0188db4b0da900c7c3451ae921475946"}, {"type": "electric_scooter", "fusion_lon": 0.0, "bike_id": "26b472b8f92a6c78406db6b84341d60f", "is_disabled": 0, "lat": 38.9001155, "rental_uris": {"ios": "https://dc.lft.to/lastmile_qr_scan", "android": "https://dc.lft.to/lastmile_qr_scan"}, "is_reserved": 0, "lon": -76.98893283333334, "fusion_lat": 0.0, "name": "26b472b8f92a6c78406db6b84341d60f"}, {"type": "electric_scooter", "fusion_lon": 0.0, "bike_id": "96283f5d52d3b5a67d4427c254bee8a3", "is_disabled": 0, "lat": 38.862665166666666, "rental_uris": {"ios": "https://dc.lft.to/lastmile_qr_scan", "android": "https://dc.lft.to/lastmile_qr_scan"}, "is_reserved": 0, "lon": -76.995712, "fusion_lat": 0.0, "name": "96283f5d52d3b5a67d4427c254bee8a3"}, {"type": "electric_scooter", "fusion_lon": 0.0, "bike_id": "4c744836fb4f767408562e365d74f584", "is_disabled": 0, "lat": 38.876699333333335, "rental_uris": {"ios": "https://dc.lft.to/lastmile_qr_scan", "android": "https://dc.lft.to/lastmile_qr_scan"}, "is_reserved": 0, "lon": -77.00289883333333, "fusion_lat": 0.0, "name": "4c744836fb4f767408562e365d74f584"}, {"type": "electric_scooter", "fusion_lon": 0.0, "bike_id": "31c9d7d71d3db7a7fb603349d5de865b", "is_disabled": 0, "lat": 38.90310066666667, "rental_uris": {"ios": "https://dc.lft.to/lastmile_qr_scan", "android": "https://dc.lft.to/lastmile_qr_scan"}, "is_reserved": 0, "lon": -77.0516855, "fusion_lat": 0.0, "name": "31c9d7d71d3db7a7fb603349d5de865b"}, {"type": "electric_scooter", "fusion_lon": 0.0, "bike_id": "43206ca78813b53835bcc2f1fa8b64e6", "is_disabled": 0, "lat": 38.914225333333334, "rental_uris": {"ios": "https://dc.lft.to/lastmile_qr_scan", "android": "https://dc.lft.to/lastmile_qr_scan"}, "is_reserved": 0, "lon": -77.0414845, "fusion_lat": 0.0, "name": "43206ca78813b53835bcc2f1fa8b64e6"}, {"type": "electric_bike", "fusion_lon": 0.0, "bike_id": "6a72e6dc9568c681d84cb39311fa39f4", "is_disabled": 0, "lat": 38.895635666666664, "rental_uris": {"ios": "https://dc.lft.to/lastmile_qr_scan", "android": "https://dc.lft.to/lastmile_qr_scan"}, "is_reserved": 0, "lon": -77.12734016666667, "fusion_lat": 0.0, "name": "6a72e6dc9568c681d84cb39311fa39f4"}, {"type": "electric_scooter", "fusion_lon": 0.0, "bike_id": "b044fc70c2189c35864615d65b6a1264", "is_disabled": 0, "lat": 38.86503716666667, "rental_uris": {"ios": "https://dc.lft.to/lastmile_qr_scan", "android": "https://dc.lft.to/lastmile_qr_scan"}, "is_reserved": 0, "lon": -76.98983066666666, "fusion_lat": 0.0, "name": "b044fc70c2189c35864615d65b6a1264"}, {"type": "electric_scooter", "fusion_lon": 0.0, "bike_id": "78307d91858c33506da4b7e6945a823a", "is_disabled": 0, "lat": 38.887406, "rental_uris": {"ios": "https://dc.lft.to/lastmile_qr_scan", "android": "https://dc.lft.to/lastmile_qr_scan"}, "is_reserved": 0, "lon": -77.01528983333333, "fusion_lat": 0.0, "name": "78307d91858c33506da4b7e6945a823a"}, {"type": "electric_scooter", "fusion_lon": 0.0, "bike_id": "cf9a0ead7583b74a26ae27a2efbe5cf6", "is_disabled": 0, "lat": 38.92740933333333, "rental_uris": {"ios": "https://dc.lft.to/lastmile_qr_scan", "android": "https://dc.lft.to/lastmile_qr_scan"}, "is_reserved": 0, "lon": -76.95556633333334, "fusion_lat": 0.0, "name": "cf9a0ead7583b74a26ae27a2efbe5cf6"}, {"type": "electric_scooter", "fusion_lon": 0.0, "bike_id": "c6982fad9630a9c2e0b946ed113e60e1", "is_disabled": 0, "lat": 38.917164666666665, "rental_uris": {"ios": "https://dc.lft.to/lastmile_qr_scan", "android": "https://dc.lft.to/lastmile_qr_scan"}, "is_reserved": 0, "lon": -77.03857266666667, "fusion_lat": 0.0, "name": "c6982fad9630a9c2e0b946ed113e60e1"}, {"type": "electric_scooter", "fusion_lon": 0.0, "bike_id": "91c27dab7c08cb5902df0cfad1c3f9ad", "is_disabled": 0, "lat": 38.876717, "rental_uris": {"ios": "https://dc.lft.to/lastmile_qr_scan", "android": "https://dc.lft.to/lastmile_qr_scan"}, "is_reserved": 0, "lon": -77.00277666666666, "fusion_lat": 0.0, "name": "91c27dab7c08cb5902df0cfad1c3f9ad"}, {"type": "electric_scooter", "fusion_lon": 0.0, "bike_id": "e23c047aa5069ede1fb1a4c3e4152bf3", "is_disabled": 0, "lat": 38.94890433333333, "rental_uris": {"ios": "https://dc.lft.to/lastmile_qr_scan", "android": "https://dc.lft.to/lastmile_qr_scan"}, "is_reserved": 0, "lon": -77.01852166666667, "fusion_lat": 0.0, "name": "e23c047aa5069ede1fb1a4c3e4152bf3"}, {"type": "electric_scooter", "fusion_lon": 0.0, "bike_id": "1a1e8b60e34849d91985844d8212d8f9", "is_disabled": 0, "lat": 38.867001333333334, "rental_uris": {"ios": "https://dc.lft.to/lastmile_qr_scan", "android": "https://dc.lft.to/lastmile_qr_scan"}, "is_reserved": 0, "lon": -76.980898, "fusion_lat": 0.0, "name": "1a1e8b60e34849d91985844d8212d8f9"}, {"type": "electric_scooter", "fusion_lon": 0.0, "bike_id": "9c0aae277d026b4c0684906c1e1ec529", "is_disabled": 0, "lat": 38.8984325, "rental_uris": {"ios": "https://dc.lft.to/lastmile_qr_scan", "android": "https://dc.lft.to/lastmile_qr_scan"}, "is_reserved": 0, "lon": -77.02886966666667, "fusion_lat": 0.0, "name": "9c0aae277d026b4c0684906c1e1ec529"}, {"type": "electric_scooter", "fusion_lon": 0.0, "bike_id": "502ce8df5837043fb2e244e944ebe4ab", "is_disabled": 0, "lat": 38.9004435, "rental_uris": {"ios": "https://dc.lft.to/lastmile_qr_scan", "android": "https://dc.lft.to/lastmile_qr_scan"}, "is_reserved": 0, "lon": -77.04337116666666, "fusion_lat": 0.0, "name": "502ce8df5837043fb2e244e944ebe4ab"}, {"type": "electric_scooter", "fusion_lon": 0.0, "bike_id": "3023c88a8eeea07fdcaca7a40a887f1e", "is_disabled": 0, "lat": 38.92133783333333, "rental_uris": {"ios": "https://dc.lft.to/lastmile_qr_scan", "android": "https://dc.lft.to/lastmile_qr_scan"}, "is_reserved": 0, "lon": -77.04210333333333, "fusion_lat": 0.0, "name": "3023c88a8eeea07fdcaca7a40a887f1e"}, {"type": "electric_scooter", "fusion_lon": 0.0, "bike_id": "ed20e0102cad5b67e03b2e58977663e6", "is_disabled": 0, "lat": 38.8628985, "rental_uris": {"ios": "https://dc.lft.to/lastmile_qr_scan", "android": "https://dc.lft.to/lastmile_qr_scan"}, "is_reserved": 0, "lon": -76.99228716666667, "fusion_lat": 0.0, "name": "ed20e0102cad5b67e03b2e58977663e6"}, {"type": "electric_scooter", "fusion_lon": 0.0, "bike_id": "ada96894e46c0280e990c721f88cb99e", "is_disabled": 0, "lat": 38.892322166666666, "rental_uris": {"ios": "https://dc.lft.to/lastmile_qr_scan", "android": "https://dc.lft.to/lastmile_qr_scan"}, "is_reserved": 0, "lon": -77.02416883333333, "fusion_lat": 0.0, "name": "ada96894e46c0280e990c721f88cb99e"}, {"type": "electric_scooter", "fusion_lon": 0.0, "bike_id": "eebeba8582bb3b7d640333e31bcae8d9", "is_disabled": 0, "lat": 38.902333166666665, "rental_uris": {"ios": "https://dc.lft.to/lastmile_qr_scan", "android": "https://dc.lft.to/lastmile_qr_scan"}, "is_reserved": 0, "lon": -77.02655433333334, "fusion_lat": 0.0, "name": "eebeba8582bb3b7d640333e31bcae8d9"}, {"type": "electric_scooter", "fusion_lon": 0.0, "bike_id": "39ab435043161fe13c0485a585d44a42", "is_disabled": 0, "lat": 38.909645, "rental_uris": {"ios": "https://dc.lft.to/lastmile_qr_scan", "android": "https://dc.lft.to/lastmile_qr_scan"}, "is_reserved": 0, "lon": -77.0349675, "fusion_lat": 0.0, "name": "39ab435043161fe13c0485a585d44a42"}, {"type": "electric_scooter", "fusion_lon": 0.0, "bike_id": "712b01e8df3b77404ec275444c15035f", "is_disabled": 0, "lat": 38.919553, "rental_uris": {"ios": "https://dc.lft.to/lastmile_qr_scan", "android": "https://dc.lft.to/lastmile_qr_scan"}, "is_reserved": 0, "lon": -77.02590633333334, "fusion_lat": 0.0, "name": "712b01e8df3b77404ec275444c15035f"}, {"type": "electric_scooter", "fusion_lon": 0.0, "bike_id": "acfcfb7e5f1adfbcbcdfd21922e42d34", "is_disabled": 0, "lat": 38.908852333333336, "rental_uris": {"ios": "https://dc.lft.to/lastmile_qr_scan", "android": "https://dc.lft.to/lastmile_qr_scan"}, "is_reserved": 0, "lon": -77.06776766666667, "fusion_lat": 0.0, "name": "acfcfb7e5f1adfbcbcdfd21922e42d34"}, {"type": "electric_scooter", "fusion_lon": 0.0, "bike_id": "ea8e3bcaf54338d1db8e7992f0682414", "is_disabled": 0, "lat": 38.920376, "rental_uris": {"ios": "https://dc.lft.to/lastmile_qr_scan", "android": "https://dc.lft.to/lastmile_qr_scan"}, "is_reserved": 0, "lon": -77.01427616666666, "fusion_lat": 0.0, "name": "ea8e3bcaf54338d1db8e7992f0682414"}, {"type": "electric_scooter", "fusion_lon": 0.0, "bike_id": "3f978d055d915f1e056ba7cf52a45d50", "is_disabled": 0, "lat": 38.90126933333333, "rental_uris": {"ios": "https://dc.lft.to/lastmile_qr_scan", "android": "https://dc.lft.to/lastmile_qr_scan"}, "is_reserved": 0, "lon": -77.00889133333334, "fusion_lat": 0.0, "name": "3f978d055d915f1e056ba7cf52a45d50"}, {"type": "electric_scooter", "fusion_lon": 0.0, "bike_id": "304ed4b5160328b9ccbe23c05ae6f39e", "is_disabled": 0, "lat": 38.8877045, "rental_uris": {"ios": "https://dc.lft.to/lastmile_qr_scan", "android": "https://dc.lft.to/lastmile_qr_scan"}, "is_reserved": 0, "lon": -77.03349016666667, "fusion_lat": 0.0, "name": "304ed4b5160328b9ccbe23c05ae6f39e"}, {"type": "electric_bike", "fusion_lon": 0.0, "bike_id": "6962a767f6a3fc8d0b00551350dbe8be", "is_disabled": 0, "lat": 38.888546833333336, "rental_uris": {"ios": "https://dc.lft.to/lastmile_qr_scan", "android": "https://dc.lft.to/lastmile_qr_scan"}, "is_reserved": 0, "lon": -76.95739683333333, "fusion_lat": 0.0, "name": "6962a767f6a3fc8d0b00551350dbe8be"}, {"type": "electric_scooter", "fusion_lon": 0.0, "bike_id": "9d5b95085e13a66bf35a14fa071501da", "is_disabled": 0, "lat": 38.93711066666667, "rental_uris": {"ios": "https://dc.lft.to/lastmile_qr_scan", "android": "https://dc.lft.to/lastmile_qr_scan"}, "is_reserved": 0, "lon": -77.02419683333333, "fusion_lat": 0.0, "name": "9d5b95085e13a66bf35a14fa071501da"}, {"type": "electric_scooter", "fusion_lon": 0.0, "bike_id": "7bf75e6b156f097f6a3ebd3a2628ba96", "is_disabled": 0, "lat": 38.90589133333334, "rental_uris": {"ios": "https://dc.lft.to/lastmile_qr_scan", "android": "https://dc.lft.to/lastmile_qr_scan"}, "is_reserved": 0, "lon": -77.0433465, "fusion_lat": 0.0, "name": "7bf75e6b156f097f6a3ebd3a2628ba96"}, {"type": "electric_scooter", "fusion_lon": 0.0, "bike_id": "07d499821b5259a05cdef25be3606ad2", "is_disabled": 0, "lat": 38.90766816666667, "rental_uris": {"ios": "https://dc.lft.to/lastmile_qr_scan", "android": "https://dc.lft.to/lastmile_qr_scan"}, "is_reserved": 0, "lon": -77.03859266666667, "fusion_lat": 0.0, "name": "07d499821b5259a05cdef25be3606ad2"}, {"type": "electric_scooter", "fusion_lon": 0.0, "bike_id": "bc2a737b79e9ec715db7b9021ace12ae", "is_disabled": 0, "lat": 38.894447666666665, "rental_uris": {"ios": "https://dc.lft.to/lastmile_qr_scan", "android": "https://dc.lft.to/lastmile_qr_scan"}, "is_reserved": 0, "lon": -76.98083333333334, "fusion_lat": 0.0, "name": "bc2a737b79e9ec715db7b9021ace12ae"}, {"type": "electric_scooter", "fusion_lon": 0.0, "bike_id": "787e11da7c42479e11e5a10242291a9e", "is_disabled": 0, "lat": 38.917978166666664, "rental_uris": {"ios": "https://dc.lft.to/lastmile_qr_scan", "android": "https://dc.lft.to/lastmile_qr_scan"}, "is_reserved": 0, "lon": -77.02707583333333, "fusion_lat": 0.0, "name": "787e11da7c42479e11e5a10242291a9e"}, {"type": "electric_scooter", "fusion_lon": 0.0, "bike_id": "e9ff47d37bc961b8643a5606b01548a2", "is_disabled": 0, "lat": 38.928915333333336, "rental_uris": {"ios": "https://dc.lft.to/lastmile_qr_scan", "android": "https://dc.lft.to/lastmile_qr_scan"}, "is_reserved": 0, "lon": -77.02662333333333, "fusion_lat": 0.0, "name": "e9ff47d37bc961b8643a5606b01548a2"}, {"type": "electric_scooter", "fusion_lon": 0.0, "bike_id": "42f481bbcde3b7829f0f95c9c6f314a7", "is_disabled": 0, "lat": 38.90567733333334, "rental_uris": {"ios": "https://dc.lft.to/lastmile_qr_scan", "android": "https://dc.lft.to/lastmile_qr_scan"}, "is_reserved": 0, "lon": -77.017632, "fusion_lat": 0.0, "name": "42f481bbcde3b7829f0f95c9c6f314a7"}, {"type": "electric_scooter", "fusion_lon": 0.0, "bike_id": "3fdfb4f285bef8e221276d7f8fd45a32", "is_disabled": 0, "lat": 38.903502833333334, "rental_uris": {"ios": "https://dc.lft.to/lastmile_qr_scan", "android": "https://dc.lft.to/lastmile_qr_scan"}, "is_reserved": 0, "lon": -77.0375355, "fusion_lat": 0.0, "name": "3fdfb4f285bef8e221276d7f8fd45a32"}, {"type": "electric_scooter", "fusion_lon": 0.0, "bike_id": "923143a47d00390a522dc662701774dd", "is_disabled": 0, "lat": 38.94835233333333, "rental_uris": {"ios": "https://dc.lft.to/lastmile_qr_scan", "android": "https://dc.lft.to/lastmile_qr_scan"}, "is_reserved": 0, "lon": -77.0255735, "fusion_lat": 0.0, "name": "923143a47d00390a522dc662701774dd"}, {"type": "electric_scooter", "fusion_lon": 0.0, "bike_id": "0861159aa6cd251e465d1c376455f2f4", "is_disabled": 0, "lat": 38.89225016666666, "rental_uris": {"ios": "https://dc.lft.to/lastmile_qr_scan", "android": "https://dc.lft.to/lastmile_qr_scan"}, "is_reserved": 0, "lon": -77.02627983333333, "fusion_lat": 0.0, "name": "0861159aa6cd251e465d1c376455f2f4"}, {"type": "electric_scooter", "fusion_lon": 0.0, "bike_id": "927107f932937b5755058fe34cb88243", "is_disabled": 0, "lat": 38.89643983333333, "rental_uris": {"ios": "https://dc.lft.to/lastmile_qr_scan", "android": "https://dc.lft.to/lastmile_qr_scan"}, "is_reserved": 0, "lon": -77.03206466666667, "fusion_lat": 0.0, "name": "927107f932937b5755058fe34cb88243"}, {"type": "electric_scooter", "fusion_lon": 0.0, "bike_id": "ce6d88ff5db3edc3bc52c2214fd8e6a8", "is_disabled": 0, "lat": 38.90233966666667, "rental_uris": {"ios": "https://dc.lft.to/lastmile_qr_scan", "android": "https://dc.lft.to/lastmile_qr_scan"}, "is_reserved": 0, "lon": -77.059843, "fusion_lat": 0.0, "name": "ce6d88ff5db3edc3bc52c2214fd8e6a8"}, {"type": "electric_scooter", "fusion_lon": 0.0, "bike_id": "73528db3d7350359e2e99e1e255007ad", "is_disabled": 0, "lat": 38.90733616666667, "rental_uris": {"ios": "https://dc.lft.to/lastmile_qr_scan", "android": "https://dc.lft.to/lastmile_qr_scan"}, "is_reserved": 0, "lon": -77.04375533333334, "fusion_lat": 0.0, "name": "73528db3d7350359e2e99e1e255007ad"}, {"type": "electric_scooter", "fusion_lon": 0.0, "bike_id": "4ab2eb415707487210f42ec90a14ac6f", "is_disabled": 0, "lat": 38.90842966666666, "rental_uris": {"ios": "https://dc.lft.to/lastmile_qr_scan", "android": "https://dc.lft.to/lastmile_qr_scan"}, "is_reserved": 0, "lon": -77.026935, "fusion_lat": 0.0, "name": "4ab2eb415707487210f42ec90a14ac6f"}, {"type": "electric_scooter", "fusion_lon": 0.0, "bike_id": "55db6e4716fbe5b97181957ab91f154d", "is_disabled": 0, "lat": 38.914694833333336, "rental_uris": {"ios": "https://dc.lft.to/lastmile_qr_scan", "android": "https://dc.lft.to/lastmile_qr_scan"}, "is_reserved": 0, "lon": -77.03640983333334, "fusion_lat": 0.0, "name": "55db6e4716fbe5b97181957ab91f154d"}, {"type": "electric_scooter", "fusion_lon": 0.0, "bike_id": "a58c5e7f4e90465be00e4aa093ad3a04", "is_disabled": 0, "lat": 38.866598333333336, "rental_uris": {"ios": "https://dc.lft.to/lastmile_qr_scan", "android": "https://dc.lft.to/lastmile_qr_scan"}, "is_reserved": 0, "lon": -76.98889583333333, "fusion_lat": 0.0, "name": "a58c5e7f4e90465be00e4aa093ad3a04"}, {"type": "electric_scooter", "fusion_lon": 0.0, "bike_id": "0c9c7aca21599fd42a36fda864a387e1", "is_disabled": 0, "lat": 38.90995933333333, "rental_uris": {"ios": "https://dc.lft.to/lastmile_qr_scan", "android": "https://dc.lft.to/lastmile_qr_scan"}, "is_reserved": 0, "lon": -76.99454516666667, "fusion_lat": 0.0, "name": "0c9c7aca21599fd42a36fda864a387e1"}, {"type": "electric_scooter", "fusion_lon": 0.0, "bike_id": "b34c4a928360541d41dc24f3830020ef", "is_disabled": 0, "lat": 38.880698333333335, "rental_uris": {"ios": "https://dc.lft.to/lastmile_qr_scan", "android": "https://dc.lft.to/lastmile_qr_scan"}, "is_reserved": 0, "lon": -76.99030266666666, "fusion_lat": 0.0, "name": "b34c4a928360541d41dc24f3830020ef"}, {"type": "electric_scooter", "fusion_lon": 0.0, "bike_id": "1bf3cc7660710c4dc696f3635937b81c", "is_disabled": 0, "lat": 38.942018166666664, "rental_uris": {"ios": "https://dc.lft.to/lastmile_qr_scan", "android": "https://dc.lft.to/lastmile_qr_scan"}, "is_reserved": 0, "lon": -77.0243585, "fusion_lat": 0.0, "name": "1bf3cc7660710c4dc696f3635937b81c"}, {"type": "electric_scooter", "fusion_lon": 0.0, "bike_id": "eb11b89bf0ba8befabff77960101eac1", "is_disabled": 0, "lat": 38.91890566666667, "rental_uris": {"ios": "https://dc.lft.to/lastmile_qr_scan", "android": "https://dc.lft.to/lastmile_qr_scan"}, "is_reserved": 0, "lon": -77.02474683333334, "fusion_lat": 0.0, "name": "eb11b89bf0ba8befabff77960101eac1"}, {"type": "electric_scooter", "fusion_lon": 0.0, "bike_id": "534604ec8fad0f740fcdbe7c0219d7ae", "is_disabled": 0, "lat": 38.91053516666667, "rental_uris": {"ios": "https://dc.lft.to/lastmile_qr_scan", "android": "https://dc.lft.to/lastmile_qr_scan"}, "is_reserved": 0, "lon": -77.02000366666667, "fusion_lat": 0.0, "name": "534604ec8fad0f740fcdbe7c0219d7ae"}, {"type": "electric_scooter", "fusion_lon": 0.0, "bike_id": "e965a88cf352127f61e960b819a2add2", "is_disabled": 0, "lat": 38.90140866666667, "rental_uris": {"ios": "https://dc.lft.to/lastmile_qr_scan", "android": "https://dc.lft.to/lastmile_qr_scan"}, "is_reserved": 0, "lon": -77.0404, "fusion_lat": 0.0, "name": "e965a88cf352127f61e960b819a2add2"}, {"type": "electric_scooter", "fusion_lon": 0.0, "bike_id": "a0750d8a6bb8117aa421d90fc6f159d8", "is_disabled": 0, "lat": 38.912660833333334, "rental_uris": {"ios": "https://dc.lft.to/lastmile_qr_scan", "android": "https://dc.lft.to/lastmile_qr_scan"}, "is_reserved": 0, "lon": -77.0177025, "fusion_lat": 0.0, "name": "a0750d8a6bb8117aa421d90fc6f159d8"}, {"type": "electric_scooter", "fusion_lon": 0.0, "bike_id": "5d19914c5faf608b13450b3d9d8fa183", "is_disabled": 0, "lat": 38.9075895, "rental_uris": {"ios": "https://dc.lft.to/lastmile_qr_scan", "android": "https://dc.lft.to/lastmile_qr_scan"}, "is_reserved": 0, "lon": -77.02300633333333, "fusion_lat": 0.0, "name": "5d19914c5faf608b13450b3d9d8fa183"}, {"type": "electric_scooter", "fusion_lon": 0.0, "bike_id": "b293ff2c2141aa0f175438511db18e31", "is_disabled": 0, "lat": 38.91190266666667, "rental_uris": {"ios": "https://dc.lft.to/lastmile_qr_scan", "android": "https://dc.lft.to/lastmile_qr_scan"}, "is_reserved": 0, "lon": -77.010731, "fusion_lat": 0.0, "name": "b293ff2c2141aa0f175438511db18e31"}, {"type": "electric_scooter", "fusion_lon": 0.0, "bike_id": "eaa3e15a896b4a81d780d33eb8119dac", "is_disabled": 0, "lat": 38.92163683333333, "rental_uris": {"ios": "https://dc.lft.to/lastmile_qr_scan", "android": "https://dc.lft.to/lastmile_qr_scan"}, "is_reserved": 0, "lon": -77.03292116666667, "fusion_lat": 0.0, "name": "eaa3e15a896b4a81d780d33eb8119dac"}, {"type": "electric_scooter", "fusion_lon": 0.0, "bike_id": "d46ff47bde7133130cf7bda93bc701f7", "is_disabled": 0, "lat": 38.911164666666664, "rental_uris": {"ios": "https://dc.lft.to/lastmile_qr_scan", "android": "https://dc.lft.to/lastmile_qr_scan"}, "is_reserved": 0, "lon": -77.04532033333334, "fusion_lat": 0.0, "name": "d46ff47bde7133130cf7bda93bc701f7"}, {"type": "electric_scooter", "fusion_lon": 0.0, "bike_id": "ba7774de8c57e3faa1019358699e20d2", "is_disabled": 0, "lat": 38.89845566666666, "rental_uris": {"ios": "https://dc.lft.to/lastmile_qr_scan", "android": "https://dc.lft.to/lastmile_qr_scan"}, "is_reserved": 0, "lon": -76.94254033333333, "fusion_lat": 0.0, "name": "ba7774de8c57e3faa1019358699e20d2"}, {"type": "electric_scooter", "fusion_lon": 0.0, "bike_id": "a663e8caffcdaadf3f672de5ea104e26", "is_disabled": 0, "lat": 38.898545, "rental_uris": {"ios": "https://dc.lft.to/lastmile_qr_scan", "android": "https://dc.lft.to/lastmile_qr_scan"}, "is_reserved": 0, "lon": -77.00734216666666, "fusion_lat": 0.0, "name": "a663e8caffcdaadf3f672de5ea104e26"}, {"type": "electric_scooter", "fusion_lon": 0.0, "bike_id": "d5f8e5398d34cfe8e88fef88a761ec12", "is_disabled": 0, "lat": 38.89047516666667, "rental_uris": {"ios": "https://dc.lft.to/lastmile_qr_scan", "android": "https://dc.lft.to/lastmile_qr_scan"}, "is_reserved": 0, "lon": -76.93755366666667, "fusion_lat": 0.0, "name": "d5f8e5398d34cfe8e88fef88a761ec12"}, {"type": "electric_scooter", "fusion_lon": 0.0, "bike_id": "f94df16d3e5e4ca883b9746bba1a3752", "is_disabled": 0, "lat": 38.92812383333333, "rental_uris": {"ios": "https://dc.lft.to/lastmile_qr_scan", "android": "https://dc.lft.to/lastmile_qr_scan"}, "is_reserved": 0, "lon": -77.04333583333333, "fusion_lat": 0.0, "name": "f94df16d3e5e4ca883b9746bba1a3752"}, {"type": "electric_scooter", "fusion_lon": 0.0, "bike_id": "ecb467971ed0d36884b1b207f1773c9e", "is_disabled": 0, "lat": 38.91800033333333, "rental_uris": {"ios": "https://dc.lft.to/lastmile_qr_scan", "android": "https://dc.lft.to/lastmile_qr_scan"}, "is_reserved": 0, "lon": -77.01352433333334, "fusion_lat": 0.0, "name": "ecb467971ed0d36884b1b207f1773c9e"}, {"type": "electric_scooter", "fusion_lon": 0.0, "bike_id": "6c690d35312141f4ac8007cd23189dea", "is_disabled": 0, "lat": 38.88182583333333, "rental_uris": {"ios": "https://dc.lft.to/lastmile_qr_scan", "android": "https://dc.lft.to/lastmile_qr_scan"}, "is_reserved": 0, "lon": -76.99257083333333, "fusion_lat": 0.0, "name": "6c690d35312141f4ac8007cd23189dea"}, {"type": "electric_scooter", "fusion_lon": 0.0, "bike_id": "58df82dc2e3a3cf220b7f4581cfb3f5f", "is_disabled": 0, "lat": 38.91564566666667, "rental_uris": {"ios": "https://dc.lft.to/lastmile_qr_scan", "android": "https://dc.lft.to/lastmile_qr_scan"}, "is_reserved": 0, "lon": -77.03221983333333, "fusion_lat": 0.0, "name": "58df82dc2e3a3cf220b7f4581cfb3f5f"}, {"type": "electric_scooter", "fusion_lon": 0.0, "bike_id": "0bf8994476fdf20931648fe280fa4379", "is_disabled": 0, "lat": 38.90816616666667, "rental_uris": {"ios": "https://dc.lft.to/lastmile_qr_scan", "android": "https://dc.lft.to/lastmile_qr_scan"}, "is_reserved": 0, "lon": -77.03943, "fusion_lat": 0.0, "name": "0bf8994476fdf20931648fe280fa4379"}, {"type": "electric_bike", "fusion_lon": 0.0, "bike_id": "9d15ff2d7077652df46df99b939f9aa1", "is_disabled": 0, "lat": 38.87883516666667, "rental_uris": {"ios": "https://dc.lft.to/lastmile_qr_scan", "android": "https://dc.lft.to/lastmile_qr_scan"}, "is_reserved": 0, "lon": -77.085157, "fusion_lat": 0.0, "name": "9d15ff2d7077652df46df99b939f9aa1"}, {"type": "electric_scooter", "fusion_lon": 0.0, "bike_id": "133f5f9af240d59fa75ad8d2345c29c7", "is_disabled": 0, "lat": 38.93575283333333, "rental_uris": {"ios": "https://dc.lft.to/lastmile_qr_scan", "android": "https://dc.lft.to/lastmile_qr_scan"}, "is_reserved": 0, "lon": -76.99303366666666, "fusion_lat": 0.0, "name": "133f5f9af240d59fa75ad8d2345c29c7"}, {"type": "electric_scooter", "fusion_lon": 0.0, "bike_id": "ca4f5b8c462c1ac8349470c883e8bf1c", "is_disabled": 0, "lat": 38.8922255, "rental_uris": {"ios": "https://dc.lft.to/lastmile_qr_scan", "android": "https://dc.lft.to/lastmile_qr_scan"}, "is_reserved": 0, "lon": -77.041965, "fusion_lat": 0.0, "name": "ca4f5b8c462c1ac8349470c883e8bf1c"}, {"type": "electric_scooter", "fusion_lon": 0.0, "bike_id": "4f484b4637938b3b8676d62b8abcdc1b", "is_disabled": 0, "lat": 38.9247575, "rental_uris": {"ios": "https://dc.lft.to/lastmile_qr_scan", "android": "https://dc.lft.to/lastmile_qr_scan"}, "is_reserved": 0, "lon": -77.02215566666666, "fusion_lat": 0.0, "name": "4f484b4637938b3b8676d62b8abcdc1b"}, {"type": "electric_scooter", "fusion_lon": 0.0, "bike_id": "7c7859f9cbd84fd08a1ec84686e32d9b", "is_disabled": 0, "lat": 38.89531683333333, "rental_uris": {"ios": "https://dc.lft.to/lastmile_qr_scan", "android": "https://dc.lft.to/lastmile_qr_scan"}, "is_reserved": 0, "lon": -77.04646766666667, "fusion_lat": 0.0, "name": "7c7859f9cbd84fd08a1ec84686e32d9b"}, {"type": "electric_scooter", "fusion_lon": 0.0, "bike_id": "dfccad0ebadbee69740e4f2355121b51", "is_disabled": 0, "lat": 38.894915166666664, "rental_uris": {"ios": "https://dc.lft.to/lastmile_qr_scan", "android": "https://dc.lft.to/lastmile_qr_scan"}, "is_reserved": 0, "lon": -77.0029095, "fusion_lat": 0.0, "name": "dfccad0ebadbee69740e4f2355121b51"}, {"type": "electric_bike", "fusion_lon": 0.0, "bike_id": "baa0d4bc0c85b7d90e327452d350a591", "is_disabled": 0, "lat": 38.85878316666667, "rental_uris": {"ios": "https://dc.lft.to/lastmile_qr_scan", "android": "https://dc.lft.to/lastmile_qr_scan"}, "is_reserved": 0, "lon": -77.09560516666667, "fusion_lat": 0.0, "name": "baa0d4bc0c85b7d90e327452d350a591"}, {"type": "electric_scooter", "fusion_lon": 0.0, "bike_id": "42dbe773066e6b56b2dc6caf07fd41cf", "is_disabled": 0, "lat": 38.904855833333336, "rental_uris": {"ios": "https://dc.lft.to/lastmile_qr_scan", "android": "https://dc.lft.to/lastmile_qr_scan"}, "is_reserved": 0, "lon": -77.03451883333334, "fusion_lat": 0.0, "name": "42dbe773066e6b56b2dc6caf07fd41cf"}, {"type": "electric_scooter", "fusion_lon": 0.0, "bike_id": "e8e81f5fb4492963ca25f25f33f7d2ee", "is_disabled": 0, "lat": 38.9027455, "rental_uris": {"ios": "https://dc.lft.to/lastmile_qr_scan", "android": "https://dc.lft.to/lastmile_qr_scan"}, "is_reserved": 0, "lon": -77.04526416666667, "fusion_lat": 0.0, "name": "e8e81f5fb4492963ca25f25f33f7d2ee"}, {"type": "electric_bike", "fusion_lon": 0.0, "bike_id": "a8b9091ce926f800a6dc7767bcd14d0b", "is_disabled": 0, "lat": 38.884886333333334, "rental_uris": {"ios": "https://dc.lft.to/lastmile_qr_scan", "android": "https://dc.lft.to/lastmile_qr_scan"}, "is_reserved": 0, "lon": -76.95758383333333, "fusion_lat": 0.0, "name": "a8b9091ce926f800a6dc7767bcd14d0b"}, {"type": "electric_scooter", "fusion_lon": 0.0, "bike_id": "1c2e22b311adb81058d253fd56dfba32", "is_disabled": 0, "lat": 38.901385, "rental_uris": {"ios": "https://dc.lft.to/lastmile_qr_scan", "android": "https://dc.lft.to/lastmile_qr_scan"}, "is_reserved": 0, "lon": -77.044279, "fusion_lat": 0.0, "name": "1c2e22b311adb81058d253fd56dfba32"}, {"type": "electric_scooter", "fusion_lon": 0.0, "bike_id": "823ff45e9faa9ad84bd1f71ab67888a5", "is_disabled": 0, "lat": 38.942324, "rental_uris": {"ios": "https://dc.lft.to/lastmile_qr_scan", "android": "https://dc.lft.to/lastmile_qr_scan"}, "is_reserved": 0, "lon": -77.03867666666666, "fusion_lat": 0.0, "name": "823ff45e9faa9ad84bd1f71ab67888a5"}, {"type": "electric_bike", "fusion_lon": 0.0, "bike_id": "ef067afd9a6e4df71b03b128140ca9a4", "is_disabled": 0, "lat": 39.01077516666667, "rental_uris": {"ios": "https://dc.lft.to/lastmile_qr_scan", "android": "https://dc.lft.to/lastmile_qr_scan"}, "is_reserved": 0, "lon": -76.91062433333333, "fusion_lat": 0.0, "name": "ef067afd9a6e4df71b03b128140ca9a4"}, {"type": "electric_bike", "fusion_lon": 0.0, "bike_id": "1c37d6dd4f0770ac6699244558c92f40", "is_disabled": 0, "lat": 38.92402716666667, "rental_uris": {"ios": "https://dc.lft.to/lastmile_qr_scan", "android": "https://dc.lft.to/lastmile_qr_scan"}, "is_reserved": 0, "lon": -77.02467466666667, "fusion_lat": 0.0, "name": "1c37d6dd4f0770ac6699244558c92f40"}, {"type": "electric_scooter", "fusion_lon": 0.0, "bike_id": "e1d365c3c114239872562167a163eac4", "is_disabled": 0, "lat": 38.9112075, "rental_uris": {"ios": "https://dc.lft.to/lastmile_qr_scan", "android": "https://dc.lft.to/lastmile_qr_scan"}, "is_reserved": 0, "lon": -77.04331983333333, "fusion_lat": 0.0, "name": "e1d365c3c114239872562167a163eac4"}, {"type": "electric_scooter", "fusion_lon": 0.0, "bike_id": "78ee967be8374a6404eedfc878b71bde", "is_disabled": 0, "lat": 38.92166483333333, "rental_uris": {"ios": "https://dc.lft.to/lastmile_qr_scan", "android": "https://dc.lft.to/lastmile_qr_scan"}, "is_reserved": 0, "lon": -77.04691416666667, "fusion_lat": 0.0, "name": "78ee967be8374a6404eedfc878b71bde"}, {"type": "electric_scooter", "fusion_lon": 0.0, "bike_id": "3babdbcecb48165220ecb182146c3654", "is_disabled": 0, "lat": 38.923981166666664, "rental_uris": {"ios": "https://dc.lft.to/lastmile_qr_scan", "android": "https://dc.lft.to/lastmile_qr_scan"}, "is_reserved": 0, "lon": -77.03399883333333, "fusion_lat": 0.0, "name": "3babdbcecb48165220ecb182146c3654"}, {"type": "electric_scooter", "fusion_lon": 0.0, "bike_id": "a0e1395ad6a091e797a27f8487c44fa1", "is_disabled": 0, "lat": 38.91354716666667, "rental_uris": {"ios": "https://dc.lft.to/lastmile_qr_scan", "android": "https://dc.lft.to/lastmile_qr_scan"}, "is_reserved": 0, "lon": -77.03206366666667, "fusion_lat": 0.0, "name": "a0e1395ad6a091e797a27f8487c44fa1"}, {"type": "electric_scooter", "fusion_lon": 0.0, "bike_id": "e577a9fda8cfe024d2bac8254ac3a151", "is_disabled": 0, "lat": 38.9073675, "rental_uris": {"ios": "https://dc.lft.to/lastmile_qr_scan", "android": "https://dc.lft.to/lastmile_qr_scan"}, "is_reserved": 0, "lon": -77.04336333333333, "fusion_lat": 0.0, "name": "e577a9fda8cfe024d2bac8254ac3a151"}, {"type": "electric_scooter", "fusion_lon": 0.0, "bike_id": "5d5122f27927f26fe61ca03ec79739be", "is_disabled": 0, "lat": 38.887174, "rental_uris": {"ios": "https://dc.lft.to/lastmile_qr_scan", "android": "https://dc.lft.to/lastmile_qr_scan"}, "is_reserved": 0, "lon": -77.022017, "fusion_lat": 0.0, "name": "5d5122f27927f26fe61ca03ec79739be"}, {"type": "electric_scooter", "fusion_lon": 0.0, "bike_id": "a594a93ff54d05ef3c2bb7fdcd26da2c", "is_disabled": 0, "lat": 38.90139083333333, "rental_uris": {"ios": "https://dc.lft.to/lastmile_qr_scan", "android": "https://dc.lft.to/lastmile_qr_scan"}, "is_reserved": 0, "lon": -77.04409983333333, "fusion_lat": 0.0, "name": "a594a93ff54d05ef3c2bb7fdcd26da2c"}, {"type": "electric_scooter", "fusion_lon": 0.0, "bike_id": "91cc79fefbc5357d1ac4840400f2c3ea", "is_disabled": 0, "lat": 38.9189965, "rental_uris": {"ios": "https://dc.lft.to/lastmile_qr_scan", "android": "https://dc.lft.to/lastmile_qr_scan"}, "is_reserved": 0, "lon": -77.03818166666667, "fusion_lat": 0.0, "name": "91cc79fefbc5357d1ac4840400f2c3ea"}, {"type": "electric_scooter", "fusion_lon": 0.0, "bike_id": "f5b72111555855d71bd734aca64dd153", "is_disabled": 0, "lat": 38.9091135, "rental_uris": {"ios": "https://dc.lft.to/lastmile_qr_scan", "android": "https://dc.lft.to/lastmile_qr_scan"}, "is_reserved": 0, "lon": -77.07268883333333, "fusion_lat": 0.0, "name": "f5b72111555855d71bd734aca64dd153"}, {"type": "electric_scooter", "fusion_lon": 0.0, "bike_id": "41332439aec8354d7bd7012dba94aa70", "is_disabled": 0, "lat": 38.90329716666667, "rental_uris": {"ios": "https://dc.lft.to/lastmile_qr_scan", "android": "https://dc.lft.to/lastmile_qr_scan"}, "is_reserved": 0, "lon": -77.0388805, "fusion_lat": 0.0, "name": "41332439aec8354d7bd7012dba94aa70"}, {"type": "electric_scooter", "fusion_lon": 0.0, "bike_id": "0cc34bb553d853a5e54fe65aa0400923", "is_disabled": 0, "lat": 38.92752516666667, "rental_uris": {"ios": "https://dc.lft.to/lastmile_qr_scan", "android": "https://dc.lft.to/lastmile_qr_scan"}, "is_reserved": 0, "lon": -77.02535133333333, "fusion_lat": 0.0, "name": "0cc34bb553d853a5e54fe65aa0400923"}, {"type": "electric_scooter", "fusion_lon": 0.0, "bike_id": "c0d840fffe48233d3fa591cb5e51127e", "is_disabled": 0, "lat": 38.90273416666667, "rental_uris": {"ios": "https://dc.lft.to/lastmile_qr_scan", "android": "https://dc.lft.to/lastmile_qr_scan"}, "is_reserved": 0, "lon": -77.02727516666667, "fusion_lat": 0.0, "name": "c0d840fffe48233d3fa591cb5e51127e"}, {"type": "electric_scooter", "fusion_lon": 0.0, "bike_id": "84f3ae370748f86113f0b4f7d30cebee", "is_disabled": 0, "lat": 38.920480833333336, "rental_uris": {"ios": "https://dc.lft.to/lastmile_qr_scan", "android": "https://dc.lft.to/lastmile_qr_scan"}, "is_reserved": 0, "lon": -77.01667033333334, "fusion_lat": 0.0, "name": "84f3ae370748f86113f0b4f7d30cebee"}, {"type": "electric_scooter", "fusion_lon": 0.0, "bike_id": "760179dc0aeeefeeeedb83bebe3a2029", "is_disabled": 0, "lat": 38.904151166666665, "rental_uris": {"ios": "https://dc.lft.to/lastmile_qr_scan", "android": "https://dc.lft.to/lastmile_qr_scan"}, "is_reserved": 0, "lon": -76.97329083333334, "fusion_lat": 0.0, "name": "760179dc0aeeefeeeedb83bebe3a2029"}, {"type": "electric_scooter", "fusion_lon": 0.0, "bike_id": "245929185b6adf7ca6b2d2da384ed73c", "is_disabled": 0, "lat": 38.904491666666665, "rental_uris": {"ios": "https://dc.lft.to/lastmile_qr_scan", "android": "https://dc.lft.to/lastmile_qr_scan"}, "is_reserved": 0, "lon": -77.03420516666667, "fusion_lat": 0.0, "name": "245929185b6adf7ca6b2d2da384ed73c"}, {"type": "electric_scooter", "fusion_lon": 0.0, "bike_id": "9c62ae5957183d80632572af79307209", "is_disabled": 0, "lat": 38.8999525, "rental_uris": {"ios": "https://dc.lft.to/lastmile_qr_scan", "android": "https://dc.lft.to/lastmile_qr_scan"}, "is_reserved": 0, "lon": -77.02446333333333, "fusion_lat": 0.0, "name": "9c62ae5957183d80632572af79307209"}, {"type": "electric_scooter", "fusion_lon": 0.0, "bike_id": "54240bbecb62f54f50adae3fa2424145", "is_disabled": 0, "lat": 38.883479, "rental_uris": {"ios": "https://dc.lft.to/lastmile_qr_scan", "android": "https://dc.lft.to/lastmile_qr_scan"}, "is_reserved": 0, "lon": -76.93500333333333, "fusion_lat": 0.0, "name": "54240bbecb62f54f50adae3fa2424145"}, {"type": "electric_bike", "fusion_lon": 0.0, "bike_id": "d4ef77dcbd97de6366f5343f8c9768a3", "is_disabled": 0, "lat": 38.9354585, "rental_uris": {"ios": "https://dc.lft.to/lastmile_qr_scan", "android": "https://dc.lft.to/lastmile_qr_scan"}, "is_reserved": 0, "lon": -77.08236616666667, "fusion_lat": 0.0, "name": "d4ef77dcbd97de6366f5343f8c9768a3"}, {"type": "electric_scooter", "fusion_lon": 0.0, "bike_id": "04d3f4f9f313bd24ae4980d93fef2bab", "is_disabled": 0, "lat": 38.866380666666664, "rental_uris": {"ios": "https://dc.lft.to/lastmile_qr_scan", "android": "https://dc.lft.to/lastmile_qr_scan"}, "is_reserved": 0, "lon": -76.98307466666667, "fusion_lat": 0.0, "name": "04d3f4f9f313bd24ae4980d93fef2bab"}, {"type": "electric_scooter", "fusion_lon": 0.0, "bike_id": "bf885681222e2f95d23112b3d74af755", "is_disabled": 0, "lat": 38.8844975, "rental_uris": {"ios": "https://dc.lft.to/lastmile_qr_scan", "android": "https://dc.lft.to/lastmile_qr_scan"}, "is_reserved": 0, "lon": -76.942183, "fusion_lat": 0.0, "name": "bf885681222e2f95d23112b3d74af755"}, {"type": "electric_scooter", "fusion_lon": 0.0, "bike_id": "754f0fbcd48462c71e0adb82893309a4", "is_disabled": 0, "lat": 38.92703683333333, "rental_uris": {"ios": "https://dc.lft.to/lastmile_qr_scan", "android": "https://dc.lft.to/lastmile_qr_scan"}, "is_reserved": 0, "lon": -77.02388116666667, "fusion_lat": 0.0, "name": "754f0fbcd48462c71e0adb82893309a4"}, {"type": "electric_scooter", "fusion_lon": 0.0, "bike_id": "54b80977c6a6a6184b487078565a5718", "is_disabled": 0, "lat": 38.920848, "rental_uris": {"ios": "https://dc.lft.to/lastmile_qr_scan", "android": "https://dc.lft.to/lastmile_qr_scan"}, "is_reserved": 0, "lon": -77.02511733333333, "fusion_lat": 0.0, "name": "54b80977c6a6a6184b487078565a5718"}, {"type": "electric_scooter", "fusion_lon": 0.0, "bike_id": "2514cc786e0db901d8613183e7777c47", "is_disabled": 0, "lat": 38.92201166666667, "rental_uris": {"ios": "https://dc.lft.to/lastmile_qr_scan", "android": "https://dc.lft.to/lastmile_qr_scan"}, "is_reserved": 0, "lon": -77.04697083333333, "fusion_lat": 0.0, "name": "2514cc786e0db901d8613183e7777c47"}, {"type": "electric_scooter", "fusion_lon": 0.0, "bike_id": "34e6c7ce99d71b7c4a2da60433edd1f7", "is_disabled": 0, "lat": 38.905551833333334, "rental_uris": {"ios": "https://dc.lft.to/lastmile_qr_scan", "android": "https://dc.lft.to/lastmile_qr_scan"}, "is_reserved": 0, "lon": -77.04657466666667, "fusion_lat": 0.0, "name": "34e6c7ce99d71b7c4a2da60433edd1f7"}, {"type": "electric_scooter", "fusion_lon": 0.0, "bike_id": "e145cfd16cf34029b8616942f2e372e0", "is_disabled": 0, "lat": 38.90382566666667, "rental_uris": {"ios": "https://dc.lft.to/lastmile_qr_scan", "android": "https://dc.lft.to/lastmile_qr_scan"}, "is_reserved": 0, "lon": -76.99508116666667, "fusion_lat": 0.0, "name": "e145cfd16cf34029b8616942f2e372e0"}, {"type": "electric_scooter", "fusion_lon": 0.0, "bike_id": "a2e57b9e755f1d51ba483fad5db9b5ee", "is_disabled": 0, "lat": 38.92621283333333, "rental_uris": {"ios": "https://dc.lft.to/lastmile_qr_scan", "android": "https://dc.lft.to/lastmile_qr_scan"}, "is_reserved": 0, "lon": -77.03927666666667, "fusion_lat": 0.0, "name": "a2e57b9e755f1d51ba483fad5db9b5ee"}, {"type": "electric_scooter", "fusion_lon": 0.0, "bike_id": "d080137f32a13e39fe8944902866a20a", "is_disabled": 0, "lat": 38.878196, "rental_uris": {"ios": "https://dc.lft.to/lastmile_qr_scan", "android": "https://dc.lft.to/lastmile_qr_scan"}, "is_reserved": 0, "lon": -77.0073115, "fusion_lat": 0.0, "name": "d080137f32a13e39fe8944902866a20a"}, {"type": "electric_scooter", "fusion_lon": 0.0, "bike_id": "1cc89880d3d9c94d3c353f0cf662462e", "is_disabled": 0, "lat": 38.89863416666667, "rental_uris": {"ios": "https://dc.lft.to/lastmile_qr_scan", "android": "https://dc.lft.to/lastmile_qr_scan"}, "is_reserved": 0, "lon": -77.048814, "fusion_lat": 0.0, "name": "1cc89880d3d9c94d3c353f0cf662462e"}, {"type": "electric_scooter", "fusion_lon": 0.0, "bike_id": "5c16a7699f03fbdda7f1a5466130a42a", "is_disabled": 0, "lat": 38.919106666666664, "rental_uris": {"ios": "https://dc.lft.to/lastmile_qr_scan", "android": "https://dc.lft.to/lastmile_qr_scan"}, "is_reserved": 0, "lon": -77.02134333333333, "fusion_lat": 0.0, "name": "5c16a7699f03fbdda7f1a5466130a42a"}, {"type": "electric_bike", "fusion_lon": 0.0, "bike_id": "cca389fe5098c5d5af81586688836c8a", "is_disabled": 0, "lat": 38.857807333333334, "rental_uris": {"ios": "https://dc.lft.to/lastmile_qr_scan", "android": "https://dc.lft.to/lastmile_qr_scan"}, "is_reserved": 0, "lon": -76.97320066666667, "fusion_lat": 0.0, "name": "cca389fe5098c5d5af81586688836c8a"}, {"type": "electric_scooter", "fusion_lon": 0.0, "bike_id": "bcb9a68ba90795ac4342bd4f243d2c78", "is_disabled": 0, "lat": 38.91987, "rental_uris": {"ios": "https://dc.lft.to/lastmile_qr_scan", "android": "https://dc.lft.to/lastmile_qr_scan"}, "is_reserved": 0, "lon": -77.02935583333333, "fusion_lat": 0.0, "name": "bcb9a68ba90795ac4342bd4f243d2c78"}, {"type": "electric_scooter", "fusion_lon": 0.0, "bike_id": "fd19320e08aa81396754ea8c851644e6", "is_disabled": 0, "lat": 38.927502, "rental_uris": {"ios": "https://dc.lft.to/lastmile_qr_scan", "android": "https://dc.lft.to/lastmile_qr_scan"}, "is_reserved": 0, "lon": -77.02534116666666, "fusion_lat": 0.0, "name": "fd19320e08aa81396754ea8c851644e6"}, {"type": "electric_scooter", "fusion_lon": 0.0, "bike_id": "1c0ccd52ebf8d58423ec2baf4afb300e", "is_disabled": 0, "lat": 38.93451116666667, "rental_uris": {"ios": "https://dc.lft.to/lastmile_qr_scan", "android": "https://dc.lft.to/lastmile_qr_scan"}, "is_reserved": 0, "lon": -77.03241533333333, "fusion_lat": 0.0, "name": "1c0ccd52ebf8d58423ec2baf4afb300e"}, {"type": "electric_scooter", "fusion_lon": 0.0, "bike_id": "40a55bf54ea2b324d083f976a23a5a14", "is_disabled": 0, "lat": 38.90827633333333, "rental_uris": {"ios": "https://dc.lft.to/lastmile_qr_scan", "android": "https://dc.lft.to/lastmile_qr_scan"}, "is_reserved": 0, "lon": -77.03912316666667, "fusion_lat": 0.0, "name": "40a55bf54ea2b324d083f976a23a5a14"}, {"type": "electric_scooter", "fusion_lon": 0.0, "bike_id": "68cea93585d65ffb1931e421d2b33ec0", "is_disabled": 0, "lat": 38.914494833333336, "rental_uris": {"ios": "https://dc.lft.to/lastmile_qr_scan", "android": "https://dc.lft.to/lastmile_qr_scan"}, "is_reserved": 0, "lon": -77.04152983333333, "fusion_lat": 0.0, "name": "68cea93585d65ffb1931e421d2b33ec0"}, {"type": "electric_scooter", "fusion_lon": 0.0, "bike_id": "7ad7bc071b1785cf30cdd35e36278ce9", "is_disabled": 0, "lat": 38.93430166666667, "rental_uris": {"ios": "https://dc.lft.to/lastmile_qr_scan", "android": "https://dc.lft.to/lastmile_qr_scan"}, "is_reserved": 0, "lon": -77.044243, "fusion_lat": 0.0, "name": "7ad7bc071b1785cf30cdd35e36278ce9"}, {"type": "electric_scooter", "fusion_lon": 0.0, "bike_id": "8cbe8d656d25057d50a5ea181b985d0c", "is_disabled": 0, "lat": 38.921718166666665, "rental_uris": {"ios": "https://dc.lft.to/lastmile_qr_scan", "android": "https://dc.lft.to/lastmile_qr_scan"}, "is_reserved": 0, "lon": -77.02205533333333, "fusion_lat": 0.0, "name": "8cbe8d656d25057d50a5ea181b985d0c"}, {"type": "electric_scooter", "fusion_lon": 0.0, "bike_id": "fd6b15e4b58e0e54d8c2e60bb73f6959", "is_disabled": 0, "lat": 38.88706283333333, "rental_uris": {"ios": "https://dc.lft.to/lastmile_qr_scan", "android": "https://dc.lft.to/lastmile_qr_scan"}, "is_reserved": 0, "lon": -77.02830866666666, "fusion_lat": 0.0, "name": "fd6b15e4b58e0e54d8c2e60bb73f6959"}, {"type": "electric_scooter", "fusion_lon": 0.0, "bike_id": "d9341773e24b0e34e07caccb892a6cb6", "is_disabled": 0, "lat": 38.89223633333334, "rental_uris": {"ios": "https://dc.lft.to/lastmile_qr_scan", "android": "https://dc.lft.to/lastmile_qr_scan"}, "is_reserved": 0, "lon": -77.02012266666667, "fusion_lat": 0.0, "name": "d9341773e24b0e34e07caccb892a6cb6"}, {"type": "electric_scooter", "fusion_lon": 0.0, "bike_id": "fab1d5c9f2c807bca5bd3c8e71c087b1", "is_disabled": 0, "lat": 38.871743, "rental_uris": {"ios": "https://dc.lft.to/lastmile_qr_scan", "android": "https://dc.lft.to/lastmile_qr_scan"}, "is_reserved": 0, "lon": -77.0057725, "fusion_lat": 0.0, "name": "fab1d5c9f2c807bca5bd3c8e71c087b1"}, {"type": "electric_scooter", "fusion_lon": 0.0, "bike_id": "b4ab5223f29278deb7f9342621877c8c", "is_disabled": 0, "lat": 38.891776666666665, "rental_uris": {"ios": "https://dc.lft.to/lastmile_qr_scan", "android": "https://dc.lft.to/lastmile_qr_scan"}, "is_reserved": 0, "lon": -76.92658083333333, "fusion_lat": 0.0, "name": "b4ab5223f29278deb7f9342621877c8c"}, {"type": "electric_scooter", "fusion_lon": 0.0, "bike_id": "6f4114647fe9010963f59fd9a00ac1e7", "is_disabled": 0, "lat": 38.918516333333336, "rental_uris": {"ios": "https://dc.lft.to/lastmile_qr_scan", "android": "https://dc.lft.to/lastmile_qr_scan"}, "is_reserved": 0, "lon": -77.0899825, "fusion_lat": 0.0, "name": "6f4114647fe9010963f59fd9a00ac1e7"}, {"type": "electric_scooter", "fusion_lon": 0.0, "bike_id": "524bf0e8279731acd32a5bdf736ad118", "is_disabled": 0, "lat": 38.8872075, "rental_uris": {"ios": "https://dc.lft.to/lastmile_qr_scan", "android": "https://dc.lft.to/lastmile_qr_scan"}, "is_reserved": 0, "lon": -77.02198516666667, "fusion_lat": 0.0, "name": "524bf0e8279731acd32a5bdf736ad118"}, {"type": "electric_scooter", "fusion_lon": 0.0, "bike_id": "4dcbeb29cdad04b9e75a46cf815a63bf", "is_disabled": 0, "lat": 38.9251575, "rental_uris": {"ios": "https://dc.lft.to/lastmile_qr_scan", "android": "https://dc.lft.to/lastmile_qr_scan"}, "is_reserved": 0, "lon": -77.022536, "fusion_lat": 0.0, "name": "4dcbeb29cdad04b9e75a46cf815a63bf"}, {"type": "electric_scooter", "fusion_lon": 0.0, "bike_id": "10a9405deecd017caa78ef9892162ba5", "is_disabled": 0, "lat": 38.8922165, "rental_uris": {"ios": "https://dc.lft.to/lastmile_qr_scan", "android": "https://dc.lft.to/lastmile_qr_scan"}, "is_reserved": 0, "lon": -77.04509833333333, "fusion_lat": 0.0, "name": "10a9405deecd017caa78ef9892162ba5"}, {"type": "electric_scooter", "fusion_lon": 0.0, "bike_id": "4ab24035b022da2eb04b99ee1a8b9671", "is_disabled": 0, "lat": 38.917814, "rental_uris": {"ios": "https://dc.lft.to/lastmile_qr_scan", "android": "https://dc.lft.to/lastmile_qr_scan"}, "is_reserved": 0, "lon": -77.02313816666667, "fusion_lat": 0.0, "name": "4ab24035b022da2eb04b99ee1a8b9671"}, {"type": "electric_bike", "fusion_lon": 0.0, "bike_id": "faa9729d2f5d17060291b1e5512d3c44", "is_disabled": 0, "lat": 38.8198445, "rental_uris": {"ios": "https://dc.lft.to/lastmile_qr_scan", "android": "https://dc.lft.to/lastmile_qr_scan"}, "is_reserved": 0, "lon": -76.998133, "fusion_lat": 0.0, "name": "faa9729d2f5d17060291b1e5512d3c44"}, {"type": "electric_scooter", "fusion_lon": 0.0, "bike_id": "7fdfa2d986ade0fec009b3a190954b50", "is_disabled": 0, "lat": 38.91684566666667, "rental_uris": {"ios": "https://dc.lft.to/lastmile_qr_scan", "android": "https://dc.lft.to/lastmile_qr_scan"}, "is_reserved": 0, "lon": -77.0295425, "fusion_lat": 0.0, "name": "7fdfa2d986ade0fec009b3a190954b50"}, {"type": "electric_scooter", "fusion_lon": 0.0, "bike_id": "a8751333afd52288a157e7f751eb5831", "is_disabled": 0, "lat": 38.89237383333333, "rental_uris": {"ios": "https://dc.lft.to/lastmile_qr_scan", "android": "https://dc.lft.to/lastmile_qr_scan"}, "is_reserved": 0, "lon": -77.0467455, "fusion_lat": 0.0, "name": "a8751333afd52288a157e7f751eb5831"}, {"type": "electric_bike", "fusion_lon": 0.0, "bike_id": "dc664898f35b678a70735e6fc02c3ac9", "is_disabled": 0, "lat": 38.89989533333333, "rental_uris": {"ios": "https://dc.lft.to/lastmile_qr_scan", "android": "https://dc.lft.to/lastmile_qr_scan"}, "is_reserved": 0, "lon": -77.0211935, "fusion_lat": 0.0, "name": "dc664898f35b678a70735e6fc02c3ac9"}, {"type": "electric_scooter", "fusion_lon": 0.0, "bike_id": "2ae6eeddf6b7674fd3f0320837531d14", "is_disabled": 0, "lat": 38.9065085, "rental_uris": {"ios": "https://dc.lft.to/lastmile_qr_scan", "android": "https://dc.lft.to/lastmile_qr_scan"}, "is_reserved": 0, "lon": -76.9837195, "fusion_lat": 0.0, "name": "2ae6eeddf6b7674fd3f0320837531d14"}, {"type": "electric_scooter", "fusion_lon": 0.0, "bike_id": "2248fb2a9ff800677068382577212d98", "is_disabled": 0, "lat": 38.912033, "rental_uris": {"ios": "https://dc.lft.to/lastmile_qr_scan", "android": "https://dc.lft.to/lastmile_qr_scan"}, "is_reserved": 0, "lon": -76.98770516666667, "fusion_lat": 0.0, "name": "2248fb2a9ff800677068382577212d98"}, {"type": "electric_scooter", "fusion_lon": 0.0, "bike_id": "de3ce1691db18a367012fb0aa2d10f0f", "is_disabled": 0, "lat": 38.892247, "rental_uris": {"ios": "https://dc.lft.to/lastmile_qr_scan", "android": "https://dc.lft.to/lastmile_qr_scan"}, "is_reserved": 0, "lon": -77.033387, "fusion_lat": 0.0, "name": "de3ce1691db18a367012fb0aa2d10f0f"}, {"type": "electric_scooter", "fusion_lon": 0.0, "bike_id": "e9e0288980511738b04e9e771cc5cb9a", "is_disabled": 0, "lat": 38.928708, "rental_uris": {"ios": "https://dc.lft.to/lastmile_qr_scan", "android": "https://dc.lft.to/lastmile_qr_scan"}, "is_reserved": 0, "lon": -77.03097966666667, "fusion_lat": 0.0, "name": "e9e0288980511738b04e9e771cc5cb9a"}, {"type": "electric_scooter", "fusion_lon": 0.0, "bike_id": "bdc88f63a67d972329bc2851e72b8b86", "is_disabled": 0, "lat": 38.89596816666667, "rental_uris": {"ios": "https://dc.lft.to/lastmile_qr_scan", "android": "https://dc.lft.to/lastmile_qr_scan"}, "is_reserved": 0, "lon": -77.04754883333334, "fusion_lat": 0.0, "name": "bdc88f63a67d972329bc2851e72b8b86"}, {"type": "electric_scooter", "fusion_lon": 0.0, "bike_id": "e12e2779f0c4dc4f5e886f15045ae82b", "is_disabled": 0, "lat": 38.922643, "rental_uris": {"ios": "https://dc.lft.to/lastmile_qr_scan", "android": "https://dc.lft.to/lastmile_qr_scan"}, "is_reserved": 0, "lon": -77.01824433333333, "fusion_lat": 0.0, "name": "e12e2779f0c4dc4f5e886f15045ae82b"}, {"type": "electric_scooter", "fusion_lon": 0.0, "bike_id": "e7d1db37890f2f4bde57750b40f8012d", "is_disabled": 0, "lat": 38.88414133333333, "rental_uris": {"ios": "https://dc.lft.to/lastmile_qr_scan", "android": "https://dc.lft.to/lastmile_qr_scan"}, "is_reserved": 0, "lon": -77.029694, "fusion_lat": 0.0, "name": "e7d1db37890f2f4bde57750b40f8012d"}, {"type": "electric_bike", "fusion_lon": 0.0, "bike_id": "66cea5e2047c10077972cb61b1251c89", "is_disabled": 0, "lat": 38.902576, "rental_uris": {"ios": "https://dc.lft.to/lastmile_qr_scan", "android": "https://dc.lft.to/lastmile_qr_scan"}, "is_reserved": 0, "lon": -77.04724083333333, "fusion_lat": 0.0, "name": "66cea5e2047c10077972cb61b1251c89"}, {"type": "electric_scooter", "fusion_lon": 0.0, "bike_id": "67d39f58717d4ff2142050a79a6be245", "is_disabled": 0, "lat": 38.885411166666664, "rental_uris": {"ios": "https://dc.lft.to/lastmile_qr_scan", "android": "https://dc.lft.to/lastmile_qr_scan"}, "is_reserved": 0, "lon": -77.0109785, "fusion_lat": 0.0, "name": "67d39f58717d4ff2142050a79a6be245"}, {"type": "electric_scooter", "fusion_lon": 0.0, "bike_id": "4e106d7359113a35e611ec03159a15dd", "is_disabled": 0, "lat": 38.91029316666667, "rental_uris": {"ios": "https://dc.lft.to/lastmile_qr_scan", "android": "https://dc.lft.to/lastmile_qr_scan"}, "is_reserved": 0, "lon": -77.046563, "fusion_lat": 0.0, "name": "4e106d7359113a35e611ec03159a15dd"}, {"type": "electric_scooter", "fusion_lon": 0.0, "bike_id": "e02f3203188873c50680b3e8b838c65d", "is_disabled": 0, "lat": 38.88736, "rental_uris": {"ios": "https://dc.lft.to/lastmile_qr_scan", "android": "https://dc.lft.to/lastmile_qr_scan"}, "is_reserved": 0, "lon": -77.03188183333333, "fusion_lat": 0.0, "name": "e02f3203188873c50680b3e8b838c65d"}, {"type": "electric_scooter", "fusion_lon": 0.0, "bike_id": "a63ba1402ffb52784a9d687ea4716b78", "is_disabled": 0, "lat": 38.933358166666665, "rental_uris": {"ios": "https://dc.lft.to/lastmile_qr_scan", "android": "https://dc.lft.to/lastmile_qr_scan"}, "is_reserved": 0, "lon": -77.03263766666667, "fusion_lat": 0.0, "name": "a63ba1402ffb52784a9d687ea4716b78"}, {"type": "electric_scooter", "fusion_lon": 0.0, "bike_id": "ff13ce9af40d4e714e812b54233aa608", "is_disabled": 0, "lat": 38.907228333333336, "rental_uris": {"ios": "https://dc.lft.to/lastmile_qr_scan", "android": "https://dc.lft.to/lastmile_qr_scan"}, "is_reserved": 0, "lon": -77.02167983333334, "fusion_lat": 0.0, "name": "ff13ce9af40d4e714e812b54233aa608"}, {"type": "electric_scooter", "fusion_lon": 0.0, "bike_id": "f1d62a4b685fc3bae77eef0254f6742b", "is_disabled": 0, "lat": 38.92714266666667, "rental_uris": {"ios": "https://dc.lft.to/lastmile_qr_scan", "android": "https://dc.lft.to/lastmile_qr_scan"}, "is_reserved": 0, "lon": -77.03760666666666, "fusion_lat": 0.0, "name": "f1d62a4b685fc3bae77eef0254f6742b"}, {"type": "electric_scooter", "fusion_lon": 0.0, "bike_id": "84673331d039510ab797c6888b84e3ae", "is_disabled": 0, "lat": 38.9222815, "rental_uris": {"ios": "https://dc.lft.to/lastmile_qr_scan", "android": "https://dc.lft.to/lastmile_qr_scan"}, "is_reserved": 0, "lon": -77.04712566666667, "fusion_lat": 0.0, "name": "84673331d039510ab797c6888b84e3ae"}, {"type": "electric_scooter", "fusion_lon": 0.0, "bike_id": "f410366e01ea140ffe113071cccf94d0", "is_disabled": 0, "lat": 38.9041495, "rental_uris": {"ios": "https://dc.lft.to/lastmile_qr_scan", "android": "https://dc.lft.to/lastmile_qr_scan"}, "is_reserved": 0, "lon": -76.973286, "fusion_lat": 0.0, "name": "f410366e01ea140ffe113071cccf94d0"}, {"type": "electric_scooter", "fusion_lon": 0.0, "bike_id": "ddfe4120c97548438175b7ca23803021", "is_disabled": 0, "lat": 38.90501416666667, "rental_uris": {"ios": "https://dc.lft.to/lastmile_qr_scan", "android": "https://dc.lft.to/lastmile_qr_scan"}, "is_reserved": 0, "lon": -76.97956916666666, "fusion_lat": 0.0, "name": "ddfe4120c97548438175b7ca23803021"}, {"type": "electric_scooter", "fusion_lon": 0.0, "bike_id": "05062b25a655cbbd54ea1bac65acf286", "is_disabled": 0, "lat": 38.8849045, "rental_uris": {"ios": "https://dc.lft.to/lastmile_qr_scan", "android": "https://dc.lft.to/lastmile_qr_scan"}, "is_reserved": 0, "lon": -77.00709533333334, "fusion_lat": 0.0, "name": "05062b25a655cbbd54ea1bac65acf286"}, {"type": "electric_scooter", "fusion_lon": 0.0, "bike_id": "3293125767a1bb56dc41ec4a4d7c0316", "is_disabled": 0, "lat": 38.89679816666667, "rental_uris": {"ios": "https://dc.lft.to/lastmile_qr_scan", "android": "https://dc.lft.to/lastmile_qr_scan"}, "is_reserved": 0, "lon": -77.02718683333333, "fusion_lat": 0.0, "name": "3293125767a1bb56dc41ec4a4d7c0316"}, {"type": "electric_scooter", "fusion_lon": 0.0, "bike_id": "d1dbfe1c0b9c4982c465b081ac37e876", "is_disabled": 0, "lat": 38.8995355, "rental_uris": {"ios": "https://dc.lft.to/lastmile_qr_scan", "android": "https://dc.lft.to/lastmile_qr_scan"}, "is_reserved": 0, "lon": -77.04778716666667, "fusion_lat": 0.0, "name": "d1dbfe1c0b9c4982c465b081ac37e876"}, {"type": "electric_bike", "fusion_lon": 0.0, "bike_id": "e8045d7bf42202b68d2f3a5e3c164832", "is_disabled": 0, "lat": 38.972562333333336, "rental_uris": {"ios": "https://dc.lft.to/lastmile_qr_scan", "android": "https://dc.lft.to/lastmile_qr_scan"}, "is_reserved": 0, "lon": -76.98060133333334, "fusion_lat": 0.0, "name": "e8045d7bf42202b68d2f3a5e3c164832"}, {"type": "electric_scooter", "fusion_lon": 0.0, "bike_id": "c65dadae3128486bbcb8a7083cdfb53a", "is_disabled": 0, "lat": 38.8971615, "rental_uris": {"ios": "https://dc.lft.to/lastmile_qr_scan", "android": "https://dc.lft.to/lastmile_qr_scan"}, "is_reserved": 0, "lon": -77.019735, "fusion_lat": 0.0, "name": "c65dadae3128486bbcb8a7083cdfb53a"}, {"type": "electric_scooter", "fusion_lon": 0.0, "bike_id": "3f930c793ee63b03d953402f40999f49", "is_disabled": 0, "lat": 38.9234065, "rental_uris": {"ios": "https://dc.lft.to/lastmile_qr_scan", "android": "https://dc.lft.to/lastmile_qr_scan"}, "is_reserved": 0, "lon": -77.05174216666667, "fusion_lat": 0.0, "name": "3f930c793ee63b03d953402f40999f49"}, {"type": "electric_scooter", "fusion_lon": 0.0, "bike_id": "339ab43115f775f20e9cec1ed346bbc5", "is_disabled": 0, "lat": 38.9421615, "rental_uris": {"ios": "https://dc.lft.to/lastmile_qr_scan", "android": "https://dc.lft.to/lastmile_qr_scan"}, "is_reserved": 0, "lon": -77.013534, "fusion_lat": 0.0, "name": "339ab43115f775f20e9cec1ed346bbc5"}, {"type": "electric_scooter", "fusion_lon": 0.0, "bike_id": "0c0352e274115a8936bcfc9fe18384d6", "is_disabled": 0, "lat": 38.91260783333333, "rental_uris": {"ios": "https://dc.lft.to/lastmile_qr_scan", "android": "https://dc.lft.to/lastmile_qr_scan"}, "is_reserved": 0, "lon": -77.0386985, "fusion_lat": 0.0, "name": "0c0352e274115a8936bcfc9fe18384d6"}, {"type": "electric_scooter", "fusion_lon": 0.0, "bike_id": "5e701d7cda8cb7770a04c5ded51672cc", "is_disabled": 0, "lat": 38.8944665, "rental_uris": {"ios": "https://dc.lft.to/lastmile_qr_scan", "android": "https://dc.lft.to/lastmile_qr_scan"}, "is_reserved": 0, "lon": -77.01069666666666, "fusion_lat": 0.0, "name": "5e701d7cda8cb7770a04c5ded51672cc"}, {"type": "electric_scooter", "fusion_lon": 0.0, "bike_id": "423156f382c4c7d4df4614c798c3fa7e", "is_disabled": 0, "lat": 38.92260066666667, "rental_uris": {"ios": "https://dc.lft.to/lastmile_qr_scan", "android": "https://dc.lft.to/lastmile_qr_scan"}, "is_reserved": 0, "lon": -77.01952033333333, "fusion_lat": 0.0, "name": "423156f382c4c7d4df4614c798c3fa7e"}, {"type": "electric_scooter", "fusion_lon": 0.0, "bike_id": "274a7c42aab47cae4eee8c041ba309a7", "is_disabled": 0, "lat": 38.90818683333333, "rental_uris": {"ios": "https://dc.lft.to/lastmile_qr_scan", "android": "https://dc.lft.to/lastmile_qr_scan"}, "is_reserved": 0, "lon": -77.03858116666666, "fusion_lat": 0.0, "name": "274a7c42aab47cae4eee8c041ba309a7"}, {"type": "electric_scooter", "fusion_lon": 0.0, "bike_id": "906d3123a0bfe477a48e2535056bf2a2", "is_disabled": 0, "lat": 38.89233566666667, "rental_uris": {"ios": "https://dc.lft.to/lastmile_qr_scan", "android": "https://dc.lft.to/lastmile_qr_scan"}, "is_reserved": 0, "lon": -77.04672466666666, "fusion_lat": 0.0, "name": "906d3123a0bfe477a48e2535056bf2a2"}, {"type": "electric_scooter", "fusion_lon": 0.0, "bike_id": "5cb2ce1c7ea482f8b27f216588c49236", "is_disabled": 0, "lat": 38.88513733333333, "rental_uris": {"ios": "https://dc.lft.to/lastmile_qr_scan", "android": "https://dc.lft.to/lastmile_qr_scan"}, "is_reserved": 0, "lon": -77.0282175, "fusion_lat": 0.0, "name": "5cb2ce1c7ea482f8b27f216588c49236"}, {"type": "electric_scooter", "fusion_lon": 0.0, "bike_id": "9b00c9b3d3b38cdc4e154eaf1e4e1405", "is_disabled": 0, "lat": 38.904348166666665, "rental_uris": {"ios": "https://dc.lft.to/lastmile_qr_scan", "android": "https://dc.lft.to/lastmile_qr_scan"}, "is_reserved": 0, "lon": -77.02588116666666, "fusion_lat": 0.0, "name": "9b00c9b3d3b38cdc4e154eaf1e4e1405"}, {"type": "electric_scooter", "fusion_lon": 0.0, "bike_id": "2db8b684ef20bd60e2fe7d0c52ccaeca", "is_disabled": 0, "lat": 38.92073583333333, "rental_uris": {"ios": "https://dc.lft.to/lastmile_qr_scan", "android": "https://dc.lft.to/lastmile_qr_scan"}, "is_reserved": 0, "lon": -76.99740016666667, "fusion_lat": 0.0, "name": "2db8b684ef20bd60e2fe7d0c52ccaeca"}, {"type": "electric_scooter", "fusion_lon": 0.0, "bike_id": "6b8d286ce8d9d2a9c1a57cc6fe6a118d", "is_disabled": 0, "lat": 38.9024445, "rental_uris": {"ios": "https://dc.lft.to/lastmile_qr_scan", "android": "https://dc.lft.to/lastmile_qr_scan"}, "is_reserved": 0, "lon": -77.04581466666667, "fusion_lat": 0.0, "name": "6b8d286ce8d9d2a9c1a57cc6fe6a118d"}, {"type": "electric_scooter", "fusion_lon": 0.0, "bike_id": "61b54892a35490992b9e0d6d5ceae99b", "is_disabled": 0, "lat": 38.92863366666667, "rental_uris": {"ios": "https://dc.lft.to/lastmile_qr_scan", "android": "https://dc.lft.to/lastmile_qr_scan"}, "is_reserved": 0, "lon": -77.0309965, "fusion_lat": 0.0, "name": "61b54892a35490992b9e0d6d5ceae99b"}, {"type": "electric_scooter", "fusion_lon": 0.0, "bike_id": "667429684d315941796f24c2344027e2", "is_disabled": 0, "lat": 38.9172895, "rental_uris": {"ios": "https://dc.lft.to/lastmile_qr_scan", "android": "https://dc.lft.to/lastmile_qr_scan"}, "is_reserved": 0, "lon": -77.0417845, "fusion_lat": 0.0, "name": "667429684d315941796f24c2344027e2"}, {"type": "electric_scooter", "fusion_lon": 0.0, "bike_id": "e61633cd95c49dc34f20604ec4de486b", "is_disabled": 0, "lat": 38.920733, "rental_uris": {"ios": "https://dc.lft.to/lastmile_qr_scan", "android": "https://dc.lft.to/lastmile_qr_scan"}, "is_reserved": 0, "lon": -77.02504916666666, "fusion_lat": 0.0, "name": "e61633cd95c49dc34f20604ec4de486b"}, {"type": "electric_scooter", "fusion_lon": 0.0, "bike_id": "615bb77298ac9eb63e61c0b4cd211349", "is_disabled": 0, "lat": 38.93852233333333, "rental_uris": {"ios": "https://dc.lft.to/lastmile_qr_scan", "android": "https://dc.lft.to/lastmile_qr_scan"}, "is_reserved": 0, "lon": -77.03391316666666, "fusion_lat": 0.0, "name": "615bb77298ac9eb63e61c0b4cd211349"}, {"type": "electric_scooter", "fusion_lon": 0.0, "bike_id": "67cd6e51559df9e6598cfb96d2e536b6", "is_disabled": 0, "lat": 38.90296383333333, "rental_uris": {"ios": "https://dc.lft.to/lastmile_qr_scan", "android": "https://dc.lft.to/lastmile_qr_scan"}, "is_reserved": 0, "lon": -77.024345, "fusion_lat": 0.0, "name": "67cd6e51559df9e6598cfb96d2e536b6"}, {"type": "electric_scooter", "fusion_lon": 0.0, "bike_id": "996570f683983f7c82b4d994debe41ef", "is_disabled": 0, "lat": 38.91564616666667, "rental_uris": {"ios": "https://dc.lft.to/lastmile_qr_scan", "android": "https://dc.lft.to/lastmile_qr_scan"}, "is_reserved": 0, "lon": -77.04173966666667, "fusion_lat": 0.0, "name": "996570f683983f7c82b4d994debe41ef"}, {"type": "electric_scooter", "fusion_lon": 0.0, "bike_id": "759e2dc8d11ae538bed88211f940df16", "is_disabled": 0, "lat": 38.928027166666666, "rental_uris": {"ios": "https://dc.lft.to/lastmile_qr_scan", "android": "https://dc.lft.to/lastmile_qr_scan"}, "is_reserved": 0, "lon": -77.02387283333333, "fusion_lat": 0.0, "name": "759e2dc8d11ae538bed88211f940df16"}, {"type": "electric_scooter", "fusion_lon": 0.0, "bike_id": "87d23b473c43f19e737324b2f20d7150", "is_disabled": 0, "lat": 38.9076705, "rental_uris": {"ios": "https://dc.lft.to/lastmile_qr_scan", "android": "https://dc.lft.to/lastmile_qr_scan"}, "is_reserved": 0, "lon": -77.00925333333333, "fusion_lat": 0.0, "name": "87d23b473c43f19e737324b2f20d7150"}, {"type": "electric_bike", "fusion_lon": 0.0, "bike_id": "3b88dde3c7a7d21314f598c9a3b27ca2", "is_disabled": 0, "lat": 38.86334083333333, "rental_uris": {"ios": "https://dc.lft.to/lastmile_qr_scan", "android": "https://dc.lft.to/lastmile_qr_scan"}, "is_reserved": 0, "lon": -76.98722216666667, "fusion_lat": 0.0, "name": "3b88dde3c7a7d21314f598c9a3b27ca2"}, {"type": "electric_scooter", "fusion_lon": 0.0, "bike_id": "7c7c73154444fa678697cd63cc0bfc53", "is_disabled": 0, "lat": 38.972149333333334, "rental_uris": {"ios": "https://dc.lft.to/lastmile_qr_scan", "android": "https://dc.lft.to/lastmile_qr_scan"}, "is_reserved": 0, "lon": -77.03334333333333, "fusion_lat": 0.0, "name": "7c7c73154444fa678697cd63cc0bfc53"}, {"type": "electric_scooter", "fusion_lon": 0.0, "bike_id": "6163afb8cbe67cc7c30d27ed391049e4", "is_disabled": 0, "lat": 38.90003333333333, "rental_uris": {"ios": "https://dc.lft.to/lastmile_qr_scan", "android": "https://dc.lft.to/lastmile_qr_scan"}, "is_reserved": 0, "lon": -77.05236116666667, "fusion_lat": 0.0, "name": "6163afb8cbe67cc7c30d27ed391049e4"}, {"type": "electric_bike", "fusion_lon": 0.0, "bike_id": "22c78a5a8e6a3f28dd1c78a71a32442d", "is_disabled": 0, "lat": 38.87135266666667, "rental_uris": {"ios": "https://dc.lft.to/lastmile_qr_scan", "android": "https://dc.lft.to/lastmile_qr_scan"}, "is_reserved": 0, "lon": -76.93726766666667, "fusion_lat": 0.0, "name": "22c78a5a8e6a3f28dd1c78a71a32442d"}, {"type": "electric_scooter", "fusion_lon": 0.0, "bike_id": "0aaab1e7ee9197b9edecec8a17de022f", "is_disabled": 0, "lat": 38.900156333333335, "rental_uris": {"ios": "https://dc.lft.to/lastmile_qr_scan", "android": "https://dc.lft.to/lastmile_qr_scan"}, "is_reserved": 0, "lon": -77.00672683333333, "fusion_lat": 0.0, "name": "0aaab1e7ee9197b9edecec8a17de022f"}, {"type": "electric_scooter", "fusion_lon": 0.0, "bike_id": "96b9486964d93b42fb4c1b61baa1c785", "is_disabled": 0, "lat": 38.91949833333334, "rental_uris": {"ios": "https://dc.lft.to/lastmile_qr_scan", "android": "https://dc.lft.to/lastmile_qr_scan"}, "is_reserved": 0, "lon": -77.01781733333333, "fusion_lat": 0.0, "name": "96b9486964d93b42fb4c1b61baa1c785"}, {"type": "electric_scooter", "fusion_lon": 0.0, "bike_id": "a48e4516910d22b9d23192dcae571ccd", "is_disabled": 0, "lat": 38.899884166666666, "rental_uris": {"ios": "https://dc.lft.to/lastmile_qr_scan", "android": "https://dc.lft.to/lastmile_qr_scan"}, "is_reserved": 0, "lon": -77.0222235, "fusion_lat": 0.0, "name": "a48e4516910d22b9d23192dcae571ccd"}, {"type": "electric_scooter", "fusion_lon": 0.0, "bike_id": "8d935ffe730cc41d8f941461272f951e", "is_disabled": 0, "lat": 38.920909, "rental_uris": {"ios": "https://dc.lft.to/lastmile_qr_scan", "android": "https://dc.lft.to/lastmile_qr_scan"}, "is_reserved": 0, "lon": -77.02509016666667, "fusion_lat": 0.0, "name": "8d935ffe730cc41d8f941461272f951e"}, {"type": "electric_scooter", "fusion_lon": 0.0, "bike_id": "d156b1b7e1d6182d562e973155119ef8", "is_disabled": 0, "lat": 38.890604333333336, "rental_uris": {"ios": "https://dc.lft.to/lastmile_qr_scan", "android": "https://dc.lft.to/lastmile_qr_scan"}, "is_reserved": 0, "lon": -76.93760066666667, "fusion_lat": 0.0, "name": "d156b1b7e1d6182d562e973155119ef8"}, {"type": "electric_scooter", "fusion_lon": 0.0, "bike_id": "2d00de0e29c3fe1aa57e35ee97d5f7b1", "is_disabled": 0, "lat": 38.9042465, "rental_uris": {"ios": "https://dc.lft.to/lastmile_qr_scan", "android": "https://dc.lft.to/lastmile_qr_scan"}, "is_reserved": 0, "lon": -77.032698, "fusion_lat": 0.0, "name": "2d00de0e29c3fe1aa57e35ee97d5f7b1"}, {"type": "electric_scooter", "fusion_lon": 0.0, "bike_id": "00f86bf0b6f5d99a5b9e76b4a6312800", "is_disabled": 0, "lat": 38.9189105, "rental_uris": {"ios": "https://dc.lft.to/lastmile_qr_scan", "android": "https://dc.lft.to/lastmile_qr_scan"}, "is_reserved": 0, "lon": -77.038206, "fusion_lat": 0.0, "name": "00f86bf0b6f5d99a5b9e76b4a6312800"}, {"type": "electric_scooter", "fusion_lon": 0.0, "bike_id": "6308c619db49aeb5d8971714c8cd7065", "is_disabled": 0, "lat": 38.904293333333335, "rental_uris": {"ios": "https://dc.lft.to/lastmile_qr_scan", "android": "https://dc.lft.to/lastmile_qr_scan"}, "is_reserved": 0, "lon": -77.04274716666667, "fusion_lat": 0.0, "name": "6308c619db49aeb5d8971714c8cd7065"}, {"type": "electric_scooter", "fusion_lon": 0.0, "bike_id": "075ede2cc9500dc547d84250d536a88d", "is_disabled": 0, "lat": 38.93436916666667, "rental_uris": {"ios": "https://dc.lft.to/lastmile_qr_scan", "android": "https://dc.lft.to/lastmile_qr_scan"}, "is_reserved": 0, "lon": -77.0400065, "fusion_lat": 0.0, "name": "075ede2cc9500dc547d84250d536a88d"}, {"type": "electric_scooter", "fusion_lon": 0.0, "bike_id": "d99166d8d3d1551895d393ea2560920d", "is_disabled": 0, "lat": 38.912925333333334, "rental_uris": {"ios": "https://dc.lft.to/lastmile_qr_scan", "android": "https://dc.lft.to/lastmile_qr_scan"}, "is_reserved": 0, "lon": -77.04516083333333, "fusion_lat": 0.0, "name": "d99166d8d3d1551895d393ea2560920d"}, {"type": "electric_scooter", "fusion_lon": 0.0, "bike_id": "11d54d70311790e84d73a8312e1978a6", "is_disabled": 0, "lat": 38.92036, "rental_uris": {"ios": "https://dc.lft.to/lastmile_qr_scan", "android": "https://dc.lft.to/lastmile_qr_scan"}, "is_reserved": 0, "lon": -77.01218716666666, "fusion_lat": 0.0, "name": "11d54d70311790e84d73a8312e1978a6"}, {"type": "electric_scooter", "fusion_lon": 0.0, "bike_id": "f6f476286974a408cfb967cde5469d2a", "is_disabled": 0, "lat": 38.90093683333333, "rental_uris": {"ios": "https://dc.lft.to/lastmile_qr_scan", "android": "https://dc.lft.to/lastmile_qr_scan"}, "is_reserved": 0, "lon": -77.02527583333334, "fusion_lat": 0.0, "name": "f6f476286974a408cfb967cde5469d2a"}, {"type": "electric_scooter", "fusion_lon": 0.0, "bike_id": "01c1cae50c33812449e00a2b6a83364c", "is_disabled": 0, "lat": 38.9076475, "rental_uris": {"ios": "https://dc.lft.to/lastmile_qr_scan", "android": "https://dc.lft.to/lastmile_qr_scan"}, "is_reserved": 0, "lon": -76.99929383333334, "fusion_lat": 0.0, "name": "01c1cae50c33812449e00a2b6a83364c"}, {"type": "electric_scooter", "fusion_lon": 0.0, "bike_id": "fc87356ddffff44de9ef735acd05597e", "is_disabled": 0, "lat": 38.92838783333333, "rental_uris": {"ios": "https://dc.lft.to/lastmile_qr_scan", "android": "https://dc.lft.to/lastmile_qr_scan"}, "is_reserved": 0, "lon": -77.01372966666666, "fusion_lat": 0.0, "name": "fc87356ddffff44de9ef735acd05597e"}, {"type": "electric_scooter", "fusion_lon": 0.0, "bike_id": "1543d07c8af3f35794739df6b94e4e34", "is_disabled": 0, "lat": 38.936902833333335, "rental_uris": {"ios": "https://dc.lft.to/lastmile_qr_scan", "android": "https://dc.lft.to/lastmile_qr_scan"}, "is_reserved": 0, "lon": -77.0362745, "fusion_lat": 0.0, "name": "1543d07c8af3f35794739df6b94e4e34"}, {"type": "electric_scooter", "fusion_lon": 0.0, "bike_id": "9aa2dc4f8146247fa0431dc872941fca", "is_disabled": 0, "lat": 38.90833683333334, "rental_uris": {"ios": "https://dc.lft.to/lastmile_qr_scan", "android": "https://dc.lft.to/lastmile_qr_scan"}, "is_reserved": 0, "lon": -77.034677, "fusion_lat": 0.0, "name": "9aa2dc4f8146247fa0431dc872941fca"}, {"type": "electric_scooter", "fusion_lon": 0.0, "bike_id": "412e2197d330c95197c7048ca958c15a", "is_disabled": 0, "lat": 38.91905333333333, "rental_uris": {"ios": "https://dc.lft.to/lastmile_qr_scan", "android": "https://dc.lft.to/lastmile_qr_scan"}, "is_reserved": 0, "lon": -77.02107983333333, "fusion_lat": 0.0, "name": "412e2197d330c95197c7048ca958c15a"}, {"type": "electric_scooter", "fusion_lon": 0.0, "bike_id": "2c2874ce88fdde0a48d5e8170291a065", "is_disabled": 0, "lat": 38.892234, "rental_uris": {"ios": "https://dc.lft.to/lastmile_qr_scan", "android": "https://dc.lft.to/lastmile_qr_scan"}, "is_reserved": 0, "lon": -77.04859116666667, "fusion_lat": 0.0, "name": "2c2874ce88fdde0a48d5e8170291a065"}, {"type": "electric_scooter", "fusion_lon": 0.0, "bike_id": "74e2c366ab2027e23c8af03dc6aab5c5", "is_disabled": 0, "lat": 38.909799666666665, "rental_uris": {"ios": "https://dc.lft.to/lastmile_qr_scan", "android": "https://dc.lft.to/lastmile_qr_scan"}, "is_reserved": 0, "lon": -77.03852366666666, "fusion_lat": 0.0, "name": "74e2c366ab2027e23c8af03dc6aab5c5"}, {"type": "electric_scooter", "fusion_lon": 0.0, "bike_id": "5efef18bc03fdaeae67ea3f49b6d8019", "is_disabled": 0, "lat": 38.937475666666664, "rental_uris": {"ios": "https://dc.lft.to/lastmile_qr_scan", "android": "https://dc.lft.to/lastmile_qr_scan"}, "is_reserved": 0, "lon": -77.06867016666666, "fusion_lat": 0.0, "name": "5efef18bc03fdaeae67ea3f49b6d8019"}, {"type": "electric_scooter", "fusion_lon": 0.0, "bike_id": "d9ef60a448b63f628a548b615b1c75a0", "is_disabled": 0, "lat": 38.9076775, "rental_uris": {"ios": "https://dc.lft.to/lastmile_qr_scan", "android": "https://dc.lft.to/lastmile_qr_scan"}, "is_reserved": 0, "lon": -77.00374583333333, "fusion_lat": 0.0, "name": "d9ef60a448b63f628a548b615b1c75a0"}, {"type": "electric_scooter", "fusion_lon": 0.0, "bike_id": "eda03343360c9063aa4de371b687a388", "is_disabled": 0, "lat": 38.9112765, "rental_uris": {"ios": "https://dc.lft.to/lastmile_qr_scan", "android": "https://dc.lft.to/lastmile_qr_scan"}, "is_reserved": 0, "lon": -77.04363733333334, "fusion_lat": 0.0, "name": "eda03343360c9063aa4de371b687a388"}, {"type": "electric_scooter", "fusion_lon": 0.0, "bike_id": "3bc18291b4b5ae47f3043775f658574f", "is_disabled": 0, "lat": 38.927539833333334, "rental_uris": {"ios": "https://dc.lft.to/lastmile_qr_scan", "android": "https://dc.lft.to/lastmile_qr_scan"}, "is_reserved": 0, "lon": -77.032719, "fusion_lat": 0.0, "name": "3bc18291b4b5ae47f3043775f658574f"}, {"type": "electric_scooter", "fusion_lon": 0.0, "bike_id": "1a735e75f1991300ec45328a773004c1", "is_disabled": 0, "lat": 38.86671283333333, "rental_uris": {"ios": "https://dc.lft.to/lastmile_qr_scan", "android": "https://dc.lft.to/lastmile_qr_scan"}, "is_reserved": 0, "lon": -76.9836695, "fusion_lat": 0.0, "name": "1a735e75f1991300ec45328a773004c1"}, {"type": "electric_scooter", "fusion_lon": 0.0, "bike_id": "a297bc2520aae7036ed805475d907f75", "is_disabled": 0, "lat": 38.88540916666667, "rental_uris": {"ios": "https://dc.lft.to/lastmile_qr_scan", "android": "https://dc.lft.to/lastmile_qr_scan"}, "is_reserved": 0, "lon": -77.00595633333333, "fusion_lat": 0.0, "name": "a297bc2520aae7036ed805475d907f75"}, {"type": "electric_scooter", "fusion_lon": 0.0, "bike_id": "a687e7f5979fca560d238e9a16831447", "is_disabled": 0, "lat": 38.910533666666666, "rental_uris": {"ios": "https://dc.lft.to/lastmile_qr_scan", "android": "https://dc.lft.to/lastmile_qr_scan"}, "is_reserved": 0, "lon": -77.043501, "fusion_lat": 0.0, "name": "a687e7f5979fca560d238e9a16831447"}, {"type": "electric_scooter", "fusion_lon": 0.0, "bike_id": "d801f2261c793072887ae93f42a31a70", "is_disabled": 0, "lat": 38.892283166666665, "rental_uris": {"ios": "https://dc.lft.to/lastmile_qr_scan", "android": "https://dc.lft.to/lastmile_qr_scan"}, "is_reserved": 0, "lon": -77.0486265, "fusion_lat": 0.0, "name": "d801f2261c793072887ae93f42a31a70"}, {"type": "electric_scooter", "fusion_lon": 0.0, "bike_id": "1354441fc6a9adb3da497f4570476e0a", "is_disabled": 0, "lat": 38.941931833333335, "rental_uris": {"ios": "https://dc.lft.to/lastmile_qr_scan", "android": "https://dc.lft.to/lastmile_qr_scan"}, "is_reserved": 0, "lon": -77.03324, "fusion_lat": 0.0, "name": "1354441fc6a9adb3da497f4570476e0a"}, {"type": "electric_scooter", "fusion_lon": 0.0, "bike_id": "615b59587d70dba8e401ea2a260dc85e", "is_disabled": 0, "lat": 38.89528966666666, "rental_uris": {"ios": "https://dc.lft.to/lastmile_qr_scan", "android": "https://dc.lft.to/lastmile_qr_scan"}, "is_reserved": 0, "lon": -77.03928983333333, "fusion_lat": 0.0, "name": "615b59587d70dba8e401ea2a260dc85e"}, {"type": "electric_scooter", "fusion_lon": 0.0, "bike_id": "884160feb0437064b98ebe0b633ecf8f", "is_disabled": 0, "lat": 38.900338, "rental_uris": {"ios": "https://dc.lft.to/lastmile_qr_scan", "android": "https://dc.lft.to/lastmile_qr_scan"}, "is_reserved": 0, "lon": -77.03709983333333, "fusion_lat": 0.0, "name": "884160feb0437064b98ebe0b633ecf8f"}, {"type": "electric_scooter", "fusion_lon": 0.0, "bike_id": "495acd9e822802dc348d3ec519aa8aa8", "is_disabled": 0, "lat": 38.8934185, "rental_uris": {"ios": "https://dc.lft.to/lastmile_qr_scan", "android": "https://dc.lft.to/lastmile_qr_scan"}, "is_reserved": 0, "lon": -76.991628, "fusion_lat": 0.0, "name": "495acd9e822802dc348d3ec519aa8aa8"}, {"type": "electric_scooter", "fusion_lon": 0.0, "bike_id": "274d0845088e58ba0fd92a6fb7e5064d", "is_disabled": 0, "lat": 38.984347666666665, "rental_uris": {"ios": "https://dc.lft.to/lastmile_qr_scan", "android": "https://dc.lft.to/lastmile_qr_scan"}, "is_reserved": 0, "lon": -77.0267375, "fusion_lat": 0.0, "name": "274d0845088e58ba0fd92a6fb7e5064d"}, {"type": "electric_scooter", "fusion_lon": 0.0, "bike_id": "8be264171085071008f183694e821aa7", "is_disabled": 0, "lat": 38.902883833333334, "rental_uris": {"ios": "https://dc.lft.to/lastmile_qr_scan", "android": "https://dc.lft.to/lastmile_qr_scan"}, "is_reserved": 0, "lon": -77.03476333333333, "fusion_lat": 0.0, "name": "8be264171085071008f183694e821aa7"}, {"type": "electric_scooter", "fusion_lon": 0.0, "bike_id": "fa8f831054e6bd7cafc02fa85a140745", "is_disabled": 0, "lat": 38.90194733333333, "rental_uris": {"ios": "https://dc.lft.to/lastmile_qr_scan", "android": "https://dc.lft.to/lastmile_qr_scan"}, "is_reserved": 0, "lon": -76.92633866666667, "fusion_lat": 0.0, "name": "fa8f831054e6bd7cafc02fa85a140745"}, {"type": "electric_scooter", "fusion_lon": 0.0, "bike_id": "686b6ea20e9de24543bdacabe5790c60", "is_disabled": 0, "lat": 38.924776, "rental_uris": {"ios": "https://dc.lft.to/lastmile_qr_scan", "android": "https://dc.lft.to/lastmile_qr_scan"}, "is_reserved": 0, "lon": -77.0221295, "fusion_lat": 0.0, "name": "686b6ea20e9de24543bdacabe5790c60"}, {"type": "electric_scooter", "fusion_lon": 0.0, "bike_id": "fb6ec6dc80244d728ecf9fd0b39fc5c1", "is_disabled": 0, "lat": 38.905825666666665, "rental_uris": {"ios": "https://dc.lft.to/lastmile_qr_scan", "android": "https://dc.lft.to/lastmile_qr_scan"}, "is_reserved": 0, "lon": -77.00069333333333, "fusion_lat": 0.0, "name": "fb6ec6dc80244d728ecf9fd0b39fc5c1"}, {"type": "electric_scooter", "fusion_lon": 0.0, "bike_id": "21e482f393755fbc1a3cd8fd53ca86ac", "is_disabled": 0, "lat": 38.915519833333335, "rental_uris": {"ios": "https://dc.lft.to/lastmile_qr_scan", "android": "https://dc.lft.to/lastmile_qr_scan"}, "is_reserved": 0, "lon": -77.0324185, "fusion_lat": 0.0, "name": "21e482f393755fbc1a3cd8fd53ca86ac"}, {"type": "electric_scooter", "fusion_lon": 0.0, "bike_id": "22d7369894ac9be76fd4e1de15b1d634", "is_disabled": 0, "lat": 38.905653, "rental_uris": {"ios": "https://dc.lft.to/lastmile_qr_scan", "android": "https://dc.lft.to/lastmile_qr_scan"}, "is_reserved": 0, "lon": -77.0461555, "fusion_lat": 0.0, "name": "22d7369894ac9be76fd4e1de15b1d634"}, {"type": "electric_scooter", "fusion_lon": 0.0, "bike_id": "42329f3cb1a2efb5f00255086e0c4d9a", "is_disabled": 0, "lat": 38.864725166666666, "rental_uris": {"ios": "https://dc.lft.to/lastmile_qr_scan", "android": "https://dc.lft.to/lastmile_qr_scan"}, "is_reserved": 0, "lon": -76.98230716666667, "fusion_lat": 0.0, "name": "42329f3cb1a2efb5f00255086e0c4d9a"}, {"type": "electric_scooter", "fusion_lon": 0.0, "bike_id": "8da8b80498feada8894727dbba640262", "is_disabled": 0, "lat": 38.919256833333336, "rental_uris": {"ios": "https://dc.lft.to/lastmile_qr_scan", "android": "https://dc.lft.to/lastmile_qr_scan"}, "is_reserved": 0, "lon": -77.02496533333333, "fusion_lat": 0.0, "name": "8da8b80498feada8894727dbba640262"}, {"type": "electric_scooter", "fusion_lon": 0.0, "bike_id": "eaca08ecd9b0798fb9f8cb91e1a31803", "is_disabled": 0, "lat": 38.927839666666664, "rental_uris": {"ios": "https://dc.lft.to/lastmile_qr_scan", "android": "https://dc.lft.to/lastmile_qr_scan"}, "is_reserved": 0, "lon": -77.01530933333333, "fusion_lat": 0.0, "name": "eaca08ecd9b0798fb9f8cb91e1a31803"}, {"type": "electric_scooter", "fusion_lon": 0.0, "bike_id": "66403b7935a9618fad7b28e5ee1591b1", "is_disabled": 0, "lat": 38.909546, "rental_uris": {"ios": "https://dc.lft.to/lastmile_qr_scan", "android": "https://dc.lft.to/lastmile_qr_scan"}, "is_reserved": 0, "lon": -77.04887983333333, "fusion_lat": 0.0, "name": "66403b7935a9618fad7b28e5ee1591b1"}, {"type": "electric_scooter", "fusion_lon": 0.0, "bike_id": "7979560b1de451c737615529320f525a", "is_disabled": 0, "lat": 38.900186833333336, "rental_uris": {"ios": "https://dc.lft.to/lastmile_qr_scan", "android": "https://dc.lft.to/lastmile_qr_scan"}, "is_reserved": 0, "lon": -77.0403375, "fusion_lat": 0.0, "name": "7979560b1de451c737615529320f525a"}, {"type": "electric_scooter", "fusion_lon": 0.0, "bike_id": "15eea3e9068cfa8a0f0b3a27e42d10c4", "is_disabled": 0, "lat": 38.90390683333333, "rental_uris": {"ios": "https://dc.lft.to/lastmile_qr_scan", "android": "https://dc.lft.to/lastmile_qr_scan"}, "is_reserved": 0, "lon": -76.9848625, "fusion_lat": 0.0, "name": "15eea3e9068cfa8a0f0b3a27e42d10c4"},