{"data": {"bikes": [{"lat": 38.86665566666667, "is_disabled": 0, "type": "electric_scooter", "lon": -76.98906833333334, "bike_id": "0c365032b4f91506b804860a54744c46", "fusion_lat": 0.0, "name": "0c365032b4f91506b804860a54744c46", "is_reserved": 0, "rental_uris": {"android": "https://dc.lft.to/lastmile_qr_scan", "ios": "https://dc.lft.to/lastmile_qr_scan"}, "fusion_lon": 0.0}, {"lat": 38.92440116666667, "is_disabled": 0, "type": "electric_scooter", "lon": -77.0335665, "bike_id": "7fa2fd6e5b54424ecbc263042594c2b2", "fusion_lat": 0.0, "name": "7fa2fd6e5b54424ecbc263042594c2b2", "is_reserved": 0, "rental_uris": {"android": "https://dc.lft.to/lastmile_qr_scan", "ios": "https://dc.lft.to/lastmile_qr_scan"}, "fusion_lon": 0.0}, {"lat": 38.9302925, "is_disabled": 0, "type": "electric_scooter", "lon": -77.0204655, "bike_id": "3240215575bc0e6b69481a785d6aed62", "fusion_lat": 0.0, "name": "3240215575bc0e6b69481a785d6aed62", "is_reserved": 0, "rental_uris": {"android": "https://dc.lft.to/lastmile_qr_scan", "ios": "https://dc.lft.to/lastmile_qr_scan"}, "fusion_lon": 0.0}, {"lat": 38.9147045, "is_disabled": 0, "type": "electric_scooter", "lon": -77.06690566666667, "bike_id": "8bf06d824c83c1858aa2cdc33713698a", "fusion_lat": 0.0, "name": "8bf06d824c83c1858aa2cdc33713698a", "is_reserved": 0, "rental_uris": {"android": "https://dc.lft.to/lastmile_qr_scan", "ios": "https://dc.lft.to/lastmile_qr_scan"}, "fusion_lon": 0.0}, {"lat": 38.90991233333333, "is_disabled": 0, "type": "electric_scooter", "lon": -76.9973785, "bike_id": "eca8a23507a87db6566bc94e57c9eaad", "fusion_lat": 0.0, "name": "eca8a23507a87db6566bc94e57c9eaad", "is_reserved": 0, "rental_uris": {"android": "https://dc.lft.to/lastmile_qr_scan", "ios": "https://dc.lft.to/lastmile_qr_scan"}, "fusion_lon": 0.0}, {"lat": 38.9265545, "is_disabled": 0, "type": "electric_scooter", "lon": -77.02414033333334, "bike_id": "68f83a6afe17792b171280eb7d957ff0", "fusion_lat": 0.0, "name": "68f83a6afe17792b171280eb7d957ff0", "is_reserved": 0, "rental_uris": {"android": "https://dc.lft.to/lastmile_qr_scan", "ios": "https://dc.lft.to/lastmile_qr_scan"}, "fusion_lon": 0.0}, {"lat": 38.924085833333336, "is_disabled": 0, "type": "electric_scooter", "lon": -77.03416466666667, "bike_id": "c01fab7548f977fac703ff0b5391b218", "fusion_lat": 0.0, "name": "c01fab7548f977fac703ff0b5391b218", "is_reserved": 0, "rental_uris": {"android": "https://dc.lft.to/lastmile_qr_scan", "ios": "https://dc.lft.to/lastmile_qr_scan"}, "fusion_lon": 0.0}, {"lat": 38.929750166666665, "is_disabled": 0, "type": "electric_scooter", "lon": -77.03209566666666, "bike_id": "382628708388d59637aff99e5a02d50a", "fusion_lat": 0.0, "name": "382628708388d59637aff99e5a02d50a", "is_reserved": 0, "rental_uris": {"android": "https://dc.lft.to/lastmile_qr_scan", "ios": "https://dc.lft.to/lastmile_qr_scan"}, "fusion_lon": 0.0}, {"lat": 38.884047333333335, "is_disabled": 0, "type": "electric_bike", "lon": -76.96054716666667, "bike_id": "6f402c4e752a8b87ec04a5d5e7ee0499", "fusion_lat": 0.0, "name": "6f402c4e752a8b87ec04a5d5e7ee0499", "is_reserved": 0, "rental_uris": {"android": "https://dc.lft.to/lastmile_qr_scan", "ios": "https://dc.lft.to/lastmile_qr_scan"}, "fusion_lon": 0.0}, {"lat": 38.93635, "is_disabled": 0, "type": "electric_scooter", "lon": -77.03666833333334, "bike_id": "87ef44d330851ad4456117fb4511589a", "fusion_lat": 0.0, "name": "87ef44d330851ad4456117fb4511589a", "is_reserved": 0, "rental_uris": {"android": "https://dc.lft.to/lastmile_qr_scan", "ios": "https://dc.lft.to/lastmile_qr_scan"}, "fusion_lon": 0.0}, {"lat": 38.90831083333333, "is_disabled": 0, "type": "electric_scooter", "lon": -76.9414615, "bike_id": "b6129e436310ba3349defd57474b013d", "fusion_lat": 0.0, "name": "b6129e436310ba3349defd57474b013d", "is_reserved": 0, "rental_uris": {"android": "https://dc.lft.to/lastmile_qr_scan", "ios": "https://dc.lft.to/lastmile_qr_scan"}, "fusion_lon": 0.0}, {"lat": 38.92942433333333, "is_disabled": 0, "type": "electric_scooter", "lon": -77.0198765, "bike_id": "9e7465afda947e51936106d6a0e8c1aa", "fusion_lat": 0.0, "name": "9e7465afda947e51936106d6a0e8c1aa", "is_reserved": 0, "rental_uris": {"android": "https://dc.lft.to/lastmile_qr_scan", "ios": "https://dc.lft.to/lastmile_qr_scan"}, "fusion_lon": 0.0}, {"lat": 38.924073666666665, "is_disabled": 0, "type": "electric_scooter", "lon": -77.0526345, "bike_id": "62094dda657fbb8503ca98a2c82ca818", "fusion_lat": 0.0, "name": "62094dda657fbb8503ca98a2c82ca818", "is_reserved": 0, "rental_uris": {"android": "https://dc.lft.to/lastmile_qr_scan", "ios": "https://dc.lft.to/lastmile_qr_scan"}, "fusion_lon": 0.0}, {"lat": 38.904222, "is_disabled": 0, "type": "electric_scooter", "lon": -77.02503516666667, "bike_id": "f40a04bbaefa6e5215857d37e2a12e97", "fusion_lat": 0.0, "name": "f40a04bbaefa6e5215857d37e2a12e97", "is_reserved": 0, "rental_uris": {"android": "https://dc.lft.to/lastmile_qr_scan", "ios": "https://dc.lft.to/lastmile_qr_scan"}, "fusion_lon": 0.0}, {"lat": 38.924043, "is_disabled": 0, "type": "electric_scooter", "lon": -77.0256175, "bike_id": "0fa0fa2d1c4b30281d756ecf461209f9", "fusion_lat": 0.0, "name": "0fa0fa2d1c4b30281d756ecf461209f9", "is_reserved": 0, "rental_uris": {"android": "https://dc.lft.to/lastmile_qr_scan", "ios": "https://dc.lft.to/lastmile_qr_scan"}, "fusion_lon": 0.0}, {"lat": 38.881152666666665, "is_disabled": 0, "type": "electric_scooter", "lon": -77.016621, "bike_id": "5c309674ea19732afb429217438b0f4e", "fusion_lat": 0.0, "name": "5c309674ea19732afb429217438b0f4e", "is_reserved": 0, "rental_uris": {"android": "https://dc.lft.to/lastmile_qr_scan", "ios": "https://dc.lft.to/lastmile_qr_scan"}, "fusion_lon": 0.0}, {"lat": 38.912578333333336, "is_disabled": 0, "type": "electric_scooter", "lon": -77.03864066666667, "bike_id": "bb75491b0833a7e3e767f8a9bcaae34d", "fusion_lat": 0.0, "name": "bb75491b0833a7e3e767f8a9bcaae34d", "is_reserved": 0, "rental_uris": {"android": "https://dc.lft.to/lastmile_qr_scan", "ios": "https://dc.lft.to/lastmile_qr_scan"}, "fusion_lon": 0.0}, {"lat": 38.839844166666666, "is_disabled": 0, "type": "electric_bike", "lon": -77.00569333333334, "bike_id": "f414cc036ecd4e0f443e53f021b3940d", "fusion_lat": 0.0, "name": "f414cc036ecd4e0f443e53f021b3940d", "is_reserved": 0, "rental_uris": {"android": "https://dc.lft.to/lastmile_qr_scan", "ios": "https://dc.lft.to/lastmile_qr_scan"}, "fusion_lon": 0.0}, {"lat": 38.90981216666667, "is_disabled": 0, "type": "electric_scooter", "lon": -76.98468883333334, "bike_id": "ad079fc2fe314435d312eea3a465c8c4", "fusion_lat": 0.0, "name": "ad079fc2fe314435d312eea3a465c8c4", "is_reserved": 0, "rental_uris": {"android": "https://dc.lft.to/lastmile_qr_scan", "ios": "https://dc.lft.to/lastmile_qr_scan"}, "fusion_lon": 0.0}, {"lat": 38.900442166666664, "is_disabled": 0, "type": "electric_scooter", "lon": -76.995068, "bike_id": "1853ad792398747bc31726c2716eb38c", "fusion_lat": 0.0, "name": "1853ad792398747bc31726c2716eb38c", "is_reserved": 0, "rental_uris": {"android": "https://dc.lft.to/lastmile_qr_scan", "ios": "https://dc.lft.to/lastmile_qr_scan"}, "fusion_lon": 0.0}, {"lat": 38.928526, "is_disabled": 0, "type": "electric_scooter", "lon": -77.03604033333333, "bike_id": "c1462bdbc05552e201ab9bcd694d2252", "fusion_lat": 0.0, "name": "c1462bdbc05552e201ab9bcd694d2252", "is_reserved": 0, "rental_uris": {"android": "https://dc.lft.to/lastmile_qr_scan", "ios": "https://dc.lft.to/lastmile_qr_scan"}, "fusion_lon": 0.0}, {"lat": 38.907256, "is_disabled": 0, "type": "electric_scooter", "lon": -77.04228316666666, "bike_id": "327915d894677069828deeaf4a579205", "fusion_lat": 0.0, "name": "327915d894677069828deeaf4a579205", "is_reserved": 0, "rental_uris": {"android": "https://dc.lft.to/lastmile_qr_scan", "ios": "https://dc.lft.to/lastmile_qr_scan"}, "fusion_lon": 0.0}, {"lat": 38.92265733333333, "is_disabled": 0, "type": "electric_scooter", "lon": -77.01845366666667, "bike_id": "c6d9bcd523648f2f2b99e1d8ed460d1c", "fusion_lat": 0.0, "name": "c6d9bcd523648f2f2b99e1d8ed460d1c", "is_reserved": 0, "rental_uris": {"android": "https://dc.lft.to/lastmile_qr_scan", "ios": "https://dc.lft.to/lastmile_qr_scan"}, "fusion_lon": 0.0}, {"lat": 38.904598, "is_disabled": 0, "type": "electric_scooter", "lon": -76.99460816666667, "bike_id": "84b101fccbda1932ded091b15be8da19", "fusion_lat": 0.0, "name": "84b101fccbda1932ded091b15be8da19", "is_reserved": 0, "rental_uris": {"android": "https://dc.lft.to/lastmile_qr_scan", "ios": "https://dc.lft.to/lastmile_qr_scan"}, "fusion_lon": 0.0}, {"lat": 38.93098533333333, "is_disabled": 0, "type": "electric_scooter", "lon": -77.02557183333333, "bike_id": "fa524ee7587482d35e76685855a5089c", "fusion_lat": 0.0, "name": "fa524ee7587482d35e76685855a5089c", "is_reserved": 0, "rental_uris": {"android": "https://dc.lft.to/lastmile_qr_scan", "ios": "https://dc.lft.to/lastmile_qr_scan"}, "fusion_lon": 0.0}, {"lat": 38.9335615, "is_disabled": 0, "type": "electric_scooter", "lon": -77.07368516666666, "bike_id": "ecef9a538b4d10eb5460d270af78a8e1", "fusion_lat": 0.0, "name": "ecef9a538b4d10eb5460d270af78a8e1", "is_reserved": 0, "rental_uris": {"android": "https://dc.lft.to/lastmile_qr_scan", "ios": "https://dc.lft.to/lastmile_qr_scan"}, "fusion_lon": 0.0}, {"lat": 38.89247133333333, "is_disabled": 0, "type": "electric_scooter", "lon": -77.04892916666667, "bike_id": "08f7c6ead835bd3e94a53e63ff2f4247", "fusion_lat": 0.0, "name": "08f7c6ead835bd3e94a53e63ff2f4247", "is_reserved": 0, "rental_uris": {"android": "https://dc.lft.to/lastmile_qr_scan", "ios": "https://dc.lft.to/lastmile_qr_scan"}, "fusion_lon": 0.0}, {"lat": 38.90194966666667, "is_disabled": 0, "type": "electric_scooter", "lon": -77.023829, "bike_id": "e47039517cb93670165ef897b1422d20", "fusion_lat": 0.0, "name": "e47039517cb93670165ef897b1422d20", "is_reserved": 0, "rental_uris": {"android": "https://dc.lft.to/lastmile_qr_scan", "ios": "https://dc.lft.to/lastmile_qr_scan"}, "fusion_lon": 0.0}, {"lat": 38.898406333333334, "is_disabled": 0, "type": "electric_scooter", "lon": -76.93102116666667, "bike_id": "d81ad0f95e29a84b0000e6480cd0b836", "fusion_lat": 0.0, "name": "d81ad0f95e29a84b0000e6480cd0b836", "is_reserved": 0, "rental_uris": {"android": "https://dc.lft.to/lastmile_qr_scan", "ios": "https://dc.lft.to/lastmile_qr_scan"}, "fusion_lon": 0.0}, {"lat": 38.96929316666667, "is_disabled": 0, "type": "electric_bike", "lon": -77.02617616666667, "bike_id": "b6d2e84965e4c917b0c1b668215d0d3c", "fusion_lat": 0.0, "name": "b6d2e84965e4c917b0c1b668215d0d3c", "is_reserved": 0, "rental_uris": {"android": "https://dc.lft.to/lastmile_qr_scan", "ios": "https://dc.lft.to/lastmile_qr_scan"}, "fusion_lon": 0.0}, {"lat": 38.873757, "is_disabled": 0, "type": "electric_bike", "lon": -77.11799333333333, "bike_id": "72085d50663475346400d116e1eceace", "fusion_lat": 0.0, "name": "72085d50663475346400d116e1eceace", "is_reserved": 0, "rental_uris": {"android": "https://dc.lft.to/lastmile_qr_scan", "ios": "https://dc.lft.to/lastmile_qr_scan"}, "fusion_lon": 0.0}, {"lat": 38.903189833333336, "is_disabled": 0, "type": "electric_scooter", "lon": -76.9900735, "bike_id": "23f4ccdde15305df2be8f77871a53bda", "fusion_lat": 0.0, "name": "23f4ccdde15305df2be8f77871a53bda", "is_reserved": 0, "rental_uris": {"android": "https://dc.lft.to/lastmile_qr_scan", "ios": "https://dc.lft.to/lastmile_qr_scan"}, "fusion_lon": 0.0}, {"lat": 38.9207995, "is_disabled": 0, "type": "electric_bike", "lon": -76.99185883333334, "bike_id": "2883123fc56b9ce6f14022a86b3a0a08", "fusion_lat": 0.0, "name": "2883123fc56b9ce6f14022a86b3a0a08", "is_reserved": 0, "rental_uris": {"android": "https://dc.lft.to/lastmile_qr_scan", "ios": "https://dc.lft.to/lastmile_qr_scan"}, "fusion_lon": 0.0}, {"lat": 38.96603666666667, "is_disabled": 0, "type": "electric_bike", "lon": -76.98331400000001, "bike_id": "832451d1cef14070a147ddba779f6c36", "fusion_lat": 0.0, "name": "832451d1cef14070a147ddba779f6c36", "is_reserved": 0, "rental_uris": {"android": "https://dc.lft.to/lastmile_qr_scan", "ios": "https://dc.lft.to/lastmile_qr_scan"}, "fusion_lon": 0.0}, {"lat": 38.918193333333335, "is_disabled": 0, "type": "electric_scooter", "lon": -77.0004945, "bike_id": "2b7dadf408de340ffcd4583e26680448", "fusion_lat": 0.0, "name": "2b7dadf408de340ffcd4583e26680448", "is_reserved": 0, "rental_uris": {"android": "https://dc.lft.to/lastmile_qr_scan", "ios": "https://dc.lft.to/lastmile_qr_scan"}, "fusion_lon": 0.0}, {"lat": 38.902676666666665, "is_disabled": 0, "type": "electric_scooter", "lon": -77.03974483333333, "bike_id": "247043bef0d011e672b6c377a6b8e803", "fusion_lat": 0.0, "name": "247043bef0d011e672b6c377a6b8e803", "is_reserved": 0, "rental_uris": {"android": "https://dc.lft.to/lastmile_qr_scan", "ios": "https://dc.lft.to/lastmile_qr_scan"}, "fusion_lon": 0.0}, {"lat": 38.89204133333333, "is_disabled": 0, "type": "electric_bike", "lon": -76.97054283333334, "bike_id": "c3930d4e42df52966b1ee8d32fdb3813", "fusion_lat": 0.0, "name": "c3930d4e42df52966b1ee8d32fdb3813", "is_reserved": 0, "rental_uris": {"android": "https://dc.lft.to/lastmile_qr_scan", "ios": "https://dc.lft.to/lastmile_qr_scan"}, "fusion_lon": 0.0}, {"lat": 38.910411833333335, "is_disabled": 0, "type": "electric_scooter", "lon": -77.01505466666667, "bike_id": "7bae8dd4480f7fe35c43a5d0abb0eaa0", "fusion_lat": 0.0, "name": "7bae8dd4480f7fe35c43a5d0abb0eaa0", "is_reserved": 0, "rental_uris": {"android": "https://dc.lft.to/lastmile_qr_scan", "ios": "https://dc.lft.to/lastmile_qr_scan"}, "fusion_lon": 0.0}, {"lat": 38.9336235, "is_disabled": 0, "type": "electric_bike", "lon": -77.09967766666666, "bike_id": "a84ecac910c9fb35059f0a56dcdc7ec2", "fusion_lat": 0.0, "name": "a84ecac910c9fb35059f0a56dcdc7ec2", "is_reserved": 0, "rental_uris": {"android": "https://dc.lft.to/lastmile_qr_scan", "ios": "https://dc.lft.to/lastmile_qr_scan"}, "fusion_lon": 0.0}, {"lat": 38.958200833333336, "is_disabled": 0, "type": "electric_bike", "lon": -76.940902, "bike_id": "6c40447f5374527e2a7ce2cb706fb234", "fusion_lat": 0.0, "name": "6c40447f5374527e2a7ce2cb706fb234", "is_reserved": 0, "rental_uris": {"android": "https://dc.lft.to/lastmile_qr_scan", "ios": "https://dc.lft.to/lastmile_qr_scan"}, "fusion_lon": 0.0}, {"lat": 38.92710566666667, "is_disabled": 0, "type": "electric_scooter", "lon": -77.02101566666667, "bike_id": "bab658ec08170329de2cfc9fed1ea960", "fusion_lat": 0.0, "name": "bab658ec08170329de2cfc9fed1ea960", "is_reserved": 0, "rental_uris": {"android": "https://dc.lft.to/lastmile_qr_scan", "ios": "https://dc.lft.to/lastmile_qr_scan"}, "fusion_lon": 0.0}, {"lat": 38.928566833333335, "is_disabled": 0, "type": "electric_scooter", "lon": -77.01391866666667, "bike_id": "c90c90da4aaedda6573a804fa2f6104a", "fusion_lat": 0.0, "name": "c90c90da4aaedda6573a804fa2f6104a", "is_reserved": 0, "rental_uris": {"android": "https://dc.lft.to/lastmile_qr_scan", "ios": "https://dc.lft.to/lastmile_qr_scan"}, "fusion_lon": 0.0}, {"lat": 38.900788166666665, "is_disabled": 0, "type": "electric_scooter", "lon": -77.00212566666667, "bike_id": "e1159e2cb14c8cceecfb4a2a862e8d8e", "fusion_lat": 0.0, "name": "e1159e2cb14c8cceecfb4a2a862e8d8e", "is_reserved": 0, "rental_uris": {"android": "https://dc.lft.to/lastmile_qr_scan", "ios": "https://dc.lft.to/lastmile_qr_scan"}, "fusion_lon": 0.0}, {"lat": 38.897272, "is_disabled": 0, "type": "electric_scooter", "lon": -77.02473066666667, "bike_id": "39cf3eca6e2806957653b85b94b40a26", "fusion_lat": 0.0, "name": "39cf3eca6e2806957653b85b94b40a26", "is_reserved": 0, "rental_uris": {"android": "https://dc.lft.to/lastmile_qr_scan", "ios": "https://dc.lft.to/lastmile_qr_scan"}, "fusion_lon": 0.0}, {"lat": 38.900611, "is_disabled": 0, "type": "electric_scooter", "lon": -77.044044, "bike_id": "acfceb870b831d34790046efe0e9464b", "fusion_lat": 0.0, "name": "acfceb870b831d34790046efe0e9464b", "is_reserved": 0, "rental_uris": {"android": "https://dc.lft.to/lastmile_qr_scan", "ios": "https://dc.lft.to/lastmile_qr_scan"}, "fusion_lon": 0.0}, {"lat": 38.90740316666667, "is_disabled": 0, "type": "electric_scooter", "lon": -77.04783633333334, "bike_id": "d1bec5408ba57dac4ae1feca7afec432", "fusion_lat": 0.0, "name": "d1bec5408ba57dac4ae1feca7afec432", "is_reserved": 0, "rental_uris": {"android": "https://dc.lft.to/lastmile_qr_scan", "ios": "https://dc.lft.to/lastmile_qr_scan"}, "fusion_lon": 0.0}, {"lat": 38.922493833333334, "is_disabled": 0, "type": "electric_scooter", "lon": -77.0308865, "bike_id": "d7ebfd59d1193e840129fc43cb9c6158", "fusion_lat": 0.0, "name": "d7ebfd59d1193e840129fc43cb9c6158", "is_reserved": 0, "rental_uris": {"android": "https://dc.lft.to/lastmile_qr_scan", "ios": "https://dc.lft.to/lastmile_qr_scan"}, "fusion_lon": 0.0}, {"lat": 38.941730166666666, "is_disabled": 0, "type": "electric_scooter", "lon": -77.03283283333333, "bike_id": "80cf889e01fc1d156addc935c935fc65", "fusion_lat": 0.0, "name": "80cf889e01fc1d156addc935c935fc65", "is_reserved": 0, "rental_uris": {"android": "https://dc.lft.to/lastmile_qr_scan", "ios": "https://dc.lft.to/lastmile_qr_scan"}, "fusion_lon": 0.0}, {"lat": 38.94155383333333, "is_disabled": 0, "type": "electric_scooter", "lon": -77.03282716666666, "bike_id": "b028e74c5a1c1010df171cdd118f4be6", "fusion_lat": 0.0, "name": "b028e74c5a1c1010df171cdd118f4be6", "is_reserved": 0, "rental_uris": {"android": "https://dc.lft.to/lastmile_qr_scan", "ios": "https://dc.lft.to/lastmile_qr_scan"}, "fusion_lon": 0.0}, {"lat": 38.873432333333334, "is_disabled": 0, "type": "electric_scooter", "lon": -76.9916705, "bike_id": "91b36d70e13a0728279a5191fde8b7e5", "fusion_lat": 0.0, "name": "91b36d70e13a0728279a5191fde8b7e5", "is_reserved": 0, "rental_uris": {"android": "https://dc.lft.to/lastmile_qr_scan", "ios": "https://dc.lft.to/lastmile_qr_scan"}, "fusion_lon": 0.0}, {"lat": 38.90251166666667, "is_disabled": 0, "type": "electric_scooter", "lon": -77.02606, "bike_id": "1c4012c21d7f84f48ca675287dd7a40f", "fusion_lat": 0.0, "name": "1c4012c21d7f84f48ca675287dd7a40f", "is_reserved": 0, "rental_uris": {"android": "https://dc.lft.to/lastmile_qr_scan", "ios": "https://dc.lft.to/lastmile_qr_scan"}, "fusion_lon": 0.0}, {"lat": 38.90129566666667, "is_disabled": 0, "type": "electric_scooter", "lon": -77.03301683333333, "bike_id": "42cfcb246a2a7f35c86cf9105e0ffb75", "fusion_lat": 0.0, "name": "42cfcb246a2a7f35c86cf9105e0ffb75", "is_reserved": 0, "rental_uris": {"android": "https://dc.lft.to/lastmile_qr_scan", "ios": "https://dc.lft.to/lastmile_qr_scan"}, "fusion_lon": 0.0}, {"lat": 38.9507, "is_disabled": 0, "type": "electric_scooter", "lon": -77.066545, "bike_id": "d4e798bef637f6db0c382c81e73faa3e", "fusion_lat": 0.0, "name": "d4e798bef637f6db0c382c81e73faa3e", "is_reserved": 0, "rental_uris": {"android": "https://dc.lft.to/lastmile_qr_scan", "ios": "https://dc.lft.to/lastmile_qr_scan"}, "fusion_lon": 0.0}, {"lat": 38.876297666666666, "is_disabled": 0, "type": "electric_scooter", "lon": -76.96525566666666, "bike_id": "b8d21e08bfac7f60fa0b56ab1c043d3f", "fusion_lat": 0.0, "name": "b8d21e08bfac7f60fa0b56ab1c043d3f", "is_reserved": 0, "rental_uris": {"android": "https://dc.lft.to/lastmile_qr_scan", "ios": "https://dc.lft.to/lastmile_qr_scan"}, "fusion_lon": 0.0}, {"lat": 38.9037135, "is_disabled": 0, "type": "electric_scooter", "lon": -77.04357083333333, "bike_id": "689862366f0f4eb3e6a5e2d7c40ee9e4", "fusion_lat": 0.0, "name": "689862366f0f4eb3e6a5e2d7c40ee9e4", "is_reserved": 0, "rental_uris": {"android": "https://dc.lft.to/lastmile_qr_scan", "ios": "https://dc.lft.to/lastmile_qr_scan"}, "fusion_lon": 0.0}, {"lat": 38.9430755, "is_disabled": 0, "type": "electric_scooter", "lon": -77.05933433333334, "bike_id": "e7f48fae7a479173fb4a259912862bf1", "fusion_lat": 0.0, "name": "e7f48fae7a479173fb4a259912862bf1", "is_reserved": 0, "rental_uris": {"android": "https://dc.lft.to/lastmile_qr_scan", "ios": "https://dc.lft.to/lastmile_qr_scan"}, "fusion_lon": 0.0}, {"lat": 38.924468166666664, "is_disabled": 0, "type": "electric_scooter", "lon": -77.020337, "bike_id": "f9833a7b8a111920565fad47e73400e2", "fusion_lat": 0.0, "name": "f9833a7b8a111920565fad47e73400e2", "is_reserved": 0, "rental_uris": {"android": "https://dc.lft.to/lastmile_qr_scan", "ios": "https://dc.lft.to/lastmile_qr_scan"}, "fusion_lon": 0.0}, {"lat": 38.854547333333336, "is_disabled": 0, "type": "electric_scooter", "lon": -76.97235316666666, "bike_id": "1d1e0cba75f05d3db5f0407a8b6b8ded", "fusion_lat": 0.0, "name": "1d1e0cba75f05d3db5f0407a8b6b8ded", "is_reserved": 0, "rental_uris": {"android": "https://dc.lft.to/lastmile_qr_scan", "ios": "https://dc.lft.to/lastmile_qr_scan"}, "fusion_lon": 0.0}, {"lat": 38.978391, "is_disabled": 0, "type": "electric_bike", "lon": -77.02654266666667, "bike_id": "7d09e3f037308ac0507cd871964f0109", "fusion_lat": 0.0, "name": "7d09e3f037308ac0507cd871964f0109", "is_reserved": 0, "rental_uris": {"android": "https://dc.lft.to/lastmile_qr_scan", "ios": "https://dc.lft.to/lastmile_qr_scan"}, "fusion_lon": 0.0}, {"lat": 38.927890833333336, "is_disabled": 0, "type": "electric_bike", "lon": -76.97223633333333, "bike_id": "1517630060ff21de628f863d44def0c0", "fusion_lat": 0.0, "name": "1517630060ff21de628f863d44def0c0", "is_reserved": 0, "rental_uris": {"android": "https://dc.lft.to/lastmile_qr_scan", "ios": "https://dc.lft.to/lastmile_qr_scan"}, "fusion_lon": 0.0}, {"lat": 38.85518716666667, "is_disabled": 0, "type": "electric_bike", "lon": -77.12029766666667, "bike_id": "b4630830ed2aae4673a3e353823a65ba", "fusion_lat": 0.0, "name": "b4630830ed2aae4673a3e353823a65ba", "is_reserved": 0, "rental_uris": {"android": "https://dc.lft.to/lastmile_qr_scan", "ios": "https://dc.lft.to/lastmile_qr_scan"}, "fusion_lon": 0.0}, {"lat": 38.88505516666667, "is_disabled": 0, "type": "electric_scooter", "lon": -77.00568983333334, "bike_id": "eee6bfbb4490ce40287c564372c58f29", "fusion_lat": 0.0, "name": "eee6bfbb4490ce40287c564372c58f29", "is_reserved": 0, "rental_uris": {"android": "https://dc.lft.to/lastmile_qr_scan", "ios": "https://dc.lft.to/lastmile_qr_scan"}, "fusion_lon": 0.0}, {"lat": 38.91780933333333, "is_disabled": 0, "type": "electric_scooter", "lon": -77.04416783333333, "bike_id": "90a1432eba4caa062c6cecd5dda9eeaf", "fusion_lat": 0.0, "name": "90a1432eba4caa062c6cecd5dda9eeaf", "is_reserved": 0, "rental_uris": {"android": "https://dc.lft.to/lastmile_qr_scan", "ios": "https://dc.lft.to/lastmile_qr_scan"}, "fusion_lon": 0.0}, {"lat": 38.86382666666667, "is_disabled": 0, "type": "electric_scooter", "lon": -76.992494, "bike_id": "855ac645d35a231fc9903ef0d327eceb", "fusion_lat": 0.0, "name": "855ac645d35a231fc9903ef0d327eceb", "is_reserved": 0, "rental_uris": {"android": "https://dc.lft.to/lastmile_qr_scan", "ios": "https://dc.lft.to/lastmile_qr_scan"}, "fusion_lon": 0.0}, {"lat": 38.92352133333333, "is_disabled": 0, "type": "electric_scooter", "lon": -77.0440255, "bike_id": "f999fa309f7e860891b381c9b5bb4f5c", "fusion_lat": 0.0, "name": "f999fa309f7e860891b381c9b5bb4f5c", "is_reserved": 0, "rental_uris": {"android": "https://dc.lft.to/lastmile_qr_scan", "ios": "https://dc.lft.to/lastmile_qr_scan"}, "fusion_lon": 0.0}, {"lat": 38.8658395, "is_disabled": 0, "type": "electric_bike", "lon": -76.9731175, "bike_id": "15693cad6ff4dbf78797817a5e5d999b", "fusion_lat": 0.0, "name": "15693cad6ff4dbf78797817a5e5d999b", "is_reserved": 0, "rental_uris": {"android": "https://dc.lft.to/lastmile_qr_scan", "ios": "https://dc.lft.to/lastmile_qr_scan"}, "fusion_lon": 0.0}, {"lat": 38.901518333333335, "is_disabled": 0, "type": "electric_scooter", "lon": -77.032842, "bike_id": "09d5d5e324ac95403e5fd5e8d408d409", "fusion_lat": 0.0, "name": "09d5d5e324ac95403e5fd5e8d408d409", "is_reserved": 0, "rental_uris": {"android": "https://dc.lft.to/lastmile_qr_scan", "ios": "https://dc.lft.to/lastmile_qr_scan"}, "fusion_lon": 0.0}, {"lat": 38.936581333333336, "is_disabled": 0, "type": "electric_scooter", "lon": -77.03653033333333, "bike_id": "1b6f62721741a15254114b1f9f09b49e", "fusion_lat": 0.0, "name": "1b6f62721741a15254114b1f9f09b49e", "is_reserved": 0, "rental_uris": {"android": "https://dc.lft.to/lastmile_qr_scan", "ios": "https://dc.lft.to/lastmile_qr_scan"}, "fusion_lon": 0.0}, {"lat": 38.9329255, "is_disabled": 0, "type": "electric_scooter", "lon": -77.02828116666667, "bike_id": "bdc9cdfb6753764d704f28312e61c157", "fusion_lat": 0.0, "name": "bdc9cdfb6753764d704f28312e61c157", "is_reserved": 0, "rental_uris": {"android": "https://dc.lft.to/lastmile_qr_scan", "ios": "https://dc.lft.to/lastmile_qr_scan"}, "fusion_lon": 0.0}, {"lat": 38.908915, "is_disabled": 0, "type": "electric_scooter", "lon": -77.03467433333333, "bike_id": "073adeecb6a11d896be80acea7747061", "fusion_lat": 0.0, "name": "073adeecb6a11d896be80acea7747061", "is_reserved": 0, "rental_uris": {"android": "https://dc.lft.to/lastmile_qr_scan", "ios": "https://dc.lft.to/lastmile_qr_scan"}, "fusion_lon": 0.0}, {"lat": 38.9148305, "is_disabled": 0, "type": "electric_scooter", "lon": -76.98361183333333, "bike_id": "e29afe9a96b35d30d74ce683f16356b1", "fusion_lat": 0.0, "name": "e29afe9a96b35d30d74ce683f16356b1", "is_reserved": 0, "rental_uris": {"android": "https://dc.lft.to/lastmile_qr_scan", "ios": "https://dc.lft.to/lastmile_qr_scan"}, "fusion_lon": 0.0}, {"lat": 38.9054125, "is_disabled": 0, "type": "electric_scooter", "lon": -77.00580266666667, "bike_id": "f10af6207a2bb2f0c06322ea7a35cca3", "fusion_lat": 0.0, "name": "f10af6207a2bb2f0c06322ea7a35cca3", "is_reserved": 0, "rental_uris": {"android": "https://dc.lft.to/lastmile_qr_scan", "ios": "https://dc.lft.to/lastmile_qr_scan"}, "fusion_lon": 0.0}, {"lat": 38.931089, "is_disabled": 0, "type": "electric_scooter", "lon": -77.03509616666666, "bike_id": "25500454640b98222c62a88eda5eda40", "fusion_lat": 0.0, "name": "25500454640b98222c62a88eda5eda40", "is_reserved": 0, "rental_uris": {"android": "https://dc.lft.to/lastmile_qr_scan", "ios": "https://dc.lft.to/lastmile_qr_scan"}, "fusion_lon": 0.0}, {"lat": 38.87631416666667, "is_disabled": 0, "type": "electric_scooter", "lon": -76.965298, "bike_id": "6cd104bc46d63b2a7449003c501e136e", "fusion_lat": 0.0, "name": "6cd104bc46d63b2a7449003c501e136e", "is_reserved": 0, "rental_uris": {"android": "https://dc.lft.to/lastmile_qr_scan", "ios": "https://dc.lft.to/lastmile_qr_scan"}, "fusion_lon": 0.0}, {"lat": 38.896258, "is_disabled": 0, "type": "electric_scooter", "lon": -76.998495, "bike_id": "b2ee5b57bf02e3770eba12490b328265", "fusion_lat": 0.0, "name": "b2ee5b57bf02e3770eba12490b328265", "is_reserved": 0, "rental_uris": {"android": "https://dc.lft.to/lastmile_qr_scan", "ios": "https://dc.lft.to/lastmile_qr_scan"}, "fusion_lon": 0.0}, {"lat": 38.932026, "is_disabled": 0, "type": "electric_scooter", "lon": -77.04427666666666, "bike_id": "1930ec83edd6000bb539e02bdf2561b4", "fusion_lat": 0.0, "name": "1930ec83edd6000bb539e02bdf2561b4", "is_reserved": 0, "rental_uris": {"android": "https://dc.lft.to/lastmile_qr_scan", "ios": "https://dc.lft.to/lastmile_qr_scan"}, "fusion_lon": 0.0}, {"lat": 38.893367, "is_disabled": 0, "type": "electric_scooter", "lon": -76.93000016666667, "bike_id": "30819d3171a4d0cf963a87c81c85a314", "fusion_lat": 0.0, "name": "30819d3171a4d0cf963a87c81c85a314", "is_reserved": 0, "rental_uris": {"android": "https://dc.lft.to/lastmile_qr_scan", "ios": "https://dc.lft.to/lastmile_qr_scan"}, "fusion_lon": 0.0}, {"lat": 38.940700666666665, "is_disabled": 0, "type": "electric_scooter", "lon": -77.06136383333333, "bike_id": "caeea0fb97126eb5a5fdfb49795afa7c", "fusion_lat": 0.0, "name": "caeea0fb97126eb5a5fdfb49795afa7c", "is_reserved": 0, "rental_uris": {"android": "https://dc.lft.to/lastmile_qr_scan", "ios": "https://dc.lft.to/lastmile_qr_scan"}, "fusion_lon": 0.0}, {"lat": 38.949234833333335, "is_disabled": 0, "type": "electric_bike", "lon": -77.00794133333333, "bike_id": "9cc63fa3f03630601682062e892ad8d2", "fusion_lat": 0.0, "name": "9cc63fa3f03630601682062e892ad8d2", "is_reserved": 0, "rental_uris": {"android": "https://dc.lft.to/lastmile_qr_scan", "ios": "https://dc.lft.to/lastmile_qr_scan"}, "fusion_lon": 0.0}, {"lat": 38.90527733333333, "is_disabled": 0, "type": "electric_scooter", "lon": -77.04882133333334, "bike_id": "476b57edc1d25d0df5cb458930b2202c", "fusion_lat": 0.0, "name": "476b57edc1d25d0df5cb458930b2202c", "is_reserved": 0, "rental_uris": {"android": "https://dc.lft.to/lastmile_qr_scan", "ios": "https://dc.lft.to/lastmile_qr_scan"}, "fusion_lon": 0.0}, {"lat": 38.900112, "is_disabled": 0, "type": "electric_scooter", "lon": -77.01201083333333, "bike_id": "148c5898698669515a72e6786af05bbb", "fusion_lat": 0.0, "name": "148c5898698669515a72e6786af05bbb", "is_reserved": 0, "rental_uris": {"android": "https://dc.lft.to/lastmile_qr_scan", "ios": "https://dc.lft.to/lastmile_qr_scan"}, "fusion_lon": 0.0}, {"lat": 38.9178085, "is_disabled": 0, "type": "electric_scooter", "lon": -77.029743, "bike_id": "7bd86c775585b279820d9ab1f50ac0e0", "fusion_lat": 0.0, "name": "7bd86c775585b279820d9ab1f50ac0e0", "is_reserved": 0, "rental_uris": {"android": "https://dc.lft.to/lastmile_qr_scan", "ios": "https://dc.lft.to/lastmile_qr_scan"}, "fusion_lon": 0.0}, {"lat": 38.88471233333333, "is_disabled": 0, "type": "electric_scooter", "lon": -77.02423416666667, "bike_id": "ce63e0b8f382a7a374ba083ec0025cfc", "fusion_lat": 0.0, "name": "ce63e0b8f382a7a374ba083ec0025cfc", "is_reserved": 0, "rental_uris": {"android": "https://dc.lft.to/lastmile_qr_scan", "ios": "https://dc.lft.to/lastmile_qr_scan"}, "fusion_lon": 0.0}, {"lat": 38.90075933333333, "is_disabled": 0, "type": "electric_scooter", "lon": -77.05068583333333, "bike_id": "f6959a437a614db6fcca64a8d176a72b", "fusion_lat": 0.0, "name": "f6959a437a614db6fcca64a8d176a72b", "is_reserved": 0, "rental_uris": {"android": "https://dc.lft.to/lastmile_qr_scan", "ios": "https://dc.lft.to/lastmile_qr_scan"}, "fusion_lon": 0.0}, {"lat": 38.86714283333333, "is_disabled": 0, "type": "electric_scooter", "lon": -76.98725783333333, "bike_id": "045def43a7b49ee5d27b78826d03ff98", "fusion_lat": 0.0, "name": "045def43a7b49ee5d27b78826d03ff98", "is_reserved": 0, "rental_uris": {"android": "https://dc.lft.to/lastmile_qr_scan", "ios": "https://dc.lft.to/lastmile_qr_scan"}, "fusion_lon": 0.0}, {"lat": 38.86509016666667, "is_disabled": 0, "type": "electric_scooter", "lon": -76.99006866666667, "bike_id": "67d37e0de14fe2cfb1bce53b4d8513c7", "fusion_lat": 0.0, "name": "67d37e0de14fe2cfb1bce53b4d8513c7", "is_reserved": 0, "rental_uris": {"android": "https://dc.lft.to/lastmile_qr_scan", "ios": "https://dc.lft.to/lastmile_qr_scan"}, "fusion_lon": 0.0}, {"lat": 38.91651366666667, "is_disabled": 0, "type": "electric_scooter", "lon": -77.02401333333333, "bike_id": "92430a09329dc7fe480ff0c4bd895fad", "fusion_lat": 0.0, "name": "92430a09329dc7fe480ff0c4bd895fad", "is_reserved": 0, "rental_uris": {"android": "https://dc.lft.to/lastmile_qr_scan", "ios": "https://dc.lft.to/lastmile_qr_scan"}, "fusion_lon": 0.0}, {"lat": 38.925087833333336, "is_disabled": 0, "type": "electric_scooter", "lon": -76.98236583333333, "bike_id": "ca302bf3949f83e1ede9cbc1867c6ad6", "fusion_lat": 0.0, "name": "ca302bf3949f83e1ede9cbc1867c6ad6", "is_reserved": 0, "rental_uris": {"android": "https://dc.lft.to/lastmile_qr_scan", "ios": "https://dc.lft.to/lastmile_qr_scan"}, "fusion_lon": 0.0}, {"lat": 38.913269166666666, "is_disabled": 0, "type": "electric_scooter", "lon": -77.03180816666666, "bike_id": "ac58691f8c06919ccfbc0ab5706b1d1d", "fusion_lat": 0.0, "name": "ac58691f8c06919ccfbc0ab5706b1d1d", "is_reserved": 0, "rental_uris": {"android": "https://dc.lft.to/lastmile_qr_scan", "ios": "https://dc.lft.to/lastmile_qr_scan"}, "fusion_lon": 0.0}, {"lat": 38.92961366666667, "is_disabled": 0, "type": "electric_scooter", "lon": -77.02792133333334, "bike_id": "1150fa46293e7e9f9f53eb4ce30c0669", "fusion_lat": 0.0, "name": "1150fa46293e7e9f9f53eb4ce30c0669", "is_reserved": 0, "rental_uris": {"android": "https://dc.lft.to/lastmile_qr_scan", "ios": "https://dc.lft.to/lastmile_qr_scan"}, "fusion_lon": 0.0}, {"lat": 38.9161915, "is_disabled": 0, "type": "electric_scooter", "lon": -77.0374105, "bike_id": "c9aa775d007876beb1e605de384cb7dd", "fusion_lat": 0.0, "name": "c9aa775d007876beb1e605de384cb7dd", "is_reserved": 0, "rental_uris": {"android": "https://dc.lft.to/lastmile_qr_scan", "ios": "https://dc.lft.to/lastmile_qr_scan"}, "fusion_lon": 0.0}, {"lat": 38.896759333333335, "is_disabled": 0, "type": "electric_scooter", "lon": -77.0051565, "bike_id": "8dccd00652c00dc347680c8ccb0e4822", "fusion_lat": 0.0, "name": "8dccd00652c00dc347680c8ccb0e4822", "is_reserved": 0, "rental_uris": {"android": "https://dc.lft.to/lastmile_qr_scan", "ios": "https://dc.lft.to/lastmile_qr_scan"}, "fusion_lon": 0.0}, {"lat": 38.876382666666665, "is_disabled": 0, "type": "electric_scooter", "lon": -77.0056175, "bike_id": "cba4dfc14a6886df92ee9eec4c83d952", "fusion_lat": 0.0, "name": "cba4dfc14a6886df92ee9eec4c83d952", "is_reserved": 0, "rental_uris": {"android": "https://dc.lft.to/lastmile_qr_scan", "ios": "https://dc.lft.to/lastmile_qr_scan"}, "fusion_lon": 0.0}, {"lat": 38.87859916666667, "is_disabled": 0, "type": "electric_bike", "lon": -77.01758066666666, "bike_id": "fa343ec76bfd3a7879c69fc626767554", "fusion_lat": 0.0, "name": "fa343ec76bfd3a7879c69fc626767554", "is_reserved": 0, "rental_uris": {"android": "https://dc.lft.to/lastmile_qr_scan", "ios": "https://dc.lft.to/lastmile_qr_scan"}, "fusion_lon": 0.0}, {"lat": 38.905733166666664, "is_disabled": 0, "type": "electric_scooter", "lon": -77.037813, "bike_id": "815b4ba277b0834bc4d936b2542f8643", "fusion_lat": 0.0, "name": "815b4ba277b0834bc4d936b2542f8643", "is_reserved": 0, "rental_uris": {"android": "https://dc.lft.to/lastmile_qr_scan", "ios": "https://dc.lft.to/lastmile_qr_scan"}, "fusion_lon": 0.0}, {"lat": 38.9482305, "is_disabled": 0, "type": "electric_scooter", "lon": -76.99905466666667, "bike_id": "8e2faaf63722d4f8522ad70730ccdd20", "fusion_lat": 0.0, "name": "8e2faaf63722d4f8522ad70730ccdd20", "is_reserved": 0, "rental_uris": {"android": "https://dc.lft.to/lastmile_qr_scan", "ios": "https://dc.lft.to/lastmile_qr_scan"}, "fusion_lon": 0.0}, {"lat": 38.89740183333333, "is_disabled": 0, "type": "electric_scooter", "lon": -76.94722916666667, "bike_id": "8d2e3c1f004d4f2f44385a2e2f9cc059", "fusion_lat": 0.0, "name": "8d2e3c1f004d4f2f44385a2e2f9cc059", "is_reserved": 0, "rental_uris": {"android": "https://dc.lft.to/lastmile_qr_scan", "ios": "https://dc.lft.to/lastmile_qr_scan"}, "fusion_lon": 0.0}, {"lat": 38.911888, "is_disabled": 0, "type": "electric_scooter", "lon": -77.004476, "bike_id": "8cadf22c36b04439b0dfc55dfcd3b28e", "fusion_lat": 0.0, "name": "8cadf22c36b04439b0dfc55dfcd3b28e", "is_reserved": 0, "rental_uris": {"android": "https://dc.lft.to/lastmile_qr_scan", "ios": "https://dc.lft.to/lastmile_qr_scan"}, "fusion_lon": 0.0}, {"lat": 38.96217333333333, "is_disabled": 0, "type": "electric_bike", "lon": -77.02627016666666, "bike_id": "5c8108ddefd586898cb7c6c3ad8a8c7d", "fusion_lat": 0.0, "name": "5c8108ddefd586898cb7c6c3ad8a8c7d", "is_reserved": 0, "rental_uris": {"android": "https://dc.lft.to/lastmile_qr_scan", "ios": "https://dc.lft.to/lastmile_qr_scan"}, "fusion_lon": 0.0}, {"lat": 38.86509133333333, "is_disabled": 0, "type": "electric_scooter", "lon": -76.99007233333333, "bike_id": "441ff4065d4c52dbd42ae586034ea7d4", "fusion_lat": 0.0, "name": "441ff4065d4c52dbd42ae586034ea7d4", "is_reserved": 0, "rental_uris": {"android": "https://dc.lft.to/lastmile_qr_scan", "ios": "https://dc.lft.to/lastmile_qr_scan"}, "fusion_lon": 0.0}, {"lat": 38.9169835, "is_disabled": 0, "type": "electric_scooter", "lon": -77.03229683333333, "bike_id": "cf35cb90d55641e4d235021f32024d64", "fusion_lat": 0.0, "name": "cf35cb90d55641e4d235021f32024d64", "is_reserved": 0, "rental_uris": {"android": "https://dc.lft.to/lastmile_qr_scan", "ios": "https://dc.lft.to/lastmile_qr_scan"}, "fusion_lon": 0.0}, {"lat": 38.932087333333335, "is_disabled": 0, "type": "electric_scooter", "lon": -77.02245766666667, "bike_id": "4cd9b610357e63528c6087f7d401f0d4", "fusion_lat": 0.0, "name": "4cd9b610357e63528c6087f7d401f0d4", "is_reserved": 0, "rental_uris": {"android": "https://dc.lft.to/lastmile_qr_scan", "ios": "https://dc.lft.to/lastmile_qr_scan"}, "fusion_lon": 0.0}, {"lat": 38.925605833333336, "is_disabled": 0, "type": "electric_scooter", "lon": -77.03340116666666, "bike_id": "28d3c7f53db3488c4ecb0c787516ea93", "fusion_lat": 0.0, "name": "28d3c7f53db3488c4ecb0c787516ea93", "is_reserved": 0, "rental_uris": {"android": "https://dc.lft.to/lastmile_qr_scan", "ios": "https://dc.lft.to/lastmile_qr_scan"}, "fusion_lon": 0.0}, {"lat": 38.90830666666667, "is_disabled": 0, "type": "electric_scooter", "lon": -77.00235183333334, "bike_id": "18d27d6813a8934bc9c03486813b1f4a", "fusion_lat": 0.0, "name": "18d27d6813a8934bc9c03486813b1f4a", "is_reserved": 0, "rental_uris": {"android": "https://dc.lft.to/lastmile_qr_scan", "ios": "https://dc.lft.to/lastmile_qr_scan"}, "fusion_lon": 0.0}, {"lat": 38.8982, "is_disabled": 0, "type": "electric_scooter", "lon": -76.9969505, "bike_id": "0ce119586218ab4abf8bbcaa919e7945", "fusion_lat": 0.0, "name": "0ce119586218ab4abf8bbcaa919e7945", "is_reserved": 0, "rental_uris": {"android": "https://dc.lft.to/lastmile_qr_scan", "ios": "https://dc.lft.to/lastmile_qr_scan"}, "fusion_lon": 0.0}, {"lat": 38.88400883333333, "is_disabled": 0, "type": "electric_bike", "lon": -76.954289, "bike_id": "8f2fb491eea2acc39ca61a53d4ef771b", "fusion_lat": 0.0, "name": "8f2fb491eea2acc39ca61a53d4ef771b", "is_reserved": 0, "rental_uris": {"android": "https://dc.lft.to/lastmile_qr_scan", "ios": "https://dc.lft.to/lastmile_qr_scan"}, "fusion_lon": 0.0}, {"lat": 38.9181825, "is_disabled": 0, "type": "electric_scooter", "lon": -77.04151783333333, "bike_id": "5226d040b7bc4f22c40bdd8a1068c5aa", "fusion_lat": 0.0, "name": "5226d040b7bc4f22c40bdd8a1068c5aa", "is_reserved": 0, "rental_uris": {"android": "https://dc.lft.to/lastmile_qr_scan", "ios": "https://dc.lft.to/lastmile_qr_scan"}, "fusion_lon": 0.0}, {"lat": 38.924811166666665, "is_disabled": 0, "type": "electric_scooter", "lon": -77.02840566666667, "bike_id": "eba47d1c91be10cecbc2401a42383921", "fusion_lat": 0.0, "name": "eba47d1c91be10cecbc2401a42383921", "is_reserved": 0, "rental_uris": {"android": "https://dc.lft.to/lastmile_qr_scan", "ios": "https://dc.lft.to/lastmile_qr_scan"}, "fusion_lon": 0.0}, {"lat": 38.88740716666667, "is_disabled": 0, "type": "electric_scooter", "lon": -77.015347, "bike_id": "6ee36905ce1a3fd9c18c39bf05bcf665", "fusion_lat": 0.0, "name": "6ee36905ce1a3fd9c18c39bf05bcf665", "is_reserved": 0, "rental_uris": {"android": "https://dc.lft.to/lastmile_qr_scan", "ios": "https://dc.lft.to/lastmile_qr_scan"}, "fusion_lon": 0.0}, {"lat": 38.888824666666665, "is_disabled": 0, "type": "electric_scooter", "lon": -76.9315395, "bike_id": "b526d35b641006d153d2c98955845550", "fusion_lat": 0.0, "name": "b526d35b641006d153d2c98955845550", "is_reserved": 0, "rental_uris": {"android": "https://dc.lft.to/lastmile_qr_scan", "ios": "https://dc.lft.to/lastmile_qr_scan"}, "fusion_lon": 0.0}, {"lat": 38.93176483333333, "is_disabled": 0, "type": "electric_scooter", "lon": -77.02816933333334, "bike_id": "e1248f2ff78f8bd3767d2906ab182941", "fusion_lat": 0.0, "name": "e1248f2ff78f8bd3767d2906ab182941", "is_reserved": 0, "rental_uris": {"android": "https://dc.lft.to/lastmile_qr_scan", "ios": "https://dc.lft.to/lastmile_qr_scan"}, "fusion_lon": 0.0}, {"lat": 39.056346, "is_disabled": 0, "type": "electric_bike", "lon": -77.12528066666667, "bike_id": "53d1f5a707cc45660d491c6c6bf3f329", "fusion_lat": 0.0, "name": "53d1f5a707cc45660d491c6c6bf3f329", "is_reserved": 0, "rental_uris": {"android": "https://dc.lft.to/lastmile_qr_scan", "ios": "https://dc.lft.to/lastmile_qr_scan"}, "fusion_lon": 0.0}, {"lat": 38.961503, "is_disabled": 0, "type": "electric_scooter", "lon": -77.02792183333334, "bike_id": "8a3dae0cd92ace21340c6f7ea05edd50", "fusion_lat": 0.0, "name": "8a3dae0cd92ace21340c6f7ea05edd50", "is_reserved": 0, "rental_uris": {"android": "https://dc.lft.to/lastmile_qr_scan", "ios": "https://dc.lft.to/lastmile_qr_scan"}, "fusion_lon": 0.0}, {"lat": 38.90724316666667, "is_disabled": 0, "type": "electric_scooter", "lon": -77.046455, "bike_id": "6dc3488654e85432ba5c30ee1c2aa80c", "fusion_lat": 0.0, "name": "6dc3488654e85432ba5c30ee1c2aa80c", "is_reserved": 0, "rental_uris": {"android": "https://dc.lft.to/lastmile_qr_scan", "ios": "https://dc.lft.to/lastmile_qr_scan"}, "fusion_lon": 0.0}, {"lat": 38.911834, "is_disabled": 0, "type": "electric_scooter", "lon": -77.0430465, "bike_id": "3d6aa4514f1c01298681729efee2bc20", "fusion_lat": 0.0, "name": "3d6aa4514f1c01298681729efee2bc20", "is_reserved": 0, "rental_uris": {"android": "https://dc.lft.to/lastmile_qr_scan", "ios": "https://dc.lft.to/lastmile_qr_scan"}, "fusion_lon": 0.0}, {"lat": 38.89041433333333, "is_disabled": 0, "type": "electric_scooter", "lon": -76.9524425, "bike_id": "4636af3ea0ec7c3495aa9572f16e2c8d", "fusion_lat": 0.0, "name": "4636af3ea0ec7c3495aa9572f16e2c8d", "is_reserved": 0, "rental_uris": {"android": "https://dc.lft.to/lastmile_qr_scan", "ios": "https://dc.lft.to/lastmile_qr_scan"}, "fusion_lon": 0.0}, {"lat": 38.915658666666666, "is_disabled": 0, "type": "electric_scooter", "lon": -77.03840216666667, "bike_id": "746b0a421b6d2d9a09e85390ed540514", "fusion_lat": 0.0, "name": "746b0a421b6d2d9a09e85390ed540514", "is_reserved": 0, "rental_uris": {"android": "https://dc.lft.to/lastmile_qr_scan", "ios": "https://dc.lft.to/lastmile_qr_scan"}, "fusion_lon": 0.0}, {"lat": 38.954922, "is_disabled": 0, "type": "electric_scooter", "lon": -77.06572816666667, "bike_id": "2164257d1bc922fc8a95f7cbbedeba9c", "fusion_lat": 0.0, "name": "2164257d1bc922fc8a95f7cbbedeba9c", "is_reserved": 0, "rental_uris": {"android": "https://dc.lft.to/lastmile_qr_scan", "ios": "https://dc.lft.to/lastmile_qr_scan"}, "fusion_lon": 0.0}, {"lat": 38.9339905, "is_disabled": 0, "type": "electric_scooter", "lon": -77.057426, "bike_id": "d057384dd4c42dcc31c8e90e44030aa6", "fusion_lat": 0.0, "name": "d057384dd4c42dcc31c8e90e44030aa6", "is_reserved": 0, "rental_uris": {"android": "https://dc.lft.to/lastmile_qr_scan", "ios": "https://dc.lft.to/lastmile_qr_scan"}, "fusion_lon": 0.0}, {"lat": 38.91157366666667, "is_disabled": 0, "type": "electric_scooter", "lon": -77.04855333333333, "bike_id": "9d126b4b31c69bf1459e95aa085ac81a", "fusion_lat": 0.0, "name": "9d126b4b31c69bf1459e95aa085ac81a", "is_reserved": 0, "rental_uris": {"android": "https://dc.lft.to/lastmile_qr_scan", "ios": "https://dc.lft.to/lastmile_qr_scan"}, "fusion_lon": 0.0}, {"lat": 38.91689083333333, "is_disabled": 0, "type": "electric_scooter", "lon": -77.02717283333334, "bike_id": "f876be33984a5e88d7c4ca0bc4bb11d7", "fusion_lat": 0.0, "name": "f876be33984a5e88d7c4ca0bc4bb11d7", "is_reserved": 0, "rental_uris": {"android": "https://dc.lft.to/lastmile_qr_scan", "ios": "https://dc.lft.to/lastmile_qr_scan"}, "fusion_lon": 0.0}, {"lat": 38.920587833333336, "is_disabled": 0, "type": "electric_scooter", "lon": -77.034603, "bike_id": "4891556f7989e95b5f84f7104a659290", "fusion_lat": 0.0, "name": "4891556f7989e95b5f84f7104a659290", "is_reserved": 0, "rental_uris": {"android": "https://dc.lft.to/lastmile_qr_scan", "ios": "https://dc.lft.to/lastmile_qr_scan"}, "fusion_lon": 0.0}, {"lat": 38.90678166666667, "is_disabled": 0, "type": "electric_scooter", "lon": -77.03633133333334, "bike_id": "ddb65897f61912533cd2eb4fe52a7464", "fusion_lat": 0.0, "name": "ddb65897f61912533cd2eb4fe52a7464", "is_reserved": 0, "rental_uris": {"android": "https://dc.lft.to/lastmile_qr_scan", "ios": "https://dc.lft.to/lastmile_qr_scan"}, "fusion_lon": 0.0}, {"lat": 38.916967, "is_disabled": 0, "type": "electric_scooter", "lon": -77.0218155, "bike_id": "c0dcbfe2267de86a6bb81d603a41ac5b", "fusion_lat": 0.0, "name": "c0dcbfe2267de86a6bb81d603a41ac5b", "is_reserved": 0, "rental_uris": {"android": "https://dc.lft.to/lastmile_qr_scan", "ios": "https://dc.lft.to/lastmile_qr_scan"}, "fusion_lon": 0.0}, {"lat": 38.899595166666664, "is_disabled": 0, "type": "electric_scooter", "lon": -77.016216, "bike_id": "b919a325b214df1a709d11ef752efca1", "fusion_lat": 0.0, "name": "b919a325b214df1a709d11ef752efca1", "is_reserved": 0, "rental_uris": {"android": "https://dc.lft.to/lastmile_qr_scan", "ios": "https://dc.lft.to/lastmile_qr_scan"}, "fusion_lon": 0.0}, {"lat": 38.931180833333336, "is_disabled": 0, "type": "electric_scooter", "lon": -77.03032033333334, "bike_id": "d9f9f2614a17510396675667e76f7369", "fusion_lat": 0.0, "name": "d9f9f2614a17510396675667e76f7369", "is_reserved": 0, "rental_uris": {"android": "https://dc.lft.to/lastmile_qr_scan", "ios": "https://dc.lft.to/lastmile_qr_scan"}, "fusion_lon": 0.0}, {"lat": 38.904084166666664, "is_disabled": 0, "type": "electric_scooter", "lon": -77.043537, "bike_id": "3223338ec2bc32096b5beac5a598c9ec", "fusion_lat": 0.0, "name": "3223338ec2bc32096b5beac5a598c9ec", "is_reserved": 0, "rental_uris": {"android": "https://dc.lft.to/lastmile_qr_scan", "ios": "https://dc.lft.to/lastmile_qr_scan"}, "fusion_lon": 0.0}, {"lat": 38.9179835, "is_disabled": 0, "type": "electric_bike", "lon": -77.223337, "bike_id": "7d2138d1e28252087db1b676b1ad28ff", "fusion_lat": 0.0, "name": "7d2138d1e28252087db1b676b1ad28ff", "is_reserved": 0, "rental_uris": {"android": "https://dc.lft.to/lastmile_qr_scan", "ios": "https://dc.lft.to/lastmile_qr_scan"}, "fusion_lon": 0.0}, {"lat": 38.916207, "is_disabled": 0, "type": "electric_scooter", "lon": -77.023983, "bike_id": "14e2c8dd0d989e96a58fd8607fc81d3d", "fusion_lat": 0.0, "name": "14e2c8dd0d989e96a58fd8607fc81d3d", "is_reserved": 0, "rental_uris": {"android": "https://dc.lft.to/lastmile_qr_scan", "ios": "https://dc.lft.to/lastmile_qr_scan"}, "fusion_lon": 0.0}, {"lat": 38.908523333333335, "is_disabled": 0, "type": "electric_scooter", "lon": -77.00622733333333, "bike_id": "5bc7952c623beeb43d2288cd3a4a6e75", "fusion_lat": 0.0, "name": "5bc7952c623beeb43d2288cd3a4a6e75", "is_reserved": 0, "rental_uris": {"android": "https://dc.lft.to/lastmile_qr_scan", "ios": "https://dc.lft.to/lastmile_qr_scan"}, "fusion_lon": 0.0}, {"lat": 38.92900083333333, "is_disabled": 0, "type": "electric_bike", "lon": -77.057804, "bike_id": "ca99f58eb302c92b537d60069932f519", "fusion_lat": 0.0, "name": "ca99f58eb302c92b537d60069932f519", "is_reserved": 0, "rental_uris": {"android": "https://dc.lft.to/lastmile_qr_scan", "ios": "https://dc.lft.to/lastmile_qr_scan"}, "fusion_lon": 0.0}, {"lat": 38.905779333333335, "is_disabled": 0, "type": "electric_scooter", "lon": -77.03469566666666, "bike_id": "4bdf7c7dfe7a0993eb1eba86e6aab901", "fusion_lat": 0.0, "name": "4bdf7c7dfe7a0993eb1eba86e6aab901", "is_reserved": 0, "rental_uris": {"android": "https://dc.lft.to/lastmile_qr_scan", "ios": "https://dc.lft.to/lastmile_qr_scan"}, "fusion_lon": 0.0}, {"lat": 38.926421166666664, "is_disabled": 0, "type": "electric_scooter", "lon": -77.04317016666667, "bike_id": "3d5a8fd4661a2d7c84f521acaa7c9b97", "fusion_lat": 0.0, "name": "3d5a8fd4661a2d7c84f521acaa7c9b97", "is_reserved": 0, "rental_uris": {"android": "https://dc.lft.to/lastmile_qr_scan", "ios": "https://dc.lft.to/lastmile_qr_scan"}, "fusion_lon": 0.0}, {"lat": 38.91681583333333, "is_disabled": 0, "type": "electric_scooter", "lon": -77.0297145, "bike_id": "a1da94e957481cf9cc0ad32a3e14c3a2", "fusion_lat": 0.0, "name": "a1da94e957481cf9cc0ad32a3e14c3a2", "is_reserved": 0, "rental_uris": {"android": "https://dc.lft.to/lastmile_qr_scan", "ios": "https://dc.lft.to/lastmile_qr_scan"}, "fusion_lon": 0.0}, {"lat": 38.904128666666665, "is_disabled": 0, "type": "electric_scooter", "lon": -76.99070733333333, "bike_id": "a37364d5150ae0e7a7d286b2aa56b50a", "fusion_lat": 0.0, "name": "a37364d5150ae0e7a7d286b2aa56b50a", "is_reserved": 0, "rental_uris": {"android": "https://dc.lft.to/lastmile_qr_scan", "ios": "https://dc.lft.to/lastmile_qr_scan"}, "fusion_lon": 0.0}, {"lat": 38.898209333333334, "is_disabled": 0, "type": "electric_scooter", "lon": -76.97426233333333, "bike_id": "1c8630f230f007df0920d0b56013a9d4", "fusion_lat": 0.0, "name": "1c8630f230f007df0920d0b56013a9d4", "is_reserved": 0, "rental_uris": {"android": "https://dc.lft.to/lastmile_qr_scan", "ios": "https://dc.lft.to/lastmile_qr_scan"}, "fusion_lon": 0.0}, {"lat": 38.9451315, "is_disabled": 0, "type": "electric_scooter", "lon": -77.021739, "bike_id": "2fa815cf0baa3d7c758998be7f8034dc", "fusion_lat": 0.0, "name": "2fa815cf0baa3d7c758998be7f8034dc", "is_reserved": 0, "rental_uris": {"android": "https://dc.lft.to/lastmile_qr_scan", "ios": "https://dc.lft.to/lastmile_qr_scan"}, "fusion_lon": 0.0}, {"lat": 38.92244616666667, "is_disabled": 0, "type": "electric_scooter", "lon": -77.04208816666667, "bike_id": "dafa4e2134f0ea85584463577463871f", "fusion_lat": 0.0, "name": "dafa4e2134f0ea85584463577463871f", "is_reserved": 0, "rental_uris": {"android": "https://dc.lft.to/lastmile_qr_scan", "ios": "https://dc.lft.to/lastmile_qr_scan"}, "fusion_lon": 0.0}, {"lat": 38.93221883333333, "is_disabled": 0, "type": "electric_scooter", "lon": -77.02732366666666, "bike_id": "c03913ff374aa19979c39ba7000a5b7a", "fusion_lat": 0.0, "name": "c03913ff374aa19979c39ba7000a5b7a", "is_reserved": 0, "rental_uris": {"android": "https://dc.lft.to/lastmile_qr_scan", "ios": "https://dc.lft.to/lastmile_qr_scan"}, "fusion_lon": 0.0}, {"lat": 38.90601266666667, "is_disabled": 0, "type": "electric_scooter", "lon": -77.04180066666666, "bike_id": "59f70b96014c95dc6b8e291a9864cf6f", "fusion_lat": 0.0, "name": "59f70b96014c95dc6b8e291a9864cf6f", "is_reserved": 0, "rental_uris": {"android": "https://dc.lft.to/lastmile_qr_scan", "ios": "https://dc.lft.to/lastmile_qr_scan"}, "fusion_lon": 0.0}, {"lat": 38.90432666666667, "is_disabled": 0, "type": "electric_scooter", "lon": -77.025034, "bike_id": "d12a97dd01e39d934406fc7e1ecfafc4", "fusion_lat": 0.0, "name": "d12a97dd01e39d934406fc7e1ecfafc4", "is_reserved": 0, "rental_uris": {"android": "https://dc.lft.to/lastmile_qr_scan", "ios": "https://dc.lft.to/lastmile_qr_scan"}, "fusion_lon": 0.0}, {"lat": 38.90095916666667, "is_disabled": 0, "type": "electric_scooter", "lon": -77.05604383333333, "bike_id": "37a93f3ad216a239d7feee68d9cb846e", "fusion_lat": 0.0, "name": "37a93f3ad216a239d7feee68d9cb846e", "is_reserved": 0, "rental_uris": {"android": "https://dc.lft.to/lastmile_qr_scan", "ios": "https://dc.lft.to/lastmile_qr_scan"}, "fusion_lon": 0.0}, {"lat": 38.9003935, "is_disabled": 0, "type": "electric_scooter", "lon": -77.033282, "bike_id": "c2fc11446643f4463659c76050c77353", "fusion_lat": 0.0, "name": "c2fc11446643f4463659c76050c77353", "is_reserved": 0, "rental_uris": {"android": "https://dc.lft.to/lastmile_qr_scan", "ios": "https://dc.lft.to/lastmile_qr_scan"}, "fusion_lon": 0.0}, {"lat": 38.88974116666667, "is_disabled": 0, "type": "electric_scooter", "lon": -76.9374035, "bike_id": "5da6de6819eb988f3cc10bab7c759450", "fusion_lat": 0.0, "name": "5da6de6819eb988f3cc10bab7c759450", "is_reserved": 0, "rental_uris": {"android": "https://dc.lft.to/lastmile_qr_scan", "ios": "https://dc.lft.to/lastmile_qr_scan"}, "fusion_lon": 0.0}, {"lat": 38.8997745, "is_disabled": 0, "type": "electric_scooter", "lon": -77.0190635, "bike_id": "1eeb1776db83f1f5a1ebf47c741dbdb4", "fusion_lat": 0.0, "name": "1eeb1776db83f1f5a1ebf47c741dbdb4", "is_reserved": 0, "rental_uris": {"android": "https://dc.lft.to/lastmile_qr_scan", "ios": "https://dc.lft.to/lastmile_qr_scan"}, "fusion_lon": 0.0}, {"lat": 38.9109505, "is_disabled": 0, "type": "electric_scooter", "lon": -77.02985716666667, "bike_id": "8b1397581b89a8b66c64dd29ce97dc58", "fusion_lat": 0.0, "name": "8b1397581b89a8b66c64dd29ce97dc58", "is_reserved": 0, "rental_uris": {"android": "https://dc.lft.to/lastmile_qr_scan", "ios": "https://dc.lft.to/lastmile_qr_scan"}, "fusion_lon": 0.0}, {"lat": 38.859226666666665, "is_disabled": 0, "type": "electric_scooter", "lon": -76.98985366666666, "bike_id": "80eff2c6602591477c4dd6ca3cbf9623", "fusion_lat": 0.0, "name": "80eff2c6602591477c4dd6ca3cbf9623", "is_reserved": 0, "rental_uris": {"android": "https://dc.lft.to/lastmile_qr_scan", "ios": "https://dc.lft.to/lastmile_qr_scan"}, "fusion_lon": 0.0}, {"lat": 38.892227166666665, "is_disabled": 0, "type": "electric_scooter", "lon": -76.93297383333334, "bike_id": "e20fe602d410b9131e615eccda9e45ee", "fusion_lat": 0.0, "name": "e20fe602d410b9131e615eccda9e45ee", "is_reserved": 0, "rental_uris": {"android": "https://dc.lft.to/lastmile_qr_scan", "ios": "https://dc.lft.to/lastmile_qr_scan"}, "fusion_lon": 0.0}, {"lat": 38.866524, "is_disabled": 0, "type": "electric_scooter", "lon": -76.9888895, "bike_id": "3cff8fed93fff7efccaae81ef43defe6", "fusion_lat": 0.0, "name": "3cff8fed93fff7efccaae81ef43defe6", "is_reserved": 0, "rental_uris": {"android": "https://dc.lft.to/lastmile_qr_scan", "ios": "https://dc.lft.to/lastmile_qr_scan"}, "fusion_lon": 0.0}, {"lat": 38.884929, "is_disabled": 0, "type": "electric_scooter", "lon": -77.00706766666667, "bike_id": "d318efc84d9caebcbcc5039925626192", "fusion_lat": 0.0, "name": "d318efc84d9caebcbcc5039925626192", "is_reserved": 0, "rental_uris": {"android": "https://dc.lft.to/lastmile_qr_scan", "ios": "https://dc.lft.to/lastmile_qr_scan"}, "fusion_lon": 0.0}, {"lat": 38.886879666666665, "is_disabled": 0, "type": "electric_scooter", "lon": -77.0129785, "bike_id": "4ad036b76d2cb8ff2b5981742f4bf204", "fusion_lat": 0.0, "name": "4ad036b76d2cb8ff2b5981742f4bf204", "is_reserved": 0, "rental_uris": {"android": "https://dc.lft.to/lastmile_qr_scan", "ios": "https://dc.lft.to/lastmile_qr_scan"}, "fusion_lon": 0.0}, {"lat": 38.91912, "is_disabled": 0, "type": "electric_scooter", "lon": -77.04186283333334, "bike_id": "854f53e6840dce0a5957bab653f0873a", "fusion_lat": 0.0, "name": "854f53e6840dce0a5957bab653f0873a", "is_reserved": 0, "rental_uris": {"android": "https://dc.lft.to/lastmile_qr_scan", "ios": "https://dc.lft.to/lastmile_qr_scan"}, "fusion_lon": 0.0}, {"lat": 38.8005865, "is_disabled": 0, "type": "electric_bike", "lon": -77.07109783333334, "bike_id": "8368fd68cdd7c22b0cb2df4c384396d1", "fusion_lat": 0.0, "name": "8368fd68cdd7c22b0cb2df4c384396d1", "is_reserved": 0, "rental_uris": {"android": "https://dc.lft.to/lastmile_qr_scan", "ios": "https://dc.lft.to/lastmile_qr_scan"}, "fusion_lon": 0.0}, {"lat": 38.86617733333333, "is_disabled": 0, "type": "electric_scooter", "lon": -76.98661566666667, "bike_id": "03884a39ea7b39484c3d1e61b70c1709", "fusion_lat": 0.0, "name": "03884a39ea7b39484c3d1e61b70c1709", "is_reserved": 0, "rental_uris": {"android": "https://dc.lft.to/lastmile_qr_scan", "ios": "https://dc.lft.to/lastmile_qr_scan"}, "fusion_lon": 0.0}, {"lat": 38.902819666666666, "is_disabled": 0, "type": "electric_scooter", "lon": -77.04703033333334, "bike_id": "e378289a5f420bf6dc852d4836c8f2d2", "fusion_lat": 0.0, "name": "e378289a5f420bf6dc852d4836c8f2d2", "is_reserved": 0, "rental_uris": {"android": "https://dc.lft.to/lastmile_qr_scan", "ios": "https://dc.lft.to/lastmile_qr_scan"}, "fusion_lon": 0.0}, {"lat": 38.92471316666666, "is_disabled": 0, "type": "electric_bike", "lon": -77.20842083333334, "bike_id": "ccfb11b0bef501d5eae3faf2b6aeec5b", "fusion_lat": 0.0, "name": "ccfb11b0bef501d5eae3faf2b6aeec5b", "is_reserved": 0, "rental_uris": {"android": "https://dc.lft.to/lastmile_qr_scan", "ios": "https://dc.lft.to/lastmile_qr_scan"}, "fusion_lon": 0.0}, {"lat": 38.917034666666666, "is_disabled": 0, "type": "electric_scooter", "lon": -77.04274083333334, "bike_id": "68388914c9d0271cf2c2971f4b2e8f5f", "fusion_lat": 0.0, "name": "68388914c9d0271cf2c2971f4b2e8f5f", "is_reserved": 0, "rental_uris": {"android": "https://dc.lft.to/lastmile_qr_scan", "ios": "https://dc.lft.to/lastmile_qr_scan"}, "fusion_lon": 0.0}, {"lat": 38.87962783333333, "is_disabled": 0, "type": "electric_scooter", "lon": -77.01747883333333, "bike_id": "3c677a54c17f48c5ca7c0bb0861e449a", "fusion_lat": 0.0, "name": "3c677a54c17f48c5ca7c0bb0861e449a", "is_reserved": 0, "rental_uris": {"android": "https://dc.lft.to/lastmile_qr_scan", "ios": "https://dc.lft.to/lastmile_qr_scan"}, "fusion_lon": 0.0}, {"lat": 38.904065, "is_disabled": 0, "type": "electric_bike", "lon": -77.06528833333333, "bike_id": "9b92910911909460d611ad1c0ac12749", "fusion_lat": 0.0, "name": "9b92910911909460d611ad1c0ac12749", "is_reserved": 0, "rental_uris": {"android": "https://dc.lft.to/lastmile_qr_scan", "ios": "https://dc.lft.to/lastmile_qr_scan"}, "fusion_lon": 0.0}, {"lat": 38.900419166666666, "is_disabled": 0, "type": "electric_scooter", "lon": -77.0059255, "bike_id": "8b30e7bc5deab2b87c7adb62a365deb9", "fusion_lat": 0.0, "name": "8b30e7bc5deab2b87c7adb62a365deb9", "is_reserved": 0, "rental_uris": {"android": "https://dc.lft.to/lastmile_qr_scan", "ios": "https://dc.lft.to/lastmile_qr_scan"}, "fusion_lon": 0.0}, {"lat": 38.91404033333333, "is_disabled": 0, "type": "electric_scooter", "lon": -76.98948283333333, "bike_id": "4ea488ba686d6af999b2aa8c0c44e518", "fusion_lat": 0.0, "name": "4ea488ba686d6af999b2aa8c0c44e518", "is_reserved": 0, "rental_uris": {"android": "https://dc.lft.to/lastmile_qr_scan", "ios": "https://dc.lft.to/lastmile_qr_scan"}, "fusion_lon": 0.0}, {"lat": 38.9257085, "is_disabled": 0, "type": "electric_scooter", "lon": -77.02564233333334, "bike_id": "55363f47c8b37d9828ec2a40cf5266d2", "fusion_lat": 0.0, "name": "55363f47c8b37d9828ec2a40cf5266d2", "is_reserved": 0, "rental_uris": {"android": "https://dc.lft.to/lastmile_qr_scan", "ios": "https://dc.lft.to/lastmile_qr_scan"}, "fusion_lon": 0.0}, {"lat": 38.924461, "is_disabled": 0, "type": "electric_scooter", "lon": -76.99329033333333, "bike_id": "1f7b4a6e51047b6a0011391725e02f56", "fusion_lat": 0.0, "name": "1f7b4a6e51047b6a0011391725e02f56", "is_reserved": 0, "rental_uris": {"android": "https://dc.lft.to/lastmile_qr_scan", "ios": "https://dc.lft.to/lastmile_qr_scan"}, "fusion_lon": 0.0}, {"lat": 38.92165083333333, "is_disabled": 0, "type": "electric_scooter", "lon": -77.03860333333333, "bike_id": "aa41a46657edf6d8830f340524958dd9", "fusion_lat": 0.0, "name": "aa41a46657edf6d8830f340524958dd9", "is_reserved": 0, "rental_uris": {"android": "https://dc.lft.to/lastmile_qr_scan", "ios": "https://dc.lft.to/lastmile_qr_scan"}, "fusion_lon": 0.0}, {"lat": 38.944669, "is_disabled": 0, "type": "electric_scooter", "lon": -77.060366, "bike_id": "a719fa11468016ba8fa2c4a3825c203a", "fusion_lat": 0.0, "name": "a719fa11468016ba8fa2c4a3825c203a", "is_reserved": 0, "rental_uris": {"android": "https://dc.lft.to/lastmile_qr_scan", "ios": "https://dc.lft.to/lastmile_qr_scan"}, "fusion_lon": 0.0}, {"lat": 38.935961166666665, "is_disabled": 0, "type": "electric_scooter", "lon": -77.03536716666666, "bike_id": "e8fdd4c8bd23b38a5db7041ec10fcb8d", "fusion_lat": 0.0, "name": "e8fdd4c8bd23b38a5db7041ec10fcb8d", "is_reserved": 0, "rental_uris": {"android": "https://dc.lft.to/lastmile_qr_scan", "ios": "https://dc.lft.to/lastmile_qr_scan"}, "fusion_lon": 0.0}, {"lat": 38.90963, "is_disabled": 0, "type": "electric_scooter", "lon": -77.03738116666666, "bike_id": "c0e406e6bc9802f85f3a8579542f401c", "fusion_lat": 0.0, "name": "c0e406e6bc9802f85f3a8579542f401c", "is_reserved": 0, "rental_uris": {"android": "https://dc.lft.to/lastmile_qr_scan", "ios": "https://dc.lft.to/lastmile_qr_scan"}, "fusion_lon": 0.0}, {"lat": 38.858117666666665, "is_disabled": 0, "type": "electric_scooter", "lon": -76.9865655, "bike_id": "0f96e1606fb7b676645c01b7dd1e8d54", "fusion_lat": 0.0, "name": "0f96e1606fb7b676645c01b7dd1e8d54", "is_reserved": 0, "rental_uris": {"android": "https://dc.lft.to/lastmile_qr_scan", "ios": "https://dc.lft.to/lastmile_qr_scan"}, "fusion_lon": 0.0}, {"lat": 38.87423233333333, "is_disabled": 0, "type": "electric_bike", "lon": -77.0857505, "bike_id": "17e6af23b3b3cf9d5afe620a17a2565c", "fusion_lat": 0.0, "name": "17e6af23b3b3cf9d5afe620a17a2565c", "is_reserved": 0, "rental_uris": {"android": "https://dc.lft.to/lastmile_qr_scan", "ios": "https://dc.lft.to/lastmile_qr_scan"}, "fusion_lon": 0.0}, {"lat": 38.917854166666665, "is_disabled": 0, "type": "electric_scooter", "lon": -77.0223175, "bike_id": "59fe9c683aa0f171e1337993a5886a17", "fusion_lat": 0.0, "name": "59fe9c683aa0f171e1337993a5886a17", "is_reserved": 0, "rental_uris": {"android": "https://dc.lft.to/lastmile_qr_scan", "ios": "https://dc.lft.to/lastmile_qr_scan"}, "fusion_lon": 0.0}, {"lat": 38.931418666666666, "is_disabled": 0, "type": "electric_scooter", "lon": -77.02143866666667, "bike_id": "6c0e28328400ee16bc192f14b74210fd", "fusion_lat": 0.0, "name": "6c0e28328400ee16bc192f14b74210fd", "is_reserved": 0, "rental_uris": {"android": "https://dc.lft.to/lastmile_qr_scan", "ios": "https://dc.lft.to/lastmile_qr_scan"}, "fusion_lon": 0.0}, {"lat": 38.896002, "is_disabled": 0, "type": "electric_scooter", "lon": -76.95519283333333, "bike_id": "801a17f232d7528d85da9f8fee5686b2", "fusion_lat": 0.0, "name": "801a17f232d7528d85da9f8fee5686b2", "is_reserved": 0, "rental_uris": {"android": "https://dc.lft.to/lastmile_qr_scan", "ios": "https://dc.lft.to/lastmile_qr_scan"}, "fusion_lon": 0.0}, {"lat": 38.90033833333333, "is_disabled": 0, "type": "electric_scooter", "lon": -76.98370316666667, "bike_id": "a103c8adc405df9198bbd6021834e06b", "fusion_lat": 0.0, "name": "a103c8adc405df9198bbd6021834e06b", "is_reserved": 0, "rental_uris": {"android": "https://dc.lft.to/lastmile_qr_scan", "ios": "https://dc.lft.to/lastmile_qr_scan"}, "fusion_lon": 0.0}, {"lat": 38.9407055, "is_disabled": 0, "type": "electric_scooter", "lon": -76.994654, "bike_id": "88a1b4f3d0d6a9331936632b9f685a4b", "fusion_lat": 0.0, "name": "88a1b4f3d0d6a9331936632b9f685a4b", "is_reserved": 0, "rental_uris": {"android": "https://dc.lft.to/lastmile_qr_scan", "ios": "https://dc.lft.to/lastmile_qr_scan"}, "fusion_lon": 0.0}, {"lat": 38.897084166666666, "is_disabled": 0, "type": "electric_scooter", "lon": -77.02289116666667, "bike_id": "175a1b07a3418093fd4f6ad2c6e25daa", "fusion_lat": 0.0, "name": "175a1b07a3418093fd4f6ad2c6e25daa", "is_reserved": 0, "rental_uris": {"android": "https://dc.lft.to/lastmile_qr_scan", "ios": "https://dc.lft.to/lastmile_qr_scan"}, "fusion_lon": 0.0}, {"lat": 38.850286833333335, "is_disabled": 0, "type": "electric_bike", "lon": -77.09806583333334, "bike_id": "f6410ab4b8aecd33acc6ec1838f8c240", "fusion_lat": 0.0, "name": "f6410ab4b8aecd33acc6ec1838f8c240", "is_reserved": 0, "rental_uris": {"android": "https://dc.lft.to/lastmile_qr_scan", "ios": "https://dc.lft.to/lastmile_qr_scan"}, "fusion_lon": 0.0}, {"lat": 38.901998666666664, "is_disabled": 0, "type": "electric_scooter", "lon": -77.02389316666667, "bike_id": "7cab21e58d7c91862b5e2cbb369dfab6", "fusion_lat": 0.0, "name": "7cab21e58d7c91862b5e2cbb369dfab6", "is_reserved": 0, "rental_uris": {"android": "https://dc.lft.to/lastmile_qr_scan", "ios": "https://dc.lft.to/lastmile_qr_scan"}, "fusion_lon": 0.0}, {"lat": 38.897653, "is_disabled": 0, "type": "electric_scooter", "lon": -77.05008833333333, "bike_id": "1562b987d0b19247da18b2b0447b1909", "fusion_lat": 0.0, "name": "1562b987d0b19247da18b2b0447b1909", "is_reserved": 0, "rental_uris": {"android": "https://dc.lft.to/lastmile_qr_scan", "ios": "https://dc.lft.to/lastmile_qr_scan"}, "fusion_lon": 0.0}, {"lat": 38.884822666666665, "is_disabled": 0, "type": "electric_scooter", "lon": -76.945249, "bike_id": "758a06861725708b48be8c5d3059a612", "fusion_lat": 0.0, "name": "758a06861725708b48be8c5d3059a612", "is_reserved": 0, "rental_uris": {"android": "https://dc.lft.to/lastmile_qr_scan", "ios": "https://dc.lft.to/lastmile_qr_scan"}, "fusion_lon": 0.0}, {"lat": 38.90974716666667, "is_disabled": 0, "type": "electric_scooter", "lon": -77.03215116666667, "bike_id": "cb1e6138603659082532f0306b796c1e", "fusion_lat": 0.0, "name": "cb1e6138603659082532f0306b796c1e", "is_reserved": 0, "rental_uris": {"android": "https://dc.lft.to/lastmile_qr_scan", "ios": "https://dc.lft.to/lastmile_qr_scan"}, "fusion_lon": 0.0}, {"lat": 38.9014025, "is_disabled": 0, "type": "electric_scooter", "lon": -77.01578033333334, "bike_id": "92a30299c6bb00be64d65a306dafe77f", "fusion_lat": 0.0, "name": "92a30299c6bb00be64d65a306dafe77f", "is_reserved": 0, "rental_uris": {"android": "https://dc.lft.to/lastmile_qr_scan", "ios": "https://dc.lft.to/lastmile_qr_scan"}, "fusion_lon": 0.0}, {"lat": 38.9353915, "is_disabled": 0, "type": "electric_scooter", "lon": -77.0340185, "bike_id": "3f1570a69c47fea00cea43a1180eaec6", "fusion_lat": 0.0, "name": "3f1570a69c47fea00cea43a1180eaec6", "is_reserved": 0, "rental_uris": {"android": "https://dc.lft.to/lastmile_qr_scan", "ios": "https://dc.lft.to/lastmile_qr_scan"}, "fusion_lon": 0.0}, {"lat": 38.89969416666667, "is_disabled": 0, "type": "electric_scooter", "lon": -77.03384416666667, "bike_id": "39e1a038057ec30184891b78cc2e2fa5", "fusion_lat": 0.0, "name": "39e1a038057ec30184891b78cc2e2fa5", "is_reserved": 0, "rental_uris": {"android": "https://dc.lft.to/lastmile_qr_scan", "ios": "https://dc.lft.to/lastmile_qr_scan"}, "fusion_lon": 0.0}, {"lat": 38.95257016666667, "is_disabled": 0, "type": "electric_bike", "lon": -77.023963, "bike_id": "19d1025586dbfa1a0a8034ee27632c0a", "fusion_lat": 0.0, "name": "19d1025586dbfa1a0a8034ee27632c0a", "is_reserved": 0, "rental_uris": {"android": "https://dc.lft.to/lastmile_qr_scan", "ios": "https://dc.lft.to/lastmile_qr_scan"}, "fusion_lon": 0.0}, {"lat": 38.8670025, "is_disabled": 0, "type": "electric_scooter", "lon": -76.9871175, "bike_id": "9fc1d2082dcd43736c4394f4bf6378d1", "fusion_lat": 0.0, "name": "9fc1d2082dcd43736c4394f4bf6378d1", "is_reserved": 0, "rental_uris": {"android": "https://dc.lft.to/lastmile_qr_scan", "ios": "https://dc.lft.to/lastmile_qr_scan"}, "fusion_lon": 0.0}, {"lat": 38.894337166666666, "is_disabled": 0, "type": "electric_scooter", "lon": -77.03177816666667, "bike_id": "e6a4e06bf796b6bcfe4a6a6d25e96334", "fusion_lat": 0.0, "name": "e6a4e06bf796b6bcfe4a6a6d25e96334", "is_reserved": 0, "rental_uris": {"android": "https://dc.lft.to/lastmile_qr_scan", "ios": "https://dc.lft.to/lastmile_qr_scan"}, "fusion_lon": 0.0}, {"lat": 38.930891833333334, "is_disabled": 0, "type": "electric_scooter", "lon": -77.07747683333334, "bike_id": "f84b1a93716b94426bee69ea2a28dc45", "fusion_lat": 0.0, "name": "f84b1a93716b94426bee69ea2a28dc45", "is_reserved": 0, "rental_uris": {"android": "https://dc.lft.to/lastmile_qr_scan", "ios": "https://dc.lft.to/lastmile_qr_scan"}, "fusion_lon": 0.0}, {"lat": 38.89230833333333, "is_disabled": 0, "type": "electric_scooter", "lon": -77.049989, "bike_id": "6d33184c2226f1fe865797346434bd85", "fusion_lat": 0.0, "name": "6d33184c2226f1fe865797346434bd85", "is_reserved": 0, "rental_uris": {"android": "https://dc.lft.to/lastmile_qr_scan", "ios": "https://dc.lft.to/lastmile_qr_scan"}, "fusion_lon": 0.0}, {"lat": 38.91003716666667, "is_disabled": 0, "type": "electric_scooter", "lon": -76.98619233333334, "bike_id": "94affd1f53414fb2f929b222168bfdc1", "fusion_lat": 0.0, "name": "94affd1f53414fb2f929b222168bfdc1", "is_reserved": 0, "rental_uris": {"android": "https://dc.lft.to/lastmile_qr_scan", "ios": "https://dc.lft.to/lastmile_qr_scan"}, "fusion_lon": 0.0}, {"lat": 38.91682083333333, "is_disabled": 0, "type": "electric_scooter", "lon": -77.029716, "bike_id": "c667b9debff5ae077363f45abd271933", "fusion_lat": 0.0, "name": "c667b9debff5ae077363f45abd271933", "is_reserved": 0, "rental_uris": {"android": "https://dc.lft.to/lastmile_qr_scan", "ios": "https://dc.lft.to/lastmile_qr_scan"}, "fusion_lon": 0.0}, {"lat": 38.9242365, "is_disabled": 0, "type": "electric_scooter", "lon": -77.02975933333333, "bike_id": "7b34a87738d1b26485eb6e1ec1bc02e6", "fusion_lat": 0.0, "name": "7b34a87738d1b26485eb6e1ec1bc02e6", "is_reserved": 0, "rental_uris": {"android": "https://dc.lft.to/lastmile_qr_scan", "ios": "https://dc.lft.to/lastmile_qr_scan"}, "fusion_lon": 0.0}, {"lat": 38.957344, "is_disabled": 0, "type": "electric_scooter", "lon": -77.02421633333333, "bike_id": "53b217cf6dbf4235e2712a3f813893bf", "fusion_lat": 0.0, "name": "53b217cf6dbf4235e2712a3f813893bf", "is_reserved": 0, "rental_uris": {"android": "https://dc.lft.to/lastmile_qr_scan", "ios": "https://dc.lft.to/lastmile_qr_scan"}, "fusion_lon": 0.0}, {"lat": 38.8701285, "is_disabled": 0, "type": "electric_bike", "lon": -76.96024516666667, "bike_id": "91e132f1682e2a84739ba8c637309db4", "fusion_lat": 0.0, "name": "91e132f1682e2a84739ba8c637309db4", "is_reserved": 0, "rental_uris": {"android": "https://dc.lft.to/lastmile_qr_scan", "ios": "https://dc.lft.to/lastmile_qr_scan"}, "fusion_lon": 0.0}, {"lat": 38.90865433333333, "is_disabled": 0, "type": "electric_scooter", "lon": -77.04590366666666, "bike_id": "01867ed54137f61f64b8ee0819f37d4e", "fusion_lat": 0.0, "name": "01867ed54137f61f64b8ee0819f37d4e", "is_reserved": 0, "rental_uris": {"android": "https://dc.lft.to/lastmile_qr_scan", "ios": "https://dc.lft.to/lastmile_qr_scan"}, "fusion_lon": 0.0}, {"lat": 38.83675433333333, "is_disabled": 0, "type": "electric_scooter", "lon": -77.00573866666667, "bike_id": "930313f5e99e5e6fa553eccdd4513e02", "fusion_lat": 0.0, "name": "930313f5e99e5e6fa553eccdd4513e02", "is_reserved": 0, "rental_uris": {"android": "https://dc.lft.to/lastmile_qr_scan", "ios": "https://dc.lft.to/lastmile_qr_scan"}, "fusion_lon": 0.0}, {"lat": 38.9536425, "is_disabled": 0, "type": "electric_bike", "lon": -76.97978116666667, "bike_id": "e6655e8cf8e279863f81446a14f9800e", "fusion_lat": 0.0, "name": "e6655e8cf8e279863f81446a14f9800e", "is_reserved": 0, "rental_uris": {"android": "https://dc.lft.to/lastmile_qr_scan", "ios": "https://dc.lft.to/lastmile_qr_scan"}, "fusion_lon": 0.0}, {"lat": 38.90598683333333, "is_disabled": 0, "type": "electric_scooter", "lon": -77.063016, "bike_id": "8d33007d23cf854f7f3dc6843660cc85", "fusion_lat": 0.0, "name": "8d33007d23cf854f7f3dc6843660cc85", "is_reserved": 0, "rental_uris": {"android": "https://dc.lft.to/lastmile_qr_scan", "ios": "https://dc.lft.to/lastmile_qr_scan"}, "fusion_lon": 0.0}, {"lat": 38.91917516666667, "is_disabled": 0, "type": "electric_scooter", "lon": -77.013431, "bike_id": "d4066cdbc63d27a6f8d0b6f20b806589", "fusion_lat": 0.0, "name": "d4066cdbc63d27a6f8d0b6f20b806589", "is_reserved": 0, "rental_uris": {"android": "https://dc.lft.to/lastmile_qr_scan", "ios": "https://dc.lft.to/lastmile_qr_scan"}, "fusion_lon": 0.0}, {"lat": 38.900684166666665, "is_disabled": 0, "type": "electric_scooter", "lon": -77.00218783333334, "bike_id": "a59a1fccee8fa342ebf05300f59c0b3b", "fusion_lat": 0.0, "name": "a59a1fccee8fa342ebf05300f59c0b3b", "is_reserved": 0, "rental_uris": {"android": "https://dc.lft.to/lastmile_qr_scan", "ios": "https://dc.lft.to/lastmile_qr_scan"}, "fusion_lon": 0.0}, {"lat": 38.930983833333336, "is_disabled": 0, "type": "electric_scooter", "lon": -77.02473383333333, "bike_id": "f1371009d5ddc7a80f750b80a1f615d3", "fusion_lat": 0.0, "name": "f1371009d5ddc7a80f750b80a1f615d3", "is_reserved": 0, "rental_uris": {"android": "https://dc.lft.to/lastmile_qr_scan", "ios": "https://dc.lft.to/lastmile_qr_scan"}, "fusion_lon": 0.0}, {"lat": 38.908485, "is_disabled": 0, "type": "electric_scooter", "lon": -77.04768716666666, "bike_id": "22d5460c73e8a53f8d4678a41ab0fb30", "fusion_lat": 0.0, "name": "22d5460c73e8a53f8d4678a41ab0fb30", "is_reserved": 0, "rental_uris": {"android": "https://dc.lft.to/lastmile_qr_scan", "ios": "https://dc.lft.to/lastmile_qr_scan"}, "fusion_lon": 0.0}, {"lat": 38.8772835, "is_disabled": 0, "type": "electric_scooter", "lon": -77.00357866666667, "bike_id": "ca3eb2e40906a39e858201ca061bda5a", "fusion_lat": 0.0, "name": "ca3eb2e40906a39e858201ca061bda5a", "is_reserved": 0, "rental_uris": {"android": "https://dc.lft.to/lastmile_qr_scan", "ios": "https://dc.lft.to/lastmile_qr_scan"}, "fusion_lon": 0.0}, {"lat": 38.915628833333336, "is_disabled": 0, "type": "electric_scooter", "lon": -77.01039666666667, "bike_id": "44b29f6c8f5c0bbd338034d6e32e134b", "fusion_lat": 0.0, "name": "44b29f6c8f5c0bbd338034d6e32e134b", "is_reserved": 0, "rental_uris": {"android": "https://dc.lft.to/lastmile_qr_scan", "ios": "https://dc.lft.to/lastmile_qr_scan"}, "fusion_lon": 0.0}, {"lat": 38.93296683333333, "is_disabled": 0, "type": "electric_scooter", "lon": -77.0453255, "bike_id": "913edcf455bb8ff8f7ece91f691e3246", "fusion_lat": 0.0, "name": "913edcf455bb8ff8f7ece91f691e3246", "is_reserved": 0, "rental_uris": {"android": "https://dc.lft.to/lastmile_qr_scan", "ios": "https://dc.lft.to/lastmile_qr_scan"}, "fusion_lon": 0.0}, {"lat": 38.98432566666666, "is_disabled": 0, "type": "electric_scooter", "lon": -77.0267565, "bike_id": "0b4386e96c8a470c75dd583c4f3f8404", "fusion_lat": 0.0, "name": "0b4386e96c8a470c75dd583c4f3f8404", "is_reserved": 0, "rental_uris": {"android": "https://dc.lft.to/lastmile_qr_scan", "ios": "https://dc.lft.to/lastmile_qr_scan"}, "fusion_lon": 0.0}, {"lat": 38.91467816666667, "is_disabled": 0, "type": "electric_scooter", "lon": -77.01437566666667, "bike_id": "14f1b63860aae0cc7232d398500dcd6b", "fusion_lat": 0.0, "name": "14f1b63860aae0cc7232d398500dcd6b", "is_reserved": 0, "rental_uris": {"android": "https://dc.lft.to/lastmile_qr_scan", "ios": "https://dc.lft.to/lastmile_qr_scan"}, "fusion_lon": 0.0}, {"lat": 38.87073616666667, "is_disabled": 0, "type": "electric_bike", "lon": -76.97843533333334, "bike_id": "19bfc624fc214e63e17297d50dcefe65", "fusion_lat": 0.0, "name": "19bfc624fc214e63e17297d50dcefe65", "is_reserved": 0, "rental_uris": {"android": "https://dc.lft.to/lastmile_qr_scan", "ios": "https://dc.lft.to/lastmile_qr_scan"}, "fusion_lon": 0.0}, {"lat": 38.887994666666664, "is_disabled": 0, "type": "electric_scooter", "lon": -76.93360366666667, "bike_id": "050a8474017b03e2d35a0656acd76f8f", "fusion_lat": 0.0, "name": "050a8474017b03e2d35a0656acd76f8f", "is_reserved": 0, "rental_uris": {"android": "https://dc.lft.to/lastmile_qr_scan", "ios": "https://dc.lft.to/lastmile_qr_scan"}, "fusion_lon": 0.0}, {"lat": 38.924674333333336, "is_disabled": 0, "type": "electric_bike", "lon": -77.03754633333334, "bike_id": "d0079c7e8f897debe6edcb91f1ff2f3c", "fusion_lat": 0.0, "name": "d0079c7e8f897debe6edcb91f1ff2f3c", "is_reserved": 0, "rental_uris": {"android": "https://dc.lft.to/lastmile_qr_scan", "ios": "https://dc.lft.to/lastmile_qr_scan"}, "fusion_lon": 0.0}, {"lat": 38.827851, "is_disabled": 0, "type": "electric_bike", "lon": -77.00920516666666, "bike_id": "5c2bb45178521d36da2e052c1427ab20", "fusion_lat": 0.0, "name": "5c2bb45178521d36da2e052c1427ab20", "is_reserved": 0, "rental_uris": {"android": "https://dc.lft.to/lastmile_qr_scan", "ios": "https://dc.lft.to/lastmile_qr_scan"}, "fusion_lon": 0.0}, {"lat": 38.909705333333335, "is_disabled": 0, "type": "electric_bike", "lon": -77.08819083333333, "bike_id": "197d9aa22bb82123ee22e5da9f38914c", "fusion_lat": 0.0, "name": "197d9aa22bb82123ee22e5da9f38914c", "is_reserved": 0, "rental_uris": {"android": "https://dc.lft.to/lastmile_qr_scan", "ios": "https://dc.lft.to/lastmile_qr_scan"}, "fusion_lon": 0.0}, {"lat": 38.92353133333334, "is_disabled": 0, "type": "electric_scooter", "lon": -77.05432383333333, "bike_id": "046250ec631e0ecf42d8a0730e5f1fe8", "fusion_lat": 0.0, "name": "046250ec631e0ecf42d8a0730e5f1fe8", "is_reserved": 0, "rental_uris": {"android": "https://dc.lft.to/lastmile_qr_scan", "ios": "https://dc.lft.to/lastmile_qr_scan"}, "fusion_lon": 0.0}, {"lat": 38.876385, "is_disabled": 0, "type": "electric_scooter", "lon": -76.99320366666667, "bike_id": "4a638c0c3fbce3137387be13f20f1d33", "fusion_lat": 0.0, "name": "4a638c0c3fbce3137387be13f20f1d33", "is_reserved": 0, "rental_uris": {"android": "https://dc.lft.to/lastmile_qr_scan", "ios": "https://dc.lft.to/lastmile_qr_scan"}, "fusion_lon": 0.0}, {"lat": 38.9086775, "is_disabled": 0, "type": "electric_scooter", "lon": -77.03223633333333, "bike_id": "fd879cc9dee352c310affa63927f8904", "fusion_lat": 0.0, "name": "fd879cc9dee352c310affa63927f8904", "is_reserved": 0, "rental_uris": {"android": "https://dc.lft.to/lastmile_qr_scan", "ios": "https://dc.lft.to/lastmile_qr_scan"}, "fusion_lon": 0.0}, {"lat": 38.928574, "is_disabled": 0, "type": "electric_bike", "lon": -77.222232, "bike_id": "7a2dac42a5e4965d85ef802ef6463c2b", "fusion_lat": 0.0, "name": "7a2dac42a5e4965d85ef802ef6463c2b", "is_reserved": 0, "rental_uris": {"android": "https://dc.lft.to/lastmile_qr_scan", "ios": "https://dc.lft.to/lastmile_qr_scan"}, "fusion_lon": 0.0}, {"lat": 38.87213333333333, "is_disabled": 0, "type": "electric_bike", "lon": -77.01526533333333, "bike_id": "3868d57518290c8d59066300d7459689", "fusion_lat": 0.0, "name": "3868d57518290c8d59066300d7459689", "is_reserved": 0, "rental_uris": {"android": "https://dc.lft.to/lastmile_qr_scan", "ios": "https://dc.lft.to/lastmile_qr_scan"}, "fusion_lon": 0.0}, {"lat": 38.91778983333333, "is_disabled": 0, "type": "electric_scooter", "lon": -77.028861, "bike_id": "5c81e903675b0884ecbf18c7be9d1990", "fusion_lat": 0.0, "name": "5c81e903675b0884ecbf18c7be9d1990", "is_reserved": 0, "rental_uris": {"android": "https://dc.lft.to/lastmile_qr_scan", "ios": "https://dc.lft.to/lastmile_qr_scan"}, "fusion_lon": 0.0}, {"lat": 38.90329883333333, "is_disabled": 0, "type": "electric_scooter", "lon": -77.02886133333334, "bike_id": "2ebbaaa0234f5e0d2f9452fe0f70d819", "fusion_lat": 0.0, "name": "2ebbaaa0234f5e0d2f9452fe0f70d819", "is_reserved": 0, "rental_uris": {"android": "https://dc.lft.to/lastmile_qr_scan", "ios": "https://dc.lft.to/lastmile_qr_scan"}, "fusion_lon": 0.0}, {"lat": 38.915071, "is_disabled": 0, "type": "electric_bike", "lon": -77.02035183333334, "bike_id": "9ba02bf64f51b5c64d026c0cdf8fd27e", "fusion_lat": 0.0, "name": "9ba02bf64f51b5c64d026c0cdf8fd27e", "is_reserved": 0, "rental_uris": {"android": "https://dc.lft.to/lastmile_qr_scan", "ios": "https://dc.lft.to/lastmile_qr_scan"}, "fusion_lon": 0.0}, {"lat": 38.9313415, "is_disabled": 0, "type": "electric_scooter", "lon": -77.03254766666667, "bike_id": "839febadaa92d36cb6c3dd33b534f9e8", "fusion_lat": 0.0, "name": "839febadaa92d36cb6c3dd33b534f9e8", "is_reserved": 0, "rental_uris": {"android": "https://dc.lft.to/lastmile_qr_scan", "ios": "https://dc.lft.to/lastmile_qr_scan"}, "fusion_lon": 0.0}, {"lat": 39.08857483333333, "is_disabled": 0, "type": "electric_bike", "lon": -77.17839683333334, "bike_id": "4ff2ea9286d45ea50ceeba1ea493cc82", "fusion_lat": 0.0, "name": "4ff2ea9286d45ea50ceeba1ea493cc82", "is_reserved": 0, "rental_uris": {"android": "https://dc.lft.to/lastmile_qr_scan", "ios": "https://dc.lft.to/lastmile_qr_scan"}, "fusion_lon": 0.0}, {"lat": 38.90232066666667, "is_disabled": 0, "type": "electric_scooter", "lon": -77.04339633333333, "bike_id": "deeb6d8dcb8606b57cecf7fb44c5329b", "fusion_lat": 0.0, "name": "deeb6d8dcb8606b57cecf7fb44c5329b", "is_reserved": 0, "rental_uris": {"android": "https://dc.lft.to/lastmile_qr_scan", "ios": "https://dc.lft.to/lastmile_qr_scan"}, "fusion_lon": 0.0}, {"lat": 38.916875166666664, "is_disabled": 0, "type": "electric_scooter", "lon": -77.0269505, "bike_id": "3f180603836962abbd2381bd34d205b8", "fusion_lat": 0.0, "name": "3f180603836962abbd2381bd34d205b8", "is_reserved": 0, "rental_uris": {"android": "https://dc.lft.to/lastmile_qr_scan", "ios": "https://dc.lft.to/lastmile_qr_scan"}, "fusion_lon": 0.0}, {"lat": 38.922597, "is_disabled": 0, "type": "electric_scooter", "lon": -77.0429215, "bike_id": "5754ece7f091fdfccd86aba211506680", "fusion_lat": 0.0, "name": "5754ece7f091fdfccd86aba211506680", "is_reserved": 0, "rental_uris": {"android": "https://dc.lft.to/lastmile_qr_scan", "ios": "https://dc.lft.to/lastmile_qr_scan"}, "fusion_lon": 0.0}, {"lat": 38.899776, "is_disabled": 0, "type": "electric_scooter", "lon": -77.02305716666666, "bike_id": "90aad7125be50e1346d4bee08baceb1a", "fusion_lat": 0.0, "name": "90aad7125be50e1346d4bee08baceb1a", "is_reserved": 0, "rental_uris": {"android": "https://dc.lft.to/lastmile_qr_scan", "ios": "https://dc.lft.to/lastmile_qr_scan"}, "fusion_lon": 0.0}, {"lat": 38.8974245, "is_disabled": 0, "type": "electric_scooter", "lon": -77.023923, "bike_id": "305f58b33a5fc410ac6ae709da6f7952", "fusion_lat": 0.0, "name": "305f58b33a5fc410ac6ae709da6f7952", "is_reserved": 0, "rental_uris": {"android": "https://dc.lft.to/lastmile_qr_scan", "ios": "https://dc.lft.to/lastmile_qr_scan"}, "fusion_lon": 0.0}, {"lat": 38.89499816666667, "is_disabled": 0, "type": "electric_scooter", "lon": -77.0021115, "bike_id": "a696f3445e452c796bcbff18f99d6fbb", "fusion_lat": 0.0, "name": "a696f3445e452c796bcbff18f99d6fbb", "is_reserved": 0, "rental_uris": {"android": "https://dc.lft.to/lastmile_qr_scan", "ios": "https://dc.lft.to/lastmile_qr_scan"}, "fusion_lon": 0.0}, {"lat": 38.91933383333333, "is_disabled": 0, "type": "electric_scooter", "lon": -77.07083083333333, "bike_id": "ca39c7d682397a5739292f191c2f0f94", "fusion_lat": 0.0, "name": "ca39c7d682397a5739292f191c2f0f94", "is_reserved": 0, "rental_uris": {"android": "https://dc.lft.to/lastmile_qr_scan", "ios": "https://dc.lft.to/lastmile_qr_scan"}, "fusion_lon": 0.0}, {"lat": 38.920326833333334, "is_disabled": 0, "type": "electric_scooter", "lon": -77.01323916666666, "bike_id": "a0ae47ff9979d380e64ad678fd1172a5", "fusion_lat": 0.0, "name": "a0ae47ff9979d380e64ad678fd1172a5", "is_reserved": 0, "rental_uris": {"android": "https://dc.lft.to/lastmile_qr_scan", "ios": "https://dc.lft.to/lastmile_qr_scan"}, "fusion_lon": 0.0}, {"lat": 38.907779166666664, "is_disabled": 0, "type": "electric_scooter", "lon": -77.022009, "bike_id": "d348fa6e5bd55b16ad0b191f28a84800", "fusion_lat": 0.0, "name": "d348fa6e5bd55b16ad0b191f28a84800", "is_reserved": 0, "rental_uris": {"android": "https://dc.lft.to/lastmile_qr_scan", "ios": "https://dc.lft.to/lastmile_qr_scan"}, "fusion_lon": 0.0}, {"lat": 38.92628083333334, "is_disabled": 0, "type": "electric_scooter", "lon": -77.04189466666666, "bike_id": "f0c9edea95140b4c920e59aa8109f2f8", "fusion_lat": 0.0, "name": "f0c9edea95140b4c920e59aa8109f2f8", "is_reserved": 0, "rental_uris": {"android": "https://dc.lft.to/lastmile_qr_scan", "ios": "https://dc.lft.to/lastmile_qr_scan"}, "fusion_lon": 0.0}, {"lat": 38.90704366666667, "is_disabled": 0, "type": "electric_scooter", "lon": -77.02970316666666, "bike_id": "380c15db379b2bb5d72d9479f40c85c3", "fusion_lat": 0.0, "name": "380c15db379b2bb5d72d9479f40c85c3", "is_reserved": 0, "rental_uris": {"android": "https://dc.lft.to/lastmile_qr_scan", "ios": "https://dc.lft.to/lastmile_qr_scan"}, "fusion_lon": 0.0}, {"lat": 38.9424635, "is_disabled": 0, "type": "electric_scooter", "lon": -77.03585616666666, "bike_id": "ed71b47af55ec2d961d20e9657b54626", "fusion_lat": 0.0, "name": "ed71b47af55ec2d961d20e9657b54626", "is_reserved": 0, "rental_uris": {"android": "https://dc.lft.to/lastmile_qr_scan", "ios": "https://dc.lft.to/lastmile_qr_scan"}, "fusion_lon": 0.0}, {"lat": 38.901798166666666, "is_disabled": 0, "type": "electric_scooter", "lon": -77.02500633333334, "bike_id": "5e7a7e9e4bf7c6389317e244083e100e", "fusion_lat": 0.0, "name": "5e7a7e9e4bf7c6389317e244083e100e", "is_reserved": 0, "rental_uris": {"android": "https://dc.lft.to/lastmile_qr_scan", "ios": "https://dc.lft.to/lastmile_qr_scan"}, "fusion_lon": 0.0}, {"lat": 38.903675, "is_disabled": 0, "type": "electric_scooter", "lon": -77.0332585, "bike_id": "fced05df99f12fe354c45ce0d67e2cf9", "fusion_lat": 0.0, "name": "fced05df99f12fe354c45ce0d67e2cf9", "is_reserved": 0, "rental_uris": {"android": "https://dc.lft.to/lastmile_qr_scan", "ios": "https://dc.lft.to/lastmile_qr_scan"}, "fusion_lon": 0.0}, {"lat": 38.907422333333336, "is_disabled": 0, "type": "electric_scooter", "lon": -77.0093335, "bike_id": "f325d08eb2dfa32c652a784199616c2d", "fusion_lat": 0.0, "name": "f325d08eb2dfa32c652a784199616c2d", "is_reserved": 0, "rental_uris": {"android": "https://dc.lft.to/lastmile_qr_scan", "ios": "https://dc.lft.to/lastmile_qr_scan"}, "fusion_lon": 0.0}, {"lat": 38.923165166666664, "is_disabled": 0, "type": "electric_scooter", "lon": -77.03526266666667, "bike_id": "37e8306dab5aa39fc2cd890fa9e1fb33", "fusion_lat": 0.0, "name": "37e8306dab5aa39fc2cd890fa9e1fb33", "is_reserved": 0, "rental_uris": {"android": "https://dc.lft.to/lastmile_qr_scan", "ios": "https://dc.lft.to/lastmile_qr_scan"}, "fusion_lon": 0.0}, {"lat": 38.90126383333333, "is_disabled": 0, "type": "electric_scooter", "lon": -77.03328966666666, "bike_id": "eff39eb1e009e557f7364948337d7d90", "fusion_lat": 0.0, "name": "eff39eb1e009e557f7364948337d7d90", "is_reserved": 0, "rental_uris": {"android": "https://dc.lft.to/lastmile_qr_scan", "ios": "https://dc.lft.to/lastmile_qr_scan"}, "fusion_lon": 0.0}, {"lat": 38.92373333333333, "is_disabled": 0, "type": "electric_scooter", "lon": -77.02927816666667, "bike_id": "cf6ca521ee9a7034c9afab96f334609f", "fusion_lat": 0.0, "name": "cf6ca521ee9a7034c9afab96f334609f", "is_reserved": 0, "rental_uris": {"android": "https://dc.lft.to/lastmile_qr_scan", "ios": "https://dc.lft.to/lastmile_qr_scan"}, "fusion_lon": 0.0}, {"lat": 38.8778035, "is_disabled": 0, "type": "electric_scooter", "lon": -76.99509616666667, "bike_id": "1a949a6146bb02ca28e66bd1136c7660", "fusion_lat": 0.0, "name": "1a949a6146bb02ca28e66bd1136c7660", "is_reserved": 0, "rental_uris": {"android": "https://dc.lft.to/lastmile_qr_scan", "ios": "https://dc.lft.to/lastmile_qr_scan"}, "fusion_lon": 0.0}, {"lat": 38.897306666666665, "is_disabled": 0, "type": "electric_scooter", "lon": -77.04990066666667, "bike_id": "2f59923381dd3885f7657acdc6b1a38f", "fusion_lat": 0.0, "name": "2f59923381dd3885f7657acdc6b1a38f", "is_reserved": 0, "rental_uris": {"android": "https://dc.lft.to/lastmile_qr_scan", "ios": "https://dc.lft.to/lastmile_qr_scan"}, "fusion_lon": 0.0}, {"lat": 38.8849235, "is_disabled": 0, "type": "electric_scooter", "lon": -77.00711, "bike_id": "46246021ee13a035d35b3f205f0e5175", "fusion_lat": 0.0, "name": "46246021ee13a035d35b3f205f0e5175", "is_reserved": 0, "rental_uris": {"android": "https://dc.lft.to/lastmile_qr_scan", "ios": "https://dc.lft.to/lastmile_qr_scan"}, "fusion_lon": 0.0}, {"lat": 38.994149166666666, "is_disabled": 0, "type": "electric_bike", "lon": -77.03168416666666, "bike_id": "8880b86df9c8cb59ffec5142c22a64f8", "fusion_lat": 0.0, "name": "8880b86df9c8cb59ffec5142c22a64f8", "is_reserved": 0, "rental_uris": {"android": "https://dc.lft.to/lastmile_qr_scan", "ios": "https://dc.lft.to/lastmile_qr_scan"}, "fusion_lon": 0.0}, {"lat": 38.9001515, "is_disabled": 0, "type": "electric_scooter", "lon": -77.01202683333334, "bike_id": "9305a987411c45161ddedbd28b82948a", "fusion_lat": 0.0, "name": "9305a987411c45161ddedbd28b82948a", "is_reserved": 0, "rental_uris": {"android": "https://dc.lft.to/lastmile_qr_scan", "ios": "https://dc.lft.to/lastmile_qr_scan"}, "fusion_lon": 0.0}, {"lat": 38.925756, "is_disabled": 0, "type": "electric_scooter", "lon": -76.98609433333333, "bike_id": "80c41f369e8118cc5cf875f33d1e98b6", "fusion_lat": 0.0, "name": "80c41f369e8118cc5cf875f33d1e98b6", "is_reserved": 0, "rental_uris": {"android": "https://dc.lft.to/lastmile_qr_scan", "ios": "https://dc.lft.to/lastmile_qr_scan"}, "fusion_lon": 0.0}, {"lat": 38.84290416666666, "is_disabled": 0, "type": "electric_scooter", "lon": -76.99943, "bike_id": "a7dcbf1f7e56b38d2660cf0dd2f99ed1", "fusion_lat": 0.0, "name": "a7dcbf1f7e56b38d2660cf0dd2f99ed1", "is_reserved": 0, "rental_uris": {"android": "https://dc.lft.to/lastmile_qr_scan", "ios": "https://dc.lft.to/lastmile_qr_scan"}, "fusion_lon": 0.0}, {"lat": 38.92562216666666, "is_disabled": 0, "type": "electric_scooter", "lon": -77.03524766666666, "bike_id": "65af1acad08a7260223638a2a6c5f6ea", "fusion_lat": 0.0, "name": "65af1acad08a7260223638a2a6c5f6ea", "is_reserved": 0, "rental_uris": {"android": "https://dc.lft.to/lastmile_qr_scan", "ios": "https://dc.lft.to/lastmile_qr_scan"}, "fusion_lon": 0.0}, {"lat": 38.90356966666667, "is_disabled": 0, "type": "electric_scooter", "lon": -77.0534345, "bike_id": "1e708306b388695419e1b959e150b5a0", "fusion_lat": 0.0, "name": "1e708306b388695419e1b959e150b5a0", "is_reserved": 0, "rental_uris": {"android": "https://dc.lft.to/lastmile_qr_scan", "ios": "https://dc.lft.to/lastmile_qr_scan"}, "fusion_lon": 0.0}, {"lat": 38.90809683333333, "is_disabled": 0, "type": "electric_scooter", "lon": -76.98276683333333, "bike_id": "cba64c8e87474e1cc117a9ce52372a56", "fusion_lat": 0.0, "name": "cba64c8e87474e1cc117a9ce52372a56", "is_reserved": 0, "rental_uris": {"android": "https://dc.lft.to/lastmile_qr_scan", "ios": "https://dc.lft.to/lastmile_qr_scan"}, "fusion_lon": 0.0}, {"lat": 38.8804595, "is_disabled": 0, "type": "electric_bike", "lon": -77.10950383333333, "bike_id": "3bc375b7dc6e1bfc270492f9dbe7e2e0", "fusion_lat": 0.0, "name": "3bc375b7dc6e1bfc270492f9dbe7e2e0", "is_reserved": 0, "rental_uris": {"android": "https://dc.lft.to/lastmile_qr_scan", "ios": "https://dc.lft.to/lastmile_qr_scan"}, "fusion_lon": 0.0}, {"lat": 38.90554816666667, "is_disabled": 0, "type": "electric_scooter", "lon": -77.03391383333333, "bike_id": "b067910e06cbdd5b6e0d67a55750926e", "fusion_lat": 0.0, "name": "b067910e06cbdd5b6e0d67a55750926e", "is_reserved": 0, "rental_uris": {"android": "https://dc.lft.to/lastmile_qr_scan", "ios": "https://dc.lft.to/lastmile_qr_scan"}, "fusion_lon": 0.0}, {"lat": 38.90655683333333, "is_disabled": 0, "type": "electric_scooter", "lon": -77.04189283333334, "bike_id": "d78a4ff1c07517f5f4457ebd084296d4", "fusion_lat": 0.0, "name": "d78a4ff1c07517f5f4457ebd084296d4", "is_reserved": 0, "rental_uris": {"android": "https://dc.lft.to/lastmile_qr_scan", "ios": "https://dc.lft.to/lastmile_qr_scan"}, "fusion_lon": 0.0}, {"lat": 38.894779, "is_disabled": 0, "type": "electric_scooter", "lon": -77.02119116666667, "bike_id": "7a6042a41afd2b43d69fc8588c3e4955", "fusion_lat": 0.0, "name": "7a6042a41afd2b43d69fc8588c3e4955", "is_reserved": 0, "rental_uris": {"android": "https://dc.lft.to/lastmile_qr_scan", "ios": "https://dc.lft.to/lastmile_qr_scan"}, "fusion_lon": 0.0}, {"lat": 38.893451, "is_disabled": 0, "type": "electric_scooter", "lon": -76.94934366666666, "bike_id": "4e406156a45ffb8bd901d4917604aaa1", "fusion_lat": 0.0, "name": "4e406156a45ffb8bd901d4917604aaa1", "is_reserved": 0, "rental_uris": {"android": "https://dc.lft.to/lastmile_qr_scan", "ios": "https://dc.lft.to/lastmile_qr_scan"}, "fusion_lon": 0.0}, {"lat": 38.903715166666665, "is_disabled": 0, "type": "electric_scooter", "lon": -77.0427295, "bike_id": "4a9656470b94baaec1712f5df8ce6846", "fusion_lat": 0.0, "name": "4a9656470b94baaec1712f5df8ce6846", "is_reserved": 0, "rental_uris": {"android": "https://dc.lft.to/lastmile_qr_scan", "ios": "https://dc.lft.to/lastmile_qr_scan"}, "fusion_lon": 0.0}, {"lat": 38.9233775, "is_disabled": 0, "type": "electric_scooter", "lon": -77.04192783333333, "bike_id": "db0e93d65d1f2229014f68af721acdfe", "fusion_lat": 0.0, "name": "db0e93d65d1f2229014f68af721acdfe", "is_reserved": 0, "rental_uris": {"android": "https://dc.lft.to/lastmile_qr_scan", "ios": "https://dc.lft.to/lastmile_qr_scan"}, "fusion_lon": 0.0}, {"lat": 38.916738, "is_disabled": 0, "type": "electric_scooter", "lon": -77.0294575, "bike_id": "09bb168b22757917b66aa838687cf602", "fusion_lat": 0.0, "name": "09bb168b22757917b66aa838687cf602", "is_reserved": 0, "rental_uris": {"android": "https://dc.lft.to/lastmile_qr_scan", "ios": "https://dc.lft.to/lastmile_qr_scan"}, "fusion_lon": 0.0}, {"lat": 38.9079445, "is_disabled": 0, "type": "electric_scooter", "lon": -77.04353233333333, "bike_id": "ef395812204300cadd4a45c3003c6043", "fusion_lat": 0.0, "name": "ef395812204300cadd4a45c3003c6043", "is_reserved": 0, "rental_uris": {"android": "https://dc.lft.to/lastmile_qr_scan", "ios": "https://dc.lft.to/lastmile_qr_scan"}, "fusion_lon": 0.0}, {"lat": 38.971936166666666, "is_disabled": 0, "type": "electric_bike", "lon": -77.02719383333333, "bike_id": "c43d350c483ec0b8533738cd38e3f5d5", "fusion_lat": 0.0, "name": "c43d350c483ec0b8533738cd38e3f5d5", "is_reserved": 0, "rental_uris": {"android": "https://dc.lft.to/lastmile_qr_scan", "ios": "https://dc.lft.to/lastmile_qr_scan"}, "fusion_lon": 0.0}, {"lat": 38.90980366666667, "is_disabled": 0, "type": "electric_bike", "lon": -76.98516833333333, "bike_id": "cfcaaa7529e9a66d6880315b2ba20f20", "fusion_lat": 0.0, "name": "cfcaaa7529e9a66d6880315b2ba20f20", "is_reserved": 0, "rental_uris": {"android": "https://dc.lft.to/lastmile_qr_scan", "ios": "https://dc.lft.to/lastmile_qr_scan"}, "fusion_lon": 0.0}, {"lat": 38.88548933333333, "is_disabled": 0, "type": "electric_bike", "lon": -77.11788133333333, "bike_id": "bc042d878221055eb4e1baea50c8fcad", "fusion_lat": 0.0, "name": "bc042d878221055eb4e1baea50c8fcad", "is_reserved": 0, "rental_uris": {"android": "https://dc.lft.to/lastmile_qr_scan", "ios": "https://dc.lft.to/lastmile_qr_scan"}, "fusion_lon": 0.0}, {"lat": 38.89994316666667, "is_disabled": 0, "type": "electric_scooter", "lon": -77.042307, "bike_id": "15f352d58a11a1cfd5c5cddfd3817dbd", "fusion_lat": 0.0, "name": "15f352d58a11a1cfd5c5cddfd3817dbd", "is_reserved": 0, "rental_uris": {"android": "https://dc.lft.to/lastmile_qr_scan", "ios": "https://dc.lft.to/lastmile_qr_scan"}, "fusion_lon": 0.0}, {"lat": 38.934318, "is_disabled": 0, "type": "electric_scooter", "lon": -76.96507983333333, "bike_id": "9874df410dd1807562c561eb015d4093", "fusion_lat": 0.0, "name": "9874df410dd1807562c561eb015d4093", "is_reserved": 0, "rental_uris": {"android": "https://dc.lft.to/lastmile_qr_scan", "ios": "https://dc.lft.to/lastmile_qr_scan"}, "fusion_lon": 0.0}, {"lat": 38.9153655, "is_disabled": 0, "type": "electric_scooter", "lon": -77.03202716666667, "bike_id": "817de0e14e2b92dc6fc0cc91aff0dff1", "fusion_lat": 0.0, "name": "817de0e14e2b92dc6fc0cc91aff0dff1", "is_reserved": 0, "rental_uris": {"android": "https://dc.lft.to/lastmile_qr_scan", "ios": "https://dc.lft.to/lastmile_qr_scan"}, "fusion_lon": 0.0}, {"lat": 38.90562466666667, "is_disabled": 0, "type": "electric_scooter", "lon": -77.0049295, "bike_id": "d6a045fd92d954f549a08f021700ab5b", "fusion_lat": 0.0, "name": "d6a045fd92d954f549a08f021700ab5b", "is_reserved": 0, "rental_uris": {"android": "https://dc.lft.to/lastmile_qr_scan", "ios": "https://dc.lft.to/lastmile_qr_scan"}, "fusion_lon": 0.0}, {"lat": 38.948243166666664, "is_disabled": 0, "type": "electric_scooter", "lon": -76.99907166666667, "bike_id": "6fd92262d02cf5260d13e1b3465523da", "fusion_lat": 0.0, "name": "6fd92262d02cf5260d13e1b3465523da", "is_reserved": 0, "rental_uris": {"android": "https://dc.lft.to/lastmile_qr_scan", "ios": "https://dc.lft.to/lastmile_qr_scan"}, "fusion_lon": 0.0}, {"lat": 38.88449383333333, "is_disabled": 0, "type": "electric_scooter", "lon": -76.9295695, "bike_id": "836a9cb6313a8341d562eab2d5a486f7", "fusion_lat": 0.0, "name": "836a9cb6313a8341d562eab2d5a486f7", "is_reserved": 0, "rental_uris": {"android": "https://dc.lft.to/lastmile_qr_scan", "ios": "https://dc.lft.to/lastmile_qr_scan"}, "fusion_lon": 0.0}, {"lat": 38.88677216666667, "is_disabled": 0, "type": "electric_bike", "lon": -77.1623685, "bike_id": "7fd3ebe756c7afdf57b9a9fa817d17ae", "fusion_lat": 0.0, "name": "7fd3ebe756c7afdf57b9a9fa817d17ae", "is_reserved": 0, "rental_uris": {"android": "https://dc.lft.to/lastmile_qr_scan", "ios": "https://dc.lft.to/lastmile_qr_scan"}, "fusion_lon": 0.0}, {"lat": 38.906615333333335, "is_disabled": 0, "type": "electric_scooter", "lon": -77.0083765, "bike_id": "f612bdec7e78364be8dcafe3108d7640", "fusion_lat": 0.0, "name": "f612bdec7e78364be8dcafe3108d7640", "is_reserved": 0, "rental_uris": {"android": "https://dc.lft.to/lastmile_qr_scan", "ios": "https://dc.lft.to/lastmile_qr_scan"}, "fusion_lon": 0.0}, {"lat": 38.93382016666666, "is_disabled": 0, "type": "electric_scooter", "lon": -77.035537, "bike_id": "4c8a0c7ccd2c4170481767d64c315212", "fusion_lat": 0.0, "name": "4c8a0c7ccd2c4170481767d64c315212", "is_reserved": 0, "rental_uris": {"android": "https://dc.lft.to/lastmile_qr_scan", "ios": "https://dc.lft.to/lastmile_qr_scan"}, "fusion_lon": 0.0}, {"lat": 38.915398833333334, "is_disabled": 0, "type": "electric_scooter", "lon": -77.03209683333333, "bike_id": "3a77b2f5028384bed0472a61db51c47a", "fusion_lat": 0.0, "name": "3a77b2f5028384bed0472a61db51c47a", "is_reserved": 0, "rental_uris": {"android": "https://dc.lft.to/lastmile_qr_scan", "ios": "https://dc.lft.to/lastmile_qr_scan"}, "fusion_lon": 0.0}, {"lat": 38.8859925, "is_disabled": 0, "type": "electric_scooter", "lon": -77.018895, "bike_id": "07af9feebc1fede6aee033cf6f816c47", "fusion_lat": 0.0, "name": "07af9feebc1fede6aee033cf6f816c47", "is_reserved": 0, "rental_uris": {"android": "https://dc.lft.to/lastmile_qr_scan", "ios": "https://dc.lft.to/lastmile_qr_scan"}, "fusion_lon": 0.0}, {"lat": 38.90394966666667, "is_disabled": 0, "type": "electric_scooter", "lon": -76.99008216666667, "bike_id": "ad404a687aa71cae2513a0ebb9eed5f5", "fusion_lat": 0.0, "name": "ad404a687aa71cae2513a0ebb9eed5f5", "is_reserved": 0, "rental_uris": {"android": "https://dc.lft.to/lastmile_qr_scan", "ios": "https://dc.lft.to/lastmile_qr_scan"}, "fusion_lon": 0.0}, {"lat": 38.919650833333336, "is_disabled": 0, "type": "electric_scooter", "lon": -77.01438533333334, "bike_id": "2f5c1975319a3382fbe578bffad985cd", "fusion_lat": 0.0, "name": "2f5c1975319a3382fbe578bffad985cd", "is_reserved": 0, "rental_uris": {"android": "https://dc.lft.to/lastmile_qr_scan", "ios": "https://dc.lft.to/lastmile_qr_scan"}, "fusion_lon": 0.0}, {"lat": 38.9570765, "is_disabled": 0, "type": "electric_scooter", "lon": -77.02396366666666, "bike_id": "aa59295405f88e304ff37527642f82cd", "fusion_lat": 0.0, "name": "aa59295405f88e304ff37527642f82cd", "is_reserved": 0, "rental_uris": {"android": "https://dc.lft.to/lastmile_qr_scan", "ios": "https://dc.lft.to/lastmile_qr_scan"}, "fusion_lon": 0.0}, {"lat": 38.916431833333334, "is_disabled": 0, "type": "electric_scooter", "lon": -77.02404283333334, "bike_id": "ba6569f06bc805f78c917715e1833c46", "fusion_lat": 0.0, "name": "ba6569f06bc805f78c917715e1833c46", "is_reserved": 0, "rental_uris": {"android": "https://dc.lft.to/lastmile_qr_scan", "ios": "https://dc.lft.to/lastmile_qr_scan"}, "fusion_lon": 0.0}, {"lat": 38.9259215, "is_disabled": 0, "type": "electric_scooter", "lon": -77.02280766666667, "bike_id": "deee02bbf03e08a3b1f8112eef6b820a", "fusion_lat": 0.0, "name": "deee02bbf03e08a3b1f8112eef6b820a", "is_reserved": 0, "rental_uris": {"android": "https://dc.lft.to/lastmile_qr_scan", "ios": "https://dc.lft.to/lastmile_qr_scan"}, "fusion_lon": 0.0}, {"lat": 38.90062966666667, "is_disabled": 0, "type": "electric_scooter", "lon": -77.049264, "bike_id": "8139a22de3f68eebc4a47df4cf4589e0", "fusion_lat": 0.0, "name": "8139a22de3f68eebc4a47df4cf4589e0", "is_reserved": 0, "rental_uris": {"android": "https://dc.lft.to/lastmile_qr_scan", "ios": "https://dc.lft.to/lastmile_qr_scan"}, "fusion_lon": 0.0}, {"lat": 38.92026666666667, "is_disabled": 0, "type": "electric_scooter", "lon": -77.03733816666667, "bike_id": "ec46d8d569a706a0e36453524f0a20bb", "fusion_lat": 0.0, "name": "ec46d8d569a706a0e36453524f0a20bb", "is_reserved": 0, "rental_uris": {"android": "https://dc.lft.to/lastmile_qr_scan", "ios": "https://dc.lft.to/lastmile_qr_scan"}, "fusion_lon": 0.0}, {"lat": 38.939808166666666, "is_disabled": 0, "type": "electric_scooter", "lon": -77.035907, "bike_id": "0f11fe0d960dea1bd9a4b1075ede6d78", "fusion_lat": 0.0, "name": "0f11fe0d960dea1bd9a4b1075ede6d78", "is_reserved": 0, "rental_uris": {"android": "https://dc.lft.to/lastmile_qr_scan", "ios": "https://dc.lft.to/lastmile_qr_scan"}, "fusion_lon": 0.0}, {"lat": 38.907757333333336, "is_disabled": 0, "type": "electric_scooter", "lon": -77.0385845, "bike_id": "4a309c748b29fad857fce9dbf939de1b", "fusion_lat": 0.0, "name": "4a309c748b29fad857fce9dbf939de1b", "is_reserved": 0, "rental_uris": {"android": "https://dc.lft.to/lastmile_qr_scan", "ios": "https://dc.lft.to/lastmile_qr_scan"}, "fusion_lon": 0.0}, {"lat": 38.93291266666667, "is_disabled": 0, "type": "electric_scooter", "lon": -77.0354335, "bike_id": "54a93f6392e00d4429deeb9d937cbf65", "fusion_lat": 0.0, "name": "54a93f6392e00d4429deeb9d937cbf65", "is_reserved": 0, "rental_uris": {"android": "https://dc.lft.to/lastmile_qr_scan", "ios": "https://dc.lft.to/lastmile_qr_scan"}, "fusion_lon": 0.0},