{"data": {"bikes": [{"is_reserved": 0, "fusion_lon": 0.0, "fusion_lat": 0.0, "name": "82945d2ded10feb08847f9514acb11fc", "type": "electric_scooter", "is_disabled": 0, "lat": 38.903574, "rental_uris": {"android": "https://dc.lft.to/lastmile_qr_scan", "ios": "https://dc.lft.to/lastmile_qr_scan"}, "bike_id": "82945d2ded10feb08847f9514acb11fc", "lon": -77.046597}, {"is_reserved": 0, "fusion_lon": 0.0, "fusion_lat": 0.0, "name": "6af656e7a811c8cfdeff7d84b63348ad", "type": "electric_scooter", "is_disabled": 0, "lat": 38.898841833333336, "rental_uris": {"android": "https://dc.lft.to/lastmile_qr_scan", "ios": "https://dc.lft.to/lastmile_qr_scan"}, "bike_id": "6af656e7a811c8cfdeff7d84b63348ad", "lon": -77.05300316666667}, {"is_reserved": 0, "fusion_lon": 0.0, "fusion_lat": 0.0, "name": "44fe13044ecd3284cdbfc2e3994a3fb3", "type": "electric_scooter", "is_disabled": 0, "lat": 38.91553116666667, "rental_uris": {"android": "https://dc.lft.to/lastmile_qr_scan", "ios": "https://dc.lft.to/lastmile_qr_scan"}, "bike_id": "44fe13044ecd3284cdbfc2e3994a3fb3", "lon": -77.05320616666667}, {"is_reserved": 0, "fusion_lon": 0.0, "fusion_lat": 0.0, "name": "81a90025e0b15b7798a7541334c8e02b", "type": "electric_scooter", "is_disabled": 0, "lat": 38.90714933333334, "rental_uris": {"android": "https://dc.lft.to/lastmile_qr_scan", "ios": "https://dc.lft.to/lastmile_qr_scan"}, "bike_id": "81a90025e0b15b7798a7541334c8e02b", "lon": -77.03186233333334}, {"is_reserved": 0, "fusion_lon": 0.0, "fusion_lat": 0.0, "name": "f3f3b93d38a56c7983e194dedbb7fe75", "type": "electric_scooter", "is_disabled": 0, "lat": 38.89222133333333, "rental_uris": {"android": "https://dc.lft.to/lastmile_qr_scan", "ios": "https://dc.lft.to/lastmile_qr_scan"}, "bike_id": "f3f3b93d38a56c7983e194dedbb7fe75", "lon": -77.04333933333334}, {"is_reserved": 0, "fusion_lon": 0.0, "fusion_lat": 0.0, "name": "a6e885255cf2f08c7447ebbe253cdb9f", "type": "electric_scooter", "is_disabled": 0, "lat": 38.876478666666664, "rental_uris": {"android": "https://dc.lft.to/lastmile_qr_scan", "ios": "https://dc.lft.to/lastmile_qr_scan"}, "bike_id": "a6e885255cf2f08c7447ebbe253cdb9f", "lon": -77.00575783333333}, {"is_reserved": 0, "fusion_lon": 0.0, "fusion_lat": 0.0, "name": "db6481b17b903d2794928373eb76f7dd", "type": "electric_scooter", "is_disabled": 0, "lat": 38.90730683333334, "rental_uris": {"android": "https://dc.lft.to/lastmile_qr_scan", "ios": "https://dc.lft.to/lastmile_qr_scan"}, "bike_id": "db6481b17b903d2794928373eb76f7dd", "lon": -76.9322825}, {"is_reserved": 0, "fusion_lon": 0.0, "fusion_lat": 0.0, "name": "5a5cab5122d16289a613abf9794b3460", "type": "electric_scooter", "is_disabled": 0, "lat": 38.9147735, "rental_uris": {"android": "https://dc.lft.to/lastmile_qr_scan", "ios": "https://dc.lft.to/lastmile_qr_scan"}, "bike_id": "5a5cab5122d16289a613abf9794b3460", "lon": -77.02578866666667}, {"is_reserved": 0, "fusion_lon": 0.0, "fusion_lat": 0.0, "name": "549b0da9cd99a02b8ecfdf73a2c826a3", "type": "electric_bike", "is_disabled": 0, "lat": 38.97393616666667, "rental_uris": {"android": "https://dc.lft.to/lastmile_qr_scan", "ios": "https://dc.lft.to/lastmile_qr_scan"}, "bike_id": "549b0da9cd99a02b8ecfdf73a2c826a3", "lon": -77.06450066666666}, {"is_reserved": 0, "fusion_lon": 0.0, "fusion_lat": 0.0, "name": "2cd5a6e800551098bbfbcd374a6f5831", "type": "electric_scooter", "is_disabled": 0, "lat": 38.9282245, "rental_uris": {"android": "https://dc.lft.to/lastmile_qr_scan", "ios": "https://dc.lft.to/lastmile_qr_scan"}, "bike_id": "2cd5a6e800551098bbfbcd374a6f5831", "lon": -77.02626083333334}, {"is_reserved": 0, "fusion_lon": 0.0, "fusion_lat": 0.0, "name": "1f57643efda0854a0884d55998cc491e", "type": "electric_scooter", "is_disabled": 0, "lat": 38.907998, "rental_uris": {"android": "https://dc.lft.to/lastmile_qr_scan", "ios": "https://dc.lft.to/lastmile_qr_scan"}, "bike_id": "1f57643efda0854a0884d55998cc491e", "lon": -76.987384}, {"is_reserved": 0, "fusion_lon": 0.0, "fusion_lat": 0.0, "name": "dff0cab0a96b505c1027f14aeb52adbd", "type": "electric_scooter", "is_disabled": 0, "lat": 38.9284995, "rental_uris": {"android": "https://dc.lft.to/lastmile_qr_scan", "ios": "https://dc.lft.to/lastmile_qr_scan"}, "bike_id": "dff0cab0a96b505c1027f14aeb52adbd", "lon": -77.0140655}, {"is_reserved": 0, "fusion_lon": 0.0, "fusion_lat": 0.0, "name": "a2b4080c744bfacec851f83612456f66", "type": "electric_scooter", "is_disabled": 0, "lat": 38.911015166666665, "rental_uris": {"android": "https://dc.lft.to/lastmile_qr_scan", "ios": "https://dc.lft.to/lastmile_qr_scan"}, "bike_id": "a2b4080c744bfacec851f83612456f66", "lon": -77.04668116666667}, {"is_reserved": 0, "fusion_lon": 0.0, "fusion_lat": 0.0, "name": "0804a78b7feb51b00b1e4002eefee165", "type": "electric_scooter", "is_disabled": 0, "lat": 38.948373, "rental_uris": {"android": "https://dc.lft.to/lastmile_qr_scan", "ios": "https://dc.lft.to/lastmile_qr_scan"}, "bike_id": "0804a78b7feb51b00b1e4002eefee165", "lon": -77.0254005}, {"is_reserved": 0, "fusion_lon": 0.0, "fusion_lat": 0.0, "name": "ddf1caf504f58b456b76872404ae374a", "type": "electric_bike", "is_disabled": 0, "lat": 38.834337166666664, "rental_uris": {"android": "https://dc.lft.to/lastmile_qr_scan", "ios": "https://dc.lft.to/lastmile_qr_scan"}, "bike_id": "ddf1caf504f58b456b76872404ae374a", "lon": -77.10352216666666}, {"is_reserved": 0, "fusion_lon": 0.0, "fusion_lat": 0.0, "name": "eb8af638f2b8d8039564e140fb67cda6", "type": "electric_scooter", "is_disabled": 0, "lat": 38.94953566666667, "rental_uris": {"android": "https://dc.lft.to/lastmile_qr_scan", "ios": "https://dc.lft.to/lastmile_qr_scan"}, "bike_id": "eb8af638f2b8d8039564e140fb67cda6", "lon": -77.02722333333334}, {"is_reserved": 0, "fusion_lon": 0.0, "fusion_lat": 0.0, "name": "b5e0ae3d7087f225e3665c5663d87f4c", "type": "electric_scooter", "is_disabled": 0, "lat": 38.90723333333333, "rental_uris": {"android": "https://dc.lft.to/lastmile_qr_scan", "ios": "https://dc.lft.to/lastmile_qr_scan"}, "bike_id": "b5e0ae3d7087f225e3665c5663d87f4c", "lon": -77.0742585}, {"is_reserved": 0, "fusion_lon": 0.0, "fusion_lat": 0.0, "name": "b750c8b14b9c0bba3a7a26445401d5f7", "type": "electric_scooter", "is_disabled": 0, "lat": 38.95667733333333, "rental_uris": {"android": "https://dc.lft.to/lastmile_qr_scan", "ios": "https://dc.lft.to/lastmile_qr_scan"}, "bike_id": "b750c8b14b9c0bba3a7a26445401d5f7", "lon": -77.01039}, {"is_reserved": 0, "fusion_lon": 0.0, "fusion_lat": 0.0, "name": "770d254c983f3abca72f235ee3fbf17c", "type": "electric_scooter", "is_disabled": 0, "lat": 38.9136035, "rental_uris": {"android": "https://dc.lft.to/lastmile_qr_scan", "ios": "https://dc.lft.to/lastmile_qr_scan"}, "bike_id": "770d254c983f3abca72f235ee3fbf17c", "lon": -77.02954666666666}, {"is_reserved": 0, "fusion_lon": 0.0, "fusion_lat": 0.0, "name": "f5d3ce56fc02bded8cb4291c0d155936", "type": "electric_scooter", "is_disabled": 0, "lat": 38.908756, "rental_uris": {"android": "https://dc.lft.to/lastmile_qr_scan", "ios": "https://dc.lft.to/lastmile_qr_scan"}, "bike_id": "f5d3ce56fc02bded8cb4291c0d155936", "lon": -77.0716635}, {"is_reserved": 0, "fusion_lon": 0.0, "fusion_lat": 0.0, "name": "fed608b7dbb98dc82e88ddcae742877f", "type": "electric_scooter", "is_disabled": 0, "lat": 38.93888466666667, "rental_uris": {"android": "https://dc.lft.to/lastmile_qr_scan", "ios": "https://dc.lft.to/lastmile_qr_scan"}, "bike_id": "fed608b7dbb98dc82e88ddcae742877f", "lon": -77.03330266666667}, {"is_reserved": 0, "fusion_lon": 0.0, "fusion_lat": 0.0, "name": "abfdab17b0373321ed1c157fd5a1c3ea", "type": "electric_scooter", "is_disabled": 0, "lat": 38.90959016666667, "rental_uris": {"android": "https://dc.lft.to/lastmile_qr_scan", "ios": "https://dc.lft.to/lastmile_qr_scan"}, "bike_id": "abfdab17b0373321ed1c157fd5a1c3ea", "lon": -77.02217}, {"is_reserved": 0, "fusion_lon": 0.0, "fusion_lat": 0.0, "name": "ccac15bd6c02bbb619d5087dfa4d4d11", "type": "electric_bike", "is_disabled": 0, "lat": 38.91382316666667, "rental_uris": {"android": "https://dc.lft.to/lastmile_qr_scan", "ios": "https://dc.lft.to/lastmile_qr_scan"}, "bike_id": "ccac15bd6c02bbb619d5087dfa4d4d11", "lon": -77.08927016666667}, {"is_reserved": 0, "fusion_lon": 0.0, "fusion_lat": 0.0, "name": "407449bd2f0f824f3e0114c908d27062", "type": "electric_scooter", "is_disabled": 0, "lat": 38.879763, "rental_uris": {"android": "https://dc.lft.to/lastmile_qr_scan", "ios": "https://dc.lft.to/lastmile_qr_scan"}, "bike_id": "407449bd2f0f824f3e0114c908d27062", "lon": -77.01375183333333}, {"is_reserved": 0, "fusion_lon": 0.0, "fusion_lat": 0.0, "name": "223ed3c460681f351c0e96f5b7d5b8bc", "type": "electric_scooter", "is_disabled": 0, "lat": 38.917155, "rental_uris": {"android": "https://dc.lft.to/lastmile_qr_scan", "ios": "https://dc.lft.to/lastmile_qr_scan"}, "bike_id": "223ed3c460681f351c0e96f5b7d5b8bc", "lon": -77.0366475}, {"is_reserved": 0, "fusion_lon": 0.0, "fusion_lat": 0.0, "name": "b901879c7a4af270f79fd4ccd98ac1d8", "type": "electric_scooter", "is_disabled": 0, "lat": 38.902566, "rental_uris": {"android": "https://dc.lft.to/lastmile_qr_scan", "ios": "https://dc.lft.to/lastmile_qr_scan"}, "bike_id": "b901879c7a4af270f79fd4ccd98ac1d8", "lon": -77.06109116666667}, {"is_reserved": 0, "fusion_lon": 0.0, "fusion_lat": 0.0, "name": "bb1b3c8277c3bc803ac016a1e9305836", "type": "electric_scooter", "is_disabled": 0, "lat": 38.8442875, "rental_uris": {"android": "https://dc.lft.to/lastmile_qr_scan", "ios": "https://dc.lft.to/lastmile_qr_scan"}, "bike_id": "bb1b3c8277c3bc803ac016a1e9305836", "lon": -76.998084}, {"is_reserved": 0, "fusion_lon": 0.0, "fusion_lat": 0.0, "name": "70000637147ddccd9a17988682921133", "type": "electric_scooter", "is_disabled": 0, "lat": 38.903301666666664, "rental_uris": {"android": "https://dc.lft.to/lastmile_qr_scan", "ios": "https://dc.lft.to/lastmile_qr_scan"}, "bike_id": "70000637147ddccd9a17988682921133", "lon": -77.046597}, {"is_reserved": 0, "fusion_lon": 0.0, "fusion_lat": 0.0, "name": "0d6ff5918c31eadbe8cd534b6987e3d2", "type": "electric_scooter", "is_disabled": 0, "lat": 38.892911166666664, "rental_uris": {"android": "https://dc.lft.to/lastmile_qr_scan", "ios": "https://dc.lft.to/lastmile_qr_scan"}, "bike_id": "0d6ff5918c31eadbe8cd534b6987e3d2", "lon": -76.99821366666667}, {"is_reserved": 0, "fusion_lon": 0.0, "fusion_lat": 0.0, "name": "7db42988c13317c37724882c9e77cd93", "type": "electric_scooter", "is_disabled": 0, "lat": 38.898029666666666, "rental_uris": {"android": "https://dc.lft.to/lastmile_qr_scan", "ios": "https://dc.lft.to/lastmile_qr_scan"}, "bike_id": "7db42988c13317c37724882c9e77cd93", "lon": -77.02483}, {"is_reserved": 0, "fusion_lon": 0.0, "fusion_lat": 0.0, "name": "c9b826b70c4e6f6b3973d4f6204e2c64", "type": "electric_scooter", "is_disabled": 0, "lat": 38.89426566666667, "rental_uris": {"android": "https://dc.lft.to/lastmile_qr_scan", "ios": "https://dc.lft.to/lastmile_qr_scan"}, "bike_id": "c9b826b70c4e6f6b3973d4f6204e2c64", "lon": -76.94877433333333}, {"is_reserved": 0, "fusion_lon": 0.0, "fusion_lat": 0.0, "name": "c7d8523a88b8b94cff6860acad5a754d", "type": "electric_scooter", "is_disabled": 0, "lat": 38.932392166666666, "rental_uris": {"android": "https://dc.lft.to/lastmile_qr_scan", "ios": "https://dc.lft.to/lastmile_qr_scan"}, "bike_id": "c7d8523a88b8b94cff6860acad5a754d", "lon": -77.02845216666667}, {"is_reserved": 0, "fusion_lon": 0.0, "fusion_lat": 0.0, "name": "000d2f9aafe9ec9fea35827e90549e2b", "type": "electric_scooter", "is_disabled": 0, "lat": 38.9446125, "rental_uris": {"android": "https://dc.lft.to/lastmile_qr_scan", "ios": "https://dc.lft.to/lastmile_qr_scan"}, "bike_id": "000d2f9aafe9ec9fea35827e90549e2b", "lon": -77.06028333333333}, {"is_reserved": 0, "fusion_lon": 0.0, "fusion_lat": 0.0, "name": "5cb6125383eac28066da851f20bfd9be", "type": "electric_scooter", "is_disabled": 0, "lat": 38.911311166666664, "rental_uris": {"android": "https://dc.lft.to/lastmile_qr_scan", "ios": "https://dc.lft.to/lastmile_qr_scan"}, "bike_id": "5cb6125383eac28066da851f20bfd9be", "lon": -77.036652}, {"is_reserved": 0, "fusion_lon": 0.0, "fusion_lat": 0.0, "name": "a46feb818d0f1fc83fb520c5985f789b", "type": "electric_scooter", "is_disabled": 0, "lat": 38.9182325, "rental_uris": {"android": "https://dc.lft.to/lastmile_qr_scan", "ios": "https://dc.lft.to/lastmile_qr_scan"}, "bike_id": "a46feb818d0f1fc83fb520c5985f789b", "lon": -77.03265766666667}, {"is_reserved": 0, "fusion_lon": 0.0, "fusion_lat": 0.0, "name": "89098b30e5cbc1fa87631b0d1586a6aa", "type": "electric_scooter", "is_disabled": 0, "lat": 38.893617166666665, "rental_uris": {"android": "https://dc.lft.to/lastmile_qr_scan", "ios": "https://dc.lft.to/lastmile_qr_scan"}, "bike_id": "89098b30e5cbc1fa87631b0d1586a6aa", "lon": -77.05492266666667}, {"is_reserved": 0, "fusion_lon": 0.0, "fusion_lat": 0.0, "name": "3194cdf7108c48cae9286b1c9938f1af", "type": "electric_scooter", "is_disabled": 0, "lat": 38.886132, "rental_uris": {"android": "https://dc.lft.to/lastmile_qr_scan", "ios": "https://dc.lft.to/lastmile_qr_scan"}, "bike_id": "3194cdf7108c48cae9286b1c9938f1af", "lon": -76.9558575}, {"is_reserved": 0, "fusion_lon": 0.0, "fusion_lat": 0.0, "name": "c8a0a11e7d35b14a1bc1263045449466", "type": "electric_scooter", "is_disabled": 0, "lat": 38.884761833333336, "rental_uris": {"android": "https://dc.lft.to/lastmile_qr_scan", "ios": "https://dc.lft.to/lastmile_qr_scan"}, "bike_id": "c8a0a11e7d35b14a1bc1263045449466", "lon": -77.02657483333333}, {"is_reserved": 0, "fusion_lon": 0.0, "fusion_lat": 0.0, "name": "4c9bf3fad8c40b261feb3c26341f917e", "type": "electric_scooter", "is_disabled": 0, "lat": 38.901247166666664, "rental_uris": {"android": "https://dc.lft.to/lastmile_qr_scan", "ios": "https://dc.lft.to/lastmile_qr_scan"}, "bike_id": "4c9bf3fad8c40b261feb3c26341f917e", "lon": -77.00253216666667}, {"is_reserved": 0, "fusion_lon": 0.0, "fusion_lat": 0.0, "name": "1029c49494eeb20a2301dabb843626a9", "type": "electric_scooter", "is_disabled": 0, "lat": 38.89650733333333, "rental_uris": {"android": "https://dc.lft.to/lastmile_qr_scan", "ios": "https://dc.lft.to/lastmile_qr_scan"}, "bike_id": "1029c49494eeb20a2301dabb843626a9", "lon": -77.05024966666667}, {"is_reserved": 0, "fusion_lon": 0.0, "fusion_lat": 0.0, "name": "01cc481abc033ee3938c2acd34381f86", "type": "electric_scooter", "is_disabled": 0, "lat": 38.92709883333333, "rental_uris": {"android": "https://dc.lft.to/lastmile_qr_scan", "ios": "https://dc.lft.to/lastmile_qr_scan"}, "bike_id": "01cc481abc033ee3938c2acd34381f86", "lon": -77.02394566666666}, {"is_reserved": 0, "fusion_lon": 0.0, "fusion_lat": 0.0, "name": "3c57cab4b75a2f03005240bca3fd4c1f", "type": "electric_scooter", "is_disabled": 0, "lat": 38.908104, "rental_uris": {"android": "https://dc.lft.to/lastmile_qr_scan", "ios": "https://dc.lft.to/lastmile_qr_scan"}, "bike_id": "3c57cab4b75a2f03005240bca3fd4c1f", "lon": -77.031948}, {"is_reserved": 0, "fusion_lon": 0.0, "fusion_lat": 0.0, "name": "d6b9c129aa02adf4a4dc301ee4e4fc01", "type": "electric_scooter", "is_disabled": 0, "lat": 38.924883333333334, "rental_uris": {"android": "https://dc.lft.to/lastmile_qr_scan", "ios": "https://dc.lft.to/lastmile_qr_scan"}, "bike_id": "d6b9c129aa02adf4a4dc301ee4e4fc01", "lon": -77.0214335}, {"is_reserved": 0, "fusion_lon": 0.0, "fusion_lat": 0.0, "name": "66573ac97dc2d83c189f12a2f6b760b4", "type": "electric_scooter", "is_disabled": 0, "lat": 38.86699016666667, "rental_uris": {"android": "https://dc.lft.to/lastmile_qr_scan", "ios": "https://dc.lft.to/lastmile_qr_scan"}, "bike_id": "66573ac97dc2d83c189f12a2f6b760b4", "lon": -76.987113}, {"is_reserved": 0, "fusion_lon": 0.0, "fusion_lat": 0.0, "name": "dc5036b4c883bf99ee901ae1466ef415", "type": "electric_scooter", "is_disabled": 0, "lat": 38.9169115, "rental_uris": {"android": "https://dc.lft.to/lastmile_qr_scan", "ios": "https://dc.lft.to/lastmile_qr_scan"}, "bike_id": "dc5036b4c883bf99ee901ae1466ef415", "lon": -77.02687633333333}, {"is_reserved": 0, "fusion_lon": 0.0, "fusion_lat": 0.0, "name": "ac7f80cae315928b06b9b12eee8dad16", "type": "electric_scooter", "is_disabled": 0, "lat": 38.91190266666667, "rental_uris": {"android": "https://dc.lft.to/lastmile_qr_scan", "ios": "https://dc.lft.to/lastmile_qr_scan"}, "bike_id": "ac7f80cae315928b06b9b12eee8dad16", "lon": -77.0301805}, {"is_reserved": 0, "fusion_lon": 0.0, "fusion_lat": 0.0, "name": "b57be8f9c874385dc965241d9384e0f2", "type": "electric_bike", "is_disabled": 0, "lat": 38.959279, "rental_uris": {"android": "https://dc.lft.to/lastmile_qr_scan", "ios": "https://dc.lft.to/lastmile_qr_scan"}, "bike_id": "b57be8f9c874385dc965241d9384e0f2", "lon": -76.92537183333333}, {"is_reserved": 0, "fusion_lon": 0.0, "fusion_lat": 0.0, "name": "b767dfcc5cd5519949cfb002d0146f04", "type": "electric_scooter", "is_disabled": 0, "lat": 38.93082733333333, "rental_uris": {"android": "https://dc.lft.to/lastmile_qr_scan", "ios": "https://dc.lft.to/lastmile_qr_scan"}, "bike_id": "b767dfcc5cd5519949cfb002d0146f04", "lon": -77.0040805}, {"is_reserved": 0, "fusion_lon": 0.0, "fusion_lat": 0.0, "name": "d7fa71f9bdd2d3cf2cadb34cd17c6c0b", "type": "electric_scooter", "is_disabled": 0, "lat": 38.928982833333336, "rental_uris": {"android": "https://dc.lft.to/lastmile_qr_scan", "ios": "https://dc.lft.to/lastmile_qr_scan"}, "bike_id": "d7fa71f9bdd2d3cf2cadb34cd17c6c0b", "lon": -77.01411983333334}, {"is_reserved": 0, "fusion_lon": 0.0, "fusion_lat": 0.0, "name": "b3e26f97bb98bdb0ac6b6721a7a0da02", "type": "electric_scooter", "is_disabled": 0, "lat": 38.9163235, "rental_uris": {"android": "https://dc.lft.to/lastmile_qr_scan", "ios": "https://dc.lft.to/lastmile_qr_scan"}, "bike_id": "b3e26f97bb98bdb0ac6b6721a7a0da02", "lon": -77.04813166666666}, {"is_reserved": 0, "fusion_lon": 0.0, "fusion_lat": 0.0, "name": "2bc078154958e868c31262ac9f6fc280", "type": "electric_scooter", "is_disabled": 0, "lat": 38.89227416666667, "rental_uris": {"android": "https://dc.lft.to/lastmile_qr_scan", "ios": "https://dc.lft.to/lastmile_qr_scan"}, "bike_id": "2bc078154958e868c31262ac9f6fc280", "lon": -77.0437295}, {"is_reserved": 0, "fusion_lon": 0.0, "fusion_lat": 0.0, "name": "0ed2d681bde7b0caa347024d01318bdb", "type": "electric_scooter", "is_disabled": 0, "lat": 38.89367033333333, "rental_uris": {"android": "https://dc.lft.to/lastmile_qr_scan", "ios": "https://dc.lft.to/lastmile_qr_scan"}, "bike_id": "0ed2d681bde7b0caa347024d01318bdb", "lon": -76.94996066666667}, {"is_reserved": 0, "fusion_lon": 0.0, "fusion_lat": 0.0, "name": "b9fe20dd50f35e09d7066531c2715c52", "type": "electric_scooter", "is_disabled": 0, "lat": 38.8934865, "rental_uris": {"android": "https://dc.lft.to/lastmile_qr_scan", "ios": "https://dc.lft.to/lastmile_qr_scan"}, "bike_id": "b9fe20dd50f35e09d7066531c2715c52", "lon": -77.04194066666666}, {"is_reserved": 0, "fusion_lon": 0.0, "fusion_lat": 0.0, "name": "7db536ec81221476f6bb85ebf9faf4b6", "type": "electric_scooter", "is_disabled": 0, "lat": 38.880091166666666, "rental_uris": {"android": "https://dc.lft.to/lastmile_qr_scan", "ios": "https://dc.lft.to/lastmile_qr_scan"}, "bike_id": "7db536ec81221476f6bb85ebf9faf4b6", "lon": -77.02196116666667}, {"is_reserved": 0, "fusion_lon": 0.0, "fusion_lat": 0.0, "name": "7e72cb7a27f65bee7b3a52c1d38be626", "type": "electric_bike", "is_disabled": 0, "lat": 38.9098325, "rental_uris": {"android": "https://dc.lft.to/lastmile_qr_scan", "ios": "https://dc.lft.to/lastmile_qr_scan"}, "bike_id": "7e72cb7a27f65bee7b3a52c1d38be626", "lon": -77.03433733333334}, {"is_reserved": 0, "fusion_lon": 0.0, "fusion_lat": 0.0, "name": "6435061d271a65340fd99759b2250fb7", "type": "electric_scooter", "is_disabled": 0, "lat": 38.90729233333333, "rental_uris": {"android": "https://dc.lft.to/lastmile_qr_scan", "ios": "https://dc.lft.to/lastmile_qr_scan"}, "bike_id": "6435061d271a65340fd99759b2250fb7", "lon": -76.9869315}, {"is_reserved": 0, "fusion_lon": 0.0, "fusion_lat": 0.0, "name": "e765437a5244647c22a79e6c19dbaff4", "type": "electric_scooter", "is_disabled": 0, "lat": 38.8689705, "rental_uris": {"android": "https://dc.lft.to/lastmile_qr_scan", "ios": "https://dc.lft.to/lastmile_qr_scan"}, "bike_id": "e765437a5244647c22a79e6c19dbaff4", "lon": -76.98223166666666}, {"is_reserved": 0, "fusion_lon": 0.0, "fusion_lat": 0.0, "name": "b83b13eac73a7af6a5cccda833138c28", "type": "electric_scooter", "is_disabled": 0, "lat": 38.892230833333336, "rental_uris": {"android": "https://dc.lft.to/lastmile_qr_scan", "ios": "https://dc.lft.to/lastmile_qr_scan"}, "bike_id": "b83b13eac73a7af6a5cccda833138c28", "lon": -77.04376016666667}, {"is_reserved": 0, "fusion_lon": 0.0, "fusion_lat": 0.0, "name": "7a4fa05c1efc5ab0ff5780d0b7253296", "type": "electric_scooter", "is_disabled": 0, "lat": 38.9187265, "rental_uris": {"android": "https://dc.lft.to/lastmile_qr_scan", "ios": "https://dc.lft.to/lastmile_qr_scan"}, "bike_id": "7a4fa05c1efc5ab0ff5780d0b7253296", "lon": -77.04179916666666}, {"is_reserved": 0, "fusion_lon": 0.0, "fusion_lat": 0.0, "name": "efa6f34630d7676b8c2f6304576346b3", "type": "electric_scooter", "is_disabled": 0, "lat": 38.879026, "rental_uris": {"android": "https://dc.lft.to/lastmile_qr_scan", "ios": "https://dc.lft.to/lastmile_qr_scan"}, "bike_id": "efa6f34630d7676b8c2f6304576346b3", "lon": -77.013778}, {"is_reserved": 0, "fusion_lon": 0.0, "fusion_lat": 0.0, "name": "0c060276b74e064b6dae2e0a9cf6d129", "type": "electric_scooter", "is_disabled": 0, "lat": 38.89952183333333, "rental_uris": {"android": "https://dc.lft.to/lastmile_qr_scan", "ios": "https://dc.lft.to/lastmile_qr_scan"}, "bike_id": "0c060276b74e064b6dae2e0a9cf6d129", "lon": -77.04215366666666}, {"is_reserved": 0, "fusion_lon": 0.0, "fusion_lat": 0.0, "name": "94cb8002f9cca5888d6cf5972fad99fd", "type": "electric_scooter", "is_disabled": 0, "lat": 38.90083633333333, "rental_uris": {"android": "https://dc.lft.to/lastmile_qr_scan", "ios": "https://dc.lft.to/lastmile_qr_scan"}, "bike_id": "94cb8002f9cca5888d6cf5972fad99fd", "lon": -77.03940066666667}, {"is_reserved": 0, "fusion_lon": 0.0, "fusion_lat": 0.0, "name": "ae83fd5fdfe4a3c81a91307042ae5fff", "type": "electric_scooter", "is_disabled": 0, "lat": 38.88721683333333, "rental_uris": {"android": "https://dc.lft.to/lastmile_qr_scan", "ios": "https://dc.lft.to/lastmile_qr_scan"}, "bike_id": "ae83fd5fdfe4a3c81a91307042ae5fff", "lon": -77.0281765}, {"is_reserved": 0, "fusion_lon": 0.0, "fusion_lat": 0.0, "name": "fd947f77e7e1bcdb80ecb7c1868cf7a3", "type": "electric_bike", "is_disabled": 0, "lat": 39.0528115, "rental_uris": {"android": "https://dc.lft.to/lastmile_qr_scan", "ios": "https://dc.lft.to/lastmile_qr_scan"}, "bike_id": "fd947f77e7e1bcdb80ecb7c1868cf7a3", "lon": -77.08069033333334}, {"is_reserved": 0, "fusion_lon": 0.0, "fusion_lat": 0.0, "name": "5c9208d7f34e0d62574aec94d9e8eba8", "type": "electric_scooter", "is_disabled": 0, "lat": 38.86660666666667, "rental_uris": {"android": "https://dc.lft.to/lastmile_qr_scan", "ios": "https://dc.lft.to/lastmile_qr_scan"}, "bike_id": "5c9208d7f34e0d62574aec94d9e8eba8", "lon": -76.98884566666666}, {"is_reserved": 0, "fusion_lon": 0.0, "fusion_lat": 0.0, "name": "325675952bcaca5ff2b1b012ac9729fe", "type": "electric_scooter", "is_disabled": 0, "lat": 38.93046833333333, "rental_uris": {"android": "https://dc.lft.to/lastmile_qr_scan", "ios": "https://dc.lft.to/lastmile_qr_scan"}, "bike_id": "325675952bcaca5ff2b1b012ac9729fe", "lon": -77.03233633333333}, {"is_reserved": 0, "fusion_lon": 0.0, "fusion_lat": 0.0, "name": "46b1da14883c0aeb79ed8b2e9c084b1f", "type": "electric_scooter", "is_disabled": 0, "lat": 38.876486, "rental_uris": {"android": "https://dc.lft.to/lastmile_qr_scan", "ios": "https://dc.lft.to/lastmile_qr_scan"}, "bike_id": "46b1da14883c0aeb79ed8b2e9c084b1f", "lon": -77.00427133333334}, {"is_reserved": 0, "fusion_lon": 0.0, "fusion_lat": 0.0, "name": "ed2d491573d4631e1707910cb4c5119c", "type": "electric_scooter", "is_disabled": 0, "lat": 38.920868666666664, "rental_uris": {"android": "https://dc.lft.to/lastmile_qr_scan", "ios": "https://dc.lft.to/lastmile_qr_scan"}, "bike_id": "ed2d491573d4631e1707910cb4c5119c", "lon": -77.0222135}, {"is_reserved": 0, "fusion_lon": 0.0, "fusion_lat": 0.0, "name": "b48c054af475d8ac355f6c56bd279fcf", "type": "electric_scooter", "is_disabled": 0, "lat": 38.869955, "rental_uris": {"android": "https://dc.lft.to/lastmile_qr_scan", "ios": "https://dc.lft.to/lastmile_qr_scan"}, "bike_id": "b48c054af475d8ac355f6c56bd279fcf", "lon": -76.97588966666666}, {"is_reserved": 0, "fusion_lon": 0.0, "fusion_lat": 0.0, "name": "edc5619e7f58b10a6e59c1fed0a598e4", "type": "electric_scooter", "is_disabled": 0, "lat": 38.932348833333336, "rental_uris": {"android": "https://dc.lft.to/lastmile_qr_scan", "ios": "https://dc.lft.to/lastmile_qr_scan"}, "bike_id": "edc5619e7f58b10a6e59c1fed0a598e4", "lon": -77.03863183333333}, {"is_reserved": 0, "fusion_lon": 0.0, "fusion_lat": 0.0, "name": "6629664bd262061d9fee10400449f36a", "type": "electric_scooter", "is_disabled": 0, "lat": 38.98458466666666, "rental_uris": {"android": "https://dc.lft.to/lastmile_qr_scan", "ios": "https://dc.lft.to/lastmile_qr_scan"}, "bike_id": "6629664bd262061d9fee10400449f36a", "lon": -77.02641066666666}, {"is_reserved": 0, "fusion_lon": 0.0, "fusion_lat": 0.0, "name": "fa47728a1042b87e9f196d18f168fe2a", "type": "electric_scooter", "is_disabled": 0, "lat": 38.902589166666665, "rental_uris": {"android": "https://dc.lft.to/lastmile_qr_scan", "ios": "https://dc.lft.to/lastmile_qr_scan"}, "bike_id": "fa47728a1042b87e9f196d18f168fe2a", "lon": -76.99554716666667}, {"is_reserved": 0, "fusion_lon": 0.0, "fusion_lat": 0.0, "name": "6ec86e03fbcffb3fc70d57338aee6b0b", "type": "electric_scooter", "is_disabled": 0, "lat": 38.91108966666667, "rental_uris": {"android": "https://dc.lft.to/lastmile_qr_scan", "ios": "https://dc.lft.to/lastmile_qr_scan"}, "bike_id": "6ec86e03fbcffb3fc70d57338aee6b0b", "lon": -77.04477383333334}, {"is_reserved": 0, "fusion_lon": 0.0, "fusion_lat": 0.0, "name": "a5089f61f0c419bf4b784b7c42d74a40", "type": "electric_bike", "is_disabled": 0, "lat": 38.96901666666667, "rental_uris": {"android": "https://dc.lft.to/lastmile_qr_scan", "ios": "https://dc.lft.to/lastmile_qr_scan"}, "bike_id": "a5089f61f0c419bf4b784b7c42d74a40", "lon": -76.99492366666666}, {"is_reserved": 0, "fusion_lon": 0.0, "fusion_lat": 0.0, "name": "e30281cea000fded9b7fef74999e6646", "type": "electric_scooter", "is_disabled": 0, "lat": 38.918233, "rental_uris": {"android": "https://dc.lft.to/lastmile_qr_scan", "ios": "https://dc.lft.to/lastmile_qr_scan"}, "bike_id": "e30281cea000fded9b7fef74999e6646", "lon": -77.02418116666666}, {"is_reserved": 0, "fusion_lon": 0.0, "fusion_lat": 0.0, "name": "87899b79b68603dc575598bbbbfcd374", "type": "electric_scooter", "is_disabled": 0, "lat": 38.92878783333333, "rental_uris": {"android": "https://dc.lft.to/lastmile_qr_scan", "ios": "https://dc.lft.to/lastmile_qr_scan"}, "bike_id": "87899b79b68603dc575598bbbbfcd374", "lon": -77.03641816666666}, {"is_reserved": 0, "fusion_lon": 0.0, "fusion_lat": 0.0, "name": "f16e0149e5e0f5ad451ffa5a99906611", "type": "electric_scooter", "is_disabled": 0, "lat": 38.91811583333333, "rental_uris": {"android": "https://dc.lft.to/lastmile_qr_scan", "ios": "https://dc.lft.to/lastmile_qr_scan"}, "bike_id": "f16e0149e5e0f5ad451ffa5a99906611", "lon": -77.08952016666667}, {"is_reserved": 0, "fusion_lon": 0.0, "fusion_lat": 0.0, "name": "95f76bc1fcee28f4aac81fc3f91df247", "type": "electric_scooter", "is_disabled": 0, "lat": 38.908621, "rental_uris": {"android": "https://dc.lft.to/lastmile_qr_scan", "ios": "https://dc.lft.to/lastmile_qr_scan"}, "bike_id": "95f76bc1fcee28f4aac81fc3f91df247", "lon": -77.085929}, {"is_reserved": 0, "fusion_lon": 0.0, "fusion_lat": 0.0, "name": "10046fcf68500f40df9e9bca9a8b765a", "type": "electric_scooter", "is_disabled": 0, "lat": 38.93618433333333, "rental_uris": {"android": "https://dc.lft.to/lastmile_qr_scan", "ios": "https://dc.lft.to/lastmile_qr_scan"}, "bike_id": "10046fcf68500f40df9e9bca9a8b765a", "lon": -77.03806}, {"is_reserved": 0, "fusion_lon": 0.0, "fusion_lat": 0.0, "name": "86c806d4a674cf9b119e88bae4e72eb2", "type": "electric_bike", "is_disabled": 0, "lat": 38.96323666666667, "rental_uris": {"android": "https://dc.lft.to/lastmile_qr_scan", "ios": "https://dc.lft.to/lastmile_qr_scan"}, "bike_id": "86c806d4a674cf9b119e88bae4e72eb2", "lon": -76.97362183333334}, {"is_reserved": 0, "fusion_lon": 0.0, "fusion_lat": 0.0, "name": "7dbd86365464777bf71d90c93f2442e5", "type": "electric_scooter", "is_disabled": 0, "lat": 38.887405666666666, "rental_uris": {"android": "https://dc.lft.to/lastmile_qr_scan", "ios": "https://dc.lft.to/lastmile_qr_scan"}, "bike_id": "7dbd86365464777bf71d90c93f2442e5", "lon": -77.022168}, {"is_reserved": 0, "fusion_lon": 0.0, "fusion_lat": 0.0, "name": "64158d6bc53fe665190aab7a24cfbf50", "type": "electric_scooter", "is_disabled": 0, "lat": 38.91286683333333, "rental_uris": {"android": "https://dc.lft.to/lastmile_qr_scan", "ios": "https://dc.lft.to/lastmile_qr_scan"}, "bike_id": "64158d6bc53fe665190aab7a24cfbf50", "lon": -77.02385416666667}, {"is_reserved": 0, "fusion_lon": 0.0, "fusion_lat": 0.0, "name": "b14bcd43d225eff4c7a1f7c787062be0", "type": "electric_scooter", "is_disabled": 0, "lat": 38.916146833333336, "rental_uris": {"android": "https://dc.lft.to/lastmile_qr_scan", "ios": "https://dc.lft.to/lastmile_qr_scan"}, "bike_id": "b14bcd43d225eff4c7a1f7c787062be0", "lon": -77.03154616666667}, {"is_reserved": 0, "fusion_lon": 0.0, "fusion_lat": 0.0, "name": "56a7604d2de8a7a7b376379f6aa51739", "type": "electric_scooter", "is_disabled": 0, "lat": 38.924204333333336, "rental_uris": {"android": "https://dc.lft.to/lastmile_qr_scan", "ios": "https://dc.lft.to/lastmile_qr_scan"}, "bike_id": "56a7604d2de8a7a7b376379f6aa51739", "lon": -77.05180983333334}, {"is_reserved": 0, "fusion_lon": 0.0, "fusion_lat": 0.0, "name": "5530dfc14345549a51990524781c9779", "type": "electric_bike", "is_disabled": 0, "lat": 38.862521666666666, "rental_uris": {"android": "https://dc.lft.to/lastmile_qr_scan", "ios": "https://dc.lft.to/lastmile_qr_scan"}, "bike_id": "5530dfc14345549a51990524781c9779", "lon": -76.9834605}, {"is_reserved": 0, "fusion_lon": 0.0, "fusion_lat": 0.0, "name": "62cf5586549247a624c316a5c6e6d6d2", "type": "electric_scooter", "is_disabled": 0, "lat": 38.92490433333333, "rental_uris": {"android": "https://dc.lft.to/lastmile_qr_scan", "ios": "https://dc.lft.to/lastmile_qr_scan"}, "bike_id": "62cf5586549247a624c316a5c6e6d6d2", "lon": -77.02696766666666}, {"is_reserved": 0, "fusion_lon": 0.0, "fusion_lat": 0.0, "name": "2978c512e8dfa0f162f1b6b96d8c228d", "type": "electric_scooter", "is_disabled": 0, "lat": 38.9304225, "rental_uris": {"android": "https://dc.lft.to/lastmile_qr_scan", "ios": "https://dc.lft.to/lastmile_qr_scan"}, "bike_id": "2978c512e8dfa0f162f1b6b96d8c228d", "lon": -77.01219516666667}, {"is_reserved": 0, "fusion_lon": 0.0, "fusion_lat": 0.0, "name": "cdd7f169c558b5c265cf42e91cbdc0c7", "type": "electric_scooter", "is_disabled": 0, "lat": 38.86697766666666, "rental_uris": {"android": "https://dc.lft.to/lastmile_qr_scan", "ios": "https://dc.lft.to/lastmile_qr_scan"}, "bike_id": "cdd7f169c558b5c265cf42e91cbdc0c7", "lon": -76.98711466666667}, {"is_reserved": 0, "fusion_lon": 0.0, "fusion_lat": 0.0, "name": "3895183274cd5788d437e3eff3e31e75", "type": "electric_scooter", "is_disabled": 0, "lat": 38.91783783333333, "rental_uris": {"android": "https://dc.lft.to/lastmile_qr_scan", "ios": "https://dc.lft.to/lastmile_qr_scan"}, "bike_id": "3895183274cd5788d437e3eff3e31e75", "lon": -77.04024333333334}, {"is_reserved": 0, "fusion_lon": 0.0, "fusion_lat": 0.0, "name": "cf436981941c021b0d254584436deb06", "type": "electric_bike", "is_disabled": 0, "lat": 38.880463166666665, "rental_uris": {"android": "https://dc.lft.to/lastmile_qr_scan", "ios": "https://dc.lft.to/lastmile_qr_scan"}, "bike_id": "cf436981941c021b0d254584436deb06", "lon": -77.011281}, {"is_reserved": 0, "fusion_lon": 0.0, "fusion_lat": 0.0, "name": "2aa62c7d45a3e0760513ed1b2dda81d1", "type": "electric_scooter", "is_disabled": 0, "lat": 38.89389966666667, "rental_uris": {"android": "https://dc.lft.to/lastmile_qr_scan", "ios": "https://dc.lft.to/lastmile_qr_scan"}, "bike_id": "2aa62c7d45a3e0760513ed1b2dda81d1", "lon": -77.03187}, {"is_reserved": 0, "fusion_lon": 0.0, "fusion_lat": 0.0, "name": "af5354f9798c2b5027b62e13c0de74fd", "type": "electric_scooter", "is_disabled": 0, "lat": 38.82382116666667, "rental_uris": {"android": "https://dc.lft.to/lastmile_qr_scan", "ios": "https://dc.lft.to/lastmile_qr_scan"}, "bike_id": "af5354f9798c2b5027b62e13c0de74fd", "lon": -77.01186733333333}, {"is_reserved": 0, "fusion_lon": 0.0, "fusion_lat": 0.0, "name": "cb0bcd32931b6a6c6582d5901a6235c8", "type": "electric_scooter", "is_disabled": 0, "lat": 38.900132666666664, "rental_uris": {"android": "https://dc.lft.to/lastmile_qr_scan", "ios": "https://dc.lft.to/lastmile_qr_scan"}, "bike_id": "cb0bcd32931b6a6c6582d5901a6235c8", "lon": -77.04023416666666}, {"is_reserved": 0, "fusion_lon": 0.0, "fusion_lat": 0.0, "name": "78dc556cc7a63cec931b8588fe5811a7", "type": "electric_scooter", "is_disabled": 0, "lat": 38.90924533333333, "rental_uris": {"android": "https://dc.lft.to/lastmile_qr_scan", "ios": "https://dc.lft.to/lastmile_qr_scan"}, "bike_id": "78dc556cc7a63cec931b8588fe5811a7", "lon": -77.07279583333333}, {"is_reserved": 0, "fusion_lon": 0.0, "fusion_lat": 0.0, "name": "c2f239a1ae2f8bf93fbac8907b03c0e6", "type": "electric_scooter", "is_disabled": 0, "lat": 38.90471516666667, "rental_uris": {"android": "https://dc.lft.to/lastmile_qr_scan", "ios": "https://dc.lft.to/lastmile_qr_scan"}, "bike_id": "c2f239a1ae2f8bf93fbac8907b03c0e6", "lon": -77.0387975}, {"is_reserved": 0, "fusion_lon": 0.0, "fusion_lat": 0.0, "name": "de51466614887e0e518667b7ac5649b0", "type": "electric_scooter", "is_disabled": 0, "lat": 38.8673035, "rental_uris": {"android": "https://dc.lft.to/lastmile_qr_scan", "ios": "https://dc.lft.to/lastmile_qr_scan"}, "bike_id": "de51466614887e0e518667b7ac5649b0", "lon": -76.9878125}, {"is_reserved": 0, "fusion_lon": 0.0, "fusion_lat": 0.0, "name": "f825ad71f1ba7912edeff40a681caeb3", "type": "electric_scooter", "is_disabled": 0, "lat": 38.924561, "rental_uris": {"android": "https://dc.lft.to/lastmile_qr_scan", "ios": "https://dc.lft.to/lastmile_qr_scan"}, "bike_id": "f825ad71f1ba7912edeff40a681caeb3", "lon": -77.02134433333333}, {"is_reserved": 0, "fusion_lon": 0.0, "fusion_lat": 0.0, "name": "14a1f1c76152909aeae8e04975a55d53", "type": "electric_scooter", "is_disabled": 0, "lat": 38.91120383333333, "rental_uris": {"android": "https://dc.lft.to/lastmile_qr_scan", "ios": "https://dc.lft.to/lastmile_qr_scan"}, "bike_id": "14a1f1c76152909aeae8e04975a55d53", "lon": -77.03151933333334}, {"is_reserved": 0, "fusion_lon": 0.0, "fusion_lat": 0.0, "name": "caa25e2ac172d3edde44de3bebb4976f", "type": "electric_scooter", "is_disabled": 0, "lat": 38.94517583333333, "rental_uris": {"android": "https://dc.lft.to/lastmile_qr_scan", "ios": "https://dc.lft.to/lastmile_qr_scan"}, "bike_id": "caa25e2ac172d3edde44de3bebb4976f", "lon": -77.03324866666667}, {"is_reserved": 0, "fusion_lon": 0.0, "fusion_lat": 0.0, "name": "02dc996e9b4bded80bffd066ff053e6e", "type": "electric_scooter", "is_disabled": 0, "lat": 38.90827816666667, "rental_uris": {"android": "https://dc.lft.to/lastmile_qr_scan", "ios": "https://dc.lft.to/lastmile_qr_scan"}, "bike_id": "02dc996e9b4bded80bffd066ff053e6e", "lon": -76.992504}, {"is_reserved": 0, "fusion_lon": 0.0, "fusion_lat": 0.0, "name": "3f21b0a7d9d6a20e956265288c748044", "type": "electric_scooter", "is_disabled": 0, "lat": 38.89227916666667, "rental_uris": {"android": "https://dc.lft.to/lastmile_qr_scan", "ios": "https://dc.lft.to/lastmile_qr_scan"}, "bike_id": "3f21b0a7d9d6a20e956265288c748044", "lon": -77.03185983333333}, {"is_reserved": 0, "fusion_lon": 0.0, "fusion_lat": 0.0, "name": "cedc3207eb25dd4f587371094eac15d5", "type": "electric_scooter", "is_disabled": 0, "lat": 38.90227433333333, "rental_uris": {"android": "https://dc.lft.to/lastmile_qr_scan", "ios": "https://dc.lft.to/lastmile_qr_scan"}, "bike_id": "cedc3207eb25dd4f587371094eac15d5", "lon": -77.04679283333333}, {"is_reserved": 0, "fusion_lon": 0.0, "fusion_lat": 0.0, "name": "007217f7a475937af342c0c6fdfa5aa0", "type": "electric_bike", "is_disabled": 0, "lat": 38.85891633333333, "rental_uris": {"android": "https://dc.lft.to/lastmile_qr_scan", "ios": "https://dc.lft.to/lastmile_qr_scan"}, "bike_id": "007217f7a475937af342c0c6fdfa5aa0", "lon": -77.11861283333333}, {"is_reserved": 0, "fusion_lon": 0.0, "fusion_lat": 0.0, "name": "32161206c49f144165b398e269b945e3", "type": "electric_scooter", "is_disabled": 0, "lat": 38.92153883333334, "rental_uris": {"android": "https://dc.lft.to/lastmile_qr_scan", "ios": "https://dc.lft.to/lastmile_qr_scan"}, "bike_id": "32161206c49f144165b398e269b945e3", "lon": -77.03508616666667}, {"is_reserved": 0, "fusion_lon": 0.0, "fusion_lat": 0.0, "name": "8729da2db18ae81b22e327c41ef4929e", "type": "electric_scooter", "is_disabled": 0, "lat": 38.92151883333333, "rental_uris": {"android": "https://dc.lft.to/lastmile_qr_scan", "ios": "https://dc.lft.to/lastmile_qr_scan"}, "bike_id": "8729da2db18ae81b22e327c41ef4929e", "lon": -77.03331916666667}, {"is_reserved": 0, "fusion_lon": 0.0, "fusion_lat": 0.0, "name": "a0425b9162baf33233af076ce3e7d5fc", "type": "electric_scooter", "is_disabled": 0, "lat": 38.916140166666665, "rental_uris": {"android": "https://dc.lft.to/lastmile_qr_scan", "ios": "https://dc.lft.to/lastmile_qr_scan"}, "bike_id": "a0425b9162baf33233af076ce3e7d5fc", "lon": -77.0315265}, {"is_reserved": 0, "fusion_lon": 0.0, "fusion_lat": 0.0, "name": "05bcb80ce8eb03d69847ce9b44d190df", "type": "electric_scooter", "is_disabled": 0, "lat": 38.916828, "rental_uris": {"android": "https://dc.lft.to/lastmile_qr_scan", "ios": "https://dc.lft.to/lastmile_qr_scan"}, "bike_id": "05bcb80ce8eb03d69847ce9b44d190df", "lon": -77.031183}, {"is_reserved": 0, "fusion_lon": 0.0, "fusion_lat": 0.0, "name": "e34f38731245d732c5232dac47178dba", "type": "electric_scooter", "is_disabled": 0, "lat": 38.90507233333334, "rental_uris": {"android": "https://dc.lft.to/lastmile_qr_scan", "ios": "https://dc.lft.to/lastmile_qr_scan"}, "bike_id": "e34f38731245d732c5232dac47178dba", "lon": -77.05811616666666}, {"is_reserved": 0, "fusion_lon": 0.0, "fusion_lat": 0.0, "name": "8cd2c699ca9b3192ce0a07253dbe71ad", "type": "electric_scooter", "is_disabled": 0, "lat": 38.919195, "rental_uris": {"android": "https://dc.lft.to/lastmile_qr_scan", "ios": "https://dc.lft.to/lastmile_qr_scan"}, "bike_id": "8cd2c699ca9b3192ce0a07253dbe71ad", "lon": -77.04172866666667}, {"is_reserved": 0, "fusion_lon": 0.0, "fusion_lat": 0.0, "name": "8a13387c82f8da156450832f746cb0d9", "type": "electric_scooter", "is_disabled": 0, "lat": 38.9051745, "rental_uris": {"android": "https://dc.lft.to/lastmile_qr_scan", "ios": "https://dc.lft.to/lastmile_qr_scan"}, "bike_id": "8a13387c82f8da156450832f746cb0d9", "lon": -77.064375}, {"is_reserved": 0, "fusion_lon": 0.0, "fusion_lat": 0.0, "name": "2dcd76b37088f2e1bcd077e7dacf4ef3", "type": "electric_scooter", "is_disabled": 0, "lat": 38.89941683333333, "rental_uris": {"android": "https://dc.lft.to/lastmile_qr_scan", "ios": "https://dc.lft.to/lastmile_qr_scan"}, "bike_id": "2dcd76b37088f2e1bcd077e7dacf4ef3", "lon": -77.02102866666667}, {"is_reserved": 0, "fusion_lon": 0.0, "fusion_lat": 0.0, "name": "86dcb7749ea3e48a08ec1c4fb3f5940f", "type": "electric_scooter", "is_disabled": 0, "lat": 38.905079666666666, "rental_uris": {"android": "https://dc.lft.to/lastmile_qr_scan", "ios": "https://dc.lft.to/lastmile_qr_scan"}, "bike_id": "86dcb7749ea3e48a08ec1c4fb3f5940f", "lon": -76.98482033333333}, {"is_reserved": 0, "fusion_lon": 0.0, "fusion_lat": 0.0, "name": "f54f001fada3c76e01fdb6666c90392d", "type": "electric_scooter", "is_disabled": 0, "lat": 38.9177345, "rental_uris": {"android": "https://dc.lft.to/lastmile_qr_scan", "ios": "https://dc.lft.to/lastmile_qr_scan"}, "bike_id": "f54f001fada3c76e01fdb6666c90392d", "lon": -77.04158066666666}, {"is_reserved": 0, "fusion_lon": 0.0, "fusion_lat": 0.0, "name": "5f9f406dc01b81dd703793da4aa0bf05", "type": "electric_scooter", "is_disabled": 0, "lat": 38.930169666666664, "rental_uris": {"android": "https://dc.lft.to/lastmile_qr_scan", "ios": "https://dc.lft.to/lastmile_qr_scan"}, "bike_id": "5f9f406dc01b81dd703793da4aa0bf05", "lon": -77.02789966666667}, {"is_reserved": 0, "fusion_lon": 0.0, "fusion_lat": 0.0, "name": "ce58b52cf7f61e82cf7cbba190516c69", "type": "electric_scooter", "is_disabled": 0, "lat": 38.92364283333333, "rental_uris": {"android": "https://dc.lft.to/lastmile_qr_scan", "ios": "https://dc.lft.to/lastmile_qr_scan"}, "bike_id": "ce58b52cf7f61e82cf7cbba190516c69", "lon": -77.05050366666667}, {"is_reserved": 0, "fusion_lon": 0.0, "fusion_lat": 0.0, "name": "bbd20dd0802ff5c389d74f8d372f0601", "type": "electric_bike", "is_disabled": 0, "lat": 38.827835666666665, "rental_uris": {"android": "https://dc.lft.to/lastmile_qr_scan", "ios": "https://dc.lft.to/lastmile_qr_scan"}, "bike_id": "bbd20dd0802ff5c389d74f8d372f0601", "lon": -77.0091375}, {"is_reserved": 0, "fusion_lon": 0.0, "fusion_lat": 0.0, "name": "9209a162991a69758ccd75710befae1f", "type": "electric_scooter", "is_disabled": 0, "lat": 38.87985333333334, "rental_uris": {"android": "https://dc.lft.to/lastmile_qr_scan", "ios": "https://dc.lft.to/lastmile_qr_scan"}, "bike_id": "9209a162991a69758ccd75710befae1f", "lon": -77.01530233333334}, {"is_reserved": 0, "fusion_lon": 0.0, "fusion_lat": 0.0, "name": "2af214897ea0ed687e2435495fea393d", "type": "electric_scooter", "is_disabled": 0, "lat": 38.90366383333333, "rental_uris": {"android": "https://dc.lft.to/lastmile_qr_scan", "ios": "https://dc.lft.to/lastmile_qr_scan"}, "bike_id": "2af214897ea0ed687e2435495fea393d", "lon": -77.00987533333333}, {"is_reserved": 0, "fusion_lon": 0.0, "fusion_lat": 0.0, "name": "cf7760deecefd3fb36266c3bf872b6b8", "type": "electric_scooter", "is_disabled": 0, "lat": 38.920323, "rental_uris": {"android": "https://dc.lft.to/lastmile_qr_scan", "ios": "https://dc.lft.to/lastmile_qr_scan"}, "bike_id": "cf7760deecefd3fb36266c3bf872b6b8", "lon": -77.0180625}, {"is_reserved": 0, "fusion_lon": 0.0, "fusion_lat": 0.0, "name": "d93a33df33310d0cc1c8418628724ea6", "type": "electric_bike", "is_disabled": 0, "lat": 38.89790633333333, "rental_uris": {"android": "https://dc.lft.to/lastmile_qr_scan", "ios": "https://dc.lft.to/lastmile_qr_scan"}, "bike_id": "d93a33df33310d0cc1c8418628724ea6", "lon": -77.00606083333334}, {"is_reserved": 0, "fusion_lon": 0.0, "fusion_lat": 0.0, "name": "6e1baf8775a90df58e60e041fd160f52", "type": "electric_scooter", "is_disabled": 0, "lat": 38.93015366666667, "rental_uris": {"android": "https://dc.lft.to/lastmile_qr_scan", "ios": "https://dc.lft.to/lastmile_qr_scan"}, "bike_id": "6e1baf8775a90df58e60e041fd160f52", "lon": -77.01295533333334}, {"is_reserved": 0, "fusion_lon": 0.0, "fusion_lat": 0.0, "name": "3024f426623c9b31385753f50cc56196", "type": "electric_scooter", "is_disabled": 0, "lat": 38.911035166666665, "rental_uris": {"android": "https://dc.lft.to/lastmile_qr_scan", "ios": "https://dc.lft.to/lastmile_qr_scan"}, "bike_id": "3024f426623c9b31385753f50cc56196", "lon": -77.07350933333333}, {"is_reserved": 0, "fusion_lon": 0.0, "fusion_lat": 0.0, "name": "f17dfdfe2329a66273951e8cd94e9c73", "type": "electric_scooter", "is_disabled": 0, "lat": 38.911188333333335, "rental_uris": {"android": "https://dc.lft.to/lastmile_qr_scan", "ios": "https://dc.lft.to/lastmile_qr_scan"}, "bike_id": "f17dfdfe2329a66273951e8cd94e9c73", "lon": -77.0387295}, {"is_reserved": 0, "fusion_lon": 0.0, "fusion_lat": 0.0, "name": "8faf86377a7aca172f871c298d4cae64", "type": "electric_scooter", "is_disabled": 0, "lat": 38.887244, "rental_uris": {"android": "https://dc.lft.to/lastmile_qr_scan", "ios": "https://dc.lft.to/lastmile_qr_scan"}, "bike_id": "8faf86377a7aca172f871c298d4cae64", "lon": -77.021772}, {"is_reserved": 0, "fusion_lon": 0.0, "fusion_lat": 0.0, "name": "aaf1c65fbaaf98db367d9350d83fc15e", "type": "electric_scooter", "is_disabled": 0, "lat": 38.9227715, "rental_uris": {"android": "https://dc.lft.to/lastmile_qr_scan", "ios": "https://dc.lft.to/lastmile_qr_scan"}, "bike_id": "aaf1c65fbaaf98db367d9350d83fc15e", "lon": -77.0425415}, {"is_reserved": 0, "fusion_lon": 0.0, "fusion_lat": 0.0, "name": "a6e3ea8089a605b53e518119b1d25b5d", "type": "electric_scooter", "is_disabled": 0, "lat": 38.918114333333335, "rental_uris": {"android": "https://dc.lft.to/lastmile_qr_scan", "ios": "https://dc.lft.to/lastmile_qr_scan"}, "bike_id": "a6e3ea8089a605b53e518119b1d25b5d", "lon": -77.03564316666667}, {"is_reserved": 0, "fusion_lon": 0.0, "fusion_lat": 0.0, "name": "99cd07830177cdcbcf856effdc7f5580", "type": "electric_scooter", "is_disabled": 0, "lat": 38.90958666666667, "rental_uris": {"android": "https://dc.lft.to/lastmile_qr_scan", "ios": "https://dc.lft.to/lastmile_qr_scan"}, "bike_id": "99cd07830177cdcbcf856effdc7f5580", "lon": -77.04574966666667}, {"is_reserved": 0, "fusion_lon": 0.0, "fusion_lat": 0.0, "name": "7d2114523e95c3c487c2d71b8cc2ef5a", "type": "electric_scooter", "is_disabled": 0, "lat": 38.91705233333333, "rental_uris": {"android": "https://dc.lft.to/lastmile_qr_scan", "ios": "https://dc.lft.to/lastmile_qr_scan"}, "bike_id": "7d2114523e95c3c487c2d71b8cc2ef5a", "lon": -77.02603383333333}, {"is_reserved": 0, "fusion_lon": 0.0, "fusion_lat": 0.0, "name": "14de1d4be2e76103e4d1a71fff192403", "type": "electric_scooter", "is_disabled": 0, "lat": 38.90957266666667, "rental_uris": {"android": "https://dc.lft.to/lastmile_qr_scan", "ios": "https://dc.lft.to/lastmile_qr_scan"}, "bike_id": "14de1d4be2e76103e4d1a71fff192403", "lon": -77.03201883333334}, {"is_reserved": 0, "fusion_lon": 0.0, "fusion_lat": 0.0, "name": "ead9a30a0ca5f3a7eedfaf70eec944fc", "type": "electric_scooter", "is_disabled": 0, "lat": 38.894993, "rental_uris": {"android": "https://dc.lft.to/lastmile_qr_scan", "ios": "https://dc.lft.to/lastmile_qr_scan"}, "bike_id": "ead9a30a0ca5f3a7eedfaf70eec944fc", "lon": -77.00213533333333}, {"is_reserved": 0, "fusion_lon": 0.0, "fusion_lat": 0.0, "name": "067fdedd4e9086fc840eddebebb241ef", "type": "electric_scooter", "is_disabled": 0, "lat": 38.91595916666667, "rental_uris": {"android": "https://dc.lft.to/lastmile_qr_scan", "ios": "https://dc.lft.to/lastmile_qr_scan"}, "bike_id": "067fdedd4e9086fc840eddebebb241ef", "lon": -77.0320235}, {"is_reserved": 0, "fusion_lon": 0.0, "fusion_lat": 0.0, "name": "5d322562ecd9a53acfd71fd511e55701", "type": "electric_scooter", "is_disabled": 0, "lat": 38.89220666666667, "rental_uris": {"android": "https://dc.lft.to/lastmile_qr_scan", "ios": "https://dc.lft.to/lastmile_qr_scan"}, "bike_id": "5d322562ecd9a53acfd71fd511e55701", "lon": -77.04500183333333}, {"is_reserved": 0, "fusion_lon": 0.0, "fusion_lat": 0.0, "name": "14dc75abe5f770e243566cb46ccbaf48", "type": "electric_scooter", "is_disabled": 0, "lat": 38.917925, "rental_uris": {"android": "https://dc.lft.to/lastmile_qr_scan", "ios": "https://dc.lft.to/lastmile_qr_scan"}, "bike_id": "14dc75abe5f770e243566cb46ccbaf48", "lon": -77.041545}, {"is_reserved": 0, "fusion_lon": 0.0, "fusion_lat": 0.0, "name": "2e70e6c518a21fbe3afd296ca1738a91", "type": "electric_scooter", "is_disabled": 0, "lat": 38.952295, "rental_uris": {"android": "https://dc.lft.to/lastmile_qr_scan", "ios": "https://dc.lft.to/lastmile_qr_scan"}, "bike_id": "2e70e6c518a21fbe3afd296ca1738a91", "lon": -77.01428683333333}, {"is_reserved": 0, "fusion_lon": 0.0, "fusion_lat": 0.0, "name": "e9dba8fbb407f1996b46cfc0dd8e15e8", "type": "electric_scooter", "is_disabled": 0, "lat": 38.887221333333336, "rental_uris": {"android": "https://dc.lft.to/lastmile_qr_scan", "ios": "https://dc.lft.to/lastmile_qr_scan"}, "bike_id": "e9dba8fbb407f1996b46cfc0dd8e15e8", "lon": -77.02181916666666}, {"is_reserved": 0, "fusion_lon": 0.0, "fusion_lat": 0.0, "name": "91b9fe4fe2ab02dcb62939a65dc66e78", "type": "electric_scooter", "is_disabled": 0, "lat": 38.921908, "rental_uris": {"android": "https://dc.lft.to/lastmile_qr_scan", "ios": "https://dc.lft.to/lastmile_qr_scan"}, "bike_id": "91b9fe4fe2ab02dcb62939a65dc66e78", "lon": -77.0423165}, {"is_reserved": 0, "fusion_lon": 0.0, "fusion_lat": 0.0, "name": "063c6ccf056eb8469800892a927c922e", "type": "electric_scooter", "is_disabled": 0, "lat": 38.8895945, "rental_uris": {"android": "https://dc.lft.to/lastmile_qr_scan", "ios": "https://dc.lft.to/lastmile_qr_scan"}, "bike_id": "063c6ccf056eb8469800892a927c922e", "lon": -76.93705566666667}, {"is_reserved": 0, "fusion_lon": 0.0, "fusion_lat": 0.0, "name": "43c0bac2367a1575d5403f35a4ea4766", "type": "electric_scooter", "is_disabled": 0, "lat": 38.917222333333335, "rental_uris": {"android": "https://dc.lft.to/lastmile_qr_scan", "ios": "https://dc.lft.to/lastmile_qr_scan"}, "bike_id": "43c0bac2367a1575d5403f35a4ea4766", "lon": -77.04177233333333}, {"is_reserved": 0, "fusion_lon": 0.0, "fusion_lat": 0.0, "name": "de845771d424177655c33db0ec269c02", "type": "electric_scooter", "is_disabled": 0, "lat": 38.919946833333334, "rental_uris": {"android": "https://dc.lft.to/lastmile_qr_scan", "ios": "https://dc.lft.to/lastmile_qr_scan"}, "bike_id": "de845771d424177655c33db0ec269c02", "lon": -77.022014}, {"is_reserved": 0, "fusion_lon": 0.0, "fusion_lat": 0.0, "name": "a8d9f05913d71b31e50c6fbc05bd7d2e", "type": "electric_scooter", "is_disabled": 0, "lat": 38.89430866666667, "rental_uris": {"android": "https://dc.lft.to/lastmile_qr_scan", "ios": "https://dc.lft.to/lastmile_qr_scan"}, "bike_id": "a8d9f05913d71b31e50c6fbc05bd7d2e", "lon": -76.9487945}, {"is_reserved": 0, "fusion_lon": 0.0, "fusion_lat": 0.0, "name": "aa96ac89d1db22fcd4b54c50bffd9a8a", "type": "electric_scooter", "is_disabled": 0, "lat": 38.93403583333333, "rental_uris": {"android": "https://dc.lft.to/lastmile_qr_scan", "ios": "https://dc.lft.to/lastmile_qr_scan"}, "bike_id": "aa96ac89d1db22fcd4b54c50bffd9a8a", "lon": -77.04135366666667}, {"is_reserved": 0, "fusion_lon": 0.0, "fusion_lat": 0.0, "name": "6bc0a39a4ce68eed1b1db3026ef57aa6", "type": "electric_scooter", "is_disabled": 0, "lat": 38.91540233333333, "rental_uris": {"android": "https://dc.lft.to/lastmile_qr_scan", "ios": "https://dc.lft.to/lastmile_qr_scan"}, "bike_id": "6bc0a39a4ce68eed1b1db3026ef57aa6", "lon": -77.01267433333334}, {"is_reserved": 0, "fusion_lon": 0.0, "fusion_lat": 0.0, "name": "ce6541f41b4fe06ed6f586abf29d03e5", "type": "electric_scooter", "is_disabled": 0, "lat": 38.892185166666664, "rental_uris": {"android": "https://dc.lft.to/lastmile_qr_scan", "ios": "https://dc.lft.to/lastmile_qr_scan"}, "bike_id": "ce6541f41b4fe06ed6f586abf29d03e5", "lon": -77.04260216666667}, {"is_reserved": 0, "fusion_lon": 0.0, "fusion_lat": 0.0, "name": "2fb735b741c2840fff23ad6dee39c787", "type": "electric_scooter", "is_disabled": 0, "lat": 38.93537933333333, "rental_uris": {"android": "https://dc.lft.to/lastmile_qr_scan", "ios": "https://dc.lft.to/lastmile_qr_scan"}, "bike_id": "2fb735b741c2840fff23ad6dee39c787", "lon": -77.05748266666667}, {"is_reserved": 0, "fusion_lon": 0.0, "fusion_lat": 0.0, "name": "19ad98445591b5c801b18da6ae0dfcd7", "type": "electric_scooter", "is_disabled": 0, "lat": 38.89096166666667, "rental_uris": {"android": "https://dc.lft.to/lastmile_qr_scan", "ios": "https://dc.lft.to/lastmile_qr_scan"}, "bike_id": "19ad98445591b5c801b18da6ae0dfcd7", "lon": -77.00279833333333}, {"is_reserved": 0, "fusion_lon": 0.0, "fusion_lat": 0.0, "name": "82dd9ccb5a7d450d6755ae796abe45d8", "type": "electric_scooter", "is_disabled": 0, "lat": 38.91792483333333, "rental_uris": {"android": "https://dc.lft.to/lastmile_qr_scan", "ios": "https://dc.lft.to/lastmile_qr_scan"}, "bike_id": "82dd9ccb5a7d450d6755ae796abe45d8", "lon": -77.02470866666667}, {"is_reserved": 0, "fusion_lon": 0.0, "fusion_lat": 0.0, "name": "b60a21dde8201bde95c10292b88ab7d9", "type": "electric_scooter", "is_disabled": 0, "lat": 38.8637735, "rental_uris": {"android": "https://dc.lft.to/lastmile_qr_scan", "ios": "https://dc.lft.to/lastmile_qr_scan"}, "bike_id": "b60a21dde8201bde95c10292b88ab7d9", "lon": -76.99057283333333}, {"is_reserved": 0, "fusion_lon": 0.0, "fusion_lat": 0.0, "name": "2da55bd1d76771f8d2166ec5afbbced4", "type": "electric_scooter", "is_disabled": 0, "lat": 38.885904833333335, "rental_uris": {"android": "https://dc.lft.to/lastmile_qr_scan", "ios": "https://dc.lft.to/lastmile_qr_scan"}, "bike_id": "2da55bd1d76771f8d2166ec5afbbced4", "lon": -76.9962165}, {"is_reserved": 0, "fusion_lon": 0.0, "fusion_lat": 0.0, "name": "3742a7230400fbff896ac0d9996c1bc2", "type": "electric_scooter", "is_disabled": 0, "lat": 38.91825683333333, "rental_uris": {"android": "https://dc.lft.to/lastmile_qr_scan", "ios": "https://dc.lft.to/lastmile_qr_scan"}, "bike_id": "3742a7230400fbff896ac0d9996c1bc2", "lon": -77.0346975}, {"is_reserved": 0, "fusion_lon": 0.0, "fusion_lat": 0.0, "name": "438171831417cf32292820c2ace7b7e2", "type": "electric_scooter", "is_disabled": 0, "lat": 38.91295983333333, "rental_uris": {"android": "https://dc.lft.to/lastmile_qr_scan", "ios": "https://dc.lft.to/lastmile_qr_scan"}, "bike_id": "438171831417cf32292820c2ace7b7e2", "lon": -76.98474266666666}, {"is_reserved": 0, "fusion_lon": 0.0, "fusion_lat": 0.0, "name": "3ae27ae1aae6fa628c4705e0def96198", "type": "electric_scooter", "is_disabled": 0, "lat": 38.9140645, "rental_uris": {"android": "https://dc.lft.to/lastmile_qr_scan", "ios": "https://dc.lft.to/lastmile_qr_scan"}, "bike_id": "3ae27ae1aae6fa628c4705e0def96198", "lon": -77.04192266666666}, {"is_reserved": 0, "fusion_lon": 0.0, "fusion_lat": 0.0, "name": "708a0b0fd8a34bf6c93e72dc677abc0d", "type": "electric_scooter", "is_disabled": 0, "lat": 38.9171585, "rental_uris": {"android": "https://dc.lft.to/lastmile_qr_scan", "ios": "https://dc.lft.to/lastmile_qr_scan"}, "bike_id": "708a0b0fd8a34bf6c93e72dc677abc0d", "lon": -77.00887183333333}, {"is_reserved": 0, "fusion_lon": 0.0, "fusion_lat": 0.0, "name": "0cf7947c5157d42950f8ffa4eccad199", "type": "electric_scooter", "is_disabled": 0, "lat": 38.915365333333334, "rental_uris": {"android": "https://dc.lft.to/lastmile_qr_scan", "ios": "https://dc.lft.to/lastmile_qr_scan"}, "bike_id": "0cf7947c5157d42950f8ffa4eccad199", "lon": -77.032006}, {"is_reserved": 0, "fusion_lon": 0.0, "fusion_lat": 0.0, "name": "31c3f440b044a7c7b74879fc6a42bd7d", "type": "electric_scooter", "is_disabled": 0, "lat": 38.9191465, "rental_uris": {"android": "https://dc.lft.to/lastmile_qr_scan", "ios": "https://dc.lft.to/lastmile_qr_scan"}, "bike_id": "31c3f440b044a7c7b74879fc6a42bd7d", "lon": -77.0318045}, {"is_reserved": 0, "fusion_lon": 0.0, "fusion_lat": 0.0, "name": "54c8668c448f8e4619d02ad65693ee67", "type": "electric_scooter", "is_disabled": 0, "lat": 38.90141966666667, "rental_uris": {"android": "https://dc.lft.to/lastmile_qr_scan", "ios": "https://dc.lft.to/lastmile_qr_scan"}, "bike_id": "54c8668c448f8e4619d02ad65693ee67", "lon": -77.000083}, {"is_reserved": 0, "fusion_lon": 0.0, "fusion_lat": 0.0, "name": "53a2196ee84f879228326e47a24f6551", "type": "electric_scooter", "is_disabled": 0, "lat": 38.90503433333333, "rental_uris": {"android": "https://dc.lft.to/lastmile_qr_scan", "ios": "https://dc.lft.to/lastmile_qr_scan"}, "bike_id": "53a2196ee84f879228326e47a24f6551", "lon": -76.98070116666666}, {"is_reserved": 0, "fusion_lon": 0.0, "fusion_lat": 0.0, "name": "1a39c8deb76c3e7af8eea40b3604f9bb", "type": "electric_scooter", "is_disabled": 0, "lat": 38.8991295, "rental_uris": {"android": "https://dc.lft.to/lastmile_qr_scan", "ios": "https://dc.lft.to/lastmile_qr_scan"}, "bike_id": "1a39c8deb76c3e7af8eea40b3604f9bb", "lon": -76.93366516666667}, {"is_reserved": 0, "fusion_lon": 0.0, "fusion_lat": 0.0, "name": "901ad4a04b1dca5b2ab81b9025296bc9", "type": "electric_scooter", "is_disabled": 0, "lat": 38.914664333333334, "rental_uris": {"android": "https://dc.lft.to/lastmile_qr_scan", "ios": "https://dc.lft.to/lastmile_qr_scan"}, "bike_id": "901ad4a04b1dca5b2ab81b9025296bc9", "lon": -77.03886366666667}, {"is_reserved": 0, "fusion_lon": 0.0, "fusion_lat": 0.0, "name": "25de59da88e858a467eace387e05d83f", "type": "electric_scooter", "is_disabled": 0, "lat": 38.92735316666667, "rental_uris": {"android": "https://dc.lft.to/lastmile_qr_scan", "ios": "https://dc.lft.to/lastmile_qr_scan"}, "bike_id": "25de59da88e858a467eace387e05d83f", "lon": -77.03243333333333}, {"is_reserved": 0, "fusion_lon": 0.0, "fusion_lat": 0.0, "name": "095f0a146954206bb686cbbacb3a94e8", "type": "electric_scooter", "is_disabled": 0, "lat": 38.927458333333334, "rental_uris": {"android": "https://dc.lft.to/lastmile_qr_scan", "ios": "https://dc.lft.to/lastmile_qr_scan"}, "bike_id": "095f0a146954206bb686cbbacb3a94e8", "lon": -77.02532616666667}, {"is_reserved": 0, "fusion_lon": 0.0, "fusion_lat": 0.0, "name": "62f6b2ba2ccc98d0fb1552e1d3e440fc", "type": "electric_scooter", "is_disabled": 0, "lat": 38.900150833333335, "rental_uris": {"android": "https://dc.lft.to/lastmile_qr_scan", "ios": "https://dc.lft.to/lastmile_qr_scan"}, "bike_id": "62f6b2ba2ccc98d0fb1552e1d3e440fc", "lon": -76.98695366666666}, {"is_reserved": 0, "fusion_lon": 0.0, "fusion_lat": 0.0, "name": "a14d7ca50c0e28a6112819f3d0fe5c48", "type": "electric_scooter", "is_disabled": 0, "lat": 38.918675666666665, "rental_uris": {"android": "https://dc.lft.to/lastmile_qr_scan", "ios": "https://dc.lft.to/lastmile_qr_scan"}, "bike_id": "a14d7ca50c0e28a6112819f3d0fe5c48", "lon": -77.04451933333333}, {"is_reserved": 0, "fusion_lon": 0.0, "fusion_lat": 0.0, "name": "d4c542327fa536b92ad17d2899ab58ec", "type": "electric_scooter", "is_disabled": 0, "lat": 38.888301166666665, "rental_uris": {"android": "https://dc.lft.to/lastmile_qr_scan", "ios": "https://dc.lft.to/lastmile_qr_scan"}, "bike_id": "d4c542327fa536b92ad17d2899ab58ec", "lon": -76.99365416666667}, {"is_reserved": 0, "fusion_lon": 0.0, "fusion_lat": 0.0, "name": "dab4b7437047ac9c50eb496979f53a21", "type": "electric_scooter", "is_disabled": 0, "lat": 38.86694766666667, "rental_uris": {"android": "https://dc.lft.to/lastmile_qr_scan", "ios": "https://dc.lft.to/lastmile_qr_scan"}, "bike_id": "dab4b7437047ac9c50eb496979f53a21", "lon": -76.98599533333334}, {"is_reserved": 0, "fusion_lon": 0.0, "fusion_lat": 0.0, "name": "4feb2fd816b7e87d7796bddf157f433e", "type": "electric_bike", "is_disabled": 0, "lat": 38.962133333333334, "rental_uris": {"android": "https://dc.lft.to/lastmile_qr_scan", "ios": "https://dc.lft.to/lastmile_qr_scan"}, "bike_id": "4feb2fd816b7e87d7796bddf157f433e", "lon": -77.0263285}, {"is_reserved": 0, "fusion_lon": 0.0, "fusion_lat": 0.0, "name": "8a976be74a3f431fa04bd91e8752b0d2", "type": "electric_scooter", "is_disabled": 0, "lat": 38.89220683333333, "rental_uris": {"android": "https://dc.lft.to/lastmile_qr_scan", "ios": "https://dc.lft.to/lastmile_qr_scan"}, "bike_id": "8a976be74a3f431fa04bd91e8752b0d2", "lon": -77.0278845}, {"is_reserved": 0, "fusion_lon": 0.0, "fusion_lat": 0.0, "name": "e2558932581b93c6bf947774b16f0358", "type": "electric_scooter", "is_disabled": 0, "lat": 38.97726883333333, "rental_uris": {"android": "https://dc.lft.to/lastmile_qr_scan", "ios": "https://dc.lft.to/lastmile_qr_scan"}, "bike_id": "e2558932581b93c6bf947774b16f0358", "lon": -77.01729583333334}, {"is_reserved": 0, "fusion_lon": 0.0, "fusion_lat": 0.0, "name": "ea1f02a2ac90d5eb732bcf545b18312a", "type": "electric_bike", "is_disabled": 0, "lat": 38.806584666666666, "rental_uris": {"android": "https://dc.lft.to/lastmile_qr_scan", "ios": "https://dc.lft.to/lastmile_qr_scan"}, "bike_id": "ea1f02a2ac90d5eb732bcf545b18312a", "lon": -77.08760866666667}, {"is_reserved": 0, "fusion_lon": 0.0, "fusion_lat": 0.0, "name": "95180445a399d3f6327f987527850094", "type": "electric_bike", "is_disabled": 0, "lat": 38.7952975, "rental_uris": {"android": "https://dc.lft.to/lastmile_qr_scan", "ios": "https://dc.lft.to/lastmile_qr_scan"}, "bike_id": "95180445a399d3f6327f987527850094", "lon": -77.00699433333334}, {"is_reserved": 0, "fusion_lon": 0.0, "fusion_lat": 0.0, "name": "17c3e73f915fbd2c5854e3362bfbd79a", "type": "electric_scooter", "is_disabled": 0, "lat": 38.887439, "rental_uris": {"android": "https://dc.lft.to/lastmile_qr_scan", "ios": "https://dc.lft.to/lastmile_qr_scan"}, "bike_id": "17c3e73f915fbd2c5854e3362bfbd79a", "lon": -77.022136}, {"is_reserved": 0, "fusion_lon": 0.0, "fusion_lat": 0.0, "name": "c187534309dee0e055eb93282bc612f3", "type": "electric_scooter", "is_disabled": 0, "lat": 38.89788216666667, "rental_uris": {"android": "https://dc.lft.to/lastmile_qr_scan", "ios": "https://dc.lft.to/lastmile_qr_scan"}, "bike_id": "c187534309dee0e055eb93282bc612f3", "lon": -77.03967866666666}, {"is_reserved": 0, "fusion_lon": 0.0, "fusion_lat": 0.0, "name": "572417f27e7a431adf2f3206025cdb90", "type": "electric_scooter", "is_disabled": 0, "lat": 38.89322116666666, "rental_uris": {"android": "https://dc.lft.to/lastmile_qr_scan", "ios": "https://dc.lft.to/lastmile_qr_scan"}, "bike_id": "572417f27e7a431adf2f3206025cdb90", "lon": -77.01791116666666}, {"is_reserved": 0, "fusion_lon": 0.0, "fusion_lat": 0.0, "name": "677757cb6473b8d2f210dffb6c13bd23", "type": "electric_scooter", "is_disabled": 0, "lat": 38.891656166666664, "rental_uris": {"android": "https://dc.lft.to/lastmile_qr_scan", "ios": "https://dc.lft.to/lastmile_qr_scan"}, "bike_id": "677757cb6473b8d2f210dffb6c13bd23", "lon": -76.95181683333334}, {"is_reserved": 0, "fusion_lon": 0.0, "fusion_lat": 0.0, "name": "323fa758135bf4bfea9aaacc32a9d739", "type": "electric_scooter", "is_disabled": 0, "lat": 38.93633116666667, "rental_uris": {"android": "https://dc.lft.to/lastmile_qr_scan", "ios": "https://dc.lft.to/lastmile_qr_scan"}, "bike_id": "323fa758135bf4bfea9aaacc32a9d739", "lon": -77.03645883333333}, {"is_reserved": 0, "fusion_lon": 0.0, "fusion_lat": 0.0, "name": "c5ba31595d489b5db52efc24f4c5114a", "type": "electric_scooter", "is_disabled": 0, "lat": 38.89220533333334, "rental_uris": {"android": "https://dc.lft.to/lastmile_qr_scan", "ios": "https://dc.lft.to/lastmile_qr_scan"}, "bike_id": "c5ba31595d489b5db52efc24f4c5114a", "lon": -77.04377283333334}, {"is_reserved": 0, "fusion_lon": 0.0, "fusion_lat": 0.0, "name": "00cfa80109461ee09e2ecb8156088b1e", "type": "electric_scooter", "is_disabled": 0, "lat": 38.911313666666665, "rental_uris": {"android": "https://dc.lft.to/lastmile_qr_scan", "ios": "https://dc.lft.to/lastmile_qr_scan"}, "bike_id": "00cfa80109461ee09e2ecb8156088b1e", "lon": -77.03198066666667}, {"is_reserved": 0, "fusion_lon": 0.0, "fusion_lat": 0.0, "name": "4038ec5ac1248f78979a90c4af510dd7", "type": "electric_scooter", "is_disabled": 0, "lat": 38.92920083333333, "rental_uris": {"android": "https://dc.lft.to/lastmile_qr_scan", "ios": "https://dc.lft.to/lastmile_qr_scan"}, "bike_id": "4038ec5ac1248f78979a90c4af510dd7", "lon": -77.0374025}, {"is_reserved": 0, "fusion_lon": 0.0, "fusion_lat": 0.0, "name": "743674719c7c3fd6d17f2f4d701b6dcf", "type": "electric_scooter", "is_disabled": 0, "lat": 38.9419325, "rental_uris": {"android": "https://dc.lft.to/lastmile_qr_scan", "ios": "https://dc.lft.to/lastmile_qr_scan"}, "bike_id": "743674719c7c3fd6d17f2f4d701b6dcf", "lon": -77.0250285}, {"is_reserved": 0, "fusion_lon": 0.0, "fusion_lat": 0.0, "name": "2601f7615199dcb842edc7278d5bd6db", "type": "electric_scooter", "is_disabled": 0, "lat": 38.90404233333334, "rental_uris": {"android": "https://dc.lft.to/lastmile_qr_scan", "ios": "https://dc.lft.to/lastmile_qr_scan"}, "bike_id": "2601f7615199dcb842edc7278d5bd6db", "lon": -77.01845383333334}, {"is_reserved": 0, "fusion_lon": 0.0, "fusion_lat": 0.0, "name": "2e7c3d733030fac34b98e6ac31e09c7e", "type": "electric_scooter", "is_disabled": 0, "lat": 38.917679166666666, "rental_uris": {"android": "https://dc.lft.to/lastmile_qr_scan", "ios": "https://dc.lft.to/lastmile_qr_scan"}, "bike_id": "2e7c3d733030fac34b98e6ac31e09c7e", "lon": -77.04764983333334}, {"is_reserved": 0, "fusion_lon": 0.0, "fusion_lat": 0.0, "name": "00ed56608f3d475a550d8a7921e5e2ef", "type": "electric_bike", "is_disabled": 0, "lat": 38.86519833333333, "rental_uris": {"android": "https://dc.lft.to/lastmile_qr_scan", "ios": "https://dc.lft.to/lastmile_qr_scan"}, "bike_id": "00ed56608f3d475a550d8a7921e5e2ef", "lon": -76.973379}, {"is_reserved": 0, "fusion_lon": 0.0, "fusion_lat": 0.0, "name": "b10502b8b60b99dd9190067f32733a1b", "type": "electric_scooter", "is_disabled": 0, "lat": 38.9123825, "rental_uris": {"android": "https://dc.lft.to/lastmile_qr_scan", "ios": "https://dc.lft.to/lastmile_qr_scan"}, "bike_id": "b10502b8b60b99dd9190067f32733a1b", "lon": -77.009137}, {"is_reserved": 0, "fusion_lon": 0.0, "fusion_lat": 0.0, "name": "d2d6824fcb47de3579e13adc34a14319", "type": "electric_scooter", "is_disabled": 0, "lat": 38.887448666666664, "rental_uris": {"android": "https://dc.lft.to/lastmile_qr_scan", "ios": "https://dc.lft.to/lastmile_qr_scan"}, "bike_id": "d2d6824fcb47de3579e13adc34a14319", "lon": -77.02737933333333}, {"is_reserved": 0, "fusion_lon": 0.0, "fusion_lat": 0.0, "name": "0dfb72d84566d419a7578479aaf49507", "type": "electric_scooter", "is_disabled": 0, "lat": 38.91871916666667, "rental_uris": {"android": "https://dc.lft.to/lastmile_qr_scan", "ios": "https://dc.lft.to/lastmile_qr_scan"}, "bike_id": "0dfb72d84566d419a7578479aaf49507", "lon": -77.04198683333334}, {"is_reserved": 0, "fusion_lon": 0.0, "fusion_lat": 0.0, "name": "7068210118e5e5447444462edeeb0604", "type": "electric_bike", "is_disabled": 0, "lat": 38.86580766666667, "rental_uris": {"android": "https://dc.lft.to/lastmile_qr_scan", "ios": "https://dc.lft.to/lastmile_qr_scan"}, "bike_id": "7068210118e5e5447444462edeeb0604", "lon": -77.04761433333333}, {"is_reserved": 0, "fusion_lon": 0.0, "fusion_lat": 0.0, "name": "2621023fc4c0eb1c465710033f10c16d", "type": "electric_scooter", "is_disabled": 0, "lat": 38.912578333333336, "rental_uris": {"android": "https://dc.lft.to/lastmile_qr_scan", "ios": "https://dc.lft.to/lastmile_qr_scan"}, "bike_id": "2621023fc4c0eb1c465710033f10c16d", "lon": -77.031271}, {"is_reserved": 0, "fusion_lon": 0.0, "fusion_lat": 0.0, "name": "8534ba4b56aabd0d180011af086e924c", "type": "electric_scooter", "is_disabled": 0, "lat": 38.939503333333334, "rental_uris": {"android": "https://dc.lft.to/lastmile_qr_scan", "ios": "https://dc.lft.to/lastmile_qr_scan"}, "bike_id": "8534ba4b56aabd0d180011af086e924c", "lon": -77.07253483333334}, {"is_reserved": 0, "fusion_lon": 0.0, "fusion_lat": 0.0, "name": "271d4c2d1563b6c4a0844dde028be383", "type": "electric_scooter", "is_disabled": 0, "lat": 38.939304, "rental_uris": {"android": "https://dc.lft.to/lastmile_qr_scan", "ios": "https://dc.lft.to/lastmile_qr_scan"}, "bike_id": "271d4c2d1563b6c4a0844dde028be383", "lon": -77.02462183333333}, {"is_reserved": 0, "fusion_lon": 0.0, "fusion_lat": 0.0, "name": "b1228e6908d419dde38032c0bc47d924", "type": "electric_scooter", "is_disabled": 0, "lat": 38.86506766666667, "rental_uris": {"android": "https://dc.lft.to/lastmile_qr_scan", "ios": "https://dc.lft.to/lastmile_qr_scan"}, "bike_id": "b1228e6908d419dde38032c0bc47d924", "lon": -76.98999616666667}, {"is_reserved": 0, "fusion_lon": 0.0, "fusion_lat": 0.0, "name": "9762791e9a0f5e297046bd53a9e9c402", "type": "electric_scooter", "is_disabled": 0, "lat": 38.924723, "rental_uris": {"android": "https://dc.lft.to/lastmile_qr_scan", "ios": "https://dc.lft.to/lastmile_qr_scan"}, "bike_id": "9762791e9a0f5e297046bd53a9e9c402", "lon": -77.0212905}, {"is_reserved": 0, "fusion_lon": 0.0, "fusion_lat": 0.0, "name": "313d44d58f844158117d0827393cdefc", "type": "electric_scooter", "is_disabled": 0, "lat": 38.93863266666666, "rental_uris": {"android": "https://dc.lft.to/lastmile_qr_scan", "ios": "https://dc.lft.to/lastmile_qr_scan"}, "bike_id": "313d44d58f844158117d0827393cdefc", "lon": -77.0264955}, {"is_reserved": 0, "fusion_lon": 0.0, "fusion_lat": 0.0, "name": "6f951a8c3fbf9c4f0df4437b15e67349", "type": "electric_scooter", "is_disabled": 0, "lat": 38.866988166666665, "rental_uris": {"android": "https://dc.lft.to/lastmile_qr_scan", "ios": "https://dc.lft.to/lastmile_qr_scan"}, "bike_id": "6f951a8c3fbf9c4f0df4437b15e67349", "lon": -76.98593566666666}, {"is_reserved": 0, "fusion_lon": 0.0, "fusion_lat": 0.0, "name": "23e9d7bf9e18ddb483c7fa54adaeb605", "type": "electric_scooter", "is_disabled": 0, "lat": 38.91190233333333, "rental_uris": {"android": "https://dc.lft.to/lastmile_qr_scan", "ios": "https://dc.lft.to/lastmile_qr_scan"}, "bike_id": "23e9d7bf9e18ddb483c7fa54adaeb605", "lon": -77.0321925}, {"is_reserved": 0, "fusion_lon": 0.0, "fusion_lat": 0.0, "name": "ddd2e5d4ca2413b11837dd0e14284432", "type": "electric_scooter", "is_disabled": 0, "lat": 38.907999, "rental_uris": {"android": "https://dc.lft.to/lastmile_qr_scan", "ios": "https://dc.lft.to/lastmile_qr_scan"}, "bike_id": "ddd2e5d4ca2413b11837dd0e14284432", "lon": -77.03458016666667}, {"is_reserved": 0, "fusion_lon": 0.0, "fusion_lat": 0.0, "name": "88ee8cac2ee15f659206a5a76af46e3e", "type": "electric_scooter", "is_disabled": 0, "lat": 38.8923955, "rental_uris": {"android": "https://dc.lft.to/lastmile_qr_scan", "ios": "https://dc.lft.to/lastmile_qr_scan"}, "bike_id": "88ee8cac2ee15f659206a5a76af46e3e", "lon": -77.01324266666667}, {"is_reserved": 0, "fusion_lon": 0.0, "fusion_lat": 0.0, "name": "d341f14be8c2752673fd3555917abb02", "type": "electric_scooter", "is_disabled": 0, "lat": 38.915739333333335, "rental_uris": {"android": "https://dc.lft.to/lastmile_qr_scan", "ios": "https://dc.lft.to/lastmile_qr_scan"}, "bike_id": "d341f14be8c2752673fd3555917abb02", "lon": -77.031947}, {"is_reserved": 0, "fusion_lon": 0.0, "fusion_lat": 0.0, "name": "f5bda280cbf769bca74c989d73453475", "type": "electric_scooter", "is_disabled": 0, "lat": 38.91814133333333, "rental_uris": {"android": "https://dc.lft.to/lastmile_qr_scan", "ios": "https://dc.lft.to/lastmile_qr_scan"}, "bike_id": "f5bda280cbf769bca74c989d73453475", "lon": -77.03455033333333}, {"is_reserved": 0, "fusion_lon": 0.0, "fusion_lat": 0.0, "name": "e0e8696742f2530fa3ba5689cb8e50bd", "type": "electric_scooter", "is_disabled": 0, "lat": 38.93394966666666, "rental_uris": {"android": "https://dc.lft.to/lastmile_qr_scan", "ios": "https://dc.lft.to/lastmile_qr_scan"}, "bike_id": "e0e8696742f2530fa3ba5689cb8e50bd", "lon": -77.07247366666667}, {"is_reserved": 0, "fusion_lon": 0.0, "fusion_lat": 0.0, "name": "9d579d4bb9d247dc2bc0fbdf56b962be", "type": "electric_scooter", "is_disabled": 0, "lat": 38.91910016666667, "rental_uris": {"android": "https://dc.lft.to/lastmile_qr_scan", "ios": "https://dc.lft.to/lastmile_qr_scan"}, "bike_id": "9d579d4bb9d247dc2bc0fbdf56b962be", "lon": -77.04140366666667}, {"is_reserved": 0, "fusion_lon": 0.0, "fusion_lat": 0.0, "name": "4cd1996eb241160efa464b1b648848d0", "type": "electric_scooter", "is_disabled": 0, "lat": 38.907369333333335, "rental_uris": {"android": "https://dc.lft.to/lastmile_qr_scan", "ios": "https://dc.lft.to/lastmile_qr_scan"}, "bike_id": "4cd1996eb241160efa464b1b648848d0", "lon": -77.0449345}, {"is_reserved": 0, "fusion_lon": 0.0, "fusion_lat": 0.0, "name": "e7bd41af3f22cb3d86a30b72eb6299b1", "type": "electric_scooter", "is_disabled": 0, "lat": 38.89231766666666, "rental_uris": {"android": "https://dc.lft.to/lastmile_qr_scan", "ios": "https://dc.lft.to/lastmile_qr_scan"}, "bike_id": "e7bd41af3f22cb3d86a30b72eb6299b1", "lon": -77.023818}, {"is_reserved": 0, "fusion_lon": 0.0, "fusion_lat": 0.0, "name": "13741f4c58fd8a7bd4974dd9849e4f97", "type": "electric_scooter", "is_disabled": 0, "lat": 38.90010083333333, "rental_uris": {"android": "https://dc.lft.to/lastmile_qr_scan", "ios": "https://dc.lft.to/lastmile_qr_scan"}, "bike_id": "13741f4c58fd8a7bd4974dd9849e4f97", "lon": -76.93030216666666}, {"is_reserved": 0, "fusion_lon": 0.0, "fusion_lat": 0.0, "name": "1ab973e098a76e866bf7c7f2b6debb09", "type": "electric_scooter", "is_disabled": 0, "lat": 38.9253565, "rental_uris": {"android": "https://dc.lft.to/lastmile_qr_scan", "ios": "https://dc.lft.to/lastmile_qr_scan"}, "bike_id": "1ab973e098a76e866bf7c7f2b6debb09", "lon": -76.97217716666667}, {"is_reserved": 0, "fusion_lon": 0.0, "fusion_lat": 0.0, "name": "9bfef7c252bf791f7fa56ff2b90cfe91", "type": "electric_scooter", "is_disabled": 0, "lat": 38.92153533333333, "rental_uris": {"android": "https://dc.lft.to/lastmile_qr_scan", "ios": "https://dc.lft.to/lastmile_qr_scan"}, "bike_id": "9bfef7c252bf791f7fa56ff2b90cfe91", "lon": -77.02097}, {"is_reserved": 0, "fusion_lon": 0.0, "fusion_lat": 0.0, "name": "e3c12ff9875f76ea72c5155a0b59c859", "type": "electric_scooter", "is_disabled": 0, "lat": 38.942622666666665, "rental_uris": {"android": "https://dc.lft.to/lastmile_qr_scan", "ios": "https://dc.lft.to/lastmile_qr_scan"}, "bike_id": "e3c12ff9875f76ea72c5155a0b59c859", "lon": -77.02841183333334}, {"is_reserved": 0, "fusion_lon": 0.0, "fusion_lat": 0.0, "name": "4a44523f82a5bd2c6a9d402c2165fa4d", "type": "electric_scooter", "is_disabled": 0, "lat": 38.917832833333335, "rental_uris": {"android": "https://dc.lft.to/lastmile_qr_scan", "ios": "https://dc.lft.to/lastmile_qr_scan"}, "bike_id": "4a44523f82a5bd2c6a9d402c2165fa4d", "lon": -77.040248}, {"is_reserved": 0, "fusion_lon": 0.0, "fusion_lat": 0.0, "name": "adcfa650f36caa74f3d1544a43e343f2", "type": "electric_scooter", "is_disabled": 0, "lat": 38.929682666666665, "rental_uris": {"android": "https://dc.lft.to/lastmile_qr_scan", "ios": "https://dc.lft.to/lastmile_qr_scan"}, "bike_id": "adcfa650f36caa74f3d1544a43e343f2", "lon": -77.05502333333334}, {"is_reserved": 0, "fusion_lon": 0.0, "fusion_lat": 0.0, "name": "8d4549bccb43c11e676b5dc501a9e6c0", "type": "electric_scooter", "is_disabled": 0, "lat": 38.88616566666666, "rental_uris": {"android": "https://dc.lft.to/lastmile_qr_scan", "ios": "https://dc.lft.to/lastmile_qr_scan"}, "bike_id": "8d4549bccb43c11e676b5dc501a9e6c0", "lon": -76.99652816666666}, {"is_reserved": 0, "fusion_lon": 0.0, "fusion_lat": 0.0, "name": "11e09c607afef50f1c3dab2e002c432d", "type": "electric_scooter", "is_disabled": 0, "lat": 38.89830583333333, "rental_uris": {"android": "https://dc.lft.to/lastmile_qr_scan", "ios": "https://dc.lft.to/lastmile_qr_scan"}, "bike_id": "11e09c607afef50f1c3dab2e002c432d", "lon": -77.040086}, {"is_reserved": 0, "fusion_lon": 0.0, "fusion_lat": 0.0, "name": "64efd97c1cdf5c54da461dcab4b2a0a3", "type": "electric_bike", "is_disabled": 0, "lat": 38.94554633333333, "rental_uris": {"android": "https://dc.lft.to/lastmile_qr_scan", "ios": "https://dc.lft.to/lastmile_qr_scan"}, "bike_id": "64efd97c1cdf5c54da461dcab4b2a0a3", "lon": -76.8954055}, {"is_reserved": 0, "fusion_lon": 0.0, "fusion_lat": 0.0, "name": "06a4302b09f344a584d99373e55bb6ff", "type": "electric_scooter", "is_disabled": 0, "lat": 38.918091833333335, "rental_uris": {"android": "https://dc.lft.to/lastmile_qr_scan", "ios": "https://dc.lft.to/lastmile_qr_scan"}, "bike_id": "06a4302b09f344a584d99373e55bb6ff", "lon": -77.03560116666667}, {"is_reserved": 0, "fusion_lon": 0.0, "fusion_lat": 0.0, "name": "fb6c3bc5f7e17203f0e12fc745d2e4d4", "type": "electric_scooter", "is_disabled": 0, "lat": 38.91553783333333, "rental_uris": {"android": "https://dc.lft.to/lastmile_qr_scan", "ios": "https://dc.lft.to/lastmile_qr_scan"}, "bike_id": "fb6c3bc5f7e17203f0e12fc745d2e4d4", "lon": -77.03172916666666}, {"is_reserved": 0, "fusion_lon": 0.0, "fusion_lat": 0.0, "name": "d12493b91e812c70aab42071e1979779", "type": "electric_scooter", "is_disabled": 0, "lat": 38.88280366666667, "rental_uris": {"android": "https://dc.lft.to/lastmile_qr_scan", "ios": "https://dc.lft.to/lastmile_qr_scan"}, "bike_id": "d12493b91e812c70aab42071e1979779", "lon": -76.98778583333333}, {"is_reserved": 0, "fusion_lon": 0.0, "fusion_lat": 0.0, "name": "41ef9466307aad5a4bcc3df2023321e0", "type": "electric_scooter", "is_disabled": 0, "lat": 38.921456166666665, "rental_uris": {"android": "https://dc.lft.to/lastmile_qr_scan", "ios": "https://dc.lft.to/lastmile_qr_scan"}, "bike_id": "41ef9466307aad5a4bcc3df2023321e0", "lon": -77.02073116666666}, {"is_reserved": 0, "fusion_lon": 0.0, "fusion_lat": 0.0, "name": "3ae67f813cb49e23434aecd228dcf56d", "type": "electric_scooter", "is_disabled": 0, "lat": 38.91333366666667, "rental_uris": {"android": "https://dc.lft.to/lastmile_qr_scan", "ios": "https://dc.lft.to/lastmile_qr_scan"}, "bike_id": "3ae67f813cb49e23434aecd228dcf56d", "lon": -77.0103285}, {"is_reserved": 0, "fusion_lon": 0.0, "fusion_lat": 0.0, "name": "315494b3b90e11854fe3742c42728084", "type": "electric_scooter", "is_disabled": 0, "lat": 38.918657833333334, "rental_uris": {"android": "https://dc.lft.to/lastmile_qr_scan", "ios": "https://dc.lft.to/lastmile_qr_scan"}, "bike_id": "315494b3b90e11854fe3742c42728084", "lon": -77.0255075}, {"is_reserved": 0, "fusion_lon": 0.0, "fusion_lat": 0.0, "name": "50bb819fc38a62a11d67058fdbdbee6a", "type": "electric_scooter", "is_disabled": 0, "lat": 38.90473016666667, "rental_uris": {"android": "https://dc.lft.to/lastmile_qr_scan", "ios": "https://dc.lft.to/lastmile_qr_scan"}, "bike_id": "50bb819fc38a62a11d67058fdbdbee6a", "lon": -77.04818416666667}, {"is_reserved": 0, "fusion_lon": 0.0, "fusion_lat": 0.0, "name": "a8c922eb3c9b5ed050eaf384f168240e", "type": "electric_scooter", "is_disabled": 0, "lat": 38.866564833333335, "rental_uris": {"android": "https://dc.lft.to/lastmile_qr_scan", "ios": "https://dc.lft.to/lastmile_qr_scan"}, "bike_id": "a8c922eb3c9b5ed050eaf384f168240e", "lon": -76.98883466666666}, {"is_reserved": 0, "fusion_lon": 0.0, "fusion_lat": 0.0, "name": "c14f917a856f351d1308b3d0baf11e79", "type": "electric_bike", "is_disabled": 0, "lat": 38.84555133333333, "rental_uris": {"android": "https://dc.lft.to/lastmile_qr_scan", "ios": "https://dc.lft.to/lastmile_qr_scan"}, "bike_id": "c14f917a856f351d1308b3d0baf11e79", "lon": -77.0668645}, {"is_reserved": 0, "fusion_lon": 0.0, "fusion_lat": 0.0, "name": "9c72f2e97ee1f353dad244dd66f8e5e2", "type": "electric_bike", "is_disabled": 0, "lat": 38.9934655, "rental_uris": {"android": "https://dc.lft.to/lastmile_qr_scan", "ios": "https://dc.lft.to/lastmile_qr_scan"}, "bike_id": "9c72f2e97ee1f353dad244dd66f8e5e2", "lon": -77.115696}, {"is_reserved": 0, "fusion_lon": 0.0, "fusion_lat": 0.0, "name": "8946142235e8f4d5740c61d438954024", "type": "electric_scooter", "is_disabled": 0, "lat": 38.9222545, "rental_uris": {"android": "https://dc.lft.to/lastmile_qr_scan", "ios": "https://dc.lft.to/lastmile_qr_scan"}, "bike_id": "8946142235e8f4d5740c61d438954024", "lon": -77.04243533333333}, {"is_reserved": 0, "fusion_lon": 0.0, "fusion_lat": 0.0, "name": "71fe9128299f0344511f03b64301044c", "type": "electric_scooter", "is_disabled": 0, "lat": 38.8999735, "rental_uris": {"android": "https://dc.lft.to/lastmile_qr_scan", "ios": "https://dc.lft.to/lastmile_qr_scan"}, "bike_id": "71fe9128299f0344511f03b64301044c", "lon": -77.031823}, {"is_reserved": 0, "fusion_lon": 0.0, "fusion_lat": 0.0, "name": "21e43c92a85c60dcac1852196e96266a", "type": "electric_scooter", "is_disabled": 0, "lat": 38.9302095, "rental_uris": {"android": "https://dc.lft.to/lastmile_qr_scan", "ios": "https://dc.lft.to/lastmile_qr_scan"}, "bike_id": "21e43c92a85c60dcac1852196e96266a", "lon": -77.05532033333333}, {"is_reserved": 0, "fusion_lon": 0.0, "fusion_lat": 0.0, "name": "78920dafdced349579c4d2802fb3623b", "type": "electric_scooter", "is_disabled": 0, "lat": 38.86664433333333, "rental_uris": {"android": "https://dc.lft.to/lastmile_qr_scan", "ios": "https://dc.lft.to/lastmile_qr_scan"}, "bike_id": "78920dafdced349579c4d2802fb3623b", "lon": -76.98507083333334}, {"is_reserved": 0, "fusion_lon": 0.0, "fusion_lat": 0.0, "name": "521cc52b191ceefaf3f7a0b3f787e89d", "type": "electric_scooter", "is_disabled": 0, "lat": 38.905574, "rental_uris": {"android": "https://dc.lft.to/lastmile_qr_scan", "ios": "https://dc.lft.to/lastmile_qr_scan"}, "bike_id": "521cc52b191ceefaf3f7a0b3f787e89d", "lon": -77.03928683333334}, {"is_reserved": 0, "fusion_lon": 0.0, "fusion_lat": 0.0, "name": "351c65874c3dd3ccc4e6361415e96f4a", "type": "electric_scooter", "is_disabled": 0, "lat": 38.9345335, "rental_uris": {"android": "https://dc.lft.to/lastmile_qr_scan", "ios": "https://dc.lft.to/lastmile_qr_scan"}, "bike_id": "351c65874c3dd3ccc4e6361415e96f4a", "lon": -77.03083966666667}, {"is_reserved": 0, "fusion_lon": 0.0, "fusion_lat": 0.0, "name": "bf6aeca544930db6e421ed346229d9e0", "type": "electric_scooter", "is_disabled": 0, "lat": 38.95937166666667, "rental_uris": {"android": "https://dc.lft.to/lastmile_qr_scan", "ios": "https://dc.lft.to/lastmile_qr_scan"}, "bike_id": "bf6aeca544930db6e421ed346229d9e0", "lon": -77.031238}, {"is_reserved": 0, "fusion_lon": 0.0, "fusion_lat": 0.0, "name": "4cd2f62ef551c4f4fcd687c900900c74", "type": "electric_scooter", "is_disabled": 0, "lat": 38.87361666666666, "rental_uris": {"android": "https://dc.lft.to/lastmile_qr_scan", "ios": "https://dc.lft.to/lastmile_qr_scan"}, "bike_id": "4cd2f62ef551c4f4fcd687c900900c74", "lon": -76.9701075}, {"is_reserved": 0, "fusion_lon": 0.0, "fusion_lat": 0.0, "name": "0d2fcfe078d0ba4913f644ccd123b275", "type": "electric_scooter", "is_disabled": 0, "lat": 38.92709333333333, "rental_uris": {"android": "https://dc.lft.to/lastmile_qr_scan", "ios": "https://dc.lft.to/lastmile_qr_scan"}, "bike_id": "0d2fcfe078d0ba4913f644ccd123b275", "lon": -77.024083}, {"is_reserved": 0, "fusion_lon": 0.0, "fusion_lat": 0.0, "name": "6edc7c6e69f1a6951645e822a38cf201", "type": "electric_scooter", "is_disabled": 0, "lat": 38.90021183333333, "rental_uris": {"android": "https://dc.lft.to/lastmile_qr_scan", "ios": "https://dc.lft.to/lastmile_qr_scan"}, "bike_id": "6edc7c6e69f1a6951645e822a38cf201", "lon": -77.01102066666667}, {"is_reserved": 0, "fusion_lon": 0.0, "fusion_lat": 0.0, "name": "65df531881ec2c2d8ed46c85261fd26f", "type": "electric_scooter", "is_disabled": 0, "lat": 38.94288733333333, "rental_uris": {"android": "https://dc.lft.to/lastmile_qr_scan", "ios": "https://dc.lft.to/lastmile_qr_scan"}, "bike_id": "65df531881ec2c2d8ed46c85261fd26f", "lon": -77.0217335}, {"is_reserved": 0, "fusion_lon": 0.0, "fusion_lat": 0.0, "name": "622d5fdf0b5b87efcb086746136f530d", "type": "electric_scooter", "is_disabled": 0, "lat": 38.895027, "rental_uris": {"android": "https://dc.lft.to/lastmile_qr_scan", "ios": "https://dc.lft.to/lastmile_qr_scan"}, "bike_id": "622d5fdf0b5b87efcb086746136f530d", "lon": -77.00219566666667}, {"is_reserved": 0, "fusion_lon": 0.0, "fusion_lat": 0.0, "name": "6e211766811f97ad4f787ac06f236060", "type": "electric_scooter", "is_disabled": 0, "lat": 38.899427833333334, "rental_uris": {"android": "https://dc.lft.to/lastmile_qr_scan", "ios": "https://dc.lft.to/lastmile_qr_scan"}, "bike_id": "6e211766811f97ad4f787ac06f236060", "lon": -77.03175166666666}, {"is_reserved": 0, "fusion_lon": 0.0, "fusion_lat": 0.0, "name": "8ba480f29109a3a7ab664dd78d292ffc", "type": "electric_scooter", "is_disabled": 0, "lat": 38.912636666666664, "rental_uris": {"android": "https://dc.lft.to/lastmile_qr_scan", "ios": "https://dc.lft.to/lastmile_qr_scan"}, "bike_id": "8ba480f29109a3a7ab664dd78d292ffc", "lon": -77.03176616666667}, {"is_reserved": 0, "fusion_lon": 0.0, "fusion_lat": 0.0, "name": "baeef54086a1b14374cf9c4bbd1f66fb", "type": "electric_scooter", "is_disabled": 0, "lat": 38.89917966666667, "rental_uris": {"android": "https://dc.lft.to/lastmile_qr_scan", "ios": "https://dc.lft.to/lastmile_qr_scan"}, "bike_id": "baeef54086a1b14374cf9c4bbd1f66fb", "lon": -76.9338205}, {"is_reserved": 0, "fusion_lon": 0.0, "fusion_lat": 0.0, "name": "1b752ee391be953f558901823b895f80", "type": "electric_bike", "is_disabled": 0, "lat": 38.966197, "rental_uris": {"android": "https://dc.lft.to/lastmile_qr_scan", "ios": "https://dc.lft.to/lastmile_qr_scan"}, "bike_id": "1b752ee391be953f558901823b895f80", "lon": -77.03428866666667}, {"is_reserved": 0, "fusion_lon": 0.0, "fusion_lat": 0.0, "name": "bb437c51f8aa67e7ae187e237c55aab0", "type": "electric_bike", "is_disabled": 0, "lat": 38.89350666666667, "rental_uris": {"android": "https://dc.lft.to/lastmile_qr_scan", "ios": "https://dc.lft.to/lastmile_qr_scan"}, "bike_id": "bb437c51f8aa67e7ae187e237c55aab0", "lon": -77.1874035}, {"is_reserved": 0, "fusion_lon": 0.0, "fusion_lat": 0.0, "name": "2df6134da0780b557f318bcce322dd26", "type": "electric_bike", "is_disabled": 0, "lat": 38.8541555, "rental_uris": {"android": "https://dc.lft.to/lastmile_qr_scan", "ios": "https://dc.lft.to/lastmile_qr_scan"}, "bike_id": "2df6134da0780b557f318bcce322dd26", "lon": -77.12075033333333}, {"is_reserved": 0, "fusion_lon": 0.0, "fusion_lat": 0.0, "name": "3a7d3b72aefd870771bb1fd8dcde30d6", "type": "electric_scooter", "is_disabled": 0, "lat": 38.90251716666667, "rental_uris": {"android": "https://dc.lft.to/lastmile_qr_scan", "ios": "https://dc.lft.to/lastmile_qr_scan"}, "bike_id": "3a7d3b72aefd870771bb1fd8dcde30d6", "lon": -77.00219883333334}, {"is_reserved": 0, "fusion_lon": 0.0, "fusion_lat": 0.0, "name": "75f3033fddc4bd32274c2390284a35ce", "type": "electric_scooter", "is_disabled": 0, "lat": 38.8924035, "rental_uris": {"android": "https://dc.lft.to/lastmile_qr_scan", "ios": "https://dc.lft.to/lastmile_qr_scan"}, "bike_id": "75f3033fddc4bd32274c2390284a35ce", "lon": -77.04161783333333}, {"is_reserved": 0, "fusion_lon": 0.0, "fusion_lat": 0.0, "name": "f10d70390c7f98417a7565d15c2dad83", "type": "electric_scooter", "is_disabled": 0, "lat": 38.91704883333333, "rental_uris": {"android": "https://dc.lft.to/lastmile_qr_scan", "ios": "https://dc.lft.to/lastmile_qr_scan"}, "bike_id": "f10d70390c7f98417a7565d15c2dad83", "lon": -77.06835116666667}, {"is_reserved": 0, "fusion_lon": 0.0, "fusion_lat": 0.0, "name": "0de2fef06e024cc8800516ba53e6669a", "type": "electric_scooter", "is_disabled": 0, "lat": 38.90501883333334, "rental_uris": {"android": "https://dc.lft.to/lastmile_qr_scan", "ios": "https://dc.lft.to/lastmile_qr_scan"}, "bike_id": "0de2fef06e024cc8800516ba53e6669a", "lon": -76.97925883333333}, {"is_reserved": 0, "fusion_lon": 0.0, "fusion_lat": 0.0, "name": "8afe041896bc983c90213db094b87f77", "type": "electric_scooter", "is_disabled": 0, "lat": 38.92070966666667, "rental_uris": {"android": "https://dc.lft.to/lastmile_qr_scan", "ios": "https://dc.lft.to/lastmile_qr_scan"}, "bike_id": "8afe041896bc983c90213db094b87f77", "lon": -77.04206766666667}, {"is_reserved": 0, "fusion_lon": 0.0, "fusion_lat": 0.0, "name": "2104e39ae55cef7d601a7723b51725c3", "type": "electric_scooter", "is_disabled": 0, "lat": 38.879719, "rental_uris": {"android": "https://dc.lft.to/lastmile_qr_scan", "ios": "https://dc.lft.to/lastmile_qr_scan"}, "bike_id": "2104e39ae55cef7d601a7723b51725c3", "lon": -76.99502733333334}, {"is_reserved": 0, "fusion_lon": 0.0, "fusion_lat": 0.0, "name": "07e92c493e13359c4aae0d414c1dd2e3", "type": "electric_scooter", "is_disabled": 0, "lat": 38.895531, "rental_uris": {"android": "https://dc.lft.to/lastmile_qr_scan", "ios": "https://dc.lft.to/lastmile_qr_scan"}, "bike_id": "07e92c493e13359c4aae0d414c1dd2e3", "lon": -76.948749}, {"is_reserved": 0, "fusion_lon": 0.0, "fusion_lat": 0.0, "name": "b34100a1148fbcab3d32269e565e9278", "type": "electric_scooter", "is_disabled": 0, "lat": 38.92167583333333, "rental_uris": {"android": "https://dc.lft.to/lastmile_qr_scan", "ios": "https://dc.lft.to/lastmile_qr_scan"}, "bike_id": "b34100a1148fbcab3d32269e565e9278", "lon": -77.04343583333333}, {"is_reserved": 0, "fusion_lon": 0.0, "fusion_lat": 0.0, "name": "4f8014ac37c4205ab130b08351680161", "type": "electric_scooter", "is_disabled": 0, "lat": 38.895435666666664, "rental_uris": {"android": "https://dc.lft.to/lastmile_qr_scan", "ios": "https://dc.lft.to/lastmile_qr_scan"}, "bike_id": "4f8014ac37c4205ab130b08351680161", "lon": -77.02856533333333}, {"is_reserved": 0, "fusion_lon": 0.0, "fusion_lat": 0.0, "name": "9f65be7b5b2152c22515e5d0a5041305", "type": "electric_scooter", "is_disabled": 0, "lat": 38.909856833333336, "rental_uris": {"android": "https://dc.lft.to/lastmile_qr_scan", "ios": "https://dc.lft.to/lastmile_qr_scan"}, "bike_id": "9f65be7b5b2152c22515e5d0a5041305", "lon": -77.03394966666667}, {"is_reserved": 0, "fusion_lon": 0.0, "fusion_lat": 0.0, "name": "a1a84c4437a20aa876da264881a991fe", "type": "electric_scooter", "is_disabled": 0, "lat": 38.887310166666666, "rental_uris": {"android": "https://dc.lft.to/lastmile_qr_scan", "ios": "https://dc.lft.to/lastmile_qr_scan"}, "bike_id": "a1a84c4437a20aa876da264881a991fe", "lon": -77.02827516666666}, {"is_reserved": 0, "fusion_lon": 0.0, "fusion_lat": 0.0, "name": "56bfff161bf1a9344ae5144ded74f0f7", "type": "electric_scooter", "is_disabled": 0, "lat": 38.90016833333333, "rental_uris": {"android": "https://dc.lft.to/lastmile_qr_scan", "ios": "https://dc.lft.to/lastmile_qr_scan"}, "bike_id": "56bfff161bf1a9344ae5144ded74f0f7", "lon": -77.0438585}, {"is_reserved": 0, "fusion_lon": 0.0, "fusion_lat": 0.0, "name": "a5059e204eeb13d0fdf5db9c44bf41c0", "type": "electric_scooter", "is_disabled": 0, "lat": 38.92807833333333, "rental_uris": {"android": "https://dc.lft.to/lastmile_qr_scan", "ios": "https://dc.lft.to/lastmile_qr_scan"}, "bike_id": "a5059e204eeb13d0fdf5db9c44bf41c0", "lon": -77.01409983333333}, {"is_reserved": 0, "fusion_lon": 0.0, "fusion_lat": 0.0, "name": "984ca27e630a00e8cdffabebf68e1d4f", "type": "electric_scooter", "is_disabled": 0, "lat": 38.89224266666667, "rental_uris": {"android": "https://dc.lft.to/lastmile_qr_scan", "ios": "https://dc.lft.to/lastmile_qr_scan"}, "bike_id": "984ca27e630a00e8cdffabebf68e1d4f", "lon": -77.033809}, {"is_reserved": 0, "fusion_lon": 0.0, "fusion_lat": 0.0, "name": "cc54ae0a11040a4f9adc9d9a3d87dcf2", "type": "electric_scooter", "is_disabled": 0, "lat": 38.89847866666667, "rental_uris": {"android": "https://dc.lft.to/lastmile_qr_scan", "ios": "https://dc.lft.to/lastmile_qr_scan"}, "bike_id": "cc54ae0a11040a4f9adc9d9a3d87dcf2", "lon": -76.981843}, {"is_reserved": 0, "fusion_lon": 0.0, "fusion_lat": 0.0, "name": "811e9c4c7b27d8c741163a02990e1d5a", "type": "electric_scooter", "is_disabled": 0, "lat": 38.883330666666666, "rental_uris": {"android": "https://dc.lft.to/lastmile_qr_scan", "ios": "https://dc.lft.to/lastmile_qr_scan"}, "bike_id": "811e9c4c7b27d8c741163a02990e1d5a", "lon": -77.01687583333333}, {"is_reserved": 0, "fusion_lon": 0.0, "fusion_lat": 0.0, "name": "fa8f65e4fddaa36699d0027ed7e3c378", "type": "electric_scooter", "is_disabled": 0, "lat": 38.9431015, "rental_uris": {"android": "https://dc.lft.to/lastmile_qr_scan", "ios": "https://dc.lft.to/lastmile_qr_scan"}, "bike_id": "fa8f65e4fddaa36699d0027ed7e3c378", "lon": -77.0593365}, {"is_reserved": 0, "fusion_lon": 0.0, "fusion_lat": 0.0, "name": "f368a734a2114619742f272e9f12d1dd", "type": "electric_bike", "is_disabled": 0, "lat": 38.85323316666667, "rental_uris": {"android": "https://dc.lft.to/lastmile_qr_scan", "ios": "https://dc.lft.to/lastmile_qr_scan"}, "bike_id": "f368a734a2114619742f272e9f12d1dd", "lon": -76.98019433333333}, {"is_reserved": 0, "fusion_lon": 0.0, "fusion_lat": 0.0, "name": "558823c4bb6fbd4cc0e1eaba0820307c", "type": "electric_scooter", "is_disabled": 0, "lat": 38.910785833333335, "rental_uris": {"android": "https://dc.lft.to/lastmile_qr_scan", "ios": "https://dc.lft.to/lastmile_qr_scan"}, "bike_id": "558823c4bb6fbd4cc0e1eaba0820307c", "lon": -77.06546133333333}, {"is_reserved": 0, "fusion_lon": 0.0, "fusion_lat": 0.0, "name": "d99e542744ec53a58d94067cf880fc4a", "type": "electric_scooter", "is_disabled": 0, "lat": 38.881811166666665, "rental_uris": {"android": "https://dc.lft.to/lastmile_qr_scan", "ios": "https://dc.lft.to/lastmile_qr_scan"}, "bike_id": "d99e542744ec53a58d94067cf880fc4a", "lon": -77.03573583333333}, {"is_reserved": 0, "fusion_lon": 0.0, "fusion_lat": 0.0, "name": "ef5007db736b27e393e0319ef4363de4", "type": "electric_bike", "is_disabled": 0, "lat": 38.941723833333334, "rental_uris": {"android": "https://dc.lft.to/lastmile_qr_scan", "ios": "https://dc.lft.to/lastmile_qr_scan"}, "bike_id": "ef5007db736b27e393e0319ef4363de4", "lon": -76.99260433333333}, {"is_reserved": 0, "fusion_lon": 0.0, "fusion_lat": 0.0, "name": "1dd008f1f2196a7d2a118495975c24fc", "type": "electric_scooter", "is_disabled": 0, "lat": 38.900268833333335, "rental_uris": {"android": "https://dc.lft.to/lastmile_qr_scan", "ios": "https://dc.lft.to/lastmile_qr_scan"}, "bike_id": "1dd008f1f2196a7d2a118495975c24fc", "lon": -77.03345433333334}, {"is_reserved": 0, "fusion_lon": 0.0, "fusion_lat": 0.0, "name": "243b804a2b9ada142e3d4db645708f88", "type": "electric_scooter", "is_disabled": 0, "lat": 38.8953875, "rental_uris": {"android": "https://dc.lft.to/lastmile_qr_scan", "ios": "https://dc.lft.to/lastmile_qr_scan"}, "bike_id": "243b804a2b9ada142e3d4db645708f88", "lon": -77.032623}, {"is_reserved": 0, "fusion_lon": 0.0, "fusion_lat": 0.0, "name": "d69fbd90588e3ad47604f75780428455", "type": "electric_scooter", "is_disabled": 0, "lat": 38.92177683333333, "rental_uris": {"android": "https://dc.lft.to/lastmile_qr_scan", "ios": "https://dc.lft.to/lastmile_qr_scan"}, "bike_id": "d69fbd90588e3ad47604f75780428455", "lon": -77.04232833333333}, {"is_reserved": 0, "fusion_lon": 0.0, "fusion_lat": 0.0, "name": "9766928fac47633944bc40a087680d0c", "type": "electric_bike", "is_disabled": 0, "lat": 38.80750483333333, "rental_uris": {"android": "https://dc.lft.to/lastmile_qr_scan", "ios": "https://dc.lft.to/lastmile_qr_scan"}, "bike_id": "9766928fac47633944bc40a087680d0c", "lon": -77.09451783333333}, {"is_reserved": 0, "fusion_lon": 0.0, "fusion_lat": 0.0, "name": "991f49c6543a0b868035470f8c75fd57", "type": "electric_scooter", "is_disabled": 0, "lat": 38.900723166666666, "rental_uris": {"android": "https://dc.lft.to/lastmile_qr_scan", "ios": "https://dc.lft.to/lastmile_qr_scan"}, "bike_id": "991f49c6543a0b868035470f8c75fd57", "lon": -77.01284883333334}, {"is_reserved": 0, "fusion_lon": 0.0, "fusion_lat": 0.0, "name": "cfbb2076ca81da2390df09cdad1b19d9", "type": "electric_scooter", "is_disabled": 0, "lat": 38.88619083333333, "rental_uris": {"android": "https://dc.lft.to/lastmile_qr_scan", "ios": "https://dc.lft.to/lastmile_qr_scan"}, "bike_id": "cfbb2076ca81da2390df09cdad1b19d9", "lon": -76.95578766666667}, {"is_reserved": 0, "fusion_lon": 0.0, "fusion_lat": 0.0, "name": "af2a26972acf17d5c7eff423022873c3", "type": "electric_scooter", "is_disabled": 0, "lat": 38.867003, "rental_uris": {"android": "https://dc.lft.to/lastmile_qr_scan", "ios": "https://dc.lft.to/lastmile_qr_scan"}, "bike_id": "af2a26972acf17d5c7eff423022873c3", "lon": -76.9859415}, {"is_reserved": 0, "fusion_lon": 0.0, "fusion_lat": 0.0, "name": "b626f54fdec1ac6b510407c452b9da9c", "type": "electric_scooter", "is_disabled": 0, "lat": 38.898272, "rental_uris": {"android": "https://dc.lft.to/lastmile_qr_scan", "ios": "https://dc.lft.to/lastmile_qr_scan"}, "bike_id": "b626f54fdec1ac6b510407c452b9da9c", "lon": -77.04642733333333}, {"is_reserved": 0, "fusion_lon": 0.0, "fusion_lat": 0.0, "name": "a9dac1b7433b6042005ad3818dc45855", "type": "electric_scooter", "is_disabled": 0, "lat": 38.90560133333334, "rental_uris": {"android": "https://dc.lft.to/lastmile_qr_scan", "ios": "https://dc.lft.to/lastmile_qr_scan"}, "bike_id": "a9dac1b7433b6042005ad3818dc45855", "lon": -77.03469633333333}, {"is_reserved": 0, "fusion_lon": 0.0, "fusion_lat": 0.0, "name": "604c8397cfe76deb02fc69e39f816895", "type": "electric_scooter", "is_disabled": 0, "lat": 38.892236, "rental_uris": {"android": "https://dc.lft.to/lastmile_qr_scan", "ios": "https://dc.lft.to/lastmile_qr_scan"}, "bike_id": "604c8397cfe76deb02fc69e39f816895", "lon": -77.0234285}, {"is_reserved": 0, "fusion_lon": 0.0, "fusion_lat": 0.0, "name": "29911520ec8848f4154190d9095d207e", "type": "electric_scooter", "is_disabled": 0, "lat": 38.92271933333333, "rental_uris": {"android": "https://dc.lft.to/lastmile_qr_scan", "ios": "https://dc.lft.to/lastmile_qr_scan"}, "bike_id": "29911520ec8848f4154190d9095d207e", "lon": -77.04027566666667}, {"is_reserved": 0, "fusion_lon": 0.0, "fusion_lat": 0.0, "name": "7cdd7bc1a17636d88fcaaacadc78a96e", "type": "electric_scooter", "is_disabled": 0, "lat": 38.919490833333334, "rental_uris": {"android": "https://dc.lft.to/lastmile_qr_scan", "ios": "https://dc.lft.to/lastmile_qr_scan"}, "bike_id": "7cdd7bc1a17636d88fcaaacadc78a96e", "lon": -77.01392833333334}, {"is_reserved": 0, "fusion_lon": 0.0, "fusion_lat": 0.0, "name": "c34d259cf27282758fe9a2cc573e2f72", "type": "electric_scooter", "is_disabled": 0, "lat": 38.9181415, "rental_uris": {"android": "https://dc.lft.to/lastmile_qr_scan", "ios": "https://dc.lft.to/lastmile_qr_scan"}, "bike_id": "c34d259cf27282758fe9a2cc573e2f72", "lon": -77.03254666666666}, {"is_reserved": 0, "fusion_lon": 0.0, "fusion_lat": 0.0, "name": "6dc2272a3def1720c0749318c8b0c83e", "type": "electric_scooter", "is_disabled": 0, "lat": 38.931502333333334, "rental_uris": {"android": "https://dc.lft.to/lastmile_qr_scan", "ios": "https://dc.lft.to/lastmile_qr_scan"}, "bike_id": "6dc2272a3def1720c0749318c8b0c83e", "lon": -77.04357916666666}, {"is_reserved": 0, "fusion_lon": 0.0, "fusion_lat": 0.0, "name": "670455d2e81ae0ad50360570c87b9deb", "type": "electric_scooter", "is_disabled": 0, "lat": 38.924387, "rental_uris": {"android": "https://dc.lft.to/lastmile_qr_scan", "ios": "https://dc.lft.to/lastmile_qr_scan"}, "bike_id": "670455d2e81ae0ad50360570c87b9deb", "lon": -77.03402533333333}, {"is_reserved": 0, "fusion_lon": 0.0, "fusion_lat": 0.0, "name": "89806367154a21943254844197838f2a", "type": "electric_scooter", "is_disabled": 0, "lat": 38.90248233333333, "rental_uris": {"android": "https://dc.lft.to/lastmile_qr_scan", "ios": "https://dc.lft.to/lastmile_qr_scan"}, "bike_id": "89806367154a21943254844197838f2a", "lon": -77.0392435}, {"is_reserved": 0, "fusion_lon": 0.0, "fusion_lat": 0.0, "name": "2ecd888fb1e00419a117716418f9b9db", "type": "electric_scooter", "is_disabled": 0, "lat": 38.97369033333333, "rental_uris": {"android": "https://dc.lft.to/lastmile_qr_scan", "ios": "https://dc.lft.to/lastmile_qr_scan"}, "bike_id": "2ecd888fb1e00419a117716418f9b9db", "lon": -77.018655}, {"is_reserved": 0, "fusion_lon": 0.0, "fusion_lat": 0.0, "name": "74fb6d5fe9585053f376998cdf811bcd", "type": "electric_scooter", "is_disabled": 0, "lat": 38.919120166666666, "rental_uris": {"android": "https://dc.lft.to/lastmile_qr_scan", "ios": "https://dc.lft.to/lastmile_qr_scan"}, "bike_id": "74fb6d5fe9585053f376998cdf811bcd", "lon": -77.04174133333333}, {"is_reserved": 0, "fusion_lon": 0.0, "fusion_lat": 0.0, "name": "91dbc2061fe953eab85cbf5a9daa04e0", "type": "electric_scooter", "is_disabled": 0, "lat": 38.924412333333336, "rental_uris": {"android": "https://dc.lft.to/lastmile_qr_scan", "ios": "https://dc.lft.to/lastmile_qr_scan"}, "bike_id": "91dbc2061fe953eab85cbf5a9daa04e0", "lon": -77.02149233333333}, {"is_reserved": 0, "fusion_lon": 0.0, "fusion_lat": 0.0, "name": "6aa07172e980c8892562166417fd5419", "type": "electric_scooter", "is_disabled": 0, "lat": 38.870786333333335, "rental_uris": {"android": "https://dc.lft.to/lastmile_qr_scan", "ios": "https://dc.lft.to/lastmile_qr_scan"}, "bike_id": "6aa07172e980c8892562166417fd5419", "lon": -76.98910483333333}, {"is_reserved": 0, "fusion_lon": 0.0, "fusion_lat": 0.0, "name": "9d7c1725816d9c06f02d3a61e72cdcf3", "type": "electric_scooter", "is_disabled": 0, "lat": 38.916677, "rental_uris": {"android": "https://dc.lft.to/lastmile_qr_scan", "ios": "https://dc.lft.to/lastmile_qr_scan"}, "bike_id": "9d7c1725816d9c06f02d3a61e72cdcf3", "lon": -77.031982}, {"is_reserved": 0, "fusion_lon": 0.0, "fusion_lat": 0.0, "name": "8cc8b4d4fe7bf066c2186c8b4e9d0f37", "type": "electric_scooter", "is_disabled": 0, "lat": 38.914808666666666, "rental_uris": {"android": "https://dc.lft.to/lastmile_qr_scan", "ios": "https://dc.lft.to/lastmile_qr_scan"}, "bike_id": "8cc8b4d4fe7bf066c2186c8b4e9d0f37", "lon": -77.02577383333333}, {"is_reserved": 0, "fusion_lon": 0.0, "fusion_lat": 0.0, "name": "464047ca5334df692067c1ea83ac82dd", "type": "electric_scooter", "is_disabled": 0, "lat": 38.898789, "rental_uris": {"android": "https://dc.lft.to/lastmile_qr_scan", "ios": "https://dc.lft.to/lastmile_qr_scan"}, "bike_id": "464047ca5334df692067c1ea83ac82dd", "lon": -77.01391616666666},