{"data": {"bikes": [{"name": "99e5a9b76ac0503f07fcd29a0d23bcfe", "fusion_lat": 0.0, "fusion_lon": 0.0, "bike_id": "99e5a9b76ac0503f07fcd29a0d23bcfe", "rental_uris": {"ios": "https://dc.lft.to/lastmile_qr_scan", "android": "https://dc.lft.to/lastmile_qr_scan"}, "type": "electric_scooter", "lat": 38.92150933333333, "is_disabled": 0, "lon": -77.0296195, "is_reserved": 0}, {"name": "a54bde9fdad251025f3bc6be860fe918", "fusion_lat": 0.0, "fusion_lon": 0.0, "bike_id": "a54bde9fdad251025f3bc6be860fe918", "rental_uris": {"ios": "https://dc.lft.to/lastmile_qr_scan", "android": "https://dc.lft.to/lastmile_qr_scan"}, "type": "electric_scooter", "lat": 38.92182483333333, "is_disabled": 0, "lon": -77.02667166666667, "is_reserved": 0}, {"name": "588a95a7f2a88c46ae2534a5a2c70fcc", "fusion_lat": 0.0, "fusion_lon": 0.0, "bike_id": "588a95a7f2a88c46ae2534a5a2c70fcc", "rental_uris": {"ios": "https://dc.lft.to/lastmile_qr_scan", "android": "https://dc.lft.to/lastmile_qr_scan"}, "type": "electric_scooter", "lat": 38.885389333333336, "is_disabled": 0, "lon": -76.92697516666667, "is_reserved": 0}, {"name": "dcc7d169d9eb987ee22dbd9d0a8c216b", "fusion_lat": 0.0, "fusion_lon": 0.0, "bike_id": "dcc7d169d9eb987ee22dbd9d0a8c216b", "rental_uris": {"ios": "https://dc.lft.to/lastmile_qr_scan", "android": "https://dc.lft.to/lastmile_qr_scan"}, "type": "electric_scooter", "lat": 38.933404833333334, "is_disabled": 0, "lon": -77.04137983333334, "is_reserved": 0}, {"name": "3025eac20d0c6e9dfcf741c7abd3b16d", "fusion_lat": 0.0, "fusion_lon": 0.0, "bike_id": "3025eac20d0c6e9dfcf741c7abd3b16d", "rental_uris": {"ios": "https://dc.lft.to/lastmile_qr_scan", "android": "https://dc.lft.to/lastmile_qr_scan"}, "type": "electric_scooter", "lat": 38.916023, "is_disabled": 0, "lon": -77.0385995, "is_reserved": 0}, {"name": "b12de4a2ad132f0234e6357c5dbf7277", "fusion_lat": 0.0, "fusion_lon": 0.0, "bike_id": "b12de4a2ad132f0234e6357c5dbf7277", "rental_uris": {"ios": "https://dc.lft.to/lastmile_qr_scan", "android": "https://dc.lft.to/lastmile_qr_scan"}, "type": "electric_scooter", "lat": 38.92322566666667, "is_disabled": 0, "lon": -77.04622116666667, "is_reserved": 0}, {"name": "5e1753ce8486f8f8bb7deaf09ca35e9a", "fusion_lat": 0.0, "fusion_lon": 0.0, "bike_id": "5e1753ce8486f8f8bb7deaf09ca35e9a", "rental_uris": {"ios": "https://dc.lft.to/lastmile_qr_scan", "android": "https://dc.lft.to/lastmile_qr_scan"}, "type": "electric_scooter", "lat": 38.91820833333333, "is_disabled": 0, "lon": -77.01210833333333, "is_reserved": 0}, {"name": "fbf4e1b3034e0f8d8163ad08f76056d4", "fusion_lat": 0.0, "fusion_lon": 0.0, "bike_id": "fbf4e1b3034e0f8d8163ad08f76056d4", "rental_uris": {"ios": "https://dc.lft.to/lastmile_qr_scan", "android": "https://dc.lft.to/lastmile_qr_scan"}, "type": "electric_scooter", "lat": 38.92287966666667, "is_disabled": 0, "lon": -77.0320395, "is_reserved": 0}, {"name": "fe84c7e746c6491f3e3a8988df8e68d3", "fusion_lat": 0.0, "fusion_lon": 0.0, "bike_id": "fe84c7e746c6491f3e3a8988df8e68d3", "rental_uris": {"ios": "https://dc.lft.to/lastmile_qr_scan", "android": "https://dc.lft.to/lastmile_qr_scan"}, "type": "electric_scooter", "lat": 38.89985183333334, "is_disabled": 0, "lon": -77.02022133333334, "is_reserved": 0}, {"name": "7eb2d71837ac980f1c079a9e7f778fe4", "fusion_lat": 0.0, "fusion_lon": 0.0, "bike_id": "7eb2d71837ac980f1c079a9e7f778fe4", "rental_uris": {"ios": "https://dc.lft.to/lastmile_qr_scan", "android": "https://dc.lft.to/lastmile_qr_scan"}, "type": "electric_scooter", "lat": 38.894860666666666, "is_disabled": 0, "lon": -76.9951855, "is_reserved": 0}, {"name": "1bb62aafcdc82bd253fbc08c6c45f96f", "fusion_lat": 0.0, "fusion_lon": 0.0, "bike_id": "1bb62aafcdc82bd253fbc08c6c45f96f", "rental_uris": {"ios": "https://dc.lft.to/lastmile_qr_scan", "android": "https://dc.lft.to/lastmile_qr_scan"}, "type": "electric_scooter", "lat": 38.88697783333333, "is_disabled": 0, "lon": -76.99614133333333, "is_reserved": 0}, {"name": "3be98136487429ac46f1dc86b4cb0027", "fusion_lat": 0.0, "fusion_lon": 0.0, "bike_id": "3be98136487429ac46f1dc86b4cb0027", "rental_uris": {"ios": "https://dc.lft.to/lastmile_qr_scan", "android": "https://dc.lft.to/lastmile_qr_scan"}, "type": "electric_scooter", "lat": 38.8995135, "is_disabled": 0, "lon": -77.047854, "is_reserved": 0}, {"name": "7a0e0cd5722f99b60a6fe646c4a4dfe0", "fusion_lat": 0.0, "fusion_lon": 0.0, "bike_id": "7a0e0cd5722f99b60a6fe646c4a4dfe0", "rental_uris": {"ios": "https://dc.lft.to/lastmile_qr_scan", "android": "https://dc.lft.to/lastmile_qr_scan"}, "type": "electric_scooter", "lat": 38.894720666666664, "is_disabled": 0, "lon": -76.99412516666666, "is_reserved": 0}, {"name": "54d3ad8244a65b86426e5f3388ee896b", "fusion_lat": 0.0, "fusion_lon": 0.0, "bike_id": "54d3ad8244a65b86426e5f3388ee896b", "rental_uris": {"ios": "https://dc.lft.to/lastmile_qr_scan", "android": "https://dc.lft.to/lastmile_qr_scan"}, "type": "electric_scooter", "lat": 38.86358466666667, "is_disabled": 0, "lon": -76.99054833333334, "is_reserved": 0}, {"name": "b948c1b80b0020890ddd2ccc8bb92ad3", "fusion_lat": 0.0, "fusion_lon": 0.0, "bike_id": "b948c1b80b0020890ddd2ccc8bb92ad3", "rental_uris": {"ios": "https://dc.lft.to/lastmile_qr_scan", "android": "https://dc.lft.to/lastmile_qr_scan"}, "type": "electric_scooter", "lat": 38.92811416666667, "is_disabled": 0, "lon": -77.00576116666667, "is_reserved": 0}, {"name": "78f6b798447609409d1550cb885fa28a", "fusion_lat": 0.0, "fusion_lon": 0.0, "bike_id": "78f6b798447609409d1550cb885fa28a", "rental_uris": {"ios": "https://dc.lft.to/lastmile_qr_scan", "android": "https://dc.lft.to/lastmile_qr_scan"}, "type": "electric_scooter", "lat": 38.8877015, "is_disabled": 0, "lon": -77.01546833333333, "is_reserved": 0}, {"name": "f88ece570276be49fc443619085e9cf9", "fusion_lat": 0.0, "fusion_lon": 0.0, "bike_id": "f88ece570276be49fc443619085e9cf9", "rental_uris": {"ios": "https://dc.lft.to/lastmile_qr_scan", "android": "https://dc.lft.to/lastmile_qr_scan"}, "type": "electric_scooter", "lat": 38.9137545, "is_disabled": 0, "lon": -77.0433765, "is_reserved": 0}, {"name": "1f78ae3b79c65a93f73dd680acee330b", "fusion_lat": 0.0, "fusion_lon": 0.0, "bike_id": "1f78ae3b79c65a93f73dd680acee330b", "rental_uris": {"ios": "https://dc.lft.to/lastmile_qr_scan", "android": "https://dc.lft.to/lastmile_qr_scan"}, "type": "electric_scooter", "lat": 38.9045395, "is_disabled": 0, "lon": -77.0294525, "is_reserved": 0}, {"name": "a4e406285224a8e0ff9f18be76743d87", "fusion_lat": 0.0, "fusion_lon": 0.0, "bike_id": "a4e406285224a8e0ff9f18be76743d87", "rental_uris": {"ios": "https://dc.lft.to/lastmile_qr_scan", "android": "https://dc.lft.to/lastmile_qr_scan"}, "type": "electric_scooter", "lat": 38.879637, "is_disabled": 0, "lon": -76.98747933333334, "is_reserved": 0}, {"name": "d5af1292916b0897a6f079d74228786e", "fusion_lat": 0.0, "fusion_lon": 0.0, "bike_id": "d5af1292916b0897a6f079d74228786e", "rental_uris": {"ios": "https://dc.lft.to/lastmile_qr_scan", "android": "https://dc.lft.to/lastmile_qr_scan"}, "type": "electric_scooter", "lat": 38.88144466666667, "is_disabled": 0, "lon": -76.99163816666666, "is_reserved": 0}, {"name": "cbd71ff02c128e5ecd65f746a5c97014", "fusion_lat": 0.0, "fusion_lon": 0.0, "bike_id": "cbd71ff02c128e5ecd65f746a5c97014", "rental_uris": {"ios": "https://dc.lft.to/lastmile_qr_scan", "android": "https://dc.lft.to/lastmile_qr_scan"}, "type": "electric_scooter", "lat": 38.901240666666666, "is_disabled": 0, "lon": -77.03180133333333, "is_reserved": 0}, {"name": "c00b35c5c761641bc46f27f8e9b16384", "fusion_lat": 0.0, "fusion_lon": 0.0, "bike_id": "c00b35c5c761641bc46f27f8e9b16384", "rental_uris": {"ios": "https://dc.lft.to/lastmile_qr_scan", "android": "https://dc.lft.to/lastmile_qr_scan"}, "type": "electric_scooter", "lat": 38.901552333333335, "is_disabled": 0, "lon": -76.9355315, "is_reserved": 0}, {"name": "745c56c2608b14a3354de576456c0a77", "fusion_lat": 0.0, "fusion_lon": 0.0, "bike_id": "745c56c2608b14a3354de576456c0a77", "rental_uris": {"ios": "https://dc.lft.to/lastmile_qr_scan", "android": "https://dc.lft.to/lastmile_qr_scan"}, "type": "electric_scooter", "lat": 38.90152116666667, "is_disabled": 0, "lon": -77.03223766666666, "is_reserved": 0}, {"name": "34a92f407d06dc7b21c67b132148d3a7", "fusion_lat": 0.0, "fusion_lon": 0.0, "bike_id": "34a92f407d06dc7b21c67b132148d3a7", "rental_uris": {"ios": "https://dc.lft.to/lastmile_qr_scan", "android": "https://dc.lft.to/lastmile_qr_scan"}, "type": "electric_scooter", "lat": 38.92581116666667, "is_disabled": 0, "lon": -77.03216366666666, "is_reserved": 0}, {"name": "bf1e07ac878558988c7927f50e27f6a5", "fusion_lat": 0.0, "fusion_lon": 0.0, "bike_id": "bf1e07ac878558988c7927f50e27f6a5", "rental_uris": {"ios": "https://dc.lft.to/lastmile_qr_scan", "android": "https://dc.lft.to/lastmile_qr_scan"}, "type": "electric_bike", "lat": 38.9068585, "is_disabled": 0, "lon": -76.95197816666666, "is_reserved": 0}, {"name": "30270b7dbf6119b5129b3a8c0b26b142", "fusion_lat": 0.0, "fusion_lon": 0.0, "bike_id": "30270b7dbf6119b5129b3a8c0b26b142", "rental_uris": {"ios": "https://dc.lft.to/lastmile_qr_scan", "android": "https://dc.lft.to/lastmile_qr_scan"}, "type": "electric_scooter", "lat": 38.916698, "is_disabled": 0, "lon": -77.04193983333333, "is_reserved": 0}, {"name": "62ddf2393537e53dedf8d667d5f61ba3", "fusion_lat": 0.0, "fusion_lon": 0.0, "bike_id": "62ddf2393537e53dedf8d667d5f61ba3", "rental_uris": {"ios": "https://dc.lft.to/lastmile_qr_scan", "android": "https://dc.lft.to/lastmile_qr_scan"}, "type": "electric_bike", "lat": 38.89683733333333, "is_disabled": 0, "lon": -76.94068766666666, "is_reserved": 0}, {"name": "15c774db93419062eaf001fc5161181f", "fusion_lat": 0.0, "fusion_lon": 0.0, "bike_id": "15c774db93419062eaf001fc5161181f", "rental_uris": {"ios": "https://dc.lft.to/lastmile_qr_scan", "android": "https://dc.lft.to/lastmile_qr_scan"}, "type": "electric_scooter", "lat": 38.914158, "is_disabled": 0, "lon": -77.0417835, "is_reserved": 0}, {"name": "03c94f850365fcba7e59bbba8fca2a1d", "fusion_lat": 0.0, "fusion_lon": 0.0, "bike_id": "03c94f850365fcba7e59bbba8fca2a1d", "rental_uris": {"ios": "https://dc.lft.to/lastmile_qr_scan", "android": "https://dc.lft.to/lastmile_qr_scan"}, "type": "electric_scooter", "lat": 38.88593566666667, "is_disabled": 0, "lon": -77.015394, "is_reserved": 0}, {"name": "663c18d04ef10c1d534175ed04ed9395", "fusion_lat": 0.0, "fusion_lon": 0.0, "bike_id": "663c18d04ef10c1d534175ed04ed9395", "rental_uris": {"ios": "https://dc.lft.to/lastmile_qr_scan", "android": "https://dc.lft.to/lastmile_qr_scan"}, "type": "electric_scooter", "lat": 38.911144166666666, "is_disabled": 0, "lon": -77.0346915, "is_reserved": 0}, {"name": "dddccdda76a49ea901782ad7194fd31c", "fusion_lat": 0.0, "fusion_lon": 0.0, "bike_id": "dddccdda76a49ea901782ad7194fd31c", "rental_uris": {"ios": "https://dc.lft.to/lastmile_qr_scan", "android": "https://dc.lft.to/lastmile_qr_scan"}, "type": "electric_scooter", "lat": 38.905109333333336, "is_disabled": 0, "lon": -77.05786416666666, "is_reserved": 0}, {"name": "3fa6bf7d8330e873bd309a0a7121d3f4", "fusion_lat": 0.0, "fusion_lon": 0.0, "bike_id": "3fa6bf7d8330e873bd309a0a7121d3f4", "rental_uris": {"ios": "https://dc.lft.to/lastmile_qr_scan", "android": "https://dc.lft.to/lastmile_qr_scan"}, "type": "electric_scooter", "lat": 38.844336166666665, "is_disabled": 0, "lon": -76.99778266666667, "is_reserved": 0}, {"name": "7d7952887367504362382bf0012b94d9", "fusion_lat": 0.0, "fusion_lon": 0.0, "bike_id": "7d7952887367504362382bf0012b94d9", "rental_uris": {"ios": "https://dc.lft.to/lastmile_qr_scan", "android": "https://dc.lft.to/lastmile_qr_scan"}, "type": "electric_scooter", "lat": 38.90867033333333, "is_disabled": 0, "lon": -77.02693433333333, "is_reserved": 0}, {"name": "18f2314392efd4d93072301b70a3ce8f", "fusion_lat": 0.0, "fusion_lon": 0.0, "bike_id": "18f2314392efd4d93072301b70a3ce8f", "rental_uris": {"ios": "https://dc.lft.to/lastmile_qr_scan", "android": "https://dc.lft.to/lastmile_qr_scan"}, "type": "electric_scooter", "lat": 38.9082415, "is_disabled": 0, "lon": -76.99713183333333, "is_reserved": 0}, {"name": "47ff73827855c9aa672c17aae65f6298", "fusion_lat": 0.0, "fusion_lon": 0.0, "bike_id": "47ff73827855c9aa672c17aae65f6298", "rental_uris": {"ios": "https://dc.lft.to/lastmile_qr_scan", "android": "https://dc.lft.to/lastmile_qr_scan"}, "type": "electric_scooter", "lat": 38.924847666666665, "is_disabled": 0, "lon": -77.029177, "is_reserved": 0}, {"name": "e0095f5363e1ef940ab71a9cc4542adc", "fusion_lat": 0.0, "fusion_lon": 0.0, "bike_id": "e0095f5363e1ef940ab71a9cc4542adc", "rental_uris": {"ios": "https://dc.lft.to/lastmile_qr_scan", "android": "https://dc.lft.to/lastmile_qr_scan"}, "type": "electric_scooter", "lat": 38.88383316666667, "is_disabled": 0, "lon": -76.99488183333334, "is_reserved": 0}, {"name": "8d06aa1b41825b3c20cfd0791ade91de", "fusion_lat": 0.0, "fusion_lon": 0.0, "bike_id": "8d06aa1b41825b3c20cfd0791ade91de", "rental_uris": {"ios": "https://dc.lft.to/lastmile_qr_scan", "android": "https://dc.lft.to/lastmile_qr_scan"}, "type": "electric_scooter", "lat": 38.917657166666665, "is_disabled": 0, "lon": -77.02384916666666, "is_reserved": 0}, {"name": "6c200c2f9d0f33ad7aaea928228bd1f9", "fusion_lat": 0.0, "fusion_lon": 0.0, "bike_id": "6c200c2f9d0f33ad7aaea928228bd1f9", "rental_uris": {"ios": "https://dc.lft.to/lastmile_qr_scan", "android": "https://dc.lft.to/lastmile_qr_scan"}, "type": "electric_scooter", "lat": 38.92742466666667, "is_disabled": 0, "lon": -77.01205116666667, "is_reserved": 0}, {"name": "84479f9774986910c0864b0e12a3fd7e", "fusion_lat": 0.0, "fusion_lon": 0.0, "bike_id": "84479f9774986910c0864b0e12a3fd7e", "rental_uris": {"ios": "https://dc.lft.to/lastmile_qr_scan", "android": "https://dc.lft.to/lastmile_qr_scan"}, "type": "electric_scooter", "lat": 38.9275835, "is_disabled": 0, "lon": -77.032625, "is_reserved": 0}, {"name": "a4037294d932d7e51d7e5db9f5639ad0", "fusion_lat": 0.0, "fusion_lon": 0.0, "bike_id": "a4037294d932d7e51d7e5db9f5639ad0", "rental_uris": {"ios": "https://dc.lft.to/lastmile_qr_scan", "android": "https://dc.lft.to/lastmile_qr_scan"}, "type": "electric_scooter", "lat": 38.89711666666667, "is_disabled": 0, "lon": -77.00842116666666, "is_reserved": 0}, {"name": "6eefd765b87b7c39bdf725d2edad2e88", "fusion_lat": 0.0, "fusion_lon": 0.0, "bike_id": "6eefd765b87b7c39bdf725d2edad2e88", "rental_uris": {"ios": "https://dc.lft.to/lastmile_qr_scan", "android": "https://dc.lft.to/lastmile_qr_scan"}, "type": "electric_scooter", "lat": 38.92848516666667, "is_disabled": 0, "lon": -77.0327805, "is_reserved": 0}, {"name": "7cfb43d7c578c22aac6a0504349f1cf3", "fusion_lat": 0.0, "fusion_lon": 0.0, "bike_id": "7cfb43d7c578c22aac6a0504349f1cf3", "rental_uris": {"ios": "https://dc.lft.to/lastmile_qr_scan", "android": "https://dc.lft.to/lastmile_qr_scan"}, "type": "electric_bike", "lat": 38.990725166666664, "is_disabled": 0, "lon": -77.02382733333333, "is_reserved": 0}, {"name": "f193ce5c14c590cd6e47d29983024019", "fusion_lat": 0.0, "fusion_lon": 0.0, "bike_id": "f193ce5c14c590cd6e47d29983024019", "rental_uris": {"ios": "https://dc.lft.to/lastmile_qr_scan", "android": "https://dc.lft.to/lastmile_qr_scan"}, "type": "electric_scooter", "lat": 38.92502316666667, "is_disabled": 0, "lon": -77.0088995, "is_reserved": 0}, {"name": "bd33b2cc0e57d81a8ea20424eb50052c", "fusion_lat": 0.0, "fusion_lon": 0.0, "bike_id": "bd33b2cc0e57d81a8ea20424eb50052c", "rental_uris": {"ios": "https://dc.lft.to/lastmile_qr_scan", "android": "https://dc.lft.to/lastmile_qr_scan"}, "type": "electric_bike", "lat": 38.9234795, "is_disabled": 0, "lon": -76.99249133333333, "is_reserved": 0}, {"name": "0758c5c094427e500007db9c46148b46", "fusion_lat": 0.0, "fusion_lon": 0.0, "bike_id": "0758c5c094427e500007db9c46148b46", "rental_uris": {"ios": "https://dc.lft.to/lastmile_qr_scan", "android": "https://dc.lft.to/lastmile_qr_scan"}, "type": "electric_scooter", "lat": 38.89357733333333, "is_disabled": 0, "lon": -77.00334433333333, "is_reserved": 0}, {"name": "a7e23620a42a40d53225ee51c8a3ba8f", "fusion_lat": 0.0, "fusion_lon": 0.0, "bike_id": "a7e23620a42a40d53225ee51c8a3ba8f", "rental_uris": {"ios": "https://dc.lft.to/lastmile_qr_scan", "android": "https://dc.lft.to/lastmile_qr_scan"}, "type": "electric_scooter", "lat": 38.881781, "is_disabled": 0, "lon": -77.02816766666666, "is_reserved": 0}, {"name": "2f5407b62c155947f22f0abf31668307", "fusion_lat": 0.0, "fusion_lon": 0.0, "bike_id": "2f5407b62c155947f22f0abf31668307", "rental_uris": {"ios": "https://dc.lft.to/lastmile_qr_scan", "android": "https://dc.lft.to/lastmile_qr_scan"}, "type": "electric_scooter", "lat": 38.8762225, "is_disabled": 0, "lon": -77.00700983333333, "is_reserved": 0}, {"name": "969d1985a20b83d2d99f24f8e6345736", "fusion_lat": 0.0, "fusion_lon": 0.0, "bike_id": "969d1985a20b83d2d99f24f8e6345736", "rental_uris": {"ios": "https://dc.lft.to/lastmile_qr_scan", "android": "https://dc.lft.to/lastmile_qr_scan"}, "type": "electric_scooter", "lat": 38.86656983333334, "is_disabled": 0, "lon": -76.98885516666667, "is_reserved": 0}, {"name": "10e806743f089c8327627252242dbfb0", "fusion_lat": 0.0, "fusion_lon": 0.0, "bike_id": "10e806743f089c8327627252242dbfb0", "rental_uris": {"ios": "https://dc.lft.to/lastmile_qr_scan", "android": "https://dc.lft.to/lastmile_qr_scan"}, "type": "electric_scooter", "lat": 38.88120883333333, "is_disabled": 0, "lon": -77.02073, "is_reserved": 0}, {"name": "8685e91c7e2eb90edf640c4d9bc44873", "fusion_lat": 0.0, "fusion_lon": 0.0, "bike_id": "8685e91c7e2eb90edf640c4d9bc44873", "rental_uris": {"ios": "https://dc.lft.to/lastmile_qr_scan", "android": "https://dc.lft.to/lastmile_qr_scan"}, "type": "electric_scooter", "lat": 38.92034916666667, "is_disabled": 0, "lon": -77.04816116666667, "is_reserved": 0}, {"name": "b3156dac0bb63a5a18be606314dfe2bb", "fusion_lat": 0.0, "fusion_lon": 0.0, "bike_id": "b3156dac0bb63a5a18be606314dfe2bb", "rental_uris": {"ios": "https://dc.lft.to/lastmile_qr_scan", "android": "https://dc.lft.to/lastmile_qr_scan"}, "type": "electric_scooter", "lat": 38.88717316666666, "is_disabled": 0, "lon": -76.99649116666667, "is_reserved": 0}, {"name": "d854f307ab4e824554b322c1929e13ec", "fusion_lat": 0.0, "fusion_lon": 0.0, "bike_id": "d854f307ab4e824554b322c1929e13ec", "rental_uris": {"ios": "https://dc.lft.to/lastmile_qr_scan", "android": "https://dc.lft.to/lastmile_qr_scan"}, "type": "electric_scooter", "lat": 38.9178985, "is_disabled": 0, "lon": -77.04357966666667, "is_reserved": 0}, {"name": "9ca6ecf7f181655fac377868f5761eff", "fusion_lat": 0.0, "fusion_lon": 0.0, "bike_id": "9ca6ecf7f181655fac377868f5761eff", "rental_uris": {"ios": "https://dc.lft.to/lastmile_qr_scan", "android": "https://dc.lft.to/lastmile_qr_scan"}, "type": "electric_scooter", "lat": 38.88416866666667, "is_disabled": 0, "lon": -77.03299733333333, "is_reserved": 0}, {"name": "161a791ee3dbf9bb46546177f0b4f9b4", "fusion_lat": 0.0, "fusion_lon": 0.0, "bike_id": "161a791ee3dbf9bb46546177f0b4f9b4", "rental_uris": {"ios": "https://dc.lft.to/lastmile_qr_scan", "android": "https://dc.lft.to/lastmile_qr_scan"}, "type": "electric_scooter", "lat": 38.90142633333333, "is_disabled": 0, "lon": -77.028634, "is_reserved": 0}, {"name": "2336bac4416eea4e1dc56e6ea30e9239", "fusion_lat": 0.0, "fusion_lon": 0.0, "bike_id": "2336bac4416eea4e1dc56e6ea30e9239", "rental_uris": {"ios": "https://dc.lft.to/lastmile_qr_scan", "android": "https://dc.lft.to/lastmile_qr_scan"}, "type": "electric_scooter", "lat": 38.906856833333336, "is_disabled": 0, "lon": -77.03551283333333, "is_reserved": 0}, {"name": "bc2670c2151e0fc3ca726fa8a2ee3b22", "fusion_lat": 0.0, "fusion_lon": 0.0, "bike_id": "bc2670c2151e0fc3ca726fa8a2ee3b22", "rental_uris": {"ios": "https://dc.lft.to/lastmile_qr_scan", "android": "https://dc.lft.to/lastmile_qr_scan"}, "type": "electric_scooter", "lat": 38.900187833333334, "is_disabled": 0, "lon": -77.011826, "is_reserved": 0}, {"name": "02f6af15d975df06751275e82d8a7c59", "fusion_lat": 0.0, "fusion_lon": 0.0, "bike_id": "02f6af15d975df06751275e82d8a7c59", "rental_uris": {"ios": "https://dc.lft.to/lastmile_qr_scan", "android": "https://dc.lft.to/lastmile_qr_scan"}, "type": "electric_scooter", "lat": 38.906127166666664, "is_disabled": 0, "lon": -77.018838, "is_reserved": 0}, {"name": "7130021d653cba461e715e9e78a79008", "fusion_lat": 0.0, "fusion_lon": 0.0, "bike_id": "7130021d653cba461e715e9e78a79008", "rental_uris": {"ios": "https://dc.lft.to/lastmile_qr_scan", "android": "https://dc.lft.to/lastmile_qr_scan"}, "type": "electric_scooter", "lat": 38.88021416666667, "is_disabled": 0, "lon": -76.93111116666667, "is_reserved": 0}, {"name": "4dfc1dfac9b0acc04c0ae0d44a2150cb", "fusion_lat": 0.0, "fusion_lon": 0.0, "bike_id": "4dfc1dfac9b0acc04c0ae0d44a2150cb", "rental_uris": {"ios": "https://dc.lft.to/lastmile_qr_scan", "android": "https://dc.lft.to/lastmile_qr_scan"}, "type": "electric_scooter", "lat": 38.93911116666666, "is_disabled": 0, "lon": -77.024831, "is_reserved": 0}, {"name": "8cbb06b4c3d2535b877b8782b0cdb164", "fusion_lat": 0.0, "fusion_lon": 0.0, "bike_id": "8cbb06b4c3d2535b877b8782b0cdb164", "rental_uris": {"ios": "https://dc.lft.to/lastmile_qr_scan", "android": "https://dc.lft.to/lastmile_qr_scan"}, "type": "electric_scooter", "lat": 38.90561566666667, "is_disabled": 0, "lon": -77.051457, "is_reserved": 0}, {"name": "0e8e6958c5c1063b81d64943c939f1d3", "fusion_lat": 0.0, "fusion_lon": 0.0, "bike_id": "0e8e6958c5c1063b81d64943c939f1d3", "rental_uris": {"ios": "https://dc.lft.to/lastmile_qr_scan", "android": "https://dc.lft.to/lastmile_qr_scan"}, "type": "electric_scooter", "lat": 38.903706, "is_disabled": 0, "lon": -77.03191033333333, "is_reserved": 0}, {"name": "c5d58024ae78cbdb7c068edfb88f1d69", "fusion_lat": 0.0, "fusion_lon": 0.0, "bike_id": "c5d58024ae78cbdb7c068edfb88f1d69", "rental_uris": {"ios": "https://dc.lft.to/lastmile_qr_scan", "android": "https://dc.lft.to/lastmile_qr_scan"}, "type": "electric_bike", "lat": 38.9882695, "is_disabled": 0, "lon": -76.9875465, "is_reserved": 0}, {"name": "5e15b71fa80f8abbac829a4fabcdd311", "fusion_lat": 0.0, "fusion_lon": 0.0, "bike_id": "5e15b71fa80f8abbac829a4fabcdd311", "rental_uris": {"ios": "https://dc.lft.to/lastmile_qr_scan", "android": "https://dc.lft.to/lastmile_qr_scan"}, "type": "electric_scooter", "lat": 38.86249433333333, "is_disabled": 0, "lon": -76.995315, "is_reserved": 0}, {"name": "85701a1f49157cdf796e70b63efbc0e3", "fusion_lat": 0.0, "fusion_lon": 0.0, "bike_id": "85701a1f49157cdf796e70b63efbc0e3", "rental_uris": {"ios": "https://dc.lft.to/lastmile_qr_scan", "android": "https://dc.lft.to/lastmile_qr_scan"}, "type": "electric_scooter", "lat": 38.89530716666667, "is_disabled": 0, "lon": -77.02837066666666, "is_reserved": 0}, {"name": "f68266b99f2bed9379913b02251b8580", "fusion_lat": 0.0, "fusion_lon": 0.0, "bike_id": "f68266b99f2bed9379913b02251b8580", "rental_uris": {"ios": "https://dc.lft.to/lastmile_qr_scan", "android": "https://dc.lft.to/lastmile_qr_scan"}, "type": "electric_scooter", "lat": 38.853311833333336, "is_disabled": 0, "lon": -76.96576583333334, "is_reserved": 0}, {"name": "288ef6f248395edd0666e56f87a9a623", "fusion_lat": 0.0, "fusion_lon": 0.0, "bike_id": "288ef6f248395edd0666e56f87a9a623", "rental_uris": {"ios": "https://dc.lft.to/lastmile_qr_scan", "android": "https://dc.lft.to/lastmile_qr_scan"}, "type": "electric_scooter", "lat": 38.890013, "is_disabled": 0, "lon": -77.048941, "is_reserved": 0}, {"name": "0702fd7d3a33c244b9f9c1a28dc2b5a0", "fusion_lat": 0.0, "fusion_lon": 0.0, "bike_id": "0702fd7d3a33c244b9f9c1a28dc2b5a0", "rental_uris": {"ios": "https://dc.lft.to/lastmile_qr_scan", "android": "https://dc.lft.to/lastmile_qr_scan"}, "type": "electric_bike", "lat": 38.95090316666667, "is_disabled": 0, "lon": -76.96559766666667, "is_reserved": 0}, {"name": "fff2361211c71ec431a1dcb30e90c087", "fusion_lat": 0.0, "fusion_lon": 0.0, "bike_id": "fff2361211c71ec431a1dcb30e90c087", "rental_uris": {"ios": "https://dc.lft.to/lastmile_qr_scan", "android": "https://dc.lft.to/lastmile_qr_scan"}, "type": "electric_scooter", "lat": 38.90782883333333, "is_disabled": 0, "lon": -77.04078066666666, "is_reserved": 0}, {"name": "cb3181a9e2bd77df647a0bf0e3fe717a", "fusion_lat": 0.0, "fusion_lon": 0.0, "bike_id": "cb3181a9e2bd77df647a0bf0e3fe717a", "rental_uris": {"ios": "https://dc.lft.to/lastmile_qr_scan", "android": "https://dc.lft.to/lastmile_qr_scan"}, "type": "electric_scooter", "lat": 38.87629483333333, "is_disabled": 0, "lon": -76.96527583333334, "is_reserved": 0}, {"name": "e5313006886c9d62a34d29dabb688d38", "fusion_lat": 0.0, "fusion_lon": 0.0, "bike_id": "e5313006886c9d62a34d29dabb688d38", "rental_uris": {"ios": "https://dc.lft.to/lastmile_qr_scan", "android": "https://dc.lft.to/lastmile_qr_scan"}, "type": "electric_scooter", "lat": 38.91250516666667, "is_disabled": 0, "lon": -77.02795, "is_reserved": 0}, {"name": "1b51530deaa9f30609bdbc9957db7589", "fusion_lat": 0.0, "fusion_lon": 0.0, "bike_id": "1b51530deaa9f30609bdbc9957db7589", "rental_uris": {"ios": "https://dc.lft.to/lastmile_qr_scan", "android": "https://dc.lft.to/lastmile_qr_scan"}, "type": "electric_scooter", "lat": 38.917134833333336, "is_disabled": 0, "lon": -77.03472416666666, "is_reserved": 0}, {"name": "9fb2fc9d58af4b66a6829cf490d9b775", "fusion_lat": 0.0, "fusion_lon": 0.0, "bike_id": "9fb2fc9d58af4b66a6829cf490d9b775", "rental_uris": {"ios": "https://dc.lft.to/lastmile_qr_scan", "android": "https://dc.lft.to/lastmile_qr_scan"}, "type": "electric_bike", "lat": 38.9468315, "is_disabled": 0, "lon": -77.020542, "is_reserved": 0}, {"name": "44029ba51ac896329542ab6be6f1e88a", "fusion_lat": 0.0, "fusion_lon": 0.0, "bike_id": "44029ba51ac896329542ab6be6f1e88a", "rental_uris": {"ios": "https://dc.lft.to/lastmile_qr_scan", "android": "https://dc.lft.to/lastmile_qr_scan"}, "type": "electric_scooter", "lat": 38.91671266666667, "is_disabled": 0, "lon": -77.03844883333333, "is_reserved": 0}, {"name": "2dcd870b330177d2f14876408a99fe88", "fusion_lat": 0.0, "fusion_lon": 0.0, "bike_id": "2dcd870b330177d2f14876408a99fe88", "rental_uris": {"ios": "https://dc.lft.to/lastmile_qr_scan", "android": "https://dc.lft.to/lastmile_qr_scan"}, "type": "electric_scooter", "lat": 38.905346, "is_disabled": 0, "lon": -77.050018, "is_reserved": 0}, {"name": "33ba77afaf9ea9c5c871804eb2930ac2", "fusion_lat": 0.0, "fusion_lon": 0.0, "bike_id": "33ba77afaf9ea9c5c871804eb2930ac2", "rental_uris": {"ios": "https://dc.lft.to/lastmile_qr_scan", "android": "https://dc.lft.to/lastmile_qr_scan"}, "type": "electric_scooter", "lat": 38.913188166666664, "is_disabled": 0, "lon": -77.04561166666667, "is_reserved": 0}, {"name": "75ef2095a2ada98422bcc4b89316232b", "fusion_lat": 0.0, "fusion_lon": 0.0, "bike_id": "75ef2095a2ada98422bcc4b89316232b", "rental_uris": {"ios": "https://dc.lft.to/lastmile_qr_scan", "android": "https://dc.lft.to/lastmile_qr_scan"}, "type": "electric_scooter", "lat": 38.92478466666667, "is_disabled": 0, "lon": -77.05209866666667, "is_reserved": 0}, {"name": "af7ac6221579d3f346eaf01d5288fd5a", "fusion_lat": 0.0, "fusion_lon": 0.0, "bike_id": "af7ac6221579d3f346eaf01d5288fd5a", "rental_uris": {"ios": "https://dc.lft.to/lastmile_qr_scan", "android": "https://dc.lft.to/lastmile_qr_scan"}, "type": "electric_scooter", "lat": 38.900217166666664, "is_disabled": 0, "lon": -77.00673866666666, "is_reserved": 0}, {"name": "5e659ef79f98882f343b38166ebc0e7d", "fusion_lat": 0.0, "fusion_lon": 0.0, "bike_id": "5e659ef79f98882f343b38166ebc0e7d", "rental_uris": {"ios": "https://dc.lft.to/lastmile_qr_scan", "android": "https://dc.lft.to/lastmile_qr_scan"}, "type": "electric_scooter", "lat": 38.884830666666666, "is_disabled": 0, "lon": -76.929577, "is_reserved": 0}, {"name": "d0a9f98d176740c2507a71a5536c840d", "fusion_lat": 0.0, "fusion_lon": 0.0, "bike_id": "d0a9f98d176740c2507a71a5536c840d", "rental_uris": {"ios": "https://dc.lft.to/lastmile_qr_scan", "android": "https://dc.lft.to/lastmile_qr_scan"}, "type": "electric_scooter", "lat": 38.90548783333333, "is_disabled": 0, "lon": -77.04516, "is_reserved": 0}, {"name": "4ffddc0a2d76d8390dba21b65e8f33d7", "fusion_lat": 0.0, "fusion_lon": 0.0, "bike_id": "4ffddc0a2d76d8390dba21b65e8f33d7", "rental_uris": {"ios": "https://dc.lft.to/lastmile_qr_scan", "android": "https://dc.lft.to/lastmile_qr_scan"}, "type": "electric_scooter", "lat": 38.93400883333333, "is_disabled": 0, "lon": -77.04124816666666, "is_reserved": 0}, {"name": "d8abdb00cb05dd940169d096f91b8cd4", "fusion_lat": 0.0, "fusion_lon": 0.0, "bike_id": "d8abdb00cb05dd940169d096f91b8cd4", "rental_uris": {"ios": "https://dc.lft.to/lastmile_qr_scan", "android": "https://dc.lft.to/lastmile_qr_scan"}, "type": "electric_scooter", "lat": 38.899468166666665, "is_disabled": 0, "lon": -77.05462633333333, "is_reserved": 0}, {"name": "5d3f99b04c81ef1631030c5cc32ccc81", "fusion_lat": 0.0, "fusion_lon": 0.0, "bike_id": "5d3f99b04c81ef1631030c5cc32ccc81", "rental_uris": {"ios": "https://dc.lft.to/lastmile_qr_scan", "android": "https://dc.lft.to/lastmile_qr_scan"}, "type": "electric_scooter", "lat": 38.89835466666667, "is_disabled": 0, "lon": -76.94633483333334, "is_reserved": 0}, {"name": "eebce714ccbd5fa88747c5fdc5ae429d", "fusion_lat": 0.0, "fusion_lon": 0.0, "bike_id": "eebce714ccbd5fa88747c5fdc5ae429d", "rental_uris": {"ios": "https://dc.lft.to/lastmile_qr_scan", "android": "https://dc.lft.to/lastmile_qr_scan"}, "type": "electric_scooter", "lat": 38.91180766666667, "is_disabled": 0, "lon": -77.002478, "is_reserved": 0}, {"name": "18cd1dc1c7674ecbf79a6524c32b4aaa", "fusion_lat": 0.0, "fusion_lon": 0.0, "bike_id": "18cd1dc1c7674ecbf79a6524c32b4aaa", "rental_uris": {"ios": "https://dc.lft.to/lastmile_qr_scan", "android": "https://dc.lft.to/lastmile_qr_scan"}, "type": "electric_scooter", "lat": 38.8943135, "is_disabled": 0, "lon": -77.0219575, "is_reserved": 0}, {"name": "482f61eeab32376d70476037645fc5cb", "fusion_lat": 0.0, "fusion_lon": 0.0, "bike_id": "482f61eeab32376d70476037645fc5cb", "rental_uris": {"ios": "https://dc.lft.to/lastmile_qr_scan", "android": "https://dc.lft.to/lastmile_qr_scan"}, "type": "electric_scooter", "lat": 38.90392883333333, "is_disabled": 0, "lon": -77.04886283333333, "is_reserved": 0}, {"name": "51de90caae2efdcfe681a62f68a94206", "fusion_lat": 0.0, "fusion_lon": 0.0, "bike_id": "51de90caae2efdcfe681a62f68a94206", "rental_uris": {"ios": "https://dc.lft.to/lastmile_qr_scan", "android": "https://dc.lft.to/lastmile_qr_scan"}, "type": "electric_scooter", "lat": 38.900254, "is_disabled": 0, "lon": -76.9987305, "is_reserved": 0}, {"name": "8c8321f0ac116c8a183ef03f1eafd78a", "fusion_lat": 0.0, "fusion_lon": 0.0, "bike_id": "8c8321f0ac116c8a183ef03f1eafd78a", "rental_uris": {"ios": "https://dc.lft.to/lastmile_qr_scan", "android": "https://dc.lft.to/lastmile_qr_scan"}, "type": "electric_scooter", "lat": 38.890113666666664, "is_disabled": 0, "lon": -77.04918133333334, "is_reserved": 0}, {"name": "d698d75a716859f3a26863824fc5e260", "fusion_lat": 0.0, "fusion_lon": 0.0, "bike_id": "d698d75a716859f3a26863824fc5e260", "rental_uris": {"ios": "https://dc.lft.to/lastmile_qr_scan", "android": "https://dc.lft.to/lastmile_qr_scan"}, "type": "electric_scooter", "lat": 38.91403733333333, "is_disabled": 0, "lon": -77.0322725, "is_reserved": 0}, {"name": "8cfef3b5b9042174c024aba158bc72be", "fusion_lat": 0.0, "fusion_lon": 0.0, "bike_id": "8cfef3b5b9042174c024aba158bc72be", "rental_uris": {"ios": "https://dc.lft.to/lastmile_qr_scan", "android": "https://dc.lft.to/lastmile_qr_scan"}, "type": "electric_scooter", "lat": 38.906485333333336, "is_disabled": 0, "lon": -77.04537016666667, "is_reserved": 0}, {"name": "8e4f82a1f00ae6637e699584cd3c3698", "fusion_lat": 0.0, "fusion_lon": 0.0, "bike_id": "8e4f82a1f00ae6637e699584cd3c3698", "rental_uris": {"ios": "https://dc.lft.to/lastmile_qr_scan", "android": "https://dc.lft.to/lastmile_qr_scan"}, "type": "electric_scooter", "lat": 38.90549583333333, "is_disabled": 0, "lon": -77.00490666666667, "is_reserved": 0}, {"name": "b37c68be96199f9acce429db7f6aec02", "fusion_lat": 0.0, "fusion_lon": 0.0, "bike_id": "b37c68be96199f9acce429db7f6aec02", "rental_uris": {"ios": "https://dc.lft.to/lastmile_qr_scan", "android": "https://dc.lft.to/lastmile_qr_scan"}, "type": "electric_scooter", "lat": 38.86699133333333, "is_disabled": 0, "lon": -76.98714733333334, "is_reserved": 0}, {"name": "8def0336d56fba280f7d93feb6e91a28", "fusion_lat": 0.0, "fusion_lon": 0.0, "bike_id": "8def0336d56fba280f7d93feb6e91a28", "rental_uris": {"ios": "https://dc.lft.to/lastmile_qr_scan", "android": "https://dc.lft.to/lastmile_qr_scan"}, "type": "electric_scooter", "lat": 38.919698, "is_disabled": 0, "lon": -77.032071, "is_reserved": 0}, {"name": "23741bfbadf4b46a88e542a22f07561b", "fusion_lat": 0.0, "fusion_lon": 0.0, "bike_id": "23741bfbadf4b46a88e542a22f07561b", "rental_uris": {"ios": "https://dc.lft.to/lastmile_qr_scan", "android": "https://dc.lft.to/lastmile_qr_scan"}, "type": "electric_scooter", "lat": 38.91771966666667, "is_disabled": 0, "lon": -77.02957766666667, "is_reserved": 0}, {"name": "64279308983e88ed72cdccaa0ccf0282", "fusion_lat": 0.0, "fusion_lon": 0.0, "bike_id": "64279308983e88ed72cdccaa0ccf0282", "rental_uris": {"ios": "https://dc.lft.to/lastmile_qr_scan", "android": "https://dc.lft.to/lastmile_qr_scan"}, "type": "electric_scooter", "lat": 38.879277, "is_disabled": 0, "lon": -77.00480916666666, "is_reserved": 0}, {"name": "29e983baee3a94c71fae85af60d63d1c", "fusion_lat": 0.0, "fusion_lon": 0.0, "bike_id": "29e983baee3a94c71fae85af60d63d1c", "rental_uris": {"ios": "https://dc.lft.to/lastmile_qr_scan", "android": "https://dc.lft.to/lastmile_qr_scan"}, "type": "electric_scooter", "lat": 38.895838166666664, "is_disabled": 0, "lon": -77.02655966666667, "is_reserved": 0}, {"name": "5048e3c946d0c1392bd1635b1924e58a", "fusion_lat": 0.0, "fusion_lon": 0.0, "bike_id": "5048e3c946d0c1392bd1635b1924e58a", "rental_uris": {"ios": "https://dc.lft.to/lastmile_qr_scan", "android": "https://dc.lft.to/lastmile_qr_scan"}, "type": "electric_scooter", "lat": 38.91709933333333, "is_disabled": 0, "lon": -77.04024233333334, "is_reserved": 0}, {"name": "a276547a9b1da5abeffa451c2c489e92", "fusion_lat": 0.0, "fusion_lon": 0.0, "bike_id": "a276547a9b1da5abeffa451c2c489e92", "rental_uris": {"ios": "https://dc.lft.to/lastmile_qr_scan", "android": "https://dc.lft.to/lastmile_qr_scan"}, "type": "electric_scooter", "lat": 38.925775, "is_disabled": 0, "lon": -77.03213033333333, "is_reserved": 0}, {"name": "2cd9dd0caed52691830e0cd8d56fc25f", "fusion_lat": 0.0, "fusion_lon": 0.0, "bike_id": "2cd9dd0caed52691830e0cd8d56fc25f", "rental_uris": {"ios": "https://dc.lft.to/lastmile_qr_scan", "android": "https://dc.lft.to/lastmile_qr_scan"}, "type": "electric_scooter", "lat": 38.926058166666664, "is_disabled": 0, "lon": -77.02158116666666, "is_reserved": 0}, {"name": "7da832a72070f5a554f762be15b956e6", "fusion_lat": 0.0, "fusion_lon": 0.0, "bike_id": "7da832a72070f5a554f762be15b956e6", "rental_uris": {"ios": "https://dc.lft.to/lastmile_qr_scan", "android": "https://dc.lft.to/lastmile_qr_scan"}, "type": "electric_scooter", "lat": 38.91694066666667, "is_disabled": 0, "lon": -77.02602533333334, "is_reserved": 0}, {"name": "7f75e8f350a03b18aef6e04bfa96751e", "fusion_lat": 0.0, "fusion_lon": 0.0, "bike_id": "7f75e8f350a03b18aef6e04bfa96751e", "rental_uris": {"ios": "https://dc.lft.to/lastmile_qr_scan", "android": "https://dc.lft.to/lastmile_qr_scan"}, "type": "electric_bike", "lat": 39.00784266666667, "is_disabled": 0, "lon": -76.99567166666667, "is_reserved": 0}, {"name": "5b64ba7800c11c942b4baded5d134d14", "fusion_lat": 0.0, "fusion_lon": 0.0, "bike_id": "5b64ba7800c11c942b4baded5d134d14", "rental_uris": {"ios": "https://dc.lft.to/lastmile_qr_scan", "android": "https://dc.lft.to/lastmile_qr_scan"}, "type": "electric_bike", "lat": 38.918562333333334, "is_disabled": 0, "lon": -76.960896, "is_reserved": 0}, {"name": "fc23f2e54309829d2eb8931b6e33bc68", "fusion_lat": 0.0, "fusion_lon": 0.0, "bike_id": "fc23f2e54309829d2eb8931b6e33bc68", "rental_uris": {"ios": "https://dc.lft.to/lastmile_qr_scan", "android": "https://dc.lft.to/lastmile_qr_scan"}, "type": "electric_bike", "lat": 38.9630855, "is_disabled": 0, "lon": -77.057607, "is_reserved": 0}, {"name": "efa6ad102a90ce8a837233ae4833983d", "fusion_lat": 0.0, "fusion_lon": 0.0, "bike_id": "efa6ad102a90ce8a837233ae4833983d", "rental_uris": {"ios": "https://dc.lft.to/lastmile_qr_scan", "android": "https://dc.lft.to/lastmile_qr_scan"}, "type": "electric_bike", "lat": 39.017387, "is_disabled": 0, "lon": -77.06382166666667, "is_reserved": 0}, {"name": "3336f59249321abddfee25f310b6ebf3", "fusion_lat": 0.0, "fusion_lon": 0.0, "bike_id": "3336f59249321abddfee25f310b6ebf3", "rental_uris": {"ios": "https://dc.lft.to/lastmile_qr_scan", "android": "https://dc.lft.to/lastmile_qr_scan"}, "type": "electric_scooter", "lat": 38.922494666666665, "is_disabled": 0, "lon": -77.03082783333333, "is_reserved": 0}, {"name": "848e2d586122f6dd42882f99c8feebe3", "fusion_lat": 0.0, "fusion_lon": 0.0, "bike_id": "848e2d586122f6dd42882f99c8feebe3", "rental_uris": {"ios": "https://dc.lft.to/lastmile_qr_scan", "android": "https://dc.lft.to/lastmile_qr_scan"}, "type": "electric_scooter", "lat": 38.904625833333334, "is_disabled": 0, "lon": -77.0294895, "is_reserved": 0}, {"name": "11e7e17ae6472863ae71db3d15e04b0b", "fusion_lat": 0.0, "fusion_lon": 0.0, "bike_id": "11e7e17ae6472863ae71db3d15e04b0b", "rental_uris": {"ios": "https://dc.lft.to/lastmile_qr_scan", "android": "https://dc.lft.to/lastmile_qr_scan"}, "type": "electric_scooter", "lat": 38.873418666666666, "is_disabled": 0, "lon": -76.96789333333334, "is_reserved": 0}, {"name": "e1a80b778d3de7a41c392f19529ec613", "fusion_lat": 0.0, "fusion_lon": 0.0, "bike_id": "e1a80b778d3de7a41c392f19529ec613", "rental_uris": {"ios": "https://dc.lft.to/lastmile_qr_scan", "android": "https://dc.lft.to/lastmile_qr_scan"}, "type": "electric_scooter", "lat": 38.898017333333335, "is_disabled": 0, "lon": -77.05229366666667, "is_reserved": 0}, {"name": "8883b2fe4b50b0491b6dad090a72c7ca", "fusion_lat": 0.0, "fusion_lon": 0.0, "bike_id": "8883b2fe4b50b0491b6dad090a72c7ca", "rental_uris": {"ios": "https://dc.lft.to/lastmile_qr_scan", "android": "https://dc.lft.to/lastmile_qr_scan"}, "type": "electric_scooter", "lat": 38.9360575, "is_disabled": 0, "lon": -77.058592, "is_reserved": 0}, {"name": "c323076d3cfb7a18099c5b1f44f6ad6d", "fusion_lat": 0.0, "fusion_lon": 0.0, "bike_id": "c323076d3cfb7a18099c5b1f44f6ad6d", "rental_uris": {"ios": "https://dc.lft.to/lastmile_qr_scan", "android": "https://dc.lft.to/lastmile_qr_scan"}, "type": "electric_bike", "lat": 38.95058183333333, "is_disabled": 0, "lon": -76.96736666666666, "is_reserved": 0}, {"name": "0c45680cb3c79782a7bad7bba52a2399", "fusion_lat": 0.0, "fusion_lon": 0.0, "bike_id": "0c45680cb3c79782a7bad7bba52a2399", "rental_uris": {"ios": "https://dc.lft.to/lastmile_qr_scan", "android": "https://dc.lft.to/lastmile_qr_scan"}, "type": "electric_scooter", "lat": 38.86671233333333, "is_disabled": 0, "lon": -76.988876, "is_reserved": 0}, {"name": "3b3d5ce36368f94b96e957c0d1b4ad6f", "fusion_lat": 0.0, "fusion_lon": 0.0, "bike_id": "3b3d5ce36368f94b96e957c0d1b4ad6f", "rental_uris": {"ios": "https://dc.lft.to/lastmile_qr_scan", "android": "https://dc.lft.to/lastmile_qr_scan"}, "type": "electric_scooter", "lat": 38.9013625, "is_disabled": 0, "lon": -77.03050333333333, "is_reserved": 0}, {"name": "5b2edad8cd11eb4c627687880b21cddd", "fusion_lat": 0.0, "fusion_lon": 0.0, "bike_id": "5b2edad8cd11eb4c627687880b21cddd", "rental_uris": {"ios": "https://dc.lft.to/lastmile_qr_scan", "android": "https://dc.lft.to/lastmile_qr_scan"}, "type": "electric_scooter", "lat": 38.88585916666667, "is_disabled": 0, "lon": -77.0176285, "is_reserved": 0}, {"name": "05c43acba655e6708565db39fea4c550", "fusion_lat": 0.0, "fusion_lon": 0.0, "bike_id": "05c43acba655e6708565db39fea4c550", "rental_uris": {"ios": "https://dc.lft.to/lastmile_qr_scan", "android": "https://dc.lft.to/lastmile_qr_scan"}, "type": "electric_scooter", "lat": 38.876278166666665, "is_disabled": 0, "lon": -76.96527783333333, "is_reserved": 0}, {"name": "64df1011753afde3ecf0a649d766e9e0", "fusion_lat": 0.0, "fusion_lon": 0.0, "bike_id": "64df1011753afde3ecf0a649d766e9e0", "rental_uris": {"ios": "https://dc.lft.to/lastmile_qr_scan", "android": "https://dc.lft.to/lastmile_qr_scan"}, "type": "electric_scooter", "lat": 38.88637683333333, "is_disabled": 0, "lon": -77.022507, "is_reserved": 0}, {"name": "252a8081b788f96b4cb2c83e207e9b4b", "fusion_lat": 0.0, "fusion_lon": 0.0, "bike_id": "252a8081b788f96b4cb2c83e207e9b4b", "rental_uris": {"ios": "https://dc.lft.to/lastmile_qr_scan", "android": "https://dc.lft.to/lastmile_qr_scan"}, "type": "electric_scooter", "lat": 38.922427666666664, "is_disabled": 0, "lon": -77.02850666666667, "is_reserved": 0}, {"name": "744c0849bdc87c29f5ec0d9ff3b58bc6", "fusion_lat": 0.0, "fusion_lon": 0.0, "bike_id": "744c0849bdc87c29f5ec0d9ff3b58bc6", "rental_uris": {"ios": "https://dc.lft.to/lastmile_qr_scan", "android": "https://dc.lft.to/lastmile_qr_scan"}, "type": "electric_scooter", "lat": 38.910363333333336, "is_disabled": 0, "lon": -77.03839, "is_reserved": 0}, {"name": "735a52c53f3c3c1c381e4f93c0ef67d8", "fusion_lat": 0.0, "fusion_lon": 0.0, "bike_id": "735a52c53f3c3c1c381e4f93c0ef67d8", "rental_uris": {"ios": "https://dc.lft.to/lastmile_qr_scan", "android": "https://dc.lft.to/lastmile_qr_scan"}, "type": "electric_scooter", "lat": 38.899172666666665, "is_disabled": 0, "lon": -76.9337755, "is_reserved": 0}, {"name": "c3bdb4ece4d9ecc905d5fd43aeb53090", "fusion_lat": 0.0, "fusion_lon": 0.0, "bike_id": "c3bdb4ece4d9ecc905d5fd43aeb53090", "rental_uris": {"ios": "https://dc.lft.to/lastmile_qr_scan", "android": "https://dc.lft.to/lastmile_qr_scan"}, "type": "electric_scooter", "lat": 38.908469833333335, "is_disabled": 0, "lon": -77.012572, "is_reserved": 0}, {"name": "aa70ccc00a2e146685d15785dfde10b8", "fusion_lat": 0.0, "fusion_lon": 0.0, "bike_id": "aa70ccc00a2e146685d15785dfde10b8", "rental_uris": {"ios": "https://dc.lft.to/lastmile_qr_scan", "android": "https://dc.lft.to/lastmile_qr_scan"}, "type": "electric_scooter", "lat": 38.865060666666665, "is_disabled": 0, "lon": -76.990033, "is_reserved": 0}, {"name": "3e0fdfb02c96987c58e78b84b762d49b", "fusion_lat": 0.0, "fusion_lon": 0.0, "bike_id": "3e0fdfb02c96987c58e78b84b762d49b", "rental_uris": {"ios": "https://dc.lft.to/lastmile_qr_scan", "android": "https://dc.lft.to/lastmile_qr_scan"}, "type": "electric_scooter", "lat": 38.895574833333335, "is_disabled": 0, "lon": -77.00920283333333, "is_reserved": 0}, {"name": "b5f6f6bd3346c973bee74eebb72fe39a", "fusion_lat": 0.0, "fusion_lon": 0.0, "bike_id": "b5f6f6bd3346c973bee74eebb72fe39a", "rental_uris": {"ios": "https://dc.lft.to/lastmile_qr_scan", "android": "https://dc.lft.to/lastmile_qr_scan"}, "type": "electric_scooter", "lat": 38.917434, "is_disabled": 0, "lon": -77.03664033333334, "is_reserved": 0}, {"name": "99bdd7c100dbdb197da7dbf0e2e2826a", "fusion_lat": 0.0, "fusion_lon": 0.0, "bike_id": "99bdd7c100dbdb197da7dbf0e2e2826a", "rental_uris": {"ios": "https://dc.lft.to/lastmile_qr_scan", "android": "https://dc.lft.to/lastmile_qr_scan"}, "type": "electric_scooter", "lat": 38.93957983333333, "is_disabled": 0, "lon": -77.02775783333334, "is_reserved": 0}, {"name": "6b3f838a2bd13bc679f8449653c4a1ee", "fusion_lat": 0.0, "fusion_lon": 0.0, "bike_id": "6b3f838a2bd13bc679f8449653c4a1ee", "rental_uris": {"ios": "https://dc.lft.to/lastmile_qr_scan", "android": "https://dc.lft.to/lastmile_qr_scan"}, "type": "electric_scooter", "lat": 38.91497316666667, "is_disabled": 0, "lon": -77.00778466666667, "is_reserved": 0}, {"name": "275f8ea6a1e3ea484fd35e7c42d1008a", "fusion_lat": 0.0, "fusion_lon": 0.0, "bike_id": "275f8ea6a1e3ea484fd35e7c42d1008a", "rental_uris": {"ios": "https://dc.lft.to/lastmile_qr_scan", "android": "https://dc.lft.to/lastmile_qr_scan"}, "type": "electric_scooter", "lat": 38.846224666666664, "is_disabled": 0, "lon": -76.99630966666666, "is_reserved": 0}, {"name": "f379650028364b9f59a8b5ff01b822fb", "fusion_lat": 0.0, "fusion_lon": 0.0, "bike_id": "f379650028364b9f59a8b5ff01b822fb", "rental_uris": {"ios": "https://dc.lft.to/lastmile_qr_scan", "android": "https://dc.lft.to/lastmile_qr_scan"}, "type": "electric_scooter", "lat": 38.8984385, "is_disabled": 0, "lon": -77.0312155, "is_reserved": 0}, {"name": "9855a448f079fa629d078b5e8b037b42", "fusion_lat": 0.0, "fusion_lon": 0.0, "bike_id": "9855a448f079fa629d078b5e8b037b42", "rental_uris": {"ios": "https://dc.lft.to/lastmile_qr_scan", "android": "https://dc.lft.to/lastmile_qr_scan"}, "type": "electric_scooter", "lat": 38.92325683333333, "is_disabled": 0, "lon": -76.99907666666667, "is_reserved": 0}, {"name": "0f2f423e7b7ad4b0aac38989ca17496c", "fusion_lat": 0.0, "fusion_lon": 0.0, "bike_id": "0f2f423e7b7ad4b0aac38989ca17496c", "rental_uris": {"ios": "https://dc.lft.to/lastmile_qr_scan", "android": "https://dc.lft.to/lastmile_qr_scan"}, "type": "electric_scooter", "lat": 38.86361766666667, "is_disabled": 0, "lon": -76.99062333333333, "is_reserved": 0}, {"name": "fde3061e8dd5c6f828c7df03fb431d8a", "fusion_lat": 0.0, "fusion_lon": 0.0, "bike_id": "fde3061e8dd5c6f828c7df03fb431d8a", "rental_uris": {"ios": "https://dc.lft.to/lastmile_qr_scan", "android": "https://dc.lft.to/lastmile_qr_scan"}, "type": "electric_scooter", "lat": 38.89736883333333, "is_disabled": 0, "lon": -77.03191316666667, "is_reserved": 0}, {"name": "bb24c3d01cd1d951c58d1313be63fbc6", "fusion_lat": 0.0, "fusion_lon": 0.0, "bike_id": "bb24c3d01cd1d951c58d1313be63fbc6", "rental_uris": {"ios": "https://dc.lft.to/lastmile_qr_scan", "android": "https://dc.lft.to/lastmile_qr_scan"}, "type": "electric_scooter", "lat": 38.89950966666667, "is_disabled": 0, "lon": -77.003488, "is_reserved": 0}, {"name": "95b7d2aa6289f72bced2f27e12e714fb", "fusion_lat": 0.0, "fusion_lon": 0.0, "bike_id": "95b7d2aa6289f72bced2f27e12e714fb", "rental_uris": {"ios": "https://dc.lft.to/lastmile_qr_scan", "android": "https://dc.lft.to/lastmile_qr_scan"}, "type": "electric_scooter", "lat": 38.94524083333334, "is_disabled": 0, "lon": -77.029859, "is_reserved": 0}, {"name": "05f9e7780cf24c7cf58d36f5daed537e", "fusion_lat": 0.0, "fusion_lon": 0.0, "bike_id": "05f9e7780cf24c7cf58d36f5daed537e", "rental_uris": {"ios": "https://dc.lft.to/lastmile_qr_scan", "android": "https://dc.lft.to/lastmile_qr_scan"}, "type": "electric_bike", "lat": 38.882822, "is_disabled": 0, "lon": -76.99528433333333, "is_reserved": 0}, {"name": "0dca50a5c116e6711222fccd747f08e5", "fusion_lat": 0.0, "fusion_lon": 0.0, "bike_id": "0dca50a5c116e6711222fccd747f08e5", "rental_uris": {"ios": "https://dc.lft.to/lastmile_qr_scan", "android": "https://dc.lft.to/lastmile_qr_scan"}, "type": "electric_bike", "lat": 38.83094883333333, "is_disabled": 0, "lon": -77.042961, "is_reserved": 0}, {"name": "260289eee803933bc1224795882dcb16", "fusion_lat": 0.0, "fusion_lon": 0.0, "bike_id": "260289eee803933bc1224795882dcb16", "rental_uris": {"ios": "https://dc.lft.to/lastmile_qr_scan", "android": "https://dc.lft.to/lastmile_qr_scan"}, "type": "electric_scooter", "lat": 38.91536283333333, "is_disabled": 0, "lon": -77.02203833333333, "is_reserved": 0}, {"name": "d93a24d32bf36794f1bc32f20dc3328e", "fusion_lat": 0.0, "fusion_lon": 0.0, "bike_id": "d93a24d32bf36794f1bc32f20dc3328e", "rental_uris": {"ios": "https://dc.lft.to/lastmile_qr_scan", "android": "https://dc.lft.to/lastmile_qr_scan"}, "type": "electric_scooter", "lat": 38.901037333333335, "is_disabled": 0, "lon": -77.03242783333333, "is_reserved": 0}, {"name": "1b19d0875eee93c6d710a5b93cf64cbc", "fusion_lat": 0.0, "fusion_lon": 0.0, "bike_id": "1b19d0875eee93c6d710a5b93cf64cbc", "rental_uris": {"ios": "https://dc.lft.to/lastmile_qr_scan", "android": "https://dc.lft.to/lastmile_qr_scan"}, "type": "electric_scooter", "lat": 38.9142555, "is_disabled": 0, "lon": -77.03903433333333, "is_reserved": 0}, {"name": "423970a095706ae1d14fd616505d06c4", "fusion_lat": 0.0, "fusion_lon": 0.0, "bike_id": "423970a095706ae1d14fd616505d06c4", "rental_uris": {"ios": "https://dc.lft.to/lastmile_qr_scan", "android": "https://dc.lft.to/lastmile_qr_scan"}, "type": "electric_scooter", "lat": 38.89774366666666, "is_disabled": 0, "lon": -77.00748066666667, "is_reserved": 0}, {"name": "7b492efea900e6dc43ae5f7bc0e4a807", "fusion_lat": 0.0, "fusion_lon": 0.0, "bike_id": "7b492efea900e6dc43ae5f7bc0e4a807", "rental_uris": {"ios": "https://dc.lft.to/lastmile_qr_scan", "android": "https://dc.lft.to/lastmile_qr_scan"}, "type": "electric_scooter", "lat": 38.91750866666667, "is_disabled": 0, "lon": -77.02491433333333, "is_reserved": 0}, {"name": "aa930cd8f0c63283808174b2d29f2301", "fusion_lat": 0.0, "fusion_lon": 0.0, "bike_id": "aa930cd8f0c63283808174b2d29f2301", "rental_uris": {"ios": "https://dc.lft.to/lastmile_qr_scan", "android": "https://dc.lft.to/lastmile_qr_scan"}, "type": "electric_bike", "lat": 38.998378333333335, "is_disabled": 0, "lon": -77.02883133333333, "is_reserved": 0}, {"name": "4eaec0647b1aaae1092af9cd47d60052", "fusion_lat": 0.0, "fusion_lon": 0.0, "bike_id": "4eaec0647b1aaae1092af9cd47d60052", "rental_uris": {"ios": "https://dc.lft.to/lastmile_qr_scan", "android": "https://dc.lft.to/lastmile_qr_scan"}, "type": "electric_scooter", "lat": 38.885028, "is_disabled": 0, "lon": -77.00568516666667, "is_reserved": 0}, {"name": "bd364d1fa8b537570cbcc133f278f42a", "fusion_lat": 0.0, "fusion_lon": 0.0, "bike_id": "bd364d1fa8b537570cbcc133f278f42a", "rental_uris": {"ios": "https://dc.lft.to/lastmile_qr_scan", "android": "https://dc.lft.to/lastmile_qr_scan"}, "type": "electric_bike", "lat": 38.931923166666664, "is_disabled": 0, "lon": -77.229351, "is_reserved": 0}, {"name": "8de42eeb5ec2304acaa8d1715da369af", "fusion_lat": 0.0, "fusion_lon": 0.0, "bike_id": "8de42eeb5ec2304acaa8d1715da369af", "rental_uris": {"ios": "https://dc.lft.to/lastmile_qr_scan", "android": "https://dc.lft.to/lastmile_qr_scan"}, "type": "electric_bike", "lat": 38.868599333333336, "is_disabled": 0, "lon": -76.91657233333333, "is_reserved": 0}, {"name": "7533c9926a0f807fa8009e1c1f7cf32c", "fusion_lat": 0.0, "fusion_lon": 0.0, "bike_id": "7533c9926a0f807fa8009e1c1f7cf32c", "rental_uris": {"ios": "https://dc.lft.to/lastmile_qr_scan", "android": "https://dc.lft.to/lastmile_qr_scan"}, "type": "electric_scooter", "lat": 38.934113833333335, "is_disabled": 0, "lon": -77.0426685, "is_reserved": 0}, {"name": "44d8e9d0f5594e2c8e49a0c733c6694a", "fusion_lat": 0.0, "fusion_lon": 0.0, "bike_id": "44d8e9d0f5594e2c8e49a0c733c6694a", "rental_uris": {"ios": "https://dc.lft.to/lastmile_qr_scan", "android": "https://dc.lft.to/lastmile_qr_scan"}, "type": "electric_scooter", "lat": 38.87175583333333, "is_disabled": 0, "lon": -77.00624333333333, "is_reserved": 0}, {"name": "be0179cb9d600dd8e4b56d00f5cac86a", "fusion_lat": 0.0, "fusion_lon": 0.0, "bike_id": "be0179cb9d600dd8e4b56d00f5cac86a", "rental_uris": {"ios": "https://dc.lft.to/lastmile_qr_scan", "android": "https://dc.lft.to/lastmile_qr_scan"}, "type": "electric_bike", "lat": 38.90685, "is_disabled": 0, "lon": -76.95194666666667, "is_reserved": 0}, {"name": "d2b1214b88745428fc2167e33b54fb9c", "fusion_lat": 0.0, "fusion_lon": 0.0, "bike_id": "d2b1214b88745428fc2167e33b54fb9c", "rental_uris": {"ios": "https://dc.lft.to/lastmile_qr_scan", "android": "https://dc.lft.to/lastmile_qr_scan"}, "type": "electric_scooter", "lat": 38.9311965, "is_disabled": 0, "lon": -77.02650016666666, "is_reserved": 0}, {"name": "eb02ce4214c6b0bd7dc8ee37d9c1a5a3", "fusion_lat": 0.0, "fusion_lon": 0.0, "bike_id": "eb02ce4214c6b0bd7dc8ee37d9c1a5a3", "rental_uris": {"ios": "https://dc.lft.to/lastmile_qr_scan", "android": "https://dc.lft.to/lastmile_qr_scan"}, "type": "electric_scooter", "lat": 38.907995666666665, "is_disabled": 0, "lon": -77.04986266666667, "is_reserved": 0}, {"name": "e5236857a6aefe11b46f37cd7bf53d76", "fusion_lat": 0.0, "fusion_lon": 0.0, "bike_id": "e5236857a6aefe11b46f37cd7bf53d76", "rental_uris": {"ios": "https://dc.lft.to/lastmile_qr_scan", "android": "https://dc.lft.to/lastmile_qr_scan"}, "type": "electric_scooter", "lat": 38.920928, "is_disabled": 0, "lon": -77.02597, "is_reserved": 0}, {"name": "ef0372540188e49b8d6f0b452a2787ae", "fusion_lat": 0.0, "fusion_lon": 0.0, "bike_id": "ef0372540188e49b8d6f0b452a2787ae", "rental_uris": {"ios": "https://dc.lft.to/lastmile_qr_scan", "android": "https://dc.lft.to/lastmile_qr_scan"}, "type": "electric_scooter", "lat": 38.877091, "is_disabled": 0, "lon": -77.01667116666667, "is_reserved": 0}, {"name": "9174d0d0a7214a943ed346611bf425e5", "fusion_lat": 0.0, "fusion_lon": 0.0, "bike_id": "9174d0d0a7214a943ed346611bf425e5", "rental_uris": {"ios": "https://dc.lft.to/lastmile_qr_scan", "android": "https://dc.lft.to/lastmile_qr_scan"}, "type": "electric_scooter", "lat": 38.882952, "is_disabled": 0, "lon": -76.99500933333333, "is_reserved": 0}, {"name": "d62e33d5dfa3ac6523dfe44c6da1fd48", "fusion_lat": 0.0, "fusion_lon": 0.0, "bike_id": "d62e33d5dfa3ac6523dfe44c6da1fd48", "rental_uris": {"ios": "https://dc.lft.to/lastmile_qr_scan", "android": "https://dc.lft.to/lastmile_qr_scan"}, "type": "electric_scooter", "lat": 38.911794, "is_disabled": 0, "lon": -77.00255466666667, "is_reserved": 0}, {"name": "ff761d8b6a5ca584b27f9ffd9babffe0", "fusion_lat": 0.0, "fusion_lon": 0.0, "bike_id": "ff761d8b6a5ca584b27f9ffd9babffe0", "rental_uris": {"ios": "https://dc.lft.to/lastmile_qr_scan", "android": "https://dc.lft.to/lastmile_qr_scan"}, "type": "electric_scooter", "lat": 38.9037395, "is_disabled": 0, "lon": -77.03458, "is_reserved": 0}, {"name": "a488ae5f3a84d0b8543615d55ea16e9c", "fusion_lat": 0.0, "fusion_lon": 0.0, "bike_id": "a488ae5f3a84d0b8543615d55ea16e9c", "rental_uris": {"ios": "https://dc.lft.to/lastmile_qr_scan", "android": "https://dc.lft.to/lastmile_qr_scan"}, "type": "electric_scooter", "lat": 38.8845045, "is_disabled": 0, "lon": -76.9509675, "is_reserved": 0}, {"name": "7b6e4f514e2b6e1c195ba63aeee9abdf", "fusion_lat": 0.0, "fusion_lon": 0.0, "bike_id": "7b6e4f514e2b6e1c195ba63aeee9abdf", "rental_uris": {"ios": "https://dc.lft.to/lastmile_qr_scan", "android": "https://dc.lft.to/lastmile_qr_scan"}, "type": "electric_scooter", "lat": 38.918293, "is_disabled": 0, "lon": -77.04537416666666, "is_reserved": 0}, {"name": "1960d0908de3db6ca0454573b312e07e", "fusion_lat": 0.0, "fusion_lon": 0.0, "bike_id": "1960d0908de3db6ca0454573b312e07e", "rental_uris": {"ios": "https://dc.lft.to/lastmile_qr_scan", "android": "https://dc.lft.to/lastmile_qr_scan"}, "type": "electric_scooter", "lat": 38.915832333333334, "is_disabled": 0, "lon": -77.02001466666667, "is_reserved": 0}, {"name": "0d4269aad0dc3ec4a5b9381858bf53c7", "fusion_lat": 0.0, "fusion_lon": 0.0, "bike_id": "0d4269aad0dc3ec4a5b9381858bf53c7", "rental_uris": {"ios": "https://dc.lft.to/lastmile_qr_scan", "android": "https://dc.lft.to/lastmile_qr_scan"}, "type": "electric_scooter", "lat": 38.9272975, "is_disabled": 0, "lon": -76.97880333333333, "is_reserved": 0}, {"name": "fd117d6af38d03f1eb5d4e9469b03899", "fusion_lat": 0.0, "fusion_lon": 0.0, "bike_id": "fd117d6af38d03f1eb5d4e9469b03899", "rental_uris": {"ios": "https://dc.lft.to/lastmile_qr_scan", "android": "https://dc.lft.to/lastmile_qr_scan"}, "type": "electric_scooter", "lat": 38.885839833333335, "is_disabled": 0, "lon": -77.01226333333334, "is_reserved": 0}, {"name": "7b1c867c71b95da4b0ab59dde9ed1984", "fusion_lat": 0.0, "fusion_lon": 0.0, "bike_id": "7b1c867c71b95da4b0ab59dde9ed1984", "rental_uris": {"ios": "https://dc.lft.to/lastmile_qr_scan", "android": "https://dc.lft.to/lastmile_qr_scan"}, "type": "electric_scooter", "lat": 38.9104505, "is_disabled": 0, "lon": -77.0361585, "is_reserved": 0}, {"name": "21ac9bef9655566cf0b2af09284bf2a7", "fusion_lat": 0.0, "fusion_lon": 0.0, "bike_id": "21ac9bef9655566cf0b2af09284bf2a7", "rental_uris": {"ios": "https://dc.lft.to/lastmile_qr_scan", "android": "https://dc.lft.to/lastmile_qr_scan"}, "type": "electric_scooter", "lat": 38.916118166666664, "is_disabled": 0, "lon": -77.02309683333333, "is_reserved": 0}, {"name": "e92cf05c5fa64c98db692cedf3464e7b", "fusion_lat": 0.0, "fusion_lon": 0.0, "bike_id": "e92cf05c5fa64c98db692cedf3464e7b", "rental_uris": {"ios": "https://dc.lft.to/lastmile_qr_scan", "android": "https://dc.lft.to/lastmile_qr_scan"}, "type": "electric_scooter", "lat": 38.89602566666667, "is_disabled": 0, "lon": -77.05435816666666, "is_reserved": 0}, {"name": "ef96e217f9d9d802c238112e4593d860", "fusion_lat": 0.0, "fusion_lon": 0.0, "bike_id": "ef96e217f9d9d802c238112e4593d860", "rental_uris": {"ios": "https://dc.lft.to/lastmile_qr_scan", "android": "https://dc.lft.to/lastmile_qr_scan"}, "type": "electric_bike", "lat": 38.903279, "is_disabled": 0, "lon": -76.97532583333333, "is_reserved": 0}, {"name": "a617fdf976efe3fb89150faa158f6dc6", "fusion_lat": 0.0, "fusion_lon": 0.0, "bike_id": "a617fdf976efe3fb89150faa158f6dc6", "rental_uris": {"ios": "https://dc.lft.to/lastmile_qr_scan", "android": "https://dc.lft.to/lastmile_qr_scan"}, "type": "electric_scooter", "lat": 38.915981333333335, "is_disabled": 0, "lon": -77.02354083333333, "is_reserved": 0}, {"name": "b68ce9edb9264a991fd069964bdebb8f", "fusion_lat": 0.0, "fusion_lon": 0.0, "bike_id": "b68ce9edb9264a991fd069964bdebb8f", "rental_uris": {"ios": "https://dc.lft.to/lastmile_qr_scan", "android": "https://dc.lft.to/lastmile_qr_scan"}, "type": "electric_bike", "lat": 39.028684, "is_disabled": 0, "lon": -77.104406, "is_reserved": 0}, {"name": "35c5a7af13db55d61557957c4e9c50fb", "fusion_lat": 0.0, "fusion_lon": 0.0, "bike_id": "35c5a7af13db55d61557957c4e9c50fb", "rental_uris": {"ios": "https://dc.lft.to/lastmile_qr_scan", "android": "https://dc.lft.to/lastmile_qr_scan"}, "type": "electric_scooter", "lat": 38.88519566666667, "is_disabled": 0, "lon": -76.94824216666666, "is_reserved": 0}, {"name": "59117dabd5929582206585e3dc27edf5", "fusion_lat": 0.0, "fusion_lon": 0.0, "bike_id": "59117dabd5929582206585e3dc27edf5", "rental_uris": {"ios": "https://dc.lft.to/lastmile_qr_scan", "android": "https://dc.lft.to/lastmile_qr_scan"}, "type": "electric_scooter", "lat": 38.862559166666664, "is_disabled": 0, "lon": -76.99536533333334, "is_reserved": 0}, {"name": "17b58317ec2bff9f68213458c3b182c3", "fusion_lat": 0.0, "fusion_lon": 0.0, "bike_id": "17b58317ec2bff9f68213458c3b182c3", "rental_uris": {"ios": "https://dc.lft.to/lastmile_qr_scan", "android": "https://dc.lft.to/lastmile_qr_scan"}, "type": "electric_scooter", "lat": 38.908705, "is_disabled": 0, "lon": -77.0242535, "is_reserved": 0}, {"name": "9b12255b5119049e00bff9907b846172", "fusion_lat": 0.0, "fusion_lon": 0.0, "bike_id": "9b12255b5119049e00bff9907b846172", "rental_uris": {"ios": "https://dc.lft.to/lastmile_qr_scan", "android": "https://dc.lft.to/lastmile_qr_scan"}, "type": "electric_scooter", "lat": 38.90605683333333, "is_disabled": 0, "lon": -77.000745, "is_reserved": 0}, {"name": "408155066c49459f58cbc81883b4a3ce", "fusion_lat": 0.0, "fusion_lon": 0.0, "bike_id": "408155066c49459f58cbc81883b4a3ce", "rental_uris": {"ios": "https://dc.lft.to/lastmile_qr_scan", "android": "https://dc.lft.to/lastmile_qr_scan"}, "type": "electric_bike", "lat": 38.876558333333335, "is_disabled": 0, "lon": -77.00410383333333, "is_reserved": 0}, {"name": "1eeb3a1dbf337fcba4a60efad84f9afc", "fusion_lat": 0.0, "fusion_lon": 0.0, "bike_id": "1eeb3a1dbf337fcba4a60efad84f9afc", "rental_uris": {"ios": "https://dc.lft.to/lastmile_qr_scan", "android": "https://dc.lft.to/lastmile_qr_scan"}, "type": "electric_scooter", "lat": 38.91549833333333, "is_disabled": 0, "lon": -76.98379433333334, "is_reserved": 0}, {"name": "ea9470c23d39c6a18af5a85e120f6daf", "fusion_lat": 0.0, "fusion_lon": 0.0, "bike_id": "ea9470c23d39c6a18af5a85e120f6daf", "rental_uris": {"ios": "https://dc.lft.to/lastmile_qr_scan", "android": "https://dc.lft.to/lastmile_qr_scan"}, "type": "electric_scooter", "lat": 38.88494816666667, "is_disabled": 0, "lon": -77.00716216666666, "is_reserved": 0}, {"name": "996342cb3a9bd679ac7e6335a25fccc7", "fusion_lat": 0.0, "fusion_lon": 0.0, "bike_id": "996342cb3a9bd679ac7e6335a25fccc7", "rental_uris": {"ios": "https://dc.lft.to/lastmile_qr_scan", "android": "https://dc.lft.to/lastmile_qr_scan"}, "type": "electric_scooter", "lat": 38.88739666666667, "is_disabled": 0, "lon": -77.01537266666666, "is_reserved": 0}, {"name": "50ba90f54229b73553f63b3efd924325", "fusion_lat": 0.0, "fusion_lon": 0.0, "bike_id": "50ba90f54229b73553f63b3efd924325", "rental_uris": {"ios": "https://dc.lft.to/lastmile_qr_scan", "android": "https://dc.lft.to/lastmile_qr_scan"}, "type": "electric_bike", "lat": 38.8030175, "is_disabled": 0, "lon": -77.03988133333333, "is_reserved": 0}, {"name": "d1f9c30607ac5d7303a55f7a86d42d27", "fusion_lat": 0.0, "fusion_lon": 0.0, "bike_id": "d1f9c30607ac5d7303a55f7a86d42d27", "rental_uris": {"ios": "https://dc.lft.to/lastmile_qr_scan", "android": "https://dc.lft.to/lastmile_qr_scan"}, "type": "electric_scooter", "lat": 38.92787083333333, "is_disabled": 0, "lon": -77.02745466666667, "is_reserved": 0}, {"name": "1f0713a528944b1405acc82aa7f939a7", "fusion_lat": 0.0, "fusion_lon": 0.0, "bike_id": "1f0713a528944b1405acc82aa7f939a7", "rental_uris": {"ios": "https://dc.lft.to/lastmile_qr_scan", "android": "https://dc.lft.to/lastmile_qr_scan"}, "type": "electric_scooter", "lat": 38.9350485, "is_disabled": 0, "lon": -77.0240885, "is_reserved": 0}, {"name": "af68ce767c606bb27e2e5e2ec3782bfa", "fusion_lat": 0.0, "fusion_lon": 0.0, "bike_id": "af68ce767c606bb27e2e5e2ec3782bfa", "rental_uris": {"ios": "https://dc.lft.to/lastmile_qr_scan", "android": "https://dc.lft.to/lastmile_qr_scan"}, "type": "electric_scooter", "lat": 38.918103, "is_disabled": 0, "lon": -77.03563116666666, "is_reserved": 0}, {"name": "4adb6d8a0de2b0b885359a8a9b115786", "fusion_lat": 0.0, "fusion_lon": 0.0, "bike_id": "4adb6d8a0de2b0b885359a8a9b115786", "rental_uris": {"ios": "https://dc.lft.to/lastmile_qr_scan", "android": "https://dc.lft.to/lastmile_qr_scan"}, "type": "electric_scooter", "lat": 38.924776666666666, "is_disabled": 0, "lon": -77.0300045, "is_reserved": 0}, {"name": "deabebec3bf6c345ef44975e3d8f891c", "fusion_lat": 0.0, "fusion_lon": 0.0, "bike_id": "deabebec3bf6c345ef44975e3d8f891c", "rental_uris": {"ios": "https://dc.lft.to/lastmile_qr_scan", "android": "https://dc.lft.to/lastmile_qr_scan"}, "type": "electric_scooter", "lat": 38.89721516666667, "is_disabled": 0, "lon": -77.0288875, "is_reserved": 0}, {"name": "1b034fbdfc1da7260873923da01e718a", "fusion_lat": 0.0, "fusion_lon": 0.0, "bike_id": "1b034fbdfc1da7260873923da01e718a", "rental_uris": {"ios": "https://dc.lft.to/lastmile_qr_scan", "android": "https://dc.lft.to/lastmile_qr_scan"}, "type": "electric_bike", "lat": 38.91685916666667, "is_disabled": 0, "lon": -77.095833, "is_reserved": 0}, {"name": "e2bf4da7710d0aca6039ea5069473e6f", "fusion_lat": 0.0, "fusion_lon": 0.0, "bike_id": "e2bf4da7710d0aca6039ea5069473e6f", "rental_uris": {"ios": "https://dc.lft.to/lastmile_qr_scan", "android": "https://dc.lft.to/lastmile_qr_scan"}, "type": "electric_scooter", "lat": 38.91036066666667, "is_disabled": 0, "lon": -77.04057083333333, "is_reserved": 0}, {"name": "431eba14a84c2f2099544993b7a10bac", "fusion_lat": 0.0, "fusion_lon": 0.0, "bike_id": "431eba14a84c2f2099544993b7a10bac", "rental_uris": {"ios": "https://dc.lft.to/lastmile_qr_scan", "android": "https://dc.lft.to/lastmile_qr_scan"}, "type": "electric_bike", "lat": 38.89851733333333, "is_disabled": 0, "lon": -77.02465433333333, "is_reserved": 0}, {"name": "03f7d02a881e07179709115341fc1de0", "fusion_lat": 0.0, "fusion_lon": 0.0, "bike_id": "03f7d02a881e07179709115341fc1de0", "rental_uris": {"ios": "https://dc.lft.to/lastmile_qr_scan", "android": "https://dc.lft.to/lastmile_qr_scan"}, "type": "electric_scooter", "lat": 38.89875516666667, "is_disabled": 0, "lon": -76.93186666666666, "is_reserved": 0}, {"name": "196ba9c32ab9b29fb9d7be87d962a61e", "fusion_lat": 0.0, "fusion_lon": 0.0, "bike_id": "196ba9c32ab9b29fb9d7be87d962a61e", "rental_uris": {"ios": "https://dc.lft.to/lastmile_qr_scan", "android": "https://dc.lft.to/lastmile_qr_scan"}, "type": "electric_scooter", "lat": 38.887646833333335, "is_disabled": 0, "lon": -76.95673366666666, "is_reserved": 0}, {"name": "d6c9a66651d5f05a08ce7232ce9e9150", "fusion_lat": 0.0, "fusion_lon": 0.0, "bike_id": "d6c9a66651d5f05a08ce7232ce9e9150", "rental_uris": {"ios": "https://dc.lft.to/lastmile_qr_scan", "android": "https://dc.lft.to/lastmile_qr_scan"}, "type": "electric_scooter", "lat": 38.92622716666666, "is_disabled": 0, "lon": -77.05711383333333, "is_reserved": 0}, {"name": "38e8c454d4e0ee2cf40aa522f5983fc6", "fusion_lat": 0.0, "fusion_lon": 0.0, "bike_id": "38e8c454d4e0ee2cf40aa522f5983fc6", "rental_uris": {"ios": "https://dc.lft.to/lastmile_qr_scan", "android": "https://dc.lft.to/lastmile_qr_scan"}, "type": "electric_scooter", "lat": 38.899741166666665, "is_disabled": 0, "lon": -76.99510983333333, "is_reserved": 0}, {"name": "7ffe7b382829e435b815c9dd7b72a0df", "fusion_lat": 0.0, "fusion_lon": 0.0, "bike_id": "7ffe7b382829e435b815c9dd7b72a0df", "rental_uris": {"ios": "https://dc.lft.to/lastmile_qr_scan", "android": "https://dc.lft.to/lastmile_qr_scan"}, "type": "electric_bike", "lat": 38.965009333333334, "is_disabled": 0, "lon": -77.02709166666666, "is_reserved": 0}, {"name": "038c35e8e74b3b567653c959e5929786", "fusion_lat": 0.0, "fusion_lon": 0.0, "bike_id": "038c35e8e74b3b567653c959e5929786", "rental_uris": {"ios": "https://dc.lft.to/lastmile_qr_scan", "android": "https://dc.lft.to/lastmile_qr_scan"}, "type": "electric_scooter", "lat": 38.9031595, "is_disabled": 0, "lon": -76.97804116666667, "is_reserved": 0}, {"name": "e53cf4ecf58ca1b459c618656fb58e48", "fusion_lat": 0.0, "fusion_lon": 0.0, "bike_id": "e53cf4ecf58ca1b459c618656fb58e48", "rental_uris": {"ios": "https://dc.lft.to/lastmile_qr_scan", "android": "https://dc.lft.to/lastmile_qr_scan"}, "type": "electric_bike", "lat": 38.95970716666667, "is_disabled": 0, "lon": -76.98149883333333, "is_reserved": 0}, {"name": "a9d42ec2b04e941f6488ab703fe09ebd", "fusion_lat": 0.0, "fusion_lon": 0.0, "bike_id": "a9d42ec2b04e941f6488ab703fe09ebd", "rental_uris": {"ios": "https://dc.lft.to/lastmile_qr_scan", "android": "https://dc.lft.to/lastmile_qr_scan"}, "type": "electric_scooter", "lat": 38.94442866666667, "is_disabled": 0, "lon": -77.06405516666666, "is_reserved": 0}, {"name": "a7d4a269af54e777c52139bf3ce5511a", "fusion_lat": 0.0, "fusion_lon": 0.0, "bike_id": "a7d4a269af54e777c52139bf3ce5511a", "rental_uris": {"ios": "https://dc.lft.to/lastmile_qr_scan", "android": "https://dc.lft.to/lastmile_qr_scan"}, "type": "electric_scooter", "lat": 38.90011283333333, "is_disabled": 0, "lon": -77.0115925, "is_reserved": 0}, {"name": "254f5f34b33e07f45d25906fdddc9d01", "fusion_lat": 0.0, "fusion_lon": 0.0, "bike_id": "254f5f34b33e07f45d25906fdddc9d01", "rental_uris": {"ios": "https://dc.lft.to/lastmile_qr_scan", "android": "https://dc.lft.to/lastmile_qr_scan"}, "type": "electric_bike", "lat": 38.855472166666665, "is_disabled": 0, "lon": -77.10716183333334, "is_reserved": 0}, {"name": "33961c2f4a587a69eaac72e3d034d76f", "fusion_lat": 0.0, "fusion_lon": 0.0, "bike_id": "33961c2f4a587a69eaac72e3d034d76f", "rental_uris": {"ios": "https://dc.lft.to/lastmile_qr_scan", "android": "https://dc.lft.to/lastmile_qr_scan"}, "type": "electric_bike", "lat": 38.841935, "is_disabled": 0, "lon": -77.0775165, "is_reserved": 0}, {"name": "1677a1290c1f2400938e3c25244fb455", "fusion_lat": 0.0, "fusion_lon": 0.0, "bike_id": "1677a1290c1f2400938e3c25244fb455", "rental_uris": {"ios": "https://dc.lft.to/lastmile_qr_scan", "android": "https://dc.lft.to/lastmile_qr_scan"}, "type": "electric_scooter", "lat": 38.900149, "is_disabled": 0, "lon": -76.99596333333334, "is_reserved": 0}, {"name": "9798b0c16fc6d838fb468e2afe6b89d2", "fusion_lat": 0.0, "fusion_lon": 0.0, "bike_id": "9798b0c16fc6d838fb468e2afe6b89d2", "rental_uris": {"ios": "https://dc.lft.to/lastmile_qr_scan", "android": "https://dc.lft.to/lastmile_qr_scan"}, "type": "electric_scooter", "lat": 38.903757666666664, "is_disabled": 0, "lon": -77.01852233333334, "is_reserved": 0}, {"name": "59dc8af424976b14d0f1de41ebb615cc", "fusion_lat": 0.0, "fusion_lon": 0.0, "bike_id": "59dc8af424976b14d0f1de41ebb615cc", "rental_uris": {"ios": "https://dc.lft.to/lastmile_qr_scan", "android": "https://dc.lft.to/lastmile_qr_scan"}, "type": "electric_scooter", "lat": 38.895129833333336, "is_disabled": 0, "lon": -76.9488895, "is_reserved": 0}, {"name": "f6537d2f808736c71782f46c33538d15", "fusion_lat": 0.0, "fusion_lon": 0.0, "bike_id": "f6537d2f808736c71782f46c33538d15", "rental_uris": {"ios": "https://dc.lft.to/lastmile_qr_scan", "android": "https://dc.lft.to/lastmile_qr_scan"}, "type": "electric_scooter", "lat": 38.8604085, "is_disabled": 0, "lon": -76.9968625, "is_reserved": 0}, {"name": "b58a2bdfd11908bf5d391a3eef0236a7", "fusion_lat": 0.0, "fusion_lon": 0.0, "bike_id": "b58a2bdfd11908bf5d391a3eef0236a7", "rental_uris": {"ios": "https://dc.lft.to/lastmile_qr_scan", "android": "https://dc.lft.to/lastmile_qr_scan"}, "type": "electric_scooter", "lat": 38.8996825, "is_disabled": 0, "lon": -77.02578733333333, "is_reserved": 0}, {"name": "c01af4b15b381d5c15a93de4ea79b66c", "fusion_lat": 0.0, "fusion_lon": 0.0, "bike_id": "c01af4b15b381d5c15a93de4ea79b66c", "rental_uris": {"ios": "https://dc.lft.to/lastmile_qr_scan", "android": "https://dc.lft.to/lastmile_qr_scan"}, "type": "electric_scooter", "lat": 38.911809, "is_disabled": 0, "lon": -77.00252766666667, "is_reserved": 0}, {"name": "8cb377ad99af322a41bbe47e921140fb", "fusion_lat": 0.0, "fusion_lon": 0.0, "bike_id": "8cb377ad99af322a41bbe47e921140fb", "rental_uris": {"ios": "https://dc.lft.to/lastmile_qr_scan", "android": "https://dc.lft.to/lastmile_qr_scan"}, "type": "electric_bike", "lat": 39.09593533333334, "is_disabled": 0, "lon": -77.14778566666666, "is_reserved": 0}, {"name": "555b398810fdf3a2e96f573ddc4bbe3e", "fusion_lat": 0.0, "fusion_lon": 0.0, "bike_id": "555b398810fdf3a2e96f573ddc4bbe3e", "rental_uris": {"ios": "https://dc.lft.to/lastmile_qr_scan", "android": "https://dc.lft.to/lastmile_qr_scan"}, "type": "electric_scooter", "lat": 38.956076833333334, "is_disabled": 0, "lon": -77.03628716666667, "is_reserved": 0}, {"name": "4a54a556507b3cc26205609813424d6f", "fusion_lat": 0.0, "fusion_lon": 0.0, "bike_id": "4a54a556507b3cc26205609813424d6f", "rental_uris": {"ios": "https://dc.lft.to/lastmile_qr_scan", "android": "https://dc.lft.to/lastmile_qr_scan"}, "type": "electric_scooter", "lat": 38.897321833333336, "is_disabled": 0, "lon": -76.9470085, "is_reserved": 0}, {"name": "d404a9b6af4c9293ac6df8f7aeff3de9", "fusion_lat": 0.0, "fusion_lon": 0.0, "bike_id": "d404a9b6af4c9293ac6df8f7aeff3de9", "rental_uris": {"ios": "https://dc.lft.to/lastmile_qr_scan", "android": "https://dc.lft.to/lastmile_qr_scan"}, "type": "electric_bike", "lat": 38.99934966666667, "is_disabled": 0, "lon": -77.00124066666666, "is_reserved": 0}, {"name": "a8c5f98972aa3f67e2f447be237d87e1", "fusion_lat": 0.0, "fusion_lon": 0.0, "bike_id": "a8c5f98972aa3f67e2f447be237d87e1", "rental_uris": {"ios": "https://dc.lft.to/lastmile_qr_scan", "android": "https://dc.lft.to/lastmile_qr_scan"}, "type": "electric_scooter", "lat": 38.93154533333333, "is_disabled": 0, "lon": -77.03607583333333, "is_reserved": 0}, {"name": "9c9a48b920624720377bf81701262de9", "fusion_lat": 0.0, "fusion_lon": 0.0, "bike_id": "9c9a48b920624720377bf81701262de9", "rental_uris": {"ios": "https://dc.lft.to/lastmile_qr_scan", "android": "https://dc.lft.to/lastmile_qr_scan"}, "type": "electric_scooter", "lat": 38.92059833333333, "is_disabled": 0, "lon": -77.02429883333333, "is_reserved": 0}, {"name": "03cde37789e41b67a8198912ef63a6ab", "fusion_lat": 0.0, "fusion_lon": 0.0, "bike_id": "03cde37789e41b67a8198912ef63a6ab", "rental_uris": {"ios": "https://dc.lft.to/lastmile_qr_scan", "android": "https://dc.lft.to/lastmile_qr_scan"}, "type": "electric_scooter", "lat": 38.932021, "is_disabled": 0, "lon": -77.023575, "is_reserved": 0}, {"name": "7b61973818eaed1f0b17dd45c9ddbd9a", "fusion_lat": 0.0, "fusion_lon": 0.0, "bike_id": "7b61973818eaed1f0b17dd45c9ddbd9a", "rental_uris": {"ios": "https://dc.lft.to/lastmile_qr_scan", "android": "https://dc.lft.to/lastmile_qr_scan"}, "type": "electric_scooter", "lat": 38.89871866666667, "is_disabled": 0, "lon": -77.033708, "is_reserved": 0}, {"name": "34793f5159d57a8ca323bde76807ae94", "fusion_lat": 0.0, "fusion_lon": 0.0, "bike_id": "34793f5159d57a8ca323bde76807ae94", "rental_uris": {"ios": "https://dc.lft.to/lastmile_qr_scan", "android": "https://dc.lft.to/lastmile_qr_scan"}, "type": "electric_scooter", "lat": 38.93136366666667, "is_disabled": 0, "lon": -77.03324283333333, "is_reserved": 0}, {"name": "dc10fe6ded8ad16095155316db7ced91", "fusion_lat": 0.0, "fusion_lon": 0.0, "bike_id": "dc10fe6ded8ad16095155316db7ced91", "rental_uris": {"ios": "https://dc.lft.to/lastmile_qr_scan", "android": "https://dc.lft.to/lastmile_qr_scan"}, "type": "electric_scooter", "lat": 38.90529983333333, "is_disabled": 0, "lon": -77.05022716666667, "is_reserved": 0}, {"name": "380879a1a4bcd337f0fc12dc6a4aa359", "fusion_lat": 0.0, "fusion_lon": 0.0, "bike_id": "380879a1a4bcd337f0fc12dc6a4aa359", "rental_uris": {"ios": "https://dc.lft.to/lastmile_qr_scan", "android": "https://dc.lft.to/lastmile_qr_scan"}, "type": "electric_scooter", "lat": 38.929177833333334, "is_disabled": 0, "lon": -77.03279533333334, "is_reserved": 0}, {"name": "e8889d06b95f87813e72b4be5604b8b7", "fusion_lat": 0.0, "fusion_lon": 0.0, "bike_id": "e8889d06b95f87813e72b4be5604b8b7", "rental_uris": {"ios": "https://dc.lft.to/lastmile_qr_scan", "android": "https://dc.lft.to/lastmile_qr_scan"}, "type": "electric_scooter", "lat": 38.948386666666664, "is_disabled": 0, "lon": -77.0254945, "is_reserved": 0}, {"name": "540995ba340777640eeb27cb6b4e5c45", "fusion_lat": 0.0, "fusion_lon": 0.0, "bike_id": "540995ba340777640eeb27cb6b4e5c45", "rental_uris": {"ios": "https://dc.lft.to/lastmile_qr_scan", "android": "https://dc.lft.to/lastmile_qr_scan"}, "type": "electric_scooter", "lat": 38.8954425, "is_disabled": 0, "lon": -77.01135966666666, "is_reserved": 0}, {"name": "3050e842edfc08062d844e984e6ddd1c", "fusion_lat": 0.0, "fusion_lon": 0.0, "bike_id": "3050e842edfc08062d844e984e6ddd1c", "rental_uris": {"ios": "https://dc.lft.to/lastmile_qr_scan", "android": "https://dc.lft.to/lastmile_qr_scan"}, "type": "electric_scooter", "lat": 38.92123083333333, "is_disabled": 0, "lon": -76.99398466666666, "is_reserved": 0}, {"name": "683d4fc0f45b2be5f8d29886c6ed1831", "fusion_lat": 0.0, "fusion_lon": 0.0, "bike_id": "683d4fc0f45b2be5f8d29886c6ed1831", "rental_uris": {"ios": "https://dc.lft.to/lastmile_qr_scan", "android": "https://dc.lft.to/lastmile_qr_scan"}, "type": "electric_scooter", "lat": 38.91103066666667, "is_disabled": 0, "lon": -77.00409583333334, "is_reserved": 0}, {"name": "f2c27cc8f9d20b9511c1a82920d3761a", "fusion_lat": 0.0, "fusion_lon": 0.0, "bike_id": "f2c27cc8f9d20b9511c1a82920d3761a", "rental_uris": {"ios": "https://dc.lft.to/lastmile_qr_scan", "android": "https://dc.lft.to/lastmile_qr_scan"}, "type": "electric_scooter", "lat": 38.89957733333333, "is_disabled": 0, "lon": -77.05096783333333, "is_reserved": 0}, {"name": "3cde6e26e744b67b77b189670d18b5e6", "fusion_lat": 0.0, "fusion_lon": 0.0, "bike_id": "3cde6e26e744b67b77b189670d18b5e6", "rental_uris": {"ios": "https://dc.lft.to/lastmile_qr_scan", "android": "https://dc.lft.to/lastmile_qr_scan"}, "type": "electric_bike", "lat": 38.85791433333333, "is_disabled": 0, "lon": -76.98754566666666, "is_reserved": 0}, {"name": "a811e531e8db1e85ecd899b8bfc3bc19", "fusion_lat": 0.0, "fusion_lon": 0.0, "bike_id": "a811e531e8db1e85ecd899b8bfc3bc19", "rental_uris": {"ios": "https://dc.lft.to/lastmile_qr_scan", "android": "https://dc.lft.to/lastmile_qr_scan"}, "type": "electric_scooter", "lat": 38.9561395, "is_disabled": 0, "lon": -77.0328055, "is_reserved": 0}, {"name": "4a0c0f27c85f4f25023b81d1c6447914", "fusion_lat": 0.0, "fusion_lon": 0.0, "bike_id": "4a0c0f27c85f4f25023b81d1c6447914", "rental_uris": {"ios": "https://dc.lft.to/lastmile_qr_scan", "android": "https://dc.lft.to/lastmile_qr_scan"}, "type": "electric_scooter", "lat": 38.9419995, "is_disabled": 0, "lon": -77.03329416666666, "is_reserved": 0}, {"name": "05742df05d955d81ef458ee0fa84eef6", "fusion_lat": 0.0, "fusion_lon": 0.0, "bike_id": "05742df05d955d81ef458ee0fa84eef6", "rental_uris": {"ios": "https://dc.lft.to/lastmile_qr_scan", "android": "https://dc.lft.to/lastmile_qr_scan"}, "type": "electric_scooter", "lat": 38.89051883333333, "is_disabled": 0, "lon": -76.93216516666666, "is_reserved": 0}, {"name": "2bb8e7d23f35e02fcfc0bf86a49b0464", "fusion_lat": 0.0, "fusion_lon": 0.0, "bike_id": "2bb8e7d23f35e02fcfc0bf86a49b0464", "rental_uris": {"ios": "https://dc.lft.to/lastmile_qr_scan", "android": "https://dc.lft.to/lastmile_qr_scan"}, "type": "electric_scooter", "lat": 38.908324666666665, "is_disabled": 0, "lon": -77.0487295, "is_reserved": 0}, {"name": "c50b8d308b73eceea2ea612f71a2af30", "fusion_lat": 0.0, "fusion_lon": 0.0, "bike_id": "c50b8d308b73eceea2ea612f71a2af30", "rental_uris": {"ios": "https://dc.lft.to/lastmile_qr_scan", "android": "https://dc.lft.to/lastmile_qr_scan"}, "type": "electric_scooter", "lat": 38.901349833333335, "is_disabled": 0, "lon": -77.04061433333334, "is_reserved": 0}, {"name": "c21ae523ae9e0e71e69dc824704cd959", "fusion_lat": 0.0, "fusion_lon": 0.0, "bike_id": "c21ae523ae9e0e71e69dc824704cd959", "rental_uris": {"ios": "https://dc.lft.to/lastmile_qr_scan", "android": "https://dc.lft.to/lastmile_qr_scan"}, "type": "electric_scooter", "lat": 38.8981535, "is_disabled": 0, "lon": -77.04887083333334, "is_reserved": 0}, {"name": "883acd4f650375ed106da4b0f3bbca18", "fusion_lat": 0.0, "fusion_lon": 0.0, "bike_id": "883acd4f650375ed106da4b0f3bbca18", "rental_uris": {"ios": "https://dc.lft.to/lastmile_qr_scan", "android": "https://dc.lft.to/lastmile_qr_scan"}, "type": "electric_bike", "lat": 38.966468666666664, "is_disabled": 0, "lon": -76.93023716666667, "is_reserved": 0}, {"name": "6a741d05d8db09ee430fbaa1e346d42c", "fusion_lat": 0.0, "fusion_lon": 0.0, "bike_id": "6a741d05d8db09ee430fbaa1e346d42c", "rental_uris": {"ios": "https://dc.lft.to/lastmile_qr_scan", "android": "https://dc.lft.to/lastmile_qr_scan"}, "type": "electric_scooter", "lat": 38.9125175, "is_disabled": 0, "lon": -77.027959, "is_reserved": 0}, {"name": "f4e1a2f8f993c7133990813d46caed98", "fusion_lat": 0.0, "fusion_lon": 0.0, "bike_id": "f4e1a2f8f993c7133990813d46caed98", "rental_uris": {"ios": "https://dc.lft.to/lastmile_qr_scan", "android": "https://dc.lft.to/lastmile_qr_scan"}, "type": "electric_scooter", "lat": 38.88631383333333, "is_disabled": 0, "lon": -77.0216845, "is_reserved": 0}, {"name": "c81aa703551560caaae449ebc42f6a52", "fusion_lat": 0.0, "fusion_lon": 0.0, "bike_id": "c81aa703551560caaae449ebc42f6a52", "rental_uris": {"ios": "https://dc.lft.to/lastmile_qr_scan", "android": "https://dc.lft.to/lastmile_qr_scan"}, "type": "electric_bike", "lat": 38.88769466666667, "is_disabled": 0, "lon": -77.12256783333333, "is_reserved": 0}, {"name": "9bfa708a5ca69303483d664b05cad926", "fusion_lat": 0.0, "fusion_lon": 0.0, "bike_id": "9bfa708a5ca69303483d664b05cad926", "rental_uris": {"ios": "https://dc.lft.to/lastmile_qr_scan", "android": "https://dc.lft.to/lastmile_qr_scan"}, "type": "electric_scooter", "lat": 38.91223083333333, "is_disabled": 0, "lon": -77.05124533333333, "is_reserved": 0}, {"name": "64bb77533748243f0ece1155ede29f38", "fusion_lat": 0.0, "fusion_lon": 0.0, "bike_id": "64bb77533748243f0ece1155ede29f38", "rental_uris": {"ios": "https://dc.lft.to/lastmile_qr_scan", "android": "https://dc.lft.to/lastmile_qr_scan"}, "type": "electric_scooter", "lat": 38.91341466666667, "is_disabled": 0, "lon": -77.048673, "is_reserved": 0}, {"name": "4fe4437abecc0e976b0d87316802b454", "fusion_lat": 0.0, "fusion_lon": 0.0, "bike_id": "4fe4437abecc0e976b0d87316802b454", "rental_uris": {"ios": "https://dc.lft.to/lastmile_qr_scan", "android": "https://dc.lft.to/lastmile_qr_scan"}, "type": "electric_scooter", "lat": 38.905595166666664, "is_disabled": 0, "lon": -77.01097583333333, "is_reserved": 0}, {"name": "ca2ad0688e664d783e495a075ae28e63", "fusion_lat": 0.0, "fusion_lon": 0.0, "bike_id": "ca2ad0688e664d783e495a075ae28e63", "rental_uris": {"ios": "https://dc.lft.to/lastmile_qr_scan", "android": "https://dc.lft.to/lastmile_qr_scan"}, "type": "electric_bike", "lat": 38.83196216666666, "is_disabled": 0, "lon": -77.07684283333333, "is_reserved": 0}, {"name": "300df1c546f07b2ca932228be85d37b0", "fusion_lat": 0.0, "fusion_lon": 0.0, "bike_id": "300df1c546f07b2ca932228be85d37b0", "rental_uris": {"ios": "https://dc.lft.to/lastmile_qr_scan", "android": "https://dc.lft.to/lastmile_qr_scan"}, "type": "electric_scooter", "lat": 38.887204, "is_disabled": 0, "lon": -76.99646033333333, "is_reserved": 0}, {"name": "b4c4d45ec8aecf274ddb2a478966ab82", "fusion_lat": 0.0, "fusion_lon": 0.0, "bike_id": "b4c4d45ec8aecf274ddb2a478966ab82", "rental_uris": {"ios": "https://dc.lft.to/lastmile_qr_scan", "android": "https://dc.lft.to/lastmile_qr_scan"}, "type": "electric_bike", "lat": 38.828708666666664, "is_disabled": 0, "lon": -77.11226266666667, "is_reserved": 0}, {"name": "60963bc3513faa4617456279b3ec4f0d", "fusion_lat": 0.0, "fusion_lon": 0.0, "bike_id": "60963bc3513faa4617456279b3ec4f0d", "rental_uris": {"ios": "https://dc.lft.to/lastmile_qr_scan", "android": "https://dc.lft.to/lastmile_qr_scan"}, "type": "electric_scooter", "lat": 38.896257, "is_disabled": 0, "lon": -77.01961933333334, "is_reserved": 0}, {"name": "d93323a8c49a067317dd16acce3787f1", "fusion_lat": 0.0, "fusion_lon": 0.0, "bike_id": "d93323a8c49a067317dd16acce3787f1", "rental_uris": {"ios": "https://dc.lft.to/lastmile_qr_scan", "android": "https://dc.lft.to/lastmile_qr_scan"}, "type": "electric_scooter", "lat": 38.92595816666667, "is_disabled": 0, "lon": -77.05548083333333, "is_reserved": 0}, {"name": "2af6dedc1c82c32b899197aeb6b8227e", "fusion_lat": 0.0, "fusion_lon": 0.0, "bike_id": "2af6dedc1c82c32b899197aeb6b8227e", "rental_uris": {"ios": "https://dc.lft.to/lastmile_qr_scan", "android": "https://dc.lft.to/lastmile_qr_scan"}, "type": "electric_scooter", "lat": 38.89906383333334, "is_disabled": 0, "lon": -77.04077516666666, "is_reserved": 0}, {"name": "daaaec1947fb9a25a2af06d8e5d05f53", "fusion_lat": 0.0, "fusion_lon": 0.0, "bike_id": "daaaec1947fb9a25a2af06d8e5d05f53", "rental_uris": {"ios": "https://dc.lft.to/lastmile_qr_scan", "android": "https://dc.lft.to/lastmile_qr_scan"}, "type": "electric_scooter", "lat": 38.876795666666666, "is_disabled": 0, "lon": -77.01997416666667, "is_reserved": 0}, {"name": "c54b7b2db5a995e2ca7bff4f4f8d0b12", "fusion_lat": 0.0, "fusion_lon": 0.0, "bike_id": "c54b7b2db5a995e2ca7bff4f4f8d0b12", "rental_uris": {"ios": "https://dc.lft.to/lastmile_qr_scan", "android": "https://dc.lft.to/lastmile_qr_scan"}, "type": "electric_scooter", "lat": 38.91469633333333, "is_disabled": 0, "lon": -77.03215283333333, "is_reserved": 0}, {"name": "bd642587f89d79d2367c59aa7e3343c9", "fusion_lat": 0.0, "fusion_lon": 0.0, "bike_id": "bd642587f89d79d2367c59aa7e3343c9", "rental_uris": {"ios": "https://dc.lft.to/lastmile_qr_scan", "android": "https://dc.lft.to/lastmile_qr_scan"}, "type": "electric_scooter", "lat": 38.904435166666666, "is_disabled": 0, "lon": -77.029003, "is_reserved": 0}, {"name": "246cf8aea3eba56feff061abc2b74835", "fusion_lat": 0.0, "fusion_lon": 0.0, "bike_id": "246cf8aea3eba56feff061abc2b74835", "rental_uris": {"ios": "https://dc.lft.to/lastmile_qr_scan", "android": "https://dc.lft.to/lastmile_qr_scan"}, "type": "electric_scooter", "lat": 38.917113666666665, "is_disabled": 0, "lon": -77.02432066666667, "is_reserved": 0}, {"name": "0d7e819bf7e444d262e0cbb56a23cfe5", "fusion_lat": 0.0, "fusion_lon": 0.0, "bike_id": "0d7e819bf7e444d262e0cbb56a23cfe5", "rental_uris": {"ios": "https://dc.lft.to/lastmile_qr_scan", "android": "https://dc.lft.to/lastmile_qr_scan"}, "type": "electric_bike", "lat": 38.955605166666665, "is_disabled": 0, "lon": -76.935415, "is_reserved": 0}, {"name": "3980132458eb22e148d7b076e5f55189", "fusion_lat": 0.0, "fusion_lon": 0.0, "bike_id": "3980132458eb22e148d7b076e5f55189", "rental_uris": {"ios": "https://dc.lft.to/lastmile_qr_scan", "android": "https://dc.lft.to/lastmile_qr_scan"}, "type": "electric_scooter", "lat": 38.920634666666665, "is_disabled": 0, "lon": -76.995312, "is_reserved": 0}, {"name": "1da1e1eb262c357114bc13baf81cdeb2", "fusion_lat": 0.0, "fusion_lon": 0.0, "bike_id": "1da1e1eb262c357114bc13baf81cdeb2", "rental_uris": {"ios": "https://dc.lft.to/lastmile_qr_scan", "android": "https://dc.lft.to/lastmile_qr_scan"}, "type": "electric_scooter", "lat": 38.9315805, "is_disabled": 0, "lon": -77.02905516666667, "is_reserved": 0}, {"name": "2fd91b710fc4feaa04415e08a58769c3", "fusion_lat": 0.0, "fusion_lon": 0.0, "bike_id": "2fd91b710fc4feaa04415e08a58769c3", "rental_uris": {"ios": "https://dc.lft.to/lastmile_qr_scan", "android": "https://dc.lft.to/lastmile_qr_scan"}, "type": "electric_scooter", "lat": 38.919517166666665, "is_disabled": 0, "lon": -77.04162666666667, "is_reserved": 0}, {"name": "f40a76741998a1e5d3b5eaa3a4a03bbb", "fusion_lat": 0.0, "fusion_lon": 0.0, "bike_id": "f40a76741998a1e5d3b5eaa3a4a03bbb", "rental_uris": {"ios": "https://dc.lft.to/lastmile_qr_scan", "android": "https://dc.lft.to/lastmile_qr_scan"}, "type": "electric_scooter", "lat": 38.93128566666667, "is_disabled": 0, "lon": -77.0385505, "is_reserved": 0}, {"name": "d53c1b4de885b0b8fd37ea6ecb5b81e5", "fusion_lat": 0.0, "fusion_lon": 0.0, "bike_id": "d53c1b4de885b0b8fd37ea6ecb5b81e5", "rental_uris": {"ios": "https://dc.lft.to/lastmile_qr_scan", "android": "https://dc.lft.to/lastmile_qr_scan"}, "type": "electric_scooter", "lat": 38.90876816666667, "is_disabled": 0, "lon": -77.04050416666666, "is_reserved": 0}, {"name": "6716cead1f42ce070cd166eaf10849e7", "fusion_lat": 0.0, "fusion_lon": 0.0, "bike_id": "6716cead1f42ce070cd166eaf10849e7", "rental_uris": {"ios": "https://dc.lft.to/lastmile_qr_scan", "android": "https://dc.lft.to/lastmile_qr_scan"}, "type": "electric_scooter", "lat": 38.883719, "is_disabled": 0, "lon": -76.99520183333334, "is_reserved": 0}, {"name": "bc3b06fe13b00a230e55d814f72d55dd", "fusion_lat": 0.0, "fusion_lon": 0.0, "bike_id": "bc3b06fe13b00a230e55d814f72d55dd", "rental_uris": {"ios": "https://dc.lft.to/lastmile_qr_scan", "android": "https://dc.lft.to/lastmile_qr_scan"}, "type": "electric_scooter", "lat": 38.91758733333333, "is_disabled": 0, "lon": -77.04044683333333, "is_reserved": 0}, {"name": "55b27e6b7f0d36d8dd7462036cf615f5", "fusion_lat": 0.0, "fusion_lon": 0.0, "bike_id": "55b27e6b7f0d36d8dd7462036cf615f5", "rental_uris": {"ios": "https://dc.lft.to/lastmile_qr_scan", "android": "https://dc.lft.to/lastmile_qr_scan"}, "type": "electric_bike", "lat": 38.967602666666664, "is_disabled": 0, "lon": -77.0916, "is_reserved": 0}, {"name": "122ac0fc459dcaa81a09f7cabdacd1fa", "fusion_lat": 0.0, "fusion_lon": 0.0, "bike_id": "122ac0fc459dcaa81a09f7cabdacd1fa", "rental_uris": {"ios": "https://dc.lft.to/lastmile_qr_scan", "android": "https://dc.lft.to/lastmile_qr_scan"}, "type": "electric_scooter", "lat": 38.895294666666665, "is_disabled": 0, "lon": -77.02949416666667, "is_reserved": 0}, {"name": "02a96471bee0be4af777c0a35847d8ab", "fusion_lat": 0.0, "fusion_lon": 0.0, "bike_id": "02a96471bee0be4af777c0a35847d8ab", "rental_uris": {"ios": "https://dc.lft.to/lastmile_qr_scan", "android": "https://dc.lft.to/lastmile_qr_scan"}, "type": "electric_bike", "lat": 38.9985305, "is_disabled": 0, "lon": -77.02865016666667, "is_reserved": 0}, {"name": "65bf6384439d1bf7b869786b9da6b335", "fusion_lat": 0.0, "fusion_lon": 0.0, "bike_id": "65bf6384439d1bf7b869786b9da6b335", "rental_uris": {"ios": "https://dc.lft.to/lastmile_qr_scan", "android": "https://dc.lft.to/lastmile_qr_scan"}, "type": "electric_scooter", "lat": 38.858067, "is_disabled": 0, "lon": -76.98655066666667, "is_reserved": 0}, {"name": "c075286836f85c677c4f9cb9fe1caa99", "fusion_lat": 0.0, "fusion_lon": 0.0, "bike_id": "c075286836f85c677c4f9cb9fe1caa99", "rental_uris": {"ios": "https://dc.lft.to/lastmile_qr_scan", "android": "https://dc.lft.to/lastmile_qr_scan"}, "type": "electric_scooter", "lat": 38.893052833333336, "is_disabled": 0, "lon": -77.04651933333334, "is_reserved": 0}, {"name": "5919146e9f693855f558c25895fe6ff6", "fusion_lat": 0.0, "fusion_lon": 0.0, "bike_id": "5919146e9f693855f558c25895fe6ff6", "rental_uris": {"ios": "https://dc.lft.to/lastmile_qr_scan", "android": "https://dc.lft.to/lastmile_qr_scan"}, "type": "electric_scooter", "lat": 38.940880166666666, "is_disabled": 0, "lon": -77.02731883333334, "is_reserved": 0}, {"name": "efff9c557a17a0a8ebc96f9e192951d0", "fusion_lat": 0.0, "fusion_lon": 0.0, "bike_id": "efff9c557a17a0a8ebc96f9e192951d0", "rental_uris": {"ios": "https://dc.lft.to/lastmile_qr_scan", "android": "https://dc.lft.to/lastmile_qr_scan"}, "type": "electric_scooter", "lat": 38.894851333333335, "is_disabled": 0, "lon": -76.9951635, "is_reserved": 0}, {"name": "d5014b61c92c71acff57777dcad8e125", "fusion_lat": 0.0, "fusion_lon": 0.0, "bike_id": "d5014b61c92c71acff57777dcad8e125", "rental_uris": {"ios": "https://dc.lft.to/lastmile_qr_scan", "android": "https://dc.lft.to/lastmile_qr_scan"}, "type": "electric_scooter", "lat": 38.908788666666666, "is_disabled": 0, "lon": -77.07525916666667, "is_reserved": 0}, {"name": "8db71c73492e7487c5917e5cf346a4c5", "fusion_lat": 0.0, "fusion_lon": 0.0, "bike_id": "8db71c73492e7487c5917e5cf346a4c5", "rental_uris": {"ios": "https://dc.lft.to/lastmile_qr_scan", "android": "https://dc.lft.to/lastmile_qr_scan"}, "type": "electric_scooter", "lat": 38.906964, "is_disabled": 0, "lon": -77.00999383333334, "is_reserved": 0}, {"name": "64d3e259012b5ae73d54b4e2ff1bf675", "fusion_lat": 0.0, "fusion_lon": 0.0, "bike_id": "64d3e259012b5ae73d54b4e2ff1bf675", "rental_uris": {"ios": "https://dc.lft.to/lastmile_qr_scan", "android": "https://dc.lft.to/lastmile_qr_scan"}, "type": "electric_scooter", "lat": 38.91498333333333, "is_disabled": 0, "lon": -77.0122825, "is_reserved": 0}, {"name": "afddb4c429543868dc27c1818b6fa470", "fusion_lat": 0.0, "fusion_lon": 0.0, "bike_id": "afddb4c429543868dc27c1818b6fa470", "rental_uris": {"ios": "https://dc.lft.to/lastmile_qr_scan", "android": "https://dc.lft.to/lastmile_qr_scan"}, "type": "electric_scooter", "lat": 38.867118, "is_disabled": 0, "lon": -76.987315, "is_reserved": 0}, {"name": "ff8f8859969ab87e1a83d2d0bef656c6", "fusion_lat": 0.0, "fusion_lon": 0.0, "bike_id": "ff8f8859969ab87e1a83d2d0bef656c6", "rental_uris": {"ios": "https://dc.lft.to/lastmile_qr_scan", "android": "https://dc.lft.to/lastmile_qr_scan"}, "type": "electric_scooter", "lat": 38.930988, "is_disabled": 0, "lon": -77.023979, "is_reserved": 0}, {"name": "d96518ca14a745777018e5e014589e78", "fusion_lat": 0.0, "fusion_lon": 0.0, "bike_id": "d96518ca14a745777018e5e014589e78", "rental_uris": {"ios": "https://dc.lft.to/lastmile_qr_scan", "android": "https://dc.lft.to/lastmile_qr_scan"}, "type": "electric_scooter", "lat": 38.883847, "is_disabled": 0, "lon": -76.99485383333334, "is_reserved": 0}, {"name": "77f8af10608479b83d20e4580b723faa", "fusion_lat": 0.0, "fusion_lon": 0.0, "bike_id": "77f8af10608479b83d20e4580b723faa", "rental_uris": {"ios": "https://dc.lft.to/lastmile_qr_scan", "android": "https://dc.lft.to/lastmile_qr_scan"}, "type": "electric_scooter", "lat": 38.91798133333333, "is_disabled": 0, "lon": -77.03212866666667, "is_reserved": 0}, {"name": "21c22b2b771fb51e09eab18991ab219c", "fusion_lat": 0.0, "fusion_lon": 0.0, "bike_id": "21c22b2b771fb51e09eab18991ab219c", "rental_uris": {"ios": "https://dc.lft.to/lastmile_qr_scan", "android": "https://dc.lft.to/lastmile_qr_scan"}, "type": "electric_scooter", "lat": 38.905771, "is_disabled": 0, "lon": -77.00604083333333, "is_reserved": 0}, {"name": "f3a290f76acea01e7f463204e9a6c8d8", "fusion_lat": 0.0, "fusion_lon": 0.0, "bike_id": "f3a290f76acea01e7f463204e9a6c8d8", "rental_uris": {"ios": "https://dc.lft.to/lastmile_qr_scan", "android": "https://dc.lft.to/lastmile_qr_scan"}, "type": "electric_scooter", "lat": 38.898435666666664, "is_disabled": 0, "lon": -77.0434295, "is_reserved": 0}, {"name": "c576807bba186737828aeb20b00c4621", "fusion_lat": 0.0, "fusion_lon": 0.0, "bike_id": "c576807bba186737828aeb20b00c4621", "rental_uris": {"ios": "https://dc.lft.to/lastmile_qr_scan", "android": "https://dc.lft.to/lastmile_qr_scan"}, "type": "electric_bike", "lat": 38.93671283333333, "is_disabled": 0, "lon": -76.95209133333333, "is_reserved": 0}, {"name": "cbed87cd975f90d7e423d0e8fec3c992", "fusion_lat": 0.0, "fusion_lon": 0.0, "bike_id": "cbed87cd975f90d7e423d0e8fec3c992", "rental_uris": {"ios": "https://dc.lft.to/lastmile_qr_scan", "android": "https://dc.lft.to/lastmile_qr_scan"}, "type": "electric_scooter", "lat": 38.93019283333334, "is_disabled": 0, "lon": -77.05552766666666, "is_reserved": 0}, {"name": "d721b5077d84f28f3c3edf242c1eeee6", "fusion_lat": 0.0, "fusion_lon": 0.0, "bike_id": "d721b5077d84f28f3c3edf242c1eeee6", "rental_uris": {"ios": "https://dc.lft.to/lastmile_qr_scan", "android": "https://dc.lft.to/lastmile_qr_scan"}, "type": "electric_scooter", "lat": 38.91669233333333, "is_disabled": 0, "lon": -77.02417916666667, "is_reserved": 0}, {"name": "0d1e868917c8b1b5c52f1ec6e05f019a", "fusion_lat": 0.0, "fusion_lon": 0.0, "bike_id": "0d1e868917c8b1b5c52f1ec6e05f019a", "rental_uris": {"ios": "https://dc.lft.to/lastmile_qr_scan", "android": "https://dc.lft.to/lastmile_qr_scan"}, "type": "electric_scooter", "lat": 38.910639, "is_disabled": 0, "lon": -77.04570033333333, "is_reserved": 0}, {"name": "95fdbd9f9d6b098d09f156d2fdf25393", "fusion_lat": 0.0, "fusion_lon": 0.0, "bike_id": "95fdbd9f9d6b098d09f156d2fdf25393", "rental_uris": {"ios": "https://dc.lft.to/lastmile_qr_scan", "android": "https://dc.lft.to/lastmile_qr_scan"}, "type": "electric_scooter", "lat": 38.92329516666667, "is_disabled": 0, "lon": -77.04610083333333, "is_reserved": 0}, {"name": "f19eab53f713511d8673f3f2d4d467a9", "fusion_lat": 0.0, "fusion_lon": 0.0, "bike_id": "f19eab53f713511d8673f3f2d4d467a9", "rental_uris": {"ios": "https://dc.lft.to/lastmile_qr_scan", "android": "https://dc.lft.to/lastmile_qr_scan"}, "type": "electric_scooter", "lat": 38.89728683333333, "is_disabled": 0, "lon": -77.04692366666667, "is_reserved": 0}, {"name": "c613d27465ebc38b1e979236786245d5", "fusion_lat": 0.0, "fusion_lon": 0.0, "bike_id": "c613d27465ebc38b1e979236786245d5", "rental_uris": {"ios": "https://dc.lft.to/lastmile_qr_scan", "android": "https://dc.lft.to/lastmile_qr_scan"}, "type": "electric_scooter", "lat": 38.90743533333333, "is_disabled": 0, "lon": -77.00778883333334, "is_reserved": 0}, {"name": "bc9b79c8b1cf8c139677c9d9db4e1245", "fusion_lat": 0.0, "fusion_lon": 0.0, "bike_id": "bc9b79c8b1cf8c139677c9d9db4e1245", "rental_uris": {"ios": "https://dc.lft.to/lastmile_qr_scan", "android": "https://dc.lft.to/lastmile_qr_scan"}, "type": "electric_scooter", "lat": 38.924435333333335, "is_disabled": 0, "lon": -77.02608916666667, "is_reserved": 0}, {"name": "1a6c53e229a2b2797e75dfc9baf70530", "fusion_lat": 0.0, "fusion_lon": 0.0, "bike_id": "1a6c53e229a2b2797e75dfc9baf70530", "rental_uris": {"ios": "https://dc.lft.to/lastmile_qr_scan", "android": "https://dc.lft.to/lastmile_qr_scan"}, "type": "electric_scooter", "lat": 38.896569166666666, "is_disabled": 0, "lon": -77.0501695, "is_reserved": 0}, {"name": "eb6ee9e47f2c2e02724f438d9e93ce97", "fusion_lat": 0.0, "fusion_lon": 0.0, "bike_id": "eb6ee9e47f2c2e02724f438d9e93ce97", "rental_uris": {"ios": "https://dc.lft.to/lastmile_qr_scan", "android": "https://dc.lft.to/lastmile_qr_scan"}, "type": "electric_scooter", "lat": 38.91700566666667, "is_disabled": 0, "lon": -77.027765, "is_reserved": 0}, {"name": "80d1e7ddf6a0c994e14b1f205db1b3a4", "fusion_lat": 0.0, "fusion_lon": 0.0, "bike_id": "80d1e7ddf6a0c994e14b1f205db1b3a4", "rental_uris": {"ios": "https://dc.lft.to/lastmile_qr_scan", "android": "https://dc.lft.to/lastmile_qr_scan"}, "type": "electric_scooter", "lat": 38.9013125, "is_disabled": 0, "lon": -77.0314755, "is_reserved": 0}, {"name": "be0092f1a09f241555d5526a65c7d82d", "fusion_lat": 0.0, "fusion_lon": 0.0, "bike_id": "be0092f1a09f241555d5526a65c7d82d", "rental_uris": {"ios": "https://dc.lft.to/lastmile_qr_scan", "android": "https://dc.lft.to/lastmile_qr_scan"}, "type": "electric_scooter", "lat": 38.91774483333333, "is_disabled": 0, "lon": -77.04768783333333, "is_reserved": 0}, {"name": "0cc0f78daad151fabf2c1b65be230f82", "fusion_lat": 0.0, "fusion_lon": 0.0, "bike_id": "0cc0f78daad151fabf2c1b65be230f82", "rental_uris": {"ios": "https://dc.lft.to/lastmile_qr_scan", "android": "https://dc.lft.to/lastmile_qr_scan"}, "type": "electric_bike", "lat": 38.913578333333334, "is_disabled": 0, "lon": -77.02848633333333, "is_reserved": 0}, {"name": "13bfee2a0e447ab5bbe77216daaeba00", "fusion_lat": 0.0, "fusion_lon": 0.0, "bike_id": "13bfee2a0e447ab5bbe77216daaeba00", "rental_uris": {"ios": "https://dc.lft.to/lastmile_qr_scan", "android": "https://dc.lft.to/lastmile_qr_scan"}, "type": "electric_scooter", "lat": 38.967333333333336, "is_disabled": 0, "lon": -77.02761566666666, "is_reserved": 0}, {"name": "cd997990e21e2e11f4ae85c12f9f760e", "fusion_lat": 0.0, "fusion_lon": 0.0, "bike_id": "cd997990e21e2e11f4ae85c12f9f760e", "rental_uris": {"ios": "https://dc.lft.to/lastmile_qr_scan", "android": "https://dc.lft.to/lastmile_qr_scan"}, "type": "electric_scooter", "lat": 38.87380266666667, "is_disabled": 0, "lon": -77.0015225, "is_reserved": 0}, {"name": "212ae18255b44dd6af9dea1b0336a6cb", "fusion_lat": 0.0, "fusion_lon": 0.0, "bike_id": "212ae18255b44dd6af9dea1b0336a6cb", "rental_uris": {"ios": "https://dc.lft.to/lastmile_qr_scan", "android": "https://dc.lft.to/lastmile_qr_scan"}, "type": "electric_scooter", "lat": 38.85812083333333, "is_disabled": 0, "lon": -76.9896205, "is_reserved": 0}, {"name": "7aa4e6eb5fb3cb517cd4d827825cbdd9", "fusion_lat": 0.0, "fusion_lon": 0.0, "bike_id": "7aa4e6eb5fb3cb517cd4d827825cbdd9", "rental_uris": {"ios": "https://dc.lft.to/lastmile_qr_scan", "android": "https://dc.lft.to/lastmile_qr_scan"}, "type": "electric_scooter", "lat": 38.94978833333333, "is_disabled": 0, "lon": -77.02704766666666, "is_reserved": 0}, {"name": "c59479e1a4d40decf652d6d9d2800abb", "fusion_lat": 0.0, "fusion_lon": 0.0, "bike_id": "c59479e1a4d40decf652d6d9d2800abb", "rental_uris": {"ios": "https://dc.lft.to/lastmile_qr_scan", "android": "https://dc.lft.to/lastmile_qr_scan"}, "type": "electric_scooter", "lat": 38.9375355, "is_disabled": 0, "lon": -77.02481633333333, "is_reserved": 0}, {"name": "5f2f23086c56ee06858f9fe8c08e7482", "fusion_lat": 0.0, "fusion_lon": 0.0, "bike_id": "5f2f23086c56ee06858f9fe8c08e7482", "rental_uris": {"ios": "https://dc.lft.to/lastmile_qr_scan", "android": "https://dc.lft.to/lastmile_qr_scan"}, "type": "electric_scooter", "lat": 38.84799116666667, "is_disabled": 0, "lon": -76.9671305, "is_reserved": 0}, {"name": "99db9f3c6058ac40bc2767af4f8b8c9b", "fusion_lat": 0.0, "fusion_lon": 0.0, "bike_id": "99db9f3c6058ac40bc2767af4f8b8c9b", "rental_uris": {"ios": "https://dc.lft.to/lastmile_qr_scan", "android": "https://dc.lft.to/lastmile_qr_scan"}, "type": "electric_scooter", "lat": 38.9385855, "is_disabled": 0, "lon": -77.02469066666667, "is_reserved": 0}, {"name": "38af47d68af81d5a2a6e76bfaf2f7186", "fusion_lat": 0.0, "fusion_lon": 0.0, "bike_id": "38af47d68af81d5a2a6e76bfaf2f7186", "rental_uris": {"ios": "https://dc.lft.to/lastmile_qr_scan", "android": "https://dc.lft.to/lastmile_qr_scan"}, "type": "electric_scooter", "lat": 38.91268066666667, "is_disabled": 0, "lon": -77.04160616666667, "is_reserved": 0}, {"name": "a84265c32a121c4ca8d4ac23dabedfc6", "fusion_lat": 0.0, "fusion_lon": 0.0, "bike_id": "a84265c32a121c4ca8d4ac23dabedfc6", "rental_uris": {"ios": "https://dc.lft.to/lastmile_qr_scan", "android": "https://dc.lft.to/lastmile_qr_scan"}, "type": "electric_scooter", "lat": 38.89738416666667, "is_disabled": 0, "lon": -77.046968, "is_reserved": 0},