{"data": {"bikes": [{"is_disabled": 0, "fusion_lon": 0.0, "fusion_lat": 0.0, "lat": 38.88863416666667, "type": "electric_scooter", "lon": -76.9773865, "bike_id": "67ff82f7eed12abf0da8f50d970beefc", "rental_uris": {"android": "https://dc.lft.to/lastmile_qr_scan", "ios": "https://dc.lft.to/lastmile_qr_scan"}, "name": "67ff82f7eed12abf0da8f50d970beefc", "is_reserved": 0}, {"is_disabled": 0, "fusion_lon": 0.0, "fusion_lat": 0.0, "lat": 38.931254833333334, "type": "electric_scooter", "lon": -77.057091, "bike_id": "e3996e1a1c6751eb36ae0a194f3bb8b7", "rental_uris": {"android": "https://dc.lft.to/lastmile_qr_scan", "ios": "https://dc.lft.to/lastmile_qr_scan"}, "name": "e3996e1a1c6751eb36ae0a194f3bb8b7", "is_reserved": 0}, {"is_disabled": 0, "fusion_lon": 0.0, "fusion_lat": 0.0, "lat": 38.89230166666667, "type": "electric_scooter", "lon": -77.04362416666666, "bike_id": "f21ae789067675d1713d638f43d7fa71", "rental_uris": {"android": "https://dc.lft.to/lastmile_qr_scan", "ios": "https://dc.lft.to/lastmile_qr_scan"}, "name": "f21ae789067675d1713d638f43d7fa71", "is_reserved": 0}, {"is_disabled": 0, "fusion_lon": 0.0, "fusion_lat": 0.0, "lat": 38.935288666666665, "type": "electric_scooter", "lon": -77.02379133333334, "bike_id": "7b55721f40a60cb574884b9f57e1d7f8", "rental_uris": {"android": "https://dc.lft.to/lastmile_qr_scan", "ios": "https://dc.lft.to/lastmile_qr_scan"}, "name": "7b55721f40a60cb574884b9f57e1d7f8", "is_reserved": 0}, {"is_disabled": 0, "fusion_lon": 0.0, "fusion_lat": 0.0, "lat": 38.91195366666667, "type": "electric_scooter", "lon": -77.01213883333334, "bike_id": "181be0b3eb6ec52a7fa0492be66c5897", "rental_uris": {"android": "https://dc.lft.to/lastmile_qr_scan", "ios": "https://dc.lft.to/lastmile_qr_scan"}, "name": "181be0b3eb6ec52a7fa0492be66c5897", "is_reserved": 0}, {"is_disabled": 0, "fusion_lon": 0.0, "fusion_lat": 0.0, "lat": 38.90676633333333, "type": "electric_scooter", "lon": -77.02722, "bike_id": "c430974f26be794bfb8717574cdda369", "rental_uris": {"android": "https://dc.lft.to/lastmile_qr_scan", "ios": "https://dc.lft.to/lastmile_qr_scan"}, "name": "c430974f26be794bfb8717574cdda369", "is_reserved": 0}, {"is_disabled": 0, "fusion_lon": 0.0, "fusion_lat": 0.0, "lat": 38.906145333333335, "type": "electric_scooter", "lon": -77.02814133333334, "bike_id": "29b5d29267a90744a71022a6041834c7", "rental_uris": {"android": "https://dc.lft.to/lastmile_qr_scan", "ios": "https://dc.lft.to/lastmile_qr_scan"}, "name": "29b5d29267a90744a71022a6041834c7", "is_reserved": 0}, {"is_disabled": 0, "fusion_lon": 0.0, "fusion_lat": 0.0, "lat": 38.89367333333333, "type": "electric_scooter", "lon": -77.022659, "bike_id": "22a69d664ddb140ba2d0090e4945763d", "rental_uris": {"android": "https://dc.lft.to/lastmile_qr_scan", "ios": "https://dc.lft.to/lastmile_qr_scan"}, "name": "22a69d664ddb140ba2d0090e4945763d", "is_reserved": 0}, {"is_disabled": 0, "fusion_lon": 0.0, "fusion_lat": 0.0, "lat": 38.905756833333335, "type": "electric_scooter", "lon": -77.030208, "bike_id": "eaef07fbefc3d1c8bd96c7ceb91dd586", "rental_uris": {"android": "https://dc.lft.to/lastmile_qr_scan", "ios": "https://dc.lft.to/lastmile_qr_scan"}, "name": "eaef07fbefc3d1c8bd96c7ceb91dd586", "is_reserved": 0}, {"is_disabled": 0, "fusion_lon": 0.0, "fusion_lat": 0.0, "lat": 38.90722383333333, "type": "electric_scooter", "lon": -77.03069733333334, "bike_id": "1006e74ef3d74977cded09eb881a0d78", "rental_uris": {"android": "https://dc.lft.to/lastmile_qr_scan", "ios": "https://dc.lft.to/lastmile_qr_scan"}, "name": "1006e74ef3d74977cded09eb881a0d78", "is_reserved": 0}, {"is_disabled": 0, "fusion_lon": 0.0, "fusion_lat": 0.0, "lat": 38.92082666666667, "type": "electric_bike", "lon": -77.003389, "bike_id": "28a75286be21530729bf52891157eebf", "rental_uris": {"android": "https://dc.lft.to/lastmile_qr_scan", "ios": "https://dc.lft.to/lastmile_qr_scan"}, "name": "28a75286be21530729bf52891157eebf", "is_reserved": 0}, {"is_disabled": 0, "fusion_lon": 0.0, "fusion_lat": 0.0, "lat": 38.827291, "type": "electric_bike", "lon": -77.00869216666666, "bike_id": "3eaa68e2d4a0cc21f7bc8ba67750969b", "rental_uris": {"android": "https://dc.lft.to/lastmile_qr_scan", "ios": "https://dc.lft.to/lastmile_qr_scan"}, "name": "3eaa68e2d4a0cc21f7bc8ba67750969b", "is_reserved": 0}, {"is_disabled": 0, "fusion_lon": 0.0, "fusion_lat": 0.0, "lat": 38.89653033333333, "type": "electric_scooter", "lon": -77.04371333333333, "bike_id": "3902b311e1b73095b923df1558788240", "rental_uris": {"android": "https://dc.lft.to/lastmile_qr_scan", "ios": "https://dc.lft.to/lastmile_qr_scan"}, "name": "3902b311e1b73095b923df1558788240", "is_reserved": 0}, {"is_disabled": 0, "fusion_lon": 0.0, "fusion_lat": 0.0, "lat": 38.86523666666667, "type": "electric_scooter", "lon": -76.989742, "bike_id": "2ced1be2d59fa36fc0e67d224cd33b32", "rental_uris": {"android": "https://dc.lft.to/lastmile_qr_scan", "ios": "https://dc.lft.to/lastmile_qr_scan"}, "name": "2ced1be2d59fa36fc0e67d224cd33b32", "is_reserved": 0}, {"is_disabled": 0, "fusion_lon": 0.0, "fusion_lat": 0.0, "lat": 38.89876066666667, "type": "electric_scooter", "lon": -77.039805, "bike_id": "6540a4eaa7ba3f217f6ba13095e64ba0", "rental_uris": {"android": "https://dc.lft.to/lastmile_qr_scan", "ios": "https://dc.lft.to/lastmile_qr_scan"}, "name": "6540a4eaa7ba3f217f6ba13095e64ba0", "is_reserved": 0}, {"is_disabled": 0, "fusion_lon": 0.0, "fusion_lat": 0.0, "lat": 38.846197, "type": "electric_scooter", "lon": -76.99630283333333, "bike_id": "ddb3459aaaa9dba79e48ed4be59cdbe8", "rental_uris": {"android": "https://dc.lft.to/lastmile_qr_scan", "ios": "https://dc.lft.to/lastmile_qr_scan"}, "name": "ddb3459aaaa9dba79e48ed4be59cdbe8", "is_reserved": 0}, {"is_disabled": 0, "fusion_lon": 0.0, "fusion_lat": 0.0, "lat": 38.924425, "type": "electric_scooter", "lon": -77.026059, "bike_id": "d84e26da1d0b79cee04aa73564bb8a85", "rental_uris": {"android": "https://dc.lft.to/lastmile_qr_scan", "ios": "https://dc.lft.to/lastmile_qr_scan"}, "name": "d84e26da1d0b79cee04aa73564bb8a85", "is_reserved": 0}, {"is_disabled": 0, "fusion_lon": 0.0, "fusion_lat": 0.0, "lat": 38.91814933333333, "type": "electric_scooter", "lon": -77.03142766666667, "bike_id": "18844c2b7516b75ff9af6bb99e5eb58d", "rental_uris": {"android": "https://dc.lft.to/lastmile_qr_scan", "ios": "https://dc.lft.to/lastmile_qr_scan"}, "name": "18844c2b7516b75ff9af6bb99e5eb58d", "is_reserved": 0}, {"is_disabled": 0, "fusion_lon": 0.0, "fusion_lat": 0.0, "lat": 38.9601715, "type": "electric_scooter", "lon": -77.03310483333334, "bike_id": "9b9410e7f076515c60490c1c6b14fcb6", "rental_uris": {"android": "https://dc.lft.to/lastmile_qr_scan", "ios": "https://dc.lft.to/lastmile_qr_scan"}, "name": "9b9410e7f076515c60490c1c6b14fcb6", "is_reserved": 0}, {"is_disabled": 0, "fusion_lon": 0.0, "fusion_lat": 0.0, "lat": 38.92769583333333, "type": "electric_scooter", "lon": -77.0278465, "bike_id": "3b5595575a934741184cbfdc3c4c1410", "rental_uris": {"android": "https://dc.lft.to/lastmile_qr_scan", "ios": "https://dc.lft.to/lastmile_qr_scan"}, "name": "3b5595575a934741184cbfdc3c4c1410", "is_reserved": 0}, {"is_disabled": 0, "fusion_lon": 0.0, "fusion_lat": 0.0, "lat": 38.909544833333335, "type": "electric_scooter", "lon": -77.02185716666666, "bike_id": "7b5f326122596f7b7279ab0f2ec04d0a", "rental_uris": {"android": "https://dc.lft.to/lastmile_qr_scan", "ios": "https://dc.lft.to/lastmile_qr_scan"}, "name": "7b5f326122596f7b7279ab0f2ec04d0a", "is_reserved": 0}, {"is_disabled": 0, "fusion_lon": 0.0, "fusion_lat": 0.0, "lat": 38.920630333333335, "type": "electric_scooter", "lon": -77.04358433333333, "bike_id": "72ae09bfdaddb0d98fb6b73e928d413b", "rental_uris": {"android": "https://dc.lft.to/lastmile_qr_scan", "ios": "https://dc.lft.to/lastmile_qr_scan"}, "name": "72ae09bfdaddb0d98fb6b73e928d413b", "is_reserved": 0}, {"is_disabled": 0, "fusion_lon": 0.0, "fusion_lat": 0.0, "lat": 38.895446, "type": "electric_scooter", "lon": -77.01107133333333, "bike_id": "a107d8be5b22b6f64a2879d20cc8ee90", "rental_uris": {"android": "https://dc.lft.to/lastmile_qr_scan", "ios": "https://dc.lft.to/lastmile_qr_scan"}, "name": "a107d8be5b22b6f64a2879d20cc8ee90", "is_reserved": 0}, {"is_disabled": 0, "fusion_lon": 0.0, "fusion_lat": 0.0, "lat": 38.9191215, "type": "electric_scooter", "lon": -77.03022866666667, "bike_id": "935ba962d0051b252bcc4a9d57626d56", "rental_uris": {"android": "https://dc.lft.to/lastmile_qr_scan", "ios": "https://dc.lft.to/lastmile_qr_scan"}, "name": "935ba962d0051b252bcc4a9d57626d56", "is_reserved": 0}, {"is_disabled": 0, "fusion_lon": 0.0, "fusion_lat": 0.0, "lat": 38.8996765, "type": "electric_scooter", "lon": -77.01620483333333, "bike_id": "2422f864392715ad6efed3f128429c38", "rental_uris": {"android": "https://dc.lft.to/lastmile_qr_scan", "ios": "https://dc.lft.to/lastmile_qr_scan"}, "name": "2422f864392715ad6efed3f128429c38", "is_reserved": 0}, {"is_disabled": 0, "fusion_lon": 0.0, "fusion_lat": 0.0, "lat": 38.900390333333334, "type": "electric_scooter", "lon": -77.00192216666666, "bike_id": "e50c1e0afb8a7b741dd51f5c9636a5a8", "rental_uris": {"android": "https://dc.lft.to/lastmile_qr_scan", "ios": "https://dc.lft.to/lastmile_qr_scan"}, "name": "e50c1e0afb8a7b741dd51f5c9636a5a8", "is_reserved": 0}, {"is_disabled": 0, "fusion_lon": 0.0, "fusion_lat": 0.0, "lat": 38.94983116666667, "type": "electric_scooter", "lon": -77.02702133333334, "bike_id": "7d277eda94c497b01b7bdb5c1e1c56ab", "rental_uris": {"android": "https://dc.lft.to/lastmile_qr_scan", "ios": "https://dc.lft.to/lastmile_qr_scan"}, "name": "7d277eda94c497b01b7bdb5c1e1c56ab", "is_reserved": 0}, {"is_disabled": 0, "fusion_lon": 0.0, "fusion_lat": 0.0, "lat": 38.91526566666667, "type": "electric_scooter", "lon": -77.01840383333334, "bike_id": "5848d35a21b0071944c06bed49c213cf", "rental_uris": {"android": "https://dc.lft.to/lastmile_qr_scan", "ios": "https://dc.lft.to/lastmile_qr_scan"}, "name": "5848d35a21b0071944c06bed49c213cf", "is_reserved": 0}, {"is_disabled": 0, "fusion_lon": 0.0, "fusion_lat": 0.0, "lat": 38.912055333333335, "type": "electric_scooter", "lon": -77.004268, "bike_id": "f522284034362a00fa7ec430a6397a0b", "rental_uris": {"android": "https://dc.lft.to/lastmile_qr_scan", "ios": "https://dc.lft.to/lastmile_qr_scan"}, "name": "f522284034362a00fa7ec430a6397a0b", "is_reserved": 0}, {"is_disabled": 0, "fusion_lon": 0.0, "fusion_lat": 0.0, "lat": 38.93547066666667, "type": "electric_scooter", "lon": -77.03411833333334, "bike_id": "b263444a641860d06fd181dc351ad272", "rental_uris": {"android": "https://dc.lft.to/lastmile_qr_scan", "ios": "https://dc.lft.to/lastmile_qr_scan"}, "name": "b263444a641860d06fd181dc351ad272", "is_reserved": 0}, {"is_disabled": 0, "fusion_lon": 0.0, "fusion_lat": 0.0, "lat": 38.907464166666664, "type": "electric_scooter", "lon": -77.029832, "bike_id": "3ecaa70f31a11253fa2b51d85ff7c7dd", "rental_uris": {"android": "https://dc.lft.to/lastmile_qr_scan", "ios": "https://dc.lft.to/lastmile_qr_scan"}, "name": "3ecaa70f31a11253fa2b51d85ff7c7dd", "is_reserved": 0}, {"is_disabled": 0, "fusion_lon": 0.0, "fusion_lat": 0.0, "lat": 38.8863065, "type": "electric_scooter", "lon": -76.99855283333333, "bike_id": "337f6c259ea9e4d1536613b43ef3d3f3", "rental_uris": {"android": "https://dc.lft.to/lastmile_qr_scan", "ios": "https://dc.lft.to/lastmile_qr_scan"}, "name": "337f6c259ea9e4d1536613b43ef3d3f3", "is_reserved": 0}, {"is_disabled": 0, "fusion_lon": 0.0, "fusion_lat": 0.0, "lat": 38.897708, "type": "electric_scooter", "lon": -77.028514, "bike_id": "e563cf57e1e3982cf3419598ac566410", "rental_uris": {"android": "https://dc.lft.to/lastmile_qr_scan", "ios": "https://dc.lft.to/lastmile_qr_scan"}, "name": "e563cf57e1e3982cf3419598ac566410", "is_reserved": 0}, {"is_disabled": 0, "fusion_lon": 0.0, "fusion_lat": 0.0, "lat": 38.83812116666667, "type": "electric_scooter", "lon": -77.00431833333333, "bike_id": "499a3c189a868215bab2f07831ba4982", "rental_uris": {"android": "https://dc.lft.to/lastmile_qr_scan", "ios": "https://dc.lft.to/lastmile_qr_scan"}, "name": "499a3c189a868215bab2f07831ba4982", "is_reserved": 0}, {"is_disabled": 0, "fusion_lon": 0.0, "fusion_lat": 0.0, "lat": 38.84294966666667, "type": "electric_scooter", "lon": -76.99949183333334, "bike_id": "0b5ba01eeeeb659bb1650c567266a334", "rental_uris": {"android": "https://dc.lft.to/lastmile_qr_scan", "ios": "https://dc.lft.to/lastmile_qr_scan"}, "name": "0b5ba01eeeeb659bb1650c567266a334", "is_reserved": 0}, {"is_disabled": 0, "fusion_lon": 0.0, "fusion_lat": 0.0, "lat": 39.09944866666667, "type": "electric_bike", "lon": -77.18792666666667, "bike_id": "f1ec987718c24d9ab884bc552932bab3", "rental_uris": {"android": "https://dc.lft.to/lastmile_qr_scan", "ios": "https://dc.lft.to/lastmile_qr_scan"}, "name": "f1ec987718c24d9ab884bc552932bab3", "is_reserved": 0}, {"is_disabled": 0, "fusion_lon": 0.0, "fusion_lat": 0.0, "lat": 38.89514366666667, "type": "electric_scooter", "lon": -77.010978, "bike_id": "f4320505790b450510204acb6b96abb5", "rental_uris": {"android": "https://dc.lft.to/lastmile_qr_scan", "ios": "https://dc.lft.to/lastmile_qr_scan"}, "name": "f4320505790b450510204acb6b96abb5", "is_reserved": 0}, {"is_disabled": 0, "fusion_lon": 0.0, "fusion_lat": 0.0, "lat": 38.93511683333333, "type": "electric_bike", "lon": -76.94946566666667, "bike_id": "3a9f015b963c8d1760a2c862d16d5dcf", "rental_uris": {"android": "https://dc.lft.to/lastmile_qr_scan", "ios": "https://dc.lft.to/lastmile_qr_scan"}, "name": "3a9f015b963c8d1760a2c862d16d5dcf", "is_reserved": 0}, {"is_disabled": 0, "fusion_lon": 0.0, "fusion_lat": 0.0, "lat": 38.90796916666667, "type": "electric_scooter", "lon": -77.0498635, "bike_id": "b09aee07adf08fa8169c053ee53b353b", "rental_uris": {"android": "https://dc.lft.to/lastmile_qr_scan", "ios": "https://dc.lft.to/lastmile_qr_scan"}, "name": "b09aee07adf08fa8169c053ee53b353b", "is_reserved": 0}, {"is_disabled": 0, "fusion_lon": 0.0, "fusion_lat": 0.0, "lat": 38.92160466666667, "type": "electric_scooter", "lon": -77.03382683333334, "bike_id": "457e6f277c07a747d592edd1ac93c03c", "rental_uris": {"android": "https://dc.lft.to/lastmile_qr_scan", "ios": "https://dc.lft.to/lastmile_qr_scan"}, "name": "457e6f277c07a747d592edd1ac93c03c", "is_reserved": 0}, {"is_disabled": 0, "fusion_lon": 0.0, "fusion_lat": 0.0, "lat": 38.8946345, "type": "electric_scooter", "lon": -76.994893, "bike_id": "685cd45bd82b62f67787aee67a835e23", "rental_uris": {"android": "https://dc.lft.to/lastmile_qr_scan", "ios": "https://dc.lft.to/lastmile_qr_scan"}, "name": "685cd45bd82b62f67787aee67a835e23", "is_reserved": 0}, {"is_disabled": 0, "fusion_lon": 0.0, "fusion_lat": 0.0, "lat": 38.8287415, "type": "electric_bike", "lon": -77.11224783333333, "bike_id": "91cd6691719035cccc0f763f27ce8ef1", "rental_uris": {"android": "https://dc.lft.to/lastmile_qr_scan", "ios": "https://dc.lft.to/lastmile_qr_scan"}, "name": "91cd6691719035cccc0f763f27ce8ef1", "is_reserved": 0}, {"is_disabled": 0, "fusion_lon": 0.0, "fusion_lat": 0.0, "lat": 38.9656985, "type": "electric_scooter", "lon": -77.015739, "bike_id": "744df7a586548f1998bbcaa0e0eea4d1", "rental_uris": {"android": "https://dc.lft.to/lastmile_qr_scan", "ios": "https://dc.lft.to/lastmile_qr_scan"}, "name": "744df7a586548f1998bbcaa0e0eea4d1", "is_reserved": 0}, {"is_disabled": 0, "fusion_lon": 0.0, "fusion_lat": 0.0, "lat": 38.918146, "type": "electric_scooter", "lon": -77.02476816666666, "bike_id": "6b72bd27767869ff4e93d0f3148343c6", "rental_uris": {"android": "https://dc.lft.to/lastmile_qr_scan", "ios": "https://dc.lft.to/lastmile_qr_scan"}, "name": "6b72bd27767869ff4e93d0f3148343c6", "is_reserved": 0}, {"is_disabled": 0, "fusion_lon": 0.0, "fusion_lat": 0.0, "lat": 38.8826425, "type": "electric_scooter", "lon": -76.985413, "bike_id": "2c2b756c03086671f6649cb722a39782", "rental_uris": {"android": "https://dc.lft.to/lastmile_qr_scan", "ios": "https://dc.lft.to/lastmile_qr_scan"}, "name": "2c2b756c03086671f6649cb722a39782", "is_reserved": 0}, {"is_disabled": 0, "fusion_lon": 0.0, "fusion_lat": 0.0, "lat": 38.9555095, "type": "electric_bike", "lon": -76.93538916666667, "bike_id": "0345f57c1ddd12892316281d7a1142ef", "rental_uris": {"android": "https://dc.lft.to/lastmile_qr_scan", "ios": "https://dc.lft.to/lastmile_qr_scan"}, "name": "0345f57c1ddd12892316281d7a1142ef", "is_reserved": 0}, {"is_disabled": 0, "fusion_lon": 0.0, "fusion_lat": 0.0, "lat": 38.8319395, "type": "electric_bike", "lon": -77.0768645, "bike_id": "7e88a5a6fdfd07535fae95209f8c7ec8", "rental_uris": {"android": "https://dc.lft.to/lastmile_qr_scan", "ios": "https://dc.lft.to/lastmile_qr_scan"}, "name": "7e88a5a6fdfd07535fae95209f8c7ec8", "is_reserved": 0}, {"is_disabled": 0, "fusion_lon": 0.0, "fusion_lat": 0.0, "lat": 38.872451166666664, "type": "electric_scooter", "lon": -76.97729066666666, "bike_id": "f8ad597055438fcfe2fe7dbfd73d9cbc", "rental_uris": {"android": "https://dc.lft.to/lastmile_qr_scan", "ios": "https://dc.lft.to/lastmile_qr_scan"}, "name": "f8ad597055438fcfe2fe7dbfd73d9cbc", "is_reserved": 0}, {"is_disabled": 0, "fusion_lon": 0.0, "fusion_lat": 0.0, "lat": 38.83321983333333, "type": "electric_scooter", "lon": -77.00003683333334, "bike_id": "6df2eb2326bd0abb5f78d30e67002bf2", "rental_uris": {"android": "https://dc.lft.to/lastmile_qr_scan", "ios": "https://dc.lft.to/lastmile_qr_scan"}, "name": "6df2eb2326bd0abb5f78d30e67002bf2", "is_reserved": 0}, {"is_disabled": 0, "fusion_lon": 0.0, "fusion_lat": 0.0, "lat": 38.91337166666667, "type": "electric_scooter", "lon": -77.04871766666666, "bike_id": "ca48f5914ed5a6057f85015d0a9846d2", "rental_uris": {"android": "https://dc.lft.to/lastmile_qr_scan", "ios": "https://dc.lft.to/lastmile_qr_scan"}, "name": "ca48f5914ed5a6057f85015d0a9846d2", "is_reserved": 0}, {"is_disabled": 0, "fusion_lon": 0.0, "fusion_lat": 0.0, "lat": 38.92567483333333, "type": "electric_scooter", "lon": -77.02877316666667, "bike_id": "9880f67724abe134e25aa44521d83174", "rental_uris": {"android": "https://dc.lft.to/lastmile_qr_scan", "ios": "https://dc.lft.to/lastmile_qr_scan"}, "name": "9880f67724abe134e25aa44521d83174", "is_reserved": 0}, {"is_disabled": 0, "fusion_lon": 0.0, "fusion_lat": 0.0, "lat": 38.91540666666667, "type": "electric_scooter", "lon": -77.03793183333333, "bike_id": "022c55774d19a3cfa65089a0733f7bac", "rental_uris": {"android": "https://dc.lft.to/lastmile_qr_scan", "ios": "https://dc.lft.to/lastmile_qr_scan"}, "name": "022c55774d19a3cfa65089a0733f7bac", "is_reserved": 0}, {"is_disabled": 0, "fusion_lon": 0.0, "fusion_lat": 0.0, "lat": 38.95177316666667, "type": "electric_scooter", "lon": -77.05656433333333, "bike_id": "1c26a2119f656fead3985c23c1f11f51", "rental_uris": {"android": "https://dc.lft.to/lastmile_qr_scan", "ios": "https://dc.lft.to/lastmile_qr_scan"}, "name": "1c26a2119f656fead3985c23c1f11f51", "is_reserved": 0}, {"is_disabled": 0, "fusion_lon": 0.0, "fusion_lat": 0.0, "lat": 38.886840666666664, "type": "electric_scooter", "lon": -77.01371466666667, "bike_id": "f630f55b4bf1309b740aaa7e665e188e", "rental_uris": {"android": "https://dc.lft.to/lastmile_qr_scan", "ios": "https://dc.lft.to/lastmile_qr_scan"}, "name": "f630f55b4bf1309b740aaa7e665e188e", "is_reserved": 0}, {"is_disabled": 0, "fusion_lon": 0.0, "fusion_lat": 0.0, "lat": 38.901811, "type": "electric_scooter", "lon": -77.05011616666667, "bike_id": "be98f7c3f918afc2f051d1cbf6f51090", "rental_uris": {"android": "https://dc.lft.to/lastmile_qr_scan", "ios": "https://dc.lft.to/lastmile_qr_scan"}, "name": "be98f7c3f918afc2f051d1cbf6f51090", "is_reserved": 0}, {"is_disabled": 0, "fusion_lon": 0.0, "fusion_lat": 0.0, "lat": 38.927300833333334, "type": "electric_scooter", "lon": -77.0270075, "bike_id": "fa6831c8e823e004e2e703bb9195f106", "rental_uris": {"android": "https://dc.lft.to/lastmile_qr_scan", "ios": "https://dc.lft.to/lastmile_qr_scan"}, "name": "fa6831c8e823e004e2e703bb9195f106", "is_reserved": 0}, {"is_disabled": 0, "fusion_lon": 0.0, "fusion_lat": 0.0, "lat": 38.88667733333333, "type": "electric_scooter", "lon": -77.00357883333334, "bike_id": "11ba9a38757f5f0bf54b7cbcba0be219", "rental_uris": {"android": "https://dc.lft.to/lastmile_qr_scan", "ios": "https://dc.lft.to/lastmile_qr_scan"}, "name": "11ba9a38757f5f0bf54b7cbcba0be219", "is_reserved": 0}, {"is_disabled": 0, "fusion_lon": 0.0, "fusion_lat": 0.0, "lat": 38.92861633333333, "type": "electric_bike", "lon": -76.98935716666666, "bike_id": "6b78f8d4f7e4a82046a890e862710b07", "rental_uris": {"android": "https://dc.lft.to/lastmile_qr_scan", "ios": "https://dc.lft.to/lastmile_qr_scan"}, "name": "6b78f8d4f7e4a82046a890e862710b07", "is_reserved": 0}, {"is_disabled": 0, "fusion_lon": 0.0, "fusion_lat": 0.0, "lat": 38.968156, "type": "electric_scooter", "lon": -77.00890866666667, "bike_id": "d99799317f7de1c6c142a5d5a132d84a", "rental_uris": {"android": "https://dc.lft.to/lastmile_qr_scan", "ios": "https://dc.lft.to/lastmile_qr_scan"}, "name": "d99799317f7de1c6c142a5d5a132d84a", "is_reserved": 0}, {"is_disabled": 0, "fusion_lon": 0.0, "fusion_lat": 0.0, "lat": 38.89730383333333, "type": "electric_bike", "lon": -76.90538833333333, "bike_id": "b38c65ef6f17d54d5d88549fec776082", "rental_uris": {"android": "https://dc.lft.to/lastmile_qr_scan", "ios": "https://dc.lft.to/lastmile_qr_scan"}, "name": "b38c65ef6f17d54d5d88549fec776082", "is_reserved": 0}, {"is_disabled": 0, "fusion_lon": 0.0, "fusion_lat": 0.0, "lat": 39.05207683333333, "type": "electric_bike", "lon": -77.044051, "bike_id": "1b42383f31ea0eb9fcbf05c341579cf2", "rental_uris": {"android": "https://dc.lft.to/lastmile_qr_scan", "ios": "https://dc.lft.to/lastmile_qr_scan"}, "name": "1b42383f31ea0eb9fcbf05c341579cf2", "is_reserved": 0}, {"is_disabled": 0, "fusion_lon": 0.0, "fusion_lat": 0.0, "lat": 38.91656533333333, "type": "electric_scooter", "lon": -77.0465455, "bike_id": "53cca5347d68f5d0cf1284587499ce98", "rental_uris": {"android": "https://dc.lft.to/lastmile_qr_scan", "ios": "https://dc.lft.to/lastmile_qr_scan"}, "name": "53cca5347d68f5d0cf1284587499ce98", "is_reserved": 0}, {"is_disabled": 0, "fusion_lon": 0.0, "fusion_lat": 0.0, "lat": 38.90423116666667, "type": "electric_scooter", "lon": -77.0316495, "bike_id": "e00a92436fa5ae7c93476ee300a9b441", "rental_uris": {"android": "https://dc.lft.to/lastmile_qr_scan", "ios": "https://dc.lft.to/lastmile_qr_scan"}, "name": "e00a92436fa5ae7c93476ee300a9b441", "is_reserved": 0}, {"is_disabled": 0, "fusion_lon": 0.0, "fusion_lat": 0.0, "lat": 38.93909216666667, "type": "electric_scooter", "lon": -77.07805166666667, "bike_id": "e07b6d95da031cdad1c84a7dbe74f007", "rental_uris": {"android": "https://dc.lft.to/lastmile_qr_scan", "ios": "https://dc.lft.to/lastmile_qr_scan"}, "name": "e07b6d95da031cdad1c84a7dbe74f007", "is_reserved": 0}, {"is_disabled": 0, "fusion_lon": 0.0, "fusion_lat": 0.0, "lat": 38.91187933333333, "type": "electric_scooter", "lon": -77.04153883333333, "bike_id": "2395dcf19896c942947af38c4028c1fe", "rental_uris": {"android": "https://dc.lft.to/lastmile_qr_scan", "ios": "https://dc.lft.to/lastmile_qr_scan"}, "name": "2395dcf19896c942947af38c4028c1fe", "is_reserved": 0}, {"is_disabled": 0, "fusion_lon": 0.0, "fusion_lat": 0.0, "lat": 38.906576666666666, "type": "electric_scooter", "lon": -77.0252395, "bike_id": "67b2c9263f0b0d6b0a8b72a3a913f952", "rental_uris": {"android": "https://dc.lft.to/lastmile_qr_scan", "ios": "https://dc.lft.to/lastmile_qr_scan"}, "name": "67b2c9263f0b0d6b0a8b72a3a913f952", "is_reserved": 0}, {"is_disabled": 0, "fusion_lon": 0.0, "fusion_lat": 0.0, "lat": 38.91380983333333, "type": "electric_scooter", "lon": -77.02972833333334, "bike_id": "b5dcdc4ad3f92a2d2caef8bfe1f4444b", "rental_uris": {"android": "https://dc.lft.to/lastmile_qr_scan", "ios": "https://dc.lft.to/lastmile_qr_scan"}, "name": "b5dcdc4ad3f92a2d2caef8bfe1f4444b", "is_reserved": 0}, {"is_disabled": 0, "fusion_lon": 0.0, "fusion_lat": 0.0, "lat": 38.92382533333333, "type": "electric_scooter", "lon": -77.02764283333333, "bike_id": "2c715d63ca7f628a0e64605a70144bca", "rental_uris": {"android": "https://dc.lft.to/lastmile_qr_scan", "ios": "https://dc.lft.to/lastmile_qr_scan"}, "name": "2c715d63ca7f628a0e64605a70144bca", "is_reserved": 0}, {"is_disabled": 0, "fusion_lon": 0.0, "fusion_lat": 0.0, "lat": 38.883479, "type": "electric_scooter", "lon": -76.9278555, "bike_id": "60fd919804e220cc2574ea1bbb50e061", "rental_uris": {"android": "https://dc.lft.to/lastmile_qr_scan", "ios": "https://dc.lft.to/lastmile_qr_scan"}, "name": "60fd919804e220cc2574ea1bbb50e061", "is_reserved": 0}, {"is_disabled": 0, "fusion_lon": 0.0, "fusion_lat": 0.0, "lat": 38.87937133333333, "type": "electric_scooter", "lon": -77.00555533333333, "bike_id": "e0a374ab376b4de01c90791e6614ff42", "rental_uris": {"android": "https://dc.lft.to/lastmile_qr_scan", "ios": "https://dc.lft.to/lastmile_qr_scan"}, "name": "e0a374ab376b4de01c90791e6614ff42", "is_reserved": 0}, {"is_disabled": 0, "fusion_lon": 0.0, "fusion_lat": 0.0, "lat": 38.831729333333335, "type": "electric_bike", "lon": -76.99755883333333, "bike_id": "9ad9befede37f8638b335226dfa0468a", "rental_uris": {"android": "https://dc.lft.to/lastmile_qr_scan", "ios": "https://dc.lft.to/lastmile_qr_scan"}, "name": "9ad9befede37f8638b335226dfa0468a", "is_reserved": 0}, {"is_disabled": 0, "fusion_lon": 0.0, "fusion_lat": 0.0, "lat": 38.8926125, "type": "electric_scooter", "lon": -76.94158833333333, "bike_id": "4aa22ce6ff8b660f4125f42fbb22f630", "rental_uris": {"android": "https://dc.lft.to/lastmile_qr_scan", "ios": "https://dc.lft.to/lastmile_qr_scan"}, "name": "4aa22ce6ff8b660f4125f42fbb22f630", "is_reserved": 0}, {"is_disabled": 0, "fusion_lon": 0.0, "fusion_lat": 0.0, "lat": 38.898528, "type": "electric_bike", "lon": -76.931916, "bike_id": "be813743bd795d4bae78e21db44cc46b", "rental_uris": {"android": "https://dc.lft.to/lastmile_qr_scan", "ios": "https://dc.lft.to/lastmile_qr_scan"}, "name": "be813743bd795d4bae78e21db44cc46b", "is_reserved": 0}, {"is_disabled": 0, "fusion_lon": 0.0, "fusion_lat": 0.0, "lat": 38.908249, "type": "electric_scooter", "lon": -77.03362133333333, "bike_id": "b87837d139602f8c710b2d9af1df0bb5", "rental_uris": {"android": "https://dc.lft.to/lastmile_qr_scan", "ios": "https://dc.lft.to/lastmile_qr_scan"}, "name": "b87837d139602f8c710b2d9af1df0bb5", "is_reserved": 0}, {"is_disabled": 0, "fusion_lon": 0.0, "fusion_lat": 0.0, "lat": 38.9095055, "type": "electric_scooter", "lon": -77.01531, "bike_id": "59db9781aff74e2b1b3040b04d9e09d6", "rental_uris": {"android": "https://dc.lft.to/lastmile_qr_scan", "ios": "https://dc.lft.to/lastmile_qr_scan"}, "name": "59db9781aff74e2b1b3040b04d9e09d6", "is_reserved": 0}, {"is_disabled": 0, "fusion_lon": 0.0, "fusion_lat": 0.0, "lat": 38.9031235, "type": "electric_scooter", "lon": -76.98245233333333, "bike_id": "3af1c8e283091abec2f1f19f6525e451", "rental_uris": {"android": "https://dc.lft.to/lastmile_qr_scan", "ios": "https://dc.lft.to/lastmile_qr_scan"}, "name": "3af1c8e283091abec2f1f19f6525e451", "is_reserved": 0}, {"is_disabled": 0, "fusion_lon": 0.0, "fusion_lat": 0.0, "lat": 38.898427166666664, "type": "electric_scooter", "lon": -76.9463405, "bike_id": "bdd7b8cadc1d9a8f359c23749ba0a21c", "rental_uris": {"android": "https://dc.lft.to/lastmile_qr_scan", "ios": "https://dc.lft.to/lastmile_qr_scan"}, "name": "bdd7b8cadc1d9a8f359c23749ba0a21c", "is_reserved": 0}, {"is_disabled": 0, "fusion_lon": 0.0, "fusion_lat": 0.0, "lat": 38.87338, "type": "electric_bike", "lon": -77.018563, "bike_id": "d4de6f81bfcfaf3f9e5779db642550c0", "rental_uris": {"android": "https://dc.lft.to/lastmile_qr_scan", "ios": "https://dc.lft.to/lastmile_qr_scan"}, "name": "d4de6f81bfcfaf3f9e5779db642550c0", "is_reserved": 0}, {"is_disabled": 0, "fusion_lon": 0.0, "fusion_lat": 0.0, "lat": 38.92793433333333, "type": "electric_scooter", "lon": -77.03149016666667, "bike_id": "d93e73b21dd9648ca36a0613ec82554e", "rental_uris": {"android": "https://dc.lft.to/lastmile_qr_scan", "ios": "https://dc.lft.to/lastmile_qr_scan"}, "name": "d93e73b21dd9648ca36a0613ec82554e", "is_reserved": 0}, {"is_disabled": 0, "fusion_lon": 0.0, "fusion_lat": 0.0, "lat": 38.95087683333333, "type": "electric_bike", "lon": -76.965622, "bike_id": "b6f67d97f2db987fb4afe94c198f221a", "rental_uris": {"android": "https://dc.lft.to/lastmile_qr_scan", "ios": "https://dc.lft.to/lastmile_qr_scan"}, "name": "b6f67d97f2db987fb4afe94c198f221a", "is_reserved": 0}, {"is_disabled": 0, "fusion_lon": 0.0, "fusion_lat": 0.0, "lat": 38.90793433333333, "type": "electric_scooter", "lon": -77.04098083333334, "bike_id": "b2d08aac27023ae9f5538c2a28ab290a", "rental_uris": {"android": "https://dc.lft.to/lastmile_qr_scan", "ios": "https://dc.lft.to/lastmile_qr_scan"}, "name": "b2d08aac27023ae9f5538c2a28ab290a", "is_reserved": 0}, {"is_disabled": 0, "fusion_lon": 0.0, "fusion_lat": 0.0, "lat": 38.912532166666665, "type": "electric_scooter", "lon": -77.00933833333333, "bike_id": "4638610f2570dd2981e7bd92a78d5291", "rental_uris": {"android": "https://dc.lft.to/lastmile_qr_scan", "ios": "https://dc.lft.to/lastmile_qr_scan"}, "name": "4638610f2570dd2981e7bd92a78d5291", "is_reserved": 0}, {"is_disabled": 0, "fusion_lon": 0.0, "fusion_lat": 0.0, "lat": 38.9112425, "type": "electric_scooter", "lon": -77.04208666666666, "bike_id": "bdb820137ffd7b4f2a87f65b7ab9cc9c", "rental_uris": {"android": "https://dc.lft.to/lastmile_qr_scan", "ios": "https://dc.lft.to/lastmile_qr_scan"}, "name": "bdb820137ffd7b4f2a87f65b7ab9cc9c", "is_reserved": 0}, {"is_disabled": 0, "fusion_lon": 0.0, "fusion_lat": 0.0, "lat": 38.9192045, "type": "electric_scooter", "lon": -77.03418866666667, "bike_id": "601571cca3d6dc21b0c92c437f61a3dd", "rental_uris": {"android": "https://dc.lft.to/lastmile_qr_scan", "ios": "https://dc.lft.to/lastmile_qr_scan"}, "name": "601571cca3d6dc21b0c92c437f61a3dd", "is_reserved": 0}, {"is_disabled": 0, "fusion_lon": 0.0, "fusion_lat": 0.0, "lat": 38.920709, "type": "electric_scooter", "lon": -77.01811116666667, "bike_id": "4186a3920cbbee429359a16c02f7481c", "rental_uris": {"android": "https://dc.lft.to/lastmile_qr_scan", "ios": "https://dc.lft.to/lastmile_qr_scan"}, "name": "4186a3920cbbee429359a16c02f7481c", "is_reserved": 0}, {"is_disabled": 0, "fusion_lon": 0.0, "fusion_lat": 0.0, "lat": 38.865913666666664, "type": "electric_scooter", "lon": -76.99022833333333, "bike_id": "6b147e1bfd24f7a5128143b50b8ae6af", "rental_uris": {"android": "https://dc.lft.to/lastmile_qr_scan", "ios": "https://dc.lft.to/lastmile_qr_scan"}, "name": "6b147e1bfd24f7a5128143b50b8ae6af", "is_reserved": 0}, {"is_disabled": 0, "fusion_lon": 0.0, "fusion_lat": 0.0, "lat": 38.905374333333334, "type": "electric_scooter", "lon": -77.04657916666666, "bike_id": "4a131ea79ad456c64cdcfda0d48d6e72", "rental_uris": {"android": "https://dc.lft.to/lastmile_qr_scan", "ios": "https://dc.lft.to/lastmile_qr_scan"}, "name": "4a131ea79ad456c64cdcfda0d48d6e72", "is_reserved": 0}, {"is_disabled": 0, "fusion_lon": 0.0, "fusion_lat": 0.0, "lat": 38.9192365, "type": "electric_scooter", "lon": -77.03419583333333, "bike_id": "c307d32d63891c7fa854690d7e7d11c3", "rental_uris": {"android": "https://dc.lft.to/lastmile_qr_scan", "ios": "https://dc.lft.to/lastmile_qr_scan"}, "name": "c307d32d63891c7fa854690d7e7d11c3", "is_reserved": 0}, {"is_disabled": 0, "fusion_lon": 0.0, "fusion_lat": 0.0, "lat": 38.90178316666667, "type": "electric_scooter", "lon": -76.928281, "bike_id": "f10df815e9eecbdb102c895ce24668a5", "rental_uris": {"android": "https://dc.lft.to/lastmile_qr_scan", "ios": "https://dc.lft.to/lastmile_qr_scan"}, "name": "f10df815e9eecbdb102c895ce24668a5", "is_reserved": 0}, {"is_disabled": 0, "fusion_lon": 0.0, "fusion_lat": 0.0, "lat": 38.88713333333333, "type": "electric_scooter", "lon": -77.02820616666666, "bike_id": "e340b3a7f6b239dee0a9d4a08840395d", "rental_uris": {"android": "https://dc.lft.to/lastmile_qr_scan", "ios": "https://dc.lft.to/lastmile_qr_scan"}, "name": "e340b3a7f6b239dee0a9d4a08840395d", "is_reserved": 0}, {"is_disabled": 0, "fusion_lon": 0.0, "fusion_lat": 0.0, "lat": 38.93110383333333, "type": "electric_scooter", "lon": -77.03486983333333, "bike_id": "63380062c9b7a5ad4df21eeb0bc5f94d", "rental_uris": {"android": "https://dc.lft.to/lastmile_qr_scan", "ios": "https://dc.lft.to/lastmile_qr_scan"}, "name": "63380062c9b7a5ad4df21eeb0bc5f94d", "is_reserved": 0}, {"is_disabled": 0, "fusion_lon": 0.0, "fusion_lat": 0.0, "lat": 38.93203183333333, "type": "electric_scooter", "lon": -77.03666766666667, "bike_id": "5b37ab21efc9c724be2a35e056331ffc", "rental_uris": {"android": "https://dc.lft.to/lastmile_qr_scan", "ios": "https://dc.lft.to/lastmile_qr_scan"}, "name": "5b37ab21efc9c724be2a35e056331ffc", "is_reserved": 0}, {"is_disabled": 0, "fusion_lon": 0.0, "fusion_lat": 0.0, "lat": 38.91873866666667, "type": "electric_bike", "lon": -76.96125983333333, "bike_id": "d3e6210d5c7b19d1761101179e65e7cc", "rental_uris": {"android": "https://dc.lft.to/lastmile_qr_scan", "ios": "https://dc.lft.to/lastmile_qr_scan"}, "name": "d3e6210d5c7b19d1761101179e65e7cc", "is_reserved": 0}, {"is_disabled": 0, "fusion_lon": 0.0, "fusion_lat": 0.0, "lat": 38.89614616666667, "type": "electric_scooter", "lon": -76.99634233333333, "bike_id": "4079562eba485b5c1262883792833266", "rental_uris": {"android": "https://dc.lft.to/lastmile_qr_scan", "ios": "https://dc.lft.to/lastmile_qr_scan"}, "name": "4079562eba485b5c1262883792833266", "is_reserved": 0}, {"is_disabled": 0, "fusion_lon": 0.0, "fusion_lat": 0.0, "lat": 38.912793, "type": "electric_scooter", "lon": -77.01403166666667, "bike_id": "a5ac3c53e13df07ee3b1e9ce6694a054", "rental_uris": {"android": "https://dc.lft.to/lastmile_qr_scan", "ios": "https://dc.lft.to/lastmile_qr_scan"}, "name": "a5ac3c53e13df07ee3b1e9ce6694a054", "is_reserved": 0}, {"is_disabled": 0, "fusion_lon": 0.0, "fusion_lat": 0.0, "lat": 38.918737666666665, "type": "electric_scooter", "lon": -77.0443085, "bike_id": "ad79b90f2cd37309ec6616538a6f9a91", "rental_uris": {"android": "https://dc.lft.to/lastmile_qr_scan", "ios": "https://dc.lft.to/lastmile_qr_scan"}, "name": "ad79b90f2cd37309ec6616538a6f9a91", "is_reserved": 0}, {"is_disabled": 0, "fusion_lon": 0.0, "fusion_lat": 0.0, "lat": 38.908143833333334, "type": "electric_scooter", "lon": -77.03393, "bike_id": "47e8743f180bbc84619a6d414bf83d97", "rental_uris": {"android": "https://dc.lft.to/lastmile_qr_scan", "ios": "https://dc.lft.to/lastmile_qr_scan"}, "name": "47e8743f180bbc84619a6d414bf83d97", "is_reserved": 0}, {"is_disabled": 0, "fusion_lon": 0.0, "fusion_lat": 0.0, "lat": 38.94785916666667, "type": "electric_scooter", "lon": -77.09279816666667, "bike_id": "62f3c9e5d0f6132ac149ce469d946972", "rental_uris": {"android": "https://dc.lft.to/lastmile_qr_scan", "ios": "https://dc.lft.to/lastmile_qr_scan"}, "name": "62f3c9e5d0f6132ac149ce469d946972", "is_reserved": 0}, {"is_disabled": 0, "fusion_lon": 0.0, "fusion_lat": 0.0, "lat": 38.9288695, "type": "electric_scooter", "lon": -77.023147, "bike_id": "0efad0f6a93f0986e03d3d292ef94adb", "rental_uris": {"android": "https://dc.lft.to/lastmile_qr_scan", "ios": "https://dc.lft.to/lastmile_qr_scan"}, "name": "0efad0f6a93f0986e03d3d292ef94adb", "is_reserved": 0}, {"is_disabled": 0, "fusion_lon": 0.0, "fusion_lat": 0.0, "lat": 39.02998916666667, "type": "electric_bike", "lon": -77.10653816666667, "bike_id": "a2d2c5cac99f8a87c66def4a60226fd9", "rental_uris": {"android": "https://dc.lft.to/lastmile_qr_scan", "ios": "https://dc.lft.to/lastmile_qr_scan"}, "name": "a2d2c5cac99f8a87c66def4a60226fd9", "is_reserved": 0}, {"is_disabled": 0, "fusion_lon": 0.0, "fusion_lat": 0.0, "lat": 38.96445966666667, "type": "electric_bike", "lon": -76.97721666666666, "bike_id": "931c7179572b768441a0c6274167391d", "rental_uris": {"android": "https://dc.lft.to/lastmile_qr_scan", "ios": "https://dc.lft.to/lastmile_qr_scan"}, "name": "931c7179572b768441a0c6274167391d", "is_reserved": 0}, {"is_disabled": 0, "fusion_lon": 0.0, "fusion_lat": 0.0, "lat": 38.93415616666667, "type": "electric_bike", "lon": -77.02514883333333, "bike_id": "9ea4568cb88416f7ad9b01d07351fe24", "rental_uris": {"android": "https://dc.lft.to/lastmile_qr_scan", "ios": "https://dc.lft.to/lastmile_qr_scan"}, "name": "9ea4568cb88416f7ad9b01d07351fe24", "is_reserved": 0}, {"is_disabled": 0, "fusion_lon": 0.0, "fusion_lat": 0.0, "lat": 38.858487333333336, "type": "electric_bike", "lon": -77.097509, "bike_id": "77a8409ff3a3c02d9d0a991ae326d05f", "rental_uris": {"android": "https://dc.lft.to/lastmile_qr_scan", "ios": "https://dc.lft.to/lastmile_qr_scan"}, "name": "77a8409ff3a3c02d9d0a991ae326d05f", "is_reserved": 0}, {"is_disabled": 0, "fusion_lon": 0.0, "fusion_lat": 0.0, "lat": 38.865951333333335, "type": "electric_bike", "lon": -76.974537, "bike_id": "a97a9a78872f2331f84d0cbe5cdf720a", "rental_uris": {"android": "https://dc.lft.to/lastmile_qr_scan", "ios": "https://dc.lft.to/lastmile_qr_scan"}, "name": "a97a9a78872f2331f84d0cbe5cdf720a", "is_reserved": 0}, {"is_disabled": 0, "fusion_lon": 0.0, "fusion_lat": 0.0, "lat": 38.842941, "type": "electric_scooter", "lon": -76.99948716666667, "bike_id": "5c651a63a77a6f852517a0eee7ee11ab", "rental_uris": {"android": "https://dc.lft.to/lastmile_qr_scan", "ios": "https://dc.lft.to/lastmile_qr_scan"}, "name": "5c651a63a77a6f852517a0eee7ee11ab", "is_reserved": 0}, {"is_disabled": 0, "fusion_lon": 0.0, "fusion_lat": 0.0, "lat": 38.887538166666666, "type": "electric_scooter", "lon": -77.01609866666666, "bike_id": "1cea6e7445ec0f9df38de208fd9f4343", "rental_uris": {"android": "https://dc.lft.to/lastmile_qr_scan", "ios": "https://dc.lft.to/lastmile_qr_scan"}, "name": "1cea6e7445ec0f9df38de208fd9f4343", "is_reserved": 0}, {"is_disabled": 0, "fusion_lon": 0.0, "fusion_lat": 0.0, "lat": 38.940470833333336, "type": "electric_scooter", "lon": -77.0249515, "bike_id": "d7760d0aa2086ad8db21c124eb452071", "rental_uris": {"android": "https://dc.lft.to/lastmile_qr_scan", "ios": "https://dc.lft.to/lastmile_qr_scan"}, "name": "d7760d0aa2086ad8db21c124eb452071", "is_reserved": 0}, {"is_disabled": 0, "fusion_lon": 0.0, "fusion_lat": 0.0, "lat": 38.9202215, "type": "electric_scooter", "lon": -77.0312485, "bike_id": "4fc0ef4ae93507b0e2cb9d01f832187f", "rental_uris": {"android": "https://dc.lft.to/lastmile_qr_scan", "ios": "https://dc.lft.to/lastmile_qr_scan"}, "name": "4fc0ef4ae93507b0e2cb9d01f832187f", "is_reserved": 0}, {"is_disabled": 0, "fusion_lon": 0.0, "fusion_lat": 0.0, "lat": 38.8990925, "type": "electric_scooter", "lon": -76.93391116666666, "bike_id": "5c93df515125456b4db57b37a442b19d", "rental_uris": {"android": "https://dc.lft.to/lastmile_qr_scan", "ios": "https://dc.lft.to/lastmile_qr_scan"}, "name": "5c93df515125456b4db57b37a442b19d", "is_reserved": 0}, {"is_disabled": 0, "fusion_lon": 0.0, "fusion_lat": 0.0, "lat": 38.942709, "type": "electric_scooter", "lon": -77.032605, "bike_id": "6ef013ae50c6b1f09d2ec68cf22892a1", "rental_uris": {"android": "https://dc.lft.to/lastmile_qr_scan", "ios": "https://dc.lft.to/lastmile_qr_scan"}, "name": "6ef013ae50c6b1f09d2ec68cf22892a1", "is_reserved": 0}, {"is_disabled": 0, "fusion_lon": 0.0, "fusion_lat": 0.0, "lat": 38.899536166666664, "type": "electric_scooter", "lon": -77.05202466666667, "bike_id": "017433ec9dd131d91e24a7832b656511", "rental_uris": {"android": "https://dc.lft.to/lastmile_qr_scan", "ios": "https://dc.lft.to/lastmile_qr_scan"}, "name": "017433ec9dd131d91e24a7832b656511", "is_reserved": 0}, {"is_disabled": 0, "fusion_lon": 0.0, "fusion_lat": 0.0, "lat": 38.906586833333336, "type": "electric_scooter", "lon": -77.0453215, "bike_id": "c72700c9da8c6804a158acb3b411bcbe", "rental_uris": {"android": "https://dc.lft.to/lastmile_qr_scan", "ios": "https://dc.lft.to/lastmile_qr_scan"}, "name": "c72700c9da8c6804a158acb3b411bcbe", "is_reserved": 0}, {"is_disabled": 0, "fusion_lon": 0.0, "fusion_lat": 0.0, "lat": 38.9006565, "type": "electric_scooter", "lon": -77.04924833333334, "bike_id": "d531b6a378c0e6ac398ad007c744258b", "rental_uris": {"android": "https://dc.lft.to/lastmile_qr_scan", "ios": "https://dc.lft.to/lastmile_qr_scan"}, "name": "d531b6a378c0e6ac398ad007c744258b", "is_reserved": 0}, {"is_disabled": 0, "fusion_lon": 0.0, "fusion_lat": 0.0, "lat": 38.9192455, "type": "electric_scooter", "lon": -77.0308775, "bike_id": "c455127296264c07b186fa0980fd9e48", "rental_uris": {"android": "https://dc.lft.to/lastmile_qr_scan", "ios": "https://dc.lft.to/lastmile_qr_scan"}, "name": "c455127296264c07b186fa0980fd9e48", "is_reserved": 0}, {"is_disabled": 0, "fusion_lon": 0.0, "fusion_lat": 0.0, "lat": 38.905155, "type": "electric_scooter", "lon": -76.98255, "bike_id": "11a8f26d49cc135681dcb6bb10ee059a", "rental_uris": {"android": "https://dc.lft.to/lastmile_qr_scan", "ios": "https://dc.lft.to/lastmile_qr_scan"}, "name": "11a8f26d49cc135681dcb6bb10ee059a", "is_reserved": 0}, {"is_disabled": 0, "fusion_lon": 0.0, "fusion_lat": 0.0, "lat": 38.916938333333334, "type": "electric_scooter", "lon": -77.0259825, "bike_id": "34210138cbba364e70ec01f1ab334989", "rental_uris": {"android": "https://dc.lft.to/lastmile_qr_scan", "ios": "https://dc.lft.to/lastmile_qr_scan"}, "name": "34210138cbba364e70ec01f1ab334989", "is_reserved": 0}, {"is_disabled": 0, "fusion_lon": 0.0, "fusion_lat": 0.0, "lat": 39.0078285, "type": "electric_bike", "lon": -76.995628, "bike_id": "75d0d7f008a09bdd9c6450ec1a7103ec", "rental_uris": {"android": "https://dc.lft.to/lastmile_qr_scan", "ios": "https://dc.lft.to/lastmile_qr_scan"}, "name": "75d0d7f008a09bdd9c6450ec1a7103ec", "is_reserved": 0}, {"is_disabled": 0, "fusion_lon": 0.0, "fusion_lat": 0.0, "lat": 38.923331166666664, "type": "electric_scooter", "lon": -77.03594683333333, "bike_id": "f36b0e553d7332370eb7102e281ec8be", "rental_uris": {"android": "https://dc.lft.to/lastmile_qr_scan", "ios": "https://dc.lft.to/lastmile_qr_scan"}, "name": "f36b0e553d7332370eb7102e281ec8be", "is_reserved": 0}, {"is_disabled": 0, "fusion_lon": 0.0, "fusion_lat": 0.0, "lat": 38.91685433333333, "type": "electric_scooter", "lon": -77.0299505, "bike_id": "691ec4000db4b494a805dba3a03bfee3", "rental_uris": {"android": "https://dc.lft.to/lastmile_qr_scan", "ios": "https://dc.lft.to/lastmile_qr_scan"}, "name": "691ec4000db4b494a805dba3a03bfee3", "is_reserved": 0}, {"is_disabled": 0, "fusion_lon": 0.0, "fusion_lat": 0.0, "lat": 38.834303, "type": "electric_bike", "lon": -77.10352783333333, "bike_id": "3c32224a9135760684368055517d94f5", "rental_uris": {"android": "https://dc.lft.to/lastmile_qr_scan", "ios": "https://dc.lft.to/lastmile_qr_scan"}, "name": "3c32224a9135760684368055517d94f5", "is_reserved": 0}, {"is_disabled": 0, "fusion_lon": 0.0, "fusion_lat": 0.0, "lat": 38.905569166666666, "type": "electric_scooter", "lon": -77.00552666666667, "bike_id": "bfb270a8c6c2b19690d15fa8fa9dfafa", "rental_uris": {"android": "https://dc.lft.to/lastmile_qr_scan", "ios": "https://dc.lft.to/lastmile_qr_scan"}, "name": "bfb270a8c6c2b19690d15fa8fa9dfafa", "is_reserved": 0}, {"is_disabled": 0, "fusion_lon": 0.0, "fusion_lat": 0.0, "lat": 38.911101, "type": "electric_scooter", "lon": -77.03559383333334, "bike_id": "d13eaf3c4692c5276d5c8419a755ffb7", "rental_uris": {"android": "https://dc.lft.to/lastmile_qr_scan", "ios": "https://dc.lft.to/lastmile_qr_scan"}, "name": "d13eaf3c4692c5276d5c8419a755ffb7", "is_reserved": 0}, {"is_disabled": 0, "fusion_lon": 0.0, "fusion_lat": 0.0, "lat": 38.94547883333333, "type": "electric_scooter", "lon": -77.04253033333333, "bike_id": "333fc625c7e7ffe4778c71fd4ed79a19", "rental_uris": {"android": "https://dc.lft.to/lastmile_qr_scan", "ios": "https://dc.lft.to/lastmile_qr_scan"}, "name": "333fc625c7e7ffe4778c71fd4ed79a19", "is_reserved": 0}, {"is_disabled": 0, "fusion_lon": 0.0, "fusion_lat": 0.0, "lat": 38.91799433333333, "type": "electric_scooter", "lon": -77.03463183333334, "bike_id": "a852ff83ba25d95f2aee4375d36bc8ff", "rental_uris": {"android": "https://dc.lft.to/lastmile_qr_scan", "ios": "https://dc.lft.to/lastmile_qr_scan"}, "name": "a852ff83ba25d95f2aee4375d36bc8ff", "is_reserved": 0}, {"is_disabled": 0, "fusion_lon": 0.0, "fusion_lat": 0.0, "lat": 38.90490883333333, "type": "electric_scooter", "lon": -77.0269785, "bike_id": "1aa600ddf7136b934c9e713b53240c69", "rental_uris": {"android": "https://dc.lft.to/lastmile_qr_scan", "ios": "https://dc.lft.to/lastmile_qr_scan"}, "name": "1aa600ddf7136b934c9e713b53240c69", "is_reserved": 0}, {"is_disabled": 0, "fusion_lon": 0.0, "fusion_lat": 0.0, "lat": 38.92952666666667, "type": "electric_scooter", "lon": -77.02339783333333, "bike_id": "ee8d7f7ab676cf43dfe2cd0af0038777", "rental_uris": {"android": "https://dc.lft.to/lastmile_qr_scan", "ios": "https://dc.lft.to/lastmile_qr_scan"}, "name": "ee8d7f7ab676cf43dfe2cd0af0038777", "is_reserved": 0}, {"is_disabled": 0, "fusion_lon": 0.0, "fusion_lat": 0.0, "lat": 38.9108645, "type": "electric_bike", "lon": -77.005049, "bike_id": "010770e59d017230d3a354deaa035517", "rental_uris": {"android": "https://dc.lft.to/lastmile_qr_scan", "ios": "https://dc.lft.to/lastmile_qr_scan"}, "name": "010770e59d017230d3a354deaa035517", "is_reserved": 0}, {"is_disabled": 0, "fusion_lon": 0.0, "fusion_lat": 0.0, "lat": 38.9274995, "type": "electric_scooter", "lon": -77.0254145, "bike_id": "472435f1be9c5b57762c396ca2b44e32", "rental_uris": {"android": "https://dc.lft.to/lastmile_qr_scan", "ios": "https://dc.lft.to/lastmile_qr_scan"}, "name": "472435f1be9c5b57762c396ca2b44e32", "is_reserved": 0}, {"is_disabled": 0, "fusion_lon": 0.0, "fusion_lat": 0.0, "lat": 38.87679133333334, "type": "electric_scooter", "lon": -77.0178645, "bike_id": "138cfa705b17accf5fa54f6b95ff383a", "rental_uris": {"android": "https://dc.lft.to/lastmile_qr_scan", "ios": "https://dc.lft.to/lastmile_qr_scan"}, "name": "138cfa705b17accf5fa54f6b95ff383a", "is_reserved": 0}, {"is_disabled": 0, "fusion_lon": 0.0, "fusion_lat": 0.0, "lat": 38.914920333333335, "type": "electric_scooter", "lon": -76.98380733333333, "bike_id": "3a9516102ae7df9aa0b775f1f243a2b4", "rental_uris": {"android": "https://dc.lft.to/lastmile_qr_scan", "ios": "https://dc.lft.to/lastmile_qr_scan"}, "name": "3a9516102ae7df9aa0b775f1f243a2b4", "is_reserved": 0}, {"is_disabled": 0, "fusion_lon": 0.0, "fusion_lat": 0.0, "lat": 38.917014333333334, "type": "electric_scooter", "lon": -77.04298166666666, "bike_id": "50c58679b22f623cdb2cc6a23bb88953", "rental_uris": {"android": "https://dc.lft.to/lastmile_qr_scan", "ios": "https://dc.lft.to/lastmile_qr_scan"}, "name": "50c58679b22f623cdb2cc6a23bb88953", "is_reserved": 0}, {"is_disabled": 0, "fusion_lon": 0.0, "fusion_lat": 0.0, "lat": 38.90566783333333, "type": "electric_scooter", "lon": -77.024714, "bike_id": "d223305334ceb10087d6068ee10818e8", "rental_uris": {"android": "https://dc.lft.to/lastmile_qr_scan", "ios": "https://dc.lft.to/lastmile_qr_scan"}, "name": "d223305334ceb10087d6068ee10818e8", "is_reserved": 0}, {"is_disabled": 0, "fusion_lon": 0.0, "fusion_lat": 0.0, "lat": 38.928496833333334, "type": "electric_scooter", "lon": -77.0562465, "bike_id": "54275c1a0eac66ef64471ddfc013c0ea", "rental_uris": {"android": "https://dc.lft.to/lastmile_qr_scan", "ios": "https://dc.lft.to/lastmile_qr_scan"}, "name": "54275c1a0eac66ef64471ddfc013c0ea", "is_reserved": 0}, {"is_disabled": 0, "fusion_lon": 0.0, "fusion_lat": 0.0, "lat": 38.91857733333333, "type": "electric_bike", "lon": -76.96091433333333, "bike_id": "088065b0f084037f6d31289f0734cb3a", "rental_uris": {"android": "https://dc.lft.to/lastmile_qr_scan", "ios": "https://dc.lft.to/lastmile_qr_scan"}, "name": "088065b0f084037f6d31289f0734cb3a", "is_reserved": 0}, {"is_disabled": 0, "fusion_lon": 0.0, "fusion_lat": 0.0, "lat": 38.91270083333333, "type": "electric_scooter", "lon": -77.033626, "bike_id": "6e20a6676cd83a3780bf4327f30592ca", "rental_uris": {"android": "https://dc.lft.to/lastmile_qr_scan", "ios": "https://dc.lft.to/lastmile_qr_scan"}, "name": "6e20a6676cd83a3780bf4327f30592ca", "is_reserved": 0}, {"is_disabled": 0, "fusion_lon": 0.0, "fusion_lat": 0.0, "lat": 38.949735833333335, "type": "electric_scooter", "lon": -77.09446333333334, "bike_id": "feadc85e246f51f17ddb201559f29781", "rental_uris": {"android": "https://dc.lft.to/lastmile_qr_scan", "ios": "https://dc.lft.to/lastmile_qr_scan"}, "name": "feadc85e246f51f17ddb201559f29781", "is_reserved": 0}, {"is_disabled": 0, "fusion_lon": 0.0, "fusion_lat": 0.0, "lat": 38.878255333333335, "type": "electric_scooter", "lon": -76.96316216666666, "bike_id": "394136ea30d188d16c16af9ecf571fbe", "rental_uris": {"android": "https://dc.lft.to/lastmile_qr_scan", "ios": "https://dc.lft.to/lastmile_qr_scan"}, "name": "394136ea30d188d16c16af9ecf571fbe", "is_reserved": 0}, {"is_disabled": 0, "fusion_lon": 0.0, "fusion_lat": 0.0, "lat": 38.876669166666666, "type": "electric_scooter", "lon": -76.9319425, "bike_id": "c8f8e5ef86d3ca8cd0bf55a913dc8f0c", "rental_uris": {"android": "https://dc.lft.to/lastmile_qr_scan", "ios": "https://dc.lft.to/lastmile_qr_scan"}, "name": "c8f8e5ef86d3ca8cd0bf55a913dc8f0c", "is_reserved": 0}, {"is_disabled": 0, "fusion_lon": 0.0, "fusion_lat": 0.0, "lat": 38.95001883333333, "type": "electric_bike", "lon": -77.3530865, "bike_id": "b7fdf66b0bb07aa288edb8c22b26b798", "rental_uris": {"android": "https://dc.lft.to/lastmile_qr_scan", "ios": "https://dc.lft.to/lastmile_qr_scan"}, "name": "b7fdf66b0bb07aa288edb8c22b26b798", "is_reserved": 0}, {"is_disabled": 0, "fusion_lon": 0.0, "fusion_lat": 0.0, "lat": 38.917184, "type": "electric_scooter", "lon": -77.02996016666667, "bike_id": "6a5f84e8ac0173f5e936233621b4c430", "rental_uris": {"android": "https://dc.lft.to/lastmile_qr_scan", "ios": "https://dc.lft.to/lastmile_qr_scan"}, "name": "6a5f84e8ac0173f5e936233621b4c430", "is_reserved": 0}, {"is_disabled": 0, "fusion_lon": 0.0, "fusion_lat": 0.0, "lat": 38.918132666666665, "type": "electric_scooter", "lon": -77.03447266666667, "bike_id": "d4a3aee41235439310b9447922756143", "rental_uris": {"android": "https://dc.lft.to/lastmile_qr_scan", "ios": "https://dc.lft.to/lastmile_qr_scan"}, "name": "d4a3aee41235439310b9447922756143", "is_reserved": 0}, {"is_disabled": 0, "fusion_lon": 0.0, "fusion_lat": 0.0, "lat": 38.88376083333333, "type": "electric_scooter", "lon": -76.92375516666667, "bike_id": "1f3a34bbda2c42539b720ac62991380d", "rental_uris": {"android": "https://dc.lft.to/lastmile_qr_scan", "ios": "https://dc.lft.to/lastmile_qr_scan"}, "name": "1f3a34bbda2c42539b720ac62991380d", "is_reserved": 0}, {"is_disabled": 0, "fusion_lon": 0.0, "fusion_lat": 0.0, "lat": 38.90267, "type": "electric_scooter", "lon": -77.05410216666667, "bike_id": "c7a52bcfd017acb9ca7067288d8ef9cd", "rental_uris": {"android": "https://dc.lft.to/lastmile_qr_scan", "ios": "https://dc.lft.to/lastmile_qr_scan"}, "name": "c7a52bcfd017acb9ca7067288d8ef9cd", "is_reserved": 0}, {"is_disabled": 0, "fusion_lon": 0.0, "fusion_lat": 0.0, "lat": 38.916312, "type": "electric_scooter", "lon": -77.04084533333334, "bike_id": "f2e6b4fb4ce5f7f2d44ae9c55734a181", "rental_uris": {"android": "https://dc.lft.to/lastmile_qr_scan", "ios": "https://dc.lft.to/lastmile_qr_scan"}, "name": "f2e6b4fb4ce5f7f2d44ae9c55734a181", "is_reserved": 0}, {"is_disabled": 0, "fusion_lon": 0.0, "fusion_lat": 0.0, "lat": 38.918054166666664, "type": "electric_scooter", "lon": -77.04031833333333, "bike_id": "e8005ca84107e782a7adc1fbc5753d98", "rental_uris": {"android": "https://dc.lft.to/lastmile_qr_scan", "ios": "https://dc.lft.to/lastmile_qr_scan"}, "name": "e8005ca84107e782a7adc1fbc5753d98", "is_reserved": 0}, {"is_disabled": 0, "fusion_lon": 0.0, "fusion_lat": 0.0, "lat": 38.910943833333334, "type": "electric_bike", "lon": -77.08768483333333, "bike_id": "908cc568c42c64e21385a47124554772", "rental_uris": {"android": "https://dc.lft.to/lastmile_qr_scan", "ios": "https://dc.lft.to/lastmile_qr_scan"}, "name": "908cc568c42c64e21385a47124554772", "is_reserved": 0}, {"is_disabled": 0, "fusion_lon": 0.0, "fusion_lat": 0.0, "lat": 38.916252666666665, "type": "electric_scooter", "lon": -77.03205366666667, "bike_id": "13be174cf87bddff712853ef35accd3a", "rental_uris": {"android": "https://dc.lft.to/lastmile_qr_scan", "ios": "https://dc.lft.to/lastmile_qr_scan"}, "name": "13be174cf87bddff712853ef35accd3a", "is_reserved": 0}, {"is_disabled": 0, "fusion_lon": 0.0, "fusion_lat": 0.0, "lat": 38.907171166666664, "type": "electric_scooter", "lon": -77.02877016666666, "bike_id": "a42d2134036704211a1d694d6b6e8612", "rental_uris": {"android": "https://dc.lft.to/lastmile_qr_scan", "ios": "https://dc.lft.to/lastmile_qr_scan"}, "name": "a42d2134036704211a1d694d6b6e8612", "is_reserved": 0}, {"is_disabled": 0, "fusion_lon": 0.0, "fusion_lat": 0.0, "lat": 38.925731999999996, "type": "electric_scooter", "lon": -77.052548, "bike_id": "56daf6c9857ce5f28eb882bfe599a5ff", "rental_uris": {"android": "https://dc.lft.to/lastmile_qr_scan", "ios": "https://dc.lft.to/lastmile_qr_scan"}, "name": "56daf6c9857ce5f28eb882bfe599a5ff", "is_reserved": 0}, {"is_disabled": 0, "fusion_lon": 0.0, "fusion_lat": 0.0, "lat": 38.945210833333334, "type": "electric_scooter", "lon": -77.0298105, "bike_id": "0c0f086e300f3b90acb7b8cce9071a48", "rental_uris": {"android": "https://dc.lft.to/lastmile_qr_scan", "ios": "https://dc.lft.to/lastmile_qr_scan"}, "name": "0c0f086e300f3b90acb7b8cce9071a48", "is_reserved": 0}, {"is_disabled": 0, "fusion_lon": 0.0, "fusion_lat": 0.0, "lat": 38.92090866666667, "type": "electric_scooter", "lon": -77.031729, "bike_id": "99c538839039782fce25683f302b70d8", "rental_uris": {"android": "https://dc.lft.to/lastmile_qr_scan", "ios": "https://dc.lft.to/lastmile_qr_scan"}, "name": "99c538839039782fce25683f302b70d8", "is_reserved": 0}, {"is_disabled": 0, "fusion_lon": 0.0, "fusion_lat": 0.0, "lat": 38.89987283333333, "type": "electric_scooter", "lon": -76.9967315, "bike_id": "301dd03e05bb5998a6a5c29574b015aa", "rental_uris": {"android": "https://dc.lft.to/lastmile_qr_scan", "ios": "https://dc.lft.to/lastmile_qr_scan"}, "name": "301dd03e05bb5998a6a5c29574b015aa", "is_reserved": 0}, {"is_disabled": 0, "fusion_lon": 0.0, "fusion_lat": 0.0, "lat": 38.900598, "type": "electric_scooter", "lon": -76.98684983333334, "bike_id": "f74f109f67fe4845de40c95900cbc2ef", "rental_uris": {"android": "https://dc.lft.to/lastmile_qr_scan", "ios": "https://dc.lft.to/lastmile_qr_scan"}, "name": "f74f109f67fe4845de40c95900cbc2ef", "is_reserved": 0}, {"is_disabled": 0, "fusion_lon": 0.0, "fusion_lat": 0.0, "lat": 38.91381783333333, "type": "electric_scooter", "lon": -77.02972583333333, "bike_id": "d235b1288672238026f308831a76aa61", "rental_uris": {"android": "https://dc.lft.to/lastmile_qr_scan", "ios": "https://dc.lft.to/lastmile_qr_scan"}, "name": "d235b1288672238026f308831a76aa61", "is_reserved": 0}, {"is_disabled": 0, "fusion_lon": 0.0, "fusion_lat": 0.0, "lat": 38.887001166666664, "type": "electric_scooter", "lon": -76.95362216666666, "bike_id": "9ab9d53472de2a4b605e0d9b104a4ab2", "rental_uris": {"android": "https://dc.lft.to/lastmile_qr_scan", "ios": "https://dc.lft.to/lastmile_qr_scan"}, "name": "9ab9d53472de2a4b605e0d9b104a4ab2", "is_reserved": 0}, {"is_disabled": 0, "fusion_lon": 0.0, "fusion_lat": 0.0, "lat": 38.90830866666667, "type": "electric_scooter", "lon": -76.996961, "bike_id": "6cbbe12f929ecd2b8074fa0c366519ab", "rental_uris": {"android": "https://dc.lft.to/lastmile_qr_scan", "ios": "https://dc.lft.to/lastmile_qr_scan"}, "name": "6cbbe12f929ecd2b8074fa0c366519ab", "is_reserved": 0}, {"is_disabled": 0, "fusion_lon": 0.0, "fusion_lat": 0.0, "lat": 38.911275333333336, "type": "electric_scooter", "lon": -77.04178033333334, "bike_id": "c949fcac9cebba692584d00bdcc68b43", "rental_uris": {"android": "https://dc.lft.to/lastmile_qr_scan", "ios": "https://dc.lft.to/lastmile_qr_scan"}, "name": "c949fcac9cebba692584d00bdcc68b43", "is_reserved": 0}, {"is_disabled": 0, "fusion_lon": 0.0, "fusion_lat": 0.0, "lat": 38.8429225, "type": "electric_scooter", "lon": -76.99953166666667, "bike_id": "b1d092fa2ca375474f5bba558589d944", "rental_uris": {"android": "https://dc.lft.to/lastmile_qr_scan", "ios": "https://dc.lft.to/lastmile_qr_scan"}, "name": "b1d092fa2ca375474f5bba558589d944", "is_reserved": 0}, {"is_disabled": 0, "fusion_lon": 0.0, "fusion_lat": 0.0, "lat": 38.905176833333336, "type": "electric_scooter", "lon": -77.05160233333334, "bike_id": "3aee787875586584253a375bc482c4ad", "rental_uris": {"android": "https://dc.lft.to/lastmile_qr_scan", "ios": "https://dc.lft.to/lastmile_qr_scan"}, "name": "3aee787875586584253a375bc482c4ad", "is_reserved": 0}, {"is_disabled": 0, "fusion_lon": 0.0, "fusion_lat": 0.0, "lat": 38.956306166666664, "type": "electric_scooter", "lon": -77.02979616666667, "bike_id": "0d5512032680e50a820a189d91be2f27", "rental_uris": {"android": "https://dc.lft.to/lastmile_qr_scan", "ios": "https://dc.lft.to/lastmile_qr_scan"}, "name": "0d5512032680e50a820a189d91be2f27", "is_reserved": 0}, {"is_disabled": 0, "fusion_lon": 0.0, "fusion_lat": 0.0, "lat": 38.859753166666664, "type": "electric_scooter", "lon": -76.9841635, "bike_id": "e5c7cf823f6c5b8b8d64d22429f8bd37", "rental_uris": {"android": "https://dc.lft.to/lastmile_qr_scan", "ios": "https://dc.lft.to/lastmile_qr_scan"}, "name": "e5c7cf823f6c5b8b8d64d22429f8bd37", "is_reserved": 0}, {"is_disabled": 0, "fusion_lon": 0.0, "fusion_lat": 0.0, "lat": 38.881634166666664, "type": "electric_scooter", "lon": -77.00891216666666, "bike_id": "5703ad5f155ea8c311de12e795a15172", "rental_uris": {"android": "https://dc.lft.to/lastmile_qr_scan", "ios": "https://dc.lft.to/lastmile_qr_scan"}, "name": "5703ad5f155ea8c311de12e795a15172", "is_reserved": 0}, {"is_disabled": 0, "fusion_lon": 0.0, "fusion_lat": 0.0, "lat": 38.9273605, "type": "electric_bike", "lon": -76.99366, "bike_id": "be7f26fe7fb6756f931da447aed3e560", "rental_uris": {"android": "https://dc.lft.to/lastmile_qr_scan", "ios": "https://dc.lft.to/lastmile_qr_scan"}, "name": "be7f26fe7fb6756f931da447aed3e560", "is_reserved": 0}, {"is_disabled": 0, "fusion_lon": 0.0, "fusion_lat": 0.0, "lat": 38.850663, "type": "electric_bike", "lon": -76.973325, "bike_id": "5cad9003246cddaf3e962819a1e2f560", "rental_uris": {"android": "https://dc.lft.to/lastmile_qr_scan", "ios": "https://dc.lft.to/lastmile_qr_scan"}, "name": "5cad9003246cddaf3e962819a1e2f560", "is_reserved": 0}, {"is_disabled": 0, "fusion_lon": 0.0, "fusion_lat": 0.0, "lat": 38.919047666666664, "type": "electric_scooter", "lon": -77.0275965, "bike_id": "03eae037492108dcd8bbaa5d414b1c76", "rental_uris": {"android": "https://dc.lft.to/lastmile_qr_scan", "ios": "https://dc.lft.to/lastmile_qr_scan"}, "name": "03eae037492108dcd8bbaa5d414b1c76", "is_reserved": 0}, {"is_disabled": 0, "fusion_lon": 0.0, "fusion_lat": 0.0, "lat": 38.924811166666665, "type": "electric_scooter", "lon": -77.02713566666667, "bike_id": "faa3f17b918cffe59bc3c8b4c689ff3c", "rental_uris": {"android": "https://dc.lft.to/lastmile_qr_scan", "ios": "https://dc.lft.to/lastmile_qr_scan"}, "name": "faa3f17b918cffe59bc3c8b4c689ff3c", "is_reserved": 0}, {"is_disabled": 0, "fusion_lon": 0.0, "fusion_lat": 0.0, "lat": 38.91805016666667, "type": "electric_scooter", "lon": -77.0355135, "bike_id": "d26f10efcf16fbe6dd15da291c289c2a", "rental_uris": {"android": "https://dc.lft.to/lastmile_qr_scan", "ios": "https://dc.lft.to/lastmile_qr_scan"}, "name": "d26f10efcf16fbe6dd15da291c289c2a", "is_reserved": 0}, {"is_disabled": 0, "fusion_lon": 0.0, "fusion_lat": 0.0, "lat": 38.90505066666667, "type": "electric_scooter", "lon": -77.029547, "bike_id": "d9d662d23837f69782abb03e23223b52", "rental_uris": {"android": "https://dc.lft.to/lastmile_qr_scan", "ios": "https://dc.lft.to/lastmile_qr_scan"}, "name": "d9d662d23837f69782abb03e23223b52", "is_reserved": 0}, {"is_disabled": 0, "fusion_lon": 0.0, "fusion_lat": 0.0, "lat": 38.927958333333336, "type": "electric_scooter", "lon": -77.02301, "bike_id": "7cdcd797d07c891ef37e294f1b81a9bd", "rental_uris": {"android": "https://dc.lft.to/lastmile_qr_scan", "ios": "https://dc.lft.to/lastmile_qr_scan"}, "name": "7cdcd797d07c891ef37e294f1b81a9bd", "is_reserved": 0}, {"is_disabled": 0, "fusion_lon": 0.0, "fusion_lat": 0.0, "lat": 38.9237885, "type": "electric_scooter", "lon": -77.031373, "bike_id": "c9fe51d4c2f8700b316130333ddff58b", "rental_uris": {"android": "https://dc.lft.to/lastmile_qr_scan", "ios": "https://dc.lft.to/lastmile_qr_scan"}, "name": "c9fe51d4c2f8700b316130333ddff58b", "is_reserved": 0}, {"is_disabled": 0, "fusion_lon": 0.0, "fusion_lat": 0.0, "lat": 38.9169495, "type": "electric_scooter", "lon": -77.031139, "bike_id": "056a4ab5e885b7f5bcb456708bffbf01", "rental_uris": {"android": "https://dc.lft.to/lastmile_qr_scan", "ios": "https://dc.lft.to/lastmile_qr_scan"}, "name": "056a4ab5e885b7f5bcb456708bffbf01", "is_reserved": 0}, {"is_disabled": 0, "fusion_lon": 0.0, "fusion_lat": 0.0, "lat": 38.88413583333333, "type": "electric_scooter", "lon": -76.95428616666666, "bike_id": "d5cc6da27e2f00b0d31ebfeebcee185a", "rental_uris": {"android": "https://dc.lft.to/lastmile_qr_scan", "ios": "https://dc.lft.to/lastmile_qr_scan"}, "name": "d5cc6da27e2f00b0d31ebfeebcee185a", "is_reserved": 0}, {"is_disabled": 0, "fusion_lon": 0.0, "fusion_lat": 0.0, "lat": 38.892077666666665, "type": "electric_scooter", "lon": -76.9880885, "bike_id": "f68937c0088340147a8ea88270b54527", "rental_uris": {"android": "https://dc.lft.to/lastmile_qr_scan", "ios": "https://dc.lft.to/lastmile_qr_scan"}, "name": "f68937c0088340147a8ea88270b54527", "is_reserved": 0}, {"is_disabled": 0, "fusion_lon": 0.0, "fusion_lat": 0.0, "lat": 38.914814666666665, "type": "electric_scooter", "lon": -77.034726, "bike_id": "a7d9a985e6e8588ce5645798e86531c8", "rental_uris": {"android": "https://dc.lft.to/lastmile_qr_scan", "ios": "https://dc.lft.to/lastmile_qr_scan"}, "name": "a7d9a985e6e8588ce5645798e86531c8", "is_reserved": 0}, {"is_disabled": 0, "fusion_lon": 0.0, "fusion_lat": 0.0, "lat": 38.91115383333333, "type": "electric_scooter", "lon": -77.06613233333333, "bike_id": "4c80e06c83c7afc60725406e054c7470", "rental_uris": {"android": "https://dc.lft.to/lastmile_qr_scan", "ios": "https://dc.lft.to/lastmile_qr_scan"}, "name": "4c80e06c83c7afc60725406e054c7470", "is_reserved": 0}, {"is_disabled": 0, "fusion_lon": 0.0, "fusion_lat": 0.0, "lat": 39.088411666666666, "type": "electric_bike", "lon": -77.17798783333333, "bike_id": "6dae4f4cd784dfde88d2fb9dfa20144b", "rental_uris": {"android": "https://dc.lft.to/lastmile_qr_scan", "ios": "https://dc.lft.to/lastmile_qr_scan"}, "name": "6dae4f4cd784dfde88d2fb9dfa20144b", "is_reserved": 0}, {"is_disabled": 0, "fusion_lon": 0.0, "fusion_lat": 0.0, "lat": 38.9236795, "type": "electric_scooter", "lon": -77.02798616666666, "bike_id": "a80cca1f78e01c81e19bbb17f37745e9", "rental_uris": {"android": "https://dc.lft.to/lastmile_qr_scan", "ios": "https://dc.lft.to/lastmile_qr_scan"}, "name": "a80cca1f78e01c81e19bbb17f37745e9", "is_reserved": 0}, {"is_disabled": 0, "fusion_lon": 0.0, "fusion_lat": 0.0, "lat": 38.903827666666665, "type": "electric_scooter", "lon": -77.0164985, "bike_id": "0f020582ad1b1b5f1b9cc0b2f34b0e0f", "rental_uris": {"android": "https://dc.lft.to/lastmile_qr_scan", "ios": "https://dc.lft.to/lastmile_qr_scan"}, "name": "0f020582ad1b1b5f1b9cc0b2f34b0e0f", "is_reserved": 0}, {"is_disabled": 0, "fusion_lon": 0.0, "fusion_lat": 0.0, "lat": 38.91906766666666, "type": "electric_scooter", "lon": -77.034031, "bike_id": "bbfa6ae5c6e2bba98762b8bd6542551d", "rental_uris": {"android": "https://dc.lft.to/lastmile_qr_scan", "ios": "https://dc.lft.to/lastmile_qr_scan"}, "name": "bbfa6ae5c6e2bba98762b8bd6542551d", "is_reserved": 0}, {"is_disabled": 0, "fusion_lon": 0.0, "fusion_lat": 0.0, "lat": 38.9726085, "type": "electric_bike", "lon": -76.9916905, "bike_id": "eb11b24d9b821d83191a2de1c61994a6", "rental_uris": {"android": "https://dc.lft.to/lastmile_qr_scan", "ios": "https://dc.lft.to/lastmile_qr_scan"}, "name": "eb11b24d9b821d83191a2de1c61994a6", "is_reserved": 0}, {"is_disabled": 0, "fusion_lon": 0.0, "fusion_lat": 0.0, "lat": 38.8951885, "type": "electric_scooter", "lon": -77.01084766666666, "bike_id": "839a0734a9abf41ef81d20669d0c4e00", "rental_uris": {"android": "https://dc.lft.to/lastmile_qr_scan", "ios": "https://dc.lft.to/lastmile_qr_scan"}, "name": "839a0734a9abf41ef81d20669d0c4e00", "is_reserved": 0}, {"is_disabled": 0, "fusion_lon": 0.0, "fusion_lat": 0.0, "lat": 38.917722833333336, "type": "electric_scooter", "lon": -77.04749966666667, "bike_id": "dd5158780f9a17658a73fd820d09b6d1", "rental_uris": {"android": "https://dc.lft.to/lastmile_qr_scan", "ios": "https://dc.lft.to/lastmile_qr_scan"}, "name": "dd5158780f9a17658a73fd820d09b6d1", "is_reserved": 0}, {"is_disabled": 0, "fusion_lon": 0.0, "fusion_lat": 0.0, "lat": 38.89740033333333, "type": "electric_scooter", "lon": -77.01018616666667, "bike_id": "efff8f872c54635edc87ed6d0e22d5db", "rental_uris": {"android": "https://dc.lft.to/lastmile_qr_scan", "ios": "https://dc.lft.to/lastmile_qr_scan"}, "name": "efff8f872c54635edc87ed6d0e22d5db", "is_reserved": 0}, {"is_disabled": 0, "fusion_lon": 0.0, "fusion_lat": 0.0, "lat": 38.93466333333333, "type": "electric_scooter", "lon": -77.06881533333333, "bike_id": "22971f0addd2962478f4c3e909b4721a", "rental_uris": {"android": "https://dc.lft.to/lastmile_qr_scan", "ios": "https://dc.lft.to/lastmile_qr_scan"}, "name": "22971f0addd2962478f4c3e909b4721a", "is_reserved": 0}, {"is_disabled": 0, "fusion_lon": 0.0, "fusion_lat": 0.0, "lat": 38.839307166666664, "type": "electric_bike", "lon": -77.07907016666667, "bike_id": "4edfc3c1ffba57df430c92e4e435801b", "rental_uris": {"android": "https://dc.lft.to/lastmile_qr_scan", "ios": "https://dc.lft.to/lastmile_qr_scan"}, "name": "4edfc3c1ffba57df430c92e4e435801b", "is_reserved": 0}, {"is_disabled": 0, "fusion_lon": 0.0, "fusion_lat": 0.0, "lat": 38.894316833333335, "type": "electric_scooter", "lon": -77.01105616666666, "bike_id": "ab3868603cee0dd3acbe17df98cb311f", "rental_uris": {"android": "https://dc.lft.to/lastmile_qr_scan", "ios": "https://dc.lft.to/lastmile_qr_scan"}, "name": "ab3868603cee0dd3acbe17df98cb311f", "is_reserved": 0}, {"is_disabled": 0, "fusion_lon": 0.0, "fusion_lat": 0.0, "lat": 38.902026666666664, "type": "electric_scooter", "lon": -77.0389675, "bike_id": "7f0ddc5035d2e473185eaf28e778ff39", "rental_uris": {"android": "https://dc.lft.to/lastmile_qr_scan", "ios": "https://dc.lft.to/lastmile_qr_scan"}, "name": "7f0ddc5035d2e473185eaf28e778ff39", "is_reserved": 0}, {"is_disabled": 0, "fusion_lon": 0.0, "fusion_lat": 0.0, "lat": 38.90549933333333, "type": "electric_scooter", "lon": -77.04725916666666, "bike_id": "d10d94f0dfd3b7f5f809d74f530369ab", "rental_uris": {"android": "https://dc.lft.to/lastmile_qr_scan", "ios": "https://dc.lft.to/lastmile_qr_scan"}, "name": "d10d94f0dfd3b7f5f809d74f530369ab", "is_reserved": 0}, {"is_disabled": 0, "fusion_lon": 0.0, "fusion_lat": 0.0, "lat": 38.901849166666665, "type": "electric_scooter", "lon": -77.02501083333334, "bike_id": "b4ba8804be34383d0450cabd946874dc", "rental_uris": {"android": "https://dc.lft.to/lastmile_qr_scan", "ios": "https://dc.lft.to/lastmile_qr_scan"}, "name": "b4ba8804be34383d0450cabd946874dc", "is_reserved": 0}, {"is_disabled": 0, "fusion_lon": 0.0, "fusion_lat": 0.0, "lat": 38.922617, "type": "electric_bike", "lon": -77.07717516666666, "bike_id": "c914c278a159b006f6b4fac65977cbef", "rental_uris": {"android": "https://dc.lft.to/lastmile_qr_scan", "ios": "https://dc.lft.to/lastmile_qr_scan"}, "name": "c914c278a159b006f6b4fac65977cbef", "is_reserved": 0}, {"is_disabled": 0, "fusion_lon": 0.0, "fusion_lat": 0.0, "lat": 38.9007625, "type": "electric_scooter", "lon": -77.049905, "bike_id": "1db6bc113173b386b3e13676b9e3ab19", "rental_uris": {"android": "https://dc.lft.to/lastmile_qr_scan", "ios": "https://dc.lft.to/lastmile_qr_scan"}, "name": "1db6bc113173b386b3e13676b9e3ab19", "is_reserved": 0}, {"is_disabled": 0, "fusion_lon": 0.0, "fusion_lat": 0.0, "lat": 38.906827, "type": "electric_scooter", "lon": -77.02698733333334, "bike_id": "d3d184f46b1acd35f0b84f45c61b0eed", "rental_uris": {"android": "https://dc.lft.to/lastmile_qr_scan", "ios": "https://dc.lft.to/lastmile_qr_scan"}, "name": "d3d184f46b1acd35f0b84f45c61b0eed", "is_reserved": 0}, {"is_disabled": 0, "fusion_lon": 0.0, "fusion_lat": 0.0, "lat": 38.908330166666666, "type": "electric_scooter", "lon": -76.9969385, "bike_id": "029cb0b7d089b7260ba5a3e93061d4da", "rental_uris": {"android": "https://dc.lft.to/lastmile_qr_scan", "ios": "https://dc.lft.to/lastmile_qr_scan"}, "name": "029cb0b7d089b7260ba5a3e93061d4da", "is_reserved": 0}, {"is_disabled": 0, "fusion_lon": 0.0, "fusion_lat": 0.0, "lat": 38.916744666666666, "type": "electric_scooter", "lon": -77.027203, "bike_id": "fc99044c3b419b6d3137513a2647e023", "rental_uris": {"android": "https://dc.lft.to/lastmile_qr_scan", "ios": "https://dc.lft.to/lastmile_qr_scan"}, "name": "fc99044c3b419b6d3137513a2647e023", "is_reserved": 0}, {"is_disabled": 0, "fusion_lon": 0.0, "fusion_lat": 0.0, "lat": 38.845158833333336, "type": "electric_bike", "lon": -77.07798266666667, "bike_id": "4450207e1b42833fb653a71f4b3d9b62", "rental_uris": {"android": "https://dc.lft.to/lastmile_qr_scan", "ios": "https://dc.lft.to/lastmile_qr_scan"}, "name": "4450207e1b42833fb653a71f4b3d9b62", "is_reserved": 0}, {"is_disabled": 0, "fusion_lon": 0.0, "fusion_lat": 0.0, "lat": 38.9073735, "type": "electric_scooter", "lon": -77.03446766666667, "bike_id": "0e5430c05c5ff5a3fba58d586ec5a458", "rental_uris": {"android": "https://dc.lft.to/lastmile_qr_scan", "ios": "https://dc.lft.to/lastmile_qr_scan"}, "name": "0e5430c05c5ff5a3fba58d586ec5a458", "is_reserved": 0}, {"is_disabled": 0, "fusion_lon": 0.0, "fusion_lat": 0.0, "lat": 38.919120166666666, "type": "electric_scooter", "lon": -77.04454933333334, "bike_id": "b5eb97281ac1c43021a4e23fc52038d2", "rental_uris": {"android": "https://dc.lft.to/lastmile_qr_scan", "ios": "https://dc.lft.to/lastmile_qr_scan"}, "name": "b5eb97281ac1c43021a4e23fc52038d2", "is_reserved": 0}, {"is_disabled": 0, "fusion_lon": 0.0, "fusion_lat": 0.0, "lat": 38.90734666666667, "type": "electric_scooter", "lon": -77.02421566666666, "bike_id": "fd5ce0c2dc892943f3b287bc1db6ed43", "rental_uris": {"android": "https://dc.lft.to/lastmile_qr_scan", "ios": "https://dc.lft.to/lastmile_qr_scan"}, "name": "fd5ce0c2dc892943f3b287bc1db6ed43", "is_reserved": 0}, {"is_disabled": 0, "fusion_lon": 0.0, "fusion_lat": 0.0, "lat": 38.930953333333335, "type": "electric_scooter", "lon": -77.02450466666667, "bike_id": "77661dd6c167c91df9a93fc2a0b645a5", "rental_uris": {"android": "https://dc.lft.to/lastmile_qr_scan", "ios": "https://dc.lft.to/lastmile_qr_scan"}, "name": "77661dd6c167c91df9a93fc2a0b645a5", "is_reserved": 0}, {"is_disabled": 0, "fusion_lon": 0.0, "fusion_lat": 0.0, "lat": 38.913297, "type": "electric_scooter", "lon": -77.042303, "bike_id": "031a6b2ce13cf03bf7b13a92f51e15ce", "rental_uris": {"android": "https://dc.lft.to/lastmile_qr_scan", "ios": "https://dc.lft.to/lastmile_qr_scan"}, "name": "031a6b2ce13cf03bf7b13a92f51e15ce", "is_reserved": 0}, {"is_disabled": 0, "fusion_lon": 0.0, "fusion_lat": 0.0, "lat": 38.88722883333333, "type": "electric_scooter", "lon": -77.02207583333333, "bike_id": "8186a19e709f97b732b61e087b827ead", "rental_uris": {"android": "https://dc.lft.to/lastmile_qr_scan", "ios": "https://dc.lft.to/lastmile_qr_scan"}, "name": "8186a19e709f97b732b61e087b827ead", "is_reserved": 0}, {"is_disabled": 0, "fusion_lon": 0.0, "fusion_lat": 0.0, "lat": 38.9291145, "type": "electric_scooter", "lon": -77.02146583333334, "bike_id": "23fb94fdd8ab643febeaf2a7cdf3b4e3", "rental_uris": {"android": "https://dc.lft.to/lastmile_qr_scan", "ios": "https://dc.lft.to/lastmile_qr_scan"}, "name": "23fb94fdd8ab643febeaf2a7cdf3b4e3", "is_reserved": 0}, {"is_disabled": 0, "fusion_lon": 0.0, "fusion_lat": 0.0, "lat": 38.902562, "type": "electric_scooter", "lon": -77.00015616666667, "bike_id": "34049647e3573282e74590030a33bd8d", "rental_uris": {"android": "https://dc.lft.to/lastmile_qr_scan", "ios": "https://dc.lft.to/lastmile_qr_scan"}, "name": "34049647e3573282e74590030a33bd8d", "is_reserved": 0}, {"is_disabled": 0, "fusion_lon": 0.0, "fusion_lat": 0.0, "lat": 38.92141783333334, "type": "electric_scooter", "lon": -77.00918383333334, "bike_id": "001092f37a0762aaec1a5a133717ab09", "rental_uris": {"android": "https://dc.lft.to/lastmile_qr_scan", "ios": "https://dc.lft.to/lastmile_qr_scan"}, "name": "001092f37a0762aaec1a5a133717ab09", "is_reserved": 0}, {"is_disabled": 0, "fusion_lon": 0.0, "fusion_lat": 0.0, "lat": 38.864677, "type": "electric_scooter", "lon": -76.99611466666667, "bike_id": "c296cf80de7089a89402b1bc3c74d2ec", "rental_uris": {"android": "https://dc.lft.to/lastmile_qr_scan", "ios": "https://dc.lft.to/lastmile_qr_scan"}, "name": "c296cf80de7089a89402b1bc3c74d2ec", "is_reserved": 0}, {"is_disabled": 0, "fusion_lon": 0.0, "fusion_lat": 0.0, "lat": 38.874977333333334, "type": "electric_scooter", "lon": -76.99800233333333, "bike_id": "f80284f30c7c5f0038883904ad5d2ba4", "rental_uris": {"android": "https://dc.lft.to/lastmile_qr_scan", "ios": "https://dc.lft.to/lastmile_qr_scan"}, "name": "f80284f30c7c5f0038883904ad5d2ba4", "is_reserved": 0}, {"is_disabled": 0, "fusion_lon": 0.0, "fusion_lat": 0.0, "lat": 38.914125, "type": "electric_scooter", "lon": -77.035873, "bike_id": "ee18763f48a7a9b31de9cfbc0bcbea2f", "rental_uris": {"android": "https://dc.lft.to/lastmile_qr_scan", "ios": "https://dc.lft.to/lastmile_qr_scan"}, "name": "ee18763f48a7a9b31de9cfbc0bcbea2f", "is_reserved": 0}, {"is_disabled": 0, "fusion_lon": 0.0, "fusion_lat": 0.0, "lat": 38.86357116666667, "type": "electric_scooter", "lon": -76.99064183333333, "bike_id": "435221692cc7972e53cfdb833c70f7cb", "rental_uris": {"android": "https://dc.lft.to/lastmile_qr_scan", "ios": "https://dc.lft.to/lastmile_qr_scan"}, "name": "435221692cc7972e53cfdb833c70f7cb", "is_reserved": 0}, {"is_disabled": 0, "fusion_lon": 0.0, "fusion_lat": 0.0, "lat": 38.8991665, "type": "electric_scooter", "lon": -77.03919216666667, "bike_id": "31ed6c5555e7677ab4a34e64e36f360c", "rental_uris": {"android": "https://dc.lft.to/lastmile_qr_scan", "ios": "https://dc.lft.to/lastmile_qr_scan"}, "name": "31ed6c5555e7677ab4a34e64e36f360c", "is_reserved": 0}, {"is_disabled": 0, "fusion_lon": 0.0, "fusion_lat": 0.0, "lat": 38.90580633333333, "type": "electric_scooter", "lon": -77.051375, "bike_id": "a8b87eea7036e72956ef10097891a564", "rental_uris": {"android": "https://dc.lft.to/lastmile_qr_scan", "ios": "https://dc.lft.to/lastmile_qr_scan"}, "name": "a8b87eea7036e72956ef10097891a564", "is_reserved": 0}, {"is_disabled": 0, "fusion_lon": 0.0, "fusion_lat": 0.0, "lat": 38.9814, "type": "electric_bike", "lon": -77.0077085, "bike_id": "357192585fea6f911b76680bd7237715", "rental_uris": {"android": "https://dc.lft.to/lastmile_qr_scan", "ios": "https://dc.lft.to/lastmile_qr_scan"}, "name": "357192585fea6f911b76680bd7237715", "is_reserved": 0}, {"is_disabled": 0, "fusion_lon": 0.0, "fusion_lat": 0.0, "lat": 38.926424833333336, "type": "electric_bike", "lon": -77.03337516666667, "bike_id": "82306fcd19b870cd01779b77e5967a3b", "rental_uris": {"android": "https://dc.lft.to/lastmile_qr_scan", "ios": "https://dc.lft.to/lastmile_qr_scan"}, "name": "82306fcd19b870cd01779b77e5967a3b", "is_reserved": 0}, {"is_disabled": 0, "fusion_lon": 0.0, "fusion_lat": 0.0, "lat": 38.935467, "type": "electric_scooter", "lon": -77.05807083333333, "bike_id": "5be73981f967a5310e9c153a832a8df1", "rental_uris": {"android": "https://dc.lft.to/lastmile_qr_scan", "ios": "https://dc.lft.to/lastmile_qr_scan"}, "name": "5be73981f967a5310e9c153a832a8df1", "is_reserved": 0}, {"is_disabled": 0, "fusion_lon": 0.0, "fusion_lat": 0.0, "lat": 38.87776016666667, "type": "electric_scooter", "lon": -77.014348, "bike_id": "54c8ed2ec7bb38f31c07f5ae6c7fc52c", "rental_uris": {"android": "https://dc.lft.to/lastmile_qr_scan", "ios": "https://dc.lft.to/lastmile_qr_scan"}, "name": "54c8ed2ec7bb38f31c07f5ae6c7fc52c", "is_reserved": 0}, {"is_disabled": 0, "fusion_lon": 0.0, "fusion_lat": 0.0, "lat": 38.8489475, "type": "electric_scooter", "lon": -77.00525316666666, "bike_id": "35d7e38b6cf645a98cd537aaf99725f1", "rental_uris": {"android": "https://dc.lft.to/lastmile_qr_scan", "ios": "https://dc.lft.to/lastmile_qr_scan"}, "name": "35d7e38b6cf645a98cd537aaf99725f1", "is_reserved": 0}, {"is_disabled": 0, "fusion_lon": 0.0, "fusion_lat": 0.0, "lat": 38.91333983333333, "type": "electric_scooter", "lon": -77.04188683333334, "bike_id": "fd75fceb4dbd29acb4231101763f4909", "rental_uris": {"android": "https://dc.lft.to/lastmile_qr_scan", "ios": "https://dc.lft.to/lastmile_qr_scan"}, "name": "fd75fceb4dbd29acb4231101763f4909", "is_reserved": 0}, {"is_disabled": 0, "fusion_lon": 0.0, "fusion_lat": 0.0, "lat": 38.898481333333336, "type": "electric_scooter", "lon": -77.007425, "bike_id": "0b7aede99be66dc442777438a08ab724", "rental_uris": {"android": "https://dc.lft.to/lastmile_qr_scan", "ios": "https://dc.lft.to/lastmile_qr_scan"}, "name": "0b7aede99be66dc442777438a08ab724", "is_reserved": 0}, {"is_disabled": 0, "fusion_lon": 0.0, "fusion_lat": 0.0, "lat": 38.91980483333333, "type": "electric_scooter", "lon": -77.00026416666667, "bike_id": "00489cc0a3c649488b2915287e5bf402", "rental_uris": {"android": "https://dc.lft.to/lastmile_qr_scan", "ios": "https://dc.lft.to/lastmile_qr_scan"}, "name": "00489cc0a3c649488b2915287e5bf402", "is_reserved": 0}, {"is_disabled": 0, "fusion_lon": 0.0, "fusion_lat": 0.0, "lat": 38.922861833333336, "type": "electric_bike", "lon": -76.99426866666667, "bike_id": "ddbbfc695220d0463ec635a7c23f081b", "rental_uris": {"android": "https://dc.lft.to/lastmile_qr_scan", "ios": "https://dc.lft.to/lastmile_qr_scan"}, "name": "ddbbfc695220d0463ec635a7c23f081b", "is_reserved": 0}, {"is_disabled": 0, "fusion_lon": 0.0, "fusion_lat": 0.0, "lat": 38.929140833333335, "type": "electric_scooter", "lon": -77.02345633333333, "bike_id": "a08be913cc7859061b819a1e127cb589", "rental_uris": {"android": "https://dc.lft.to/lastmile_qr_scan", "ios": "https://dc.lft.to/lastmile_qr_scan"}, "name": "a08be913cc7859061b819a1e127cb589", "is_reserved": 0}, {"is_disabled": 0, "fusion_lon": 0.0, "fusion_lat": 0.0, "lat": 38.928569, "type": "electric_bike", "lon": -77.0207805, "bike_id": "6dcc85bcf49d1d4eacb2cc68a1d77fa6", "rental_uris": {"android": "https://dc.lft.to/lastmile_qr_scan", "ios": "https://dc.lft.to/lastmile_qr_scan"}, "name": "6dcc85bcf49d1d4eacb2cc68a1d77fa6", "is_reserved": 0}, {"is_disabled": 0, "fusion_lon": 0.0, "fusion_lat": 0.0, "lat": 38.929011, "type": "electric_scooter", "lon": -76.984591, "bike_id": "b0e049413a17eff1575be944b7a01ba7", "rental_uris": {"android": "https://dc.lft.to/lastmile_qr_scan", "ios": "https://dc.lft.to/lastmile_qr_scan"}, "name": "b0e049413a17eff1575be944b7a01ba7", "is_reserved": 0}, {"is_disabled": 0, "fusion_lon": 0.0, "fusion_lat": 0.0, "lat": 38.9029005, "type": "electric_scooter", "lon": -77.0427665, "bike_id": "a3eec259d14bc32bc752b590d045e22d", "rental_uris": {"android": "https://dc.lft.to/lastmile_qr_scan", "ios": "https://dc.lft.to/lastmile_qr_scan"}, "name": "a3eec259d14bc32bc752b590d045e22d", "is_reserved": 0}, {"is_disabled": 0, "fusion_lon": 0.0, "fusion_lat": 0.0, "lat": 38.936356, "type": "electric_scooter", "lon": -77.0366155, "bike_id": "f718dc00e9add378740b410b4d9a23bc", "rental_uris": {"android": "https://dc.lft.to/lastmile_qr_scan", "ios": "https://dc.lft.to/lastmile_qr_scan"}, "name": "f718dc00e9add378740b410b4d9a23bc", "is_reserved": 0}, {"is_disabled": 0, "fusion_lon": 0.0, "fusion_lat": 0.0, "lat": 38.92446283333334, "type": "electric_bike", "lon": -76.96836683333333, "bike_id": "c06830c43e87a96826c71b0086824b7f", "rental_uris": {"android": "https://dc.lft.to/lastmile_qr_scan", "ios": "https://dc.lft.to/lastmile_qr_scan"}, "name": "c06830c43e87a96826c71b0086824b7f", "is_reserved": 0}, {"is_disabled": 0, "fusion_lon": 0.0, "fusion_lat": 0.0, "lat": 38.893715, "type": "electric_scooter", "lon": -76.94999583333333, "bike_id": "d7f0b5950c1bb246be58d436b4ac880a", "rental_uris": {"android": "https://dc.lft.to/lastmile_qr_scan", "ios": "https://dc.lft.to/lastmile_qr_scan"}, "name": "d7f0b5950c1bb246be58d436b4ac880a", "is_reserved": 0}, {"is_disabled": 0, "fusion_lon": 0.0, "fusion_lat": 0.0, "lat": 39.10565616666667, "type": "electric_bike", "lon": -77.15268816666666, "bike_id": "5fcae2440d830b5fe6fcbdbd23e01644", "rental_uris": {"android": "https://dc.lft.to/lastmile_qr_scan", "ios": "https://dc.lft.to/lastmile_qr_scan"}, "name": "5fcae2440d830b5fe6fcbdbd23e01644", "is_reserved": 0}, {"is_disabled": 0, "fusion_lon": 0.0, "fusion_lat": 0.0, "lat": 38.86847433333333, "type": "electric_bike", "lon": -77.0973335, "bike_id": "c81ef800ed3b7acb40f5b94fc2323d65", "rental_uris": {"android": "https://dc.lft.to/lastmile_qr_scan", "ios": "https://dc.lft.to/lastmile_qr_scan"}, "name": "c81ef800ed3b7acb40f5b94fc2323d65", "is_reserved": 0}, {"is_disabled": 0, "fusion_lon": 0.0, "fusion_lat": 0.0, "lat": 38.904732, "type": "electric_scooter", "lon": -77.03800966666667, "bike_id": "7848a307c6f6de74d6a95c66553dc59b", "rental_uris": {"android": "https://dc.lft.to/lastmile_qr_scan", "ios": "https://dc.lft.to/lastmile_qr_scan"}, "name": "7848a307c6f6de74d6a95c66553dc59b", "is_reserved": 0}, {"is_disabled": 0, "fusion_lon": 0.0, "fusion_lat": 0.0, "lat": 38.93061866666667, "type": "electric_bike", "lon": -77.03796816666667, "bike_id": "ed202215c44f1727d33e60af2ad7ebbf", "rental_uris": {"android": "https://dc.lft.to/lastmile_qr_scan", "ios": "https://dc.lft.to/lastmile_qr_scan"}, "name": "ed202215c44f1727d33e60af2ad7ebbf", "is_reserved": 0}, {"is_disabled": 0, "fusion_lon": 0.0, "fusion_lat": 0.0, "lat": 38.882502, "type": "electric_scooter", "lon": -77.0034655, "bike_id": "f1b1aa26efa90efccfa3694ae2b97ed5", "rental_uris": {"android": "https://dc.lft.to/lastmile_qr_scan", "ios": "https://dc.lft.to/lastmile_qr_scan"}, "name": "f1b1aa26efa90efccfa3694ae2b97ed5", "is_reserved": 0}, {"is_disabled": 0, "fusion_lon": 0.0, "fusion_lat": 0.0, "lat": 38.89541166666667, "type": "electric_scooter", "lon": -77.01094183333333, "bike_id": "76f8658225e49e93d46cc4d25a609aae", "rental_uris": {"android": "https://dc.lft.to/lastmile_qr_scan", "ios": "https://dc.lft.to/lastmile_qr_scan"}, "name": "76f8658225e49e93d46cc4d25a609aae", "is_reserved": 0}, {"is_disabled": 0, "fusion_lon": 0.0, "fusion_lat": 0.0, "lat": 38.9185685, "type": "electric_bike", "lon": -76.96091716666666, "bike_id": "0a4dfc32ff0967a301b3e79147c4652e", "rental_uris": {"android": "https://dc.lft.to/lastmile_qr_scan", "ios": "https://dc.lft.to/lastmile_qr_scan"}, "name": "0a4dfc32ff0967a301b3e79147c4652e", "is_reserved": 0}, {"is_disabled": 0, "fusion_lon": 0.0, "fusion_lat": 0.0, "lat": 38.833513333333336, "type": "electric_bike", "lon": -76.96558083333333, "bike_id": "9f2ae52f8356e4863112f7646a6f89cc", "rental_uris": {"android": "https://dc.lft.to/lastmile_qr_scan", "ios": "https://dc.lft.to/lastmile_qr_scan"}, "name": "9f2ae52f8356e4863112f7646a6f89cc", "is_reserved": 0}, {"is_disabled": 0, "fusion_lon": 0.0, "fusion_lat": 0.0, "lat": 38.93094466666667, "type": "electric_scooter", "lon": -77.02551483333333, "bike_id": "c449b4dae4ba333e6e9edb45e64387ad", "rental_uris": {"android": "https://dc.lft.to/lastmile_qr_scan", "ios": "https://dc.lft.to/lastmile_qr_scan"}, "name": "c449b4dae4ba333e6e9edb45e64387ad", "is_reserved": 0}, {"is_disabled": 0, "fusion_lon": 0.0, "fusion_lat": 0.0, "lat": 38.89054983333333, "type": "electric_scooter", "lon": -77.001603, "bike_id": "d652fd35e0606a06d83ee9e24aed537e", "rental_uris": {"android": "https://dc.lft.to/lastmile_qr_scan", "ios": "https://dc.lft.to/lastmile_qr_scan"}, "name": "d652fd35e0606a06d83ee9e24aed537e", "is_reserved": 0}, {"is_disabled": 0, "fusion_lon": 0.0, "fusion_lat": 0.0, "lat": 38.91642066666667, "type": "electric_scooter", "lon": -77.0347275, "bike_id": "8c8e9afaed569c6aea463bf08770aaca", "rental_uris": {"android": "https://dc.lft.to/lastmile_qr_scan", "ios": "https://dc.lft.to/lastmile_qr_scan"}, "name": "8c8e9afaed569c6aea463bf08770aaca", "is_reserved": 0}, {"is_disabled": 0, "fusion_lon": 0.0, "fusion_lat": 0.0, "lat": 38.90294933333333, "type": "electric_scooter", "lon": -77.03054933333334, "bike_id": "88507eb2d0466390d125a1eeaf257c40", "rental_uris": {"android": "https://dc.lft.to/lastmile_qr_scan", "ios": "https://dc.lft.to/lastmile_qr_scan"}, "name": "88507eb2d0466390d125a1eeaf257c40", "is_reserved": 0}, {"is_disabled": 0, "fusion_lon": 0.0, "fusion_lat": 0.0, "lat": 38.863159, "type": "electric_scooter", "lon": -76.99066733333333, "bike_id": "4fa71f659ff816829f51921b8e356ca8", "rental_uris": {"android": "https://dc.lft.to/lastmile_qr_scan", "ios": "https://dc.lft.to/lastmile_qr_scan"}, "name": "4fa71f659ff816829f51921b8e356ca8", "is_reserved": 0}, {"is_disabled": 0, "fusion_lon": 0.0, "fusion_lat": 0.0, "lat": 38.92479066666667, "type": "electric_scooter", "lon": -77.03495283333334, "bike_id": "846d77d781ad9bba750b95fa93c04476", "rental_uris": {"android": "https://dc.lft.to/lastmile_qr_scan", "ios": "https://dc.lft.to/lastmile_qr_scan"}, "name": "846d77d781ad9bba750b95fa93c04476", "is_reserved": 0}, {"is_disabled": 0, "fusion_lon": 0.0, "fusion_lat": 0.0, "lat": 38.84600183333333, "type": "electric_bike", "lon": -76.96883766666667, "bike_id": "19fef14be56ec3419764ea39797f7153", "rental_uris": {"android": "https://dc.lft.to/lastmile_qr_scan", "ios": "https://dc.lft.to/lastmile_qr_scan"}, "name": "19fef14be56ec3419764ea39797f7153", "is_reserved": 0}, {"is_disabled": 0, "fusion_lon": 0.0, "fusion_lat": 0.0, "lat": 38.89368066666667, "type": "electric_scooter", "lon": -77.02262383333333, "bike_id": "65b8b9150eb6233c24660bc212182c44", "rental_uris": {"android": "https://dc.lft.to/lastmile_qr_scan", "ios": "https://dc.lft.to/lastmile_qr_scan"}, "name": "65b8b9150eb6233c24660bc212182c44", "is_reserved": 0}, {"is_disabled": 0, "fusion_lon": 0.0, "fusion_lat": 0.0, "lat": 38.917062666666666, "type": "electric_scooter", "lon": -77.0347255, "bike_id": "238a7b2e05f60e1e9711b6939f05c705", "rental_uris": {"android": "https://dc.lft.to/lastmile_qr_scan", "ios": "https://dc.lft.to/lastmile_qr_scan"}, "name": "238a7b2e05f60e1e9711b6939f05c705", "is_reserved": 0}, {"is_disabled": 0, "fusion_lon": 0.0, "fusion_lat": 0.0, "lat": 38.919556166666666, "type": "electric_scooter", "lon": -77.0238415, "bike_id": "32fca5d7d8bf6cd94ec1b263905db5d1", "rental_uris": {"android": "https://dc.lft.to/lastmile_qr_scan", "ios": "https://dc.lft.to/lastmile_qr_scan"}, "name": "32fca5d7d8bf6cd94ec1b263905db5d1", "is_reserved": 0}, {"is_disabled": 0, "fusion_lon": 0.0, "fusion_lat": 0.0, "lat": 38.9676135, "type": "electric_bike", "lon": -77.09167283333333, "bike_id": "74963b04909fe190fa2cd612e594c020", "rental_uris": {"android": "https://dc.lft.to/lastmile_qr_scan", "ios": "https://dc.lft.to/lastmile_qr_scan"}, "name": "74963b04909fe190fa2cd612e594c020", "is_reserved": 0}, {"is_disabled": 0, "fusion_lon": 0.0, "fusion_lat": 0.0, "lat": 38.92480283333333, "type": "electric_scooter", "lon": -77.027208, "bike_id": "524f3f280a904fabd51c10833680767e", "rental_uris": {"android": "https://dc.lft.to/lastmile_qr_scan", "ios": "https://dc.lft.to/lastmile_qr_scan"}, "name": "524f3f280a904fabd51c10833680767e", "is_reserved": 0}, {"is_disabled": 0, "fusion_lon": 0.0, "fusion_lat": 0.0, "lat": 38.84200933333334, "type": "electric_bike", "lon": -77.10683733333333, "bike_id": "59a5a45e8667b0a82e79a2ada2d404e1", "rental_uris": {"android": "https://dc.lft.to/lastmile_qr_scan", "ios": "https://dc.lft.to/lastmile_qr_scan"}, "name": "59a5a45e8667b0a82e79a2ada2d404e1", "is_reserved": 0}, {"is_disabled": 0, "fusion_lon": 0.0, "fusion_lat": 0.0, "lat": 38.91582616666667, "type": "electric_scooter", "lon": -76.98111066666667, "bike_id": "df781a041a86a39887c0218259ed78c8", "rental_uris": {"android": "https://dc.lft.to/lastmile_qr_scan", "ios": "https://dc.lft.to/lastmile_qr_scan"}, "name": "df781a041a86a39887c0218259ed78c8", "is_reserved": 0}, {"is_disabled": 0, "fusion_lon": 0.0, "fusion_lat": 0.0, "lat": 38.8580725, "type": "electric_scooter", "lon": -76.98655633333334, "bike_id": "c71ecdcdeae04a60ff3a34c3980a72b1", "rental_uris": {"android": "https://dc.lft.to/lastmile_qr_scan", "ios": "https://dc.lft.to/lastmile_qr_scan"}, "name": "c71ecdcdeae04a60ff3a34c3980a72b1", "is_reserved": 0}, {"is_disabled": 0, "fusion_lon": 0.0, "fusion_lat": 0.0, "lat": 38.99890933333333, "type": "electric_bike", "lon": -77.0287385, "bike_id": "ef54e1ade8f2af44d77739b1c348a94b", "rental_uris": {"android": "https://dc.lft.to/lastmile_qr_scan", "ios": "https://dc.lft.to/lastmile_qr_scan"}, "name": "ef54e1ade8f2af44d77739b1c348a94b", "is_reserved": 0}, {"is_disabled": 0, "fusion_lon": 0.0, "fusion_lat": 0.0, "lat": 38.928620333333335, "type": "electric_scooter", "lon": -77.01406283333333, "bike_id": "ed90db260cb8b2e7055bfb1787654017", "rental_uris": {"android": "https://dc.lft.to/lastmile_qr_scan", "ios": "https://dc.lft.to/lastmile_qr_scan"}, "name": "ed90db260cb8b2e7055bfb1787654017", "is_reserved": 0}, {"is_disabled": 0, "fusion_lon": 0.0, "fusion_lat": 0.0, "lat": 38.86907816666667, "type": "electric_bike", "lon": -77.13184166666667, "bike_id": "f7fd3fe65e8cda320e3b54d832846430", "rental_uris": {"android": "https://dc.lft.to/lastmile_qr_scan", "ios": "https://dc.lft.to/lastmile_qr_scan"}, "name": "f7fd3fe65e8cda320e3b54d832846430", "is_reserved": 0}, {"is_disabled": 0, "fusion_lon": 0.0, "fusion_lat": 0.0, "lat": 38.908418166666664, "type": "electric_scooter", "lon": -77.02697183333333, "bike_id": "b25fd358c0242c83b80e5d4d611cf6fd", "rental_uris": {"android": "https://dc.lft.to/lastmile_qr_scan", "ios": "https://dc.lft.to/lastmile_qr_scan"}, "name": "b25fd358c0242c83b80e5d4d611cf6fd", "is_reserved": 0}, {"is_disabled": 0, "fusion_lon": 0.0, "fusion_lat": 0.0, "lat": 38.911070333333335, "type": "electric_scooter", "lon": -77.00341333333333, "bike_id": "5ecdc6c54c01f588550ac1f8f99fdca6", "rental_uris": {"android": "https://dc.lft.to/lastmile_qr_scan", "ios": "https://dc.lft.to/lastmile_qr_scan"}, "name": "5ecdc6c54c01f588550ac1f8f99fdca6", "is_reserved": 0}, {"is_disabled": 0, "fusion_lon": 0.0, "fusion_lat": 0.0, "lat": 38.9228025, "type": "electric_scooter", "lon": -77.04232066666667, "bike_id": "1de5ddc458f2f29c2906f72b2a2128cb", "rental_uris": {"android": "https://dc.lft.to/lastmile_qr_scan", "ios": "https://dc.lft.to/lastmile_qr_scan"}, "name": "1de5ddc458f2f29c2906f72b2a2128cb", "is_reserved": 0}, {"is_disabled": 0, "fusion_lon": 0.0, "fusion_lat": 0.0, "lat": 38.91271533333333, "type": "electric_scooter", "lon": -77.02221616666667, "bike_id": "0c9f8408ae16fff05d59fe72a68dcd50", "rental_uris": {"android": "https://dc.lft.to/lastmile_qr_scan", "ios": "https://dc.lft.to/lastmile_qr_scan"}, "name": "0c9f8408ae16fff05d59fe72a68dcd50", "is_reserved": 0}, {"is_disabled": 0, "fusion_lon": 0.0, "fusion_lat": 0.0, "lat": 38.9003905, "type": "electric_scooter", "lon": -77.00202733333333, "bike_id": "822c152cff350a0fe61cde866be45955", "rental_uris": {"android": "https://dc.lft.to/lastmile_qr_scan", "ios": "https://dc.lft.to/lastmile_qr_scan"}, "name": "822c152cff350a0fe61cde866be45955", "is_reserved": 0}, {"is_disabled": 0, "fusion_lon": 0.0, "fusion_lat": 0.0, "lat": 38.901290833333334, "type": "electric_scooter", "lon": -77.01970016666667, "bike_id": "ee31843da7ff7cd576ed974b681bde27", "rental_uris": {"android": "https://dc.lft.to/lastmile_qr_scan", "ios": "https://dc.lft.to/lastmile_qr_scan"}, "name": "ee31843da7ff7cd576ed974b681bde27", "is_reserved": 0}, {"is_disabled": 0, "fusion_lon": 0.0, "fusion_lat": 0.0, "lat": 38.93557933333334, "type": "electric_scooter", "lon": -77.02208983333334, "bike_id": "a4c9522afadb68b9ee44686e31f07f7d", "rental_uris": {"android": "https://dc.lft.to/lastmile_qr_scan", "ios": "https://dc.lft.to/lastmile_qr_scan"}, "name": "a4c9522afadb68b9ee44686e31f07f7d", "is_reserved": 0}, {"is_disabled": 0, "fusion_lon": 0.0, "fusion_lat": 0.0, "lat": 38.93490966666667, "type": "electric_scooter", "lon": -77.03432533333333, "bike_id": "714a0b90107e4cf3b79d2fc5945e1bdf", "rental_uris": {"android": "https://dc.lft.to/lastmile_qr_scan", "ios": "https://dc.lft.to/lastmile_qr_scan"}, "name": "714a0b90107e4cf3b79d2fc5945e1bdf", "is_reserved": 0}, {"is_disabled": 0, "fusion_lon": 0.0, "fusion_lat": 0.0, "lat": 38.904016666666664, "type": "electric_scooter", "lon": -77.03294866666667, "bike_id": "26bd20480265bcee5546a7fbbf534177", "rental_uris": {"android": "https://dc.lft.to/lastmile_qr_scan", "ios": "https://dc.lft.to/lastmile_qr_scan"}, "name": "26bd20480265bcee5546a7fbbf534177", "is_reserved": 0}, {"is_disabled": 0, "fusion_lon": 0.0, "fusion_lat": 0.0, "lat": 38.896346333333334, "type": "electric_scooter", "lon": -77.008957, "bike_id": "0ed21a28b698e9a7c22fd820559eca6d", "rental_uris": {"android": "https://dc.lft.to/lastmile_qr_scan", "ios": "https://dc.lft.to/lastmile_qr_scan"}, "name": "0ed21a28b698e9a7c22fd820559eca6d", "is_reserved": 0}, {"is_disabled": 0, "fusion_lon": 0.0, "fusion_lat": 0.0, "lat": 38.924611166666665, "type": "electric_scooter", "lon": -77.02971683333334, "bike_id": "6110062259f73f02f6d19f9c32b49257", "rental_uris": {"android": "https://dc.lft.to/lastmile_qr_scan", "ios": "https://dc.lft.to/lastmile_qr_scan"}, "name": "6110062259f73f02f6d19f9c32b49257", "is_reserved": 0}, {"is_disabled": 0, "fusion_lon": 0.0, "fusion_lat": 0.0, "lat": 38.91984133333333, "type": "electric_bike", "lon": -76.97312716666667, "bike_id": "f0cdc34672ee988ddcd5e5c1963bea20", "rental_uris": {"android": "https://dc.lft.to/lastmile_qr_scan", "ios": "https://dc.lft.to/lastmile_qr_scan"}, "name": "f0cdc34672ee988ddcd5e5c1963bea20", "is_reserved": 0}, {"is_disabled": 0, "fusion_lon": 0.0, "fusion_lat": 0.0, "lat": 38.897394166666665, "type": "electric_scooter", "lon": -77.02163083333333, "bike_id": "3ddf96592c0753242dad891ca5629228", "rental_uris": {"android": "https://dc.lft.to/lastmile_qr_scan", "ios": "https://dc.lft.to/lastmile_qr_scan"}, "name": "3ddf96592c0753242dad891ca5629228", "is_reserved": 0}, {"is_disabled": 0, "fusion_lon": 0.0, "fusion_lat": 0.0, "lat": 38.97846283333333, "type": "electric_bike", "lon": -77.0913235, "bike_id": "6ef3aff4c8440cf61dbe3f60de5e4a8b", "rental_uris": {"android": "https://dc.lft.to/lastmile_qr_scan", "ios": "https://dc.lft.to/lastmile_qr_scan"}, "name": "6ef3aff4c8440cf61dbe3f60de5e4a8b", "is_reserved": 0}, {"is_disabled": 0, "fusion_lon": 0.0, "fusion_lat": 0.0, "lat": 38.93380033333333, "type": "electric_scooter", "lon": -77.07258566666667, "bike_id": "71688a10cad61294f08b58f439bb2b5e", "rental_uris": {"android": "https://dc.lft.to/lastmile_qr_scan", "ios": "https://dc.lft.to/lastmile_qr_scan"}, "name": "71688a10cad61294f08b58f439bb2b5e", "is_reserved": 0}, {"is_disabled": 0, "fusion_lon": 0.0, "fusion_lat": 0.0, "lat": 38.91588, "type": "electric_bike", "lon": -76.97151516666666, "bike_id": "d15a380cc5a89802f6ee5a3143dbffce", "rental_uris": {"android": "https://dc.lft.to/lastmile_qr_scan", "ios": "https://dc.lft.to/lastmile_qr_scan"}, "name": "d15a380cc5a89802f6ee5a3143dbffce", "is_reserved": 0}, {"is_disabled": 0, "fusion_lon": 0.0, "fusion_lat": 0.0, "lat": 38.91760283333333, "type": "electric_scooter", "lon": -77.03593383333333, "bike_id": "7383ef68987e9fd12ea5839347efa33d", "rental_uris": {"android": "https://dc.lft.to/lastmile_qr_scan", "ios": "https://dc.lft.to/lastmile_qr_scan"}, "name": "7383ef68987e9fd12ea5839347efa33d", "is_reserved": 0}, {"is_disabled": 0, "fusion_lon": 0.0, "fusion_lat": 0.0, "lat": 38.92274483333333, "type": "electric_bike", "lon": -76.99765316666667, "bike_id": "a67337ae63bfe794e0800851813a6ea7", "rental_uris": {"android": "https://dc.lft.to/lastmile_qr_scan", "ios": "https://dc.lft.to/lastmile_qr_scan"}, "name": "a67337ae63bfe794e0800851813a6ea7", "is_reserved": 0}, {"is_disabled": 0, "fusion_lon": 0.0, "fusion_lat": 0.0, "lat": 38.918572833333336, "type": "electric_scooter", "lon": -77.03186216666667, "bike_id": "b1bdb6771b1d3de34a72ae812a18461a", "rental_uris": {"android": "https://dc.lft.to/lastmile_qr_scan", "ios": "https://dc.lft.to/lastmile_qr_scan"}, "name": "b1bdb6771b1d3de34a72ae812a18461a", "is_reserved": 0}, {"is_disabled": 0, "fusion_lon": 0.0, "fusion_lat": 0.0, "lat": 38.93001366666667, "type": "electric_scooter", "lon": -77.02206016666666, "bike_id": "5ed44502bfd1dd5aa8cbe194bff9a7fc", "rental_uris": {"android": "https://dc.lft.to/lastmile_qr_scan", "ios": "https://dc.lft.to/lastmile_qr_scan"}, "name": "5ed44502bfd1dd5aa8cbe194bff9a7fc", "is_reserved": 0}, {"is_disabled": 0, "fusion_lon": 0.0, "fusion_lat": 0.0, "lat": 38.93584516666667, "type": "electric_bike", "lon": -77.08253683333334, "bike_id": "e3ef9a75af318158eec21f375079390d", "rental_uris": {"android": "https://dc.lft.to/lastmile_qr_scan", "ios": "https://dc.lft.to/lastmile_qr_scan"}, "name": "e3ef9a75af318158eec21f375079390d", "is_reserved": 0}, {"is_disabled": 0, "fusion_lon": 0.0, "fusion_lat": 0.0, "lat": 38.97541733333333, "type": "electric_bike", "lon": -76.99530216666666, "bike_id": "43a437b18db20de0ff1ef9e153ec3600", "rental_uris": {"android": "https://dc.lft.to/lastmile_qr_scan", "ios": "https://dc.lft.to/lastmile_qr_scan"}, "name": "43a437b18db20de0ff1ef9e153ec3600", "is_reserved": 0}, {"is_disabled": 0, "fusion_lon": 0.0, "fusion_lat": 0.0, "lat": 38.911906, "type": "electric_scooter", "lon": -77.041606, "bike_id": "27fa24a3c9b3bb59f2e313fa25d2c7ef", "rental_uris": {"android": "https://dc.lft.to/lastmile_qr_scan", "ios": "https://dc.lft.to/lastmile_qr_scan"}, "name": "27fa24a3c9b3bb59f2e313fa25d2c7ef", "is_reserved": 0}, {"is_disabled": 0, "fusion_lon": 0.0, "fusion_lat": 0.0, "lat": 38.9057905, "type": "electric_scooter", "lon": -77.02203683333333, "bike_id": "ca1b0e4b484c03d89e97a4f7615dd51f", "rental_uris": {"android": "https://dc.lft.to/lastmile_qr_scan", "ios": "https://dc.lft.to/lastmile_qr_scan"}, "name": "ca1b0e4b484c03d89e97a4f7615dd51f", "is_reserved": 0}, {"is_disabled": 0, "fusion_lon": 0.0, "fusion_lat": 0.0, "lat": 38.82392516666667, "type": "electric_scooter", "lon": -77.00697283333334, "bike_id": "ccd59f684dd7e5621a44be01a38720de", "rental_uris": {"android": "https://dc.lft.to/lastmile_qr_scan", "ios": "https://dc.lft.to/lastmile_qr_scan"}, "name": "ccd59f684dd7e5621a44be01a38720de", "is_reserved": 0}, {"is_disabled": 0, "fusion_lon": 0.0, "fusion_lat": 0.0, "lat": 38.9215165, "type": "electric_scooter", "lon": -77.033604, "bike_id": "4d1542ae294af05f21528e0ba4c3a225", "rental_uris": {"android": "https://dc.lft.to/lastmile_qr_scan", "ios": "https://dc.lft.to/lastmile_qr_scan"}, "name": "4d1542ae294af05f21528e0ba4c3a225", "is_reserved": 0}, {"is_disabled": 0, "fusion_lon": 0.0, "fusion_lat": 0.0, "lat": 38.90039266666667, "type": "electric_scooter", "lon": -77.00199166666667, "bike_id": "3c6c78ccf32d554450f1b43137011794", "rental_uris": {"android": "https://dc.lft.to/lastmile_qr_scan", "ios": "https://dc.lft.to/lastmile_qr_scan"}, "name": "3c6c78ccf32d554450f1b43137011794", "is_reserved": 0}, {"is_disabled": 0, "fusion_lon": 0.0, "fusion_lat": 0.0, "lat": 38.89001416666667, "type": "electric_scooter", "lon": -77.0489145, "bike_id": "26a624a447f116e3ef08ee37d117fdb3", "rental_uris": {"android": "https://dc.lft.to/lastmile_qr_scan", "ios": "https://dc.lft.to/lastmile_qr_scan"}, "name": "26a624a447f116e3ef08ee37d117fdb3", "is_reserved": 0}, {"is_disabled": 0, "fusion_lon": 0.0, "fusion_lat": 0.0, "lat": 38.89726433333333, "type": "electric_scooter", "lon": -77.03046266666666, "bike_id": "de5a44054abb12bc394a726c4347f24f", "rental_uris": {"android": "https://dc.lft.to/lastmile_qr_scan", "ios": "https://dc.lft.to/lastmile_qr_scan"}, "name": "de5a44054abb12bc394a726c4347f24f", "is_reserved": 0}, {"is_disabled": 0, "fusion_lon": 0.0, "fusion_lat": 0.0, "lat": 38.94575716666667, "type": "electric_bike", "lon": -76.9877625, "bike_id": "ae7dac250277e99d3b95355613ef53a9", "rental_uris": {"android": "https://dc.lft.to/lastmile_qr_scan", "ios": "https://dc.lft.to/lastmile_qr_scan"}, "name": "ae7dac250277e99d3b95355613ef53a9", "is_reserved": 0},