{"data": {"bikes": [{"lat": 38.88196883333333, "is_disabled": 0, "type": "electric_scooter", "lon": -76.996212, "bike_id": "59b780dbaa8eeae4557d8ba06a5c226e", "fusion_lat": 0.0, "name": "59b780dbaa8eeae4557d8ba06a5c226e", "is_reserved": 0, "rental_uris": {"android": "https://dc.lft.to/lastmile_qr_scan", "ios": "https://dc.lft.to/lastmile_qr_scan"}, "fusion_lon": 0.0}, {"lat": 38.92571816666667, "is_disabled": 0, "type": "electric_scooter", "lon": -77.0437345, "bike_id": "74489fc1446b6afebdf9afa2d8657251", "fusion_lat": 0.0, "name": "74489fc1446b6afebdf9afa2d8657251", "is_reserved": 0, "rental_uris": {"android": "https://dc.lft.to/lastmile_qr_scan", "ios": "https://dc.lft.to/lastmile_qr_scan"}, "fusion_lon": 0.0}, {"lat": 38.894988166666664, "is_disabled": 0, "type": "electric_scooter", "lon": -77.0032355, "bike_id": "bc98a790655a71125d1a532545744565", "fusion_lat": 0.0, "name": "bc98a790655a71125d1a532545744565", "is_reserved": 0, "rental_uris": {"android": "https://dc.lft.to/lastmile_qr_scan", "ios": "https://dc.lft.to/lastmile_qr_scan"}, "fusion_lon": 0.0}, {"lat": 38.92264983333333, "is_disabled": 0, "type": "electric_scooter", "lon": -77.0224115, "bike_id": "5e3d498340bae6a49df24226bc0a6735", "fusion_lat": 0.0, "name": "5e3d498340bae6a49df24226bc0a6735", "is_reserved": 0, "rental_uris": {"android": "https://dc.lft.to/lastmile_qr_scan", "ios": "https://dc.lft.to/lastmile_qr_scan"}, "fusion_lon": 0.0}, {"lat": 38.90319133333333, "is_disabled": 0, "type": "electric_bike", "lon": -77.01621283333333, "bike_id": "c5490def9fa4b1489699735c8ede6fae", "fusion_lat": 0.0, "name": "c5490def9fa4b1489699735c8ede6fae", "is_reserved": 0, "rental_uris": {"android": "https://dc.lft.to/lastmile_qr_scan", "ios": "https://dc.lft.to/lastmile_qr_scan"}, "fusion_lon": 0.0}, {"lat": 38.8664795, "is_disabled": 0, "type": "electric_scooter", "lon": -76.9888425, "bike_id": "6408157d69566262226b802a06eaac5e", "fusion_lat": 0.0, "name": "6408157d69566262226b802a06eaac5e", "is_reserved": 0, "rental_uris": {"android": "https://dc.lft.to/lastmile_qr_scan", "ios": "https://dc.lft.to/lastmile_qr_scan"}, "fusion_lon": 0.0}, {"lat": 38.93872133333333, "is_disabled": 0, "type": "electric_scooter", "lon": -77.0312395, "bike_id": "92682865c503c30a971c3979d399504d", "fusion_lat": 0.0, "name": "92682865c503c30a971c3979d399504d", "is_reserved": 0, "rental_uris": {"android": "https://dc.lft.to/lastmile_qr_scan", "ios": "https://dc.lft.to/lastmile_qr_scan"}, "fusion_lon": 0.0}, {"lat": 38.8802265, "is_disabled": 0, "type": "electric_scooter", "lon": -76.96014283333334, "bike_id": "456e62b6b9fe9c2327d95fa27d628e47", "fusion_lat": 0.0, "name": "456e62b6b9fe9c2327d95fa27d628e47", "is_reserved": 0, "rental_uris": {"android": "https://dc.lft.to/lastmile_qr_scan", "ios": "https://dc.lft.to/lastmile_qr_scan"}, "fusion_lon": 0.0}, {"lat": 38.92060433333333, "is_disabled": 0, "type": "electric_scooter", "lon": -77.04370533333334, "bike_id": "860342464f7439bae3b3cf356c50f13e", "fusion_lat": 0.0, "name": "860342464f7439bae3b3cf356c50f13e", "is_reserved": 0, "rental_uris": {"android": "https://dc.lft.to/lastmile_qr_scan", "ios": "https://dc.lft.to/lastmile_qr_scan"}, "fusion_lon": 0.0}, {"lat": 38.938597, "is_disabled": 0, "type": "electric_scooter", "lon": -77.0308665, "bike_id": "57c4be4c8388893b1ab277c128686020", "fusion_lat": 0.0, "name": "57c4be4c8388893b1ab277c128686020", "is_reserved": 0, "rental_uris": {"android": "https://dc.lft.to/lastmile_qr_scan", "ios": "https://dc.lft.to/lastmile_qr_scan"}, "fusion_lon": 0.0}, {"lat": 38.9002945, "is_disabled": 0, "type": "electric_scooter", "lon": -76.98978, "bike_id": "f2561929ef234405138946071cb4351b", "fusion_lat": 0.0, "name": "f2561929ef234405138946071cb4351b", "is_reserved": 0, "rental_uris": {"android": "https://dc.lft.to/lastmile_qr_scan", "ios": "https://dc.lft.to/lastmile_qr_scan"}, "fusion_lon": 0.0}, {"lat": 38.89896983333333, "is_disabled": 0, "type": "electric_scooter", "lon": -76.99731216666666, "bike_id": "62b4400403e23acb76b866ccfee82cc7", "fusion_lat": 0.0, "name": "62b4400403e23acb76b866ccfee82cc7", "is_reserved": 0, "rental_uris": {"android": "https://dc.lft.to/lastmile_qr_scan", "ios": "https://dc.lft.to/lastmile_qr_scan"}, "fusion_lon": 0.0}, {"lat": 38.90303266666667, "is_disabled": 0, "type": "electric_scooter", "lon": -77.002087, "bike_id": "c51f4d49c61a08b5f0a8ea2bbc9bcb8f", "fusion_lat": 0.0, "name": "c51f4d49c61a08b5f0a8ea2bbc9bcb8f", "is_reserved": 0, "rental_uris": {"android": "https://dc.lft.to/lastmile_qr_scan", "ios": "https://dc.lft.to/lastmile_qr_scan"}, "fusion_lon": 0.0}, {"lat": 38.902342, "is_disabled": 0, "type": "electric_scooter", "lon": -77.000602, "bike_id": "8dd7eeacba29e5c275ba0f27e6cc750f", "fusion_lat": 0.0, "name": "8dd7eeacba29e5c275ba0f27e6cc750f", "is_reserved": 0, "rental_uris": {"android": "https://dc.lft.to/lastmile_qr_scan", "ios": "https://dc.lft.to/lastmile_qr_scan"}, "fusion_lon": 0.0}, {"lat": 38.907741, "is_disabled": 0, "type": "electric_scooter", "lon": -77.038589, "bike_id": "14102a6a35394d53469c9ddedae7349f", "fusion_lat": 0.0, "name": "14102a6a35394d53469c9ddedae7349f", "is_reserved": 0, "rental_uris": {"android": "https://dc.lft.to/lastmile_qr_scan", "ios": "https://dc.lft.to/lastmile_qr_scan"}, "fusion_lon": 0.0}, {"lat": 38.90580583333333, "is_disabled": 0, "type": "electric_scooter", "lon": -77.0088845, "bike_id": "38219871ccbd7d5297b831a49da443b6", "fusion_lat": 0.0, "name": "38219871ccbd7d5297b831a49da443b6", "is_reserved": 0, "rental_uris": {"android": "https://dc.lft.to/lastmile_qr_scan", "ios": "https://dc.lft.to/lastmile_qr_scan"}, "fusion_lon": 0.0}, {"lat": 38.906505333333335, "is_disabled": 0, "type": "electric_scooter", "lon": -77.05316616666667, "bike_id": "5e5f2ef4b35157f7d5d16857ba484a60", "fusion_lat": 0.0, "name": "5e5f2ef4b35157f7d5d16857ba484a60", "is_reserved": 0, "rental_uris": {"android": "https://dc.lft.to/lastmile_qr_scan", "ios": "https://dc.lft.to/lastmile_qr_scan"}, "fusion_lon": 0.0}, {"lat": 38.885347333333335, "is_disabled": 0, "type": "electric_scooter", "lon": -76.998244, "bike_id": "34aef816da8890d925c868811d1b1d40", "fusion_lat": 0.0, "name": "34aef816da8890d925c868811d1b1d40", "is_reserved": 0, "rental_uris": {"android": "https://dc.lft.to/lastmile_qr_scan", "ios": "https://dc.lft.to/lastmile_qr_scan"}, "fusion_lon": 0.0}, {"lat": 38.868880833333336, "is_disabled": 0, "type": "electric_scooter", "lon": -76.98312866666667, "bike_id": "76124018a47f0ef923799a1a7430fada", "fusion_lat": 0.0, "name": "76124018a47f0ef923799a1a7430fada", "is_reserved": 0, "rental_uris": {"android": "https://dc.lft.to/lastmile_qr_scan", "ios": "https://dc.lft.to/lastmile_qr_scan"}, "fusion_lon": 0.0}, {"lat": 38.906812, "is_disabled": 0, "type": "electric_scooter", "lon": -77.03836833333334, "bike_id": "0fabf41e28cb8ffaa93ddcbdd4752203", "fusion_lat": 0.0, "name": "0fabf41e28cb8ffaa93ddcbdd4752203", "is_reserved": 0, "rental_uris": {"android": "https://dc.lft.to/lastmile_qr_scan", "ios": "https://dc.lft.to/lastmile_qr_scan"}, "fusion_lon": 0.0}, {"lat": 38.913988333333336, "is_disabled": 0, "type": "electric_scooter", "lon": -77.03182733333334, "bike_id": "dc376d0e9d79558471906f162de95035", "fusion_lat": 0.0, "name": "dc376d0e9d79558471906f162de95035", "is_reserved": 0, "rental_uris": {"android": "https://dc.lft.to/lastmile_qr_scan", "ios": "https://dc.lft.to/lastmile_qr_scan"}, "fusion_lon": 0.0}, {"lat": 38.901967, "is_disabled": 0, "type": "electric_scooter", "lon": -77.026801, "bike_id": "d39df5bf83d07186947891b9997ed872", "fusion_lat": 0.0, "name": "d39df5bf83d07186947891b9997ed872", "is_reserved": 0, "rental_uris": {"android": "https://dc.lft.to/lastmile_qr_scan", "ios": "https://dc.lft.to/lastmile_qr_scan"}, "fusion_lon": 0.0}, {"lat": 38.85510333333333, "is_disabled": 0, "type": "electric_bike", "lon": -77.12010016666666, "bike_id": "1c3fa179256fdfb4f0514a61658785b6", "fusion_lat": 0.0, "name": "1c3fa179256fdfb4f0514a61658785b6", "is_reserved": 0, "rental_uris": {"android": "https://dc.lft.to/lastmile_qr_scan", "ios": "https://dc.lft.to/lastmile_qr_scan"}, "fusion_lon": 0.0}, {"lat": 38.917192666666665, "is_disabled": 0, "type": "electric_scooter", "lon": -77.04157816666667, "bike_id": "cc174a1756b963eab6821640c7e259ca", "fusion_lat": 0.0, "name": "cc174a1756b963eab6821640c7e259ca", "is_reserved": 0, "rental_uris": {"android": "https://dc.lft.to/lastmile_qr_scan", "ios": "https://dc.lft.to/lastmile_qr_scan"}, "fusion_lon": 0.0}, {"lat": 38.9410095, "is_disabled": 0, "type": "electric_scooter", "lon": -77.021085, "bike_id": "953b263c6abc07511113cd5a45670e16", "fusion_lat": 0.0, "name": "953b263c6abc07511113cd5a45670e16", "is_reserved": 0, "rental_uris": {"android": "https://dc.lft.to/lastmile_qr_scan", "ios": "https://dc.lft.to/lastmile_qr_scan"}, "fusion_lon": 0.0}, {"lat": 38.90064383333333, "is_disabled": 0, "type": "electric_scooter", "lon": -77.00192116666666, "bike_id": "74df565711d9208ceaeda67d98c42a60", "fusion_lat": 0.0, "name": "74df565711d9208ceaeda67d98c42a60", "is_reserved": 0, "rental_uris": {"android": "https://dc.lft.to/lastmile_qr_scan", "ios": "https://dc.lft.to/lastmile_qr_scan"}, "fusion_lon": 0.0}, {"lat": 38.851889166666666, "is_disabled": 0, "type": "electric_bike", "lon": -76.9610825, "bike_id": "8fb06bd498d99aa48b1f3edda6d880c9", "fusion_lat": 0.0, "name": "8fb06bd498d99aa48b1f3edda6d880c9", "is_reserved": 0, "rental_uris": {"android": "https://dc.lft.to/lastmile_qr_scan", "ios": "https://dc.lft.to/lastmile_qr_scan"}, "fusion_lon": 0.0}, {"lat": 38.92250216666667, "is_disabled": 0, "type": "electric_scooter", "lon": -77.033892, "bike_id": "ad19cd4a238ae1cb4676b9fb58c288a1", "fusion_lat": 0.0, "name": "ad19cd4a238ae1cb4676b9fb58c288a1", "is_reserved": 0, "rental_uris": {"android": "https://dc.lft.to/lastmile_qr_scan", "ios": "https://dc.lft.to/lastmile_qr_scan"}, "fusion_lon": 0.0}, {"lat": 38.916875833333336, "is_disabled": 0, "type": "electric_scooter", "lon": -77.02970016666667, "bike_id": "5e93e6cef2703dbacfe58a81c2888a63", "fusion_lat": 0.0, "name": "5e93e6cef2703dbacfe58a81c2888a63", "is_reserved": 0, "rental_uris": {"android": "https://dc.lft.to/lastmile_qr_scan", "ios": "https://dc.lft.to/lastmile_qr_scan"}, "fusion_lon": 0.0}, {"lat": 38.905547, "is_disabled": 0, "type": "electric_scooter", "lon": -77.019582, "bike_id": "602157ef4d205f00603b5a2ce0e65c5c", "fusion_lat": 0.0, "name": "602157ef4d205f00603b5a2ce0e65c5c", "is_reserved": 0, "rental_uris": {"android": "https://dc.lft.to/lastmile_qr_scan", "ios": "https://dc.lft.to/lastmile_qr_scan"}, "fusion_lon": 0.0}, {"lat": 38.908617, "is_disabled": 0, "type": "electric_scooter", "lon": -77.03857616666667, "bike_id": "a64bedb758b1b42119c541f726d6a29c", "fusion_lat": 0.0, "name": "a64bedb758b1b42119c541f726d6a29c", "is_reserved": 0, "rental_uris": {"android": "https://dc.lft.to/lastmile_qr_scan", "ios": "https://dc.lft.to/lastmile_qr_scan"}, "fusion_lon": 0.0}, {"lat": 38.943946, "is_disabled": 0, "type": "electric_scooter", "lon": -77.01980666666667, "bike_id": "551102f48c5863a90d1af9829f19d08a", "fusion_lat": 0.0, "name": "551102f48c5863a90d1af9829f19d08a", "is_reserved": 0, "rental_uris": {"android": "https://dc.lft.to/lastmile_qr_scan", "ios": "https://dc.lft.to/lastmile_qr_scan"}, "fusion_lon": 0.0}, {"lat": 38.944372666666666, "is_disabled": 0, "type": "electric_scooter", "lon": -77.0150525, "bike_id": "dc04c541834e119582ccef33260b024a", "fusion_lat": 0.0, "name": "dc04c541834e119582ccef33260b024a", "is_reserved": 0, "rental_uris": {"android": "https://dc.lft.to/lastmile_qr_scan", "ios": "https://dc.lft.to/lastmile_qr_scan"}, "fusion_lon": 0.0}, {"lat": 38.90963, "is_disabled": 0, "type": "electric_scooter", "lon": -77.0227985, "bike_id": "4ae2dea3a07b377a0db8b95c488bf117", "fusion_lat": 0.0, "name": "4ae2dea3a07b377a0db8b95c488bf117", "is_reserved": 0, "rental_uris": {"android": "https://dc.lft.to/lastmile_qr_scan", "ios": "https://dc.lft.to/lastmile_qr_scan"}, "fusion_lon": 0.0}, {"lat": 38.90149683333333, "is_disabled": 0, "type": "electric_scooter", "lon": -77.0392995, "bike_id": "e235922b77fbaf184b74d32d20839e93", "fusion_lat": 0.0, "name": "e235922b77fbaf184b74d32d20839e93", "is_reserved": 0, "rental_uris": {"android": "https://dc.lft.to/lastmile_qr_scan", "ios": "https://dc.lft.to/lastmile_qr_scan"}, "fusion_lon": 0.0}, {"lat": 38.8652205, "is_disabled": 0, "type": "electric_scooter", "lon": -76.9903325, "bike_id": "595bacba8df5e4f1b7ee1324e73333da", "fusion_lat": 0.0, "name": "595bacba8df5e4f1b7ee1324e73333da", "is_reserved": 0, "rental_uris": {"android": "https://dc.lft.to/lastmile_qr_scan", "ios": "https://dc.lft.to/lastmile_qr_scan"}, "fusion_lon": 0.0}, {"lat": 38.9028315, "is_disabled": 0, "type": "electric_scooter", "lon": -77.03647966666666, "bike_id": "8956e40fc31644196cd94cd5ca5b5093", "fusion_lat": 0.0, "name": "8956e40fc31644196cd94cd5ca5b5093", "is_reserved": 0, "rental_uris": {"android": "https://dc.lft.to/lastmile_qr_scan", "ios": "https://dc.lft.to/lastmile_qr_scan"}, "fusion_lon": 0.0}, {"lat": 38.93206216666667, "is_disabled": 0, "type": "electric_scooter", "lon": -76.977694, "bike_id": "254f9866d7f564a3a25c0e4e11403bc1", "fusion_lat": 0.0, "name": "254f9866d7f564a3a25c0e4e11403bc1", "is_reserved": 0, "rental_uris": {"android": "https://dc.lft.to/lastmile_qr_scan", "ios": "https://dc.lft.to/lastmile_qr_scan"}, "fusion_lon": 0.0}, {"lat": 38.919862333333334, "is_disabled": 0, "type": "electric_scooter", "lon": -77.0416365, "bike_id": "05dae6d061cb3f65f375a14accf9a9ad", "fusion_lat": 0.0, "name": "05dae6d061cb3f65f375a14accf9a9ad", "is_reserved": 0, "rental_uris": {"android": "https://dc.lft.to/lastmile_qr_scan", "ios": "https://dc.lft.to/lastmile_qr_scan"}, "fusion_lon": 0.0}, {"lat": 38.895936666666664, "is_disabled": 0, "type": "electric_bike", "lon": -77.12681283333333, "bike_id": "d870d3f022dc1a78282877e42d9c7785", "fusion_lat": 0.0, "name": "d870d3f022dc1a78282877e42d9c7785", "is_reserved": 0, "rental_uris": {"android": "https://dc.lft.to/lastmile_qr_scan", "ios": "https://dc.lft.to/lastmile_qr_scan"}, "fusion_lon": 0.0}, {"lat": 38.914217666666666, "is_disabled": 0, "type": "electric_scooter", "lon": -77.03182033333333, "bike_id": "8d775f0cb88e18f2c344d225c5e58639", "fusion_lat": 0.0, "name": "8d775f0cb88e18f2c344d225c5e58639", "is_reserved": 0, "rental_uris": {"android": "https://dc.lft.to/lastmile_qr_scan", "ios": "https://dc.lft.to/lastmile_qr_scan"}, "fusion_lon": 0.0}, {"lat": 38.90976, "is_disabled": 0, "type": "electric_scooter", "lon": -77.03867233333334, "bike_id": "ca31a41831ff1d60823f75fa18e957ed", "fusion_lat": 0.0, "name": "ca31a41831ff1d60823f75fa18e957ed", "is_reserved": 0, "rental_uris": {"android": "https://dc.lft.to/lastmile_qr_scan", "ios": "https://dc.lft.to/lastmile_qr_scan"}, "fusion_lon": 0.0}, {"lat": 38.910047166666665, "is_disabled": 0, "type": "electric_scooter", "lon": -77.0442505, "bike_id": "a7a9359e124c0185ef81c1cba0198b20", "fusion_lat": 0.0, "name": "a7a9359e124c0185ef81c1cba0198b20", "is_reserved": 0, "rental_uris": {"android": "https://dc.lft.to/lastmile_qr_scan", "ios": "https://dc.lft.to/lastmile_qr_scan"}, "fusion_lon": 0.0}, {"lat": 38.933554666666666, "is_disabled": 0, "type": "electric_bike", "lon": -77.09959933333333, "bike_id": "a07849f3766d07606545281611eeca06", "fusion_lat": 0.0, "name": "a07849f3766d07606545281611eeca06", "is_reserved": 0, "rental_uris": {"android": "https://dc.lft.to/lastmile_qr_scan", "ios": "https://dc.lft.to/lastmile_qr_scan"}, "fusion_lon": 0.0}, {"lat": 38.91013133333333, "is_disabled": 0, "type": "electric_scooter", "lon": -77.04439, "bike_id": "57d77489fb794ba26662452de7a21b8c", "fusion_lat": 0.0, "name": "57d77489fb794ba26662452de7a21b8c", "is_reserved": 0, "rental_uris": {"android": "https://dc.lft.to/lastmile_qr_scan", "ios": "https://dc.lft.to/lastmile_qr_scan"}, "fusion_lon": 0.0}, {"lat": 38.9176255, "is_disabled": 0, "type": "electric_scooter", "lon": -77.01170883333333, "bike_id": "f63997a5237811d9a9da83e65f2f8f2d", "fusion_lat": 0.0, "name": "f63997a5237811d9a9da83e65f2f8f2d", "is_reserved": 0, "rental_uris": {"android": "https://dc.lft.to/lastmile_qr_scan", "ios": "https://dc.lft.to/lastmile_qr_scan"}, "fusion_lon": 0.0}, {"lat": 38.90733383333333, "is_disabled": 0, "type": "electric_bike", "lon": -77.01065966666667, "bike_id": "74eb6e3eab3849a7d04fc9ef5b556236", "fusion_lat": 0.0, "name": "74eb6e3eab3849a7d04fc9ef5b556236", "is_reserved": 0, "rental_uris": {"android": "https://dc.lft.to/lastmile_qr_scan", "ios": "https://dc.lft.to/lastmile_qr_scan"}, "fusion_lon": 0.0}, {"lat": 38.858069666666665, "is_disabled": 0, "type": "electric_scooter", "lon": -76.98651333333333, "bike_id": "4f96a4aec761b31dc3e301dec2b214e7", "fusion_lat": 0.0, "name": "4f96a4aec761b31dc3e301dec2b214e7", "is_reserved": 0, "rental_uris": {"android": "https://dc.lft.to/lastmile_qr_scan", "ios": "https://dc.lft.to/lastmile_qr_scan"}, "fusion_lon": 0.0}, {"lat": 38.9012655, "is_disabled": 0, "type": "electric_scooter", "lon": -77.03277166666666, "bike_id": "7df0303d53bfd9e98e4178b35ea59751", "fusion_lat": 0.0, "name": "7df0303d53bfd9e98e4178b35ea59751", "is_reserved": 0, "rental_uris": {"android": "https://dc.lft.to/lastmile_qr_scan", "ios": "https://dc.lft.to/lastmile_qr_scan"}, "fusion_lon": 0.0}, {"lat": 38.96608, "is_disabled": 0, "type": "electric_scooter", "lon": -77.020548, "bike_id": "306b385b399e01c1cfd2d8df94da27d6", "fusion_lat": 0.0, "name": "306b385b399e01c1cfd2d8df94da27d6", "is_reserved": 0, "rental_uris": {"android": "https://dc.lft.to/lastmile_qr_scan", "ios": "https://dc.lft.to/lastmile_qr_scan"}, "fusion_lon": 0.0}, {"lat": 38.921011666666665, "is_disabled": 0, "type": "electric_scooter", "lon": -77.04182216666666, "bike_id": "018a241a6a908123d4f9e6ab25c8e9a6", "fusion_lat": 0.0, "name": "018a241a6a908123d4f9e6ab25c8e9a6", "is_reserved": 0, "rental_uris": {"android": "https://dc.lft.to/lastmile_qr_scan", "ios": "https://dc.lft.to/lastmile_qr_scan"}, "fusion_lon": 0.0}, {"lat": 38.926752, "is_disabled": 0, "type": "electric_scooter", "lon": -77.01515233333333, "bike_id": "9436b45eac74493eab6bd2515e23c309", "fusion_lat": 0.0, "name": "9436b45eac74493eab6bd2515e23c309", "is_reserved": 0, "rental_uris": {"android": "https://dc.lft.to/lastmile_qr_scan", "ios": "https://dc.lft.to/lastmile_qr_scan"}, "fusion_lon": 0.0}, {"lat": 38.943068833333335, "is_disabled": 0, "type": "electric_scooter", "lon": -77.06137283333334, "bike_id": "06d3db0e079e995b7083dc22adbc4997", "fusion_lat": 0.0, "name": "06d3db0e079e995b7083dc22adbc4997", "is_reserved": 0, "rental_uris": {"android": "https://dc.lft.to/lastmile_qr_scan", "ios": "https://dc.lft.to/lastmile_qr_scan"}, "fusion_lon": 0.0}, {"lat": 38.91575666666667, "is_disabled": 0, "type": "electric_scooter", "lon": -77.0501935, "bike_id": "014921eb00ff236654261bcd5627817f", "fusion_lat": 0.0, "name": "014921eb00ff236654261bcd5627817f", "is_reserved": 0, "rental_uris": {"android": "https://dc.lft.to/lastmile_qr_scan", "ios": "https://dc.lft.to/lastmile_qr_scan"}, "fusion_lon": 0.0}, {"lat": 38.982334, "is_disabled": 0, "type": "electric_scooter", "lon": -77.02643266666666, "bike_id": "d658ea373523c83a17f249ce2d1b4cf9", "fusion_lat": 0.0, "name": "d658ea373523c83a17f249ce2d1b4cf9", "is_reserved": 0, "rental_uris": {"android": "https://dc.lft.to/lastmile_qr_scan", "ios": "https://dc.lft.to/lastmile_qr_scan"}, "fusion_lon": 0.0}, {"lat": 38.90481483333333, "is_disabled": 0, "type": "electric_scooter", "lon": -76.97321083333334, "bike_id": "7015b742e6dd112baa115584bc0ae7e3", "fusion_lat": 0.0, "name": "7015b742e6dd112baa115584bc0ae7e3", "is_reserved": 0, "rental_uris": {"android": "https://dc.lft.to/lastmile_qr_scan", "ios": "https://dc.lft.to/lastmile_qr_scan"}, "fusion_lon": 0.0}, {"lat": 38.921656, "is_disabled": 0, "type": "electric_scooter", "lon": -77.04023066666667, "bike_id": "0ea9d8d57f3cb76fc0bc5aa3208c272a", "fusion_lat": 0.0, "name": "0ea9d8d57f3cb76fc0bc5aa3208c272a", "is_reserved": 0, "rental_uris": {"android": "https://dc.lft.to/lastmile_qr_scan", "ios": "https://dc.lft.to/lastmile_qr_scan"}, "fusion_lon": 0.0}, {"lat": 38.90278816666667, "is_disabled": 0, "type": "electric_scooter", "lon": -77.03658916666667, "bike_id": "e6a751398145cdee3623505c0d98315f", "fusion_lat": 0.0, "name": "e6a751398145cdee3623505c0d98315f", "is_reserved": 0, "rental_uris": {"android": "https://dc.lft.to/lastmile_qr_scan", "ios": "https://dc.lft.to/lastmile_qr_scan"}, "fusion_lon": 0.0}, {"lat": 38.92480233333333, "is_disabled": 0, "type": "electric_scooter", "lon": -77.03482266666667, "bike_id": "1830731900c80e9f59e422d36f80a6f7", "fusion_lat": 0.0, "name": "1830731900c80e9f59e422d36f80a6f7", "is_reserved": 0, "rental_uris": {"android": "https://dc.lft.to/lastmile_qr_scan", "ios": "https://dc.lft.to/lastmile_qr_scan"}, "fusion_lon": 0.0}, {"lat": 38.914698333333334, "is_disabled": 0, "type": "electric_scooter", "lon": -77.02175283333334, "bike_id": "c0a30ef8ed15eefbcdf1ac805cbe745c", "fusion_lat": 0.0, "name": "c0a30ef8ed15eefbcdf1ac805cbe745c", "is_reserved": 0, "rental_uris": {"android": "https://dc.lft.to/lastmile_qr_scan", "ios": "https://dc.lft.to/lastmile_qr_scan"}, "fusion_lon": 0.0}, {"lat": 38.89224383333333, "is_disabled": 0, "type": "electric_scooter", "lon": -77.0486055, "bike_id": "26e547f7b3ed3a5a3d9ee7c7dd3cd7c5", "fusion_lat": 0.0, "name": "26e547f7b3ed3a5a3d9ee7c7dd3cd7c5", "is_reserved": 0, "rental_uris": {"android": "https://dc.lft.to/lastmile_qr_scan", "ios": "https://dc.lft.to/lastmile_qr_scan"}, "fusion_lon": 0.0}, {"lat": 38.89485233333333, "is_disabled": 0, "type": "electric_scooter", "lon": -77.002237, "bike_id": "7eaf17ad24f842f484764676ad103ae9", "fusion_lat": 0.0, "name": "7eaf17ad24f842f484764676ad103ae9", "is_reserved": 0, "rental_uris": {"android": "https://dc.lft.to/lastmile_qr_scan", "ios": "https://dc.lft.to/lastmile_qr_scan"}, "fusion_lon": 0.0}, {"lat": 38.886225333333336, "is_disabled": 0, "type": "electric_scooter", "lon": -76.95514683333333, "bike_id": "859f24ec822dc933da38d5b419dce205", "fusion_lat": 0.0, "name": "859f24ec822dc933da38d5b419dce205", "is_reserved": 0, "rental_uris": {"android": "https://dc.lft.to/lastmile_qr_scan", "ios": "https://dc.lft.to/lastmile_qr_scan"}, "fusion_lon": 0.0}, {"lat": 38.91099333333333, "is_disabled": 0, "type": "electric_scooter", "lon": -77.03855683333333, "bike_id": "668e96a815cb851e3b3b7020fa9fc901", "fusion_lat": 0.0, "name": "668e96a815cb851e3b3b7020fa9fc901", "is_reserved": 0, "rental_uris": {"android": "https://dc.lft.to/lastmile_qr_scan", "ios": "https://dc.lft.to/lastmile_qr_scan"}, "fusion_lon": 0.0}, {"lat": 38.91265516666667, "is_disabled": 0, "type": "electric_scooter", "lon": -77.02252, "bike_id": "8f0d646e477cb0814e81d44947128ed9", "fusion_lat": 0.0, "name": "8f0d646e477cb0814e81d44947128ed9", "is_reserved": 0, "rental_uris": {"android": "https://dc.lft.to/lastmile_qr_scan", "ios": "https://dc.lft.to/lastmile_qr_scan"}, "fusion_lon": 0.0}, {"lat": 38.88670366666667, "is_disabled": 0, "type": "electric_scooter", "lon": -76.99032433333333, "bike_id": "3e0a7c7515231fe6ca278e5aef87c243", "fusion_lat": 0.0, "name": "3e0a7c7515231fe6ca278e5aef87c243", "is_reserved": 0, "rental_uris": {"android": "https://dc.lft.to/lastmile_qr_scan", "ios": "https://dc.lft.to/lastmile_qr_scan"}, "fusion_lon": 0.0}, {"lat": 38.900062166666665, "is_disabled": 0, "type": "electric_bike", "lon": -76.99840533333334, "bike_id": "6920d7d263e526b3215d7f9da0c276ed", "fusion_lat": 0.0, "name": "6920d7d263e526b3215d7f9da0c276ed", "is_reserved": 0, "rental_uris": {"android": "https://dc.lft.to/lastmile_qr_scan", "ios": "https://dc.lft.to/lastmile_qr_scan"}, "fusion_lon": 0.0}, {"lat": 39.07499133333334, "is_disabled": 0, "type": "electric_bike", "lon": -77.11897983333333, "bike_id": "9d8f791bb9f89043ba422ef1fd9ba075", "fusion_lat": 0.0, "name": "9d8f791bb9f89043ba422ef1fd9ba075", "is_reserved": 0, "rental_uris": {"android": "https://dc.lft.to/lastmile_qr_scan", "ios": "https://dc.lft.to/lastmile_qr_scan"}, "fusion_lon": 0.0}, {"lat": 38.906744333333336, "is_disabled": 0, "type": "electric_scooter", "lon": -77.02403633333333, "bike_id": "8700afdb52a08f0524d3d4e7d904f43b", "fusion_lat": 0.0, "name": "8700afdb52a08f0524d3d4e7d904f43b", "is_reserved": 0, "rental_uris": {"android": "https://dc.lft.to/lastmile_qr_scan", "ios": "https://dc.lft.to/lastmile_qr_scan"}, "fusion_lon": 0.0}, {"lat": 38.92105866666667, "is_disabled": 0, "type": "electric_scooter", "lon": -77.045761, "bike_id": "7bf499ea92dddd1a80cf44b2393c6caf", "fusion_lat": 0.0, "name": "7bf499ea92dddd1a80cf44b2393c6caf", "is_reserved": 0, "rental_uris": {"android": "https://dc.lft.to/lastmile_qr_scan", "ios": "https://dc.lft.to/lastmile_qr_scan"}, "fusion_lon": 0.0}, {"lat": 38.903769833333335, "is_disabled": 0, "type": "electric_scooter", "lon": -77.04337916666667, "bike_id": "cedf6666fca9c400268e1c4ebbb8e7e4", "fusion_lat": 0.0, "name": "cedf6666fca9c400268e1c4ebbb8e7e4", "is_reserved": 0, "rental_uris": {"android": "https://dc.lft.to/lastmile_qr_scan", "ios": "https://dc.lft.to/lastmile_qr_scan"}, "fusion_lon": 0.0}, {"lat": 38.9000435, "is_disabled": 0, "type": "electric_bike", "lon": -77.05125633333333, "bike_id": "0ebc2e0801bdeb57d12dddb6da342550", "fusion_lat": 0.0, "name": "0ebc2e0801bdeb57d12dddb6da342550", "is_reserved": 0, "rental_uris": {"android": "https://dc.lft.to/lastmile_qr_scan", "ios": "https://dc.lft.to/lastmile_qr_scan"}, "fusion_lon": 0.0}, {"lat": 38.8922255, "is_disabled": 0, "type": "electric_bike", "lon": -77.10778166666667, "bike_id": "c7fe6f6dc530b15df16e6f90c107397d", "fusion_lat": 0.0, "name": "c7fe6f6dc530b15df16e6f90c107397d", "is_reserved": 0, "rental_uris": {"android": "https://dc.lft.to/lastmile_qr_scan", "ios": "https://dc.lft.to/lastmile_qr_scan"}, "fusion_lon": 0.0}, {"lat": 38.962216166666664, "is_disabled": 0, "type": "electric_bike", "lon": -77.0262535, "bike_id": "d1eb8511f5f4930fa4590f488cfb713e", "fusion_lat": 0.0, "name": "d1eb8511f5f4930fa4590f488cfb713e", "is_reserved": 0, "rental_uris": {"android": "https://dc.lft.to/lastmile_qr_scan", "ios": "https://dc.lft.to/lastmile_qr_scan"}, "fusion_lon": 0.0}, {"lat": 38.90041466666667, "is_disabled": 0, "type": "electric_scooter", "lon": -77.02193433333333, "bike_id": "cab7777983ba49f7532d7bafeacf9b7a", "fusion_lat": 0.0, "name": "cab7777983ba49f7532d7bafeacf9b7a", "is_reserved": 0, "rental_uris": {"android": "https://dc.lft.to/lastmile_qr_scan", "ios": "https://dc.lft.to/lastmile_qr_scan"}, "fusion_lon": 0.0}, {"lat": 38.93199, "is_disabled": 0, "type": "electric_scooter", "lon": -77.02354466666667, "bike_id": "9b8bd8ebf8ac8f74409fd2e7ef778e8b", "fusion_lat": 0.0, "name": "9b8bd8ebf8ac8f74409fd2e7ef778e8b", "is_reserved": 0, "rental_uris": {"android": "https://dc.lft.to/lastmile_qr_scan", "ios": "https://dc.lft.to/lastmile_qr_scan"}, "fusion_lon": 0.0}, {"lat": 38.90548583333333, "is_disabled": 0, "type": "electric_scooter", "lon": -77.05706833333333, "bike_id": "1c832b0c5a490668890a03293f6326f1", "fusion_lat": 0.0, "name": "1c832b0c5a490668890a03293f6326f1", "is_reserved": 0, "rental_uris": {"android": "https://dc.lft.to/lastmile_qr_scan", "ios": "https://dc.lft.to/lastmile_qr_scan"}, "fusion_lon": 0.0}, {"lat": 38.894967333333334, "is_disabled": 0, "type": "electric_bike", "lon": -77.072939, "bike_id": "8d1e7b2ca4473926a61e3f066e0c258a", "fusion_lat": 0.0, "name": "8d1e7b2ca4473926a61e3f066e0c258a", "is_reserved": 0, "rental_uris": {"android": "https://dc.lft.to/lastmile_qr_scan", "ios": "https://dc.lft.to/lastmile_qr_scan"}, "fusion_lon": 0.0}, {"lat": 38.89837166666667, "is_disabled": 0, "type": "electric_scooter", "lon": -76.9950335, "bike_id": "967ace31ff85f5d655d668f5d833e21d", "fusion_lat": 0.0, "name": "967ace31ff85f5d655d668f5d833e21d", "is_reserved": 0, "rental_uris": {"android": "https://dc.lft.to/lastmile_qr_scan", "ios": "https://dc.lft.to/lastmile_qr_scan"}, "fusion_lon": 0.0}, {"lat": 38.894945666666665, "is_disabled": 0, "type": "electric_scooter", "lon": -77.002091, "bike_id": "39330567408fde3c9dd538b44bb31def", "fusion_lat": 0.0, "name": "39330567408fde3c9dd538b44bb31def", "is_reserved": 0, "rental_uris": {"android": "https://dc.lft.to/lastmile_qr_scan", "ios": "https://dc.lft.to/lastmile_qr_scan"}, "fusion_lon": 0.0}, {"lat": 38.899089333333336, "is_disabled": 0, "type": "electric_bike", "lon": -77.03291683333333, "bike_id": "b5e1c23de3ede24e8a9830fb0c53b687", "fusion_lat": 0.0, "name": "b5e1c23de3ede24e8a9830fb0c53b687", "is_reserved": 0, "rental_uris": {"android": "https://dc.lft.to/lastmile_qr_scan", "ios": "https://dc.lft.to/lastmile_qr_scan"}, "fusion_lon": 0.0}, {"lat": 38.886611, "is_disabled": 0, "type": "electric_scooter", "lon": -77.01370633333333, "bike_id": "c8451b730d2b98e273cdc1e47e62f8c6", "fusion_lat": 0.0, "name": "c8451b730d2b98e273cdc1e47e62f8c6", "is_reserved": 0, "rental_uris": {"android": "https://dc.lft.to/lastmile_qr_scan", "ios": "https://dc.lft.to/lastmile_qr_scan"}, "fusion_lon": 0.0}, {"lat": 38.91591733333333, "is_disabled": 0, "type": "electric_scooter", "lon": -77.02126833333334, "bike_id": "b12707122dce7656525526690502a9d3", "fusion_lat": 0.0, "name": "b12707122dce7656525526690502a9d3", "is_reserved": 0, "rental_uris": {"android": "https://dc.lft.to/lastmile_qr_scan", "ios": "https://dc.lft.to/lastmile_qr_scan"}, "fusion_lon": 0.0}, {"lat": 38.91710966666667, "is_disabled": 0, "type": "electric_scooter", "lon": -77.02416183333334, "bike_id": "7ce0ec2239772e77b91d941e933c43c5", "fusion_lat": 0.0, "name": "7ce0ec2239772e77b91d941e933c43c5", "is_reserved": 0, "rental_uris": {"android": "https://dc.lft.to/lastmile_qr_scan", "ios": "https://dc.lft.to/lastmile_qr_scan"}, "fusion_lon": 0.0}, {"lat": 38.84428333333334, "is_disabled": 0, "type": "electric_scooter", "lon": -76.99779883333333, "bike_id": "627686cc66adc8076b2cd4f335999ea0", "fusion_lat": 0.0, "name": "627686cc66adc8076b2cd4f335999ea0", "is_reserved": 0, "rental_uris": {"android": "https://dc.lft.to/lastmile_qr_scan", "ios": "https://dc.lft.to/lastmile_qr_scan"}, "fusion_lon": 0.0}, {"lat": 38.956113, "is_disabled": 0, "type": "electric_scooter", "lon": -77.01017916666666, "bike_id": "ec8e159e573a95a67a9e0b56f51ef156", "fusion_lat": 0.0, "name": "ec8e159e573a95a67a9e0b56f51ef156", "is_reserved": 0, "rental_uris": {"android": "https://dc.lft.to/lastmile_qr_scan", "ios": "https://dc.lft.to/lastmile_qr_scan"}, "fusion_lon": 0.0}, {"lat": 38.9177675, "is_disabled": 0, "type": "electric_scooter", "lon": -77.03212083333334, "bike_id": "caaabf8844b44309fbee6c6205912c6c", "fusion_lat": 0.0, "name": "caaabf8844b44309fbee6c6205912c6c", "is_reserved": 0, "rental_uris": {"android": "https://dc.lft.to/lastmile_qr_scan", "ios": "https://dc.lft.to/lastmile_qr_scan"}, "fusion_lon": 0.0}, {"lat": 38.86622166666667, "is_disabled": 0, "type": "electric_scooter", "lon": -76.986436, "bike_id": "968a95c6234340a64007f00df702fdf4", "fusion_lat": 0.0, "name": "968a95c6234340a64007f00df702fdf4", "is_reserved": 0, "rental_uris": {"android": "https://dc.lft.to/lastmile_qr_scan", "ios": "https://dc.lft.to/lastmile_qr_scan"}, "fusion_lon": 0.0}, {"lat": 38.933396333333334, "is_disabled": 0, "type": "electric_scooter", "lon": -76.99305433333333, "bike_id": "3a79fbde4db2bcd53973fa425138e2bc", "fusion_lat": 0.0, "name": "3a79fbde4db2bcd53973fa425138e2bc", "is_reserved": 0, "rental_uris": {"android": "https://dc.lft.to/lastmile_qr_scan", "ios": "https://dc.lft.to/lastmile_qr_scan"}, "fusion_lon": 0.0}, {"lat": 38.91291066666667, "is_disabled": 0, "type": "electric_scooter", "lon": -77.03852916666666, "bike_id": "06387fbe6217842531f8e9a717470acd", "fusion_lat": 0.0, "name": "06387fbe6217842531f8e9a717470acd", "is_reserved": 0, "rental_uris": {"android": "https://dc.lft.to/lastmile_qr_scan", "ios": "https://dc.lft.to/lastmile_qr_scan"}, "fusion_lon": 0.0}, {"lat": 38.804968333333335, "is_disabled": 0, "type": "electric_bike", "lon": -77.04129416666666, "bike_id": "dbd13935a6a5a41f6e3eb78886c528a3", "fusion_lat": 0.0, "name": "dbd13935a6a5a41f6e3eb78886c528a3", "is_reserved": 0, "rental_uris": {"android": "https://dc.lft.to/lastmile_qr_scan", "ios": "https://dc.lft.to/lastmile_qr_scan"}, "fusion_lon": 0.0}, {"lat": 38.918396333333334, "is_disabled": 0, "type": "electric_scooter", "lon": -77.02316266666666, "bike_id": "57e8ed6ca234c473214bc4f29afe7554", "fusion_lat": 0.0, "name": "57e8ed6ca234c473214bc4f29afe7554", "is_reserved": 0, "rental_uris": {"android": "https://dc.lft.to/lastmile_qr_scan", "ios": "https://dc.lft.to/lastmile_qr_scan"}, "fusion_lon": 0.0}, {"lat": 38.921211166666666, "is_disabled": 0, "type": "electric_scooter", "lon": -77.0411635, "bike_id": "c728289ba292c04ed00584d4b2a341ec", "fusion_lat": 0.0, "name": "c728289ba292c04ed00584d4b2a341ec", "is_reserved": 0, "rental_uris": {"android": "https://dc.lft.to/lastmile_qr_scan", "ios": "https://dc.lft.to/lastmile_qr_scan"}, "fusion_lon": 0.0}, {"lat": 38.84545133333334, "is_disabled": 0, "type": "electric_bike", "lon": -76.99067883333333, "bike_id": "fa68bc650ceac7b5eb708a13412aa2b2", "fusion_lat": 0.0, "name": "fa68bc650ceac7b5eb708a13412aa2b2", "is_reserved": 0, "rental_uris": {"android": "https://dc.lft.to/lastmile_qr_scan", "ios": "https://dc.lft.to/lastmile_qr_scan"}, "fusion_lon": 0.0}, {"lat": 38.937514666666665, "is_disabled": 0, "type": "electric_scooter", "lon": -77.03452583333333, "bike_id": "a063732254cf0886524264a6d5e64a3f", "fusion_lat": 0.0, "name": "a063732254cf0886524264a6d5e64a3f", "is_reserved": 0, "rental_uris": {"android": "https://dc.lft.to/lastmile_qr_scan", "ios": "https://dc.lft.to/lastmile_qr_scan"}, "fusion_lon": 0.0}, {"lat": 38.8975875, "is_disabled": 0, "type": "electric_scooter", "lon": -77.054961, "bike_id": "9b02a76ee8281bbc49168e02191bf5a8", "fusion_lat": 0.0, "name": "9b02a76ee8281bbc49168e02191bf5a8", "is_reserved": 0, "rental_uris": {"android": "https://dc.lft.to/lastmile_qr_scan", "ios": "https://dc.lft.to/lastmile_qr_scan"}, "fusion_lon": 0.0}, {"lat": 38.913307, "is_disabled": 0, "type": "electric_scooter", "lon": -77.0318465, "bike_id": "19e44bf623b53581dfc9407a4fe79007", "fusion_lat": 0.0, "name": "19e44bf623b53581dfc9407a4fe79007", "is_reserved": 0, "rental_uris": {"android": "https://dc.lft.to/lastmile_qr_scan", "ios": "https://dc.lft.to/lastmile_qr_scan"}, "fusion_lon": 0.0}, {"lat": 38.915380166666665, "is_disabled": 0, "type": "electric_scooter", "lon": -77.03201833333334, "bike_id": "302c55d5e50362678857e2b56337b6ab", "fusion_lat": 0.0, "name": "302c55d5e50362678857e2b56337b6ab", "is_reserved": 0, "rental_uris": {"android": "https://dc.lft.to/lastmile_qr_scan", "ios": "https://dc.lft.to/lastmile_qr_scan"}, "fusion_lon": 0.0}, {"lat": 38.99258583333334, "is_disabled": 0, "type": "electric_scooter", "lon": -77.03655666666667, "bike_id": "c026b249cf2fb562d818108dafe2736e", "fusion_lat": 0.0, "name": "c026b249cf2fb562d818108dafe2736e", "is_reserved": 0, "rental_uris": {"android": "https://dc.lft.to/lastmile_qr_scan", "ios": "https://dc.lft.to/lastmile_qr_scan"}, "fusion_lon": 0.0}, {"lat": 38.85717116666667, "is_disabled": 0, "type": "electric_scooter", "lon": -76.98671733333333, "bike_id": "fa40a79b38ae5a5b54c5a800e9d4eba8", "fusion_lat": 0.0, "name": "fa40a79b38ae5a5b54c5a800e9d4eba8", "is_reserved": 0, "rental_uris": {"android": "https://dc.lft.to/lastmile_qr_scan", "ios": "https://dc.lft.to/lastmile_qr_scan"}, "fusion_lon": 0.0}, {"lat": 38.905292333333335, "is_disabled": 0, "type": "electric_scooter", "lon": -77.06185216666667, "bike_id": "b986cbf7c819e0be6d8c46109587e192", "fusion_lat": 0.0, "name": "b986cbf7c819e0be6d8c46109587e192", "is_reserved": 0, "rental_uris": {"android": "https://dc.lft.to/lastmile_qr_scan", "ios": "https://dc.lft.to/lastmile_qr_scan"}, "fusion_lon": 0.0}, {"lat": 38.92592366666667, "is_disabled": 0, "type": "electric_scooter", "lon": -77.044155, "bike_id": "e229effa7525d6cd1243c2d54d77e351", "fusion_lat": 0.0, "name": "e229effa7525d6cd1243c2d54d77e351", "is_reserved": 0, "rental_uris": {"android": "https://dc.lft.to/lastmile_qr_scan", "ios": "https://dc.lft.to/lastmile_qr_scan"}, "fusion_lon": 0.0}, {"lat": 38.9172165, "is_disabled": 0, "type": "electric_scooter", "lon": -77.0230095, "bike_id": "0dd3b47b7248b7302ce82acb317e46c7", "fusion_lat": 0.0, "name": "0dd3b47b7248b7302ce82acb317e46c7", "is_reserved": 0, "rental_uris": {"android": "https://dc.lft.to/lastmile_qr_scan", "ios": "https://dc.lft.to/lastmile_qr_scan"}, "fusion_lon": 0.0}, {"lat": 38.893512666666666, "is_disabled": 0, "type": "electric_scooter", "lon": -77.04141216666666, "bike_id": "6ea26753a44199c7696772979a93d510", "fusion_lat": 0.0, "name": "6ea26753a44199c7696772979a93d510", "is_reserved": 0, "rental_uris": {"android": "https://dc.lft.to/lastmile_qr_scan", "ios": "https://dc.lft.to/lastmile_qr_scan"}, "fusion_lon": 0.0}, {"lat": 38.8906645, "is_disabled": 0, "type": "electric_scooter", "lon": -76.98836316666667, "bike_id": "5e844c71cf61a12fe44e9090240f544c", "fusion_lat": 0.0, "name": "5e844c71cf61a12fe44e9090240f544c", "is_reserved": 0, "rental_uris": {"android": "https://dc.lft.to/lastmile_qr_scan", "ios": "https://dc.lft.to/lastmile_qr_scan"}, "fusion_lon": 0.0}, {"lat": 38.93737516666667, "is_disabled": 0, "type": "electric_scooter", "lon": -77.03617283333334, "bike_id": "b921392375ca4f6dd657693ee98ae286", "fusion_lat": 0.0, "name": "b921392375ca4f6dd657693ee98ae286", "is_reserved": 0, "rental_uris": {"android": "https://dc.lft.to/lastmile_qr_scan", "ios": "https://dc.lft.to/lastmile_qr_scan"}, "fusion_lon": 0.0}, {"lat": 38.85189533333333, "is_disabled": 0, "type": "electric_scooter", "lon": -76.97622233333334, "bike_id": "0dc6c2ba7259dad855f5ef9f8c2829f1", "fusion_lat": 0.0, "name": "0dc6c2ba7259dad855f5ef9f8c2829f1", "is_reserved": 0, "rental_uris": {"android": "https://dc.lft.to/lastmile_qr_scan", "ios": "https://dc.lft.to/lastmile_qr_scan"}, "fusion_lon": 0.0}, {"lat": 38.84432266666666, "is_disabled": 0, "type": "electric_scooter", "lon": -76.99658183333334, "bike_id": "6aa6abe374c2d957ec2241c58800602a", "fusion_lat": 0.0, "name": "6aa6abe374c2d957ec2241c58800602a", "is_reserved": 0, "rental_uris": {"android": "https://dc.lft.to/lastmile_qr_scan", "ios": "https://dc.lft.to/lastmile_qr_scan"}, "fusion_lon": 0.0}, {"lat": 38.9455715, "is_disabled": 0, "type": "electric_bike", "lon": -76.89539016666667, "bike_id": "25c1d8c024ab2514e9aab51d24569fd5", "fusion_lat": 0.0, "name": "25c1d8c024ab2514e9aab51d24569fd5", "is_reserved": 0, "rental_uris": {"android": "https://dc.lft.to/lastmile_qr_scan", "ios": "https://dc.lft.to/lastmile_qr_scan"}, "fusion_lon": 0.0}, {"lat": 38.90535416666667, "is_disabled": 0, "type": "electric_scooter", "lon": -77.05714, "bike_id": "9c173aeb34312638e5e95688274bbeed", "fusion_lat": 0.0, "name": "9c173aeb34312638e5e95688274bbeed", "is_reserved": 0, "rental_uris": {"android": "https://dc.lft.to/lastmile_qr_scan", "ios": "https://dc.lft.to/lastmile_qr_scan"}, "fusion_lon": 0.0}, {"lat": 38.93656683333333, "is_disabled": 0, "type": "electric_bike", "lon": -76.95218783333334, "bike_id": "50e98142ae3e97fcc34bcdfa6d303e75", "fusion_lat": 0.0, "name": "50e98142ae3e97fcc34bcdfa6d303e75", "is_reserved": 0, "rental_uris": {"android": "https://dc.lft.to/lastmile_qr_scan", "ios": "https://dc.lft.to/lastmile_qr_scan"}, "fusion_lon": 0.0}, {"lat": 38.90119133333334, "is_disabled": 0, "type": "electric_scooter", "lon": -77.04366466666667, "bike_id": "cceb0a89050b769bf1a7e444c5514a25", "fusion_lat": 0.0, "name": "cceb0a89050b769bf1a7e444c5514a25", "is_reserved": 0, "rental_uris": {"android": "https://dc.lft.to/lastmile_qr_scan", "ios": "https://dc.lft.to/lastmile_qr_scan"}, "fusion_lon": 0.0}, {"lat": 39.03427033333333, "is_disabled": 0, "type": "electric_bike", "lon": -77.04310983333333, "bike_id": "693072bd129536107ad1d059e7d44ef1", "fusion_lat": 0.0, "name": "693072bd129536107ad1d059e7d44ef1", "is_reserved": 0, "rental_uris": {"android": "https://dc.lft.to/lastmile_qr_scan", "ios": "https://dc.lft.to/lastmile_qr_scan"}, "fusion_lon": 0.0}, {"lat": 38.91118933333333, "is_disabled": 0, "type": "electric_scooter", "lon": -77.04357016666667, "bike_id": "f69b0947fb83ab51882a8d91f0dc1eab", "fusion_lat": 0.0, "name": "f69b0947fb83ab51882a8d91f0dc1eab", "is_reserved": 0, "rental_uris": {"android": "https://dc.lft.to/lastmile_qr_scan", "ios": "https://dc.lft.to/lastmile_qr_scan"}, "fusion_lon": 0.0}, {"lat": 38.900509166666666, "is_disabled": 0, "type": "electric_scooter", "lon": -77.04898033333333, "bike_id": "71a255bcef496044abef22661c6be7c8", "fusion_lat": 0.0, "name": "71a255bcef496044abef22661c6be7c8", "is_reserved": 0, "rental_uris": {"android": "https://dc.lft.to/lastmile_qr_scan", "ios": "https://dc.lft.to/lastmile_qr_scan"}, "fusion_lon": 0.0}, {"lat": 38.913540833333336, "is_disabled": 0, "type": "electric_scooter", "lon": -77.03360366666666, "bike_id": "fb21ab3ada37e39a89561ffcd0d8e30d", "fusion_lat": 0.0, "name": "fb21ab3ada37e39a89561ffcd0d8e30d", "is_reserved": 0, "rental_uris": {"android": "https://dc.lft.to/lastmile_qr_scan", "ios": "https://dc.lft.to/lastmile_qr_scan"}, "fusion_lon": 0.0}, {"lat": 38.903614833333336, "is_disabled": 0, "type": "electric_scooter", "lon": -77.05080383333333, "bike_id": "45f08cdbbfde98255c8d0dceedb5a5fa", "fusion_lat": 0.0, "name": "45f08cdbbfde98255c8d0dceedb5a5fa", "is_reserved": 0, "rental_uris": {"android": "https://dc.lft.to/lastmile_qr_scan", "ios": "https://dc.lft.to/lastmile_qr_scan"}, "fusion_lon": 0.0}, {"lat": 38.9127345, "is_disabled": 0, "type": "electric_scooter", "lon": -77.01975316666666, "bike_id": "556a304c11eac1e5047a17f99532bebe", "fusion_lat": 0.0, "name": "556a304c11eac1e5047a17f99532bebe", "is_reserved": 0, "rental_uris": {"android": "https://dc.lft.to/lastmile_qr_scan", "ios": "https://dc.lft.to/lastmile_qr_scan"}, "fusion_lon": 0.0}, {"lat": 38.90229316666667, "is_disabled": 0, "type": "electric_scooter", "lon": -77.058996, "bike_id": "6734fc63e815207858801477087e11bd", "fusion_lat": 0.0, "name": "6734fc63e815207858801477087e11bd", "is_reserved": 0, "rental_uris": {"android": "https://dc.lft.to/lastmile_qr_scan", "ios": "https://dc.lft.to/lastmile_qr_scan"}, "fusion_lon": 0.0}, {"lat": 38.929126833333335, "is_disabled": 0, "type": "electric_scooter", "lon": -77.0376435, "bike_id": "b47fa98d9938fb6d909cf929e579f04e", "fusion_lat": 0.0, "name": "b47fa98d9938fb6d909cf929e579f04e", "is_reserved": 0, "rental_uris": {"android": "https://dc.lft.to/lastmile_qr_scan", "ios": "https://dc.lft.to/lastmile_qr_scan"}, "fusion_lon": 0.0}, {"lat": 38.86508366666666, "is_disabled": 0, "type": "electric_scooter", "lon": -76.99000566666666, "bike_id": "51307ba4763881a9675d141a9c7c0061", "fusion_lat": 0.0, "name": "51307ba4763881a9675d141a9c7c0061", "is_reserved": 0, "rental_uris": {"android": "https://dc.lft.to/lastmile_qr_scan", "ios": "https://dc.lft.to/lastmile_qr_scan"}, "fusion_lon": 0.0}, {"lat": 38.917474166666665, "is_disabled": 0, "type": "electric_scooter", "lon": -77.03596683333333, "bike_id": "43d79c5e6764d582fdb2590aa8394040", "fusion_lat": 0.0, "name": "43d79c5e6764d582fdb2590aa8394040", "is_reserved": 0, "rental_uris": {"android": "https://dc.lft.to/lastmile_qr_scan", "ios": "https://dc.lft.to/lastmile_qr_scan"}, "fusion_lon": 0.0}, {"lat": 38.892186333333335, "is_disabled": 0, "type": "electric_scooter", "lon": -76.93291516666666, "bike_id": "66a17fd8fe78ff41e48caedbe657c5fc", "fusion_lat": 0.0, "name": "66a17fd8fe78ff41e48caedbe657c5fc", "is_reserved": 0, "rental_uris": {"android": "https://dc.lft.to/lastmile_qr_scan", "ios": "https://dc.lft.to/lastmile_qr_scan"}, "fusion_lon": 0.0}, {"lat": 38.900387333333335, "is_disabled": 0, "type": "electric_scooter", "lon": -77.0332945, "bike_id": "b506b2d13572e480984c5d0e4589b1f2", "fusion_lat": 0.0, "name": "b506b2d13572e480984c5d0e4589b1f2", "is_reserved": 0, "rental_uris": {"android": "https://dc.lft.to/lastmile_qr_scan", "ios": "https://dc.lft.to/lastmile_qr_scan"}, "fusion_lon": 0.0}, {"lat": 38.90092666666666, "is_disabled": 0, "type": "electric_scooter", "lon": -77.05605216666666, "bike_id": "8d870ca2b1cbd6792f69f3b12639e2ae", "fusion_lat": 0.0, "name": "8d870ca2b1cbd6792f69f3b12639e2ae", "is_reserved": 0, "rental_uris": {"android": "https://dc.lft.to/lastmile_qr_scan", "ios": "https://dc.lft.to/lastmile_qr_scan"}, "fusion_lon": 0.0}, {"lat": 38.91045583333333, "is_disabled": 0, "type": "electric_scooter", "lon": -77.04249033333333, "bike_id": "50c8b05babdd72815d2561e730f80f21", "fusion_lat": 0.0, "name": "50c8b05babdd72815d2561e730f80f21", "is_reserved": 0, "rental_uris": {"android": "https://dc.lft.to/lastmile_qr_scan", "ios": "https://dc.lft.to/lastmile_qr_scan"}, "fusion_lon": 0.0}, {"lat": 38.892077666666665, "is_disabled": 0, "type": "electric_scooter", "lon": -77.02816616666667, "bike_id": "c9a5aa51d667a734d9076b48890d2744", "fusion_lat": 0.0, "name": "c9a5aa51d667a734d9076b48890d2744", "is_reserved": 0, "rental_uris": {"android": "https://dc.lft.to/lastmile_qr_scan", "ios": "https://dc.lft.to/lastmile_qr_scan"}, "fusion_lon": 0.0}, {"lat": 38.92070433333333, "is_disabled": 0, "type": "electric_scooter", "lon": -77.02536616666667, "bike_id": "d9098976c5ecc67d2079f7081d32a51e", "fusion_lat": 0.0, "name": "d9098976c5ecc67d2079f7081d32a51e", "is_reserved": 0, "rental_uris": {"android": "https://dc.lft.to/lastmile_qr_scan", "ios": "https://dc.lft.to/lastmile_qr_scan"}, "fusion_lon": 0.0}, {"lat": 38.86650733333333, "is_disabled": 0, "type": "electric_scooter", "lon": -76.98883966666666, "bike_id": "390df182f70955e3459848dc56ac2d5c", "fusion_lat": 0.0, "name": "390df182f70955e3459848dc56ac2d5c", "is_reserved": 0, "rental_uris": {"android": "https://dc.lft.to/lastmile_qr_scan", "ios": "https://dc.lft.to/lastmile_qr_scan"}, "fusion_lon": 0.0}, {"lat": 38.91805883333333, "is_disabled": 0, "type": "electric_scooter", "lon": -77.02491516666667, "bike_id": "c61ba2ba0fb7ebf6cd1994e1cac9c9ae", "fusion_lat": 0.0, "name": "c61ba2ba0fb7ebf6cd1994e1cac9c9ae", "is_reserved": 0, "rental_uris": {"android": "https://dc.lft.to/lastmile_qr_scan", "ios": "https://dc.lft.to/lastmile_qr_scan"}, "fusion_lon": 0.0}, {"lat": 38.956314666666664, "is_disabled": 0, "type": "electric_bike", "lon": -77.0229445, "bike_id": "33d4fcc20679ff78f020c3fcd79f1242", "fusion_lat": 0.0, "name": "33d4fcc20679ff78f020c3fcd79f1242", "is_reserved": 0, "rental_uris": {"android": "https://dc.lft.to/lastmile_qr_scan", "ios": "https://dc.lft.to/lastmile_qr_scan"}, "fusion_lon": 0.0}, {"lat": 38.88496083333333, "is_disabled": 0, "type": "electric_scooter", "lon": -77.00705616666667, "bike_id": "dc3f1b004b2a7fa24442d02dfc6d7c6a", "fusion_lat": 0.0, "name": "dc3f1b004b2a7fa24442d02dfc6d7c6a", "is_reserved": 0, "rental_uris": {"android": "https://dc.lft.to/lastmile_qr_scan", "ios": "https://dc.lft.to/lastmile_qr_scan"}, "fusion_lon": 0.0}, {"lat": 38.91426166666667, "is_disabled": 0, "type": "electric_scooter", "lon": -77.03201733333333, "bike_id": "c727df8ccb241fe60a9c2110f010d49a", "fusion_lat": 0.0, "name": "c727df8ccb241fe60a9c2110f010d49a", "is_reserved": 0, "rental_uris": {"android": "https://dc.lft.to/lastmile_qr_scan", "ios": "https://dc.lft.to/lastmile_qr_scan"}, "fusion_lon": 0.0}, {"lat": 38.94042316666667, "is_disabled": 0, "type": "electric_bike", "lon": -76.98820916666666, "bike_id": "9b7343502671cef609eea192d869aa9f", "fusion_lat": 0.0, "name": "9b7343502671cef609eea192d869aa9f", "is_reserved": 0, "rental_uris": {"android": "https://dc.lft.to/lastmile_qr_scan", "ios": "https://dc.lft.to/lastmile_qr_scan"}, "fusion_lon": 0.0}, {"lat": 38.80054, "is_disabled": 0, "type": "electric_bike", "lon": -77.071236, "bike_id": "6ba5bc427eafec20f2f1b93f9181f08a", "fusion_lat": 0.0, "name": "6ba5bc427eafec20f2f1b93f9181f08a", "is_reserved": 0, "rental_uris": {"android": "https://dc.lft.to/lastmile_qr_scan", "ios": "https://dc.lft.to/lastmile_qr_scan"}, "fusion_lon": 0.0}, {"lat": 38.90848916666667, "is_disabled": 0, "type": "electric_scooter", "lon": -77.02058516666666, "bike_id": "9513434968f76452e59c986bd3fbb284", "fusion_lat": 0.0, "name": "9513434968f76452e59c986bd3fbb284", "is_reserved": 0, "rental_uris": {"android": "https://dc.lft.to/lastmile_qr_scan", "ios": "https://dc.lft.to/lastmile_qr_scan"}, "fusion_lon": 0.0}, {"lat": 38.8427235, "is_disabled": 0, "type": "electric_bike", "lon": -76.98846416666666, "bike_id": "6b031d6dd147f5733e15a225312b0ab7", "fusion_lat": 0.0, "name": "6b031d6dd147f5733e15a225312b0ab7", "is_reserved": 0, "rental_uris": {"android": "https://dc.lft.to/lastmile_qr_scan", "ios": "https://dc.lft.to/lastmile_qr_scan"}, "fusion_lon": 0.0}, {"lat": 38.856775166666665, "is_disabled": 0, "type": "electric_scooter", "lon": -76.9818735, "bike_id": "c3b99915f9bf3e25c2d2a29a573187fa", "fusion_lat": 0.0, "name": "c3b99915f9bf3e25c2d2a29a573187fa", "is_reserved": 0, "rental_uris": {"android": "https://dc.lft.to/lastmile_qr_scan", "ios": "https://dc.lft.to/lastmile_qr_scan"}, "fusion_lon": 0.0}, {"lat": 38.89549266666667, "is_disabled": 0, "type": "electric_scooter", "lon": -77.00438333333334, "bike_id": "6d94a0b5ee4ad85d1824514d3b13e787", "fusion_lat": 0.0, "name": "6d94a0b5ee4ad85d1824514d3b13e787", "is_reserved": 0, "rental_uris": {"android": "https://dc.lft.to/lastmile_qr_scan", "ios": "https://dc.lft.to/lastmile_qr_scan"}, "fusion_lon": 0.0}, {"lat": 38.837284333333336, "is_disabled": 0, "type": "electric_bike", "lon": -76.9976785, "bike_id": "171d3ced38aa4b34d3e507ece03cbf71", "fusion_lat": 0.0, "name": "171d3ced38aa4b34d3e507ece03cbf71", "is_reserved": 0, "rental_uris": {"android": "https://dc.lft.to/lastmile_qr_scan", "ios": "https://dc.lft.to/lastmile_qr_scan"}, "fusion_lon": 0.0}, {"lat": 38.934122333333335, "is_disabled": 0, "type": "electric_scooter", "lon": -77.0245885, "bike_id": "922a34af71c390963fd27bbfd8e25b79", "fusion_lat": 0.0, "name": "922a34af71c390963fd27bbfd8e25b79", "is_reserved": 0, "rental_uris": {"android": "https://dc.lft.to/lastmile_qr_scan", "ios": "https://dc.lft.to/lastmile_qr_scan"}, "fusion_lon": 0.0}, {"lat": 38.936022333333334, "is_disabled": 0, "type": "electric_scooter", "lon": -77.0252985, "bike_id": "ff3439700d6ed0ad6f9bc109d7fd1fde", "fusion_lat": 0.0, "name": "ff3439700d6ed0ad6f9bc109d7fd1fde", "is_reserved": 0, "rental_uris": {"android": "https://dc.lft.to/lastmile_qr_scan", "ios": "https://dc.lft.to/lastmile_qr_scan"}, "fusion_lon": 0.0}, {"lat": 38.909849, "is_disabled": 0, "type": "electric_scooter", "lon": -77.03180333333333, "bike_id": "eaedc372f0ac0389aec6b7536beac196", "fusion_lat": 0.0, "name": "eaedc372f0ac0389aec6b7536beac196", "is_reserved": 0, "rental_uris": {"android": "https://dc.lft.to/lastmile_qr_scan", "ios": "https://dc.lft.to/lastmile_qr_scan"}, "fusion_lon": 0.0}, {"lat": 38.8811005, "is_disabled": 0, "type": "electric_scooter", "lon": -77.0263645, "bike_id": "ea93151ff369489d3b0229e767b8f3ff", "fusion_lat": 0.0, "name": "ea93151ff369489d3b0229e767b8f3ff", "is_reserved": 0, "rental_uris": {"android": "https://dc.lft.to/lastmile_qr_scan", "ios": "https://dc.lft.to/lastmile_qr_scan"}, "fusion_lon": 0.0}, {"lat": 38.92032283333333, "is_disabled": 0, "type": "electric_scooter", "lon": -76.99338483333334, "bike_id": "89039d7dc18663d8b2d5c198338484e2", "fusion_lat": 0.0, "name": "89039d7dc18663d8b2d5c198338484e2", "is_reserved": 0, "rental_uris": {"android": "https://dc.lft.to/lastmile_qr_scan", "ios": "https://dc.lft.to/lastmile_qr_scan"}, "fusion_lon": 0.0}, {"lat": 38.86509316666667, "is_disabled": 0, "type": "electric_scooter", "lon": -76.99006766666666, "bike_id": "3bb2d0470c38d5ac643cb0312f2de775", "fusion_lat": 0.0, "name": "3bb2d0470c38d5ac643cb0312f2de775", "is_reserved": 0, "rental_uris": {"android": "https://dc.lft.to/lastmile_qr_scan", "ios": "https://dc.lft.to/lastmile_qr_scan"}, "fusion_lon": 0.0}, {"lat": 38.9165555, "is_disabled": 0, "type": "electric_scooter", "lon": -77.04714983333334, "bike_id": "abdc690fefc4d9a0187b45623031b4e9", "fusion_lat": 0.0, "name": "abdc690fefc4d9a0187b45623031b4e9", "is_reserved": 0, "rental_uris": {"android": "https://dc.lft.to/lastmile_qr_scan", "ios": "https://dc.lft.to/lastmile_qr_scan"}, "fusion_lon": 0.0}, {"lat": 38.89340933333333, "is_disabled": 0, "type": "electric_scooter", "lon": -77.01226483333333, "bike_id": "af4e6970ce7d18f856a06fd17d83eaf3", "fusion_lat": 0.0, "name": "af4e6970ce7d18f856a06fd17d83eaf3", "is_reserved": 0, "rental_uris": {"android": "https://dc.lft.to/lastmile_qr_scan", "ios": "https://dc.lft.to/lastmile_qr_scan"}, "fusion_lon": 0.0}, {"lat": 38.90304166666667, "is_disabled": 0, "type": "electric_scooter", "lon": -77.02877833333334, "bike_id": "b9e35d805aec18317669a81254ef4583", "fusion_lat": 0.0, "name": "b9e35d805aec18317669a81254ef4583", "is_reserved": 0, "rental_uris": {"android": "https://dc.lft.to/lastmile_qr_scan", "ios": "https://dc.lft.to/lastmile_qr_scan"}, "fusion_lon": 0.0}, {"lat": 38.899716, "is_disabled": 0, "type": "electric_scooter", "lon": -77.020732, "bike_id": "047854485a2d9a85d4c5422ec69d2768", "fusion_lat": 0.0, "name": "047854485a2d9a85d4c5422ec69d2768", "is_reserved": 0, "rental_uris": {"android": "https://dc.lft.to/lastmile_qr_scan", "ios": "https://dc.lft.to/lastmile_qr_scan"}, "fusion_lon": 0.0}, {"lat": 38.91176766666667, "is_disabled": 0, "type": "electric_scooter", "lon": -77.03184616666667, "bike_id": "a5625eff716e5a742866f84a4235a681", "fusion_lat": 0.0, "name": "a5625eff716e5a742866f84a4235a681", "is_reserved": 0, "rental_uris": {"android": "https://dc.lft.to/lastmile_qr_scan", "ios": "https://dc.lft.to/lastmile_qr_scan"}, "fusion_lon": 0.0}, {"lat": 38.93114533333333, "is_disabled": 0, "type": "electric_scooter", "lon": -77.0208735, "bike_id": "87017c15992e325d9cef337ef552c282", "fusion_lat": 0.0, "name": "87017c15992e325d9cef337ef552c282", "is_reserved": 0, "rental_uris": {"android": "https://dc.lft.to/lastmile_qr_scan", "ios": "https://dc.lft.to/lastmile_qr_scan"}, "fusion_lon": 0.0}, {"lat": 38.93380716666667, "is_disabled": 0, "type": "electric_scooter", "lon": -77.03247733333333, "bike_id": "450b59a2136287f4934ac67e3778c24a", "fusion_lat": 0.0, "name": "450b59a2136287f4934ac67e3778c24a", "is_reserved": 0, "rental_uris": {"android": "https://dc.lft.to/lastmile_qr_scan", "ios": "https://dc.lft.to/lastmile_qr_scan"}, "fusion_lon": 0.0}, {"lat": 38.913107333333336, "is_disabled": 0, "type": "electric_scooter", "lon": -77.04486233333333, "bike_id": "3aba2fabbe55bfedbefb5a35b04416cc", "fusion_lat": 0.0, "name": "3aba2fabbe55bfedbefb5a35b04416cc", "is_reserved": 0, "rental_uris": {"android": "https://dc.lft.to/lastmile_qr_scan", "ios": "https://dc.lft.to/lastmile_qr_scan"}, "fusion_lon": 0.0}, {"lat": 38.8859235, "is_disabled": 0, "type": "electric_scooter", "lon": -77.022097, "bike_id": "544d47647607b68261ad4a10044a4dbb", "fusion_lat": 0.0, "name": "544d47647607b68261ad4a10044a4dbb", "is_reserved": 0, "rental_uris": {"android": "https://dc.lft.to/lastmile_qr_scan", "ios": "https://dc.lft.to/lastmile_qr_scan"}, "fusion_lon": 0.0}, {"lat": 38.923148166666664, "is_disabled": 0, "type": "electric_scooter", "lon": -77.03642966666666, "bike_id": "2b3834832fc9f8a6adde937ec260f99e", "fusion_lat": 0.0, "name": "2b3834832fc9f8a6adde937ec260f99e", "is_reserved": 0, "rental_uris": {"android": "https://dc.lft.to/lastmile_qr_scan", "ios": "https://dc.lft.to/lastmile_qr_scan"}, "fusion_lon": 0.0}, {"lat": 38.9272985, "is_disabled": 0, "type": "electric_scooter", "lon": -77.02244166666667, "bike_id": "b8335a6f73fa5a6909400a19f6c5533c", "fusion_lat": 0.0, "name": "b8335a6f73fa5a6909400a19f6c5533c", "is_reserved": 0, "rental_uris": {"android": "https://dc.lft.to/lastmile_qr_scan", "ios": "https://dc.lft.to/lastmile_qr_scan"}, "fusion_lon": 0.0}, {"lat": 38.907540833333336, "is_disabled": 0, "type": "electric_scooter", "lon": -77.04502483333333, "bike_id": "384d8c1324d7cf7cbc84e5f6e5b0c47b", "fusion_lat": 0.0, "name": "384d8c1324d7cf7cbc84e5f6e5b0c47b", "is_reserved": 0, "rental_uris": {"android": "https://dc.lft.to/lastmile_qr_scan", "ios": "https://dc.lft.to/lastmile_qr_scan"}, "fusion_lon": 0.0}, {"lat": 38.92687, "is_disabled": 0, "type": "electric_scooter", "lon": -77.014948, "bike_id": "d350835db7affe4c391f67325c034367", "fusion_lat": 0.0, "name": "d350835db7affe4c391f67325c034367", "is_reserved": 0, "rental_uris": {"android": "https://dc.lft.to/lastmile_qr_scan", "ios": "https://dc.lft.to/lastmile_qr_scan"}, "fusion_lon": 0.0}, {"lat": 38.902658333333335, "is_disabled": 0, "type": "electric_scooter", "lon": -77.03633083333334, "bike_id": "89aad764a8f03b997958c9cbaec6a0c9", "fusion_lat": 0.0, "name": "89aad764a8f03b997958c9cbaec6a0c9", "is_reserved": 0, "rental_uris": {"android": "https://dc.lft.to/lastmile_qr_scan", "ios": "https://dc.lft.to/lastmile_qr_scan"}, "fusion_lon": 0.0}, {"lat": 38.902834, "is_disabled": 0, "type": "electric_scooter", "lon": -77.0438405, "bike_id": "29245bc38d604c1fde3a492bb444a750", "fusion_lat": 0.0, "name": "29245bc38d604c1fde3a492bb444a750", "is_reserved": 0, "rental_uris": {"android": "https://dc.lft.to/lastmile_qr_scan", "ios": "https://dc.lft.to/lastmile_qr_scan"}, "fusion_lon": 0.0}, {"lat": 38.89713533333333, "is_disabled": 0, "type": "electric_scooter", "lon": -77.00716316666667, "bike_id": "d5978f5fdd2af853989af8a3d313554a", "fusion_lat": 0.0, "name": "d5978f5fdd2af853989af8a3d313554a", "is_reserved": 0, "rental_uris": {"android": "https://dc.lft.to/lastmile_qr_scan", "ios": "https://dc.lft.to/lastmile_qr_scan"}, "fusion_lon": 0.0}, {"lat": 38.91542333333334, "is_disabled": 0, "type": "electric_scooter", "lon": -77.02200216666667, "bike_id": "0b090aabcded3d787eb1ebb162af9fdc", "fusion_lat": 0.0, "name": "0b090aabcded3d787eb1ebb162af9fdc", "is_reserved": 0, "rental_uris": {"android": "https://dc.lft.to/lastmile_qr_scan", "ios": "https://dc.lft.to/lastmile_qr_scan"}, "fusion_lon": 0.0}, {"lat": 38.90737016666667, "is_disabled": 0, "type": "electric_scooter", "lon": -77.0344925, "bike_id": "38a912d77801f94c33ce72179c18b4f8", "fusion_lat": 0.0, "name": "38a912d77801f94c33ce72179c18b4f8", "is_reserved": 0, "rental_uris": {"android": "https://dc.lft.to/lastmile_qr_scan", "ios": "https://dc.lft.to/lastmile_qr_scan"}, "fusion_lon": 0.0}, {"lat": 38.870666, "is_disabled": 0, "type": "electric_scooter", "lon": -77.00832866666667, "bike_id": "4df58303c33abebcb6e2899a93cb0744", "fusion_lat": 0.0, "name": "4df58303c33abebcb6e2899a93cb0744", "is_reserved": 0, "rental_uris": {"android": "https://dc.lft.to/lastmile_qr_scan", "ios": "https://dc.lft.to/lastmile_qr_scan"}, "fusion_lon": 0.0}, {"lat": 38.91680083333333, "is_disabled": 0, "type": "electric_scooter", "lon": -77.02970266666667, "bike_id": "1f4d7a638f278eac53ea980bbab6ed0e", "fusion_lat": 0.0, "name": "1f4d7a638f278eac53ea980bbab6ed0e", "is_reserved": 0, "rental_uris": {"android": "https://dc.lft.to/lastmile_qr_scan", "ios": "https://dc.lft.to/lastmile_qr_scan"}, "fusion_lon": 0.0}, {"lat": 38.86211766666667, "is_disabled": 0, "type": "electric_bike", "lon": -76.99776816666666, "bike_id": "19124b247a12d5bf38d480cc6a34afd6", "fusion_lat": 0.0, "name": "19124b247a12d5bf38d480cc6a34afd6", "is_reserved": 0, "rental_uris": {"android": "https://dc.lft.to/lastmile_qr_scan", "ios": "https://dc.lft.to/lastmile_qr_scan"}, "fusion_lon": 0.0}, {"lat": 38.86677266666667, "is_disabled": 0, "type": "electric_scooter", "lon": -76.985416, "bike_id": "8c45d27fef907ea23b9a45a9eea21b79", "fusion_lat": 0.0, "name": "8c45d27fef907ea23b9a45a9eea21b79", "is_reserved": 0, "rental_uris": {"android": "https://dc.lft.to/lastmile_qr_scan", "ios": "https://dc.lft.to/lastmile_qr_scan"}, "fusion_lon": 0.0}, {"lat": 38.923366666666666, "is_disabled": 0, "type": "electric_scooter", "lon": -77.04302633333333, "bike_id": "eb974ecfe51e938950c230a23dcd842c", "fusion_lat": 0.0, "name": "eb974ecfe51e938950c230a23dcd842c", "is_reserved": 0, "rental_uris": {"android": "https://dc.lft.to/lastmile_qr_scan", "ios": "https://dc.lft.to/lastmile_qr_scan"}, "fusion_lon": 0.0}, {"lat": 38.912562666666666, "is_disabled": 0, "type": "electric_scooter", "lon": -77.02208766666666, "bike_id": "9d95eddd899f3647ad9c560ac7c67956", "fusion_lat": 0.0, "name": "9d95eddd899f3647ad9c560ac7c67956", "is_reserved": 0, "rental_uris": {"android": "https://dc.lft.to/lastmile_qr_scan", "ios": "https://dc.lft.to/lastmile_qr_scan"}, "fusion_lon": 0.0}, {"lat": 38.91327016666666, "is_disabled": 0, "type": "electric_scooter", "lon": -77.031874, "bike_id": "f0d646c3918783a66c86fa75154ba187", "fusion_lat": 0.0, "name": "f0d646c3918783a66c86fa75154ba187", "is_reserved": 0, "rental_uris": {"android": "https://dc.lft.to/lastmile_qr_scan", "ios": "https://dc.lft.to/lastmile_qr_scan"}, "fusion_lon": 0.0}, {"lat": 38.91815866666666, "is_disabled": 0, "type": "electric_scooter", "lon": -77.01386083333334, "bike_id": "1e7f02064c200ba5238abe5972b5ccad", "fusion_lat": 0.0, "name": "1e7f02064c200ba5238abe5972b5ccad", "is_reserved": 0, "rental_uris": {"android": "https://dc.lft.to/lastmile_qr_scan", "ios": "https://dc.lft.to/lastmile_qr_scan"}, "fusion_lon": 0.0}, {"lat": 38.892262, "is_disabled": 0, "type": "electric_bike", "lon": -77.03441583333333, "bike_id": "e04e6f72b2cccf1aa1d2ccf5ab20b907", "fusion_lat": 0.0, "name": "e04e6f72b2cccf1aa1d2ccf5ab20b907", "is_reserved": 0, "rental_uris": {"android": "https://dc.lft.to/lastmile_qr_scan", "ios": "https://dc.lft.to/lastmile_qr_scan"}, "fusion_lon": 0.0}, {"lat": 38.90646566666667, "is_disabled": 0, "type": "electric_scooter", "lon": -77.03390233333333, "bike_id": "bad00475615d39439ee3cd1293fc24e3", "fusion_lat": 0.0, "name": "bad00475615d39439ee3cd1293fc24e3", "is_reserved": 0, "rental_uris": {"android": "https://dc.lft.to/lastmile_qr_scan", "ios": "https://dc.lft.to/lastmile_qr_scan"}, "fusion_lon": 0.0}, {"lat": 38.904184666666666, "is_disabled": 0, "type": "electric_scooter", "lon": -77.06888983333333, "bike_id": "5bad970e52439fcb410ab64ed1179658", "fusion_lat": 0.0, "name": "5bad970e52439fcb410ab64ed1179658", "is_reserved": 0, "rental_uris": {"android": "https://dc.lft.to/lastmile_qr_scan", "ios": "https://dc.lft.to/lastmile_qr_scan"}, "fusion_lon": 0.0}, {"lat": 38.9128725, "is_disabled": 0, "type": "electric_scooter", "lon": -77.02383533333334, "bike_id": "c8b9d6c9f4c8cbdb1b48563cd0332280", "fusion_lat": 0.0, "name": "c8b9d6c9f4c8cbdb1b48563cd0332280", "is_reserved": 0, "rental_uris": {"android": "https://dc.lft.to/lastmile_qr_scan", "ios": "https://dc.lft.to/lastmile_qr_scan"}, "fusion_lon": 0.0}, {"lat": 38.887375, "is_disabled": 0, "type": "electric_scooter", "lon": -77.01527516666667, "bike_id": "a6e239738d01c2ba930c84c9769ac16f", "fusion_lat": 0.0, "name": "a6e239738d01c2ba930c84c9769ac16f", "is_reserved": 0, "rental_uris": {"android": "https://dc.lft.to/lastmile_qr_scan", "ios": "https://dc.lft.to/lastmile_qr_scan"}, "fusion_lon": 0.0}, {"lat": 38.91139666666667, "is_disabled": 0, "type": "electric_scooter", "lon": -77.02690183333333, "bike_id": "fab56df7cb66fd30b4265cbbc3cbb40f", "fusion_lat": 0.0, "name": "fab56df7cb66fd30b4265cbbc3cbb40f", "is_reserved": 0, "rental_uris": {"android": "https://dc.lft.to/lastmile_qr_scan", "ios": "https://dc.lft.to/lastmile_qr_scan"}, "fusion_lon": 0.0}, {"lat": 38.886568, "is_disabled": 0, "type": "electric_bike", "lon": -77.16230566666667, "bike_id": "ac218d1817cd0dd7a456161d88eefe66", "fusion_lat": 0.0, "name": "ac218d1817cd0dd7a456161d88eefe66", "is_reserved": 0, "rental_uris": {"android": "https://dc.lft.to/lastmile_qr_scan", "ios": "https://dc.lft.to/lastmile_qr_scan"}, "fusion_lon": 0.0}, {"lat": 38.91541816666667, "is_disabled": 0, "type": "electric_scooter", "lon": -77.03799133333334, "bike_id": "f4e012333419eb3592cdf15eb5dfe61e", "fusion_lat": 0.0, "name": "f4e012333419eb3592cdf15eb5dfe61e", "is_reserved": 0, "rental_uris": {"android": "https://dc.lft.to/lastmile_qr_scan", "ios": "https://dc.lft.to/lastmile_qr_scan"}, "fusion_lon": 0.0}, {"lat": 38.92408016666667, "is_disabled": 0, "type": "electric_scooter", "lon": -77.03534016666667, "bike_id": "8902aae4ddf4e3456155f46841acd0ac", "fusion_lat": 0.0, "name": "8902aae4ddf4e3456155f46841acd0ac", "is_reserved": 0, "rental_uris": {"android": "https://dc.lft.to/lastmile_qr_scan", "ios": "https://dc.lft.to/lastmile_qr_scan"}, "fusion_lon": 0.0}, {"lat": 38.93884333333333, "is_disabled": 0, "type": "electric_scooter", "lon": -77.03282233333333, "bike_id": "d8c7f5c9bc357a92c9590ab84f973501", "fusion_lat": 0.0, "name": "d8c7f5c9bc357a92c9590ab84f973501", "is_reserved": 0, "rental_uris": {"android": "https://dc.lft.to/lastmile_qr_scan", "ios": "https://dc.lft.to/lastmile_qr_scan"}, "fusion_lon": 0.0}, {"lat": 38.90105483333333, "is_disabled": 0, "type": "electric_scooter", "lon": -76.99549733333333, "bike_id": "09f8c177f82ee305aee8a7105efc4291", "fusion_lat": 0.0, "name": "09f8c177f82ee305aee8a7105efc4291", "is_reserved": 0, "rental_uris": {"android": "https://dc.lft.to/lastmile_qr_scan", "ios": "https://dc.lft.to/lastmile_qr_scan"}, "fusion_lon": 0.0}, {"lat": 38.900533833333334, "is_disabled": 0, "type": "electric_scooter", "lon": -77.00200966666667, "bike_id": "048bb95be3d51a026a63878586d34a39", "fusion_lat": 0.0, "name": "048bb95be3d51a026a63878586d34a39", "is_reserved": 0, "rental_uris": {"android": "https://dc.lft.to/lastmile_qr_scan", "ios": "https://dc.lft.to/lastmile_qr_scan"}, "fusion_lon": 0.0}, {"lat": 38.90452066666667, "is_disabled": 0, "type": "electric_scooter", "lon": -76.99456716666667, "bike_id": "273a7b5a944e8da983d21517d3a4720e", "fusion_lat": 0.0, "name": "273a7b5a944e8da983d21517d3a4720e", "is_reserved": 0, "rental_uris": {"android": "https://dc.lft.to/lastmile_qr_scan", "ios": "https://dc.lft.to/lastmile_qr_scan"}, "fusion_lon": 0.0}, {"lat": 38.905310666666665, "is_disabled": 0, "type": "electric_scooter", "lon": -77.0314695, "bike_id": "1c657a54c9e27726e59019ea5a8b91ef", "fusion_lat": 0.0, "name": "1c657a54c9e27726e59019ea5a8b91ef", "is_reserved": 0, "rental_uris": {"android": "https://dc.lft.to/lastmile_qr_scan", "ios": "https://dc.lft.to/lastmile_qr_scan"}, "fusion_lon": 0.0}, {"lat": 38.917619, "is_disabled": 0, "type": "electric_scooter", "lon": -77.02199583333334, "bike_id": "69f95f8c4c49deba1408fb2acc4b7de6", "fusion_lat": 0.0, "name": "69f95f8c4c49deba1408fb2acc4b7de6", "is_reserved": 0, "rental_uris": {"android": "https://dc.lft.to/lastmile_qr_scan", "ios": "https://dc.lft.to/lastmile_qr_scan"}, "fusion_lon": 0.0}, {"lat": 38.917208333333335, "is_disabled": 0, "type": "electric_scooter", "lon": -77.02298183333333, "bike_id": "bdafe40d448b37ea429b2e8bd4a2089a", "fusion_lat": 0.0, "name": "bdafe40d448b37ea429b2e8bd4a2089a", "is_reserved": 0, "rental_uris": {"android": "https://dc.lft.to/lastmile_qr_scan", "ios": "https://dc.lft.to/lastmile_qr_scan"}, "fusion_lon": 0.0}, {"lat": 38.916027, "is_disabled": 0, "type": "electric_scooter", "lon": -77.03846466666667, "bike_id": "ab1f7518198931226ade578e7be98aba", "fusion_lat": 0.0, "name": "ab1f7518198931226ade578e7be98aba", "is_reserved": 0, "rental_uris": {"android": "https://dc.lft.to/lastmile_qr_scan", "ios": "https://dc.lft.to/lastmile_qr_scan"}, "fusion_lon": 0.0}, {"lat": 38.90387583333333, "is_disabled": 0, "type": "electric_scooter", "lon": -77.03206666666667, "bike_id": "1fabf3480bd54d07226309e5b329dbc9", "fusion_lat": 0.0, "name": "1fabf3480bd54d07226309e5b329dbc9", "is_reserved": 0, "rental_uris": {"android": "https://dc.lft.to/lastmile_qr_scan", "ios": "https://dc.lft.to/lastmile_qr_scan"}, "fusion_lon": 0.0}, {"lat": 38.86384566666667, "is_disabled": 0, "type": "electric_scooter", "lon": -76.99251233333334, "bike_id": "ce9efe02d8e8fa521b24f9b5018df182", "fusion_lat": 0.0, "name": "ce9efe02d8e8fa521b24f9b5018df182", "is_reserved": 0, "rental_uris": {"android": "https://dc.lft.to/lastmile_qr_scan", "ios": "https://dc.lft.to/lastmile_qr_scan"}, "fusion_lon": 0.0}, {"lat": 38.94308216666667, "is_disabled": 0, "type": "electric_scooter", "lon": -77.05933033333334, "bike_id": "cedf1fb292238305fea2d49469c32706", "fusion_lat": 0.0, "name": "cedf1fb292238305fea2d49469c32706", "is_reserved": 0, "rental_uris": {"android": "https://dc.lft.to/lastmile_qr_scan", "ios": "https://dc.lft.to/lastmile_qr_scan"}, "fusion_lon": 0.0}, {"lat": 38.978361666666665, "is_disabled": 0, "type": "electric_bike", "lon": -77.02647983333334, "bike_id": "9ad2b7669cf728830422de30258e4ee9", "fusion_lat": 0.0, "name": "9ad2b7669cf728830422de30258e4ee9", "is_reserved": 0, "rental_uris": {"android": "https://dc.lft.to/lastmile_qr_scan", "ios": "https://dc.lft.to/lastmile_qr_scan"}, "fusion_lon": 0.0}, {"lat": 38.9169175, "is_disabled": 0, "type": "electric_scooter", "lon": -77.02596966666667, "bike_id": "204b02b31b3c4b9e789fb72fd5592929", "fusion_lat": 0.0, "name": "204b02b31b3c4b9e789fb72fd5592929", "is_reserved": 0, "rental_uris": {"android": "https://dc.lft.to/lastmile_qr_scan", "ios": "https://dc.lft.to/lastmile_qr_scan"}, "fusion_lon": 0.0}, {"lat": 38.9235795, "is_disabled": 0, "type": "electric_scooter", "lon": -77.04389583333334, "bike_id": "1bc7e895b995e3360085bbc9581b6c2d", "fusion_lat": 0.0, "name": "1bc7e895b995e3360085bbc9581b6c2d", "is_reserved": 0, "rental_uris": {"android": "https://dc.lft.to/lastmile_qr_scan", "ios": "https://dc.lft.to/lastmile_qr_scan"}, "fusion_lon": 0.0}, {"lat": 38.91465683333333, "is_disabled": 0, "type": "electric_scooter", "lon": -77.03850433333334, "bike_id": "e23adfbf4c2a0e0a967c000b76f4ccc8", "fusion_lat": 0.0, "name": "e23adfbf4c2a0e0a967c000b76f4ccc8", "is_reserved": 0, "rental_uris": {"android": "https://dc.lft.to/lastmile_qr_scan", "ios": "https://dc.lft.to/lastmile_qr_scan"}, "fusion_lon": 0.0}, {"lat": 38.854515, "is_disabled": 0, "type": "electric_scooter", "lon": -76.97221316666666, "bike_id": "4e64f3a49643f2268c21465b2a3272b1", "fusion_lat": 0.0, "name": "4e64f3a49643f2268c21465b2a3272b1", "is_reserved": 0, "rental_uris": {"android": "https://dc.lft.to/lastmile_qr_scan", "ios": "https://dc.lft.to/lastmile_qr_scan"}, "fusion_lon": 0.0}, {"lat": 38.909533, "is_disabled": 0, "type": "electric_scooter", "lon": -77.03818116666666, "bike_id": "cd79acfbc83edf28d30e9d2e9619b81d", "fusion_lat": 0.0, "name": "cd79acfbc83edf28d30e9d2e9619b81d", "is_reserved": 0, "rental_uris": {"android": "https://dc.lft.to/lastmile_qr_scan", "ios": "https://dc.lft.to/lastmile_qr_scan"}, "fusion_lon": 0.0}, {"lat": 38.902114833333336, "is_disabled": 0, "type": "electric_scooter", "lon": -77.023172, "bike_id": "b8b47daf62bbd1c1cd898641b6acd357", "fusion_lat": 0.0, "name": "b8b47daf62bbd1c1cd898641b6acd357", "is_reserved": 0, "rental_uris": {"android": "https://dc.lft.to/lastmile_qr_scan", "ios": "https://dc.lft.to/lastmile_qr_scan"}, "fusion_lon": 0.0}, {"lat": 38.90318666666667, "is_disabled": 0, "type": "electric_bike", "lon": -77.062822, "bike_id": "fed30d127457c794aa6c71cda530811c", "fusion_lat": 0.0, "name": "fed30d127457c794aa6c71cda530811c", "is_reserved": 0, "rental_uris": {"android": "https://dc.lft.to/lastmile_qr_scan", "ios": "https://dc.lft.to/lastmile_qr_scan"}, "fusion_lon": 0.0}, {"lat": 38.909664166666666, "is_disabled": 0, "type": "electric_scooter", "lon": -76.99603416666666, "bike_id": "f6f0a09c483b3d1f8b95222dc340cdb2", "fusion_lat": 0.0, "name": "f6f0a09c483b3d1f8b95222dc340cdb2", "is_reserved": 0, "rental_uris": {"android": "https://dc.lft.to/lastmile_qr_scan", "ios": "https://dc.lft.to/lastmile_qr_scan"}, "fusion_lon": 0.0}, {"lat": 38.8928355, "is_disabled": 0, "type": "electric_scooter", "lon": -76.95850816666666, "bike_id": "a16cd0b254422e9456eaeb66bdab6c96", "fusion_lat": 0.0, "name": "a16cd0b254422e9456eaeb66bdab6c96", "is_reserved": 0, "rental_uris": {"android": "https://dc.lft.to/lastmile_qr_scan", "ios": "https://dc.lft.to/lastmile_qr_scan"}, "fusion_lon": 0.0}, {"lat": 38.91709266666667, "is_disabled": 0, "type": "electric_scooter", "lon": -77.03502033333334, "bike_id": "eaf1c8fe700afb2c192ca745c1901425", "fusion_lat": 0.0, "name": "eaf1c8fe700afb2c192ca745c1901425", "is_reserved": 0, "rental_uris": {"android": "https://dc.lft.to/lastmile_qr_scan", "ios": "https://dc.lft.to/lastmile_qr_scan"}, "fusion_lon": 0.0}, {"lat": 38.89995283333333, "is_disabled": 0, "type": "electric_scooter", "lon": -76.999409, "bike_id": "eee531da7e0ecbfd5c4211e47341b8fc", "fusion_lat": 0.0, "name": "eee531da7e0ecbfd5c4211e47341b8fc", "is_reserved": 0, "rental_uris": {"android": "https://dc.lft.to/lastmile_qr_scan", "ios": "https://dc.lft.to/lastmile_qr_scan"}, "fusion_lon": 0.0}, {"lat": 38.929523333333336, "is_disabled": 0, "type": "electric_scooter", "lon": -76.990881, "bike_id": "f452c9961744c463a7458db8d6ebfdad", "fusion_lat": 0.0, "name": "f452c9961744c463a7458db8d6ebfdad", "is_reserved": 0, "rental_uris": {"android": "https://dc.lft.to/lastmile_qr_scan", "ios": "https://dc.lft.to/lastmile_qr_scan"}, "fusion_lon": 0.0}, {"lat": 38.8872015, "is_disabled": 0, "type": "electric_scooter", "lon": -76.99614583333333, "bike_id": "242540e0a08ccd58d1da79ae91c8dd3b", "fusion_lat": 0.0, "name": "242540e0a08ccd58d1da79ae91c8dd3b", "is_reserved": 0, "rental_uris": {"android": "https://dc.lft.to/lastmile_qr_scan", "ios": "https://dc.lft.to/lastmile_qr_scan"}, "fusion_lon": 0.0}, {"lat": 38.91417666666667, "is_disabled": 0, "type": "electric_scooter", "lon": -77.0390345, "bike_id": "60f252feb4aeb87fdf7afb6263af9382", "fusion_lat": 0.0, "name": "60f252feb4aeb87fdf7afb6263af9382", "is_reserved": 0, "rental_uris": {"android": "https://dc.lft.to/lastmile_qr_scan", "ios": "https://dc.lft.to/lastmile_qr_scan"}, "fusion_lon": 0.0}, {"lat": 38.915467166666666, "is_disabled": 0, "type": "electric_scooter", "lon": -77.07417033333333, "bike_id": "6529dd6e95eb210f41b5c8b80b3c42d6", "fusion_lat": 0.0, "name": "6529dd6e95eb210f41b5c8b80b3c42d6", "is_reserved": 0, "rental_uris": {"android": "https://dc.lft.to/lastmile_qr_scan", "ios": "https://dc.lft.to/lastmile_qr_scan"}, "fusion_lon": 0.0}, {"lat": 38.90679933333333, "is_disabled": 0, "type": "electric_scooter", "lon": -77.02706483333333, "bike_id": "12bf004e8ef7d54ff7560276bf4b974f", "fusion_lat": 0.0, "name": "12bf004e8ef7d54ff7560276bf4b974f", "is_reserved": 0, "rental_uris": {"android": "https://dc.lft.to/lastmile_qr_scan", "ios": "https://dc.lft.to/lastmile_qr_scan"}, "fusion_lon": 0.0}, {"lat": 38.8951935, "is_disabled": 0, "type": "electric_scooter", "lon": -76.97733866666667, "bike_id": "fe71c9f522189a4450222c179d6a60df", "fusion_lat": 0.0, "name": "fe71c9f522189a4450222c179d6a60df", "is_reserved": 0, "rental_uris": {"android": "https://dc.lft.to/lastmile_qr_scan", "ios": "https://dc.lft.to/lastmile_qr_scan"}, "fusion_lon": 0.0}, {"lat": 38.853815166666664, "is_disabled": 0, "type": "electric_bike", "lon": -77.12428433333334, "bike_id": "60110f883e04cd20983be93eb7bd03b3", "fusion_lat": 0.0, "name": "60110f883e04cd20983be93eb7bd03b3", "is_reserved": 0, "rental_uris": {"android": "https://dc.lft.to/lastmile_qr_scan", "ios": "https://dc.lft.to/lastmile_qr_scan"}, "fusion_lon": 0.0}, {"lat": 38.911786, "is_disabled": 0, "type": "electric_scooter", "lon": -77.03200783333334, "bike_id": "e285839d2616370ab39ca2b8196322fb", "fusion_lat": 0.0, "name": "e285839d2616370ab39ca2b8196322fb", "is_reserved": 0, "rental_uris": {"android": "https://dc.lft.to/lastmile_qr_scan", "ios": "https://dc.lft.to/lastmile_qr_scan"}, "fusion_lon": 0.0}, {"lat": 38.8321285, "is_disabled": 0, "type": "electric_bike", "lon": -76.946207, "bike_id": "7ddb7b33cd0e8600f3deee764885f0a9", "fusion_lat": 0.0, "name": "7ddb7b33cd0e8600f3deee764885f0a9", "is_reserved": 0, "rental_uris": {"android": "https://dc.lft.to/lastmile_qr_scan", "ios": "https://dc.lft.to/lastmile_qr_scan"}, "fusion_lon": 0.0}, {"lat": 38.906373333333335, "is_disabled": 0, "type": "electric_scooter", "lon": -76.98571233333334, "bike_id": "29b11ed5a7d1f3e376202ef7ba813e62", "fusion_lat": 0.0, "name": "29b11ed5a7d1f3e376202ef7ba813e62", "is_reserved": 0, "rental_uris": {"android": "https://dc.lft.to/lastmile_qr_scan", "ios": "https://dc.lft.to/lastmile_qr_scan"}, "fusion_lon": 0.0}, {"lat": 38.899704666666665, "is_disabled": 0, "type": "electric_scooter", "lon": -77.02114483333334, "bike_id": "c8c9d8d21a1408cf37dd518a7e5495df", "fusion_lat": 0.0, "name": "c8c9d8d21a1408cf37dd518a7e5495df", "is_reserved": 0, "rental_uris": {"android": "https://dc.lft.to/lastmile_qr_scan", "ios": "https://dc.lft.to/lastmile_qr_scan"}, "fusion_lon": 0.0}, {"lat": 38.994698, "is_disabled": 0, "type": "electric_bike", "lon": -77.02904916666667, "bike_id": "75cd0049d279e8b3940aaa751354000c", "fusion_lat": 0.0, "name": "75cd0049d279e8b3940aaa751354000c", "is_reserved": 0, "rental_uris": {"android": "https://dc.lft.to/lastmile_qr_scan", "ios": "https://dc.lft.to/lastmile_qr_scan"}, "fusion_lon": 0.0}, {"lat": 38.900651833333335, "is_disabled": 0, "type": "electric_scooter", "lon": -77.002053, "bike_id": "e703423b05cc47891359c2cbc0b6b128", "fusion_lat": 0.0, "name": "e703423b05cc47891359c2cbc0b6b128", "is_reserved": 0, "rental_uris": {"android": "https://dc.lft.to/lastmile_qr_scan", "ios": "https://dc.lft.to/lastmile_qr_scan"}, "fusion_lon": 0.0}, {"lat": 38.89003233333333, "is_disabled": 0, "type": "electric_scooter", "lon": -77.04899666666667, "bike_id": "15173aa1319277588d3320b9d3259c9c", "fusion_lat": 0.0, "name": "15173aa1319277588d3320b9d3259c9c", "is_reserved": 0, "rental_uris": {"android": "https://dc.lft.to/lastmile_qr_scan", "ios": "https://dc.lft.to/lastmile_qr_scan"}, "fusion_lon": 0.0}, {"lat": 38.899954, "is_disabled": 0, "type": "electric_scooter", "lon": -77.02690533333333, "bike_id": "c33972f6138a098a42f47fdcb24b5c4f", "fusion_lat": 0.0, "name": "c33972f6138a098a42f47fdcb24b5c4f", "is_reserved": 0, "rental_uris": {"android": "https://dc.lft.to/lastmile_qr_scan", "ios": "https://dc.lft.to/lastmile_qr_scan"}, "fusion_lon": 0.0}, {"lat": 38.899871166666664, "is_disabled": 0, "type": "electric_scooter", "lon": -77.05256083333333, "bike_id": "e2fcf2c9aa512a82971d5a6f781d5d3b", "fusion_lat": 0.0, "name": "e2fcf2c9aa512a82971d5a6f781d5d3b", "is_reserved": 0, "rental_uris": {"android": "https://dc.lft.to/lastmile_qr_scan", "ios": "https://dc.lft.to/lastmile_qr_scan"}, "fusion_lon": 0.0}, {"lat": 38.91051483333333, "is_disabled": 0, "type": "electric_scooter", "lon": -77.022001, "bike_id": "097bf7b6c0a86c66e2bafe523d5114c3", "fusion_lat": 0.0, "name": "097bf7b6c0a86c66e2bafe523d5114c3", "is_reserved": 0, "rental_uris": {"android": "https://dc.lft.to/lastmile_qr_scan", "ios": "https://dc.lft.to/lastmile_qr_scan"}, "fusion_lon": 0.0}, {"lat": 38.85513916666667, "is_disabled": 0, "type": "electric_bike", "lon": -76.98428333333334, "bike_id": "f91f417b706308d164acf31f2c368fce", "fusion_lat": 0.0, "name": "f91f417b706308d164acf31f2c368fce", "is_reserved": 0, "rental_uris": {"android": "https://dc.lft.to/lastmile_qr_scan", "ios": "https://dc.lft.to/lastmile_qr_scan"}, "fusion_lon": 0.0}, {"lat": 38.931375833333334, "is_disabled": 0, "type": "electric_scooter", "lon": -77.0325535, "bike_id": "2c4bc19121d9621ca86c37ab739fe820", "fusion_lat": 0.0, "name": "2c4bc19121d9621ca86c37ab739fe820", "is_reserved": 0, "rental_uris": {"android": "https://dc.lft.to/lastmile_qr_scan", "ios": "https://dc.lft.to/lastmile_qr_scan"}, "fusion_lon": 0.0}, {"lat": 38.89760066666667, "is_disabled": 0, "type": "electric_scooter", "lon": -76.941848, "bike_id": "043683199e3651eecefb05687fad7aa7", "fusion_lat": 0.0, "name": "043683199e3651eecefb05687fad7aa7", "is_reserved": 0, "rental_uris": {"android": "https://dc.lft.to/lastmile_qr_scan", "ios": "https://dc.lft.to/lastmile_qr_scan"}, "fusion_lon": 0.0}, {"lat": 38.90336283333333, "is_disabled": 0, "type": "electric_scooter", "lon": -77.06300616666667, "bike_id": "03b4f1611b02674e5fbbc6167e49f79d", "fusion_lat": 0.0, "name": "03b4f1611b02674e5fbbc6167e49f79d", "is_reserved": 0, "rental_uris": {"android": "https://dc.lft.to/lastmile_qr_scan", "ios": "https://dc.lft.to/lastmile_qr_scan"}, "fusion_lon": 0.0}, {"lat": 38.911089, "is_disabled": 0, "type": "electric_scooter", "lon": -77.02012283333333, "bike_id": "dd3ead5e5a0208034839012744b15cd9", "fusion_lat": 0.0, "name": "dd3ead5e5a0208034839012744b15cd9", "is_reserved": 0, "rental_uris": {"android": "https://dc.lft.to/lastmile_qr_scan", "ios": "https://dc.lft.to/lastmile_qr_scan"}, "fusion_lon": 0.0}, {"lat": 38.92229916666667, "is_disabled": 0, "type": "electric_scooter", "lon": -77.04343533333333, "bike_id": "b1bc4fb96793fb9c71545fe9bcb9ae99", "fusion_lat": 0.0, "name": "b1bc4fb96793fb9c71545fe9bcb9ae99", "is_reserved": 0, "rental_uris": {"android": "https://dc.lft.to/lastmile_qr_scan", "ios": "https://dc.lft.to/lastmile_qr_scan"}, "fusion_lon": 0.0}, {"lat": 38.81346766666667, "is_disabled": 0, "type": "electric_bike", "lon": -77.04923183333334, "bike_id": "5e2894c40fb36678bacbc532713c07c8", "fusion_lat": 0.0, "name": "5e2894c40fb36678bacbc532713c07c8", "is_reserved": 0, "rental_uris": {"android": "https://dc.lft.to/lastmile_qr_scan", "ios": "https://dc.lft.to/lastmile_qr_scan"}, "fusion_lon": 0.0}, {"lat": 38.93420966666667, "is_disabled": 0, "type": "electric_scooter", "lon": -77.05551183333333, "bike_id": "a8bf9f5c77f1014c840c72f0e9d55244", "fusion_lat": 0.0, "name": "a8bf9f5c77f1014c840c72f0e9d55244", "is_reserved": 0, "rental_uris": {"android": "https://dc.lft.to/lastmile_qr_scan", "ios": "https://dc.lft.to/lastmile_qr_scan"}, "fusion_lon": 0.0}, {"lat": 38.9148215, "is_disabled": 0, "type": "electric_scooter", "lon": -77.013744, "bike_id": "262ae4d117ff2179272beadfba81ed87", "fusion_lat": 0.0, "name": "262ae4d117ff2179272beadfba81ed87", "is_reserved": 0, "rental_uris": {"android": "https://dc.lft.to/lastmile_qr_scan", "ios": "https://dc.lft.to/lastmile_qr_scan"}, "fusion_lon": 0.0}, {"lat": 38.916981166666666, "is_disabled": 0, "type": "electric_scooter", "lon": -77.03715316666667, "bike_id": "38123b5e6fc3678ecd7f0a34e8f7f5ba", "fusion_lat": 0.0, "name": "38123b5e6fc3678ecd7f0a34e8f7f5ba", "is_reserved": 0, "rental_uris": {"android": "https://dc.lft.to/lastmile_qr_scan", "ios": "https://dc.lft.to/lastmile_qr_scan"}, "fusion_lon": 0.0}, {"lat": 38.911084, "is_disabled": 0, "type": "electric_scooter", "lon": -77.04812683333333, "bike_id": "a0995ad70bb330c377c3741c37f0280e", "fusion_lat": 0.0, "name": "a0995ad70bb330c377c3741c37f0280e", "is_reserved": 0, "rental_uris": {"android": "https://dc.lft.to/lastmile_qr_scan", "ios": "https://dc.lft.to/lastmile_qr_scan"}, "fusion_lon": 0.0}, {"lat": 38.900346666666664, "is_disabled": 0, "type": "electric_scooter", "lon": -77.00202716666666, "bike_id": "8e9ba6d6a98c491c2375ccc696389ce5", "fusion_lat": 0.0, "name": "8e9ba6d6a98c491c2375ccc696389ce5", "is_reserved": 0, "rental_uris": {"android": "https://dc.lft.to/lastmile_qr_scan", "ios": "https://dc.lft.to/lastmile_qr_scan"}, "fusion_lon": 0.0}, {"lat": 38.9095005, "is_disabled": 0, "type": "electric_scooter", "lon": -77.04313216666667, "bike_id": "f768037407d4ff3dffa78ac0860afc75", "fusion_lat": 0.0, "name": "f768037407d4ff3dffa78ac0860afc75", "is_reserved": 0, "rental_uris": {"android": "https://dc.lft.to/lastmile_qr_scan", "ios": "https://dc.lft.to/lastmile_qr_scan"}, "fusion_lon": 0.0}, {"lat": 38.900397, "is_disabled": 0, "type": "electric_scooter", "lon": -76.99899066666667, "bike_id": "8791b0470c6c34f6cf9b8c7ed8156810", "fusion_lat": 0.0, "name": "8791b0470c6c34f6cf9b8c7ed8156810", "is_reserved": 0, "rental_uris": {"android": "https://dc.lft.to/lastmile_qr_scan", "ios": "https://dc.lft.to/lastmile_qr_scan"}, "fusion_lon": 0.0}, {"lat": 38.9130595, "is_disabled": 0, "type": "electric_scooter", "lon": -77.0240405, "bike_id": "f27e4b211123ad23d8bb71be396e0590", "fusion_lat": 0.0, "name": "f27e4b211123ad23d8bb71be396e0590", "is_reserved": 0, "rental_uris": {"android": "https://dc.lft.to/lastmile_qr_scan", "ios": "https://dc.lft.to/lastmile_qr_scan"}, "fusion_lon": 0.0}, {"lat": 38.881458, "is_disabled": 0, "type": "electric_scooter", "lon": -77.02739183333334, "bike_id": "9cdc6e2bd33c850582d02c829a5029e7", "fusion_lat": 0.0, "name": "9cdc6e2bd33c850582d02c829a5029e7", "is_reserved": 0, "rental_uris": {"android": "https://dc.lft.to/lastmile_qr_scan", "ios": "https://dc.lft.to/lastmile_qr_scan"}, "fusion_lon": 0.0}, {"lat": 38.907407, "is_disabled": 0, "type": "electric_scooter", "lon": -77.0345475, "bike_id": "edd458f7c03ea4f538c9b6e169f319d2", "fusion_lat": 0.0, "name": "edd458f7c03ea4f538c9b6e169f319d2", "is_reserved": 0, "rental_uris": {"android": "https://dc.lft.to/lastmile_qr_scan", "ios": "https://dc.lft.to/lastmile_qr_scan"}, "fusion_lon": 0.0}, {"lat": 38.903580833333336, "is_disabled": 0, "type": "electric_scooter", "lon": -77.04473333333334, "bike_id": "93af9659ca0bef363546a62717b77eba", "fusion_lat": 0.0, "name": "93af9659ca0bef363546a62717b77eba", "is_reserved": 0, "rental_uris": {"android": "https://dc.lft.to/lastmile_qr_scan", "ios": "https://dc.lft.to/lastmile_qr_scan"}, "fusion_lon": 0.0}, {"lat": 38.902489833333334, "is_disabled": 0, "type": "electric_scooter", "lon": -77.03956366666667, "bike_id": "8197206c1368ad1d8e576393468c62ef", "fusion_lat": 0.0, "name": "8197206c1368ad1d8e576393468c62ef", "is_reserved": 0, "rental_uris": {"android": "https://dc.lft.to/lastmile_qr_scan", "ios": "https://dc.lft.to/lastmile_qr_scan"}, "fusion_lon": 0.0}, {"lat": 38.91122, "is_disabled": 0, "type": "electric_scooter", "lon": -77.03205283333334, "bike_id": "7b9d026e52e03155b772da604e54007e", "fusion_lat": 0.0, "name": "7b9d026e52e03155b772da604e54007e", "is_reserved": 0, "rental_uris": {"android": "https://dc.lft.to/lastmile_qr_scan", "ios": "https://dc.lft.to/lastmile_qr_scan"}, "fusion_lon": 0.0}, {"lat": 38.9335865, "is_disabled": 0, "type": "electric_bike", "lon": -77.099638, "bike_id": "23ed9807d9fb4a656f5d80adb147f2f6", "fusion_lat": 0.0, "name": "23ed9807d9fb4a656f5d80adb147f2f6", "is_reserved": 0, "rental_uris": {"android": "https://dc.lft.to/lastmile_qr_scan", "ios": "https://dc.lft.to/lastmile_qr_scan"}, "fusion_lon": 0.0}, {"lat": 38.9516645, "is_disabled": 0, "type": "electric_bike", "lon": -76.96896116666667, "bike_id": "896a599964a8ff6ae4d1a505431c60d6", "fusion_lat": 0.0, "name": "896a599964a8ff6ae4d1a505431c60d6", "is_reserved": 0, "rental_uris": {"android": "https://dc.lft.to/lastmile_qr_scan", "ios": "https://dc.lft.to/lastmile_qr_scan"}, "fusion_lon": 0.0}, {"lat": 38.928535333333336, "is_disabled": 0, "type": "electric_scooter", "lon": -77.01381633333334, "bike_id": "2936e452c2347c880d0493560833d82a", "fusion_lat": 0.0, "name": "2936e452c2347c880d0493560833d82a", "is_reserved": 0, "rental_uris": {"android": "https://dc.lft.to/lastmile_qr_scan", "ios": "https://dc.lft.to/lastmile_qr_scan"}, "fusion_lon": 0.0}, {"lat": 38.91872433333333, "is_disabled": 0, "type": "electric_scooter", "lon": -77.01208483333333, "bike_id": "3e0b11e4ef3c01edc73d9d977abeb861", "fusion_lat": 0.0, "name": "3e0b11e4ef3c01edc73d9d977abeb861", "is_reserved": 0, "rental_uris": {"android": "https://dc.lft.to/lastmile_qr_scan", "ios": "https://dc.lft.to/lastmile_qr_scan"}, "fusion_lon": 0.0}, {"lat": 38.9007375, "is_disabled": 0, "type": "electric_scooter", "lon": -77.00201283333334, "bike_id": "4f8acb94e51505ab7ba5319e8c2fc389", "fusion_lat": 0.0, "name": "4f8acb94e51505ab7ba5319e8c2fc389", "is_reserved": 0, "rental_uris": {"android": "https://dc.lft.to/lastmile_qr_scan", "ios": "https://dc.lft.to/lastmile_qr_scan"}, "fusion_lon": 0.0}, {"lat": 38.91932, "is_disabled": 0, "type": "electric_scooter", "lon": -77.02300266666667, "bike_id": "05cbd61f4a43c9007d0b52945f377e12", "fusion_lat": 0.0, "name": "05cbd61f4a43c9007d0b52945f377e12", "is_reserved": 0, "rental_uris": {"android": "https://dc.lft.to/lastmile_qr_scan", "ios": "https://dc.lft.to/lastmile_qr_scan"}, "fusion_lon": 0.0}, {"lat": 38.90444133333333, "is_disabled": 0, "type": "electric_scooter", "lon": -77.034533, "bike_id": "c1f6b45430c45fbb6531f600bbf9ef49", "fusion_lat": 0.0, "name": "c1f6b45430c45fbb6531f600bbf9ef49", "is_reserved": 0, "rental_uris": {"android": "https://dc.lft.to/lastmile_qr_scan", "ios": "https://dc.lft.to/lastmile_qr_scan"}, "fusion_lon": 0.0}, {"lat": 38.9034625, "is_disabled": 0, "type": "electric_scooter", "lon": -77.05323166666666, "bike_id": "440209f280070093dc66f16c004e07a6", "fusion_lat": 0.0, "name": "440209f280070093dc66f16c004e07a6", "is_reserved": 0, "rental_uris": {"android": "https://dc.lft.to/lastmile_qr_scan", "ios": "https://dc.lft.to/lastmile_qr_scan"}, "fusion_lon": 0.0}, {"lat": 38.890495333333334, "is_disabled": 0, "type": "electric_scooter", "lon": -76.937603, "bike_id": "51a171bb78fcd3f34f7a97303fbb0ffb", "fusion_lat": 0.0, "name": "51a171bb78fcd3f34f7a97303fbb0ffb", "is_reserved": 0, "rental_uris": {"android": "https://dc.lft.to/lastmile_qr_scan", "ios": "https://dc.lft.to/lastmile_qr_scan"}, "fusion_lon": 0.0}, {"lat": 38.8973975, "is_disabled": 0, "type": "electric_scooter", "lon": -77.047558, "bike_id": "adcd1f19bc55c5fdd5ce6ea1f2a8b2b9", "fusion_lat": 0.0, "name": "adcd1f19bc55c5fdd5ce6ea1f2a8b2b9", "is_reserved": 0, "rental_uris": {"android": "https://dc.lft.to/lastmile_qr_scan", "ios": "https://dc.lft.to/lastmile_qr_scan"}, "fusion_lon": 0.0}, {"lat": 38.850347, "is_disabled": 0, "type": "electric_bike", "lon": -76.97293666666667, "bike_id": "86e277c8f4761b8004b1e2a42b976b5f", "fusion_lat": 0.0, "name": "86e277c8f4761b8004b1e2a42b976b5f", "is_reserved": 0, "rental_uris": {"android": "https://dc.lft.to/lastmile_qr_scan", "ios": "https://dc.lft.to/lastmile_qr_scan"}, "fusion_lon": 0.0}, {"lat": 38.902572, "is_disabled": 0, "type": "electric_scooter", "lon": -77.052637, "bike_id": "585e97b83ecba6f1fb355de1bda1a290", "fusion_lat": 0.0, "name": "585e97b83ecba6f1fb355de1bda1a290", "is_reserved": 0, "rental_uris": {"android": "https://dc.lft.to/lastmile_qr_scan", "ios": "https://dc.lft.to/lastmile_qr_scan"}, "fusion_lon": 0.0}, {"lat": 38.89717133333333, "is_disabled": 0, "type": "electric_scooter", "lon": -77.00795066666667, "bike_id": "c5d33ddc7a99c0da0412f9f04967b369", "fusion_lat": 0.0, "name": "c5d33ddc7a99c0da0412f9f04967b369", "is_reserved": 0, "rental_uris": {"android": "https://dc.lft.to/lastmile_qr_scan", "ios": "https://dc.lft.to/lastmile_qr_scan"}, "fusion_lon": 0.0}, {"lat": 38.92239433333334, "is_disabled": 0, "type": "electric_scooter", "lon": -77.04569766666667, "bike_id": "6a9a1972daffe413acb5e8589a0491d2", "fusion_lat": 0.0, "name": "6a9a1972daffe413acb5e8589a0491d2", "is_reserved": 0, "rental_uris": {"android": "https://dc.lft.to/lastmile_qr_scan", "ios": "https://dc.lft.to/lastmile_qr_scan"}, "fusion_lon": 0.0}, {"lat": 38.90830116666667, "is_disabled": 0, "type": "electric_scooter", "lon": -77.063717, "bike_id": "134a28250ced8e4e7d563ea88c645e64", "fusion_lat": 0.0, "name": "134a28250ced8e4e7d563ea88c645e64", "is_reserved": 0, "rental_uris": {"android": "https://dc.lft.to/lastmile_qr_scan", "ios": "https://dc.lft.to/lastmile_qr_scan"}, "fusion_lon": 0.0}, {"lat": 38.884691, "is_disabled": 0, "type": "electric_scooter", "lon": -76.992784, "bike_id": "916a0638006be6e5d6f03e8a845015c5", "fusion_lat": 0.0, "name": "916a0638006be6e5d6f03e8a845015c5", "is_reserved": 0, "rental_uris": {"android": "https://dc.lft.to/lastmile_qr_scan", "ios": "https://dc.lft.to/lastmile_qr_scan"}, "fusion_lon": 0.0}, {"lat": 38.91127383333333, "is_disabled": 0, "type": "electric_scooter", "lon": -77.04348566666667, "bike_id": "c2d96163aa1d6f03e676b8d8e7b5bfb4", "fusion_lat": 0.0, "name": "c2d96163aa1d6f03e676b8d8e7b5bfb4", "is_reserved": 0, "rental_uris": {"android": "https://dc.lft.to/lastmile_qr_scan", "ios": "https://dc.lft.to/lastmile_qr_scan"}, "fusion_lon": 0.0}, {"lat": 39.029332833333335, "is_disabled": 0, "type": "electric_bike", "lon": -77.04926616666667, "bike_id": "b8457a9c60f90cd0a6b64bc3508cc260", "fusion_lat": 0.0, "name": "b8457a9c60f90cd0a6b64bc3508cc260", "is_reserved": 0, "rental_uris": {"android": "https://dc.lft.to/lastmile_qr_scan", "ios": "https://dc.lft.to/lastmile_qr_scan"}, "fusion_lon": 0.0}, {"lat": 38.88490133333333, "is_disabled": 0, "type": "electric_scooter", "lon": -77.007103, "bike_id": "890a36129040e0076e6a84103f3c155f", "fusion_lat": 0.0, "name": "890a36129040e0076e6a84103f3c155f", "is_reserved": 0, "rental_uris": {"android": "https://dc.lft.to/lastmile_qr_scan", "ios": "https://dc.lft.to/lastmile_qr_scan"}, "fusion_lon": 0.0}, {"lat": 38.915467666666665, "is_disabled": 0, "type": "electric_scooter", "lon": -77.03864933333334, "bike_id": "1b120025a877f57ba8fe60e25f827e65", "fusion_lat": 0.0, "name": "1b120025a877f57ba8fe60e25f827e65", "is_reserved": 0, "rental_uris": {"android": "https://dc.lft.to/lastmile_qr_scan", "ios": "https://dc.lft.to/lastmile_qr_scan"}, "fusion_lon": 0.0}, {"lat": 38.91542916666667, "is_disabled": 0, "type": "electric_scooter", "lon": -77.0220165, "bike_id": "b307cac33144f5ca166b862d4860ddda", "fusion_lat": 0.0, "name": "b307cac33144f5ca166b862d4860ddda", "is_reserved": 0, "rental_uris": {"android": "https://dc.lft.to/lastmile_qr_scan", "ios": "https://dc.lft.to/lastmile_qr_scan"}, "fusion_lon": 0.0}, {"lat": 38.91387133333333, "is_disabled": 0, "type": "electric_scooter", "lon": -77.03207083333334, "bike_id": "ac3ba50bfbe570c3f42e59c2a403cfb9", "fusion_lat": 0.0, "name": "ac3ba50bfbe570c3f42e59c2a403cfb9", "is_reserved": 0, "rental_uris": {"android": "https://dc.lft.to/lastmile_qr_scan", "ios": "https://dc.lft.to/lastmile_qr_scan"}, "fusion_lon": 0.0}, {"lat": 38.953264833333336, "is_disabled": 0, "type": "electric_scooter", "lon": -77.02754333333333, "bike_id": "1f67f7213b0ae72fe66e50ef9f846bc9", "fusion_lat": 0.0, "name": "1f67f7213b0ae72fe66e50ef9f846bc9", "is_reserved": 0, "rental_uris": {"android": "https://dc.lft.to/lastmile_qr_scan", "ios": "https://dc.lft.to/lastmile_qr_scan"}, "fusion_lon": 0.0}, {"lat": 38.80754683333333, "is_disabled": 0, "type": "electric_bike", "lon": -77.0945285, "bike_id": "20927e476f891736a1eec6dcefad7382", "fusion_lat": 0.0, "name": "20927e476f891736a1eec6dcefad7382", "is_reserved": 0, "rental_uris": {"android": "https://dc.lft.to/lastmile_qr_scan", "ios": "https://dc.lft.to/lastmile_qr_scan"}, "fusion_lon": 0.0}, {"lat": 38.885985, "is_disabled": 0, "type": "electric_scooter", "lon": -76.99249316666666, "bike_id": "eaf198e0c52b5d5f8fac52320046dd29", "fusion_lat": 0.0, "name": "eaf198e0c52b5d5f8fac52320046dd29", "is_reserved": 0, "rental_uris": {"android": "https://dc.lft.to/lastmile_qr_scan", "ios": "https://dc.lft.to/lastmile_qr_scan"}, "fusion_lon": 0.0}, {"lat": 38.909488, "is_disabled": 0, "type": "electric_scooter", "lon": -77.03201816666666, "bike_id": "c9eaf1040d3135b5e40b42e158ad148c", "fusion_lat": 0.0, "name": "c9eaf1040d3135b5e40b42e158ad148c", "is_reserved": 0, "rental_uris": {"android": "https://dc.lft.to/lastmile_qr_scan", "ios": "https://dc.lft.to/lastmile_qr_scan"}, "fusion_lon": 0.0}, {"lat": 38.909819, "is_disabled": 0, "type": "electric_scooter", "lon": -76.98464916666667, "bike_id": "592c30e87b040bbce4373e3ec4744e2f", "fusion_lat": 0.0, "name": "592c30e87b040bbce4373e3ec4744e2f", "is_reserved": 0, "rental_uris": {"android": "https://dc.lft.to/lastmile_qr_scan", "ios": "https://dc.lft.to/lastmile_qr_scan"}, "fusion_lon": 0.0}, {"lat": 38.90851966666666, "is_disabled": 0, "type": "electric_scooter", "lon": -76.9995915, "bike_id": "a828f97036e4c02d11968d3477b276d2", "fusion_lat": 0.0, "name": "a828f97036e4c02d11968d3477b276d2", "is_reserved": 0, "rental_uris": {"android": "https://dc.lft.to/lastmile_qr_scan", "ios": "https://dc.lft.to/lastmile_qr_scan"}, "fusion_lon": 0.0}, {"lat": 38.92198416666667, "is_disabled": 0, "type": "electric_scooter", "lon": -77.024081, "bike_id": "f4ce8f9cf8231abd7cfb49ef8096326c", "fusion_lat": 0.0, "name": "f4ce8f9cf8231abd7cfb49ef8096326c", "is_reserved": 0, "rental_uris": {"android": "https://dc.lft.to/lastmile_qr_scan", "ios": "https://dc.lft.to/lastmile_qr_scan"}, "fusion_lon": 0.0}, {"lat": 38.8803445, "is_disabled": 0, "type": "electric_scooter", "lon": -77.02476866666667, "bike_id": "90914426562f15cf4bc7586345834930", "fusion_lat": 0.0, "name": "90914426562f15cf4bc7586345834930", "is_reserved": 0, "rental_uris": {"android": "https://dc.lft.to/lastmile_qr_scan", "ios": "https://dc.lft.to/lastmile_qr_scan"}, "fusion_lon": 0.0}, {"lat": 38.90039483333334, "is_disabled": 0, "type": "electric_scooter", "lon": -76.99492166666667, "bike_id": "3e2ea4809af59818e8092afdab8fcb38", "fusion_lat": 0.0, "name": "3e2ea4809af59818e8092afdab8fcb38", "is_reserved": 0, "rental_uris": {"android": "https://dc.lft.to/lastmile_qr_scan", "ios": "https://dc.lft.to/lastmile_qr_scan"}, "fusion_lon": 0.0}, {"lat": 38.92681066666667, "is_disabled": 0, "type": "electric_scooter", "lon": -77.02114233333333, "bike_id": "5f025bf88d8059a78241d5d22311873f", "fusion_lat": 0.0, "name": "5f025bf88d8059a78241d5d22311873f", "is_reserved": 0, "rental_uris": {"android": "https://dc.lft.to/lastmile_qr_scan", "ios": "https://dc.lft.to/lastmile_qr_scan"}, "fusion_lon": 0.0}, {"lat": 38.839842166666664, "is_disabled": 0, "type": "electric_bike", "lon": -77.0056875, "bike_id": "15efbfa678c8e6a4987e48244eef1ac6", "fusion_lat": 0.0, "name": "15efbfa678c8e6a4987e48244eef1ac6", "is_reserved": 0, "rental_uris": {"android": "https://dc.lft.to/lastmile_qr_scan", "ios": "https://dc.lft.to/lastmile_qr_scan"}, "fusion_lon": 0.0}, {"lat": 38.904238166666666, "is_disabled": 0, "type": "electric_scooter", "lon": -77.05910783333333, "bike_id": "0abccbd21cad42b89033d0ceebcca596", "fusion_lat": 0.0, "name": "0abccbd21cad42b89033d0ceebcca596", "is_reserved": 0, "rental_uris": {"android": "https://dc.lft.to/lastmile_qr_scan", "ios": "https://dc.lft.to/lastmile_qr_scan"}, "fusion_lon": 0.0}, {"lat": 38.87301216666667, "is_disabled": 0, "type": "electric_bike", "lon": -77.010888, "bike_id": "809212c99c4b0fb64d8a5bf4abd23081", "fusion_lat": 0.0, "name": "809212c99c4b0fb64d8a5bf4abd23081", "is_reserved": 0, "rental_uris": {"android": "https://dc.lft.to/lastmile_qr_scan", "ios": "https://dc.lft.to/lastmile_qr_scan"}, "fusion_lon": 0.0}, {"lat": 38.91687783333333, "is_disabled": 0, "type": "electric_scooter", "lon": -77.03719133333334, "bike_id": "5dc318265bd907117be3e2922b98fb95", "fusion_lat": 0.0, "name": "5dc318265bd907117be3e2922b98fb95", "is_reserved": 0, "rental_uris": {"android": "https://dc.lft.to/lastmile_qr_scan", "ios": "https://dc.lft.to/lastmile_qr_scan"}, "fusion_lon": 0.0}, {"lat": 38.92399483333333, "is_disabled": 0, "type": "electric_scooter", "lon": -77.05263583333333, "bike_id": "10a3e54ed42f9fd351d80d945dbf1933", "fusion_lat": 0.0, "name": "10a3e54ed42f9fd351d80d945dbf1933", "is_reserved": 0, "rental_uris": {"android": "https://dc.lft.to/lastmile_qr_scan", "ios": "https://dc.lft.to/lastmile_qr_scan"}, "fusion_lon": 0.0}, {"lat": 38.84106233333333, "is_disabled": 0, "type": "electric_bike", "lon": -77.08937366666666, "bike_id": "b794e7369e313ec678c6e37b749cb3b1", "fusion_lat": 0.0, "name": "b794e7369e313ec678c6e37b749cb3b1", "is_reserved": 0, "rental_uris": {"android": "https://dc.lft.to/lastmile_qr_scan", "ios": "https://dc.lft.to/lastmile_qr_scan"}, "fusion_lon": 0.0}, {"lat": 38.893493666666664, "is_disabled": 0, "type": "electric_scooter", "lon": -77.04135966666666, "bike_id": "2307f102956528e6b3d7d2c89d3d5c4b", "fusion_lat": 0.0, "name": "2307f102956528e6b3d7d2c89d3d5c4b", "is_reserved": 0, "rental_uris": {"android": "https://dc.lft.to/lastmile_qr_scan", "ios": "https://dc.lft.to/lastmile_qr_scan"}, "fusion_lon": 0.0}, {"lat": 38.9211435, "is_disabled": 0, "type": "electric_bike", "lon": -76.98572916666667, "bike_id": "0bb11d6c21f1add417dc6251121ce417", "fusion_lat": 0.0, "name": "0bb11d6c21f1add417dc6251121ce417", "is_reserved": 0, "rental_uris": {"android": "https://dc.lft.to/lastmile_qr_scan", "ios": "https://dc.lft.to/lastmile_qr_scan"}, "fusion_lon": 0.0}, {"lat": 38.91282783333333, "is_disabled": 0, "type": "electric_scooter", "lon": -77.03200033333333, "bike_id": "65c78896b168b7491af1ab77c2d738cc", "fusion_lat": 0.0, "name": "65c78896b168b7491af1ab77c2d738cc", "is_reserved": 0, "rental_uris": {"android": "https://dc.lft.to/lastmile_qr_scan", "ios": "https://dc.lft.to/lastmile_qr_scan"}, "fusion_lon": 0.0},