{"data": {"bikes": [{"is_disabled": 0, "fusion_lon": 0.0, "fusion_lat": 0.0, "lat": 38.88009783333333, "type": "electric_bike", "lon": -76.91599966666666, "bike_id": "2deddbd9e967f0b0258e02eca07fc2a2", "rental_uris": {"android": "https://dc.lft.to/lastmile_qr_scan", "ios": "https://dc.lft.to/lastmile_qr_scan"}, "name": "2deddbd9e967f0b0258e02eca07fc2a2", "is_reserved": 0}, {"is_disabled": 0, "fusion_lon": 0.0, "fusion_lat": 0.0, "lat": 38.91922566666667, "type": "electric_scooter", "lon": -77.00944833333334, "bike_id": "88f078e886a5ac34522ac19310a5dab8", "rental_uris": {"android": "https://dc.lft.to/lastmile_qr_scan", "ios": "https://dc.lft.to/lastmile_qr_scan"}, "name": "88f078e886a5ac34522ac19310a5dab8", "is_reserved": 0}, {"is_disabled": 0, "fusion_lon": 0.0, "fusion_lat": 0.0, "lat": 38.91543383333333, "type": "electric_scooter", "lon": -77.038501, "bike_id": "4290b531022d008b7c621fd2d069ff46", "rental_uris": {"android": "https://dc.lft.to/lastmile_qr_scan", "ios": "https://dc.lft.to/lastmile_qr_scan"}, "name": "4290b531022d008b7c621fd2d069ff46", "is_reserved": 0}, {"is_disabled": 0, "fusion_lon": 0.0, "fusion_lat": 0.0, "lat": 38.93250416666667, "type": "electric_scooter", "lon": -77.04011883333334, "bike_id": "b1395463c8f71b042777ebfc670b2201", "rental_uris": {"android": "https://dc.lft.to/lastmile_qr_scan", "ios": "https://dc.lft.to/lastmile_qr_scan"}, "name": "b1395463c8f71b042777ebfc670b2201", "is_reserved": 0}, {"is_disabled": 0, "fusion_lon": 0.0, "fusion_lat": 0.0, "lat": 38.92866333333333, "type": "electric_scooter", "lon": -76.99028883333334, "bike_id": "074bcfef4fdd1750de530094d74d9913", "rental_uris": {"android": "https://dc.lft.to/lastmile_qr_scan", "ios": "https://dc.lft.to/lastmile_qr_scan"}, "name": "074bcfef4fdd1750de530094d74d9913", "is_reserved": 0}, {"is_disabled": 0, "fusion_lon": 0.0, "fusion_lat": 0.0, "lat": 38.934788, "type": "electric_scooter", "lon": -77.072753, "bike_id": "f55f725801f998c7bbecf9e85b7aa029", "rental_uris": {"android": "https://dc.lft.to/lastmile_qr_scan", "ios": "https://dc.lft.to/lastmile_qr_scan"}, "name": "f55f725801f998c7bbecf9e85b7aa029", "is_reserved": 0}, {"is_disabled": 0, "fusion_lon": 0.0, "fusion_lat": 0.0, "lat": 38.85989583333333, "type": "electric_bike", "lon": -76.9705495, "bike_id": "bb17276da26fa6e63f3b32a19cea24a5", "rental_uris": {"android": "https://dc.lft.to/lastmile_qr_scan", "ios": "https://dc.lft.to/lastmile_qr_scan"}, "name": "bb17276da26fa6e63f3b32a19cea24a5", "is_reserved": 0}, {"is_disabled": 0, "fusion_lon": 0.0, "fusion_lat": 0.0, "lat": 38.925591, "type": "electric_scooter", "lon": -77.02284983333334, "bike_id": "4509b8209711198f25fac731ca3b611b", "rental_uris": {"android": "https://dc.lft.to/lastmile_qr_scan", "ios": "https://dc.lft.to/lastmile_qr_scan"}, "name": "4509b8209711198f25fac731ca3b611b", "is_reserved": 0}, {"is_disabled": 0, "fusion_lon": 0.0, "fusion_lat": 0.0, "lat": 38.994551333333334, "type": "electric_bike", "lon": -76.90817616666666, "bike_id": "0167431ea9290bc8520a49c845c24e74", "rental_uris": {"android": "https://dc.lft.to/lastmile_qr_scan", "ios": "https://dc.lft.to/lastmile_qr_scan"}, "name": "0167431ea9290bc8520a49c845c24e74", "is_reserved": 0}, {"is_disabled": 0, "fusion_lon": 0.0, "fusion_lat": 0.0, "lat": 38.90305383333333, "type": "electric_scooter", "lon": -77.03622783333333, "bike_id": "53f1d19deb239b612bafebb7ef0c522c", "rental_uris": {"android": "https://dc.lft.to/lastmile_qr_scan", "ios": "https://dc.lft.to/lastmile_qr_scan"}, "name": "53f1d19deb239b612bafebb7ef0c522c", "is_reserved": 0}, {"is_disabled": 0, "fusion_lon": 0.0, "fusion_lat": 0.0, "lat": 38.86664783333333, "type": "electric_scooter", "lon": -76.98894083333333, "bike_id": "fe33572ae8f37722a296455eb0ff7e36", "rental_uris": {"android": "https://dc.lft.to/lastmile_qr_scan", "ios": "https://dc.lft.to/lastmile_qr_scan"}, "name": "fe33572ae8f37722a296455eb0ff7e36", "is_reserved": 0}, {"is_disabled": 0, "fusion_lon": 0.0, "fusion_lat": 0.0, "lat": 38.9234585, "type": "electric_scooter", "lon": -76.99868066666667, "bike_id": "d2f4b6e8d66b4e4a0adcc1054e8e45af", "rental_uris": {"android": "https://dc.lft.to/lastmile_qr_scan", "ios": "https://dc.lft.to/lastmile_qr_scan"}, "name": "d2f4b6e8d66b4e4a0adcc1054e8e45af", "is_reserved": 0}, {"is_disabled": 0, "fusion_lon": 0.0, "fusion_lat": 0.0, "lat": 38.918139, "type": "electric_scooter", "lon": -77.02477016666667, "bike_id": "b99d3ef0a81ebb312c57bdb5ed8ac5b9", "rental_uris": {"android": "https://dc.lft.to/lastmile_qr_scan", "ios": "https://dc.lft.to/lastmile_qr_scan"}, "name": "b99d3ef0a81ebb312c57bdb5ed8ac5b9", "is_reserved": 0}, {"is_disabled": 0, "fusion_lon": 0.0, "fusion_lat": 0.0, "lat": 38.91991016666667, "type": "electric_scooter", "lon": -77.0387305, "bike_id": "6cf44de90bd026de91dd063fce5f614c", "rental_uris": {"android": "https://dc.lft.to/lastmile_qr_scan", "ios": "https://dc.lft.to/lastmile_qr_scan"}, "name": "6cf44de90bd026de91dd063fce5f614c", "is_reserved": 0}, {"is_disabled": 0, "fusion_lon": 0.0, "fusion_lat": 0.0, "lat": 38.907766, "type": "electric_scooter", "lon": -77.03258666666666, "bike_id": "5d4fee3c18760a978b5bb6070839d85b", "rental_uris": {"android": "https://dc.lft.to/lastmile_qr_scan", "ios": "https://dc.lft.to/lastmile_qr_scan"}, "name": "5d4fee3c18760a978b5bb6070839d85b", "is_reserved": 0}, {"is_disabled": 0, "fusion_lon": 0.0, "fusion_lat": 0.0, "lat": 38.99090133333333, "type": "electric_bike", "lon": -76.8749705, "bike_id": "04951a5c60b9d6dd6cbf40b830a03221", "rental_uris": {"android": "https://dc.lft.to/lastmile_qr_scan", "ios": "https://dc.lft.to/lastmile_qr_scan"}, "name": "04951a5c60b9d6dd6cbf40b830a03221", "is_reserved": 0}, {"is_disabled": 0, "fusion_lon": 0.0, "fusion_lat": 0.0, "lat": 38.95716066666667, "type": "electric_scooter", "lon": -77.031007, "bike_id": "e87b4be1f39aac56e4319686bac3629e", "rental_uris": {"android": "https://dc.lft.to/lastmile_qr_scan", "ios": "https://dc.lft.to/lastmile_qr_scan"}, "name": "e87b4be1f39aac56e4319686bac3629e", "is_reserved": 0}, {"is_disabled": 0, "fusion_lon": 0.0, "fusion_lat": 0.0, "lat": 38.924079166666665, "type": "electric_scooter", "lon": -77.02541383333333, "bike_id": "079c7d96d4a9ba093281fcd71960bb1a", "rental_uris": {"android": "https://dc.lft.to/lastmile_qr_scan", "ios": "https://dc.lft.to/lastmile_qr_scan"}, "name": "079c7d96d4a9ba093281fcd71960bb1a", "is_reserved": 0}, {"is_disabled": 0, "fusion_lon": 0.0, "fusion_lat": 0.0, "lat": 38.89915416666667, "type": "electric_bike", "lon": -77.02168116666667, "bike_id": "3dda4448664ef59639693aea61789e43", "rental_uris": {"android": "https://dc.lft.to/lastmile_qr_scan", "ios": "https://dc.lft.to/lastmile_qr_scan"}, "name": "3dda4448664ef59639693aea61789e43", "is_reserved": 0}, {"is_disabled": 0, "fusion_lon": 0.0, "fusion_lat": 0.0, "lat": 38.855505, "type": "electric_bike", "lon": -77.10711366666666, "bike_id": "dca306e555fe28e51d3e25ea1fad13fe", "rental_uris": {"android": "https://dc.lft.to/lastmile_qr_scan", "ios": "https://dc.lft.to/lastmile_qr_scan"}, "name": "dca306e555fe28e51d3e25ea1fad13fe", "is_reserved": 0}, {"is_disabled": 0, "fusion_lon": 0.0, "fusion_lat": 0.0, "lat": 38.975727666666664, "type": "electric_bike", "lon": -76.964042, "bike_id": "4c2614838e4d9550649d69d9f04a00fa", "rental_uris": {"android": "https://dc.lft.to/lastmile_qr_scan", "ios": "https://dc.lft.to/lastmile_qr_scan"}, "name": "4c2614838e4d9550649d69d9f04a00fa", "is_reserved": 0}, {"is_disabled": 0, "fusion_lon": 0.0, "fusion_lat": 0.0, "lat": 38.88812816666667, "type": "electric_bike", "lon": -77.12737616666666, "bike_id": "8cee43eb6b03e19381051ab581cb9761", "rental_uris": {"android": "https://dc.lft.to/lastmile_qr_scan", "ios": "https://dc.lft.to/lastmile_qr_scan"}, "name": "8cee43eb6b03e19381051ab581cb9761", "is_reserved": 0}, {"is_disabled": 0, "fusion_lon": 0.0, "fusion_lat": 0.0, "lat": 38.93965683333333, "type": "electric_scooter", "lon": -77.03280716666667, "bike_id": "082124b6faed5b82e3b85a1d64311563", "rental_uris": {"android": "https://dc.lft.to/lastmile_qr_scan", "ios": "https://dc.lft.to/lastmile_qr_scan"}, "name": "082124b6faed5b82e3b85a1d64311563", "is_reserved": 0}, {"is_disabled": 0, "fusion_lon": 0.0, "fusion_lat": 0.0, "lat": 38.91406416666667, "type": "electric_scooter", "lon": -77.0218035, "bike_id": "6b2b3c223e94e7d21dbd64687de34aad", "rental_uris": {"android": "https://dc.lft.to/lastmile_qr_scan", "ios": "https://dc.lft.to/lastmile_qr_scan"}, "name": "6b2b3c223e94e7d21dbd64687de34aad", "is_reserved": 0}, {"is_disabled": 0, "fusion_lon": 0.0, "fusion_lat": 0.0, "lat": 38.8979495, "type": "electric_scooter", "lon": -77.01203433333333, "bike_id": "ed5df714e6cf25770ffe25b315f4e8c3", "rental_uris": {"android": "https://dc.lft.to/lastmile_qr_scan", "ios": "https://dc.lft.to/lastmile_qr_scan"}, "name": "ed5df714e6cf25770ffe25b315f4e8c3", "is_reserved": 0}, {"is_disabled": 0, "fusion_lon": 0.0, "fusion_lat": 0.0, "lat": 38.91247716666667, "type": "electric_scooter", "lon": -77.04162266666667, "bike_id": "88d1921ec450d109624e78646b877ff8", "rental_uris": {"android": "https://dc.lft.to/lastmile_qr_scan", "ios": "https://dc.lft.to/lastmile_qr_scan"}, "name": "88d1921ec450d109624e78646b877ff8", "is_reserved": 0}, {"is_disabled": 0, "fusion_lon": 0.0, "fusion_lat": 0.0, "lat": 38.894744833333334, "type": "electric_scooter", "lon": -76.94965033333334, "bike_id": "1f07ea002d0297715a6c03686467b5f9", "rental_uris": {"android": "https://dc.lft.to/lastmile_qr_scan", "ios": "https://dc.lft.to/lastmile_qr_scan"}, "name": "1f07ea002d0297715a6c03686467b5f9", "is_reserved": 0}, {"is_disabled": 0, "fusion_lon": 0.0, "fusion_lat": 0.0, "lat": 38.920365833333335, "type": "electric_scooter", "lon": -77.04180883333333, "bike_id": "57f7df9756bac62bd2813d421b4cda17", "rental_uris": {"android": "https://dc.lft.to/lastmile_qr_scan", "ios": "https://dc.lft.to/lastmile_qr_scan"}, "name": "57f7df9756bac62bd2813d421b4cda17", "is_reserved": 0}, {"is_disabled": 0, "fusion_lon": 0.0, "fusion_lat": 0.0, "lat": 38.8850815, "type": "electric_scooter", "lon": -76.99844966666667, "bike_id": "68b1a56c45fdc6468c19aa5d1730e63c", "rental_uris": {"android": "https://dc.lft.to/lastmile_qr_scan", "ios": "https://dc.lft.to/lastmile_qr_scan"}, "name": "68b1a56c45fdc6468c19aa5d1730e63c", "is_reserved": 0}, {"is_disabled": 0, "fusion_lon": 0.0, "fusion_lat": 0.0, "lat": 38.91630716666667, "type": "electric_scooter", "lon": -77.03212683333334, "bike_id": "9755fdd6f0027265132148ea620a81ef", "rental_uris": {"android": "https://dc.lft.to/lastmile_qr_scan", "ios": "https://dc.lft.to/lastmile_qr_scan"}, "name": "9755fdd6f0027265132148ea620a81ef", "is_reserved": 0}, {"is_disabled": 0, "fusion_lon": 0.0, "fusion_lat": 0.0, "lat": 38.89365183333334, "type": "electric_scooter", "lon": -77.02277133333334, "bike_id": "f233c8a2c63b95d0673a442d8adfd615", "rental_uris": {"android": "https://dc.lft.to/lastmile_qr_scan", "ios": "https://dc.lft.to/lastmile_qr_scan"}, "name": "f233c8a2c63b95d0673a442d8adfd615", "is_reserved": 0}, {"is_disabled": 0, "fusion_lon": 0.0, "fusion_lat": 0.0, "lat": 38.88575433333333, "type": "electric_scooter", "lon": -76.91909216666667, "bike_id": "c9df0fc0745be83f184db6286ade8e6a", "rental_uris": {"android": "https://dc.lft.to/lastmile_qr_scan", "ios": "https://dc.lft.to/lastmile_qr_scan"}, "name": "c9df0fc0745be83f184db6286ade8e6a", "is_reserved": 0}, {"is_disabled": 0, "fusion_lon": 0.0, "fusion_lat": 0.0, "lat": 38.992607666666665, "type": "electric_scooter", "lon": -77.03610983333333, "bike_id": "def63d8b28bbb408559b888e1430dd62", "rental_uris": {"android": "https://dc.lft.to/lastmile_qr_scan", "ios": "https://dc.lft.to/lastmile_qr_scan"}, "name": "def63d8b28bbb408559b888e1430dd62", "is_reserved": 0}, {"is_disabled": 0, "fusion_lon": 0.0, "fusion_lat": 0.0, "lat": 38.93667716666667, "type": "electric_bike", "lon": -76.95204683333333, "bike_id": "e6c349c344dd64a875bd951fe90c7303", "rental_uris": {"android": "https://dc.lft.to/lastmile_qr_scan", "ios": "https://dc.lft.to/lastmile_qr_scan"}, "name": "e6c349c344dd64a875bd951fe90c7303", "is_reserved": 0}, {"is_disabled": 0, "fusion_lon": 0.0, "fusion_lat": 0.0, "lat": 38.91650283333333, "type": "electric_scooter", "lon": -77.041636, "bike_id": "ef1122c7338ebdf7be2376e25690d9b5", "rental_uris": {"android": "https://dc.lft.to/lastmile_qr_scan", "ios": "https://dc.lft.to/lastmile_qr_scan"}, "name": "ef1122c7338ebdf7be2376e25690d9b5", "is_reserved": 0}, {"is_disabled": 0, "fusion_lon": 0.0, "fusion_lat": 0.0, "lat": 38.91831533333333, "type": "electric_scooter", "lon": -77.03934983333333, "bike_id": "35c3b5c4fd38d8f38d6c1e4288d91b04", "rental_uris": {"android": "https://dc.lft.to/lastmile_qr_scan", "ios": "https://dc.lft.to/lastmile_qr_scan"}, "name": "35c3b5c4fd38d8f38d6c1e4288d91b04", "is_reserved": 0}, {"is_disabled": 0, "fusion_lon": 0.0, "fusion_lat": 0.0, "lat": 38.958399, "type": "electric_scooter", "lon": -77.07153533333333, "bike_id": "5616e8ba5ad47c1e8d795eb671d000b4", "rental_uris": {"android": "https://dc.lft.to/lastmile_qr_scan", "ios": "https://dc.lft.to/lastmile_qr_scan"}, "name": "5616e8ba5ad47c1e8d795eb671d000b4", "is_reserved": 0}, {"is_disabled": 0, "fusion_lon": 0.0, "fusion_lat": 0.0, "lat": 38.93471233333333, "type": "electric_scooter", "lon": -77.07265066666666, "bike_id": "7ceb4a959772b6f093ce86dae339fcbb", "rental_uris": {"android": "https://dc.lft.to/lastmile_qr_scan", "ios": "https://dc.lft.to/lastmile_qr_scan"}, "name": "7ceb4a959772b6f093ce86dae339fcbb", "is_reserved": 0}, {"is_disabled": 0, "fusion_lon": 0.0, "fusion_lat": 0.0, "lat": 38.9191215, "type": "electric_scooter", "lon": -77.03427966666666, "bike_id": "6956b2ed4b18e92e4a4d6adf7dfa6785", "rental_uris": {"android": "https://dc.lft.to/lastmile_qr_scan", "ios": "https://dc.lft.to/lastmile_qr_scan"}, "name": "6956b2ed4b18e92e4a4d6adf7dfa6785", "is_reserved": 0}, {"is_disabled": 0, "fusion_lon": 0.0, "fusion_lat": 0.0, "lat": 38.917029166666666, "type": "electric_scooter", "lon": -77.05125833333334, "bike_id": "66415d42e91692378bd783c9f9618022", "rental_uris": {"android": "https://dc.lft.to/lastmile_qr_scan", "ios": "https://dc.lft.to/lastmile_qr_scan"}, "name": "66415d42e91692378bd783c9f9618022", "is_reserved": 0}, {"is_disabled": 0, "fusion_lon": 0.0, "fusion_lat": 0.0, "lat": 38.906462166666664, "type": "electric_scooter", "lon": -77.00586666666666, "bike_id": "3cc2aad5061a57a1272bbd483d786b94", "rental_uris": {"android": "https://dc.lft.to/lastmile_qr_scan", "ios": "https://dc.lft.to/lastmile_qr_scan"}, "name": "3cc2aad5061a57a1272bbd483d786b94", "is_reserved": 0}, {"is_disabled": 0, "fusion_lon": 0.0, "fusion_lat": 0.0, "lat": 39.03882, "type": "electric_bike", "lon": -77.10911383333334, "bike_id": "d32ea7774591212f8b7eac697c3d3d44", "rental_uris": {"android": "https://dc.lft.to/lastmile_qr_scan", "ios": "https://dc.lft.to/lastmile_qr_scan"}, "name": "d32ea7774591212f8b7eac697c3d3d44", "is_reserved": 0}, {"is_disabled": 0, "fusion_lon": 0.0, "fusion_lat": 0.0, "lat": 38.919796, "type": "electric_scooter", "lon": -77.03269066666667, "bike_id": "e2ff6c8aa1ef76114a959ef04e95b12c", "rental_uris": {"android": "https://dc.lft.to/lastmile_qr_scan", "ios": "https://dc.lft.to/lastmile_qr_scan"}, "name": "e2ff6c8aa1ef76114a959ef04e95b12c", "is_reserved": 0}, {"is_disabled": 0, "fusion_lon": 0.0, "fusion_lat": 0.0, "lat": 38.90967333333333, "type": "electric_scooter", "lon": -77.01107966666666, "bike_id": "c3d884a098b5e482effc079d08b20a28", "rental_uris": {"android": "https://dc.lft.to/lastmile_qr_scan", "ios": "https://dc.lft.to/lastmile_qr_scan"}, "name": "c3d884a098b5e482effc079d08b20a28", "is_reserved": 0}, {"is_disabled": 0, "fusion_lon": 0.0, "fusion_lat": 0.0, "lat": 38.9062835, "type": "electric_scooter", "lon": -77.02183883333333, "bike_id": "9c08beba86ee2fde291b5820bea5a11d", "rental_uris": {"android": "https://dc.lft.to/lastmile_qr_scan", "ios": "https://dc.lft.to/lastmile_qr_scan"}, "name": "9c08beba86ee2fde291b5820bea5a11d", "is_reserved": 0}, {"is_disabled": 0, "fusion_lon": 0.0, "fusion_lat": 0.0, "lat": 38.91244833333333, "type": "electric_scooter", "lon": -77.02231066666667, "bike_id": "0406ea3a0412c651245d4a9400ec2ddb", "rental_uris": {"android": "https://dc.lft.to/lastmile_qr_scan", "ios": "https://dc.lft.to/lastmile_qr_scan"}, "name": "0406ea3a0412c651245d4a9400ec2ddb", "is_reserved": 0}, {"is_disabled": 0, "fusion_lon": 0.0, "fusion_lat": 0.0, "lat": 38.91717033333333, "type": "electric_scooter", "lon": -77.02803283333333, "bike_id": "7b8d80d894b9231fef8d321bacd3ebf8", "rental_uris": {"android": "https://dc.lft.to/lastmile_qr_scan", "ios": "https://dc.lft.to/lastmile_qr_scan"}, "name": "7b8d80d894b9231fef8d321bacd3ebf8", "is_reserved": 0}, {"is_disabled": 0, "fusion_lon": 0.0, "fusion_lat": 0.0, "lat": 38.895796833333335, "type": "electric_scooter", "lon": -77.0256875, "bike_id": "0bbe70936bbaa4d6a435ec04a142546d", "rental_uris": {"android": "https://dc.lft.to/lastmile_qr_scan", "ios": "https://dc.lft.to/lastmile_qr_scan"}, "name": "0bbe70936bbaa4d6a435ec04a142546d", "is_reserved": 0}, {"is_disabled": 0, "fusion_lon": 0.0, "fusion_lat": 0.0, "lat": 39.00015333333333, "type": "electric_bike", "lon": -76.87283416666666, "bike_id": "4b557c04d917198958f5e43cbcfbab57", "rental_uris": {"android": "https://dc.lft.to/lastmile_qr_scan", "ios": "https://dc.lft.to/lastmile_qr_scan"}, "name": "4b557c04d917198958f5e43cbcfbab57", "is_reserved": 0}, {"is_disabled": 0, "fusion_lon": 0.0, "fusion_lat": 0.0, "lat": 38.82877916666666, "type": "electric_bike", "lon": -77.11217916666666, "bike_id": "a5bff8105254bc1c063f24dfff38c21a", "rental_uris": {"android": "https://dc.lft.to/lastmile_qr_scan", "ios": "https://dc.lft.to/lastmile_qr_scan"}, "name": "a5bff8105254bc1c063f24dfff38c21a", "is_reserved": 0}, {"is_disabled": 0, "fusion_lon": 0.0, "fusion_lat": 0.0, "lat": 38.925820333333334, "type": "electric_scooter", "lon": -77.040166, "bike_id": "c71216738dc5d535770d7d06c2bdbe97", "rental_uris": {"android": "https://dc.lft.to/lastmile_qr_scan", "ios": "https://dc.lft.to/lastmile_qr_scan"}, "name": "c71216738dc5d535770d7d06c2bdbe97", "is_reserved": 0}, {"is_disabled": 0, "fusion_lon": 0.0, "fusion_lat": 0.0, "lat": 38.92170983333333, "type": "electric_scooter", "lon": -77.02664683333333, "bike_id": "e5548db075707e74529a666724bb006f", "rental_uris": {"android": "https://dc.lft.to/lastmile_qr_scan", "ios": "https://dc.lft.to/lastmile_qr_scan"}, "name": "e5548db075707e74529a666724bb006f", "is_reserved": 0}, {"is_disabled": 0, "fusion_lon": 0.0, "fusion_lat": 0.0, "lat": 38.89540233333334, "type": "electric_scooter", "lon": -77.028159, "bike_id": "230702fee6b70e8b79023f718a3ae6d2", "rental_uris": {"android": "https://dc.lft.to/lastmile_qr_scan", "ios": "https://dc.lft.to/lastmile_qr_scan"}, "name": "230702fee6b70e8b79023f718a3ae6d2", "is_reserved": 0}, {"is_disabled": 0, "fusion_lon": 0.0, "fusion_lat": 0.0, "lat": 38.925419833333336, "type": "electric_scooter", "lon": -77.04053366666666, "bike_id": "702add1b6ed979ff601dd7820a945f88", "rental_uris": {"android": "https://dc.lft.to/lastmile_qr_scan", "ios": "https://dc.lft.to/lastmile_qr_scan"}, "name": "702add1b6ed979ff601dd7820a945f88", "is_reserved": 0}, {"is_disabled": 0, "fusion_lon": 0.0, "fusion_lat": 0.0, "lat": 38.9025435, "type": "electric_scooter", "lon": -77.00192566666666, "bike_id": "e6cef9699ddd3c05766c632e86ae99b9", "rental_uris": {"android": "https://dc.lft.to/lastmile_qr_scan", "ios": "https://dc.lft.to/lastmile_qr_scan"}, "name": "e6cef9699ddd3c05766c632e86ae99b9", "is_reserved": 0}, {"is_disabled": 0, "fusion_lon": 0.0, "fusion_lat": 0.0, "lat": 38.949679, "type": "electric_scooter", "lon": -77.03761216666666, "bike_id": "08a77848a004af963c2233e56662507d", "rental_uris": {"android": "https://dc.lft.to/lastmile_qr_scan", "ios": "https://dc.lft.to/lastmile_qr_scan"}, "name": "08a77848a004af963c2233e56662507d", "is_reserved": 0}, {"is_disabled": 0, "fusion_lon": 0.0, "fusion_lat": 0.0, "lat": 38.903917, "type": "electric_scooter", "lon": -77.04014766666667, "bike_id": "fc6794be65eddacc339de48386c0005d", "rental_uris": {"android": "https://dc.lft.to/lastmile_qr_scan", "ios": "https://dc.lft.to/lastmile_qr_scan"}, "name": "fc6794be65eddacc339de48386c0005d", "is_reserved": 0}, {"is_disabled": 0, "fusion_lon": 0.0, "fusion_lat": 0.0, "lat": 38.907877666666664, "type": "electric_scooter", "lon": -77.00971766666666, "bike_id": "8263fc071a1208621f547f7904063291", "rental_uris": {"android": "https://dc.lft.to/lastmile_qr_scan", "ios": "https://dc.lft.to/lastmile_qr_scan"}, "name": "8263fc071a1208621f547f7904063291", "is_reserved": 0}, {"is_disabled": 0, "fusion_lon": 0.0, "fusion_lat": 0.0, "lat": 38.90207933333333, "type": "electric_scooter", "lon": -77.05116033333333, "bike_id": "b7033ace284c888a940f076b81ca7bcd", "rental_uris": {"android": "https://dc.lft.to/lastmile_qr_scan", "ios": "https://dc.lft.to/lastmile_qr_scan"}, "name": "b7033ace284c888a940f076b81ca7bcd", "is_reserved": 0}, {"is_disabled": 0, "fusion_lon": 0.0, "fusion_lat": 0.0, "lat": 38.917115333333335, "type": "electric_scooter", "lon": -77.09808866666667, "bike_id": "c6fa47f589e7b28a1a6fd828c0f51d63", "rental_uris": {"android": "https://dc.lft.to/lastmile_qr_scan", "ios": "https://dc.lft.to/lastmile_qr_scan"}, "name": "c6fa47f589e7b28a1a6fd828c0f51d63", "is_reserved": 0}, {"is_disabled": 0, "fusion_lon": 0.0, "fusion_lat": 0.0, "lat": 38.89473533333334, "type": "electric_scooter", "lon": -76.99516233333334, "bike_id": "97f1cc9a94b8b67fd2babb7dd287eed4", "rental_uris": {"android": "https://dc.lft.to/lastmile_qr_scan", "ios": "https://dc.lft.to/lastmile_qr_scan"}, "name": "97f1cc9a94b8b67fd2babb7dd287eed4", "is_reserved": 0}, {"is_disabled": 0, "fusion_lon": 0.0, "fusion_lat": 0.0, "lat": 38.9201385, "type": "electric_scooter", "lon": -77.03156433333334, "bike_id": "1ae67b2e0b6e769c0cd1356d9d9a45d3", "rental_uris": {"android": "https://dc.lft.to/lastmile_qr_scan", "ios": "https://dc.lft.to/lastmile_qr_scan"}, "name": "1ae67b2e0b6e769c0cd1356d9d9a45d3", "is_reserved": 0}, {"is_disabled": 0, "fusion_lon": 0.0, "fusion_lat": 0.0, "lat": 38.92362933333333, "type": "electric_scooter", "lon": -77.05058616666666, "bike_id": "10ea868b42fdd7bf8da603c8caf7e3c3", "rental_uris": {"android": "https://dc.lft.to/lastmile_qr_scan", "ios": "https://dc.lft.to/lastmile_qr_scan"}, "name": "10ea868b42fdd7bf8da603c8caf7e3c3", "is_reserved": 0}, {"is_disabled": 0, "fusion_lon": 0.0, "fusion_lat": 0.0, "lat": 38.89222133333333, "type": "electric_scooter", "lon": -77.046917, "bike_id": "39e33e75b7f55407e23f6fed69e8d392", "rental_uris": {"android": "https://dc.lft.to/lastmile_qr_scan", "ios": "https://dc.lft.to/lastmile_qr_scan"}, "name": "39e33e75b7f55407e23f6fed69e8d392", "is_reserved": 0}, {"is_disabled": 0, "fusion_lon": 0.0, "fusion_lat": 0.0, "lat": 38.90735933333333, "type": "electric_scooter", "lon": -77.03450933333333, "bike_id": "02dc9660003576686d1003ec12a5366d", "rental_uris": {"android": "https://dc.lft.to/lastmile_qr_scan", "ios": "https://dc.lft.to/lastmile_qr_scan"}, "name": "02dc9660003576686d1003ec12a5366d", "is_reserved": 0}, {"is_disabled": 0, "fusion_lon": 0.0, "fusion_lat": 0.0, "lat": 38.93922716666667, "type": "electric_scooter", "lon": -77.07466866666667, "bike_id": "f9711f0b73d672e81fcca82f88f12e90", "rental_uris": {"android": "https://dc.lft.to/lastmile_qr_scan", "ios": "https://dc.lft.to/lastmile_qr_scan"}, "name": "f9711f0b73d672e81fcca82f88f12e90", "is_reserved": 0}, {"is_disabled": 0, "fusion_lon": 0.0, "fusion_lat": 0.0, "lat": 38.9154305, "type": "electric_scooter", "lon": -77.03849766666667, "bike_id": "f538da4faf30d20b60533aac4d79962d", "rental_uris": {"android": "https://dc.lft.to/lastmile_qr_scan", "ios": "https://dc.lft.to/lastmile_qr_scan"}, "name": "f538da4faf30d20b60533aac4d79962d", "is_reserved": 0}, {"is_disabled": 0, "fusion_lon": 0.0, "fusion_lat": 0.0, "lat": 38.89500116666667, "type": "electric_scooter", "lon": -76.948795, "bike_id": "810a2afe756c739bcb74706964e1df8b", "rental_uris": {"android": "https://dc.lft.to/lastmile_qr_scan", "ios": "https://dc.lft.to/lastmile_qr_scan"}, "name": "810a2afe756c739bcb74706964e1df8b", "is_reserved": 0}, {"is_disabled": 0, "fusion_lon": 0.0, "fusion_lat": 0.0, "lat": 38.9095455, "type": "electric_scooter", "lon": -76.99898216666666, "bike_id": "bda533b18867525c41c0c9fd6c17280b", "rental_uris": {"android": "https://dc.lft.to/lastmile_qr_scan", "ios": "https://dc.lft.to/lastmile_qr_scan"}, "name": "bda533b18867525c41c0c9fd6c17280b", "is_reserved": 0}, {"is_disabled": 0, "fusion_lon": 0.0, "fusion_lat": 0.0, "lat": 38.941963, "type": "electric_scooter", "lon": -77.02578616666666, "bike_id": "7c1d47cea9cc9c065ff5b3c00c8934ba", "rental_uris": {"android": "https://dc.lft.to/lastmile_qr_scan", "ios": "https://dc.lft.to/lastmile_qr_scan"}, "name": "7c1d47cea9cc9c065ff5b3c00c8934ba", "is_reserved": 0}, {"is_disabled": 0, "fusion_lon": 0.0, "fusion_lat": 0.0, "lat": 38.932437166666666, "type": "electric_scooter", "lon": -77.0327225, "bike_id": "16f71d9c673aee1e84be90d676401a40", "rental_uris": {"android": "https://dc.lft.to/lastmile_qr_scan", "ios": "https://dc.lft.to/lastmile_qr_scan"}, "name": "16f71d9c673aee1e84be90d676401a40", "is_reserved": 0}, {"is_disabled": 0, "fusion_lon": 0.0, "fusion_lat": 0.0, "lat": 38.844330166666666, "type": "electric_scooter", "lon": -76.99787133333334, "bike_id": "742d67f9124f8abffce6eeeac0b3da40", "rental_uris": {"android": "https://dc.lft.to/lastmile_qr_scan", "ios": "https://dc.lft.to/lastmile_qr_scan"}, "name": "742d67f9124f8abffce6eeeac0b3da40", "is_reserved": 0}, {"is_disabled": 0, "fusion_lon": 0.0, "fusion_lat": 0.0, "lat": 38.8766265, "type": "electric_scooter", "lon": -77.0029245, "bike_id": "661eba2be0840850fd7913c76cad6bef", "rental_uris": {"android": "https://dc.lft.to/lastmile_qr_scan", "ios": "https://dc.lft.to/lastmile_qr_scan"}, "name": "661eba2be0840850fd7913c76cad6bef", "is_reserved": 0}, {"is_disabled": 0, "fusion_lon": 0.0, "fusion_lat": 0.0, "lat": 38.905159166666664, "type": "electric_scooter", "lon": -76.9824995, "bike_id": "d7df27c646dd4f3f15f4585bbe70e41a", "rental_uris": {"android": "https://dc.lft.to/lastmile_qr_scan", "ios": "https://dc.lft.to/lastmile_qr_scan"}, "name": "d7df27c646dd4f3f15f4585bbe70e41a", "is_reserved": 0}, {"is_disabled": 0, "fusion_lon": 0.0, "fusion_lat": 0.0, "lat": 38.9196125, "type": "electric_scooter", "lon": -77.0235865, "bike_id": "6e46d2819d4508f906b078a3d619ef6c", "rental_uris": {"android": "https://dc.lft.to/lastmile_qr_scan", "ios": "https://dc.lft.to/lastmile_qr_scan"}, "name": "6e46d2819d4508f906b078a3d619ef6c", "is_reserved": 0}, {"is_disabled": 0, "fusion_lon": 0.0, "fusion_lat": 0.0, "lat": 38.921602666666665, "type": "electric_scooter", "lon": -77.03384083333333, "bike_id": "6d7b36a4608fb6eeb364b30ad0c4aee6", "rental_uris": {"android": "https://dc.lft.to/lastmile_qr_scan", "ios": "https://dc.lft.to/lastmile_qr_scan"}, "name": "6d7b36a4608fb6eeb364b30ad0c4aee6", "is_reserved": 0}, {"is_disabled": 0, "fusion_lon": 0.0, "fusion_lat": 0.0, "lat": 38.834298833333335, "type": "electric_bike", "lon": -77.10364216666666, "bike_id": "6bc9af94791833c633cef94f40e59c10", "rental_uris": {"android": "https://dc.lft.to/lastmile_qr_scan", "ios": "https://dc.lft.to/lastmile_qr_scan"}, "name": "6bc9af94791833c633cef94f40e59c10", "is_reserved": 0}, {"is_disabled": 0, "fusion_lon": 0.0, "fusion_lat": 0.0, "lat": 38.90873033333333, "type": "electric_scooter", "lon": -76.99835866666666, "bike_id": "c4d9060a00a5d3c5ce2f7f4aba27c5d5", "rental_uris": {"android": "https://dc.lft.to/lastmile_qr_scan", "ios": "https://dc.lft.to/lastmile_qr_scan"}, "name": "c4d9060a00a5d3c5ce2f7f4aba27c5d5", "is_reserved": 0}, {"is_disabled": 0, "fusion_lon": 0.0, "fusion_lat": 0.0, "lat": 38.917009166666666, "type": "electric_bike", "lon": -77.09172683333334, "bike_id": "d0a96118476202b1f0cbb7b41fbef15a", "rental_uris": {"android": "https://dc.lft.to/lastmile_qr_scan", "ios": "https://dc.lft.to/lastmile_qr_scan"}, "name": "d0a96118476202b1f0cbb7b41fbef15a", "is_reserved": 0}, {"is_disabled": 0, "fusion_lon": 0.0, "fusion_lat": 0.0, "lat": 38.90776966666667, "type": "electric_scooter", "lon": -77.0344265, "bike_id": "76a396125beb21a71d5f7220d0251183", "rental_uris": {"android": "https://dc.lft.to/lastmile_qr_scan", "ios": "https://dc.lft.to/lastmile_qr_scan"}, "name": "76a396125beb21a71d5f7220d0251183", "is_reserved": 0}, {"is_disabled": 0, "fusion_lon": 0.0, "fusion_lat": 0.0, "lat": 38.9183215, "type": "electric_scooter", "lon": -77.02279083333333, "bike_id": "646baa5adfdd2017ec44fda91a779eb8", "rental_uris": {"android": "https://dc.lft.to/lastmile_qr_scan", "ios": "https://dc.lft.to/lastmile_qr_scan"}, "name": "646baa5adfdd2017ec44fda91a779eb8", "is_reserved": 0}, {"is_disabled": 0, "fusion_lon": 0.0, "fusion_lat": 0.0, "lat": 38.911044, "type": "electric_scooter", "lon": -77.02307016666667, "bike_id": "231de8fac1dba726ef0f53f973c51c30", "rental_uris": {"android": "https://dc.lft.to/lastmile_qr_scan", "ios": "https://dc.lft.to/lastmile_qr_scan"}, "name": "231de8fac1dba726ef0f53f973c51c30", "is_reserved": 0}, {"is_disabled": 0, "fusion_lon": 0.0, "fusion_lat": 0.0, "lat": 38.9191015, "type": "electric_scooter", "lon": -77.0362525, "bike_id": "a61f09e5f0a38c95ae41d5980c3c16f1", "rental_uris": {"android": "https://dc.lft.to/lastmile_qr_scan", "ios": "https://dc.lft.to/lastmile_qr_scan"}, "name": "a61f09e5f0a38c95ae41d5980c3c16f1", "is_reserved": 0}, {"is_disabled": 0, "fusion_lon": 0.0, "fusion_lat": 0.0, "lat": 38.879472, "type": "electric_scooter", "lon": -77.00893216666667, "bike_id": "1691f07b6f476b7d5994bad212383fa0", "rental_uris": {"android": "https://dc.lft.to/lastmile_qr_scan", "ios": "https://dc.lft.to/lastmile_qr_scan"}, "name": "1691f07b6f476b7d5994bad212383fa0", "is_reserved": 0}, {"is_disabled": 0, "fusion_lon": 0.0, "fusion_lat": 0.0, "lat": 39.007829, "type": "electric_bike", "lon": -76.99569933333333, "bike_id": "00a17f9331b864ec346b51e15d22e10d", "rental_uris": {"android": "https://dc.lft.to/lastmile_qr_scan", "ios": "https://dc.lft.to/lastmile_qr_scan"}, "name": "00a17f9331b864ec346b51e15d22e10d", "is_reserved": 0}, {"is_disabled": 0, "fusion_lon": 0.0, "fusion_lat": 0.0, "lat": 38.9006035, "type": "electric_scooter", "lon": -77.00206883333334, "bike_id": "2bef9cb2a50cbe62312ccf8d319164f8", "rental_uris": {"android": "https://dc.lft.to/lastmile_qr_scan", "ios": "https://dc.lft.to/lastmile_qr_scan"}, "name": "2bef9cb2a50cbe62312ccf8d319164f8", "is_reserved": 0}, {"is_disabled": 0, "fusion_lon": 0.0, "fusion_lat": 0.0, "lat": 38.94287716666667, "type": "electric_bike", "lon": -77.02805266666667, "bike_id": "35ddc99d2319fac0790fb6d1eab6e730", "rental_uris": {"android": "https://dc.lft.to/lastmile_qr_scan", "ios": "https://dc.lft.to/lastmile_qr_scan"}, "name": "35ddc99d2319fac0790fb6d1eab6e730", "is_reserved": 0}, {"is_disabled": 0, "fusion_lon": 0.0, "fusion_lat": 0.0, "lat": 38.90533383333333, "type": "electric_bike", "lon": -77.05910583333333, "bike_id": "4a08eb550e5510012b56ae31f43f0b96", "rental_uris": {"android": "https://dc.lft.to/lastmile_qr_scan", "ios": "https://dc.lft.to/lastmile_qr_scan"}, "name": "4a08eb550e5510012b56ae31f43f0b96", "is_reserved": 0}, {"is_disabled": 0, "fusion_lon": 0.0, "fusion_lat": 0.0, "lat": 38.93555883333333, "type": "electric_scooter", "lon": -77.0590555, "bike_id": "bb1c7cf991eaf5a4d965bec15fc4e6ca", "rental_uris": {"android": "https://dc.lft.to/lastmile_qr_scan", "ios": "https://dc.lft.to/lastmile_qr_scan"}, "name": "bb1c7cf991eaf5a4d965bec15fc4e6ca", "is_reserved": 0}, {"is_disabled": 0, "fusion_lon": 0.0, "fusion_lat": 0.0, "lat": 38.89499033333333, "type": "electric_scooter", "lon": -77.0227335, "bike_id": "0ce319692003aaf00a3c66e73eccd1e0", "rental_uris": {"android": "https://dc.lft.to/lastmile_qr_scan", "ios": "https://dc.lft.to/lastmile_qr_scan"}, "name": "0ce319692003aaf00a3c66e73eccd1e0", "is_reserved": 0}, {"is_disabled": 0, "fusion_lon": 0.0, "fusion_lat": 0.0, "lat": 38.865185833333335, "type": "electric_scooter", "lon": -76.98969666666666, "bike_id": "52a9f6703e218b10604da550103c9b46", "rental_uris": {"android": "https://dc.lft.to/lastmile_qr_scan", "ios": "https://dc.lft.to/lastmile_qr_scan"}, "name": "52a9f6703e218b10604da550103c9b46", "is_reserved": 0}, {"is_disabled": 0, "fusion_lon": 0.0, "fusion_lat": 0.0, "lat": 38.90222633333333, "type": "electric_scooter", "lon": -77.0471355, "bike_id": "59875dddcee0753d5f55db478e035904", "rental_uris": {"android": "https://dc.lft.to/lastmile_qr_scan", "ios": "https://dc.lft.to/lastmile_qr_scan"}, "name": "59875dddcee0753d5f55db478e035904", "is_reserved": 0}, {"is_disabled": 0, "fusion_lon": 0.0, "fusion_lat": 0.0, "lat": 38.91184333333333, "type": "electric_scooter", "lon": -77.041551, "bike_id": "b9660a36899b0a067ed9dd125073cefd", "rental_uris": {"android": "https://dc.lft.to/lastmile_qr_scan", "ios": "https://dc.lft.to/lastmile_qr_scan"}, "name": "b9660a36899b0a067ed9dd125073cefd", "is_reserved": 0}, {"is_disabled": 0, "fusion_lon": 0.0, "fusion_lat": 0.0, "lat": 38.896321666666665, "type": "electric_bike", "lon": -77.033371, "bike_id": "184545cffbccfab7843839a65662bd78", "rental_uris": {"android": "https://dc.lft.to/lastmile_qr_scan", "ios": "https://dc.lft.to/lastmile_qr_scan"}, "name": "184545cffbccfab7843839a65662bd78", "is_reserved": 0}, {"is_disabled": 0, "fusion_lon": 0.0, "fusion_lat": 0.0, "lat": 38.896826833333336, "type": "electric_scooter", "lon": -76.93711433333333, "bike_id": "f5e18610883d68718c7842e1e5a60189", "rental_uris": {"android": "https://dc.lft.to/lastmile_qr_scan", "ios": "https://dc.lft.to/lastmile_qr_scan"}, "name": "f5e18610883d68718c7842e1e5a60189", "is_reserved": 0}, {"is_disabled": 0, "fusion_lon": 0.0, "fusion_lat": 0.0, "lat": 38.90410083333333, "type": "electric_scooter", "lon": -77.05136216666666, "bike_id": "7b453e1a2c60d31745017e9f613db3e1", "rental_uris": {"android": "https://dc.lft.to/lastmile_qr_scan", "ios": "https://dc.lft.to/lastmile_qr_scan"}, "name": "7b453e1a2c60d31745017e9f613db3e1", "is_reserved": 0}, {"is_disabled": 0, "fusion_lon": 0.0, "fusion_lat": 0.0, "lat": 38.900164, "type": "electric_scooter", "lon": -77.04486333333334, "bike_id": "424e4fbf6e93bb925c6221663e905cd3", "rental_uris": {"android": "https://dc.lft.to/lastmile_qr_scan", "ios": "https://dc.lft.to/lastmile_qr_scan"}, "name": "424e4fbf6e93bb925c6221663e905cd3", "is_reserved": 0}, {"is_disabled": 0, "fusion_lon": 0.0, "fusion_lat": 0.0, "lat": 38.91399966666667, "type": "electric_scooter", "lon": -77.02982016666667, "bike_id": "61fddae727b9bdef746d13922b1170d2", "rental_uris": {"android": "https://dc.lft.to/lastmile_qr_scan", "ios": "https://dc.lft.to/lastmile_qr_scan"}, "name": "61fddae727b9bdef746d13922b1170d2", "is_reserved": 0}, {"is_disabled": 0, "fusion_lon": 0.0, "fusion_lat": 0.0, "lat": 38.8972685, "type": "electric_scooter", "lon": -77.009316, "bike_id": "0a791c8da7224e83dbc68ad393147fc1", "rental_uris": {"android": "https://dc.lft.to/lastmile_qr_scan", "ios": "https://dc.lft.to/lastmile_qr_scan"}, "name": "0a791c8da7224e83dbc68ad393147fc1", "is_reserved": 0}, {"is_disabled": 0, "fusion_lon": 0.0, "fusion_lat": 0.0, "lat": 38.91538883333333, "type": "electric_scooter", "lon": -77.0126985, "bike_id": "7fc0fc8a092c89d6d16cc631a00b47fa", "rental_uris": {"android": "https://dc.lft.to/lastmile_qr_scan", "ios": "https://dc.lft.to/lastmile_qr_scan"}, "name": "7fc0fc8a092c89d6d16cc631a00b47fa", "is_reserved": 0}, {"is_disabled": 0, "fusion_lon": 0.0, "fusion_lat": 0.0, "lat": 39.02294116666667, "type": "electric_bike", "lon": -77.0210455, "bike_id": "3c56a2dafcfd5aebfd63c4df7e9dd0f7", "rental_uris": {"android": "https://dc.lft.to/lastmile_qr_scan", "ios": "https://dc.lft.to/lastmile_qr_scan"}, "name": "3c56a2dafcfd5aebfd63c4df7e9dd0f7", "is_reserved": 0}, {"is_disabled": 0, "fusion_lon": 0.0, "fusion_lat": 0.0, "lat": 38.898447166666664, "type": "electric_scooter", "lon": -76.94495816666667, "bike_id": "79773d1eb68a733957908e265e2c1ecf", "rental_uris": {"android": "https://dc.lft.to/lastmile_qr_scan", "ios": "https://dc.lft.to/lastmile_qr_scan"}, "name": "79773d1eb68a733957908e265e2c1ecf", "is_reserved": 0}, {"is_disabled": 0, "fusion_lon": 0.0, "fusion_lat": 0.0, "lat": 38.8766875, "type": "electric_scooter", "lon": -77.01584083333333, "bike_id": "948aec8122996a797b01c5c4d8df0401", "rental_uris": {"android": "https://dc.lft.to/lastmile_qr_scan", "ios": "https://dc.lft.to/lastmile_qr_scan"}, "name": "948aec8122996a797b01c5c4d8df0401", "is_reserved": 0}, {"is_disabled": 0, "fusion_lon": 0.0, "fusion_lat": 0.0, "lat": 38.87685416666667, "type": "electric_scooter", "lon": -77.00068433333334, "bike_id": "87da8c640b474b5445717c2e78981159", "rental_uris": {"android": "https://dc.lft.to/lastmile_qr_scan", "ios": "https://dc.lft.to/lastmile_qr_scan"}, "name": "87da8c640b474b5445717c2e78981159", "is_reserved": 0}, {"is_disabled": 0, "fusion_lon": 0.0, "fusion_lat": 0.0, "lat": 38.91749166666666, "type": "electric_scooter", "lon": -77.04764066666667, "bike_id": "a08cc6601cd1d8b20b3696cf70cb8105", "rental_uris": {"android": "https://dc.lft.to/lastmile_qr_scan", "ios": "https://dc.lft.to/lastmile_qr_scan"}, "name": "a08cc6601cd1d8b20b3696cf70cb8105", "is_reserved": 0}, {"is_disabled": 0, "fusion_lon": 0.0, "fusion_lat": 0.0, "lat": 38.901616, "type": "electric_bike", "lon": -76.98646133333334, "bike_id": "5af37cd1db2cf2033ed40fcddf4f064b", "rental_uris": {"android": "https://dc.lft.to/lastmile_qr_scan", "ios": "https://dc.lft.to/lastmile_qr_scan"}, "name": "5af37cd1db2cf2033ed40fcddf4f064b", "is_reserved": 0}, {"is_disabled": 0, "fusion_lon": 0.0, "fusion_lat": 0.0, "lat": 38.92700083333333, "type": "electric_scooter", "lon": -77.023073, "bike_id": "8917dda011f9316d768548ef05c295a4", "rental_uris": {"android": "https://dc.lft.to/lastmile_qr_scan", "ios": "https://dc.lft.to/lastmile_qr_scan"}, "name": "8917dda011f9316d768548ef05c295a4", "is_reserved": 0}, {"is_disabled": 0, "fusion_lon": 0.0, "fusion_lat": 0.0, "lat": 38.92792333333333, "type": "electric_scooter", "lon": -77.0315385, "bike_id": "98a5711198f2ba78a74dc1884e1cab6e", "rental_uris": {"android": "https://dc.lft.to/lastmile_qr_scan", "ios": "https://dc.lft.to/lastmile_qr_scan"}, "name": "98a5711198f2ba78a74dc1884e1cab6e", "is_reserved": 0}, {"is_disabled": 0, "fusion_lon": 0.0, "fusion_lat": 0.0, "lat": 38.852050166666665, "type": "electric_bike", "lon": -77.10129216666667, "bike_id": "1b0f8a4a866585dfc1e23358e00bd36a", "rental_uris": {"android": "https://dc.lft.to/lastmile_qr_scan", "ios": "https://dc.lft.to/lastmile_qr_scan"}, "name": "1b0f8a4a866585dfc1e23358e00bd36a", "is_reserved": 0}, {"is_disabled": 0, "fusion_lon": 0.0, "fusion_lat": 0.0, "lat": 38.8973435, "type": "electric_scooter", "lon": -77.02175233333334, "bike_id": "9d20eaf95ded4820384a9cbf528af996", "rental_uris": {"android": "https://dc.lft.to/lastmile_qr_scan", "ios": "https://dc.lft.to/lastmile_qr_scan"}, "name": "9d20eaf95ded4820384a9cbf528af996", "is_reserved": 0}, {"is_disabled": 0, "fusion_lon": 0.0, "fusion_lat": 0.0, "lat": 38.92752333333333, "type": "electric_scooter", "lon": -77.00596366666667, "bike_id": "289e9b714ea3ee51d6eefa995ad6d005", "rental_uris": {"android": "https://dc.lft.to/lastmile_qr_scan", "ios": "https://dc.lft.to/lastmile_qr_scan"}, "name": "289e9b714ea3ee51d6eefa995ad6d005", "is_reserved": 0}, {"is_disabled": 0, "fusion_lon": 0.0, "fusion_lat": 0.0, "lat": 38.94641, "type": "electric_scooter", "lon": -77.0193695, "bike_id": "58636518dd79b27ff5b3d559440a380c", "rental_uris": {"android": "https://dc.lft.to/lastmile_qr_scan", "ios": "https://dc.lft.to/lastmile_qr_scan"}, "name": "58636518dd79b27ff5b3d559440a380c", "is_reserved": 0}, {"is_disabled": 0, "fusion_lon": 0.0, "fusion_lat": 0.0, "lat": 38.9163485, "type": "electric_scooter", "lon": -77.02702166666667, "bike_id": "29331a03b8945420278320eda7af1712", "rental_uris": {"android": "https://dc.lft.to/lastmile_qr_scan", "ios": "https://dc.lft.to/lastmile_qr_scan"}, "name": "29331a03b8945420278320eda7af1712", "is_reserved": 0}, {"is_disabled": 0, "fusion_lon": 0.0, "fusion_lat": 0.0, "lat": 38.8929735, "type": "electric_scooter", "lon": -76.989146, "bike_id": "7d3eafff119805210e1aa01bf198adc1", "rental_uris": {"android": "https://dc.lft.to/lastmile_qr_scan", "ios": "https://dc.lft.to/lastmile_qr_scan"}, "name": "7d3eafff119805210e1aa01bf198adc1", "is_reserved": 0}, {"is_disabled": 0, "fusion_lon": 0.0, "fusion_lat": 0.0, "lat": 38.942189166666665, "type": "electric_scooter", "lon": -77.02494933333334, "bike_id": "ccaa79dade2bc8c3976e3d662eb7b4f8", "rental_uris": {"android": "https://dc.lft.to/lastmile_qr_scan", "ios": "https://dc.lft.to/lastmile_qr_scan"}, "name": "ccaa79dade2bc8c3976e3d662eb7b4f8", "is_reserved": 0}, {"is_disabled": 0, "fusion_lon": 0.0, "fusion_lat": 0.0, "lat": 38.968015, "type": "electric_scooter", "lon": -77.02123033333334, "bike_id": "b28fa314c46a2bb75ab9dda4c6a1419c", "rental_uris": {"android": "https://dc.lft.to/lastmile_qr_scan", "ios": "https://dc.lft.to/lastmile_qr_scan"}, "name": "b28fa314c46a2bb75ab9dda4c6a1419c", "is_reserved": 0}, {"is_disabled": 0, "fusion_lon": 0.0, "fusion_lat": 0.0, "lat": 38.90574016666667, "type": "electric_scooter", "lon": -77.04387816666667, "bike_id": "91cb9be91c2deb130abef2e5e64100ec", "rental_uris": {"android": "https://dc.lft.to/lastmile_qr_scan", "ios": "https://dc.lft.to/lastmile_qr_scan"}, "name": "91cb9be91c2deb130abef2e5e64100ec", "is_reserved": 0}, {"is_disabled": 0, "fusion_lon": 0.0, "fusion_lat": 0.0, "lat": 38.940847833333336, "type": "electric_scooter", "lon": -77.038175, "bike_id": "b837a209ab69330553d72dd1ce70e544", "rental_uris": {"android": "https://dc.lft.to/lastmile_qr_scan", "ios": "https://dc.lft.to/lastmile_qr_scan"}, "name": "b837a209ab69330553d72dd1ce70e544", "is_reserved": 0}, {"is_disabled": 0, "fusion_lon": 0.0, "fusion_lat": 0.0, "lat": 38.905816333333334, "type": "electric_scooter", "lon": -77.04184733333334, "bike_id": "5e999730e5df82ede27a4d7243ddd356", "rental_uris": {"android": "https://dc.lft.to/lastmile_qr_scan", "ios": "https://dc.lft.to/lastmile_qr_scan"}, "name": "5e999730e5df82ede27a4d7243ddd356", "is_reserved": 0}, {"is_disabled": 0, "fusion_lon": 0.0, "fusion_lat": 0.0, "lat": 38.93862266666667, "type": "electric_scooter", "lon": -77.02785983333334, "bike_id": "451730a35259eb0a6a88e16498e3771c", "rental_uris": {"android": "https://dc.lft.to/lastmile_qr_scan", "ios": "https://dc.lft.to/lastmile_qr_scan"}, "name": "451730a35259eb0a6a88e16498e3771c", "is_reserved": 0}, {"is_disabled": 0, "fusion_lon": 0.0, "fusion_lat": 0.0, "lat": 38.87921683333333, "type": "electric_scooter", "lon": -76.94481066666667, "bike_id": "61de63181e8e54004a1771400def99db", "rental_uris": {"android": "https://dc.lft.to/lastmile_qr_scan", "ios": "https://dc.lft.to/lastmile_qr_scan"}, "name": "61de63181e8e54004a1771400def99db", "is_reserved": 0}, {"is_disabled": 0, "fusion_lon": 0.0, "fusion_lat": 0.0, "lat": 38.9716545, "type": "electric_bike", "lon": -76.9802355, "bike_id": "abd5a6b23085c84b13e76f02c1bd1981", "rental_uris": {"android": "https://dc.lft.to/lastmile_qr_scan", "ios": "https://dc.lft.to/lastmile_qr_scan"}, "name": "abd5a6b23085c84b13e76f02c1bd1981", "is_reserved": 0}, {"is_disabled": 0, "fusion_lon": 0.0, "fusion_lat": 0.0, "lat": 38.8950985, "type": "electric_scooter", "lon": -77.01123416666667, "bike_id": "af8557223b6073a997eaf0ef072b6000", "rental_uris": {"android": "https://dc.lft.to/lastmile_qr_scan", "ios": "https://dc.lft.to/lastmile_qr_scan"}, "name": "af8557223b6073a997eaf0ef072b6000", "is_reserved": 0}, {"is_disabled": 0, "fusion_lon": 0.0, "fusion_lat": 0.0, "lat": 38.954202, "type": "electric_scooter", "lon": -77.021733, "bike_id": "1c4584ab95875c98279fc1888da6a721", "rental_uris": {"android": "https://dc.lft.to/lastmile_qr_scan", "ios": "https://dc.lft.to/lastmile_qr_scan"}, "name": "1c4584ab95875c98279fc1888da6a721", "is_reserved": 0}, {"is_disabled": 0, "fusion_lon": 0.0, "fusion_lat": 0.0, "lat": 38.87460933333333, "type": "electric_scooter", "lon": -77.00918033333333, "bike_id": "cfae7f2d3305cf95279128a78545fea2", "rental_uris": {"android": "https://dc.lft.to/lastmile_qr_scan", "ios": "https://dc.lft.to/lastmile_qr_scan"}, "name": "cfae7f2d3305cf95279128a78545fea2", "is_reserved": 0}, {"is_disabled": 0, "fusion_lon": 0.0, "fusion_lat": 0.0, "lat": 38.9110135, "type": "electric_scooter", "lon": -77.042624, "bike_id": "c848556b0facfe12a7cebe6311116047", "rental_uris": {"android": "https://dc.lft.to/lastmile_qr_scan", "ios": "https://dc.lft.to/lastmile_qr_scan"}, "name": "c848556b0facfe12a7cebe6311116047", "is_reserved": 0}, {"is_disabled": 0, "fusion_lon": 0.0, "fusion_lat": 0.0, "lat": 38.9232955, "type": "electric_scooter", "lon": -77.03956316666667, "bike_id": "b2dcdacd5497d27569f020421e0399c2", "rental_uris": {"android": "https://dc.lft.to/lastmile_qr_scan", "ios": "https://dc.lft.to/lastmile_qr_scan"}, "name": "b2dcdacd5497d27569f020421e0399c2", "is_reserved": 0}, {"is_disabled": 0, "fusion_lon": 0.0, "fusion_lat": 0.0, "lat": 38.883699166666666, "type": "electric_scooter", "lon": -76.9237265, "bike_id": "bf545eafca4e5d091248b2bd0614cd46", "rental_uris": {"android": "https://dc.lft.to/lastmile_qr_scan", "ios": "https://dc.lft.to/lastmile_qr_scan"}, "name": "bf545eafca4e5d091248b2bd0614cd46", "is_reserved": 0}, {"is_disabled": 0, "fusion_lon": 0.0, "fusion_lat": 0.0, "lat": 38.939774666666665, "type": "electric_scooter", "lon": -77.03039783333334, "bike_id": "348da2e164f5de845cd3ab108d225c9c", "rental_uris": {"android": "https://dc.lft.to/lastmile_qr_scan", "ios": "https://dc.lft.to/lastmile_qr_scan"}, "name": "348da2e164f5de845cd3ab108d225c9c", "is_reserved": 0}, {"is_disabled": 0, "fusion_lon": 0.0, "fusion_lat": 0.0, "lat": 38.911912666666666, "type": "electric_scooter", "lon": -77.0384845, "bike_id": "da6fc2fec521155f4f6cb9f61c828ec1", "rental_uris": {"android": "https://dc.lft.to/lastmile_qr_scan", "ios": "https://dc.lft.to/lastmile_qr_scan"}, "name": "da6fc2fec521155f4f6cb9f61c828ec1", "is_reserved": 0}, {"is_disabled": 0, "fusion_lon": 0.0, "fusion_lat": 0.0, "lat": 38.916568833333336, "type": "electric_scooter", "lon": -77.0465355, "bike_id": "6aff1fe763e975dd75748d5b4e33bde3", "rental_uris": {"android": "https://dc.lft.to/lastmile_qr_scan", "ios": "https://dc.lft.to/lastmile_qr_scan"}, "name": "6aff1fe763e975dd75748d5b4e33bde3", "is_reserved": 0}, {"is_disabled": 0, "fusion_lon": 0.0, "fusion_lat": 0.0, "lat": 38.90880833333333, "type": "electric_scooter", "lon": -77.075358, "bike_id": "b0848229ec11af6b137e615959e5732d", "rental_uris": {"android": "https://dc.lft.to/lastmile_qr_scan", "ios": "https://dc.lft.to/lastmile_qr_scan"}, "name": "b0848229ec11af6b137e615959e5732d", "is_reserved": 0}, {"is_disabled": 0, "fusion_lon": 0.0, "fusion_lat": 0.0, "lat": 38.909713333333336, "type": "electric_scooter", "lon": -77.01935166666667, "bike_id": "a88db8d903f187fc9c54ea2aeefef6b0", "rental_uris": {"android": "https://dc.lft.to/lastmile_qr_scan", "ios": "https://dc.lft.to/lastmile_qr_scan"}, "name": "a88db8d903f187fc9c54ea2aeefef6b0", "is_reserved": 0}, {"is_disabled": 0, "fusion_lon": 0.0, "fusion_lat": 0.0, "lat": 38.908625, "type": "electric_scooter", "lon": -77.06404083333334, "bike_id": "b69f5350d88e9ef801a2926e99b41e37", "rental_uris": {"android": "https://dc.lft.to/lastmile_qr_scan", "ios": "https://dc.lft.to/lastmile_qr_scan"}, "name": "b69f5350d88e9ef801a2926e99b41e37", "is_reserved": 0}, {"is_disabled": 0, "fusion_lon": 0.0, "fusion_lat": 0.0, "lat": 38.91707066666667, "type": "electric_scooter", "lon": -77.02605616666666, "bike_id": "f71d89a08daef727faa7d5e7228c0df8", "rental_uris": {"android": "https://dc.lft.to/lastmile_qr_scan", "ios": "https://dc.lft.to/lastmile_qr_scan"}, "name": "f71d89a08daef727faa7d5e7228c0df8", "is_reserved": 0}, {"is_disabled": 0, "fusion_lon": 0.0, "fusion_lat": 0.0, "lat": 38.906659833333336, "type": "electric_scooter", "lon": -77.02707733333334, "bike_id": "811d12d159aab896b094acce3d41d8b9", "rental_uris": {"android": "https://dc.lft.to/lastmile_qr_scan", "ios": "https://dc.lft.to/lastmile_qr_scan"}, "name": "811d12d159aab896b094acce3d41d8b9", "is_reserved": 0}, {"is_disabled": 0, "fusion_lon": 0.0, "fusion_lat": 0.0, "lat": 38.921269833333334, "type": "electric_scooter", "lon": -76.99579966666667, "bike_id": "d0577377dc9ed12ff0be0366e3d2dbfe", "rental_uris": {"android": "https://dc.lft.to/lastmile_qr_scan", "ios": "https://dc.lft.to/lastmile_qr_scan"}, "name": "d0577377dc9ed12ff0be0366e3d2dbfe", "is_reserved": 0}, {"is_disabled": 0, "fusion_lon": 0.0, "fusion_lat": 0.0, "lat": 38.95731633333333, "type": "electric_scooter", "lon": -77.02405316666666, "bike_id": "3690499f1bdf9afe49929cd794c4887f", "rental_uris": {"android": "https://dc.lft.to/lastmile_qr_scan", "ios": "https://dc.lft.to/lastmile_qr_scan"}, "name": "3690499f1bdf9afe49929cd794c4887f", "is_reserved": 0}, {"is_disabled": 0, "fusion_lon": 0.0, "fusion_lat": 0.0, "lat": 38.91381583333333, "type": "electric_scooter", "lon": -77.029706, "bike_id": "4235265f8766512265255dc9f26ef421", "rental_uris": {"android": "https://dc.lft.to/lastmile_qr_scan", "ios": "https://dc.lft.to/lastmile_qr_scan"}, "name": "4235265f8766512265255dc9f26ef421", "is_reserved": 0}, {"is_disabled": 0, "fusion_lon": 0.0, "fusion_lat": 0.0, "lat": 38.90059133333333, "type": "electric_scooter", "lon": -76.986845, "bike_id": "a7c0aa11b9624e67e0061db64f08f619", "rental_uris": {"android": "https://dc.lft.to/lastmile_qr_scan", "ios": "https://dc.lft.to/lastmile_qr_scan"}, "name": "a7c0aa11b9624e67e0061db64f08f619", "is_reserved": 0}, {"is_disabled": 0, "fusion_lon": 0.0, "fusion_lat": 0.0, "lat": 38.904810499999996, "type": "electric_scooter", "lon": -77.04840383333334, "bike_id": "19b0651e957ae8b96e1a0ff5ed8e4dae", "rental_uris": {"android": "https://dc.lft.to/lastmile_qr_scan", "ios": "https://dc.lft.to/lastmile_qr_scan"}, "name": "19b0651e957ae8b96e1a0ff5ed8e4dae", "is_reserved": 0}, {"is_disabled": 0, "fusion_lon": 0.0, "fusion_lat": 0.0, "lat": 38.916879, "type": "electric_scooter", "lon": -77.04272866666666, "bike_id": "f5c82d0703566542c032e890d8425f6c", "rental_uris": {"android": "https://dc.lft.to/lastmile_qr_scan", "ios": "https://dc.lft.to/lastmile_qr_scan"}, "name": "f5c82d0703566542c032e890d8425f6c", "is_reserved": 0}, {"is_disabled": 0, "fusion_lon": 0.0, "fusion_lat": 0.0, "lat": 38.91305883333333, "type": "electric_scooter", "lon": -77.03189166666667, "bike_id": "54666ac13b6d00e26f7db92b1e79b272", "rental_uris": {"android": "https://dc.lft.to/lastmile_qr_scan", "ios": "https://dc.lft.to/lastmile_qr_scan"}, "name": "54666ac13b6d00e26f7db92b1e79b272", "is_reserved": 0}, {"is_disabled": 0, "fusion_lon": 0.0, "fusion_lat": 0.0, "lat": 38.900265, "type": "electric_scooter", "lon": -77.01198433333333, "bike_id": "c5b4136625a3bec8c212266670347dc6", "rental_uris": {"android": "https://dc.lft.to/lastmile_qr_scan", "ios": "https://dc.lft.to/lastmile_qr_scan"}, "name": "c5b4136625a3bec8c212266670347dc6", "is_reserved": 0}, {"is_disabled": 0, "fusion_lon": 0.0, "fusion_lat": 0.0, "lat": 38.92536233333333, "type": "electric_scooter", "lon": -77.04054183333334, "bike_id": "7f537f9d721e155f4f54962332b1d7d9", "rental_uris": {"android": "https://dc.lft.to/lastmile_qr_scan", "ios": "https://dc.lft.to/lastmile_qr_scan"}, "name": "7f537f9d721e155f4f54962332b1d7d9", "is_reserved": 0}, {"is_disabled": 0, "fusion_lon": 0.0, "fusion_lat": 0.0, "lat": 38.91982316666667, "type": "electric_scooter", "lon": -77.032664, "bike_id": "5de7e45d54f9d2e1bec8b3224c47a480", "rental_uris": {"android": "https://dc.lft.to/lastmile_qr_scan", "ios": "https://dc.lft.to/lastmile_qr_scan"}, "name": "5de7e45d54f9d2e1bec8b3224c47a480", "is_reserved": 0}, {"is_disabled": 0, "fusion_lon": 0.0, "fusion_lat": 0.0, "lat": 38.91794316666667, "type": "electric_scooter", "lon": -77.03274633333334, "bike_id": "1b3bbd868507f7c221c1837c5dbc7452", "rental_uris": {"android": "https://dc.lft.to/lastmile_qr_scan", "ios": "https://dc.lft.to/lastmile_qr_scan"}, "name": "1b3bbd868507f7c221c1837c5dbc7452", "is_reserved": 0}, {"is_disabled": 0, "fusion_lon": 0.0, "fusion_lat": 0.0, "lat": 38.90787266666667, "type": "electric_scooter", "lon": -77.00968366666666, "bike_id": "7088ced7cdabba569c2ac73a6fcb12a5", "rental_uris": {"android": "https://dc.lft.to/lastmile_qr_scan", "ios": "https://dc.lft.to/lastmile_qr_scan"}, "name": "7088ced7cdabba569c2ac73a6fcb12a5", "is_reserved": 0}, {"is_disabled": 0, "fusion_lon": 0.0, "fusion_lat": 0.0, "lat": 38.840943833333334, "type": "electric_bike", "lon": -77.08940916666667, "bike_id": "61d76611d974d80e81d607547be6e166", "rental_uris": {"android": "https://dc.lft.to/lastmile_qr_scan", "ios": "https://dc.lft.to/lastmile_qr_scan"}, "name": "61d76611d974d80e81d607547be6e166", "is_reserved": 0}, {"is_disabled": 0, "fusion_lon": 0.0, "fusion_lat": 0.0, "lat": 38.9127515, "type": "electric_scooter", "lon": -77.038637, "bike_id": "e3041f4cbfda5f3a6983dc020915bf0a", "rental_uris": {"android": "https://dc.lft.to/lastmile_qr_scan", "ios": "https://dc.lft.to/lastmile_qr_scan"}, "name": "e3041f4cbfda5f3a6983dc020915bf0a", "is_reserved": 0}, {"is_disabled": 0, "fusion_lon": 0.0, "fusion_lat": 0.0, "lat": 38.9299015, "type": "electric_scooter", "lon": -77.01980333333333, "bike_id": "3caf87fccf489f6622e809c105bf37de", "rental_uris": {"android": "https://dc.lft.to/lastmile_qr_scan", "ios": "https://dc.lft.to/lastmile_qr_scan"}, "name": "3caf87fccf489f6622e809c105bf37de", "is_reserved": 0}, {"is_disabled": 0, "fusion_lon": 0.0, "fusion_lat": 0.0, "lat": 38.903817833333335, "type": "electric_scooter", "lon": -77.0177825, "bike_id": "3caf4d035f2ac4b06be283713b845ae3", "rental_uris": {"android": "https://dc.lft.to/lastmile_qr_scan", "ios": "https://dc.lft.to/lastmile_qr_scan"}, "name": "3caf4d035f2ac4b06be283713b845ae3", "is_reserved": 0}, {"is_disabled": 0, "fusion_lon": 0.0, "fusion_lat": 0.0, "lat": 38.89673483333333, "type": "electric_bike", "lon": -76.9406245, "bike_id": "ae11d861fbb7967dc2f574fc197f4977", "rental_uris": {"android": "https://dc.lft.to/lastmile_qr_scan", "ios": "https://dc.lft.to/lastmile_qr_scan"}, "name": "ae11d861fbb7967dc2f574fc197f4977", "is_reserved": 0}, {"is_disabled": 0, "fusion_lon": 0.0, "fusion_lat": 0.0, "lat": 38.916014833333335, "type": "electric_scooter", "lon": -77.03132566666666, "bike_id": "d9981796494c27da13e224d36a8faa70", "rental_uris": {"android": "https://dc.lft.to/lastmile_qr_scan", "ios": "https://dc.lft.to/lastmile_qr_scan"}, "name": "d9981796494c27da13e224d36a8faa70", "is_reserved": 0}, {"is_disabled": 0, "fusion_lon": 0.0, "fusion_lat": 0.0, "lat": 38.94199783333333, "type": "electric_scooter", "lon": -77.02589766666667, "bike_id": "0c9b173a26a7c3e3ef223058209212f4", "rental_uris": {"android": "https://dc.lft.to/lastmile_qr_scan", "ios": "https://dc.lft.to/lastmile_qr_scan"}, "name": "0c9b173a26a7c3e3ef223058209212f4", "is_reserved": 0}, {"is_disabled": 0, "fusion_lon": 0.0, "fusion_lat": 0.0, "lat": 38.86521066666667, "type": "electric_scooter", "lon": -76.98969316666667, "bike_id": "39a3ffdd8dc64670ceca0f5260670e3e", "rental_uris": {"android": "https://dc.lft.to/lastmile_qr_scan", "ios": "https://dc.lft.to/lastmile_qr_scan"}, "name": "39a3ffdd8dc64670ceca0f5260670e3e", "is_reserved": 0}, {"is_disabled": 0, "fusion_lon": 0.0, "fusion_lat": 0.0, "lat": 38.858055666666665, "type": "electric_scooter", "lon": -76.98657466666667, "bike_id": "036235d990a9cffdfdd2479602b4faf4", "rental_uris": {"android": "https://dc.lft.to/lastmile_qr_scan", "ios": "https://dc.lft.to/lastmile_qr_scan"}, "name": "036235d990a9cffdfdd2479602b4faf4", "is_reserved": 0}, {"is_disabled": 0, "fusion_lon": 0.0, "fusion_lat": 0.0, "lat": 38.939184833333336, "type": "electric_scooter", "lon": -77.02465516666666, "bike_id": "c5a4c325768c1f0cfffce1dbf95e8668", "rental_uris": {"android": "https://dc.lft.to/lastmile_qr_scan", "ios": "https://dc.lft.to/lastmile_qr_scan"}, "name": "c5a4c325768c1f0cfffce1dbf95e8668", "is_reserved": 0}, {"is_disabled": 0, "fusion_lon": 0.0, "fusion_lat": 0.0, "lat": 38.92603883333334, "type": "electric_scooter", "lon": -77.05705416666666, "bike_id": "1c7342d0c5ab6412248aaf3bcc29512d", "rental_uris": {"android": "https://dc.lft.to/lastmile_qr_scan", "ios": "https://dc.lft.to/lastmile_qr_scan"}, "name": "1c7342d0c5ab6412248aaf3bcc29512d", "is_reserved": 0}, {"is_disabled": 0, "fusion_lon": 0.0, "fusion_lat": 0.0, "lat": 38.950783333333334, "type": "electric_bike", "lon": -77.01251666666667, "bike_id": "7f22ff5fac675d66abc9f7e882c3834e", "rental_uris": {"android": "https://dc.lft.to/lastmile_qr_scan", "ios": "https://dc.lft.to/lastmile_qr_scan"}, "name": "7f22ff5fac675d66abc9f7e882c3834e", "is_reserved": 0}, {"is_disabled": 0, "fusion_lon": 0.0, "fusion_lat": 0.0, "lat": 38.9068515, "type": "electric_scooter", "lon": -76.98007866666667, "bike_id": "e7666ab60e529bc20eb649f3a3463b94", "rental_uris": {"android": "https://dc.lft.to/lastmile_qr_scan", "ios": "https://dc.lft.to/lastmile_qr_scan"}, "name": "e7666ab60e529bc20eb649f3a3463b94", "is_reserved": 0}, {"is_disabled": 0, "fusion_lon": 0.0, "fusion_lat": 0.0, "lat": 38.927513166666664, "type": "electric_scooter", "lon": -77.033598, "bike_id": "c4dda8a9d2576eb839ded4f5dc157ad5", "rental_uris": {"android": "https://dc.lft.to/lastmile_qr_scan", "ios": "https://dc.lft.to/lastmile_qr_scan"}, "name": "c4dda8a9d2576eb839ded4f5dc157ad5", "is_reserved": 0}, {"is_disabled": 0, "fusion_lon": 0.0, "fusion_lat": 0.0, "lat": 38.91181683333333, "type": "electric_scooter", "lon": -77.035053, "bike_id": "4ab08d62215236a88ecd294b3ee9b3b8", "rental_uris": {"android": "https://dc.lft.to/lastmile_qr_scan", "ios": "https://dc.lft.to/lastmile_qr_scan"}, "name": "4ab08d62215236a88ecd294b3ee9b3b8", "is_reserved": 0}, {"is_disabled": 0, "fusion_lon": 0.0, "fusion_lat": 0.0, "lat": 38.907364333333334, "type": "electric_scooter", "lon": -76.99912383333333, "bike_id": "ac640c33c00bd6a7a68dd7aa2c5b7b66", "rental_uris": {"android": "https://dc.lft.to/lastmile_qr_scan", "ios": "https://dc.lft.to/lastmile_qr_scan"}, "name": "ac640c33c00bd6a7a68dd7aa2c5b7b66", "is_reserved": 0}, {"is_disabled": 0, "fusion_lon": 0.0, "fusion_lat": 0.0, "lat": 38.903367333333335, "type": "electric_scooter", "lon": -77.03832983333334, "bike_id": "5a7ab8c641438efcc5342ac8607055ea", "rental_uris": {"android": "https://dc.lft.to/lastmile_qr_scan", "ios": "https://dc.lft.to/lastmile_qr_scan"}, "name": "5a7ab8c641438efcc5342ac8607055ea", "is_reserved": 0}, {"is_disabled": 0, "fusion_lon": 0.0, "fusion_lat": 0.0, "lat": 38.90862683333334, "type": "electric_scooter", "lon": -77.03543633333334, "bike_id": "0b1faf1ffe0ad22274277e4629086d2b", "rental_uris": {"android": "https://dc.lft.to/lastmile_qr_scan", "ios": "https://dc.lft.to/lastmile_qr_scan"}, "name": "0b1faf1ffe0ad22274277e4629086d2b", "is_reserved": 0}, {"is_disabled": 0, "fusion_lon": 0.0, "fusion_lat": 0.0, "lat": 38.903634, "type": "electric_scooter", "lon": -77.00345866666666, "bike_id": "93889f5c03a73dbf4a2884e1c4623da6", "rental_uris": {"android": "https://dc.lft.to/lastmile_qr_scan", "ios": "https://dc.lft.to/lastmile_qr_scan"}, "name": "93889f5c03a73dbf4a2884e1c4623da6", "is_reserved": 0}, {"is_disabled": 0, "fusion_lon": 0.0, "fusion_lat": 0.0, "lat": 38.9471555, "type": "electric_scooter", "lon": -77.03325883333333, "bike_id": "07d269418b94d73370b0d35ee4b6bb9e", "rental_uris": {"android": "https://dc.lft.to/lastmile_qr_scan", "ios": "https://dc.lft.to/lastmile_qr_scan"}, "name": "07d269418b94d73370b0d35ee4b6bb9e", "is_reserved": 0}, {"is_disabled": 0, "fusion_lon": 0.0, "fusion_lat": 0.0, "lat": 38.906715166666665, "type": "electric_scooter", "lon": -77.0270925, "bike_id": "aeaf95ddc55c6584eecae47763808b5e", "rental_uris": {"android": "https://dc.lft.to/lastmile_qr_scan", "ios": "https://dc.lft.to/lastmile_qr_scan"}, "name": "aeaf95ddc55c6584eecae47763808b5e", "is_reserved": 0}, {"is_disabled": 0, "fusion_lon": 0.0, "fusion_lat": 0.0, "lat": 38.87805766666666, "type": "electric_scooter", "lon": -77.01967666666667, "bike_id": "1b2435c40f29568d98795e114174eb90", "rental_uris": {"android": "https://dc.lft.to/lastmile_qr_scan", "ios": "https://dc.lft.to/lastmile_qr_scan"}, "name": "1b2435c40f29568d98795e114174eb90", "is_reserved": 0}, {"is_disabled": 0, "fusion_lon": 0.0, "fusion_lat": 0.0, "lat": 38.941846166666664, "type": "electric_scooter", "lon": -77.02492, "bike_id": "0f2a007a5d95593050d7ea02ef2549be", "rental_uris": {"android": "https://dc.lft.to/lastmile_qr_scan", "ios": "https://dc.lft.to/lastmile_qr_scan"}, "name": "0f2a007a5d95593050d7ea02ef2549be", "is_reserved": 0}, {"is_disabled": 0, "fusion_lon": 0.0, "fusion_lat": 0.0, "lat": 38.87952266666667, "type": "electric_scooter", "lon": -77.00505416666667, "bike_id": "ebb1852f418bf4d076da8db89cba5260", "rental_uris": {"android": "https://dc.lft.to/lastmile_qr_scan", "ios": "https://dc.lft.to/lastmile_qr_scan"}, "name": "ebb1852f418bf4d076da8db89cba5260", "is_reserved": 0}, {"is_disabled": 0, "fusion_lon": 0.0, "fusion_lat": 0.0, "lat": 38.876804166666666, "type": "electric_scooter", "lon": -77.00067083333333, "bike_id": "5feddc77330f73433e2a6e944b6605ad", "rental_uris": {"android": "https://dc.lft.to/lastmile_qr_scan", "ios": "https://dc.lft.to/lastmile_qr_scan"}, "name": "5feddc77330f73433e2a6e944b6605ad", "is_reserved": 0}, {"is_disabled": 0, "fusion_lon": 0.0, "fusion_lat": 0.0, "lat": 38.961223833333335, "type": "electric_scooter", "lon": -77.01983033333333, "bike_id": "e6a6899b71d576c233a990ea406d3bae", "rental_uris": {"android": "https://dc.lft.to/lastmile_qr_scan", "ios": "https://dc.lft.to/lastmile_qr_scan"}, "name": "e6a6899b71d576c233a990ea406d3bae", "is_reserved": 0}, {"is_disabled": 0, "fusion_lon": 0.0, "fusion_lat": 0.0, "lat": 38.93314983333333, "type": "electric_scooter", "lon": -77.08185683333333, "bike_id": "ee0a1da754cf4472f895bc18fb7dcda4", "rental_uris": {"android": "https://dc.lft.to/lastmile_qr_scan", "ios": "https://dc.lft.to/lastmile_qr_scan"}, "name": "ee0a1da754cf4472f895bc18fb7dcda4", "is_reserved": 0}, {"is_disabled": 0, "fusion_lon": 0.0, "fusion_lat": 0.0, "lat": 38.9358685, "type": "electric_bike", "lon": -77.08253533333334, "bike_id": "d05ad9618cd9b910520cc44fbae9a68d", "rental_uris": {"android": "https://dc.lft.to/lastmile_qr_scan", "ios": "https://dc.lft.to/lastmile_qr_scan"}, "name": "d05ad9618cd9b910520cc44fbae9a68d", "is_reserved": 0}, {"is_disabled": 0, "fusion_lon": 0.0, "fusion_lat": 0.0, "lat": 38.8975005, "type": "electric_scooter", "lon": -77.02180166666666, "bike_id": "41025c02d2316531779fd0a0196fbb05", "rental_uris": {"android": "https://dc.lft.to/lastmile_qr_scan", "ios": "https://dc.lft.to/lastmile_qr_scan"}, "name": "41025c02d2316531779fd0a0196fbb05", "is_reserved": 0}, {"is_disabled": 0, "fusion_lon": 0.0, "fusion_lat": 0.0, "lat": 38.89248883333333, "type": "electric_scooter", "lon": -77.03183583333333, "bike_id": "1c71b4498ae28b028390be4cd03ec442", "rental_uris": {"android": "https://dc.lft.to/lastmile_qr_scan", "ios": "https://dc.lft.to/lastmile_qr_scan"}, "name": "1c71b4498ae28b028390be4cd03ec442", "is_reserved": 0}, {"is_disabled": 0, "fusion_lon": 0.0, "fusion_lat": 0.0, "lat": 38.9037495, "type": "electric_scooter", "lon": -77.0176795, "bike_id": "5e2765a11d73ba01b0399193bd6b182c", "rental_uris": {"android": "https://dc.lft.to/lastmile_qr_scan", "ios": "https://dc.lft.to/lastmile_qr_scan"}, "name": "5e2765a11d73ba01b0399193bd6b182c", "is_reserved": 0}, {"is_disabled": 0, "fusion_lon": 0.0, "fusion_lat": 0.0, "lat": 38.874718, "type": "electric_scooter", "lon": -77.00519216666666, "bike_id": "276a7b4d3adc090137c10fa2e141bbc1", "rental_uris": {"android": "https://dc.lft.to/lastmile_qr_scan", "ios": "https://dc.lft.to/lastmile_qr_scan"}, "name": "276a7b4d3adc090137c10fa2e141bbc1", "is_reserved": 0}, {"is_disabled": 0, "fusion_lon": 0.0, "fusion_lat": 0.0, "lat": 38.9753595, "type": "electric_bike", "lon": -76.995292, "bike_id": "2652c9b94b91dd250a0b70a6ac702c6f", "rental_uris": {"android": "https://dc.lft.to/lastmile_qr_scan", "ios": "https://dc.lft.to/lastmile_qr_scan"}, "name": "2652c9b94b91dd250a0b70a6ac702c6f", "is_reserved": 0}, {"is_disabled": 0, "fusion_lon": 0.0, "fusion_lat": 0.0, "lat": 38.9147805, "type": "electric_scooter", "lon": -77.04160166666666, "bike_id": "b66e472377b69d0cc0cf1adeada11c74", "rental_uris": {"android": "https://dc.lft.to/lastmile_qr_scan", "ios": "https://dc.lft.to/lastmile_qr_scan"}, "name": "b66e472377b69d0cc0cf1adeada11c74", "is_reserved": 0}, {"is_disabled": 0, "fusion_lon": 0.0, "fusion_lat": 0.0, "lat": 38.904598, "type": "electric_scooter", "lon": -77.03559766666666, "bike_id": "4ae9c1e41a73196b033e7b5b6ae1bbc9", "rental_uris": {"android": "https://dc.lft.to/lastmile_qr_scan", "ios": "https://dc.lft.to/lastmile_qr_scan"}, "name": "4ae9c1e41a73196b033e7b5b6ae1bbc9", "is_reserved": 0}, {"is_disabled": 0, "fusion_lon": 0.0, "fusion_lat": 0.0, "lat": 38.902653, "type": "electric_scooter", "lon": -77.03377416666666, "bike_id": "d9c37632762f68897bb5eb6e8690fbe4", "rental_uris": {"android": "https://dc.lft.to/lastmile_qr_scan", "ios": "https://dc.lft.to/lastmile_qr_scan"}, "name": "d9c37632762f68897bb5eb6e8690fbe4", "is_reserved": 0}, {"is_disabled": 0, "fusion_lon": 0.0, "fusion_lat": 0.0, "lat": 38.915850666666664, "type": "electric_bike", "lon": -76.97149866666666, "bike_id": "944b7227f4d1aa20a6c7b90e867c4312", "rental_uris": {"android": "https://dc.lft.to/lastmile_qr_scan", "ios": "https://dc.lft.to/lastmile_qr_scan"}, "name": "944b7227f4d1aa20a6c7b90e867c4312", "is_reserved": 0}, {"is_disabled": 0, "fusion_lon": 0.0, "fusion_lat": 0.0, "lat": 38.905804833333335, "type": "electric_scooter", "lon": -77.04187816666666, "bike_id": "830568f6957a009c2b027771f258db14", "rental_uris": {"android": "https://dc.lft.to/lastmile_qr_scan", "ios": "https://dc.lft.to/lastmile_qr_scan"}, "name": "830568f6957a009c2b027771f258db14", "is_reserved": 0}, {"is_disabled": 0, "fusion_lon": 0.0, "fusion_lat": 0.0, "lat": 38.907157833333336, "type": "electric_scooter", "lon": -77.022771, "bike_id": "f2a67115c9acf5576b27cd6a3cd69531", "rental_uris": {"android": "https://dc.lft.to/lastmile_qr_scan", "ios": "https://dc.lft.to/lastmile_qr_scan"}, "name": "f2a67115c9acf5576b27cd6a3cd69531", "is_reserved": 0}, {"is_disabled": 0, "fusion_lon": 0.0, "fusion_lat": 0.0, "lat": 38.91979966666667, "type": "electric_bike", "lon": -76.973113, "bike_id": "7f422389c7f6fa5c25998af4d2515d12", "rental_uris": {"android": "https://dc.lft.to/lastmile_qr_scan", "ios": "https://dc.lft.to/lastmile_qr_scan"}, "name": "7f422389c7f6fa5c25998af4d2515d12", "is_reserved": 0}, {"is_disabled": 0, "fusion_lon": 0.0, "fusion_lat": 0.0, "lat": 38.914371833333334, "type": "electric_scooter", "lon": -77.01059016666666, "bike_id": "0ae47ec5ebf4a6bb8e2e6150e302f74f", "rental_uris": {"android": "https://dc.lft.to/lastmile_qr_scan", "ios": "https://dc.lft.to/lastmile_qr_scan"}, "name": "0ae47ec5ebf4a6bb8e2e6150e302f74f", "is_reserved": 0}, {"is_disabled": 0, "fusion_lon": 0.0, "fusion_lat": 0.0, "lat": 38.90569683333333, "type": "electric_scooter", "lon": -76.97627866666667, "bike_id": "e932c2d7515e9a5d888f31159ef8d720", "rental_uris": {"android": "https://dc.lft.to/lastmile_qr_scan", "ios": "https://dc.lft.to/lastmile_qr_scan"}, "name": "e932c2d7515e9a5d888f31159ef8d720", "is_reserved": 0}, {"is_disabled": 0, "fusion_lon": 0.0, "fusion_lat": 0.0, "lat": 38.89224183333333, "type": "electric_scooter", "lon": -77.02206516666666, "bike_id": "a77c911def4320c32ff080da844539cc", "rental_uris": {"android": "https://dc.lft.to/lastmile_qr_scan", "ios": "https://dc.lft.to/lastmile_qr_scan"}, "name": "a77c911def4320c32ff080da844539cc", "is_reserved": 0}, {"is_disabled": 0, "fusion_lon": 0.0, "fusion_lat": 0.0, "lat": 38.9183145, "type": "electric_scooter", "lon": -77.03936133333333, "bike_id": "7c3aeb6c57d9e5ac940d60500dd05066", "rental_uris": {"android": "https://dc.lft.to/lastmile_qr_scan", "ios": "https://dc.lft.to/lastmile_qr_scan"}, "name": "7c3aeb6c57d9e5ac940d60500dd05066", "is_reserved": 0}, {"is_disabled": 0, "fusion_lon": 0.0, "fusion_lat": 0.0, "lat": 38.920627, "type": "electric_scooter", "lon": -77.01808433333333, "bike_id": "4bd9af29d6350a4b5735daf77a5193d0", "rental_uris": {"android": "https://dc.lft.to/lastmile_qr_scan", "ios": "https://dc.lft.to/lastmile_qr_scan"}, "name": "4bd9af29d6350a4b5735daf77a5193d0", "is_reserved": 0}, {"is_disabled": 0, "fusion_lon": 0.0, "fusion_lat": 0.0, "lat": 38.889741, "type": "electric_scooter", "lon": -76.98743583333334, "bike_id": "367b6607446086d40e1a80390e904228", "rental_uris": {"android": "https://dc.lft.to/lastmile_qr_scan", "ios": "https://dc.lft.to/lastmile_qr_scan"}, "name": "367b6607446086d40e1a80390e904228", "is_reserved": 0}, {"is_disabled": 0, "fusion_lon": 0.0, "fusion_lat": 0.0, "lat": 38.8965375, "type": "electric_bike", "lon": -77.03209016666666, "bike_id": "13ab25e75f22b52f35e39a2e6b0f60e3", "rental_uris": {"android": "https://dc.lft.to/lastmile_qr_scan", "ios": "https://dc.lft.to/lastmile_qr_scan"}, "name": "13ab25e75f22b52f35e39a2e6b0f60e3", "is_reserved": 0}, {"is_disabled": 0, "fusion_lon": 0.0, "fusion_lat": 0.0, "lat": 38.90101583333333, "type": "electric_scooter", "lon": -77.01739583333334, "bike_id": "7498748b77b3b0bc6cdf96e4f203eb97", "rental_uris": {"android": "https://dc.lft.to/lastmile_qr_scan", "ios": "https://dc.lft.to/lastmile_qr_scan"}, "name": "7498748b77b3b0bc6cdf96e4f203eb97", "is_reserved": 0}, {"is_disabled": 0, "fusion_lon": 0.0, "fusion_lat": 0.0, "lat": 38.897093166666664, "type": "electric_scooter", "lon": -77.03348116666666, "bike_id": "548a688cff63d6ae2e2c40a179eaff74", "rental_uris": {"android": "https://dc.lft.to/lastmile_qr_scan", "ios": "https://dc.lft.to/lastmile_qr_scan"}, "name": "548a688cff63d6ae2e2c40a179eaff74", "is_reserved": 0}, {"is_disabled": 0, "fusion_lon": 0.0, "fusion_lat": 0.0, "lat": 38.895633, "type": "electric_bike", "lon": -76.97615066666667, "bike_id": "90bc861394420ff31c5cd4b1b191841c", "rental_uris": {"android": "https://dc.lft.to/lastmile_qr_scan", "ios": "https://dc.lft.to/lastmile_qr_scan"}, "name": "90bc861394420ff31c5cd4b1b191841c", "is_reserved": 0}, {"is_disabled": 0, "fusion_lon": 0.0, "fusion_lat": 0.0, "lat": 38.901198, "type": "electric_scooter", "lon": -77.0434705, "bike_id": "bfab77a1d95e4bd5df76235185cb4477", "rental_uris": {"android": "https://dc.lft.to/lastmile_qr_scan", "ios": "https://dc.lft.to/lastmile_qr_scan"}, "name": "bfab77a1d95e4bd5df76235185cb4477", "is_reserved": 0}, {"is_disabled": 0, "fusion_lon": 0.0, "fusion_lat": 0.0, "lat": 38.89876616666667, "type": "electric_scooter", "lon": -76.931613, "bike_id": "36f0a854aa527925ab54eb9ff530551c", "rental_uris": {"android": "https://dc.lft.to/lastmile_qr_scan", "ios": "https://dc.lft.to/lastmile_qr_scan"}, "name": "36f0a854aa527925ab54eb9ff530551c", "is_reserved": 0}, {"is_disabled": 0, "fusion_lon": 0.0, "fusion_lat": 0.0, "lat": 38.865877833333336, "type": "electric_scooter", "lon": -76.99043966666666, "bike_id": "c44eb2715e105fbf363dc9ac2d138170", "rental_uris": {"android": "https://dc.lft.to/lastmile_qr_scan", "ios": "https://dc.lft.to/lastmile_qr_scan"}, "name": "c44eb2715e105fbf363dc9ac2d138170", "is_reserved": 0}, {"is_disabled": 0, "fusion_lon": 0.0, "fusion_lat": 0.0, "lat": 38.931317666666665, "type": "electric_scooter", "lon": -77.0234475, "bike_id": "5c2e0fdacf729200c56290e12ec58c23", "rental_uris": {"android": "https://dc.lft.to/lastmile_qr_scan", "ios": "https://dc.lft.to/lastmile_qr_scan"}, "name": "5c2e0fdacf729200c56290e12ec58c23", "is_reserved": 0}, {"is_disabled": 0, "fusion_lon": 0.0, "fusion_lat": 0.0, "lat": 38.898507, "type": "electric_scooter", "lon": -77.02918566666666, "bike_id": "9c009bf8e69d144568cfe97afe0d8e59", "rental_uris": {"android": "https://dc.lft.to/lastmile_qr_scan", "ios": "https://dc.lft.to/lastmile_qr_scan"}, "name": "9c009bf8e69d144568cfe97afe0d8e59", "is_reserved": 0}, {"is_disabled": 0, "fusion_lon": 0.0, "fusion_lat": 0.0, "lat": 38.91531283333333, "type": "electric_scooter", "lon": -77.01996066666666, "bike_id": "d6cedc6d7cface61d70a22878aeecbb1", "rental_uris": {"android": "https://dc.lft.to/lastmile_qr_scan", "ios": "https://dc.lft.to/lastmile_qr_scan"}, "name": "d6cedc6d7cface61d70a22878aeecbb1", "is_reserved": 0}, {"is_disabled": 0, "fusion_lon": 0.0, "fusion_lat": 0.0, "lat": 38.918280833333334, "type": "electric_scooter", "lon": -77.03932016666667, "bike_id": "a4cc37aa70c4e3df8204e97b4a6fd932", "rental_uris": {"android": "https://dc.lft.to/lastmile_qr_scan", "ios": "https://dc.lft.to/lastmile_qr_scan"}, "name": "a4cc37aa70c4e3df8204e97b4a6fd932", "is_reserved": 0}, {"is_disabled": 0, "fusion_lon": 0.0, "fusion_lat": 0.0, "lat": 38.91625333333333, "type": "electric_bike", "lon": -77.00444383333334, "bike_id": "27ad0501e6e75b754b3876b2fa66aea6", "rental_uris": {"android": "https://dc.lft.to/lastmile_qr_scan", "ios": "https://dc.lft.to/lastmile_qr_scan"}, "name": "27ad0501e6e75b754b3876b2fa66aea6", "is_reserved": 0}, {"is_disabled": 0, "fusion_lon": 0.0, "fusion_lat": 0.0, "lat": 38.92948916666667, "type": "electric_scooter", "lon": -77.032831, "bike_id": "947c52822b0e03f185bc23b903833681", "rental_uris": {"android": "https://dc.lft.to/lastmile_qr_scan", "ios": "https://dc.lft.to/lastmile_qr_scan"}, "name": "947c52822b0e03f185bc23b903833681", "is_reserved": 0}, {"is_disabled": 0, "fusion_lon": 0.0, "fusion_lat": 0.0, "lat": 38.924458, "type": "electric_bike", "lon": -76.9683545, "bike_id": "f77b9066331592cd55945529d8a08c76", "rental_uris": {"android": "https://dc.lft.to/lastmile_qr_scan", "ios": "https://dc.lft.to/lastmile_qr_scan"}, "name": "f77b9066331592cd55945529d8a08c76", "is_reserved": 0}, {"is_disabled": 0, "fusion_lon": 0.0, "fusion_lat": 0.0, "lat": 39.105635166666666, "type": "electric_bike", "lon": -77.15267483333334, "bike_id": "6bcbe4f58ddc4f7d1b0b3fdbb4283aa9", "rental_uris": {"android": "https://dc.lft.to/lastmile_qr_scan", "ios": "https://dc.lft.to/lastmile_qr_scan"}, "name": "6bcbe4f58ddc4f7d1b0b3fdbb4283aa9", "is_reserved": 0}, {"is_disabled": 0, "fusion_lon": 0.0, "fusion_lat": 0.0, "lat": 38.90475166666667, "type": "electric_scooter", "lon": -77.00202633333333, "bike_id": "5c62476e371a23786c492b613207a5db", "rental_uris": {"android": "https://dc.lft.to/lastmile_qr_scan", "ios": "https://dc.lft.to/lastmile_qr_scan"}, "name": "5c62476e371a23786c492b613207a5db", "is_reserved": 0}, {"is_disabled": 0, "fusion_lon": 0.0, "fusion_lat": 0.0, "lat": 38.9288985, "type": "electric_scooter", "lon": -76.98452833333333, "bike_id": "86167bf05484b72aef9a156001b5c588", "rental_uris": {"android": "https://dc.lft.to/lastmile_qr_scan", "ios": "https://dc.lft.to/lastmile_qr_scan"}, "name": "86167bf05484b72aef9a156001b5c588", "is_reserved": 0}, {"is_disabled": 0, "fusion_lon": 0.0, "fusion_lat": 0.0, "lat": 38.903927, "type": "electric_scooter", "lon": -77.0406475, "bike_id": "0d84542aecdd81940e1a3a2231742f77", "rental_uris": {"android": "https://dc.lft.to/lastmile_qr_scan", "ios": "https://dc.lft.to/lastmile_qr_scan"}, "name": "0d84542aecdd81940e1a3a2231742f77", "is_reserved": 0}, {"is_disabled": 0, "fusion_lon": 0.0, "fusion_lat": 0.0, "lat": 38.913305666666666, "type": "electric_scooter", "lon": -77.04866166666666, "bike_id": "11b1cc68dd0359069102425db48067d2", "rental_uris": {"android": "https://dc.lft.to/lastmile_qr_scan", "ios": "https://dc.lft.to/lastmile_qr_scan"}, "name": "11b1cc68dd0359069102425db48067d2", "is_reserved": 0}, {"is_disabled": 0, "fusion_lon": 0.0, "fusion_lat": 0.0, "lat": 38.89877533333333, "type": "electric_scooter", "lon": -76.93161166666667, "bike_id": "02371654ccfffd1ed889bafe62182f7d", "rental_uris": {"android": "https://dc.lft.to/lastmile_qr_scan", "ios": "https://dc.lft.to/lastmile_qr_scan"}, "name": "02371654ccfffd1ed889bafe62182f7d", "is_reserved": 0}, {"is_disabled": 0, "fusion_lon": 0.0, "fusion_lat": 0.0, "lat": 38.91191833333333, "type": "electric_scooter", "lon": -77.04539533333333, "bike_id": "1638929c4e590527d7af1364602d8b4c", "rental_uris": {"android": "https://dc.lft.to/lastmile_qr_scan", "ios": "https://dc.lft.to/lastmile_qr_scan"}, "name": "1638929c4e590527d7af1364602d8b4c", "is_reserved": 0}, {"is_disabled": 0, "fusion_lon": 0.0, "fusion_lat": 0.0, "lat": 38.921442166666665, "type": "electric_scooter", "lon": -77.03445633333334, "bike_id": "f5da858e11bd9deeba8cad5efc069d65", "rental_uris": {"android": "https://dc.lft.to/lastmile_qr_scan", "ios": "https://dc.lft.to/lastmile_qr_scan"}, "name": "f5da858e11bd9deeba8cad5efc069d65", "is_reserved": 0}, {"is_disabled": 0, "fusion_lon": 0.0, "fusion_lat": 0.0, "lat": 38.9269315, "type": "electric_scooter", "lon": -77.00611616666667, "bike_id": "0c2ca94958347b1ec23d8252ea78eb94", "rental_uris": {"android": "https://dc.lft.to/lastmile_qr_scan", "ios": "https://dc.lft.to/lastmile_qr_scan"}, "name": "0c2ca94958347b1ec23d8252ea78eb94", "is_reserved": 0}, {"is_disabled": 0, "fusion_lon": 0.0, "fusion_lat": 0.0, "lat": 38.935522166666665, "type": "electric_scooter", "lon": -77.02221816666666, "bike_id": "e2364fa17c21fc73a42fb47d0d6a3a70", "rental_uris": {"android": "https://dc.lft.to/lastmile_qr_scan", "ios": "https://dc.lft.to/lastmile_qr_scan"}, "name": "e2364fa17c21fc73a42fb47d0d6a3a70", "is_reserved": 0}, {"is_disabled": 0, "fusion_lon": 0.0, "fusion_lat": 0.0, "lat": 38.90843133333333, "type": "electric_scooter", "lon": -77.029564, "bike_id": "4a31950ebd0c4ad2f086f4c316832f99", "rental_uris": {"android": "https://dc.lft.to/lastmile_qr_scan", "ios": "https://dc.lft.to/lastmile_qr_scan"}, "name": "4a31950ebd0c4ad2f086f4c316832f99", "is_reserved": 0}, {"is_disabled": 0, "fusion_lon": 0.0, "fusion_lat": 0.0, "lat": 38.93276383333333, "type": "electric_scooter", "lon": -77.0398665, "bike_id": "030c4183af893433dab176cf5badc2ad", "rental_uris": {"android": "https://dc.lft.to/lastmile_qr_scan", "ios": "https://dc.lft.to/lastmile_qr_scan"}, "name": "030c4183af893433dab176cf5badc2ad", "is_reserved": 0}, {"is_disabled": 0, "fusion_lon": 0.0, "fusion_lat": 0.0, "lat": 38.9074835, "type": "electric_scooter", "lon": -77.0454705, "bike_id": "95b14b366934c70ef47dd8fdc8c253a6", "rental_uris": {"android": "https://dc.lft.to/lastmile_qr_scan", "ios": "https://dc.lft.to/lastmile_qr_scan"}, "name": "95b14b366934c70ef47dd8fdc8c253a6", "is_reserved": 0}, {"is_disabled": 0, "fusion_lon": 0.0, "fusion_lat": 0.0, "lat": 38.914931333333335, "type": "electric_scooter", "lon": -77.0385505, "bike_id": "2ecd54bd888dce06a065680d23b1378d", "rental_uris": {"android": "https://dc.lft.to/lastmile_qr_scan", "ios": "https://dc.lft.to/lastmile_qr_scan"}, "name": "2ecd54bd888dce06a065680d23b1378d", "is_reserved": 0}, {"is_disabled": 0, "fusion_lon": 0.0, "fusion_lat": 0.0, "lat": 38.9024865, "type": "electric_scooter", "lon": -77.02161966666667, "bike_id": "dc5127bcb2fff4d494943817a32da02e", "rental_uris": {"android": "https://dc.lft.to/lastmile_qr_scan", "ios": "https://dc.lft.to/lastmile_qr_scan"}, "name": "dc5127bcb2fff4d494943817a32da02e", "is_reserved": 0}, {"is_disabled": 0, "fusion_lon": 0.0, "fusion_lat": 0.0, "lat": 38.907811833333334, "type": "electric_scooter", "lon": -77.03479866666666, "bike_id": "cd97b566af69120bb34d8985ecbfdd8e", "rental_uris": {"android": "https://dc.lft.to/lastmile_qr_scan", "ios": "https://dc.lft.to/lastmile_qr_scan"}, "name": "cd97b566af69120bb34d8985ecbfdd8e", "is_reserved": 0}, {"is_disabled": 0, "fusion_lon": 0.0, "fusion_lat": 0.0, "lat": 38.9554085, "type": "electric_bike", "lon": -76.93530316666667, "bike_id": "ef34aeace0c7d7b4a74f5423012c9f9e", "rental_uris": {"android": "https://dc.lft.to/lastmile_qr_scan", "ios": "https://dc.lft.to/lastmile_qr_scan"}, "name": "ef34aeace0c7d7b4a74f5423012c9f9e", "is_reserved": 0}, {"is_disabled": 0, "fusion_lon": 0.0, "fusion_lat": 0.0, "lat": 38.91275266666667, "type": "electric_scooter", "lon": -77.02245933333333, "bike_id": "2206bc177bf7c31d20ee58f285dc08aa", "rental_uris": {"android": "https://dc.lft.to/lastmile_qr_scan", "ios": "https://dc.lft.to/lastmile_qr_scan"}, "name": "2206bc177bf7c31d20ee58f285dc08aa", "is_reserved": 0}, {"is_disabled": 0, "fusion_lon": 0.0, "fusion_lat": 0.0, "lat": 38.93067, "type": "electric_scooter", "lon": -77.036563, "bike_id": "d34c4451f1af9ba1b6f546d8196bb3f9", "rental_uris": {"android": "https://dc.lft.to/lastmile_qr_scan", "ios": "https://dc.lft.to/lastmile_qr_scan"}, "name": "d34c4451f1af9ba1b6f546d8196bb3f9", "is_reserved": 0}, {"is_disabled": 0, "fusion_lon": 0.0, "fusion_lat": 0.0, "lat": 38.910886166666664, "type": "electric_scooter", "lon": -77.0219895, "bike_id": "733f24bb41b313777a9cfe3b661e016b", "rental_uris": {"android": "https://dc.lft.to/lastmile_qr_scan", "ios": "https://dc.lft.to/lastmile_qr_scan"}, "name": "733f24bb41b313777a9cfe3b661e016b", "is_reserved": 0}, {"is_disabled": 0, "fusion_lon": 0.0, "fusion_lat": 0.0, "lat": 38.828758, "type": "electric_bike", "lon": -77.11221233333333, "bike_id": "5a33b6608e4b8fdc967afe970970e371", "rental_uris": {"android": "https://dc.lft.to/lastmile_qr_scan", "ios": "https://dc.lft.to/lastmile_qr_scan"}, "name": "5a33b6608e4b8fdc967afe970970e371", "is_reserved": 0}, {"is_disabled": 0, "fusion_lon": 0.0, "fusion_lat": 0.0, "lat": 38.89845533333333, "type": "electric_scooter", "lon": -76.990325, "bike_id": "bd53a41934e23aa62c3556d8594394ad", "rental_uris": {"android": "https://dc.lft.to/lastmile_qr_scan", "ios": "https://dc.lft.to/lastmile_qr_scan"}, "name": "bd53a41934e23aa62c3556d8594394ad", "is_reserved": 0}, {"is_disabled": 0, "fusion_lon": 0.0, "fusion_lat": 0.0, "lat": 38.89246283333333, "type": "electric_scooter", "lon": -77.03200466666667, "bike_id": "2e873d1e34f4a98b59b9e13c70853ae2", "rental_uris": {"android": "https://dc.lft.to/lastmile_qr_scan", "ios": "https://dc.lft.to/lastmile_qr_scan"}, "name": "2e873d1e34f4a98b59b9e13c70853ae2", "is_reserved": 0}, {"is_disabled": 0, "fusion_lon": 0.0, "fusion_lat": 0.0, "lat": 38.90718483333333, "type": "electric_scooter", "lon": -77.02447683333334, "bike_id": "9256be90952bcad945e316c268c188fb", "rental_uris": {"android": "https://dc.lft.to/lastmile_qr_scan", "ios": "https://dc.lft.to/lastmile_qr_scan"}, "name": "9256be90952bcad945e316c268c188fb", "is_reserved": 0}, {"is_disabled": 0, "fusion_lon": 0.0, "fusion_lat": 0.0, "lat": 38.893671833333336, "type": "electric_scooter", "lon": -77.02276233333333, "bike_id": "2ee3fa94677f03abbc495900c38b3239", "rental_uris": {"android": "https://dc.lft.to/lastmile_qr_scan", "ios": "https://dc.lft.to/lastmile_qr_scan"}, "name": "2ee3fa94677f03abbc495900c38b3239", "is_reserved": 0}, {"is_disabled": 0, "fusion_lon": 0.0, "fusion_lat": 0.0, "lat": 38.914728833333335, "type": "electric_scooter", "lon": -76.98359683333334, "bike_id": "258f67b004d1ccbb203ee8032bfebd5e", "rental_uris": {"android": "https://dc.lft.to/lastmile_qr_scan", "ios": "https://dc.lft.to/lastmile_qr_scan"}, "name": "258f67b004d1ccbb203ee8032bfebd5e", "is_reserved": 0}, {"is_disabled": 0, "fusion_lon": 0.0, "fusion_lat": 0.0, "lat": 38.89501583333333, "type": "electric_scooter", "lon": -76.94879683333333, "bike_id": "d9613a4e286cd3e203eeaca0b28716e0", "rental_uris": {"android": "https://dc.lft.to/lastmile_qr_scan", "ios": "https://dc.lft.to/lastmile_qr_scan"}, "name": "d9613a4e286cd3e203eeaca0b28716e0", "is_reserved": 0}, {"is_disabled": 0, "fusion_lon": 0.0, "fusion_lat": 0.0, "lat": 38.90138816666666, "type": "electric_scooter", "lon": -76.993563, "bike_id": "aeffd3f397820d776f72c33ab971f5ed", "rental_uris": {"android": "https://dc.lft.to/lastmile_qr_scan", "ios": "https://dc.lft.to/lastmile_qr_scan"}, "name": "aeffd3f397820d776f72c33ab971f5ed", "is_reserved": 0}, {"is_disabled": 0, "fusion_lon": 0.0, "fusion_lat": 0.0, "lat": 38.944141333333334, "type": "electric_scooter", "lon": -77.02626983333333, "bike_id": "9f9138e5dbd068d16c3873d3516e3c00", "rental_uris": {"android": "https://dc.lft.to/lastmile_qr_scan", "ios": "https://dc.lft.to/lastmile_qr_scan"}, "name": "9f9138e5dbd068d16c3873d3516e3c00", "is_reserved": 0}, {"is_disabled": 0, "fusion_lon": 0.0, "fusion_lat": 0.0, "lat": 38.93124916666667, "type": "electric_scooter", "lon": -77.05708016666667, "bike_id": "ebb8cde0167fa080253205f30ed988d6", "rental_uris": {"android": "https://dc.lft.to/lastmile_qr_scan", "ios": "https://dc.lft.to/lastmile_qr_scan"}, "name": "ebb8cde0167fa080253205f30ed988d6", "is_reserved": 0}, {"is_disabled": 0, "fusion_lon": 0.0, "fusion_lat": 0.0, "lat": 38.93968533333334, "type": "electric_scooter", "lon": -77.0279265, "bike_id": "90c0f20ae0c5d1a18d1516adbfd34345", "rental_uris": {"android": "https://dc.lft.to/lastmile_qr_scan", "ios": "https://dc.lft.to/lastmile_qr_scan"}, "name": "90c0f20ae0c5d1a18d1516adbfd34345", "is_reserved": 0}, {"is_disabled": 0, "fusion_lon": 0.0, "fusion_lat": 0.0, "lat": 38.899618333333336, "type": "electric_scooter", "lon": -76.98310466666666, "bike_id": "34194dff70bb6d4465bc0663ddda2f5c", "rental_uris": {"android": "https://dc.lft.to/lastmile_qr_scan", "ios": "https://dc.lft.to/lastmile_qr_scan"}, "name": "34194dff70bb6d4465bc0663ddda2f5c", "is_reserved": 0}, {"is_disabled": 0, "fusion_lon": 0.0, "fusion_lat": 0.0, "lat": 38.978227833333335, "type": "electric_bike", "lon": -76.92887416666667, "bike_id": "3be715b229f809729b8633007f9ca152", "rental_uris": {"android": "https://dc.lft.to/lastmile_qr_scan", "ios": "https://dc.lft.to/lastmile_qr_scan"}, "name": "3be715b229f809729b8633007f9ca152", "is_reserved": 0}, {"is_disabled": 0, "fusion_lon": 0.0, "fusion_lat": 0.0, "lat": 38.8272965, "type": "electric_bike", "lon": -77.00861, "bike_id": "5b22f7b1ccf9e3aba19a5ba17d061f40", "rental_uris": {"android": "https://dc.lft.to/lastmile_qr_scan", "ios": "https://dc.lft.to/lastmile_qr_scan"}, "name": "5b22f7b1ccf9e3aba19a5ba17d061f40", "is_reserved": 0}, {"is_disabled": 0, "fusion_lon": 0.0, "fusion_lat": 0.0, "lat": 38.93523116666667, "type": "electric_scooter", "lon": -77.023784, "bike_id": "ccb97babdf917da166f7374f91ca153d", "rental_uris": {"android": "https://dc.lft.to/lastmile_qr_scan", "ios": "https://dc.lft.to/lastmile_qr_scan"}, "name": "ccb97babdf917da166f7374f91ca153d", "is_reserved": 0}, {"is_disabled": 0, "fusion_lon": 0.0, "fusion_lat": 0.0, "lat": 38.91623116666667, "type": "electric_scooter", "lon": -77.0409875, "bike_id": "bdfd1a09b0aaccc5a14f0e05e4b3f7f3", "rental_uris": {"android": "https://dc.lft.to/lastmile_qr_scan", "ios": "https://dc.lft.to/lastmile_qr_scan"}, "name": "bdfd1a09b0aaccc5a14f0e05e4b3f7f3", "is_reserved": 0}, {"is_disabled": 0, "fusion_lon": 0.0, "fusion_lat": 0.0, "lat": 38.892450333333336, "type": "electric_scooter", "lon": -76.98832316666666, "bike_id": "a309c7e5c556350fd1f111df19b2f8b8", "rental_uris": {"android": "https://dc.lft.to/lastmile_qr_scan", "ios": "https://dc.lft.to/lastmile_qr_scan"}, "name": "a309c7e5c556350fd1f111df19b2f8b8", "is_reserved": 0}, {"is_disabled": 0, "fusion_lon": 0.0, "fusion_lat": 0.0, "lat": 38.912850166666665, "type": "electric_scooter", "lon": -77.02301583333333, "bike_id": "ff7681fc14a6485c2a3ef13d244fcfa7", "rental_uris": {"android": "https://dc.lft.to/lastmile_qr_scan", "ios": "https://dc.lft.to/lastmile_qr_scan"}, "name": "ff7681fc14a6485c2a3ef13d244fcfa7", "is_reserved": 0}, {"is_disabled": 0, "fusion_lon": 0.0, "fusion_lat": 0.0, "lat": 38.9067405, "type": "electric_scooter", "lon": -77.072104, "bike_id": "f6c66e6949bfc1a26c44085b34289487", "rental_uris": {"android": "https://dc.lft.to/lastmile_qr_scan", "ios": "https://dc.lft.to/lastmile_qr_scan"}, "name": "f6c66e6949bfc1a26c44085b34289487", "is_reserved": 0}, {"is_disabled": 0, "fusion_lon": 0.0, "fusion_lat": 0.0, "lat": 38.91342, "type": "electric_scooter", "lon": -77.03256866666666, "bike_id": "73df59aac42344689534fab1687a4712", "rental_uris": {"android": "https://dc.lft.to/lastmile_qr_scan", "ios": "https://dc.lft.to/lastmile_qr_scan"}, "name": "73df59aac42344689534fab1687a4712", "is_reserved": 0}, {"is_disabled": 0, "fusion_lon": 0.0, "fusion_lat": 0.0, "lat": 38.91175833333333, "type": "electric_scooter", "lon": -77.04155516666667, "bike_id": "de14f84eaf4cfd122c5f264358e2d4de", "rental_uris": {"android": "https://dc.lft.to/lastmile_qr_scan", "ios": "https://dc.lft.to/lastmile_qr_scan"}, "name": "de14f84eaf4cfd122c5f264358e2d4de", "is_reserved": 0}, {"is_disabled": 0, "fusion_lon": 0.0, "fusion_lat": 0.0, "lat": 38.908462, "type": "electric_scooter", "lon": -77.04158983333333, "bike_id": "00ba1cde93dfdef18ffd8a1404feec2c", "rental_uris": {"android": "https://dc.lft.to/lastmile_qr_scan", "ios": "https://dc.lft.to/lastmile_qr_scan"}, "name": "00ba1cde93dfdef18ffd8a1404feec2c", "is_reserved": 0}, {"is_disabled": 0, "fusion_lon": 0.0, "fusion_lat": 0.0, "lat": 38.85974683333333, "type": "electric_scooter", "lon": -76.98417183333333, "bike_id": "791c46bfe0d11cff23e2c35b807e4d6a", "rental_uris": {"android": "https://dc.lft.to/lastmile_qr_scan", "ios": "https://dc.lft.to/lastmile_qr_scan"}, "name": "791c46bfe0d11cff23e2c35b807e4d6a", "is_reserved": 0}, {"is_disabled": 0, "fusion_lon": 0.0, "fusion_lat": 0.0, "lat": 38.909418333333335, "type": "electric_scooter", "lon": -77.04567216666666, "bike_id": "2446dd18cd8578ba3325df35a3e76954", "rental_uris": {"android": "https://dc.lft.to/lastmile_qr_scan", "ios": "https://dc.lft.to/lastmile_qr_scan"}, "name": "2446dd18cd8578ba3325df35a3e76954", "is_reserved": 0}, {"is_disabled": 0, "fusion_lon": 0.0, "fusion_lat": 0.0, "lat": 38.85067883333333, "type": "electric_bike", "lon": -76.973362, "bike_id": "91ec8b8d22cf22b418248a32bff0b9ea", "rental_uris": {"android": "https://dc.lft.to/lastmile_qr_scan", "ios": "https://dc.lft.to/lastmile_qr_scan"}, "name": "91ec8b8d22cf22b418248a32bff0b9ea", "is_reserved": 0}, {"is_disabled": 0, "fusion_lon": 0.0, "fusion_lat": 0.0, "lat": 38.92737133333333, "type": "electric_bike", "lon": -76.99366666666667, "bike_id": "8bf18893fc4903d2f5a6f32b36e516ba", "rental_uris": {"android": "https://dc.lft.to/lastmile_qr_scan", "ios": "https://dc.lft.to/lastmile_qr_scan"}, "name": "8bf18893fc4903d2f5a6f32b36e516ba", "is_reserved": 0}, {"is_disabled": 0, "fusion_lon": 0.0, "fusion_lat": 0.0, "lat": 38.91413816666667, "type": "electric_scooter", "lon": -77.02213183333333, "bike_id": "1a2a78bdf38cf4e78ecf9411f863d8f6", "rental_uris": {"android": "https://dc.lft.to/lastmile_qr_scan", "ios": "https://dc.lft.to/lastmile_qr_scan"}, "name": "1a2a78bdf38cf4e78ecf9411f863d8f6", "is_reserved": 0}, {"is_disabled": 0, "fusion_lon": 0.0, "fusion_lat": 0.0, "lat": 38.9522485, "type": "electric_scooter", "lon": -77.02763, "bike_id": "5d57bac234985ae9b11c7e332a4c54e7", "rental_uris": {"android": "https://dc.lft.to/lastmile_qr_scan", "ios": "https://dc.lft.to/lastmile_qr_scan"}, "name": "5d57bac234985ae9b11c7e332a4c54e7", "is_reserved": 0}, {"is_disabled": 0, "fusion_lon": 0.0, "fusion_lat": 0.0, "lat": 38.90249416666666, "type": "electric_scooter", "lon": -77.03452316666667, "bike_id": "c193a87b563f49840f02a3b3371d91ab", "rental_uris": {"android": "https://dc.lft.to/lastmile_qr_scan", "ios": "https://dc.lft.to/lastmile_qr_scan"}, "name": "c193a87b563f49840f02a3b3371d91ab", "is_reserved": 0}, {"is_disabled": 0, "fusion_lon": 0.0, "fusion_lat": 0.0, "lat": 38.90674633333333, "type": "electric_scooter", "lon": -77.03762866666666, "bike_id": "99a9079f9299aa9a104d24dc22cc59f6", "rental_uris": {"android": "https://dc.lft.to/lastmile_qr_scan", "ios": "https://dc.lft.to/lastmile_qr_scan"}, "name": "99a9079f9299aa9a104d24dc22cc59f6", "is_reserved": 0}, {"is_disabled": 0, "fusion_lon": 0.0, "fusion_lat": 0.0, "lat": 38.944062833333334, "type": "electric_scooter", "lon": -77.03825833333333, "bike_id": "bac06a1a82d5337b2b3721e97247bcb6", "rental_uris": {"android": "https://dc.lft.to/lastmile_qr_scan", "ios": "https://dc.lft.to/lastmile_qr_scan"}, "name": "bac06a1a82d5337b2b3721e97247bcb6", "is_reserved": 0}, {"is_disabled": 0, "fusion_lon": 0.0, "fusion_lat": 0.0, "lat": 38.9202055, "type": "electric_bike", "lon": -76.973037, "bike_id": "4501f542a4b32704f221893afeb2c919", "rental_uris": {"android": "https://dc.lft.to/lastmile_qr_scan", "ios": "https://dc.lft.to/lastmile_qr_scan"}, "name": "4501f542a4b32704f221893afeb2c919", "is_reserved": 0}, {"is_disabled": 0, "fusion_lon": 0.0, "fusion_lat": 0.0, "lat": 38.89975866666666, "type": "electric_scooter", "lon": -77.05543466666667, "bike_id": "f91ffae49776d03f37f6c877d58b7e61", "rental_uris": {"android": "https://dc.lft.to/lastmile_qr_scan", "ios": "https://dc.lft.to/lastmile_qr_scan"}, "name": "f91ffae49776d03f37f6c877d58b7e61", "is_reserved": 0}, {"is_disabled": 0, "fusion_lon": 0.0, "fusion_lat": 0.0, "lat": 38.99256, "type": "electric_bike", "lon": -77.05001083333333, "bike_id": "400837be79f98cd003ac318fd62a3441", "rental_uris": {"android": "https://dc.lft.to/lastmile_qr_scan", "ios": "https://dc.lft.to/lastmile_qr_scan"}, "name": "400837be79f98cd003ac318fd62a3441", "is_reserved": 0}, {"is_disabled": 0, "fusion_lon": 0.0, "fusion_lat": 0.0, "lat": 38.854698, "type": "electric_bike", "lon": -76.97098616666666, "bike_id": "ee1ff563f8e8ebea6f56887aa7c76469", "rental_uris": {"android": "https://dc.lft.to/lastmile_qr_scan", "ios": "https://dc.lft.to/lastmile_qr_scan"}, "name": "ee1ff563f8e8ebea6f56887aa7c76469", "is_reserved": 0}, {"is_disabled": 0, "fusion_lon": 0.0, "fusion_lat": 0.0, "lat": 38.9671615, "type": "electric_scooter", "lon": -77.02733533333334, "bike_id": "c2dffa44c6791395a78c22e3007867e7", "rental_uris": {"android": "https://dc.lft.to/lastmile_qr_scan", "ios": "https://dc.lft.to/lastmile_qr_scan"}, "name": "c2dffa44c6791395a78c22e3007867e7", "is_reserved": 0}, {"is_disabled": 0, "fusion_lon": 0.0, "fusion_lat": 0.0, "lat": 38.923297, "type": "electric_scooter", "lon": -77.03560866666666, "bike_id": "c2004ccdeaa01bd7d402c0fb840850f7", "rental_uris": {"android": "https://dc.lft.to/lastmile_qr_scan", "ios": "https://dc.lft.to/lastmile_qr_scan"}, "name": "c2004ccdeaa01bd7d402c0fb840850f7", "is_reserved": 0}, {"is_disabled": 0, "fusion_lon": 0.0, "fusion_lat": 0.0, "lat": 38.930452333333335, "type": "electric_scooter", "lon": -77.00418883333333, "bike_id": "8046259a29d8fa2f3c723edcec409e47", "rental_uris": {"android": "https://dc.lft.to/lastmile_qr_scan", "ios": "https://dc.lft.to/lastmile_qr_scan"}, "name": "8046259a29d8fa2f3c723edcec409e47", "is_reserved": 0}, {"is_disabled": 0, "fusion_lon": 0.0, "fusion_lat": 0.0, "lat": 38.990822333333334, "type": "electric_bike", "lon": -77.00185166666667, "bike_id": "9eaecc76cb82608ce03be80c4ff1daeb", "rental_uris": {"android": "https://dc.lft.to/lastmile_qr_scan", "ios": "https://dc.lft.to/lastmile_qr_scan"}, "name": "9eaecc76cb82608ce03be80c4ff1daeb", "is_reserved": 0}, {"is_disabled": 0, "fusion_lon": 0.0, "fusion_lat": 0.0, "lat": 38.918071833333336, "type": "electric_scooter", "lon": -77.03631433333334, "bike_id": "30faa5ff6cd4d95389a9d6627112d4bd", "rental_uris": {"android": "https://dc.lft.to/lastmile_qr_scan", "ios": "https://dc.lft.to/lastmile_qr_scan"}, "name": "30faa5ff6cd4d95389a9d6627112d4bd", "is_reserved": 0}, {"is_disabled": 0, "fusion_lon": 0.0, "fusion_lat": 0.0, "lat": 38.943057333333336, "type": "electric_scooter", "lon": -77.02352533333334, "bike_id": "6ed343c593df5602d8903acf7ae224aa", "rental_uris": {"android": "https://dc.lft.to/lastmile_qr_scan", "ios": "https://dc.lft.to/lastmile_qr_scan"}, "name": "6ed343c593df5602d8903acf7ae224aa", "is_reserved": 0}, {"is_disabled": 0, "fusion_lon": 0.0, "fusion_lat": 0.0, "lat": 38.83812066666667, "type": "electric_scooter", "lon": -77.004342, "bike_id": "526d06fc0186e67468ab09c827146327", "rental_uris": {"android": "https://dc.lft.to/lastmile_qr_scan", "ios": "https://dc.lft.to/lastmile_qr_scan"}, "name": "526d06fc0186e67468ab09c827146327", "is_reserved": 0}, {"is_disabled": 0, "fusion_lon": 0.0, "fusion_lat": 0.0, "lat": 38.831186833333334, "type": "electric_bike", "lon": -77.0432715, "bike_id": "ee913230b7153e5a325ecfef6b8b6400", "rental_uris": {"android": "https://dc.lft.to/lastmile_qr_scan", "ios": "https://dc.lft.to/lastmile_qr_scan"}, "name": "ee913230b7153e5a325ecfef6b8b6400", "is_reserved": 0}, {"is_disabled": 0, "fusion_lon": 0.0, "fusion_lat": 0.0, "lat": 39.115043666666665, "type": "electric_bike", "lon": -77.19548666666667, "bike_id": "b7a24b2e5dfa1e1a53b16ed01c2526a3", "rental_uris": {"android": "https://dc.lft.to/lastmile_qr_scan", "ios": "https://dc.lft.to/lastmile_qr_scan"}, "name": "b7a24b2e5dfa1e1a53b16ed01c2526a3", "is_reserved": 0}, {"is_disabled": 0, "fusion_lon": 0.0, "fusion_lat": 0.0, "lat": 38.838113666666665, "type": "electric_scooter", "lon": -77.0043725, "bike_id": "bd493de690505b8d9e99bb1ff57f1b7e", "rental_uris": {"android": "https://dc.lft.to/lastmile_qr_scan", "ios": "https://dc.lft.to/lastmile_qr_scan"}, "name": "bd493de690505b8d9e99bb1ff57f1b7e", "is_reserved": 0}, {"is_disabled": 0, "fusion_lon": 0.0, "fusion_lat": 0.0, "lat": 38.9327255, "type": "electric_scooter", "lon": -77.03482533333333, "bike_id": "1d6fec1349abd7b0817a7478ce2acb8c", "rental_uris": {"android": "https://dc.lft.to/lastmile_qr_scan", "ios": "https://dc.lft.to/lastmile_qr_scan"}, "name": "1d6fec1349abd7b0817a7478ce2acb8c", "is_reserved": 0}, {"is_disabled": 0, "fusion_lon": 0.0, "fusion_lat": 0.0, "lat": 38.900219666666665, "type": "electric_scooter", "lon": -77.00210033333333, "bike_id": "6b5444f5bf452f68e6356266f1b00e89", "rental_uris": {"android": "https://dc.lft.to/lastmile_qr_scan", "ios": "https://dc.lft.to/lastmile_qr_scan"}, "name": "6b5444f5bf452f68e6356266f1b00e89", "is_reserved": 0}, {"is_disabled": 0, "fusion_lon": 0.0, "fusion_lat": 0.0, "lat": 38.91848483333333, "type": "electric_bike", "lon": -76.96089533333334, "bike_id": "9b0f7dfd41bd3c89b68f81030b70b34f", "rental_uris": {"android": "https://dc.lft.to/lastmile_qr_scan", "ios": "https://dc.lft.to/lastmile_qr_scan"}, "name": "9b0f7dfd41bd3c89b68f81030b70b34f", "is_reserved": 0}, {"is_disabled": 0, "fusion_lon": 0.0, "fusion_lat": 0.0, "lat": 38.904201, "type": "electric_scooter", "lon": -76.98550116666667, "bike_id": "88cde6889d7667829e52bb05ad6d084a", "rental_uris": {"android": "https://dc.lft.to/lastmile_qr_scan", "ios": "https://dc.lft.to/lastmile_qr_scan"}, "name": "88cde6889d7667829e52bb05ad6d084a", "is_reserved": 0}, {"is_disabled": 0, "fusion_lon": 0.0, "fusion_lat": 0.0, "lat": 38.87928866666667, "type": "electric_scooter", "lon": -77.00536316666667, "bike_id": "55975fd252d97efed7018d9b2c4e975e", "rental_uris": {"android": "https://dc.lft.to/lastmile_qr_scan", "ios": "https://dc.lft.to/lastmile_qr_scan"}, "name": "55975fd252d97efed7018d9b2c4e975e", "is_reserved": 0}, {"is_disabled": 0, "fusion_lon": 0.0, "fusion_lat": 0.0, "lat": 38.93351666666667, "type": "electric_scooter", "lon": -77.0237525, "bike_id": "4b0938b9f3fbeb7cd0ed76436ac1deb0", "rental_uris": {"android": "https://dc.lft.to/lastmile_qr_scan", "ios": "https://dc.lft.to/lastmile_qr_scan"}, "name": "4b0938b9f3fbeb7cd0ed76436ac1deb0", "is_reserved": 0}, {"is_disabled": 0, "fusion_lon": 0.0, "fusion_lat": 0.0, "lat": 39.060645, "type": "electric_bike", "lon": -77.06467983333333, "bike_id": "5fdfe8a903535b33a9826845188611e5", "rental_uris": {"android": "https://dc.lft.to/lastmile_qr_scan", "ios": "https://dc.lft.to/lastmile_qr_scan"}, "name": "5fdfe8a903535b33a9826845188611e5", "is_reserved": 0}, {"is_disabled": 0, "fusion_lon": 0.0, "fusion_lat": 0.0, "lat": 38.9003935, "type": "electric_scooter", "lon": -76.98820183333333, "bike_id": "c6342adb7c3ee0de2f1454f29781f4ee", "rental_uris": {"android": "https://dc.lft.to/lastmile_qr_scan", "ios": "https://dc.lft.to/lastmile_qr_scan"}, "name": "c6342adb7c3ee0de2f1454f29781f4ee", "is_reserved": 0}, {"is_disabled": 0, "fusion_lon": 0.0, "fusion_lat": 0.0, "lat": 38.92552333333333, "type": "electric_scooter", "lon": -77.037907, "bike_id": "66aab8c6d283bb50651d36ad6b64cee8", "rental_uris": {"android": "https://dc.lft.to/lastmile_qr_scan", "ios": "https://dc.lft.to/lastmile_qr_scan"}, "name": "66aab8c6d283bb50651d36ad6b64cee8", "is_reserved": 0},