{"data": {"bikes": [{"rental_uris": {"ios": "https://dc.lft.to/lastmile_qr_scan", "android": "https://dc.lft.to/lastmile_qr_scan"}, "type": "electric_bike", "name": "8b1cc17857f6481d33a9881ba9655060", "is_reserved": 0, "lon": -77.09724483333333, "is_disabled": 0, "fusion_lat": 0.0, "lat": 38.807399833333335, "bike_id": "8b1cc17857f6481d33a9881ba9655060", "fusion_lon": 0.0}, {"rental_uris": {"ios": "https://dc.lft.to/lastmile_qr_scan", "android": "https://dc.lft.to/lastmile_qr_scan"}, "type": "electric_scooter", "name": "819fa9a8283e82d241f024d4caec91fb", "is_reserved": 0, "lon": -77.0550955, "is_disabled": 0, "fusion_lat": 0.0, "lat": 38.928382, "bike_id": "819fa9a8283e82d241f024d4caec91fb", "fusion_lon": 0.0}, {"rental_uris": {"ios": "https://dc.lft.to/lastmile_qr_scan", "android": "https://dc.lft.to/lastmile_qr_scan"}, "type": "electric_scooter", "name": "ffccc8d41657a20365e145709a500296", "is_reserved": 0, "lon": -77.05690883333334, "is_disabled": 0, "fusion_lat": 0.0, "lat": 38.9048235, "bike_id": "ffccc8d41657a20365e145709a500296", "fusion_lon": 0.0}, {"rental_uris": {"ios": "https://dc.lft.to/lastmile_qr_scan", "android": "https://dc.lft.to/lastmile_qr_scan"}, "type": "electric_scooter", "name": "9b57d38d07e3d8553f1aaafc4aba47d1", "is_reserved": 0, "lon": -76.98823466666667, "is_disabled": 0, "fusion_lat": 0.0, "lat": 38.8816455, "bike_id": "9b57d38d07e3d8553f1aaafc4aba47d1", "fusion_lon": 0.0}, {"rental_uris": {"ios": "https://dc.lft.to/lastmile_qr_scan", "android": "https://dc.lft.to/lastmile_qr_scan"}, "type": "electric_bike", "name": "203247ce54e765952161c98690d2d694", "is_reserved": 0, "lon": -77.216633, "is_disabled": 0, "fusion_lat": 0.0, "lat": 38.8950925, "bike_id": "203247ce54e765952161c98690d2d694", "fusion_lon": 0.0}, {"rental_uris": {"ios": "https://dc.lft.to/lastmile_qr_scan", "android": "https://dc.lft.to/lastmile_qr_scan"}, "type": "electric_scooter", "name": "1f2a724a3a5107f07db0a1c74a02c4d5", "is_reserved": 0, "lon": -77.043264, "is_disabled": 0, "fusion_lat": 0.0, "lat": 38.90885266666667, "bike_id": "1f2a724a3a5107f07db0a1c74a02c4d5", "fusion_lon": 0.0}, {"rental_uris": {"ios": "https://dc.lft.to/lastmile_qr_scan", "android": "https://dc.lft.to/lastmile_qr_scan"}, "type": "electric_scooter", "name": "de13435eb57f7c0ded9a48dc0462f2ca", "is_reserved": 0, "lon": -77.0346575, "is_disabled": 0, "fusion_lat": 0.0, "lat": 38.931065333333336, "bike_id": "de13435eb57f7c0ded9a48dc0462f2ca", "fusion_lon": 0.0}, {"rental_uris": {"ios": "https://dc.lft.to/lastmile_qr_scan", "android": "https://dc.lft.to/lastmile_qr_scan"}, "type": "electric_bike", "name": "c701f964ba4fcb500c7aedc6885f2e8d", "is_reserved": 0, "lon": -77.06529533333334, "is_disabled": 0, "fusion_lat": 0.0, "lat": 38.99238066666667, "bike_id": "c701f964ba4fcb500c7aedc6885f2e8d", "fusion_lon": 0.0}, {"rental_uris": {"ios": "https://dc.lft.to/lastmile_qr_scan", "android": "https://dc.lft.to/lastmile_qr_scan"}, "type": "electric_scooter", "name": "85d7d50b28d3929603a5d1935b70d282", "is_reserved": 0, "lon": -77.018378, "is_disabled": 0, "fusion_lat": 0.0, "lat": 38.91527683333333, "bike_id": "85d7d50b28d3929603a5d1935b70d282", "fusion_lon": 0.0}, {"rental_uris": {"ios": "https://dc.lft.to/lastmile_qr_scan", "android": "https://dc.lft.to/lastmile_qr_scan"}, "type": "electric_scooter", "name": "73b19cca492c65f80da9fbbf41ca8f36", "is_reserved": 0, "lon": -77.029408, "is_disabled": 0, "fusion_lat": 0.0, "lat": 38.915529166666666, "bike_id": "73b19cca492c65f80da9fbbf41ca8f36", "fusion_lon": 0.0}, {"rental_uris": {"ios": "https://dc.lft.to/lastmile_qr_scan", "android": "https://dc.lft.to/lastmile_qr_scan"}, "type": "electric_scooter", "name": "db4d8fc4c72a7db8d6002db92cf6f39e", "is_reserved": 0, "lon": -77.02869483333333, "is_disabled": 0, "fusion_lat": 0.0, "lat": 38.90374166666667, "bike_id": "db4d8fc4c72a7db8d6002db92cf6f39e", "fusion_lon": 0.0}, {"rental_uris": {"ios": "https://dc.lft.to/lastmile_qr_scan", "android": "https://dc.lft.to/lastmile_qr_scan"}, "type": "electric_scooter", "name": "ea4aff9229f1041354da0c572bf5b82d", "is_reserved": 0, "lon": -77.02301283333334, "is_disabled": 0, "fusion_lat": 0.0, "lat": 38.9177415, "bike_id": "ea4aff9229f1041354da0c572bf5b82d", "fusion_lon": 0.0}, {"rental_uris": {"ios": "https://dc.lft.to/lastmile_qr_scan", "android": "https://dc.lft.to/lastmile_qr_scan"}, "type": "electric_scooter", "name": "278dbb8cd0ba0dc7c4dd8c4c199bd5ea", "is_reserved": 0, "lon": -77.01453316666667, "is_disabled": 0, "fusion_lat": 0.0, "lat": 38.926598, "bike_id": "278dbb8cd0ba0dc7c4dd8c4c199bd5ea", "fusion_lon": 0.0}, {"rental_uris": {"ios": "https://dc.lft.to/lastmile_qr_scan", "android": "https://dc.lft.to/lastmile_qr_scan"}, "type": "electric_scooter", "name": "9a831521b2a52c8a97f3080211cb1b5d", "is_reserved": 0, "lon": -77.04416333333333, "is_disabled": 0, "fusion_lat": 0.0, "lat": 38.90903866666667, "bike_id": "9a831521b2a52c8a97f3080211cb1b5d", "fusion_lon": 0.0}, {"rental_uris": {"ios": "https://dc.lft.to/lastmile_qr_scan", "android": "https://dc.lft.to/lastmile_qr_scan"}, "type": "electric_scooter", "name": "df5980d569facbd65b9080619f65abef", "is_reserved": 0, "lon": -77.05021516666666, "is_disabled": 0, "fusion_lat": 0.0, "lat": 38.92357583333333, "bike_id": "df5980d569facbd65b9080619f65abef", "fusion_lon": 0.0}, {"rental_uris": {"ios": "https://dc.lft.to/lastmile_qr_scan", "android": "https://dc.lft.to/lastmile_qr_scan"}, "type": "electric_scooter", "name": "aa0ebf1a664ca3ba7a681eb4e0b7b4a2", "is_reserved": 0, "lon": -77.00039383333333, "is_disabled": 0, "fusion_lat": 0.0, "lat": 38.875062166666666, "bike_id": "aa0ebf1a664ca3ba7a681eb4e0b7b4a2", "fusion_lon": 0.0}, {"rental_uris": {"ios": "https://dc.lft.to/lastmile_qr_scan", "android": "https://dc.lft.to/lastmile_qr_scan"}, "type": "electric_scooter", "name": "cb1bf3288dae45906f9fa6ffa9edda07", "is_reserved": 0, "lon": -77.0586425, "is_disabled": 0, "fusion_lat": 0.0, "lat": 38.904497, "bike_id": "cb1bf3288dae45906f9fa6ffa9edda07", "fusion_lon": 0.0}, {"rental_uris": {"ios": "https://dc.lft.to/lastmile_qr_scan", "android": "https://dc.lft.to/lastmile_qr_scan"}, "type": "electric_scooter", "name": "812db30e1ba40c0d3af2eb3d100a28f6", "is_reserved": 0, "lon": -77.04135833333333, "is_disabled": 0, "fusion_lat": 0.0, "lat": 38.934781, "bike_id": "812db30e1ba40c0d3af2eb3d100a28f6", "fusion_lon": 0.0}, {"rental_uris": {"ios": "https://dc.lft.to/lastmile_qr_scan", "android": "https://dc.lft.to/lastmile_qr_scan"}, "type": "electric_scooter", "name": "a9c695f693aa3bfbcc6a6569ca4ded8a", "is_reserved": 0, "lon": -77.02285283333333, "is_disabled": 0, "fusion_lat": 0.0, "lat": 38.90790633333334, "bike_id": "a9c695f693aa3bfbcc6a6569ca4ded8a", "fusion_lon": 0.0}, {"rental_uris": {"ios": "https://dc.lft.to/lastmile_qr_scan", "android": "https://dc.lft.to/lastmile_qr_scan"}, "type": "electric_scooter", "name": "8ac583cb77cb37aeac9f309543dd8150", "is_reserved": 0, "lon": -77.01312633333333, "is_disabled": 0, "fusion_lat": 0.0, "lat": 38.9565515, "bike_id": "8ac583cb77cb37aeac9f309543dd8150", "fusion_lon": 0.0}, {"rental_uris": {"ios": "https://dc.lft.to/lastmile_qr_scan", "android": "https://dc.lft.to/lastmile_qr_scan"}, "type": "electric_scooter", "name": "5574e67e6d3d6b7da2dea46e324c432d", "is_reserved": 0, "lon": -77.04126933333333, "is_disabled": 0, "fusion_lat": 0.0, "lat": 38.90648766666666, "bike_id": "5574e67e6d3d6b7da2dea46e324c432d", "fusion_lon": 0.0}, {"rental_uris": {"ios": "https://dc.lft.to/lastmile_qr_scan", "android": "https://dc.lft.to/lastmile_qr_scan"}, "type": "electric_bike", "name": "6ca85036ca26c39975342652ad723629", "is_reserved": 0, "lon": -76.99126633333333, "is_disabled": 0, "fusion_lat": 0.0, "lat": 38.88236766666667, "bike_id": "6ca85036ca26c39975342652ad723629", "fusion_lon": 0.0}, {"rental_uris": {"ios": "https://dc.lft.to/lastmile_qr_scan", "android": "https://dc.lft.to/lastmile_qr_scan"}, "type": "electric_scooter", "name": "27ccad29386b43912aa72c725ca7341b", "is_reserved": 0, "lon": -77.02691183333333, "is_disabled": 0, "fusion_lat": 0.0, "lat": 38.9004265, "bike_id": "27ccad29386b43912aa72c725ca7341b", "fusion_lon": 0.0}, {"rental_uris": {"ios": "https://dc.lft.to/lastmile_qr_scan", "android": "https://dc.lft.to/lastmile_qr_scan"}, "type": "electric_scooter", "name": "56f24c22a486e693e50f2eaa0e69311a", "is_reserved": 0, "lon": -77.02300416666667, "is_disabled": 0, "fusion_lat": 0.0, "lat": 38.961323, "bike_id": "56f24c22a486e693e50f2eaa0e69311a", "fusion_lon": 0.0}, {"rental_uris": {"ios": "https://dc.lft.to/lastmile_qr_scan", "android": "https://dc.lft.to/lastmile_qr_scan"}, "type": "electric_scooter", "name": "616b5d3516fdde7a012ddf1f82b7fc48", "is_reserved": 0, "lon": -77.00588166666667, "is_disabled": 0, "fusion_lat": 0.0, "lat": 38.87572133333333, "bike_id": "616b5d3516fdde7a012ddf1f82b7fc48", "fusion_lon": 0.0}, {"rental_uris": {"ios": "https://dc.lft.to/lastmile_qr_scan", "android": "https://dc.lft.to/lastmile_qr_scan"}, "type": "electric_bike", "name": "20a12cf2fa2d31b0f402794e987d053b", "is_reserved": 0, "lon": -77.01507316666667, "is_disabled": 0, "fusion_lat": 0.0, "lat": 38.9024075, "bike_id": "20a12cf2fa2d31b0f402794e987d053b", "fusion_lon": 0.0}, {"rental_uris": {"ios": "https://dc.lft.to/lastmile_qr_scan", "android": "https://dc.lft.to/lastmile_qr_scan"}, "type": "electric_bike", "name": "d76ff13f7a833fa915519cde1ebf338e", "is_reserved": 0, "lon": -77.00206266666666, "is_disabled": 0, "fusion_lat": 0.0, "lat": 38.988468, "bike_id": "d76ff13f7a833fa915519cde1ebf338e", "fusion_lon": 0.0}, {"rental_uris": {"ios": "https://dc.lft.to/lastmile_qr_scan", "android": "https://dc.lft.to/lastmile_qr_scan"}, "type": "electric_scooter", "name": "12efbd7dbc1c9fd678c0d806c833b913", "is_reserved": 0, "lon": -77.03367716666666, "is_disabled": 0, "fusion_lat": 0.0, "lat": 38.910414, "bike_id": "12efbd7dbc1c9fd678c0d806c833b913", "fusion_lon": 0.0}, {"rental_uris": {"ios": "https://dc.lft.to/lastmile_qr_scan", "android": "https://dc.lft.to/lastmile_qr_scan"}, "type": "electric_scooter", "name": "32f32032c07c838c04c3fc5c54842c87", "is_reserved": 0, "lon": -77.07330833333333, "is_disabled": 0, "fusion_lat": 0.0, "lat": 38.91364166666666, "bike_id": "32f32032c07c838c04c3fc5c54842c87", "fusion_lon": 0.0}, {"rental_uris": {"ios": "https://dc.lft.to/lastmile_qr_scan", "android": "https://dc.lft.to/lastmile_qr_scan"}, "type": "electric_scooter", "name": "608cf665d3480a97e57e4d7746d1dee1", "is_reserved": 0, "lon": -76.92892633333334, "is_disabled": 0, "fusion_lat": 0.0, "lat": 38.87946133333333, "bike_id": "608cf665d3480a97e57e4d7746d1dee1", "fusion_lon": 0.0}, {"rental_uris": {"ios": "https://dc.lft.to/lastmile_qr_scan", "android": "https://dc.lft.to/lastmile_qr_scan"}, "type": "electric_bike", "name": "90d7816f32f42a52d47b2c4050793bb1", "is_reserved": 0, "lon": -77.02248766666666, "is_disabled": 0, "fusion_lat": 0.0, "lat": 38.89403216666667, "bike_id": "90d7816f32f42a52d47b2c4050793bb1", "fusion_lon": 0.0}, {"rental_uris": {"ios": "https://dc.lft.to/lastmile_qr_scan", "android": "https://dc.lft.to/lastmile_qr_scan"}, "type": "electric_scooter", "name": "4c3a1fca6af8a3144b4e0da6559eaa63", "is_reserved": 0, "lon": -77.00557366666666, "is_disabled": 0, "fusion_lat": 0.0, "lat": 38.874701, "bike_id": "4c3a1fca6af8a3144b4e0da6559eaa63", "fusion_lon": 0.0}, {"rental_uris": {"ios": "https://dc.lft.to/lastmile_qr_scan", "android": "https://dc.lft.to/lastmile_qr_scan"}, "type": "electric_scooter", "name": "a4595d52b8336c63038734e456e8e48f", "is_reserved": 0, "lon": -77.00983816666667, "is_disabled": 0, "fusion_lat": 0.0, "lat": 38.905600166666666, "bike_id": "a4595d52b8336c63038734e456e8e48f", "fusion_lon": 0.0}, {"rental_uris": {"ios": "https://dc.lft.to/lastmile_qr_scan", "android": "https://dc.lft.to/lastmile_qr_scan"}, "type": "electric_scooter", "name": "7af99cae08e95abfaf1210be26e60f17", "is_reserved": 0, "lon": -77.03279733333333, "is_disabled": 0, "fusion_lat": 0.0, "lat": 38.904703, "bike_id": "7af99cae08e95abfaf1210be26e60f17", "fusion_lon": 0.0}, {"rental_uris": {"ios": "https://dc.lft.to/lastmile_qr_scan", "android": "https://dc.lft.to/lastmile_qr_scan"}, "type": "electric_scooter", "name": "72c75a9577e8e5a046d6f38290f53e70", "is_reserved": 0, "lon": -77.04043883333334, "is_disabled": 0, "fusion_lat": 0.0, "lat": 38.924559, "bike_id": "72c75a9577e8e5a046d6f38290f53e70", "fusion_lon": 0.0}, {"rental_uris": {"ios": "https://dc.lft.to/lastmile_qr_scan", "android": "https://dc.lft.to/lastmile_qr_scan"}, "type": "electric_scooter", "name": "61c2086ed93ab1b83a019d2f828b5709", "is_reserved": 0, "lon": -77.02972616666666, "is_disabled": 0, "fusion_lat": 0.0, "lat": 38.92409166666667, "bike_id": "61c2086ed93ab1b83a019d2f828b5709", "fusion_lon": 0.0}, {"rental_uris": {"ios": "https://dc.lft.to/lastmile_qr_scan", "android": "https://dc.lft.to/lastmile_qr_scan"}, "type": "electric_scooter", "name": "945bb345710af1ae02cd85f5ff03fe7e", "is_reserved": 0, "lon": -77.04316, "is_disabled": 0, "fusion_lat": 0.0, "lat": 38.899654166666664, "bike_id": "945bb345710af1ae02cd85f5ff03fe7e", "fusion_lon": 0.0}, {"rental_uris": {"ios": "https://dc.lft.to/lastmile_qr_scan", "android": "https://dc.lft.to/lastmile_qr_scan"}, "type": "electric_scooter", "name": "3790244e4aa369aae01237ad967b8426", "is_reserved": 0, "lon": -77.03957366666667, "is_disabled": 0, "fusion_lat": 0.0, "lat": 38.89241483333333, "bike_id": "3790244e4aa369aae01237ad967b8426", "fusion_lon": 0.0}, {"rental_uris": {"ios": "https://dc.lft.to/lastmile_qr_scan", "android": "https://dc.lft.to/lastmile_qr_scan"}, "type": "electric_scooter", "name": "5eb88add46f48bf65de69e280da0b291", "is_reserved": 0, "lon": -77.01899283333333, "is_disabled": 0, "fusion_lat": 0.0, "lat": 38.8980465, "bike_id": "5eb88add46f48bf65de69e280da0b291", "fusion_lon": 0.0}, {"rental_uris": {"ios": "https://dc.lft.to/lastmile_qr_scan", "android": "https://dc.lft.to/lastmile_qr_scan"}, "type": "electric_scooter", "name": "102b83596993002c7c1936ea80a046e1", "is_reserved": 0, "lon": -77.0383575, "is_disabled": 0, "fusion_lat": 0.0, "lat": 38.903872666666665, "bike_id": "102b83596993002c7c1936ea80a046e1", "fusion_lon": 0.0}, {"rental_uris": {"ios": "https://dc.lft.to/lastmile_qr_scan", "android": "https://dc.lft.to/lastmile_qr_scan"}, "type": "electric_scooter", "name": "f7d56316429938cb0ee7f9ee78a98b75", "is_reserved": 0, "lon": -76.99340183333334, "is_disabled": 0, "fusion_lat": 0.0, "lat": 38.881285166666665, "bike_id": "f7d56316429938cb0ee7f9ee78a98b75", "fusion_lon": 0.0}, {"rental_uris": {"ios": "https://dc.lft.to/lastmile_qr_scan", "android": "https://dc.lft.to/lastmile_qr_scan"}, "type": "electric_scooter", "name": "d3a392673c84605965b86d8c4c2f7e3a", "is_reserved": 0, "lon": -77.029115, "is_disabled": 0, "fusion_lat": 0.0, "lat": 38.9404415, "bike_id": "d3a392673c84605965b86d8c4c2f7e3a", "fusion_lon": 0.0}, {"rental_uris": {"ios": "https://dc.lft.to/lastmile_qr_scan", "android": "https://dc.lft.to/lastmile_qr_scan"}, "type": "electric_scooter", "name": "e6254078dd8c996d59058463bf19e395", "is_reserved": 0, "lon": -76.99594733333333, "is_disabled": 0, "fusion_lat": 0.0, "lat": 38.88429433333334, "bike_id": "e6254078dd8c996d59058463bf19e395", "fusion_lon": 0.0}, {"rental_uris": {"ios": "https://dc.lft.to/lastmile_qr_scan", "android": "https://dc.lft.to/lastmile_qr_scan"}, "type": "electric_scooter", "name": "1a075717b1dc591b8a0040eae607cd40", "is_reserved": 0, "lon": -76.970417, "is_disabled": 0, "fusion_lat": 0.0, "lat": 38.873235666666666, "bike_id": "1a075717b1dc591b8a0040eae607cd40", "fusion_lon": 0.0}, {"rental_uris": {"ios": "https://dc.lft.to/lastmile_qr_scan", "android": "https://dc.lft.to/lastmile_qr_scan"}, "type": "electric_scooter", "name": "e1dc8ee4a616019517fcc0876c773a34", "is_reserved": 0, "lon": -77.03288333333333, "is_disabled": 0, "fusion_lat": 0.0, "lat": 38.95630216666667, "bike_id": "e1dc8ee4a616019517fcc0876c773a34", "fusion_lon": 0.0}, {"rental_uris": {"ios": "https://dc.lft.to/lastmile_qr_scan", "android": "https://dc.lft.to/lastmile_qr_scan"}, "type": "electric_scooter", "name": "aa63503a516f031e480c357b768f313b", "is_reserved": 0, "lon": -77.022567, "is_disabled": 0, "fusion_lat": 0.0, "lat": 38.924104, "bike_id": "aa63503a516f031e480c357b768f313b", "fusion_lon": 0.0}, {"rental_uris": {"ios": "https://dc.lft.to/lastmile_qr_scan", "android": "https://dc.lft.to/lastmile_qr_scan"}, "type": "electric_bike", "name": "37ec5cc73545d108d7d6016c283db4db", "is_reserved": 0, "lon": -77.03018883333333, "is_disabled": 0, "fusion_lat": 0.0, "lat": 38.87846783333333, "bike_id": "37ec5cc73545d108d7d6016c283db4db", "fusion_lon": 0.0}, {"rental_uris": {"ios": "https://dc.lft.to/lastmile_qr_scan", "android": "https://dc.lft.to/lastmile_qr_scan"}, "type": "electric_scooter", "name": "78f426916d3fb1989707799063095d11", "is_reserved": 0, "lon": -77.018702, "is_disabled": 0, "fusion_lat": 0.0, "lat": 38.930549666666664, "bike_id": "78f426916d3fb1989707799063095d11", "fusion_lon": 0.0}, {"rental_uris": {"ios": "https://dc.lft.to/lastmile_qr_scan", "android": "https://dc.lft.to/lastmile_qr_scan"}, "type": "electric_bike", "name": "d3bfdc6cb10ee1d5a687c60e490ba8d2", "is_reserved": 0, "lon": -77.06693433333334, "is_disabled": 0, "fusion_lat": 0.0, "lat": 38.8317265, "bike_id": "d3bfdc6cb10ee1d5a687c60e490ba8d2", "fusion_lon": 0.0}, {"rental_uris": {"ios": "https://dc.lft.to/lastmile_qr_scan", "android": "https://dc.lft.to/lastmile_qr_scan"}, "type": "electric_scooter", "name": "32a5964f3317457362963ec9efec7a7b", "is_reserved": 0, "lon": -77.02721416666667, "is_disabled": 0, "fusion_lat": 0.0, "lat": 38.910114166666666, "bike_id": "32a5964f3317457362963ec9efec7a7b", "fusion_lon": 0.0}, {"rental_uris": {"ios": "https://dc.lft.to/lastmile_qr_scan", "android": "https://dc.lft.to/lastmile_qr_scan"}, "type": "electric_scooter", "name": "481ed34c31433265e9b5a0197ef610e6", "is_reserved": 0, "lon": -77.0211155, "is_disabled": 0, "fusion_lat": 0.0, "lat": 38.90940783333333, "bike_id": "481ed34c31433265e9b5a0197ef610e6", "fusion_lon": 0.0}, {"rental_uris": {"ios": "https://dc.lft.to/lastmile_qr_scan", "android": "https://dc.lft.to/lastmile_qr_scan"}, "type": "electric_scooter", "name": "0427585116236ede43afcfce429e3d23", "is_reserved": 0, "lon": -77.02695083333333, "is_disabled": 0, "fusion_lat": 0.0, "lat": 38.90676783333333, "bike_id": "0427585116236ede43afcfce429e3d23", "fusion_lon": 0.0}, {"rental_uris": {"ios": "https://dc.lft.to/lastmile_qr_scan", "android": "https://dc.lft.to/lastmile_qr_scan"}, "type": "electric_scooter", "name": "083d6493480985942fca690dc984a6e1", "is_reserved": 0, "lon": -77.02200716666667, "is_disabled": 0, "fusion_lat": 0.0, "lat": 38.9515615, "bike_id": "083d6493480985942fca690dc984a6e1", "fusion_lon": 0.0}, {"rental_uris": {"ios": "https://dc.lft.to/lastmile_qr_scan", "android": "https://dc.lft.to/lastmile_qr_scan"}, "type": "electric_scooter", "name": "f2302e9e851b17932edff534611ae0ff", "is_reserved": 0, "lon": -77.021505, "is_disabled": 0, "fusion_lat": 0.0, "lat": 38.926077666666664, "bike_id": "f2302e9e851b17932edff534611ae0ff", "fusion_lon": 0.0}, {"rental_uris": {"ios": "https://dc.lft.to/lastmile_qr_scan", "android": "https://dc.lft.to/lastmile_qr_scan"}, "type": "electric_scooter", "name": "99df5b0b01f548e444d216e9f844d167", "is_reserved": 0, "lon": -77.07875516666667, "is_disabled": 0, "fusion_lat": 0.0, "lat": 38.9461205, "bike_id": "99df5b0b01f548e444d216e9f844d167", "fusion_lon": 0.0}, {"rental_uris": {"ios": "https://dc.lft.to/lastmile_qr_scan", "android": "https://dc.lft.to/lastmile_qr_scan"}, "type": "electric_scooter", "name": "61c9b42fa25f48a2b5928e3e04d3ca2b", "is_reserved": 0, "lon": -77.02147233333334, "is_disabled": 0, "fusion_lat": 0.0, "lat": 38.915498, "bike_id": "61c9b42fa25f48a2b5928e3e04d3ca2b", "fusion_lon": 0.0}, {"rental_uris": {"ios": "https://dc.lft.to/lastmile_qr_scan", "android": "https://dc.lft.to/lastmile_qr_scan"}, "type": "electric_scooter", "name": "7cff843b60565d22acab411626958140", "is_reserved": 0, "lon": -77.04507, "is_disabled": 0, "fusion_lat": 0.0, "lat": 38.89226633333333, "bike_id": "7cff843b60565d22acab411626958140", "fusion_lon": 0.0}, {"rental_uris": {"ios": "https://dc.lft.to/lastmile_qr_scan", "android": "https://dc.lft.to/lastmile_qr_scan"}, "type": "electric_scooter", "name": "83be56ee0dd6026534e5a824e26f8102", "is_reserved": 0, "lon": -77.03218716666667, "is_disabled": 0, "fusion_lat": 0.0, "lat": 38.8922515, "bike_id": "83be56ee0dd6026534e5a824e26f8102", "fusion_lon": 0.0}, {"rental_uris": {"ios": "https://dc.lft.to/lastmile_qr_scan", "android": "https://dc.lft.to/lastmile_qr_scan"}, "type": "electric_bike", "name": "aa9aecef70c42036a0d46eede0b70916", "is_reserved": 0, "lon": -77.09451583333333, "is_disabled": 0, "fusion_lat": 0.0, "lat": 38.8075775, "bike_id": "aa9aecef70c42036a0d46eede0b70916", "fusion_lon": 0.0}, {"rental_uris": {"ios": "https://dc.lft.to/lastmile_qr_scan", "android": "https://dc.lft.to/lastmile_qr_scan"}, "type": "electric_scooter", "name": "308f5070f7951229c5c84822b8670bc7", "is_reserved": 0, "lon": -77.006779, "is_disabled": 0, "fusion_lat": 0.0, "lat": 38.871505166666665, "bike_id": "308f5070f7951229c5c84822b8670bc7", "fusion_lon": 0.0}, {"rental_uris": {"ios": "https://dc.lft.to/lastmile_qr_scan", "android": "https://dc.lft.to/lastmile_qr_scan"}, "type": "electric_scooter", "name": "5506382fdbf0b39683fb0825fa20b3c0", "is_reserved": 0, "lon": -77.01939433333334, "is_disabled": 0, "fusion_lat": 0.0, "lat": 38.947032166666666, "bike_id": "5506382fdbf0b39683fb0825fa20b3c0", "fusion_lon": 0.0}, {"rental_uris": {"ios": "https://dc.lft.to/lastmile_qr_scan", "android": "https://dc.lft.to/lastmile_qr_scan"}, "type": "electric_scooter", "name": "f06d498eebdfba1d412312577b297fec", "is_reserved": 0, "lon": -77.02197333333334, "is_disabled": 0, "fusion_lat": 0.0, "lat": 38.892494666666664, "bike_id": "f06d498eebdfba1d412312577b297fec", "fusion_lon": 0.0}, {"rental_uris": {"ios": "https://dc.lft.to/lastmile_qr_scan", "android": "https://dc.lft.to/lastmile_qr_scan"}, "type": "electric_scooter", "name": "b6f533862e642889cf71c7865b0f9c75", "is_reserved": 0, "lon": -77.01891883333333, "is_disabled": 0, "fusion_lat": 0.0, "lat": 38.903439166666665, "bike_id": "b6f533862e642889cf71c7865b0f9c75", "fusion_lon": 0.0}, {"rental_uris": {"ios": "https://dc.lft.to/lastmile_qr_scan", "android": "https://dc.lft.to/lastmile_qr_scan"}, "type": "electric_scooter", "name": "7ee2efbfacbcc600e030244e0e89338f", "is_reserved": 0, "lon": -77.00156816666667, "is_disabled": 0, "fusion_lat": 0.0, "lat": 38.82135483333333, "bike_id": "7ee2efbfacbcc600e030244e0e89338f", "fusion_lon": 0.0}, {"rental_uris": {"ios": "https://dc.lft.to/lastmile_qr_scan", "android": "https://dc.lft.to/lastmile_qr_scan"}, "type": "electric_scooter", "name": "1875ec2cf4d7c84f2d05a7c36c2df42f", "is_reserved": 0, "lon": -77.00766516666667, "is_disabled": 0, "fusion_lat": 0.0, "lat": 38.952452666666666, "bike_id": "1875ec2cf4d7c84f2d05a7c36c2df42f", "fusion_lon": 0.0}, {"rental_uris": {"ios": "https://dc.lft.to/lastmile_qr_scan", "android": "https://dc.lft.to/lastmile_qr_scan"}, "type": "electric_scooter", "name": "b1028d5a12e4dec5a07d01e81ee3f70b", "is_reserved": 0, "lon": -77.02039616666667, "is_disabled": 0, "fusion_lat": 0.0, "lat": 38.894294333333335, "bike_id": "b1028d5a12e4dec5a07d01e81ee3f70b", "fusion_lon": 0.0}, {"rental_uris": {"ios": "https://dc.lft.to/lastmile_qr_scan", "android": "https://dc.lft.to/lastmile_qr_scan"}, "type": "electric_scooter", "name": "16117e568847c1f6f87188f78410039d", "is_reserved": 0, "lon": -76.93040666666667, "is_disabled": 0, "fusion_lat": 0.0, "lat": 38.88397166666667, "bike_id": "16117e568847c1f6f87188f78410039d", "fusion_lon": 0.0}, {"rental_uris": {"ios": "https://dc.lft.to/lastmile_qr_scan", "android": "https://dc.lft.to/lastmile_qr_scan"}, "type": "electric_bike", "name": "33f148b7136bd3a1c4f4cc2cd2e111e1", "is_reserved": 0, "lon": -76.97543716666667, "is_disabled": 0, "fusion_lat": 0.0, "lat": 38.9043375, "bike_id": "33f148b7136bd3a1c4f4cc2cd2e111e1", "fusion_lon": 0.0}, {"rental_uris": {"ios": "https://dc.lft.to/lastmile_qr_scan", "android": "https://dc.lft.to/lastmile_qr_scan"}, "type": "electric_scooter", "name": "6a87acd80843cb768012a3f9f1460697", "is_reserved": 0, "lon": -77.02806683333333, "is_disabled": 0, "fusion_lat": 0.0, "lat": 38.898749333333335, "bike_id": "6a87acd80843cb768012a3f9f1460697", "fusion_lon": 0.0}, {"rental_uris": {"ios": "https://dc.lft.to/lastmile_qr_scan", "android": "https://dc.lft.to/lastmile_qr_scan"}, "type": "electric_bike", "name": "47d6fee619a22c741bc39f137f24f3ee", "is_reserved": 0, "lon": -76.95156583333333, "is_disabled": 0, "fusion_lat": 0.0, "lat": 39.0843515, "bike_id": "47d6fee619a22c741bc39f137f24f3ee", "fusion_lon": 0.0}, {"rental_uris": {"ios": "https://dc.lft.to/lastmile_qr_scan", "android": "https://dc.lft.to/lastmile_qr_scan"}, "type": "electric_scooter", "name": "70082372cf373dd6dc5132fdd5a55855", "is_reserved": 0, "lon": -77.03480416666666, "is_disabled": 0, "fusion_lat": 0.0, "lat": 38.935379833333336, "bike_id": "70082372cf373dd6dc5132fdd5a55855", "fusion_lon": 0.0}, {"rental_uris": {"ios": "https://dc.lft.to/lastmile_qr_scan", "android": "https://dc.lft.to/lastmile_qr_scan"}, "type": "electric_scooter", "name": "57423b4e18560ff9552955cbd2a87d80", "is_reserved": 0, "lon": -77.06123883333333, "is_disabled": 0, "fusion_lat": 0.0, "lat": 38.9061175, "bike_id": "57423b4e18560ff9552955cbd2a87d80", "fusion_lon": 0.0}, {"rental_uris": {"ios": "https://dc.lft.to/lastmile_qr_scan", "android": "https://dc.lft.to/lastmile_qr_scan"}, "type": "electric_bike", "name": "ea17fa5843785c810f3b748ef8a114aa", "is_reserved": 0, "lon": -77.00134766666666, "is_disabled": 0, "fusion_lat": 0.0, "lat": 38.99501033333333, "bike_id": "ea17fa5843785c810f3b748ef8a114aa", "fusion_lon": 0.0}, {"rental_uris": {"ios": "https://dc.lft.to/lastmile_qr_scan", "android": "https://dc.lft.to/lastmile_qr_scan"}, "type": "electric_scooter", "name": "7f16543cbdf4e60f1e5a7703af84a74e", "is_reserved": 0, "lon": -76.997899, "is_disabled": 0, "fusion_lat": 0.0, "lat": 38.87636116666667, "bike_id": "7f16543cbdf4e60f1e5a7703af84a74e", "fusion_lon": 0.0}, {"rental_uris": {"ios": "https://dc.lft.to/lastmile_qr_scan", "android": "https://dc.lft.to/lastmile_qr_scan"}, "type": "electric_bike", "name": "042140348b83d1f5d16842f43d9b7b7a", "is_reserved": 0, "lon": -76.99286883333333, "is_disabled": 0, "fusion_lat": 0.0, "lat": 38.92658133333333, "bike_id": "042140348b83d1f5d16842f43d9b7b7a", "fusion_lon": 0.0}, {"rental_uris": {"ios": "https://dc.lft.to/lastmile_qr_scan", "android": "https://dc.lft.to/lastmile_qr_scan"}, "type": "electric_scooter", "name": "bd6bb23fbaf8aa2d6a16ae28e3a9698d", "is_reserved": 0, "lon": -77.04210283333333, "is_disabled": 0, "fusion_lat": 0.0, "lat": 38.92072433333333, "bike_id": "bd6bb23fbaf8aa2d6a16ae28e3a9698d", "fusion_lon": 0.0}, {"rental_uris": {"ios": "https://dc.lft.to/lastmile_qr_scan", "android": "https://dc.lft.to/lastmile_qr_scan"}, "type": "electric_bike", "name": "e29f9b00b8960ca75efa3ad03d6f6dc6", "is_reserved": 0, "lon": -76.95792833333333, "is_disabled": 0, "fusion_lat": 0.0, "lat": 38.98044983333333, "bike_id": "e29f9b00b8960ca75efa3ad03d6f6dc6", "fusion_lon": 0.0}, {"rental_uris": {"ios": "https://dc.lft.to/lastmile_qr_scan", "android": "https://dc.lft.to/lastmile_qr_scan"}, "type": "electric_scooter", "name": "9beaf6ed3fe45f5b73a281a07abfb483", "is_reserved": 0, "lon": -77.04397466666667, "is_disabled": 0, "fusion_lat": 0.0, "lat": 38.9224145, "bike_id": "9beaf6ed3fe45f5b73a281a07abfb483", "fusion_lon": 0.0}, {"rental_uris": {"ios": "https://dc.lft.to/lastmile_qr_scan", "android": "https://dc.lft.to/lastmile_qr_scan"}, "type": "electric_scooter", "name": "620f0cfebe690603320fd5f6a8f02909", "is_reserved": 0, "lon": -77.02366033333334, "is_disabled": 0, "fusion_lat": 0.0, "lat": 38.9310425, "bike_id": "620f0cfebe690603320fd5f6a8f02909", "fusion_lon": 0.0}, {"rental_uris": {"ios": "https://dc.lft.to/lastmile_qr_scan", "android": "https://dc.lft.to/lastmile_qr_scan"}, "type": "electric_scooter", "name": "87fbad99996fffc19dc19b7e62c38b27", "is_reserved": 0, "lon": -76.97564616666666, "is_disabled": 0, "fusion_lat": 0.0, "lat": 38.94423533333333, "bike_id": "87fbad99996fffc19dc19b7e62c38b27", "fusion_lon": 0.0}, {"rental_uris": {"ios": "https://dc.lft.to/lastmile_qr_scan", "android": "https://dc.lft.to/lastmile_qr_scan"}, "type": "electric_bike", "name": "789c7dace90efb10a2ef22e7ba281129", "is_reserved": 0, "lon": -77.0243525, "is_disabled": 0, "fusion_lat": 0.0, "lat": 38.95736566666667, "bike_id": "789c7dace90efb10a2ef22e7ba281129", "fusion_lon": 0.0}, {"rental_uris": {"ios": "https://dc.lft.to/lastmile_qr_scan", "android": "https://dc.lft.to/lastmile_qr_scan"}, "type": "electric_scooter", "name": "4c291a2899df7066326a70e3feb563cc", "is_reserved": 0, "lon": -76.99483766666667, "is_disabled": 0, "fusion_lat": 0.0, "lat": 38.862194833333334, "bike_id": "4c291a2899df7066326a70e3feb563cc", "fusion_lon": 0.0}, {"rental_uris": {"ios": "https://dc.lft.to/lastmile_qr_scan", "android": "https://dc.lft.to/lastmile_qr_scan"}, "type": "electric_scooter", "name": "952c08c01a6678c8c1078d2edfb32d95", "is_reserved": 0, "lon": -77.03149483333333, "is_disabled": 0, "fusion_lat": 0.0, "lat": 38.882953, "bike_id": "952c08c01a6678c8c1078d2edfb32d95", "fusion_lon": 0.0}, {"rental_uris": {"ios": "https://dc.lft.to/lastmile_qr_scan", "android": "https://dc.lft.to/lastmile_qr_scan"}, "type": "electric_scooter", "name": "6f52422534bde4325c0926b3c18772e6", "is_reserved": 0, "lon": -77.05000616666666, "is_disabled": 0, "fusion_lat": 0.0, "lat": 38.892352833333334, "bike_id": "6f52422534bde4325c0926b3c18772e6", "fusion_lon": 0.0}, {"rental_uris": {"ios": "https://dc.lft.to/lastmile_qr_scan", "android": "https://dc.lft.to/lastmile_qr_scan"}, "type": "electric_scooter", "name": "1e118cecff93baca233d48b8ad3303ef", "is_reserved": 0, "lon": -77.036522, "is_disabled": 0, "fusion_lat": 0.0, "lat": 38.954632333333336, "bike_id": "1e118cecff93baca233d48b8ad3303ef", "fusion_lon": 0.0}, {"rental_uris": {"ios": "https://dc.lft.to/lastmile_qr_scan", "android": "https://dc.lft.to/lastmile_qr_scan"}, "type": "electric_scooter", "name": "7489a70725cf66444d80a5123be332f6", "is_reserved": 0, "lon": -77.022176, "is_disabled": 0, "fusion_lat": 0.0, "lat": 38.92475, "bike_id": "7489a70725cf66444d80a5123be332f6", "fusion_lon": 0.0}, {"rental_uris": {"ios": "https://dc.lft.to/lastmile_qr_scan", "android": "https://dc.lft.to/lastmile_qr_scan"}, "type": "electric_scooter", "name": "93aac77375c46ad942e0568732c4bc15", "is_reserved": 0, "lon": -77.02378283333333, "is_disabled": 0, "fusion_lat": 0.0, "lat": 38.90949233333333, "bike_id": "93aac77375c46ad942e0568732c4bc15", "fusion_lon": 0.0}, {"rental_uris": {"ios": "https://dc.lft.to/lastmile_qr_scan", "android": "https://dc.lft.to/lastmile_qr_scan"}, "type": "electric_scooter", "name": "47bf4fcaba8967b92c352ac949323bc9", "is_reserved": 0, "lon": -77.05872533333333, "is_disabled": 0, "fusion_lat": 0.0, "lat": 38.94238583333333, "bike_id": "47bf4fcaba8967b92c352ac949323bc9", "fusion_lon": 0.0}, {"rental_uris": {"ios": "https://dc.lft.to/lastmile_qr_scan", "android": "https://dc.lft.to/lastmile_qr_scan"}, "type": "electric_scooter", "name": "919571919fab05e4cccc3d3522264cf2", "is_reserved": 0, "lon": -76.99556866666667, "is_disabled": 0, "fusion_lat": 0.0, "lat": 38.926754833333334, "bike_id": "919571919fab05e4cccc3d3522264cf2", "fusion_lon": 0.0}, {"rental_uris": {"ios": "https://dc.lft.to/lastmile_qr_scan", "android": "https://dc.lft.to/lastmile_qr_scan"}, "type": "electric_scooter", "name": "05bad9fc07f1b1874da6e0a9b929f6ed", "is_reserved": 0, "lon": -77.0315535, "is_disabled": 0, "fusion_lat": 0.0, "lat": 38.91697033333333, "bike_id": "05bad9fc07f1b1874da6e0a9b929f6ed", "fusion_lon": 0.0}, {"rental_uris": {"ios": "https://dc.lft.to/lastmile_qr_scan", "android": "https://dc.lft.to/lastmile_qr_scan"}, "type": "electric_scooter", "name": "ea75d24a11e686a6af013ec9d97802f6", "is_reserved": 0, "lon": -77.04197983333333, "is_disabled": 0, "fusion_lat": 0.0, "lat": 38.922018333333334, "bike_id": "ea75d24a11e686a6af013ec9d97802f6", "fusion_lon": 0.0}, {"rental_uris": {"ios": "https://dc.lft.to/lastmile_qr_scan", "android": "https://dc.lft.to/lastmile_qr_scan"}, "type": "electric_scooter", "name": "b6bcdcd0a92f311852295cf8ce57ee6c", "is_reserved": 0, "lon": -76.92919633333334, "is_disabled": 0, "fusion_lat": 0.0, "lat": 38.88658, "bike_id": "b6bcdcd0a92f311852295cf8ce57ee6c", "fusion_lon": 0.0}, {"rental_uris": {"ios": "https://dc.lft.to/lastmile_qr_scan", "android": "https://dc.lft.to/lastmile_qr_scan"}, "type": "electric_scooter", "name": "f4bc360b93f7691b6fcefa987fe24891", "is_reserved": 0, "lon": -76.98732766666667, "is_disabled": 0, "fusion_lat": 0.0, "lat": 38.842273, "bike_id": "f4bc360b93f7691b6fcefa987fe24891", "fusion_lon": 0.0}, {"rental_uris": {"ios": "https://dc.lft.to/lastmile_qr_scan", "android": "https://dc.lft.to/lastmile_qr_scan"}, "type": "electric_scooter", "name": "3d2e4eff2c156ce20e71ada7f60059b4", "is_reserved": 0, "lon": -77.0322995, "is_disabled": 0, "fusion_lat": 0.0, "lat": 38.938768333333336, "bike_id": "3d2e4eff2c156ce20e71ada7f60059b4", "fusion_lon": 0.0}, {"rental_uris": {"ios": "https://dc.lft.to/lastmile_qr_scan", "android": "https://dc.lft.to/lastmile_qr_scan"}, "type": "electric_scooter", "name": "da2e3cec7efc0c4fef882cdb78e5ef72", "is_reserved": 0, "lon": -77.04566366666667, "is_disabled": 0, "fusion_lat": 0.0, "lat": 38.919424166666666, "bike_id": "da2e3cec7efc0c4fef882cdb78e5ef72", "fusion_lon": 0.0}, {"rental_uris": {"ios": "https://dc.lft.to/lastmile_qr_scan", "android": "https://dc.lft.to/lastmile_qr_scan"}, "type": "electric_scooter", "name": "d1f7575c9fecfb65ed4aed374c32b5e8", "is_reserved": 0, "lon": -77.08338216666667, "is_disabled": 0, "fusion_lat": 0.0, "lat": 38.894155, "bike_id": "d1f7575c9fecfb65ed4aed374c32b5e8", "fusion_lon": 0.0}, {"rental_uris": {"ios": "https://dc.lft.to/lastmile_qr_scan", "android": "https://dc.lft.to/lastmile_qr_scan"}, "type": "electric_scooter", "name": "5b449e893b86910e6807b178dce09300", "is_reserved": 0, "lon": -77.0407015, "is_disabled": 0, "fusion_lat": 0.0, "lat": 38.904492, "bike_id": "5b449e893b86910e6807b178dce09300", "fusion_lon": 0.0}, {"rental_uris": {"ios": "https://dc.lft.to/lastmile_qr_scan", "android": "https://dc.lft.to/lastmile_qr_scan"}, "type": "electric_scooter", "name": "2997d714a527b7fb489eab51a0c5fbf8", "is_reserved": 0, "lon": -76.99689016666666, "is_disabled": 0, "fusion_lat": 0.0, "lat": 38.9218475, "bike_id": "2997d714a527b7fb489eab51a0c5fbf8", "fusion_lon": 0.0}, {"rental_uris": {"ios": "https://dc.lft.to/lastmile_qr_scan", "android": "https://dc.lft.to/lastmile_qr_scan"}, "type": "electric_scooter", "name": "ad7f3dad00c75d994da96cdb381ecc5a", "is_reserved": 0, "lon": -77.02572433333333, "is_disabled": 0, "fusion_lat": 0.0, "lat": 38.88490733333333, "bike_id": "ad7f3dad00c75d994da96cdb381ecc5a", "fusion_lon": 0.0}, {"rental_uris": {"ios": "https://dc.lft.to/lastmile_qr_scan", "android": "https://dc.lft.to/lastmile_qr_scan"}, "type": "electric_scooter", "name": "82c171514e97d8e1a971de2b6e491e1f", "is_reserved": 0, "lon": -77.0135705, "is_disabled": 0, "fusion_lat": 0.0, "lat": 38.91931783333333, "bike_id": "82c171514e97d8e1a971de2b6e491e1f", "fusion_lon": 0.0}, {"rental_uris": {"ios": "https://dc.lft.to/lastmile_qr_scan", "android": "https://dc.lft.to/lastmile_qr_scan"}, "type": "electric_scooter", "name": "9ee1dc1abe455464bcee7b18ae159fa3", "is_reserved": 0, "lon": -77.031652, "is_disabled": 0, "fusion_lat": 0.0, "lat": 38.90112233333333, "bike_id": "9ee1dc1abe455464bcee7b18ae159fa3", "fusion_lon": 0.0}, {"rental_uris": {"ios": "https://dc.lft.to/lastmile_qr_scan", "android": "https://dc.lft.to/lastmile_qr_scan"}, "type": "electric_bike", "name": "8206745cb067efc8b3716e05e58ad8bc", "is_reserved": 0, "lon": -76.96151983333333, "is_disabled": 0, "fusion_lat": 0.0, "lat": 38.856209, "bike_id": "8206745cb067efc8b3716e05e58ad8bc", "fusion_lon": 0.0}, {"rental_uris": {"ios": "https://dc.lft.to/lastmile_qr_scan", "android": "https://dc.lft.to/lastmile_qr_scan"}, "type": "electric_scooter", "name": "622a38eca1bbc1a74751d2c0bf6b38f2", "is_reserved": 0, "lon": -77.0036145, "is_disabled": 0, "fusion_lat": 0.0, "lat": 38.899104666666666, "bike_id": "622a38eca1bbc1a74751d2c0bf6b38f2", "fusion_lon": 0.0}, {"rental_uris": {"ios": "https://dc.lft.to/lastmile_qr_scan", "android": "https://dc.lft.to/lastmile_qr_scan"}, "type": "electric_scooter", "name": "234018c88f6f82a2c38488ed9ba9c58a", "is_reserved": 0, "lon": -77.03947916666667, "is_disabled": 0, "fusion_lat": 0.0, "lat": 38.90118483333333, "bike_id": "234018c88f6f82a2c38488ed9ba9c58a", "fusion_lon": 0.0}, {"rental_uris": {"ios": "https://dc.lft.to/lastmile_qr_scan", "android": "https://dc.lft.to/lastmile_qr_scan"}, "type": "electric_scooter", "name": "9ddaf3d53b0efa6297444af57b31840c", "is_reserved": 0, "lon": -77.04888216666667, "is_disabled": 0, "fusion_lat": 0.0, "lat": 38.918337333333334, "bike_id": "9ddaf3d53b0efa6297444af57b31840c", "fusion_lon": 0.0}, {"rental_uris": {"ios": "https://dc.lft.to/lastmile_qr_scan", "android": "https://dc.lft.to/lastmile_qr_scan"}, "type": "electric_scooter", "name": "f31b339f345f0a048b5d74c8942f3a2c", "is_reserved": 0, "lon": -77.04277516666667, "is_disabled": 0, "fusion_lat": 0.0, "lat": 38.90648816666667, "bike_id": "f31b339f345f0a048b5d74c8942f3a2c", "fusion_lon": 0.0}, {"rental_uris": {"ios": "https://dc.lft.to/lastmile_qr_scan", "android": "https://dc.lft.to/lastmile_qr_scan"}, "type": "electric_scooter", "name": "4e3713f9533ed9ec98bc3da50045f923", "is_reserved": 0, "lon": -77.034712, "is_disabled": 0, "fusion_lat": 0.0, "lat": 38.902368, "bike_id": "4e3713f9533ed9ec98bc3da50045f923", "fusion_lon": 0.0}, {"rental_uris": {"ios": "https://dc.lft.to/lastmile_qr_scan", "android": "https://dc.lft.to/lastmile_qr_scan"}, "type": "electric_scooter", "name": "dd8b7150a1a9d41bbbe1ab0285ca8893", "is_reserved": 0, "lon": -77.02491983333333, "is_disabled": 0, "fusion_lat": 0.0, "lat": 38.92599516666667, "bike_id": "dd8b7150a1a9d41bbbe1ab0285ca8893", "fusion_lon": 0.0}, {"rental_uris": {"ios": "https://dc.lft.to/lastmile_qr_scan", "android": "https://dc.lft.to/lastmile_qr_scan"}, "type": "electric_scooter", "name": "41deae3fd3c23823ef51a4abe7f47714", "is_reserved": 0, "lon": -77.0652595, "is_disabled": 0, "fusion_lat": 0.0, "lat": 38.91116183333333, "bike_id": "41deae3fd3c23823ef51a4abe7f47714", "fusion_lon": 0.0}, {"rental_uris": {"ios": "https://dc.lft.to/lastmile_qr_scan", "android": "https://dc.lft.to/lastmile_qr_scan"}, "type": "electric_scooter", "name": "d7105c03fb13a5656e51a7fb8f9c38f4", "is_reserved": 0, "lon": -77.03192983333334, "is_disabled": 0, "fusion_lat": 0.0, "lat": 38.911695333333334, "bike_id": "d7105c03fb13a5656e51a7fb8f9c38f4", "fusion_lon": 0.0}, {"rental_uris": {"ios": "https://dc.lft.to/lastmile_qr_scan", "android": "https://dc.lft.to/lastmile_qr_scan"}, "type": "electric_scooter", "name": "2a7e7738a743878dc82397bf71d0356a", "is_reserved": 0, "lon": -77.04125333333333, "is_disabled": 0, "fusion_lat": 0.0, "lat": 38.90582833333333, "bike_id": "2a7e7738a743878dc82397bf71d0356a", "fusion_lon": 0.0}, {"rental_uris": {"ios": "https://dc.lft.to/lastmile_qr_scan", "android": "https://dc.lft.to/lastmile_qr_scan"}, "type": "electric_scooter", "name": "2106aec9b89d325ef007d890120a521f", "is_reserved": 0, "lon": -76.9915435, "is_disabled": 0, "fusion_lat": 0.0, "lat": 38.890200666666665, "bike_id": "2106aec9b89d325ef007d890120a521f", "fusion_lon": 0.0}, {"rental_uris": {"ios": "https://dc.lft.to/lastmile_qr_scan", "android": "https://dc.lft.to/lastmile_qr_scan"}, "type": "electric_scooter", "name": "96516fddbccbfbe9799958ed93f5b588", "is_reserved": 0, "lon": -77.04050483333333, "is_disabled": 0, "fusion_lat": 0.0, "lat": 38.930119166666664, "bike_id": "96516fddbccbfbe9799958ed93f5b588", "fusion_lon": 0.0}, {"rental_uris": {"ios": "https://dc.lft.to/lastmile_qr_scan", "android": "https://dc.lft.to/lastmile_qr_scan"}, "type": "electric_scooter", "name": "ba8cd69b8dfdd9af77219af544013081", "is_reserved": 0, "lon": -77.04312683333333, "is_disabled": 0, "fusion_lat": 0.0, "lat": 38.93422, "bike_id": "ba8cd69b8dfdd9af77219af544013081", "fusion_lon": 0.0}, {"rental_uris": {"ios": "https://dc.lft.to/lastmile_qr_scan", "android": "https://dc.lft.to/lastmile_qr_scan"}, "type": "electric_scooter", "name": "be711835c6d9f85737771e5ab855d2ec", "is_reserved": 0, "lon": -77.02948233333333, "is_disabled": 0, "fusion_lat": 0.0, "lat": 38.91696533333333, "bike_id": "be711835c6d9f85737771e5ab855d2ec", "fusion_lon": 0.0}, {"rental_uris": {"ios": "https://dc.lft.to/lastmile_qr_scan", "android": "https://dc.lft.to/lastmile_qr_scan"}, "type": "electric_scooter", "name": "9dfecb8369524200f8b52d2093a17277", "is_reserved": 0, "lon": -77.037137, "is_disabled": 0, "fusion_lat": 0.0, "lat": 38.900269, "bike_id": "9dfecb8369524200f8b52d2093a17277", "fusion_lon": 0.0}, {"rental_uris": {"ios": "https://dc.lft.to/lastmile_qr_scan", "android": "https://dc.lft.to/lastmile_qr_scan"}, "type": "electric_scooter", "name": "ab07a0a8137112ecd65d3d5e85839315", "is_reserved": 0, "lon": -77.052228, "is_disabled": 0, "fusion_lat": 0.0, "lat": 38.90975683333333, "bike_id": "ab07a0a8137112ecd65d3d5e85839315", "fusion_lon": 0.0}, {"rental_uris": {"ios": "https://dc.lft.to/lastmile_qr_scan", "android": "https://dc.lft.to/lastmile_qr_scan"}, "type": "electric_scooter", "name": "dd811ed94ff6029006f2341d8ad58779", "is_reserved": 0, "lon": -77.06000316666666, "is_disabled": 0, "fusion_lat": 0.0, "lat": 38.905235833333336, "bike_id": "dd811ed94ff6029006f2341d8ad58779", "fusion_lon": 0.0}, {"rental_uris": {"ios": "https://dc.lft.to/lastmile_qr_scan", "android": "https://dc.lft.to/lastmile_qr_scan"}, "type": "electric_scooter", "name": "12ba1b5a2a9ada8d9f3953810ede0263", "is_reserved": 0, "lon": -76.98373216666667, "is_disabled": 0, "fusion_lat": 0.0, "lat": 38.914776, "bike_id": "12ba1b5a2a9ada8d9f3953810ede0263", "fusion_lon": 0.0}, {"rental_uris": {"ios": "https://dc.lft.to/lastmile_qr_scan", "android": "https://dc.lft.to/lastmile_qr_scan"}, "type": "electric_scooter", "name": "a3258c8f43507ca85c15e2a17fc46897", "is_reserved": 0, "lon": -77.03282033333333, "is_disabled": 0, "fusion_lat": 0.0, "lat": 38.94794733333333, "bike_id": "a3258c8f43507ca85c15e2a17fc46897", "fusion_lon": 0.0}, {"rental_uris": {"ios": "https://dc.lft.to/lastmile_qr_scan", "android": "https://dc.lft.to/lastmile_qr_scan"}, "type": "electric_scooter", "name": "afc338bd522f94d7fada648df9bbd7bc", "is_reserved": 0, "lon": -77.02547516666667, "is_disabled": 0, "fusion_lat": 0.0, "lat": 38.95176266666667, "bike_id": "afc338bd522f94d7fada648df9bbd7bc", "fusion_lon": 0.0}, {"rental_uris": {"ios": "https://dc.lft.to/lastmile_qr_scan", "android": "https://dc.lft.to/lastmile_qr_scan"}, "type": "electric_scooter", "name": "37dcb273365a0288784fcf12f260a973", "is_reserved": 0, "lon": -77.02793383333334, "is_disabled": 0, "fusion_lat": 0.0, "lat": 38.9248545, "bike_id": "37dcb273365a0288784fcf12f260a973", "fusion_lon": 0.0}, {"rental_uris": {"ios": "https://dc.lft.to/lastmile_qr_scan", "android": "https://dc.lft.to/lastmile_qr_scan"}, "type": "electric_scooter", "name": "11fc7c9371b19242850f961e23208b9e", "is_reserved": 0, "lon": -77.00661766666667, "is_disabled": 0, "fusion_lat": 0.0, "lat": 38.900060333333336, "bike_id": "11fc7c9371b19242850f961e23208b9e", "fusion_lon": 0.0}, {"rental_uris": {"ios": "https://dc.lft.to/lastmile_qr_scan", "android": "https://dc.lft.to/lastmile_qr_scan"}, "type": "electric_scooter", "name": "832b701e677962f969a02d7eb4790f12", "is_reserved": 0, "lon": -77.02195366666666, "is_disabled": 0, "fusion_lat": 0.0, "lat": 38.894337166666666, "bike_id": "832b701e677962f969a02d7eb4790f12", "fusion_lon": 0.0}, {"rental_uris": {"ios": "https://dc.lft.to/lastmile_qr_scan", "android": "https://dc.lft.to/lastmile_qr_scan"}, "type": "electric_scooter", "name": "e5ae34e1bf496abf81cbcd958287f0ca", "is_reserved": 0, "lon": -77.0642305, "is_disabled": 0, "fusion_lat": 0.0, "lat": 38.90522883333333, "bike_id": "e5ae34e1bf496abf81cbcd958287f0ca", "fusion_lon": 0.0}, {"rental_uris": {"ios": "https://dc.lft.to/lastmile_qr_scan", "android": "https://dc.lft.to/lastmile_qr_scan"}, "type": "electric_scooter", "name": "6cdefb872bfad6b67cfa8df524259a64", "is_reserved": 0, "lon": -77.026804, "is_disabled": 0, "fusion_lat": 0.0, "lat": 38.900685333333335, "bike_id": "6cdefb872bfad6b67cfa8df524259a64", "fusion_lon": 0.0}, {"rental_uris": {"ios": "https://dc.lft.to/lastmile_qr_scan", "android": "https://dc.lft.to/lastmile_qr_scan"}, "type": "electric_scooter", "name": "ed309a63dcc844e97cbe96508c6fcb8c", "is_reserved": 0, "lon": -77.02217083333333, "is_disabled": 0, "fusion_lat": 0.0, "lat": 38.924683333333334, "bike_id": "ed309a63dcc844e97cbe96508c6fcb8c", "fusion_lon": 0.0}, {"rental_uris": {"ios": "https://dc.lft.to/lastmile_qr_scan", "android": "https://dc.lft.to/lastmile_qr_scan"}, "type": "electric_scooter", "name": "d116ab9aae1c0a293daf5e3d30d22361", "is_reserved": 0, "lon": -77.05052683333334, "is_disabled": 0, "fusion_lat": 0.0, "lat": 38.925876333333335, "bike_id": "d116ab9aae1c0a293daf5e3d30d22361", "fusion_lon": 0.0}, {"rental_uris": {"ios": "https://dc.lft.to/lastmile_qr_scan", "android": "https://dc.lft.to/lastmile_qr_scan"}, "type": "electric_scooter", "name": "2890bc8f3f58ff0094697b41f05308e3", "is_reserved": 0, "lon": -77.03143333333334, "is_disabled": 0, "fusion_lat": 0.0, "lat": 38.91622183333333, "bike_id": "2890bc8f3f58ff0094697b41f05308e3", "fusion_lon": 0.0}, {"rental_uris": {"ios": "https://dc.lft.to/lastmile_qr_scan", "android": "https://dc.lft.to/lastmile_qr_scan"}, "type": "electric_scooter", "name": "6a9728e527a1afb8e8fef1f14c49e29f", "is_reserved": 0, "lon": -76.92990683333333, "is_disabled": 0, "fusion_lat": 0.0, "lat": 38.89298766666667, "bike_id": "6a9728e527a1afb8e8fef1f14c49e29f", "fusion_lon": 0.0}, {"rental_uris": {"ios": "https://dc.lft.to/lastmile_qr_scan", "android": "https://dc.lft.to/lastmile_qr_scan"}, "type": "electric_scooter", "name": "5b5c92fa3563809dca6d9dc1736f6d6b", "is_reserved": 0, "lon": -76.97409783333333, "is_disabled": 0, "fusion_lat": 0.0, "lat": 38.90143416666667, "bike_id": "5b5c92fa3563809dca6d9dc1736f6d6b", "fusion_lon": 0.0}, {"rental_uris": {"ios": "https://dc.lft.to/lastmile_qr_scan", "android": "https://dc.lft.to/lastmile_qr_scan"}, "type": "electric_scooter", "name": "896aefc931b1853ec6e220935f906528", "is_reserved": 0, "lon": -77.025698, "is_disabled": 0, "fusion_lat": 0.0, "lat": 38.88748783333333, "bike_id": "896aefc931b1853ec6e220935f906528", "fusion_lon": 0.0}, {"rental_uris": {"ios": "https://dc.lft.to/lastmile_qr_scan", "android": "https://dc.lft.to/lastmile_qr_scan"}, "type": "electric_scooter", "name": "3065e658a8fa8f4618758649435f150a", "is_reserved": 0, "lon": -76.9789405, "is_disabled": 0, "fusion_lat": 0.0, "lat": 38.894012333333336, "bike_id": "3065e658a8fa8f4618758649435f150a", "fusion_lon": 0.0}, {"rental_uris": {"ios": "https://dc.lft.to/lastmile_qr_scan", "android": "https://dc.lft.to/lastmile_qr_scan"}, "type": "electric_scooter", "name": "db66027e900fadf9ceb704ca36a06223", "is_reserved": 0, "lon": -77.07323483333333, "is_disabled": 0, "fusion_lat": 0.0, "lat": 38.907805333333336, "bike_id": "db66027e900fadf9ceb704ca36a06223", "fusion_lon": 0.0}, {"rental_uris": {"ios": "https://dc.lft.to/lastmile_qr_scan", "android": "https://dc.lft.to/lastmile_qr_scan"}, "type": "electric_scooter", "name": "cda66a5e55bb5e0be364762c653cac47", "is_reserved": 0, "lon": -77.0440555, "is_disabled": 0, "fusion_lat": 0.0, "lat": 38.92954, "bike_id": "cda66a5e55bb5e0be364762c653cac47", "fusion_lon": 0.0}, {"rental_uris": {"ios": "https://dc.lft.to/lastmile_qr_scan", "android": "https://dc.lft.to/lastmile_qr_scan"}, "type": "electric_scooter", "name": "173fd9170e8bd14f70cf757dfd2c77b0", "is_reserved": 0, "lon": -77.03826716666667, "is_disabled": 0, "fusion_lat": 0.0, "lat": 38.91192566666667, "bike_id": "173fd9170e8bd14f70cf757dfd2c77b0", "fusion_lon": 0.0}, {"rental_uris": {"ios": "https://dc.lft.to/lastmile_qr_scan", "android": "https://dc.lft.to/lastmile_qr_scan"}, "type": "electric_scooter", "name": "eef7d1dc5c19ee4230f441b069795987", "is_reserved": 0, "lon": -76.943788, "is_disabled": 0, "fusion_lat": 0.0, "lat": 38.89119183333333, "bike_id": "eef7d1dc5c19ee4230f441b069795987", "fusion_lon": 0.0}, {"rental_uris": {"ios": "https://dc.lft.to/lastmile_qr_scan", "android": "https://dc.lft.to/lastmile_qr_scan"}, "type": "electric_bike", "name": "58a1ee76e592c02359f7377d78c28f77", "is_reserved": 0, "lon": -77.07011383333334, "is_disabled": 0, "fusion_lat": 0.0, "lat": 38.84111, "bike_id": "58a1ee76e592c02359f7377d78c28f77", "fusion_lon": 0.0}, {"rental_uris": {"ios": "https://dc.lft.to/lastmile_qr_scan", "android": "https://dc.lft.to/lastmile_qr_scan"}, "type": "electric_scooter", "name": "190730012ef7089f1363f13469da557b", "is_reserved": 0, "lon": -77.03170716666666, "is_disabled": 0, "fusion_lat": 0.0, "lat": 38.9202285, "bike_id": "190730012ef7089f1363f13469da557b", "fusion_lon": 0.0}, {"rental_uris": {"ios": "https://dc.lft.to/lastmile_qr_scan", "android": "https://dc.lft.to/lastmile_qr_scan"}, "type": "electric_scooter", "name": "34f0bf52015b46f10d8819ef8f7f73f4", "is_reserved": 0, "lon": -77.02589083333334, "is_disabled": 0, "fusion_lat": 0.0, "lat": 38.90501966666667, "bike_id": "34f0bf52015b46f10d8819ef8f7f73f4", "fusion_lon": 0.0}, {"rental_uris": {"ios": "https://dc.lft.to/lastmile_qr_scan", "android": "https://dc.lft.to/lastmile_qr_scan"}, "type": "electric_scooter", "name": "a18c2e29c472e331bbee080f669370b6", "is_reserved": 0, "lon": -77.03956633333334, "is_disabled": 0, "fusion_lat": 0.0, "lat": 38.9014285, "bike_id": "a18c2e29c472e331bbee080f669370b6", "fusion_lon": 0.0}, {"rental_uris": {"ios": "https://dc.lft.to/lastmile_qr_scan", "android": "https://dc.lft.to/lastmile_qr_scan"}, "type": "electric_scooter", "name": "04283d3400c5b74844932b705b639eaa", "is_reserved": 0, "lon": -77.04410266666666, "is_disabled": 0, "fusion_lat": 0.0, "lat": 38.91136616666667, "bike_id": "04283d3400c5b74844932b705b639eaa", "fusion_lon": 0.0}, {"rental_uris": {"ios": "https://dc.lft.to/lastmile_qr_scan", "android": "https://dc.lft.to/lastmile_qr_scan"}, "type": "electric_bike", "name": "65e7f0bde2a9af53206a59533ec57889", "is_reserved": 0, "lon": -77.003878, "is_disabled": 0, "fusion_lat": 0.0, "lat": 38.92110566666667, "bike_id": "65e7f0bde2a9af53206a59533ec57889", "fusion_lon": 0.0}, {"rental_uris": {"ios": "https://dc.lft.to/lastmile_qr_scan", "android": "https://dc.lft.to/lastmile_qr_scan"}, "type": "electric_scooter", "name": "47d05706fad3453203dfe2b4c975061e", "is_reserved": 0, "lon": -77.02410233333333, "is_disabled": 0, "fusion_lat": 0.0, "lat": 38.945051666666664, "bike_id": "47d05706fad3453203dfe2b4c975061e", "fusion_lon": 0.0}, {"rental_uris": {"ios": "https://dc.lft.to/lastmile_qr_scan", "android": "https://dc.lft.to/lastmile_qr_scan"}, "type": "electric_bike", "name": "b942e8ac4433dbdb5436b03785f7d7fc", "is_reserved": 0, "lon": -76.98059383333333, "is_disabled": 0, "fusion_lat": 0.0, "lat": 38.97253766666667, "bike_id": "b942e8ac4433dbdb5436b03785f7d7fc", "fusion_lon": 0.0}, {"rental_uris": {"ios": "https://dc.lft.to/lastmile_qr_scan", "android": "https://dc.lft.to/lastmile_qr_scan"}, "type": "electric_scooter", "name": "c7d4dc82a58d78216c9d2708caa18ac9", "is_reserved": 0, "lon": -77.0282925, "is_disabled": 0, "fusion_lat": 0.0, "lat": 38.938826666666664, "bike_id": "c7d4dc82a58d78216c9d2708caa18ac9", "fusion_lon": 0.0}, {"rental_uris": {"ios": "https://dc.lft.to/lastmile_qr_scan", "android": "https://dc.lft.to/lastmile_qr_scan"}, "type": "electric_bike", "name": "ed4c96ad6d3dba6945d5bf9a5e26d435", "is_reserved": 0, "lon": -77.1140575, "is_disabled": 0, "fusion_lat": 0.0, "lat": 38.87322783333333, "bike_id": "ed4c96ad6d3dba6945d5bf9a5e26d435", "fusion_lon": 0.0}, {"rental_uris": {"ios": "https://dc.lft.to/lastmile_qr_scan", "android": "https://dc.lft.to/lastmile_qr_scan"}, "type": "electric_scooter", "name": "3b67cd0b9b0efe4de018bc506f12e650", "is_reserved": 0, "lon": -77.06245033333333, "is_disabled": 0, "fusion_lat": 0.0, "lat": 38.90521366666667, "bike_id": "3b67cd0b9b0efe4de018bc506f12e650", "fusion_lon": 0.0}, {"rental_uris": {"ios": "https://dc.lft.to/lastmile_qr_scan", "android": "https://dc.lft.to/lastmile_qr_scan"}, "type": "electric_scooter", "name": "83a4a9f7b903929c8a83e147328cfbc8", "is_reserved": 0, "lon": -77.02436316666666, "is_disabled": 0, "fusion_lat": 0.0, "lat": 38.93776183333333, "bike_id": "83a4a9f7b903929c8a83e147328cfbc8", "fusion_lon": 0.0}, {"rental_uris": {"ios": "https://dc.lft.to/lastmile_qr_scan", "android": "https://dc.lft.to/lastmile_qr_scan"}, "type": "electric_scooter", "name": "6ff91b474fdb0f9f7e00e9da5b0a3bce", "is_reserved": 0, "lon": -77.07653116666667, "is_disabled": 0, "fusion_lat": 0.0, "lat": 38.91083583333333, "bike_id": "6ff91b474fdb0f9f7e00e9da5b0a3bce", "fusion_lon": 0.0}, {"rental_uris": {"ios": "https://dc.lft.to/lastmile_qr_scan", "android": "https://dc.lft.to/lastmile_qr_scan"}, "type": "electric_scooter", "name": "a09f6c6d8c16ff9cc9076cc3d745cee8", "is_reserved": 0, "lon": -77.04322666666667, "is_disabled": 0, "fusion_lat": 0.0, "lat": 38.93413433333333, "bike_id": "a09f6c6d8c16ff9cc9076cc3d745cee8", "fusion_lon": 0.0}, {"rental_uris": {"ios": "https://dc.lft.to/lastmile_qr_scan", "android": "https://dc.lft.to/lastmile_qr_scan"}, "type": "electric_scooter", "name": "364fa3f41332b39e39951e7f4b9d0cf9", "is_reserved": 0, "lon": -77.04859933333333, "is_disabled": 0, "fusion_lat": 0.0, "lat": 38.91269283333333, "bike_id": "364fa3f41332b39e39951e7f4b9d0cf9", "fusion_lon": 0.0}, {"rental_uris": {"ios": "https://dc.lft.to/lastmile_qr_scan", "android": "https://dc.lft.to/lastmile_qr_scan"}, "type": "electric_scooter", "name": "30b2b1a188fcf6046477fab008b479fb", "is_reserved": 0, "lon": -77.06334466666667, "is_disabled": 0, "fusion_lat": 0.0, "lat": 38.906908666666666, "bike_id": "30b2b1a188fcf6046477fab008b479fb", "fusion_lon": 0.0}, {"rental_uris": {"ios": "https://dc.lft.to/lastmile_qr_scan", "android": "https://dc.lft.to/lastmile_qr_scan"}, "type": "electric_scooter", "name": "f60e76313d9f1a32dc5524bf6b504b44", "is_reserved": 0, "lon": -76.98559783333333, "is_disabled": 0, "fusion_lat": 0.0, "lat": 38.89003483333333, "bike_id": "f60e76313d9f1a32dc5524bf6b504b44", "fusion_lon": 0.0}, {"rental_uris": {"ios": "https://dc.lft.to/lastmile_qr_scan", "android": "https://dc.lft.to/lastmile_qr_scan"}, "type": "electric_scooter", "name": "f92de133729444af66a636b5bc0db52c", "is_reserved": 0, "lon": -77.04484666666667, "is_disabled": 0, "fusion_lat": 0.0, "lat": 38.91087866666667, "bike_id": "f92de133729444af66a636b5bc0db52c", "fusion_lon": 0.0}, {"rental_uris": {"ios": "https://dc.lft.to/lastmile_qr_scan", "android": "https://dc.lft.to/lastmile_qr_scan"}, "type": "electric_scooter", "name": "72514ea7f7c3cccf6e199ebb4a3622bf", "is_reserved": 0, "lon": -77.032896, "is_disabled": 0, "fusion_lat": 0.0, "lat": 38.903829333333334, "bike_id": "72514ea7f7c3cccf6e199ebb4a3622bf", "fusion_lon": 0.0}, {"rental_uris": {"ios": "https://dc.lft.to/lastmile_qr_scan", "android": "https://dc.lft.to/lastmile_qr_scan"}, "type": "electric_scooter", "name": "d0d88a979bcc9006c65630404fbb500e", "is_reserved": 0, "lon": -77.04167166666667, "is_disabled": 0, "fusion_lat": 0.0, "lat": 38.906637833333335, "bike_id": "d0d88a979bcc9006c65630404fbb500e", "fusion_lon": 0.0}, {"rental_uris": {"ios": "https://dc.lft.to/lastmile_qr_scan", "android": "https://dc.lft.to/lastmile_qr_scan"}, "type": "electric_scooter", "name": "af9558df6b3221a0e0e4d579532972a0", "is_reserved": 0, "lon": -76.98449433333333, "is_disabled": 0, "fusion_lat": 0.0, "lat": 38.91474083333333, "bike_id": "af9558df6b3221a0e0e4d579532972a0", "fusion_lon": 0.0}, {"rental_uris": {"ios": "https://dc.lft.to/lastmile_qr_scan", "android": "https://dc.lft.to/lastmile_qr_scan"}, "type": "electric_scooter", "name": "886169203a91ea42aab6162b78a27419", "is_reserved": 0, "lon": -77.04502583333333, "is_disabled": 0, "fusion_lat": 0.0, "lat": 38.892284833333335, "bike_id": "886169203a91ea42aab6162b78a27419", "fusion_lon": 0.0}, {"rental_uris": {"ios": "https://dc.lft.to/lastmile_qr_scan", "android": "https://dc.lft.to/lastmile_qr_scan"}, "type": "electric_scooter", "name": "8104656318a507e2cc8ccf5e52066025", "is_reserved": 0, "lon": -77.04911416666667, "is_disabled": 0, "fusion_lat": 0.0, "lat": 38.91040483333333, "bike_id": "8104656318a507e2cc8ccf5e52066025", "fusion_lon": 0.0}, {"rental_uris": {"ios": "https://dc.lft.to/lastmile_qr_scan", "android": "https://dc.lft.to/lastmile_qr_scan"}, "type": "electric_scooter", "name": "22f0a53988464204dfd39330d9efbf78", "is_reserved": 0, "lon": -77.054614, "is_disabled": 0, "fusion_lat": 0.0, "lat": 38.92900183333333, "bike_id": "22f0a53988464204dfd39330d9efbf78", "fusion_lon": 0.0}, {"rental_uris": {"ios": "https://dc.lft.to/lastmile_qr_scan", "android": "https://dc.lft.to/lastmile_qr_scan"}, "type": "electric_scooter", "name": "b8dd998f49df28fe9c233c875a17c35d", "is_reserved": 0, "lon": -77.031221, "is_disabled": 0, "fusion_lat": 0.0, "lat": 38.92024466666667, "bike_id": "b8dd998f49df28fe9c233c875a17c35d", "fusion_lon": 0.0}, {"rental_uris": {"ios": "https://dc.lft.to/lastmile_qr_scan", "android": "https://dc.lft.to/lastmile_qr_scan"}, "type": "electric_scooter", "name": "a142a61635152600c128af11eb289fc3", "is_reserved": 0, "lon": -77.04169333333333, "is_disabled": 0, "fusion_lat": 0.0, "lat": 38.892656333333335, "bike_id": "a142a61635152600c128af11eb289fc3", "fusion_lon": 0.0}, {"rental_uris": {"ios": "https://dc.lft.to/lastmile_qr_scan", "android": "https://dc.lft.to/lastmile_qr_scan"}, "type": "electric_scooter", "name": "736088684218fef4f2de574660c89584", "is_reserved": 0, "lon": -77.00280516666666, "is_disabled": 0, "fusion_lat": 0.0, "lat": 38.901393666666664, "bike_id": "736088684218fef4f2de574660c89584", "fusion_lon": 0.0}, {"rental_uris": {"ios": "https://dc.lft.to/lastmile_qr_scan", "android": "https://dc.lft.to/lastmile_qr_scan"}, "type": "electric_scooter", "name": "1ea48e212851a56ba91e2da8ffd83e84", "is_reserved": 0, "lon": -77.02162466666667, "is_disabled": 0, "fusion_lat": 0.0, "lat": 38.8940775, "bike_id": "1ea48e212851a56ba91e2da8ffd83e84", "fusion_lon": 0.0}, {"rental_uris": {"ios": "https://dc.lft.to/lastmile_qr_scan", "android": "https://dc.lft.to/lastmile_qr_scan"}, "type": "electric_scooter", "name": "c7a043c11a1d836c361d7f287c0a9127", "is_reserved": 0, "lon": -77.01807216666667, "is_disabled": 0, "fusion_lat": 0.0, "lat": 38.919799, "bike_id": "c7a043c11a1d836c361d7f287c0a9127", "fusion_lon": 0.0}, {"rental_uris": {"ios": "https://dc.lft.to/lastmile_qr_scan", "android": "https://dc.lft.to/lastmile_qr_scan"}, "type": "electric_scooter", "name": "9f0fef291135f6c33c55248b8e94cfd9", "is_reserved": 0, "lon": -77.044659, "is_disabled": 0, "fusion_lat": 0.0, "lat": 38.908161166666666, "bike_id": "9f0fef291135f6c33c55248b8e94cfd9", "fusion_lon": 0.0}, {"rental_uris": {"ios": "https://dc.lft.to/lastmile_qr_scan", "android": "https://dc.lft.to/lastmile_qr_scan"}, "type": "electric_scooter", "name": "6579fc2d3c5d37fd814ec5a7aabba6a4", "is_reserved": 0, "lon": -77.04466133333334, "is_disabled": 0, "fusion_lat": 0.0, "lat": 38.900607, "bike_id": "6579fc2d3c5d37fd814ec5a7aabba6a4", "fusion_lon": 0.0}, {"rental_uris": {"ios": "https://dc.lft.to/lastmile_qr_scan", "android": "https://dc.lft.to/lastmile_qr_scan"}, "type": "electric_scooter", "name": "bd279f5ec6033b42ee6aea5e54e6aa4e", "is_reserved": 0, "lon": -77.028347, "is_disabled": 0, "fusion_lat": 0.0, "lat": 38.8873355, "bike_id": "bd279f5ec6033b42ee6aea5e54e6aa4e", "fusion_lon": 0.0}, {"rental_uris": {"ios": "https://dc.lft.to/lastmile_qr_scan", "android": "https://dc.lft.to/lastmile_qr_scan"}, "type": "electric_scooter", "name": "9b6e0a502603aa954c01e5d3e7b6c474", "is_reserved": 0, "lon": -77.04469116666667, "is_disabled": 0, "fusion_lat": 0.0, "lat": 38.914524666666665, "bike_id": "9b6e0a502603aa954c01e5d3e7b6c474", "fusion_lon": 0.0}, {"rental_uris": {"ios": "https://dc.lft.to/lastmile_qr_scan", "android": "https://dc.lft.to/lastmile_qr_scan"}, "type": "electric_scooter", "name": "4cd0de12bbd08e35cf477b95e8d2a380", "is_reserved": 0, "lon": -77.0347675, "is_disabled": 0, "fusion_lat": 0.0, "lat": 38.908329333333334, "bike_id": "4cd0de12bbd08e35cf477b95e8d2a380", "fusion_lon": 0.0}, {"rental_uris": {"ios": "https://dc.lft.to/lastmile_qr_scan", "android": "https://dc.lft.to/lastmile_qr_scan"}, "type": "electric_bike", "name": "52dbf6b6110544d7be0d0847c9b6f1b9", "is_reserved": 0, "lon": -77.00416016666667, "is_disabled": 0, "fusion_lat": 0.0, "lat": 38.98531833333333, "bike_id": "52dbf6b6110544d7be0d0847c9b6f1b9", "fusion_lon": 0.0}, {"rental_uris": {"ios": "https://dc.lft.to/lastmile_qr_scan", "android": "https://dc.lft.to/lastmile_qr_scan"}, "type": "electric_bike", "name": "483c0d83e7dc006c0ea22d4d3155e7e4", "is_reserved": 0, "lon": -77.04758783333334, "is_disabled": 0, "fusion_lat": 0.0, "lat": 38.899459666666665, "bike_id": "483c0d83e7dc006c0ea22d4d3155e7e4", "fusion_lon": 0.0}, {"rental_uris": {"ios": "https://dc.lft.to/lastmile_qr_scan", "android": "https://dc.lft.to/lastmile_qr_scan"}, "type": "electric_scooter", "name": "1efc949f3c5f0d45ec60a211f857de0f", "is_reserved": 0, "lon": -77.02124666666667, "is_disabled": 0, "fusion_lat": 0.0, "lat": 38.924121666666665, "bike_id": "1efc949f3c5f0d45ec60a211f857de0f", "fusion_lon": 0.0}, {"rental_uris": {"ios": "https://dc.lft.to/lastmile_qr_scan", "android": "https://dc.lft.to/lastmile_qr_scan"}, "type": "electric_scooter", "name": "5d31115e22d6f1ef5d5085299df23d04", "is_reserved": 0, "lon": -77.02392133333333, "is_disabled": 0, "fusion_lat": 0.0, "lat": 38.93194283333333, "bike_id": "5d31115e22d6f1ef5d5085299df23d04", "fusion_lon": 0.0}, {"rental_uris": {"ios": "https://dc.lft.to/lastmile_qr_scan", "android": "https://dc.lft.to/lastmile_qr_scan"}, "type": "electric_scooter", "name": "6e1c5612fead1c6c1655dd6a593ea319", "is_reserved": 0, "lon": -77.04055733333334, "is_disabled": 0, "fusion_lat": 0.0, "lat": 38.91750283333333, "bike_id": "6e1c5612fead1c6c1655dd6a593ea319", "fusion_lon": 0.0}, {"rental_uris": {"ios": "https://dc.lft.to/lastmile_qr_scan", "android": "https://dc.lft.to/lastmile_qr_scan"}, "type": "electric_scooter", "name": "a8f61678db82ff5306a5fcef0897c797", "is_reserved": 0, "lon": -77.03869566666667, "is_disabled": 0, "fusion_lat": 0.0, "lat": 38.918810666666666, "bike_id": "a8f61678db82ff5306a5fcef0897c797", "fusion_lon": 0.0}, {"rental_uris": {"ios": "https://dc.lft.to/lastmile_qr_scan", "android": "https://dc.lft.to/lastmile_qr_scan"}, "type": "electric_scooter", "name": "310ae854b69626229772c6ab691309c2", "is_reserved": 0, "lon": -76.98095483333333, "is_disabled": 0, "fusion_lat": 0.0, "lat": 38.9040185, "bike_id": "310ae854b69626229772c6ab691309c2", "fusion_lon": 0.0}, {"rental_uris": {"ios": "https://dc.lft.to/lastmile_qr_scan", "android": "https://dc.lft.to/lastmile_qr_scan"}, "type": "electric_scooter", "name": "f3e55fabe860746f2afc0a9e4cd32b4a", "is_reserved": 0, "lon": -77.02158733333333, "is_disabled": 0, "fusion_lat": 0.0, "lat": 38.894890833333335, "bike_id": "f3e55fabe860746f2afc0a9e4cd32b4a", "fusion_lon": 0.0}, {"rental_uris": {"ios": "https://dc.lft.to/lastmile_qr_scan", "android": "https://dc.lft.to/lastmile_qr_scan"}, "type": "electric_scooter", "name": "36e01c7cf08aa8696e650e52d4fc03c2", "is_reserved": 0, "lon": -77.026611, "is_disabled": 0, "fusion_lat": 0.0, "lat": 38.9386305, "bike_id": "36e01c7cf08aa8696e650e52d4fc03c2", "fusion_lon": 0.0}, {"rental_uris": {"ios": "https://dc.lft.to/lastmile_qr_scan", "android": "https://dc.lft.to/lastmile_qr_scan"}, "type": "electric_scooter", "name": "5ac4e072f41ac73de6d133f606b9337d", "is_reserved": 0, "lon": -76.94853833333333, "is_disabled": 0, "fusion_lat": 0.0, "lat": 38.8830145, "bike_id": "5ac4e072f41ac73de6d133f606b9337d", "fusion_lon": 0.0}, {"rental_uris": {"ios": "https://dc.lft.to/lastmile_qr_scan", "android": "https://dc.lft.to/lastmile_qr_scan"}, "type": "electric_scooter", "name": "041784e2a814df5232094588ae3e69ff", "is_reserved": 0, "lon": -77.02079116666667, "is_disabled": 0, "fusion_lat": 0.0, "lat": 38.924129666666666, "bike_id": "041784e2a814df5232094588ae3e69ff", "fusion_lon": 0.0}, {"rental_uris": {"ios": "https://dc.lft.to/lastmile_qr_scan", "android": "https://dc.lft.to/lastmile_qr_scan"}, "type": "electric_scooter", "name": "cea51106bfc347284c2bbcd4166b2202", "is_reserved": 0, "lon": -77.00709066666667, "is_disabled": 0, "fusion_lat": 0.0, "lat": 38.878303833333334, "bike_id": "cea51106bfc347284c2bbcd4166b2202", "fusion_lon": 0.0}, {"rental_uris": {"ios": "https://dc.lft.to/lastmile_qr_scan", "android": "https://dc.lft.to/lastmile_qr_scan"}, "type": "electric_scooter", "name": "95890c662ed28495f33b9cbcb2a7e7b7", "is_reserved": 0, "lon": -77.02335066666667, "is_disabled": 0, "fusion_lat": 0.0, "lat": 38.9307015, "bike_id": "95890c662ed28495f33b9cbcb2a7e7b7", "fusion_lon": 0.0}, {"rental_uris": {"ios": "https://dc.lft.to/lastmile_qr_scan", "android": "https://dc.lft.to/lastmile_qr_scan"}, "type": "electric_scooter", "name": "ab7e3e82cc36773561be227a8fcb624f", "is_reserved": 0, "lon": -77.0212315, "is_disabled": 0, "fusion_lat": 0.0, "lat": 38.92383133333333, "bike_id": "ab7e3e82cc36773561be227a8fcb624f", "fusion_lon": 0.0}, {"rental_uris": {"ios": "https://dc.lft.to/lastmile_qr_scan", "android": "https://dc.lft.to/lastmile_qr_scan"}, "type": "electric_scooter", "name": "de57b3865911b356fff824799c2062e5", "is_reserved": 0, "lon": -77.05903283333333, "is_disabled": 0, "fusion_lat": 0.0, "lat": 38.902726, "bike_id": "de57b3865911b356fff824799c2062e5", "fusion_lon": 0.0}, {"rental_uris": {"ios": "https://dc.lft.to/lastmile_qr_scan", "android": "https://dc.lft.to/lastmile_qr_scan"}, "type": "electric_scooter", "name": "bf8c77679d10d7be89ead3e95f429410", "is_reserved": 0, "lon": -77.0059135, "is_disabled": 0, "fusion_lat": 0.0, "lat": 38.8757305, "bike_id": "bf8c77679d10d7be89ead3e95f429410", "fusion_lon": 0.0}, {"rental_uris": {"ios": "https://dc.lft.to/lastmile_qr_scan", "android": "https://dc.lft.to/lastmile_qr_scan"}, "type": "electric_scooter", "name": "ac92464b43df8e475ffffb19470de7a8", "is_reserved": 0, "lon": -77.04174933333333, "is_disabled": 0, "fusion_lat": 0.0, "lat": 38.90142616666667, "bike_id": "ac92464b43df8e475ffffb19470de7a8", "fusion_lon": 0.0}, {"rental_uris": {"ios": "https://dc.lft.to/lastmile_qr_scan", "android": "https://dc.lft.to/lastmile_qr_scan"}, "type": "electric_scooter", "name": "cec17b0fbf1916c308b1be8a1e25f386", "is_reserved": 0, "lon": -77.0346305, "is_disabled": 0, "fusion_lat": 0.0, "lat": 38.909794166666664, "bike_id": "cec17b0fbf1916c308b1be8a1e25f386", "fusion_lon": 0.0}, {"rental_uris": {"ios": "https://dc.lft.to/lastmile_qr_scan", "android": "https://dc.lft.to/lastmile_qr_scan"}, "type": "electric_scooter", "name": "fa318b9babab32b88afdab9758728511", "is_reserved": 0, "lon": -76.97459916666666, "is_disabled": 0, "fusion_lat": 0.0, "lat": 38.8640725, "bike_id": "fa318b9babab32b88afdab9758728511", "fusion_lon": 0.0}, {"rental_uris": {"ios": "https://dc.lft.to/lastmile_qr_scan", "android": "https://dc.lft.to/lastmile_qr_scan"}, "type": "electric_scooter", "name": "70ef5fbf83bb51b34f185825099e91e2", "is_reserved": 0, "lon": -77.04171983333333, "is_disabled": 0, "fusion_lat": 0.0, "lat": 38.92563233333333, "bike_id": "70ef5fbf83bb51b34f185825099e91e2", "fusion_lon": 0.0}, {"rental_uris": {"ios": "https://dc.lft.to/lastmile_qr_scan", "android": "https://dc.lft.to/lastmile_qr_scan"}, "type": "electric_scooter", "name": "c8c7a4ca11ef12917cbdc50af66020f5", "is_reserved": 0, "lon": -77.024482, "is_disabled": 0, "fusion_lat": 0.0, "lat": 38.90321216666667, "bike_id": "c8c7a4ca11ef12917cbdc50af66020f5", "fusion_lon": 0.0}, {"rental_uris": {"ios": "https://dc.lft.to/lastmile_qr_scan", "android": "https://dc.lft.to/lastmile_qr_scan"}, "type": "electric_bike", "name": "e55c6b61fd1065088271aaacaafc35cf", "is_reserved": 0, "lon": -77.1265275, "is_disabled": 0, "fusion_lat": 0.0, "lat": 38.81912883333333, "bike_id": "e55c6b61fd1065088271aaacaafc35cf", "fusion_lon": 0.0}, {"rental_uris": {"ios": "https://dc.lft.to/lastmile_qr_scan", "android": "https://dc.lft.to/lastmile_qr_scan"}, "type": "electric_bike", "name": "807101f46080b7af3589426253a6c556", "is_reserved": 0, "lon": -77.08528266666667, "is_disabled": 0, "fusion_lat": 0.0, "lat": 38.856516166666665, "bike_id": "807101f46080b7af3589426253a6c556", "fusion_lon": 0.0}, {"rental_uris": {"ios": "https://dc.lft.to/lastmile_qr_scan", "android": "https://dc.lft.to/lastmile_qr_scan"}, "type": "electric_scooter", "name": "0ca9aeaff0e4681c660ab8f2b5cd65c9", "is_reserved": 0, "lon": -77.0279355, "is_disabled": 0, "fusion_lat": 0.0, "lat": 38.93081733333333, "bike_id": "0ca9aeaff0e4681c660ab8f2b5cd65c9", "fusion_lon": 0.0}, {"rental_uris": {"ios": "https://dc.lft.to/lastmile_qr_scan", "android": "https://dc.lft.to/lastmile_qr_scan"}, "type": "electric_scooter", "name": "5d696e11a255ea912e7fd2693acc445d", "is_reserved": 0, "lon": -77.09032633333334, "is_disabled": 0, "fusion_lat": 0.0, "lat": 38.95605833333333, "bike_id": "5d696e11a255ea912e7fd2693acc445d", "fusion_lon": 0.0}, {"rental_uris": {"ios": "https://dc.lft.to/lastmile_qr_scan", "android": "https://dc.lft.to/lastmile_qr_scan"}, "type": "electric_scooter", "name": "1ecdba9033333252e32ef3d2eb71ded5", "is_reserved": 0, "lon": -77.03416333333334, "is_disabled": 0, "fusion_lat": 0.0, "lat": 38.9219925, "bike_id": "1ecdba9033333252e32ef3d2eb71ded5", "fusion_lon": 0.0}, {"rental_uris": {"ios": "https://dc.lft.to/lastmile_qr_scan", "android": "https://dc.lft.to/lastmile_qr_scan"}, "type": "electric_scooter", "name": "22c941ba9ff6664b36aac80c176e43e5", "is_reserved": 0, "lon": -77.04051783333334, "is_disabled": 0, "fusion_lat": 0.0, "lat": 38.90409966666667, "bike_id": "22c941ba9ff6664b36aac80c176e43e5", "fusion_lon": 0.0}, {"rental_uris": {"ios": "https://dc.lft.to/lastmile_qr_scan", "android": "https://dc.lft.to/lastmile_qr_scan"}, "type": "electric_scooter", "name": "3892b133574cf70f5ec8970e0ae8e7db", "is_reserved": 0, "lon": -77.02466183333334, "is_disabled": 0, "fusion_lat": 0.0, "lat": 38.91701483333333, "bike_id": "3892b133574cf70f5ec8970e0ae8e7db", "fusion_lon": 0.0}, {"rental_uris": {"ios": "https://dc.lft.to/lastmile_qr_scan", "android": "https://dc.lft.to/lastmile_qr_scan"}, "type": "electric_scooter", "name": "c8079a044ea5a282d0cc68705bb9812d", "is_reserved": 0, "lon": -76.98037066666667, "is_disabled": 0, "fusion_lat": 0.0, "lat": 38.900140666666665, "bike_id": "c8079a044ea5a282d0cc68705bb9812d", "fusion_lon": 0.0}, {"rental_uris": {"ios": "https://dc.lft.to/lastmile_qr_scan", "android": "https://dc.lft.to/lastmile_qr_scan"}, "type": "electric_scooter", "name": "d3921142e73885aeccd049226af1260f", "is_reserved": 0, "lon": -77.03853833333334, "is_disabled": 0, "fusion_lat": 0.0, "lat": 38.903777, "bike_id": "d3921142e73885aeccd049226af1260f", "fusion_lon": 0.0}, {"rental_uris": {"ios": "https://dc.lft.to/lastmile_qr_scan", "android": "https://dc.lft.to/lastmile_qr_scan"}, "type": "electric_scooter", "name": "cf2760301edf501cf97091b9c056bf26", "is_reserved": 0, "lon": -77.01963566666667, "is_disabled": 0, "fusion_lat": 0.0, "lat": 38.923257166666666, "bike_id": "cf2760301edf501cf97091b9c056bf26", "fusion_lon": 0.0}, {"rental_uris": {"ios": "https://dc.lft.to/lastmile_qr_scan", "android": "https://dc.lft.to/lastmile_qr_scan"}, "type": "electric_bike", "name": "8186679edbae46e0d2a6781ce6d849c8", "is_reserved": 0, "lon": -76.98016366666667, "is_disabled": 0, "fusion_lat": 0.0, "lat": 38.853144, "bike_id": "8186679edbae46e0d2a6781ce6d849c8", "fusion_lon": 0.0}, {"rental_uris": {"ios": "https://dc.lft.to/lastmile_qr_scan", "android": "https://dc.lft.to/lastmile_qr_scan"}, "type": "electric_bike", "name": "62fad02a4f2b9eede79e3dad9a718dba", "is_reserved": 0, "lon": -76.98249366666667, "is_disabled": 0, "fusion_lat": 0.0, "lat": 38.952409333333335, "bike_id": "62fad02a4f2b9eede79e3dad9a718dba", "fusion_lon": 0.0}, {"rental_uris": {"ios": "https://dc.lft.to/lastmile_qr_scan", "android": "https://dc.lft.to/lastmile_qr_scan"}, "type": "electric_scooter", "name": "3b724ae4c912cafbef86785b1f0944be", "is_reserved": 0, "lon": -77.04201966666666, "is_disabled": 0, "fusion_lat": 0.0, "lat": 38.89267, "bike_id": "3b724ae4c912cafbef86785b1f0944be", "fusion_lon": 0.0}, {"rental_uris": {"ios": "https://dc.lft.to/lastmile_qr_scan", "android": "https://dc.lft.to/lastmile_qr_scan"}, "type": "electric_scooter", "name": "7cfbc96a3b6fb1797d662f102adabc8e", "is_reserved": 0, "lon": -77.03789016666667, "is_disabled": 0, "fusion_lat": 0.0, "lat": 38.921950833333334, "bike_id": "7cfbc96a3b6fb1797d662f102adabc8e", "fusion_lon": 0.0}, {"rental_uris": {"ios": "https://dc.lft.to/lastmile_qr_scan", "android": "https://dc.lft.to/lastmile_qr_scan"}, "type": "electric_scooter", "name": "fb3fd05fe0bacc4b2788a8aab4730561", "is_reserved": 0, "lon": -77.031641, "is_disabled": 0, "fusion_lat": 0.0, "lat": 38.936862833333336, "bike_id": "fb3fd05fe0bacc4b2788a8aab4730561", "fusion_lon": 0.0}, {"rental_uris": {"ios": "https://dc.lft.to/lastmile_qr_scan", "android": "https://dc.lft.to/lastmile_qr_scan"}, "type": "electric_scooter", "name": "5161f81574f9cd64e7d79a4444e175d5", "is_reserved": 0, "lon": -77.044949, "is_disabled": 0, "fusion_lat": 0.0, "lat": 38.896216333333335, "bike_id": "5161f81574f9cd64e7d79a4444e175d5", "fusion_lon": 0.0}, {"rental_uris": {"ios": "https://dc.lft.to/lastmile_qr_scan", "android": "https://dc.lft.to/lastmile_qr_scan"}, "type": "electric_scooter", "name": "51dfc1c2a20a25bb401746dfbffb7162", "is_reserved": 0, "lon": -77.05200016666667, "is_disabled": 0, "fusion_lat": 0.0, "lat": 38.902631, "bike_id": "51dfc1c2a20a25bb401746dfbffb7162", "fusion_lon": 0.0}, {"rental_uris": {"ios": "https://dc.lft.to/lastmile_qr_scan", "android": "https://dc.lft.to/lastmile_qr_scan"}, "type": "electric_scooter", "name": "d695b9fc7b18eafd93ad98f3e48da1b9", "is_reserved": 0, "lon": -77.03254816666667, "is_disabled": 0, "fusion_lat": 0.0, "lat": 38.91554566666667, "bike_id": "d695b9fc7b18eafd93ad98f3e48da1b9", "fusion_lon": 0.0}, {"rental_uris": {"ios": "https://dc.lft.to/lastmile_qr_scan", "android": "https://dc.lft.to/lastmile_qr_scan"}, "type": "electric_scooter", "name": "b722f3be7e3c1e26672d61c21d8c3f80", "is_reserved": 0, "lon": -77.015218, "is_disabled": 0, "fusion_lat": 0.0, "lat": 38.91334066666667, "bike_id": "b722f3be7e3c1e26672d61c21d8c3f80", "fusion_lon": 0.0}, {"rental_uris": {"ios": "https://dc.lft.to/lastmile_qr_scan", "android": "https://dc.lft.to/lastmile_qr_scan"}, "type": "electric_scooter", "name": "22b43c9b8724441747401d678471669b", "is_reserved": 0, "lon": -77.04085733333334, "is_disabled": 0, "fusion_lat": 0.0, "lat": 38.947883166666664, "bike_id": "22b43c9b8724441747401d678471669b", "fusion_lon": 0.0}, {"rental_uris": {"ios": "https://dc.lft.to/lastmile_qr_scan", "android": "https://dc.lft.to/lastmile_qr_scan"}, "type": "electric_scooter", "name": "21867be257d11ba5d1781160620c4ee2", "is_reserved": 0, "lon": -76.99513233333333, "is_disabled": 0, "fusion_lat": 0.0, "lat": 38.87752416666667, "bike_id": "21867be257d11ba5d1781160620c4ee2", "fusion_lon": 0.0}, {"rental_uris": {"ios": "https://dc.lft.to/lastmile_qr_scan", "android": "https://dc.lft.to/lastmile_qr_scan"}, "type": "electric_scooter", "name": "495801ea212416b77a058e952a93262d", "is_reserved": 0, "lon": -77.0385185, "is_disabled": 0, "fusion_lat": 0.0, "lat": 38.932063166666666, "bike_id": "495801ea212416b77a058e952a93262d", "fusion_lon": 0.0}, {"rental_uris": {"ios": "https://dc.lft.to/lastmile_qr_scan", "android": "https://dc.lft.to/lastmile_qr_scan"}, "type": "electric_scooter", "name": "c48e028ed4c30e0b927321ef83caac53", "is_reserved": 0, "lon": -77.03651316666667, "is_disabled": 0, "fusion_lat": 0.0, "lat": 38.91617216666667, "bike_id": "c48e028ed4c30e0b927321ef83caac53", "fusion_lon": 0.0}, {"rental_uris": {"ios": "https://dc.lft.to/lastmile_qr_scan", "android": "https://dc.lft.to/lastmile_qr_scan"}, "type": "electric_scooter", "name": "95a96e9a00c1781d9ce94807fbf57035", "is_reserved": 0, "lon": -76.99501383333333, "is_disabled": 0, "fusion_lat": 0.0, "lat": 38.88310716666667, "bike_id": "95a96e9a00c1781d9ce94807fbf57035", "fusion_lon": 0.0}, {"rental_uris": {"ios": "https://dc.lft.to/lastmile_qr_scan", "android": "https://dc.lft.to/lastmile_qr_scan"}, "type": "electric_scooter", "name": "ff8c728e7700edd1a816af8f5d487545", "is_reserved": 0, "lon": -77.03528733333333, "is_disabled": 0, "fusion_lat": 0.0, "lat": 38.92238833333333, "bike_id": "ff8c728e7700edd1a816af8f5d487545", "fusion_lon": 0.0}, {"rental_uris": {"ios": "https://dc.lft.to/lastmile_qr_scan", "android": "https://dc.lft.to/lastmile_qr_scan"}, "type": "electric_bike", "name": "ee2ba20a60a7548eed068ba4f22b4db6", "is_reserved": 0, "lon": -76.91717466666667, "is_disabled": 0, "fusion_lat": 0.0, "lat": 38.8803155, "bike_id": "ee2ba20a60a7548eed068ba4f22b4db6", "fusion_lon": 0.0}, {"rental_uris": {"ios": "https://dc.lft.to/lastmile_qr_scan", "android": "https://dc.lft.to/lastmile_qr_scan"}, "type": "electric_scooter", "name": "e4a68069376cb8bedd32152a73be7bbb", "is_reserved": 0, "lon": -77.05030783333333, "is_disabled": 0, "fusion_lat": 0.0, "lat": 38.89678966666666, "bike_id": "e4a68069376cb8bedd32152a73be7bbb", "fusion_lon": 0.0}, {"rental_uris": {"ios": "https://dc.lft.to/lastmile_qr_scan", "android": "https://dc.lft.to/lastmile_qr_scan"}, "type": "electric_scooter", "name": "d59ffe6c4774f6c8f33c7128687452af", "is_reserved": 0, "lon": -77.041372, "is_disabled": 0, "fusion_lat": 0.0, "lat": 38.933545, "bike_id": "d59ffe6c4774f6c8f33c7128687452af", "fusion_lon": 0.0}, {"rental_uris": {"ios": "https://dc.lft.to/lastmile_qr_scan", "android": "https://dc.lft.to/lastmile_qr_scan"}, "type": "electric_scooter", "name": "859ea7f7fc812eab030fdbe1ba09cd83", "is_reserved": 0, "lon": -77.05334216666667, "is_disabled": 0, "fusion_lat": 0.0, "lat": 38.906425, "bike_id": "859ea7f7fc812eab030fdbe1ba09cd83", "fusion_lon": 0.0}, {"rental_uris": {"ios": "https://dc.lft.to/lastmile_qr_scan", "android": "https://dc.lft.to/lastmile_qr_scan"}, "type": "electric_scooter", "name": "08701a6881d6aa563c42b8560ceaa451", "is_reserved": 0, "lon": -77.04149233333334, "is_disabled": 0, "fusion_lat": 0.0, "lat": 38.90729066666667, "bike_id": "08701a6881d6aa563c42b8560ceaa451", "fusion_lon": 0.0}, {"rental_uris": {"ios": "https://dc.lft.to/lastmile_qr_scan", "android": "https://dc.lft.to/lastmile_qr_scan"}, "type": "electric_scooter", "name": "1bcc22b54ba63467a5823440a9639828", "is_reserved": 0, "lon": -77.03291633333333, "is_disabled": 0, "fusion_lat": 0.0, "lat": 38.903832333333334, "bike_id": "1bcc22b54ba63467a5823440a9639828", "fusion_lon": 0.0}, {"rental_uris": {"ios": "https://dc.lft.to/lastmile_qr_scan", "android": "https://dc.lft.to/lastmile_qr_scan"}, "type": "electric_scooter", "name": "20819939527ac937a9fd24a4f6388df6", "is_reserved": 0, "lon": -77.03849966666667, "is_disabled": 0, "fusion_lat": 0.0, "lat": 38.9037725, "bike_id": "20819939527ac937a9fd24a4f6388df6", "fusion_lon": 0.0}, {"rental_uris": {"ios": "https://dc.lft.to/lastmile_qr_scan", "android": "https://dc.lft.to/lastmile_qr_scan"}, "type": "electric_bike", "name": "63fd26d893549c65d27b6e4229ba62d7", "is_reserved": 0, "lon": -76.92893016666666, "is_disabled": 0, "fusion_lat": 0.0, "lat": 38.97831566666667, "bike_id": "63fd26d893549c65d27b6e4229ba62d7", "fusion_lon": 0.0}, {"rental_uris": {"ios": "https://dc.lft.to/lastmile_qr_scan", "android": "https://dc.lft.to/lastmile_qr_scan"}, "type": "electric_scooter", "name": "65821a173c34b96a0c4c805db367440e", "is_reserved": 0, "lon": -77.027739, "is_disabled": 0, "fusion_lat": 0.0, "lat": 38.916949333333335, "bike_id": "65821a173c34b96a0c4c805db367440e", "fusion_lon": 0.0}, {"rental_uris": {"ios": "https://dc.lft.to/lastmile_qr_scan", "android": "https://dc.lft.to/lastmile_qr_scan"}, "type": "electric_scooter", "name": "e10357809a697c883642ae53b395c1ab", "is_reserved": 0, "lon": -77.04428816666666, "is_disabled": 0, "fusion_lat": 0.0, "lat": 38.92133283333333, "bike_id": "e10357809a697c883642ae53b395c1ab", "fusion_lon": 0.0}, {"rental_uris": {"ios": "https://dc.lft.to/lastmile_qr_scan", "android": "https://dc.lft.to/lastmile_qr_scan"}, "type": "electric_scooter", "name": "f6d5e4a36841ec308a042975003a20b5", "is_reserved": 0, "lon": -77.03705233333334, "is_disabled": 0, "fusion_lat": 0.0, "lat": 38.918099, "bike_id": "f6d5e4a36841ec308a042975003a20b5", "fusion_lon": 0.0}, {"rental_uris": {"ios": "https://dc.lft.to/lastmile_qr_scan", "android": "https://dc.lft.to/lastmile_qr_scan"}, "type": "electric_scooter", "name": "3398fe42eb7e8b0bfa99dce03d217962", "is_reserved": 0, "lon": -77.01201016666667, "is_disabled": 0, "fusion_lat": 0.0, "lat": 38.871803666666665, "bike_id": "3398fe42eb7e8b0bfa99dce03d217962", "fusion_lon": 0.0}, {"rental_uris": {"ios": "https://dc.lft.to/lastmile_qr_scan", "android": "https://dc.lft.to/lastmile_qr_scan"}, "type": "electric_bike", "name": "e56769c956096c190efde71eb46e270a", "is_reserved": 0, "lon": -76.98350566666667, "is_disabled": 0, "fusion_lat": 0.0, "lat": 38.86263233333333, "bike_id": "e56769c956096c190efde71eb46e270a", "fusion_lon": 0.0}, {"rental_uris": {"ios": "https://dc.lft.to/lastmile_qr_scan", "android": "https://dc.lft.to/lastmile_qr_scan"}, "type": "electric_scooter", "name": "078f4c7e26c34eae34e699fdee606762", "is_reserved": 0, "lon": -77.0611275, "is_disabled": 0, "fusion_lat": 0.0, "lat": 38.912857, "bike_id": "078f4c7e26c34eae34e699fdee606762", "fusion_lon": 0.0}, {"rental_uris": {"ios": "https://dc.lft.to/lastmile_qr_scan", "android": "https://dc.lft.to/lastmile_qr_scan"}, "type": "electric_scooter", "name": "1406ab9930c7ed23e12e3e93e7acfce8", "is_reserved": 0, "lon": -77.02943133333333, "is_disabled": 0, "fusion_lat": 0.0, "lat": 38.91709183333333, "bike_id": "1406ab9930c7ed23e12e3e93e7acfce8", "fusion_lon": 0.0}, {"rental_uris": {"ios": "https://dc.lft.to/lastmile_qr_scan", "android": "https://dc.lft.to/lastmile_qr_scan"}, "type": "electric_scooter", "name": "de4ba7c13b8b1c014a9c770ee788912b", "is_reserved": 0, "lon": -76.99594183333333, "is_disabled": 0, "fusion_lat": 0.0, "lat": 38.9003005, "bike_id": "de4ba7c13b8b1c014a9c770ee788912b", "fusion_lon": 0.0}, {"rental_uris": {"ios": "https://dc.lft.to/lastmile_qr_scan", "android": "https://dc.lft.to/lastmile_qr_scan"}, "type": "electric_scooter", "name": "76b31a3ca335428d4420d83401f4ad74", "is_reserved": 0, "lon": -77.02309333333334, "is_disabled": 0, "fusion_lat": 0.0, "lat": 38.90963983333333, "bike_id": "76b31a3ca335428d4420d83401f4ad74", "fusion_lon": 0.0}, {"rental_uris": {"ios": "https://dc.lft.to/lastmile_qr_scan", "android": "https://dc.lft.to/lastmile_qr_scan"}, "type": "electric_scooter", "name": "ccc0817fadc445567440393954dda8d5", "is_reserved": 0, "lon": -77.03180533333334, "is_disabled": 0, "fusion_lat": 0.0, "lat": 38.91610683333333, "bike_id": "ccc0817fadc445567440393954dda8d5", "fusion_lon": 0.0}, {"rental_uris": {"ios": "https://dc.lft.to/lastmile_qr_scan", "android": "https://dc.lft.to/lastmile_qr_scan"}, "type": "electric_scooter", "name": "b7f7682718d189e96aa52944585119a1", "is_reserved": 0, "lon": -77.03179016666667, "is_disabled": 0, "fusion_lat": 0.0, "lat": 38.9248475, "bike_id": "b7f7682718d189e96aa52944585119a1", "fusion_lon": 0.0}, {"rental_uris": {"ios": "https://dc.lft.to/lastmile_qr_scan", "android": "https://dc.lft.to/lastmile_qr_scan"}, "type": "electric_scooter", "name": "e79b45b7492f371d9b3562a19e0004f9", "is_reserved": 0, "lon": -77.04155066666667, "is_disabled": 0, "fusion_lat": 0.0, "lat": 38.90142483333333, "bike_id": "e79b45b7492f371d9b3562a19e0004f9", "fusion_lon": 0.0}, {"rental_uris": {"ios": "https://dc.lft.to/lastmile_qr_scan", "android": "https://dc.lft.to/lastmile_qr_scan"}, "type": "electric_scooter", "name": "9c912ad9a18565e77d1dcd8005bc7eb2", "is_reserved": 0, "lon": -77.013627, "is_disabled": 0, "fusion_lat": 0.0, "lat": 38.90617366666667, "bike_id": "9c912ad9a18565e77d1dcd8005bc7eb2", "fusion_lon": 0.0}, {"rental_uris": {"ios": "https://dc.lft.to/lastmile_qr_scan", "android": "https://dc.lft.to/lastmile_qr_scan"}, "type": "electric_scooter", "name": "bd0eb6865fefe1e71d83cd615e557b41", "is_reserved": 0, "lon": -76.99100883333334, "is_disabled": 0, "fusion_lat": 0.0, "lat": 38.8572805, "bike_id": "bd0eb6865fefe1e71d83cd615e557b41", "fusion_lon": 0.0}, {"rental_uris": {"ios": "https://dc.lft.to/lastmile_qr_scan", "android": "https://dc.lft.to/lastmile_qr_scan"}, "type": "electric_scooter", "name": "1d02375297d9f41c63251aea4b7c362c", "is_reserved": 0, "lon": -77.04398116666667, "is_disabled": 0, "fusion_lat": 0.0, "lat": 38.910932, "bike_id": "1d02375297d9f41c63251aea4b7c362c", "fusion_lon": 0.0}, {"rental_uris": {"ios": "https://dc.lft.to/lastmile_qr_scan", "android": "https://dc.lft.to/lastmile_qr_scan"}, "type": "electric_scooter", "name": "a2355375f3ef10ee50222b3a7de24ad9", "is_reserved": 0, "lon": -77.04492966666666, "is_disabled": 0, "fusion_lat": 0.0, "lat": 38.90067616666666, "bike_id": "a2355375f3ef10ee50222b3a7de24ad9", "fusion_lon": 0.0}, {"rental_uris": {"ios": "https://dc.lft.to/lastmile_qr_scan", "android": "https://dc.lft.to/lastmile_qr_scan"}, "type": "electric_scooter", "name": "b4f44a6b769ea945880a6bd40f2f2fcc", "is_reserved": 0, "lon": -77.0500455, "is_disabled": 0, "fusion_lat": 0.0, "lat": 38.892351, "bike_id": "b4f44a6b769ea945880a6bd40f2f2fcc", "fusion_lon": 0.0}, {"rental_uris": {"ios": "https://dc.lft.to/lastmile_qr_scan", "android": "https://dc.lft.to/lastmile_qr_scan"}, "type": "electric_scooter", "name": "2fabe1d9b440f63ad76a368eef7c546a", "is_reserved": 0, "lon": -77.01516633333334, "is_disabled": 0, "fusion_lat": 0.0, "lat": 38.9023795, "bike_id": "2fabe1d9b440f63ad76a368eef7c546a", "fusion_lon": 0.0}, {"rental_uris": {"ios": "https://dc.lft.to/lastmile_qr_scan", "android": "https://dc.lft.to/lastmile_qr_scan"}, "type": "electric_scooter", "name": "830021e76bd26e5bbb0cae6561fc0b2b", "is_reserved": 0, "lon": -76.98884116666666, "is_disabled": 0, "fusion_lat": 0.0, "lat": 38.8996295, "bike_id": "830021e76bd26e5bbb0cae6561fc0b2b", "fusion_lon": 0.0}, {"rental_uris": {"ios": "https://dc.lft.to/lastmile_qr_scan", "android": "https://dc.lft.to/lastmile_qr_scan"}, "type": "electric_scooter", "name": "3350592001d22aa80b2d2d211ba9b427", "is_reserved": 0, "lon": -77.03108683333333, "is_disabled": 0, "fusion_lat": 0.0, "lat": 38.918623, "bike_id": "3350592001d22aa80b2d2d211ba9b427", "fusion_lon": 0.0}, {"rental_uris": {"ios": "https://dc.lft.to/lastmile_qr_scan", "android": "https://dc.lft.to/lastmile_qr_scan"}, "type": "electric_scooter", "name": "df2585e15b36059fcece08e0d0978bf8", "is_reserved": 0, "lon": -77.03801616666667, "is_disabled": 0, "fusion_lat": 0.0, "lat": 38.931042, "bike_id": "df2585e15b36059fcece08e0d0978bf8", "fusion_lon": 0.0}, {"rental_uris": {"ios": "https://dc.lft.to/lastmile_qr_scan", "android": "https://dc.lft.to/lastmile_qr_scan"}, "type": "electric_scooter", "name": "26c155c1feedc4801720f7fb7dcb9a8b", "is_reserved": 0, "lon": -77.07904466666666, "is_disabled": 0, "fusion_lat": 0.0, "lat": 38.947856, "bike_id": "26c155c1feedc4801720f7fb7dcb9a8b", "fusion_lon": 0.0}, {"rental_uris": {"ios": "https://dc.lft.to/lastmile_qr_scan", "android": "https://dc.lft.to/lastmile_qr_scan"}, "type": "electric_scooter", "name": "9684cd0e6080c6db38c2a29b73937c60", "is_reserved": 0, "lon": -76.93732416666667, "is_disabled": 0, "fusion_lat": 0.0, "lat": 38.888813, "bike_id": "9684cd0e6080c6db38c2a29b73937c60", "fusion_lon": 0.0}, {"rental_uris": {"ios": "https://dc.lft.to/lastmile_qr_scan", "android": "https://dc.lft.to/lastmile_qr_scan"}, "type": "electric_scooter", "name": "6864fc3302ae9c9899c156dfe5d31652", "is_reserved": 0, "lon": -77.04688416666667, "is_disabled": 0, "fusion_lat": 0.0, "lat": 38.90279483333333, "bike_id": "6864fc3302ae9c9899c156dfe5d31652", "fusion_lon": 0.0}, {"rental_uris": {"ios": "https://dc.lft.to/lastmile_qr_scan", "android": "https://dc.lft.to/lastmile_qr_scan"}, "type": "electric_bike", "name": "bc2058078ab372bf52b108e2969fdf7b", "is_reserved": 0, "lon": -76.99426266666667, "is_disabled": 0, "fusion_lat": 0.0, "lat": 38.95873233333333, "bike_id": "bc2058078ab372bf52b108e2969fdf7b", "fusion_lon": 0.0}, {"rental_uris": {"ios": "https://dc.lft.to/lastmile_qr_scan", "android": "https://dc.lft.to/lastmile_qr_scan"}, "type": "electric_bike", "name": "3d35fe7a5a354306edb7f8f30ebb6b28", "is_reserved": 0, "lon": -77.12732233333334, "is_disabled": 0, "fusion_lat": 0.0, "lat": 38.895616833333335, "bike_id": "3d35fe7a5a354306edb7f8f30ebb6b28", "fusion_lon": 0.0}, {"rental_uris": {"ios": "https://dc.lft.to/lastmile_qr_scan", "android": "https://dc.lft.to/lastmile_qr_scan"}, "type": "electric_bike", "name": "b77532501c2ad29b1d470fd5ba390aff", "is_reserved": 0, "lon": -77.07904116666667, "is_disabled": 0, "fusion_lat": 0.0, "lat": 38.83931483333333, "bike_id": "b77532501c2ad29b1d470fd5ba390aff", "fusion_lon": 0.0}, {"rental_uris": {"ios": "https://dc.lft.to/lastmile_qr_scan", "android": "https://dc.lft.to/lastmile_qr_scan"}, "type": "electric_scooter", "name": "ec5243ec376eb6c2f7ed4d095a244a0b", "is_reserved": 0, "lon": -77.03595416666667, "is_disabled": 0, "fusion_lat": 0.0, "lat": 38.90257116666667, "bike_id": "ec5243ec376eb6c2f7ed4d095a244a0b", "fusion_lon": 0.0}, {"rental_uris": {"ios": "https://dc.lft.to/lastmile_qr_scan", "android": "https://dc.lft.to/lastmile_qr_scan"}, "type": "electric_scooter", "name": "454e857a380012aa8ff65c812dfbc49b", "is_reserved": 0, "lon": -77.03802366666666, "is_disabled": 0, "fusion_lat": 0.0, "lat": 38.910474666666666, "bike_id": "454e857a380012aa8ff65c812dfbc49b", "fusion_lon": 0.0}, {"rental_uris": {"ios": "https://dc.lft.to/lastmile_qr_scan", "android": "https://dc.lft.to/lastmile_qr_scan"}, "type": "electric_scooter", "name": "316ccaab607d44179d2461196bb894cc", "is_reserved": 0, "lon": -77.03709866666667, "is_disabled": 0, "fusion_lat": 0.0, "lat": 38.926552, "bike_id": "316ccaab607d44179d2461196bb894cc", "fusion_lon": 0.0}, {"rental_uris": {"ios": "https://dc.lft.to/lastmile_qr_scan", "android": "https://dc.lft.to/lastmile_qr_scan"}, "type": "electric_scooter", "name": "77bfccb3535c83fae58a346cab458610", "is_reserved": 0, "lon": -76.9837225, "is_disabled": 0, "fusion_lat": 0.0, "lat": 38.86034333333333, "bike_id": "77bfccb3535c83fae58a346cab458610", "fusion_lon": 0.0}, {"rental_uris": {"ios": "https://dc.lft.to/lastmile_qr_scan", "android": "https://dc.lft.to/lastmile_qr_scan"}, "type": "electric_scooter", "name": "623ecc1da3698d3f9032b76e5b757ae9", "is_reserved": 0, "lon": -77.0003935, "is_disabled": 0, "fusion_lat": 0.0, "lat": 38.873832, "bike_id": "623ecc1da3698d3f9032b76e5b757ae9", "fusion_lon": 0.0}, {"rental_uris": {"ios": "https://dc.lft.to/lastmile_qr_scan", "android": "https://dc.lft.to/lastmile_qr_scan"}, "type": "electric_scooter", "name": "41bed192f0b4ecd7a053bc6b2621d11d", "is_reserved": 0, "lon": -77.016424, "is_disabled": 0, "fusion_lat": 0.0, "lat": 38.90041883333333, "bike_id": "41bed192f0b4ecd7a053bc6b2621d11d", "fusion_lon": 0.0}, {"rental_uris": {"ios": "https://dc.lft.to/lastmile_qr_scan", "android": "https://dc.lft.to/lastmile_qr_scan"}, "type": "electric_scooter", "name": "bbe1cb514cdb6a82909cc64b4a0ba09e", "is_reserved": 0, "lon": -77.0236475, "is_disabled": 0, "fusion_lat": 0.0, "lat": 38.9206745, "bike_id": "bbe1cb514cdb6a82909cc64b4a0ba09e", "fusion_lon": 0.0}, {"rental_uris": {"ios": "https://dc.lft.to/lastmile_qr_scan", "android": "https://dc.lft.to/lastmile_qr_scan"}, "type": "electric_scooter", "name": "4a9fea39bf3104b62b5ed79fd45a75e1", "is_reserved": 0, "lon": -77.04777266666666, "is_disabled": 0, "fusion_lat": 0.0, "lat": 38.89780783333333, "bike_id": "4a9fea39bf3104b62b5ed79fd45a75e1", "fusion_lon": 0.0}, {"rental_uris": {"ios": "https://dc.lft.to/lastmile_qr_scan", "android": "https://dc.lft.to/lastmile_qr_scan"}, "type": "electric_scooter", "name": "5aef54fea40f2f71fe051632e6ec8aea", "is_reserved": 0, "lon": -77.03062666666666, "is_disabled": 0, "fusion_lat": 0.0, "lat": 38.90567333333333, "bike_id": "5aef54fea40f2f71fe051632e6ec8aea", "fusion_lon": 0.0}, {"rental_uris": {"ios": "https://dc.lft.to/lastmile_qr_scan", "android": "https://dc.lft.to/lastmile_qr_scan"}, "type": "electric_scooter", "name": "2857ad5fa265d93e96cff9a634518992", "is_reserved": 0, "lon": -77.01607216666666, "is_disabled": 0, "fusion_lat": 0.0, "lat": 38.88508016666667, "bike_id": "2857ad5fa265d93e96cff9a634518992", "fusion_lon": 0.0}, {"rental_uris": {"ios": "https://dc.lft.to/lastmile_qr_scan", "android": "https://dc.lft.to/lastmile_qr_scan"}, "type": "electric_bike", "name": "75a3510043344e9cbdb34197353a4119", "is_reserved": 0, "lon": -76.936642, "is_disabled": 0, "fusion_lat": 0.0, "lat": 38.89459316666667, "bike_id": "75a3510043344e9cbdb34197353a4119", "fusion_lon": 0.0}, {"rental_uris": {"ios": "https://dc.lft.to/lastmile_qr_scan", "android": "https://dc.lft.to/lastmile_qr_scan"}, "type": "electric_scooter", "name": "13d8f55dad8f0b085cf7560bfef22a8d", "is_reserved": 0, "lon": -77.00835433333333, "is_disabled": 0, "fusion_lat": 0.0, "lat": 38.8971295, "bike_id": "13d8f55dad8f0b085cf7560bfef22a8d", "fusion_lon": 0.0}, {"rental_uris": {"ios": "https://dc.lft.to/lastmile_qr_scan", "android": "https://dc.lft.to/lastmile_qr_scan"}, "type": "electric_scooter", "name": "837a39f1e1f108f1a05a6b4ac8cda11c", "is_reserved": 0, "lon": -77.072236, "is_disabled": 0, "fusion_lat": 0.0, "lat": 38.9343605, "bike_id": "837a39f1e1f108f1a05a6b4ac8cda11c", "fusion_lon": 0.0}, {"rental_uris": {"ios": "https://dc.lft.to/lastmile_qr_scan", "android": "https://dc.lft.to/lastmile_qr_scan"}, "type": "electric_scooter", "name": "68dff4072fee31fde3f347617192a67c", "is_reserved": 0, "lon": -77.005558, "is_disabled": 0, "fusion_lat": 0.0, "lat": 38.905664333333334, "bike_id": "68dff4072fee31fde3f347617192a67c", "fusion_lon": 0.0}, {"rental_uris": {"ios": "https://dc.lft.to/lastmile_qr_scan", "android": "https://dc.lft.to/lastmile_qr_scan"}, "type": "electric_scooter", "name": "1fd84fb676f8b1a94968cc2f2b6c809f", "is_reserved": 0, "lon": -76.98212333333333, "is_disabled": 0, "fusion_lat": 0.0, "lat": 38.886434666666666, "bike_id": "1fd84fb676f8b1a94968cc2f2b6c809f", "fusion_lon": 0.0}, {"rental_uris": {"ios": "https://dc.lft.to/lastmile_qr_scan", "android": "https://dc.lft.to/lastmile_qr_scan"}, "type": "electric_scooter", "name": "f02937e96ff269077d0b58ca007e02f1", "is_reserved": 0, "lon": -77.07691633333333, "is_disabled": 0, "fusion_lat": 0.0, "lat": 38.89325933333333, "bike_id": "f02937e96ff269077d0b58ca007e02f1", "fusion_lon": 0.0}, {"rental_uris": {"ios": "https://dc.lft.to/lastmile_qr_scan", "android": "https://dc.lft.to/lastmile_qr_scan"}, "type": "electric_scooter", "name": "3794551d4e5916b86194b55682d3570d", "is_reserved": 0, "lon": -77.00794733333333, "is_disabled": 0, "fusion_lat": 0.0, "lat": 38.91267066666666, "bike_id": "3794551d4e5916b86194b55682d3570d", "fusion_lon": 0.0}, {"rental_uris": {"ios": "https://dc.lft.to/lastmile_qr_scan", "android": "https://dc.lft.to/lastmile_qr_scan"}, "type": "electric_scooter", "name": "6eaa382b0f7ad7d00226689340b693c2", "is_reserved": 0, "lon": -77.0273865, "is_disabled": 0, "fusion_lat": 0.0, "lat": 38.923843833333336, "bike_id": "6eaa382b0f7ad7d00226689340b693c2", "fusion_lon": 0.0}, {"rental_uris": {"ios": "https://dc.lft.to/lastmile_qr_scan", "android": "https://dc.lft.to/lastmile_qr_scan"}, "type": "electric_scooter", "name": "340351b430415420f7d19f0d62135646", "is_reserved": 0, "lon": -76.9947565, "is_disabled": 0, "fusion_lat": 0.0, "lat": 38.86214966666667, "bike_id": "340351b430415420f7d19f0d62135646", "fusion_lon": 0.0}, {"rental_uris": {"ios": "https://dc.lft.to/lastmile_qr_scan", "android": "https://dc.lft.to/lastmile_qr_scan"}, "type": "electric_scooter", "name": "bd9db9efb4f686bd50b201c9e6e27db7", "is_reserved": 0, "lon": -77.029526, "is_disabled": 0, "fusion_lat": 0.0, "lat": 38.896295, "bike_id": "bd9db9efb4f686bd50b201c9e6e27db7", "fusion_lon": 0.0}, {"rental_uris": {"ios": "https://dc.lft.to/lastmile_qr_scan", "android": "https://dc.lft.to/lastmile_qr_scan"}, "type": "electric_scooter", "name": "2b51643590b09872ee73c115aaaa09bd", "is_reserved": 0, "lon": -77.00352983333333, "is_disabled": 0, "fusion_lat": 0.0, "lat": 38.877158333333334, "bike_id": "2b51643590b09872ee73c115aaaa09bd", "fusion_lon": 0.0}, {"rental_uris": {"ios": "https://dc.lft.to/lastmile_qr_scan", "android": "https://dc.lft.to/lastmile_qr_scan"}, "type": "electric_bike", "name": "7a88b1911ecc7e00efb2d0b165ce3449", "is_reserved": 0, "lon": -77.0402225, "is_disabled": 0, "fusion_lat": 0.0, "lat": 38.923513166666666, "bike_id": "7a88b1911ecc7e00efb2d0b165ce3449", "fusion_lon": 0.0}, {"rental_uris": {"ios": "https://dc.lft.to/lastmile_qr_scan", "android": "https://dc.lft.to/lastmile_qr_scan"}, "type": "electric_scooter", "name": "13fdc703d7224d600a925a0b50297915", "is_reserved": 0, "lon": -77.02205466666666, "is_disabled": 0, "fusion_lat": 0.0, "lat": 38.8959905, "bike_id": "13fdc703d7224d600a925a0b50297915", "fusion_lon": 0.0}, {"rental_uris": {"ios": "https://dc.lft.to/lastmile_qr_scan", "android": "https://dc.lft.to/lastmile_qr_scan"}, "type": "electric_bike", "name": "41dfe27204ccc7f0fd8db702146a6bd2", "is_reserved": 0, "lon": -76.99799083333333, "is_disabled": 0, "fusion_lat": 0.0, "lat": 38.905355666666665, "bike_id": "41dfe27204ccc7f0fd8db702146a6bd2", "fusion_lon": 0.0}, {"rental_uris": {"ios": "https://dc.lft.to/lastmile_qr_scan", "android": "https://dc.lft.to/lastmile_qr_scan"}, "type": "electric_scooter", "name": "b264b634d5453c41c8e0a9253cc9ec5d", "is_reserved": 0, "lon": -77.0467345, "is_disabled": 0, "fusion_lat": 0.0, "lat": 38.9180675, "bike_id": "b264b634d5453c41c8e0a9253cc9ec5d", "fusion_lon": 0.0}, {"rental_uris": {"ios": "https://dc.lft.to/lastmile_qr_scan", "android": "https://dc.lft.to/lastmile_qr_scan"}, "type": "electric_scooter", "name": "1461f5386618b01b9366502389e90400", "is_reserved": 0, "lon": -77.01222933333334, "is_disabled": 0, "fusion_lat": 0.0, "lat": 38.901707333333334, "bike_id": "1461f5386618b01b9366502389e90400", "fusion_lon": 0.0}, {"rental_uris": {"ios": "https://dc.lft.to/lastmile_qr_scan", "android": "https://dc.lft.to/lastmile_qr_scan"}, "type": "electric_scooter", "name": "b03aa2bda90aa6ba5977d2b7bc75a0df", "is_reserved": 0, "lon": -77.01976466666666, "is_disabled": 0, "fusion_lat": 0.0, "lat": 38.8839015, "bike_id": "b03aa2bda90aa6ba5977d2b7bc75a0df", "fusion_lon": 0.0}, {"rental_uris": {"ios": "https://dc.lft.to/lastmile_qr_scan", "android": "https://dc.lft.to/lastmile_qr_scan"}, "type": "electric_scooter", "name": "2e777c13a2efc88f206b2d00bc61a5d8", "is_reserved": 0, "lon": -77.04764166666666, "is_disabled": 0, "fusion_lat": 0.0, "lat": 38.91245833333333, "bike_id": "2e777c13a2efc88f206b2d00bc61a5d8", "fusion_lon": 0.0}, {"rental_uris": {"ios": "https://dc.lft.to/lastmile_qr_scan", "android": "https://dc.lft.to/lastmile_qr_scan"}, "type": "electric_scooter", "name": "16bb374bffe446eaeafc90317b140686", "is_reserved": 0, "lon": -76.98911866666667, "is_disabled": 0, "fusion_lat": 0.0, "lat": 38.9000775, "bike_id": "16bb374bffe446eaeafc90317b140686", "fusion_lon": 0.0}, {"rental_uris": {"ios": "https://dc.lft.to/lastmile_qr_scan", "android": "https://dc.lft.to/lastmile_qr_scan"}, "type": "electric_scooter", "name": "546503369152a2b6c56b733b9efd48e2", "is_reserved": 0, "lon": -76.98701166666666, "is_disabled": 0, "fusion_lat": 0.0, "lat": 38.85965683333333, "bike_id": "546503369152a2b6c56b733b9efd48e2", "fusion_lon": 0.0},