{"data": {"bikes": [{"is_reserved": 0, "type": "electric_scooter", "bike_id": "cea9e36a91eaa5312a4d7e8505aeb405", "lat": 38.9191705, "lon": -77.03397866666667, "rental_uris": {"android": "https://dc.lft.to/lastmile_qr_scan", "ios": "https://dc.lft.to/lastmile_qr_scan"}, "is_disabled": 0, "fusion_lat": 0.0, "name": "cea9e36a91eaa5312a4d7e8505aeb405", "fusion_lon": 0.0}, {"is_reserved": 0, "type": "electric_scooter", "bike_id": "3ab8febc6095705f6e79463fa422b5a4", "lat": 38.91993083333333, "lon": -76.9860785, "rental_uris": {"android": "https://dc.lft.to/lastmile_qr_scan", "ios": "https://dc.lft.to/lastmile_qr_scan"}, "is_disabled": 0, "fusion_lat": 0.0, "name": "3ab8febc6095705f6e79463fa422b5a4", "fusion_lon": 0.0}, {"is_reserved": 0, "type": "electric_scooter", "bike_id": "b5a10d3687c5f67dd1bfc3aed4e6f006", "lat": 38.88758716666667, "lon": -77.0335375, "rental_uris": {"android": "https://dc.lft.to/lastmile_qr_scan", "ios": "https://dc.lft.to/lastmile_qr_scan"}, "is_disabled": 0, "fusion_lat": 0.0, "name": "b5a10d3687c5f67dd1bfc3aed4e6f006", "fusion_lon": 0.0}, {"is_reserved": 0, "type": "electric_bike", "bike_id": "e8deb1fd010f937d9254d8e3f91d132a", "lat": 38.887930833333336, "lon": -76.92338383333333, "rental_uris": {"android": "https://dc.lft.to/lastmile_qr_scan", "ios": "https://dc.lft.to/lastmile_qr_scan"}, "is_disabled": 0, "fusion_lat": 0.0, "name": "e8deb1fd010f937d9254d8e3f91d132a", "fusion_lon": 0.0}, {"is_reserved": 0, "type": "electric_scooter", "bike_id": "652d0c6f9b73a9374057c6bf7f6accff", "lat": 38.898798166666666, "lon": -77.02921583333334, "rental_uris": {"android": "https://dc.lft.to/lastmile_qr_scan", "ios": "https://dc.lft.to/lastmile_qr_scan"}, "is_disabled": 0, "fusion_lat": 0.0, "name": "652d0c6f9b73a9374057c6bf7f6accff", "fusion_lon": 0.0}, {"is_reserved": 0, "type": "electric_scooter", "bike_id": "a1fc1001a53cd728da8d967db454726f", "lat": 38.89602766666667, "lon": -77.04487616666667, "rental_uris": {"android": "https://dc.lft.to/lastmile_qr_scan", "ios": "https://dc.lft.to/lastmile_qr_scan"}, "is_disabled": 0, "fusion_lat": 0.0, "name": "a1fc1001a53cd728da8d967db454726f", "fusion_lon": 0.0}, {"is_reserved": 0, "type": "electric_scooter", "bike_id": "bbf11eacc902ae4936d5810bdbcbb906", "lat": 38.974968833333335, "lon": -77.01700033333333, "rental_uris": {"android": "https://dc.lft.to/lastmile_qr_scan", "ios": "https://dc.lft.to/lastmile_qr_scan"}, "is_disabled": 0, "fusion_lat": 0.0, "name": "bbf11eacc902ae4936d5810bdbcbb906", "fusion_lon": 0.0}, {"is_reserved": 0, "type": "electric_scooter", "bike_id": "ee9d5f40882bf85c5b65c0cb0773d8a7", "lat": 38.897315, "lon": -77.05475266666667, "rental_uris": {"android": "https://dc.lft.to/lastmile_qr_scan", "ios": "https://dc.lft.to/lastmile_qr_scan"}, "is_disabled": 0, "fusion_lat": 0.0, "name": "ee9d5f40882bf85c5b65c0cb0773d8a7", "fusion_lon": 0.0}, {"is_reserved": 0, "type": "electric_scooter", "bike_id": "d801a31a682f2a9b14da6897f7a206bd", "lat": 38.924206166666664, "lon": -77.0194665, "rental_uris": {"android": "https://dc.lft.to/lastmile_qr_scan", "ios": "https://dc.lft.to/lastmile_qr_scan"}, "is_disabled": 0, "fusion_lat": 0.0, "name": "d801a31a682f2a9b14da6897f7a206bd", "fusion_lon": 0.0}, {"is_reserved": 0, "type": "electric_scooter", "bike_id": "2d30ebf8f0b3877f26af6f2bbcfb8fc2", "lat": 38.91335483333334, "lon": -77.04801033333334, "rental_uris": {"android": "https://dc.lft.to/lastmile_qr_scan", "ios": "https://dc.lft.to/lastmile_qr_scan"}, "is_disabled": 0, "fusion_lat": 0.0, "name": "2d30ebf8f0b3877f26af6f2bbcfb8fc2", "fusion_lon": 0.0}, {"is_reserved": 0, "type": "electric_scooter", "bike_id": "df05271c453adec21d16b704a7b6c39d", "lat": 38.892291666666665, "lon": -77.0242425, "rental_uris": {"android": "https://dc.lft.to/lastmile_qr_scan", "ios": "https://dc.lft.to/lastmile_qr_scan"}, "is_disabled": 0, "fusion_lat": 0.0, "name": "df05271c453adec21d16b704a7b6c39d", "fusion_lon": 0.0}, {"is_reserved": 0, "type": "electric_scooter", "bike_id": "8fda097d143ba42b8ddf278edb90e582", "lat": 38.87272683333333, "lon": -77.0171455, "rental_uris": {"android": "https://dc.lft.to/lastmile_qr_scan", "ios": "https://dc.lft.to/lastmile_qr_scan"}, "is_disabled": 0, "fusion_lat": 0.0, "name": "8fda097d143ba42b8ddf278edb90e582", "fusion_lon": 0.0}, {"is_reserved": 0, "type": "electric_scooter", "bike_id": "6d83586682094dfef5caf6f6294612d0", "lat": 38.93607433333333, "lon": -77.05862683333334, "rental_uris": {"android": "https://dc.lft.to/lastmile_qr_scan", "ios": "https://dc.lft.to/lastmile_qr_scan"}, "is_disabled": 0, "fusion_lat": 0.0, "name": "6d83586682094dfef5caf6f6294612d0", "fusion_lon": 0.0}, {"is_reserved": 0, "type": "electric_bike", "bike_id": "797e539b8b7165d7c8959c48c618ca89", "lat": 38.957619666666666, "lon": -76.96759, "rental_uris": {"android": "https://dc.lft.to/lastmile_qr_scan", "ios": "https://dc.lft.to/lastmile_qr_scan"}, "is_disabled": 0, "fusion_lat": 0.0, "name": "797e539b8b7165d7c8959c48c618ca89", "fusion_lon": 0.0}, {"is_reserved": 0, "type": "electric_scooter", "bike_id": "7bc7f134b53b03c52c7d133d6e4c3997", "lat": 38.871502666666665, "lon": -77.01320866666667, "rental_uris": {"android": "https://dc.lft.to/lastmile_qr_scan", "ios": "https://dc.lft.to/lastmile_qr_scan"}, "is_disabled": 0, "fusion_lat": 0.0, "name": "7bc7f134b53b03c52c7d133d6e4c3997", "fusion_lon": 0.0}, {"is_reserved": 0, "type": "electric_scooter", "bike_id": "78723bc90d752114e0c67ac319198f9f", "lat": 38.9309145, "lon": -77.02381016666666, "rental_uris": {"android": "https://dc.lft.to/lastmile_qr_scan", "ios": "https://dc.lft.to/lastmile_qr_scan"}, "is_disabled": 0, "fusion_lat": 0.0, "name": "78723bc90d752114e0c67ac319198f9f", "fusion_lon": 0.0}, {"is_reserved": 0, "type": "electric_bike", "bike_id": "75871bed5123ca5dc1191c32a726bec5", "lat": 38.80866, "lon": -77.1125605, "rental_uris": {"android": "https://dc.lft.to/lastmile_qr_scan", "ios": "https://dc.lft.to/lastmile_qr_scan"}, "is_disabled": 0, "fusion_lat": 0.0, "name": "75871bed5123ca5dc1191c32a726bec5", "fusion_lon": 0.0}, {"is_reserved": 0, "type": "electric_scooter", "bike_id": "244e2093eb6224a47241819831df0c0e", "lat": 38.9141945, "lon": -77.02213683333333, "rental_uris": {"android": "https://dc.lft.to/lastmile_qr_scan", "ios": "https://dc.lft.to/lastmile_qr_scan"}, "is_disabled": 0, "fusion_lat": 0.0, "name": "244e2093eb6224a47241819831df0c0e", "fusion_lon": 0.0}, {"is_reserved": 0, "type": "electric_scooter", "bike_id": "30ba9845ee65ad97997ceeb0543898ef", "lat": 38.92331983333333, "lon": -77.04297416666667, "rental_uris": {"android": "https://dc.lft.to/lastmile_qr_scan", "ios": "https://dc.lft.to/lastmile_qr_scan"}, "is_disabled": 0, "fusion_lat": 0.0, "name": "30ba9845ee65ad97997ceeb0543898ef", "fusion_lon": 0.0}, {"is_reserved": 0, "type": "electric_scooter", "bike_id": "2dafa5e9d8800167b623c2a3faa9482c", "lat": 38.892065, "lon": -76.92922533333333, "rental_uris": {"android": "https://dc.lft.to/lastmile_qr_scan", "ios": "https://dc.lft.to/lastmile_qr_scan"}, "is_disabled": 0, "fusion_lat": 0.0, "name": "2dafa5e9d8800167b623c2a3faa9482c", "fusion_lon": 0.0}, {"is_reserved": 0, "type": "electric_bike", "bike_id": "19152d29f21c7c5882d0a123b486b81b", "lat": 38.90051833333333, "lon": -76.9778825, "rental_uris": {"android": "https://dc.lft.to/lastmile_qr_scan", "ios": "https://dc.lft.to/lastmile_qr_scan"}, "is_disabled": 0, "fusion_lat": 0.0, "name": "19152d29f21c7c5882d0a123b486b81b", "fusion_lon": 0.0}, {"is_reserved": 0, "type": "electric_scooter", "bike_id": "0101f3d04f602b39e86ca8161846af5e", "lat": 38.923367, "lon": -77.04663416666666, "rental_uris": {"android": "https://dc.lft.to/lastmile_qr_scan", "ios": "https://dc.lft.to/lastmile_qr_scan"}, "is_disabled": 0, "fusion_lat": 0.0, "name": "0101f3d04f602b39e86ca8161846af5e", "fusion_lon": 0.0}, {"is_reserved": 0, "type": "electric_scooter", "bike_id": "34dac9eddc199adf8d2c0bd248cbd6fc", "lat": 38.89728483333333, "lon": -77.055205, "rental_uris": {"android": "https://dc.lft.to/lastmile_qr_scan", "ios": "https://dc.lft.to/lastmile_qr_scan"}, "is_disabled": 0, "fusion_lat": 0.0, "name": "34dac9eddc199adf8d2c0bd248cbd6fc", "fusion_lon": 0.0}, {"is_reserved": 0, "type": "electric_scooter", "bike_id": "4f2a8162de3e194bc1b1d3d47ecbdda0", "lat": 38.92556833333333, "lon": -77.03658466666667, "rental_uris": {"android": "https://dc.lft.to/lastmile_qr_scan", "ios": "https://dc.lft.to/lastmile_qr_scan"}, "is_disabled": 0, "fusion_lat": 0.0, "name": "4f2a8162de3e194bc1b1d3d47ecbdda0", "fusion_lon": 0.0}, {"is_reserved": 0, "type": "electric_scooter", "bike_id": "8a5ce1129413832a6cf09b942271f16d", "lat": 38.92515733333333, "lon": -77.025739, "rental_uris": {"android": "https://dc.lft.to/lastmile_qr_scan", "ios": "https://dc.lft.to/lastmile_qr_scan"}, "is_disabled": 0, "fusion_lat": 0.0, "name": "8a5ce1129413832a6cf09b942271f16d", "fusion_lon": 0.0}, {"is_reserved": 0, "type": "electric_scooter", "bike_id": "a5a05b308456c0e47c0496462feb1f30", "lat": 38.920041, "lon": -77.038795, "rental_uris": {"android": "https://dc.lft.to/lastmile_qr_scan", "ios": "https://dc.lft.to/lastmile_qr_scan"}, "is_disabled": 0, "fusion_lat": 0.0, "name": "a5a05b308456c0e47c0496462feb1f30", "fusion_lon": 0.0}, {"is_reserved": 0, "type": "electric_scooter", "bike_id": "9aaae81d45cb468a157faf722327446b", "lat": 38.923613333333336, "lon": -77.01909066666667, "rental_uris": {"android": "https://dc.lft.to/lastmile_qr_scan", "ios": "https://dc.lft.to/lastmile_qr_scan"}, "is_disabled": 0, "fusion_lat": 0.0, "name": "9aaae81d45cb468a157faf722327446b", "fusion_lon": 0.0}, {"is_reserved": 0, "type": "electric_bike", "bike_id": "e2467b4d277601539c8251369dcff841", "lat": 38.79334883333333, "lon": -77.00051066666667, "rental_uris": {"android": "https://dc.lft.to/lastmile_qr_scan", "ios": "https://dc.lft.to/lastmile_qr_scan"}, "is_disabled": 0, "fusion_lat": 0.0, "name": "e2467b4d277601539c8251369dcff841", "fusion_lon": 0.0}, {"is_reserved": 0, "type": "electric_scooter", "bike_id": "6b4241192c98e126ef0c3c69125742b2", "lat": 38.935711166666664, "lon": -77.03261633333334, "rental_uris": {"android": "https://dc.lft.to/lastmile_qr_scan", "ios": "https://dc.lft.to/lastmile_qr_scan"}, "is_disabled": 0, "fusion_lat": 0.0, "name": "6b4241192c98e126ef0c3c69125742b2", "fusion_lon": 0.0}, {"is_reserved": 0, "type": "electric_scooter", "bike_id": "f2da2bdf503dda94a24e4f5ebc73f4fe", "lat": 38.905735666666665, "lon": -77.027651, "rental_uris": {"android": "https://dc.lft.to/lastmile_qr_scan", "ios": "https://dc.lft.to/lastmile_qr_scan"}, "is_disabled": 0, "fusion_lat": 0.0, "name": "f2da2bdf503dda94a24e4f5ebc73f4fe", "fusion_lon": 0.0}, {"is_reserved": 0, "type": "electric_scooter", "bike_id": "609b57825ca38a821fdde27efda280d0", "lat": 38.892259333333335, "lon": -77.04483933333333, "rental_uris": {"android": "https://dc.lft.to/lastmile_qr_scan", "ios": "https://dc.lft.to/lastmile_qr_scan"}, "is_disabled": 0, "fusion_lat": 0.0, "name": "609b57825ca38a821fdde27efda280d0", "fusion_lon": 0.0}, {"is_reserved": 0, "type": "electric_scooter", "bike_id": "d635c712cb5d7a0684ca2025b03952b2", "lat": 38.939836166666666, "lon": -77.0356425, "rental_uris": {"android": "https://dc.lft.to/lastmile_qr_scan", "ios": "https://dc.lft.to/lastmile_qr_scan"}, "is_disabled": 0, "fusion_lat": 0.0, "name": "d635c712cb5d7a0684ca2025b03952b2", "fusion_lon": 0.0}, {"is_reserved": 0, "type": "electric_scooter", "bike_id": "28a2ca5ef1a02b57176ef24868752858", "lat": 38.912884, "lon": -77.02304166666667, "rental_uris": {"android": "https://dc.lft.to/lastmile_qr_scan", "ios": "https://dc.lft.to/lastmile_qr_scan"}, "is_disabled": 0, "fusion_lat": 0.0, "name": "28a2ca5ef1a02b57176ef24868752858", "fusion_lon": 0.0}, {"is_reserved": 0, "type": "electric_scooter", "bike_id": "845977ed8fcc237f62b9806e8614386e", "lat": 38.900807666666665, "lon": -77.0234365, "rental_uris": {"android": "https://dc.lft.to/lastmile_qr_scan", "ios": "https://dc.lft.to/lastmile_qr_scan"}, "is_disabled": 0, "fusion_lat": 0.0, "name": "845977ed8fcc237f62b9806e8614386e", "fusion_lon": 0.0}, {"is_reserved": 0, "type": "electric_scooter", "bike_id": "3a84bd0c2a68cd35064278c040617c05", "lat": 38.92388066666667, "lon": -77.0505145, "rental_uris": {"android": "https://dc.lft.to/lastmile_qr_scan", "ios": "https://dc.lft.to/lastmile_qr_scan"}, "is_disabled": 0, "fusion_lat": 0.0, "name": "3a84bd0c2a68cd35064278c040617c05", "fusion_lon": 0.0}, {"is_reserved": 0, "type": "electric_scooter", "bike_id": "4c3732030643a76defb2d0e9f011899c", "lat": 38.93459933333333, "lon": -77.02244933333333, "rental_uris": {"android": "https://dc.lft.to/lastmile_qr_scan", "ios": "https://dc.lft.to/lastmile_qr_scan"}, "is_disabled": 0, "fusion_lat": 0.0, "name": "4c3732030643a76defb2d0e9f011899c", "fusion_lon": 0.0}, {"is_reserved": 0, "type": "electric_scooter", "bike_id": "2afde24014903ae2358ad6c98529688e", "lat": 38.86432833333333, "lon": -76.99861016666667, "rental_uris": {"android": "https://dc.lft.to/lastmile_qr_scan", "ios": "https://dc.lft.to/lastmile_qr_scan"}, "is_disabled": 0, "fusion_lat": 0.0, "name": "2afde24014903ae2358ad6c98529688e", "fusion_lon": 0.0}, {"is_reserved": 0, "type": "electric_scooter", "bike_id": "ab012b3f324605b8d81c0db5b56c00d3", "lat": 38.92901783333333, "lon": -77.0225685, "rental_uris": {"android": "https://dc.lft.to/lastmile_qr_scan", "ios": "https://dc.lft.to/lastmile_qr_scan"}, "is_disabled": 0, "fusion_lat": 0.0, "name": "ab012b3f324605b8d81c0db5b56c00d3", "fusion_lon": 0.0}, {"is_reserved": 0, "type": "electric_scooter", "bike_id": "f36481a020a4c3809d50e3ed3a582e2d", "lat": 38.9176265, "lon": -77.03192083333333, "rental_uris": {"android": "https://dc.lft.to/lastmile_qr_scan", "ios": "https://dc.lft.to/lastmile_qr_scan"}, "is_disabled": 0, "fusion_lat": 0.0, "name": "f36481a020a4c3809d50e3ed3a582e2d", "fusion_lon": 0.0}, {"is_reserved": 0, "type": "electric_scooter", "bike_id": "307c3025c84aded7d6fb759881233f1d", "lat": 38.95091133333333, "lon": -77.02810533333333, "rental_uris": {"android": "https://dc.lft.to/lastmile_qr_scan", "ios": "https://dc.lft.to/lastmile_qr_scan"}, "is_disabled": 0, "fusion_lat": 0.0, "name": "307c3025c84aded7d6fb759881233f1d", "fusion_lon": 0.0}, {"is_reserved": 0, "type": "electric_scooter", "bike_id": "4def45950cf42e3a722234954cb0eea9", "lat": 38.900646333333334, "lon": -76.986819, "rental_uris": {"android": "https://dc.lft.to/lastmile_qr_scan", "ios": "https://dc.lft.to/lastmile_qr_scan"}, "is_disabled": 0, "fusion_lat": 0.0, "name": "4def45950cf42e3a722234954cb0eea9", "fusion_lon": 0.0}, {"is_reserved": 0, "type": "electric_scooter", "bike_id": "bc6e8a9009ec3ddd88bc8ae0f9f3cc22", "lat": 38.91065566666666, "lon": -77.03851766666666, "rental_uris": {"android": "https://dc.lft.to/lastmile_qr_scan", "ios": "https://dc.lft.to/lastmile_qr_scan"}, "is_disabled": 0, "fusion_lat": 0.0, "name": "bc6e8a9009ec3ddd88bc8ae0f9f3cc22", "fusion_lon": 0.0}, {"is_reserved": 0, "type": "electric_bike", "bike_id": "fe75a7c289b72dd82d32e54111b36d0a", "lat": 38.8956745, "lon": -77.127371, "rental_uris": {"android": "https://dc.lft.to/lastmile_qr_scan", "ios": "https://dc.lft.to/lastmile_qr_scan"}, "is_disabled": 0, "fusion_lat": 0.0, "name": "fe75a7c289b72dd82d32e54111b36d0a", "fusion_lon": 0.0}, {"is_reserved": 0, "type": "electric_scooter", "bike_id": "f0a642e76ba8b8be2f5dbd6525beb2d0", "lat": 38.9300135, "lon": -77.023008, "rental_uris": {"android": "https://dc.lft.to/lastmile_qr_scan", "ios": "https://dc.lft.to/lastmile_qr_scan"}, "is_disabled": 0, "fusion_lat": 0.0, "name": "f0a642e76ba8b8be2f5dbd6525beb2d0", "fusion_lon": 0.0}, {"is_reserved": 0, "type": "electric_scooter", "bike_id": "ab278eef2b5cfb2c0ca7bacc664ab206", "lat": 38.940282833333335, "lon": -77.02641166666666, "rental_uris": {"android": "https://dc.lft.to/lastmile_qr_scan", "ios": "https://dc.lft.to/lastmile_qr_scan"}, "is_disabled": 0, "fusion_lat": 0.0, "name": "ab278eef2b5cfb2c0ca7bacc664ab206", "fusion_lon": 0.0}, {"is_reserved": 0, "type": "electric_scooter", "bike_id": "7734332195200b296a79e8e6b5cab61a", "lat": 38.897288833333334, "lon": -77.022994, "rental_uris": {"android": "https://dc.lft.to/lastmile_qr_scan", "ios": "https://dc.lft.to/lastmile_qr_scan"}, "is_disabled": 0, "fusion_lat": 0.0, "name": "7734332195200b296a79e8e6b5cab61a", "fusion_lon": 0.0}, {"is_reserved": 0, "type": "electric_scooter", "bike_id": "8f2050eaa8146dd1854593a2213b26c2", "lat": 38.9192505, "lon": -77.03487816666667, "rental_uris": {"android": "https://dc.lft.to/lastmile_qr_scan", "ios": "https://dc.lft.to/lastmile_qr_scan"}, "is_disabled": 0, "fusion_lat": 0.0, "name": "8f2050eaa8146dd1854593a2213b26c2", "fusion_lon": 0.0}, {"is_reserved": 0, "type": "electric_scooter", "bike_id": "0b3021d6f0a0dd60d141095a02f299e9", "lat": 38.882663, "lon": -77.003634, "rental_uris": {"android": "https://dc.lft.to/lastmile_qr_scan", "ios": "https://dc.lft.to/lastmile_qr_scan"}, "is_disabled": 0, "fusion_lat": 0.0, "name": "0b3021d6f0a0dd60d141095a02f299e9", "fusion_lon": 0.0}, {"is_reserved": 0, "type": "electric_scooter", "bike_id": "5cc70c8911d572e4e3c92d3041c18684", "lat": 38.91799683333333, "lon": -77.03435666666667, "rental_uris": {"android": "https://dc.lft.to/lastmile_qr_scan", "ios": "https://dc.lft.to/lastmile_qr_scan"}, "is_disabled": 0, "fusion_lat": 0.0, "name": "5cc70c8911d572e4e3c92d3041c18684", "fusion_lon": 0.0}, {"is_reserved": 0, "type": "electric_scooter", "bike_id": "47d141fa864fe9cbfa92563269178832", "lat": 38.901620666666666, "lon": -77.028589, "rental_uris": {"android": "https://dc.lft.to/lastmile_qr_scan", "ios": "https://dc.lft.to/lastmile_qr_scan"}, "is_disabled": 0, "fusion_lat": 0.0, "name": "47d141fa864fe9cbfa92563269178832", "fusion_lon": 0.0}, {"is_reserved": 0, "type": "electric_scooter", "bike_id": "e6bb6cf947aa4b76f5e99a0cb5ce95f5", "lat": 38.89943066666667, "lon": -76.97845216666667, "rental_uris": {"android": "https://dc.lft.to/lastmile_qr_scan", "ios": "https://dc.lft.to/lastmile_qr_scan"}, "is_disabled": 0, "fusion_lat": 0.0, "name": "e6bb6cf947aa4b76f5e99a0cb5ce95f5", "fusion_lon": 0.0}, {"is_reserved": 0, "type": "electric_scooter", "bike_id": "5f6e3f86fdf81370db856d03960d5f33", "lat": 38.93700483333333, "lon": -77.02117583333333, "rental_uris": {"android": "https://dc.lft.to/lastmile_qr_scan", "ios": "https://dc.lft.to/lastmile_qr_scan"}, "is_disabled": 0, "fusion_lat": 0.0, "name": "5f6e3f86fdf81370db856d03960d5f33", "fusion_lon": 0.0}, {"is_reserved": 0, "type": "electric_scooter", "bike_id": "1e794c43010eeac9dedab1c731fc2c8c", "lat": 38.89529316666667, "lon": -77.03006233333333, "rental_uris": {"android": "https://dc.lft.to/lastmile_qr_scan", "ios": "https://dc.lft.to/lastmile_qr_scan"}, "is_disabled": 0, "fusion_lat": 0.0, "name": "1e794c43010eeac9dedab1c731fc2c8c", "fusion_lon": 0.0}, {"is_reserved": 0, "type": "electric_scooter", "bike_id": "7274b2e38e16f2343440e37fde2b0908", "lat": 38.9236525, "lon": -77.05026833333334, "rental_uris": {"android": "https://dc.lft.to/lastmile_qr_scan", "ios": "https://dc.lft.to/lastmile_qr_scan"}, "is_disabled": 0, "fusion_lat": 0.0, "name": "7274b2e38e16f2343440e37fde2b0908", "fusion_lon": 0.0}, {"is_reserved": 0, "type": "electric_bike", "bike_id": "b0c644ff49e65cae205154af59f38ecd", "lat": 38.882449333333334, "lon": -76.96261733333333, "rental_uris": {"android": "https://dc.lft.to/lastmile_qr_scan", "ios": "https://dc.lft.to/lastmile_qr_scan"}, "is_disabled": 0, "fusion_lat": 0.0, "name": "b0c644ff49e65cae205154af59f38ecd", "fusion_lon": 0.0}, {"is_reserved": 0, "type": "electric_scooter", "bike_id": "15ca45f17ec49424fd1353cc3f920d67", "lat": 38.900676833333335, "lon": -77.04879983333333, "rental_uris": {"android": "https://dc.lft.to/lastmile_qr_scan", "ios": "https://dc.lft.to/lastmile_qr_scan"}, "is_disabled": 0, "fusion_lat": 0.0, "name": "15ca45f17ec49424fd1353cc3f920d67", "fusion_lon": 0.0}, {"is_reserved": 0, "type": "electric_scooter", "bike_id": "8cfdf9f3664e304f695d0ca4c20c807f", "lat": 38.897004833333334, "lon": -77.004853, "rental_uris": {"android": "https://dc.lft.to/lastmile_qr_scan", "ios": "https://dc.lft.to/lastmile_qr_scan"}, "is_disabled": 0, "fusion_lat": 0.0, "name": "8cfdf9f3664e304f695d0ca4c20c807f", "fusion_lon": 0.0}, {"is_reserved": 0, "type": "electric_scooter", "bike_id": "c9f2d45b903b5cf8041727faa0cd7726", "lat": 38.92591783333334, "lon": -77.02488383333333, "rental_uris": {"android": "https://dc.lft.to/lastmile_qr_scan", "ios": "https://dc.lft.to/lastmile_qr_scan"}, "is_disabled": 0, "fusion_lat": 0.0, "name": "c9f2d45b903b5cf8041727faa0cd7726", "fusion_lon": 0.0}, {"is_reserved": 0, "type": "electric_scooter", "bike_id": "da24e923eff019e0842831bdb41b7b5b", "lat": 38.8967385, "lon": -77.05038833333333, "rental_uris": {"android": "https://dc.lft.to/lastmile_qr_scan", "ios": "https://dc.lft.to/lastmile_qr_scan"}, "is_disabled": 0, "fusion_lat": 0.0, "name": "da24e923eff019e0842831bdb41b7b5b", "fusion_lon": 0.0}, {"is_reserved": 0, "type": "electric_scooter", "bike_id": "5b9b8595a65bc6757e2c816b6701d703", "lat": 38.92695033333333, "lon": -77.02578566666666, "rental_uris": {"android": "https://dc.lft.to/lastmile_qr_scan", "ios": "https://dc.lft.to/lastmile_qr_scan"}, "is_disabled": 0, "fusion_lat": 0.0, "name": "5b9b8595a65bc6757e2c816b6701d703", "fusion_lon": 0.0}, {"is_reserved": 0, "type": "electric_scooter", "bike_id": "a4a11e98f15c85c804b7f6f620d72ece", "lat": 38.94310516666667, "lon": -77.0592515, "rental_uris": {"android": "https://dc.lft.to/lastmile_qr_scan", "ios": "https://dc.lft.to/lastmile_qr_scan"}, "is_disabled": 0, "fusion_lat": 0.0, "name": "a4a11e98f15c85c804b7f6f620d72ece", "fusion_lon": 0.0}, {"is_reserved": 0, "type": "electric_scooter", "bike_id": "fbf2de0f5f9ccc9c21cbab0604c9949a", "lat": 38.91847633333333, "lon": -77.04114416666667, "rental_uris": {"android": "https://dc.lft.to/lastmile_qr_scan", "ios": "https://dc.lft.to/lastmile_qr_scan"}, "is_disabled": 0, "fusion_lat": 0.0, "name": "fbf2de0f5f9ccc9c21cbab0604c9949a", "fusion_lon": 0.0}, {"is_reserved": 0, "type": "electric_bike", "bike_id": "2c5fa77201410409fb5ca8dedefc3852", "lat": 38.8938915, "lon": -76.86846933333334, "rental_uris": {"android": "https://dc.lft.to/lastmile_qr_scan", "ios": "https://dc.lft.to/lastmile_qr_scan"}, "is_disabled": 0, "fusion_lat": 0.0, "name": "2c5fa77201410409fb5ca8dedefc3852", "fusion_lon": 0.0}, {"is_reserved": 0, "type": "electric_scooter", "bike_id": "c3f7904321b19a3f55008ad6991b34b9", "lat": 38.903702333333335, "lon": -77.0318295, "rental_uris": {"android": "https://dc.lft.to/lastmile_qr_scan", "ios": "https://dc.lft.to/lastmile_qr_scan"}, "is_disabled": 0, "fusion_lat": 0.0, "name": "c3f7904321b19a3f55008ad6991b34b9", "fusion_lon": 0.0}, {"is_reserved": 0, "type": "electric_scooter", "bike_id": "1a9057f8bed020a00def7aa0f6038f09", "lat": 38.891952, "lon": -77.02176333333334, "rental_uris": {"android": "https://dc.lft.to/lastmile_qr_scan", "ios": "https://dc.lft.to/lastmile_qr_scan"}, "is_disabled": 0, "fusion_lat": 0.0, "name": "1a9057f8bed020a00def7aa0f6038f09", "fusion_lon": 0.0}, {"is_reserved": 0, "type": "electric_scooter", "bike_id": "911e77a54bb941ff7bd21de4afbe51ba", "lat": 38.892233166666664, "lon": -77.02625116666667, "rental_uris": {"android": "https://dc.lft.to/lastmile_qr_scan", "ios": "https://dc.lft.to/lastmile_qr_scan"}, "is_disabled": 0, "fusion_lat": 0.0, "name": "911e77a54bb941ff7bd21de4afbe51ba", "fusion_lon": 0.0}, {"is_reserved": 0, "type": "electric_scooter", "bike_id": "fdd53348ef771b9097ed6c536180641d", "lat": 38.9233685, "lon": -77.00889533333333, "rental_uris": {"android": "https://dc.lft.to/lastmile_qr_scan", "ios": "https://dc.lft.to/lastmile_qr_scan"}, "is_disabled": 0, "fusion_lat": 0.0, "name": "fdd53348ef771b9097ed6c536180641d", "fusion_lon": 0.0}, {"is_reserved": 0, "type": "electric_scooter", "bike_id": "35f315024b519b6d55914ac829846c28", "lat": 38.91418383333333, "lon": -77.0187525, "rental_uris": {"android": "https://dc.lft.to/lastmile_qr_scan", "ios": "https://dc.lft.to/lastmile_qr_scan"}, "is_disabled": 0, "fusion_lat": 0.0, "name": "35f315024b519b6d55914ac829846c28", "fusion_lon": 0.0}, {"is_reserved": 0, "type": "electric_scooter", "bike_id": "aed33be4e0df8096609a071fa5bf9040", "lat": 38.91407233333334, "lon": -77.0317145, "rental_uris": {"android": "https://dc.lft.to/lastmile_qr_scan", "ios": "https://dc.lft.to/lastmile_qr_scan"}, "is_disabled": 0, "fusion_lat": 0.0, "name": "aed33be4e0df8096609a071fa5bf9040", "fusion_lon": 0.0}, {"is_reserved": 0, "type": "electric_bike", "bike_id": "491aab4ea5cd0fec81e865e4abf209d6", "lat": 38.96624283333333, "lon": -77.0343845, "rental_uris": {"android": "https://dc.lft.to/lastmile_qr_scan", "ios": "https://dc.lft.to/lastmile_qr_scan"}, "is_disabled": 0, "fusion_lat": 0.0, "name": "491aab4ea5cd0fec81e865e4abf209d6", "fusion_lon": 0.0}, {"is_reserved": 0, "type": "electric_scooter", "bike_id": "6bf584e16dbadad6261a07778a2bd4c9", "lat": 38.88303616666666, "lon": -76.94857883333333, "rental_uris": {"android": "https://dc.lft.to/lastmile_qr_scan", "ios": "https://dc.lft.to/lastmile_qr_scan"}, "is_disabled": 0, "fusion_lat": 0.0, "name": "6bf584e16dbadad6261a07778a2bd4c9", "fusion_lon": 0.0}, {"is_reserved": 0, "type": "electric_scooter", "bike_id": "72080b50fb4c5e6fbc735e4771376a72", "lat": 38.87882183333333, "lon": -77.00757916666667, "rental_uris": {"android": "https://dc.lft.to/lastmile_qr_scan", "ios": "https://dc.lft.to/lastmile_qr_scan"}, "is_disabled": 0, "fusion_lat": 0.0, "name": "72080b50fb4c5e6fbc735e4771376a72", "fusion_lon": 0.0}, {"is_reserved": 0, "type": "electric_scooter", "bike_id": "ea6f92335064ab770fe506863b3ab76e", "lat": 38.900534, "lon": -77.04959483333333, "rental_uris": {"android": "https://dc.lft.to/lastmile_qr_scan", "ios": "https://dc.lft.to/lastmile_qr_scan"}, "is_disabled": 0, "fusion_lat": 0.0, "name": "ea6f92335064ab770fe506863b3ab76e", "fusion_lon": 0.0}, {"is_reserved": 0, "type": "electric_scooter", "bike_id": "df6dc0bd680792874e81e57fc9bb22e2", "lat": 38.92303166666667, "lon": -77.03014783333333, "rental_uris": {"android": "https://dc.lft.to/lastmile_qr_scan", "ios": "https://dc.lft.to/lastmile_qr_scan"}, "is_disabled": 0, "fusion_lat": 0.0, "name": "df6dc0bd680792874e81e57fc9bb22e2", "fusion_lon": 0.0}, {"is_reserved": 0, "type": "electric_scooter", "bike_id": "6c759bc0626a27959f5ed6bf26b8d538", "lat": 38.918689666666666, "lon": -77.04440916666667, "rental_uris": {"android": "https://dc.lft.to/lastmile_qr_scan", "ios": "https://dc.lft.to/lastmile_qr_scan"}, "is_disabled": 0, "fusion_lat": 0.0, "name": "6c759bc0626a27959f5ed6bf26b8d538", "fusion_lon": 0.0}, {"is_reserved": 0, "type": "electric_scooter", "bike_id": "69dc14242eba65311ac0e58d966aa52b", "lat": 38.92031, "lon": -77.01780866666667, "rental_uris": {"android": "https://dc.lft.to/lastmile_qr_scan", "ios": "https://dc.lft.to/lastmile_qr_scan"}, "is_disabled": 0, "fusion_lat": 0.0, "name": "69dc14242eba65311ac0e58d966aa52b", "fusion_lon": 0.0}, {"is_reserved": 0, "type": "electric_scooter", "bike_id": "a5b4e2af1339e0eda49fb0fb720765b7", "lat": 38.911044833333335, "lon": -77.0734845, "rental_uris": {"android": "https://dc.lft.to/lastmile_qr_scan", "ios": "https://dc.lft.to/lastmile_qr_scan"}, "is_disabled": 0, "fusion_lat": 0.0, "name": "a5b4e2af1339e0eda49fb0fb720765b7", "fusion_lon": 0.0}, {"is_reserved": 0, "type": "electric_scooter", "bike_id": "980fa3663a663076cb624f378649da65", "lat": 38.922336, "lon": -77.02328466666667, "rental_uris": {"android": "https://dc.lft.to/lastmile_qr_scan", "ios": "https://dc.lft.to/lastmile_qr_scan"}, "is_disabled": 0, "fusion_lat": 0.0, "name": "980fa3663a663076cb624f378649da65", "fusion_lon": 0.0}, {"is_reserved": 0, "type": "electric_scooter", "bike_id": "b100ea05e5befad59d76e2d6ea27fb0e", "lat": 38.93002883333333, "lon": -77.0230895, "rental_uris": {"android": "https://dc.lft.to/lastmile_qr_scan", "ios": "https://dc.lft.to/lastmile_qr_scan"}, "is_disabled": 0, "fusion_lat": 0.0, "name": "b100ea05e5befad59d76e2d6ea27fb0e", "fusion_lon": 0.0}, {"is_reserved": 0, "type": "electric_scooter", "bike_id": "4b1cf58f40a300ad48d222e5e4471672", "lat": 38.921636, "lon": -77.0338155, "rental_uris": {"android": "https://dc.lft.to/lastmile_qr_scan", "ios": "https://dc.lft.to/lastmile_qr_scan"}, "is_disabled": 0, "fusion_lat": 0.0, "name": "4b1cf58f40a300ad48d222e5e4471672", "fusion_lon": 0.0}, {"is_reserved": 0, "type": "electric_scooter", "bike_id": "149756ce5aefd4639b6f236af29ed04a", "lat": 38.90507266666667, "lon": -77.04144033333333, "rental_uris": {"android": "https://dc.lft.to/lastmile_qr_scan", "ios": "https://dc.lft.to/lastmile_qr_scan"}, "is_disabled": 0, "fusion_lat": 0.0, "name": "149756ce5aefd4639b6f236af29ed04a", "fusion_lon": 0.0}, {"is_reserved": 0, "type": "electric_scooter", "bike_id": "6ca21b13687f65308a0e1ce304140970", "lat": 38.916350333333334, "lon": -77.04623366666667, "rental_uris": {"android": "https://dc.lft.to/lastmile_qr_scan", "ios": "https://dc.lft.to/lastmile_qr_scan"}, "is_disabled": 0, "fusion_lat": 0.0, "name": "6ca21b13687f65308a0e1ce304140970", "fusion_lon": 0.0}, {"is_reserved": 0, "type": "electric_scooter", "bike_id": "4202e98e877c0b9b684e123b0eee3d61", "lat": 38.9087385, "lon": -77.00260766666666, "rental_uris": {"android": "https://dc.lft.to/lastmile_qr_scan", "ios": "https://dc.lft.to/lastmile_qr_scan"}, "is_disabled": 0, "fusion_lat": 0.0, "name": "4202e98e877c0b9b684e123b0eee3d61", "fusion_lon": 0.0}, {"is_reserved": 0, "type": "electric_scooter", "bike_id": "017bb324afc6e65eb9eba9768c437efd", "lat": 38.900623333333336, "lon": -77.054318, "rental_uris": {"android": "https://dc.lft.to/lastmile_qr_scan", "ios": "https://dc.lft.to/lastmile_qr_scan"}, "is_disabled": 0, "fusion_lat": 0.0, "name": "017bb324afc6e65eb9eba9768c437efd", "fusion_lon": 0.0}, {"is_reserved": 0, "type": "electric_scooter", "bike_id": "3718477e58137feefda839ce6faec933", "lat": 38.89497083333333, "lon": -77.00196766666667, "rental_uris": {"android": "https://dc.lft.to/lastmile_qr_scan", "ios": "https://dc.lft.to/lastmile_qr_scan"}, "is_disabled": 0, "fusion_lat": 0.0, "name": "3718477e58137feefda839ce6faec933", "fusion_lon": 0.0}, {"is_reserved": 0, "type": "electric_scooter", "bike_id": "3f3884c1631ba85edaf2482c21912729", "lat": 38.92405866666667, "lon": -77.0231175, "rental_uris": {"android": "https://dc.lft.to/lastmile_qr_scan", "ios": "https://dc.lft.to/lastmile_qr_scan"}, "is_disabled": 0, "fusion_lat": 0.0, "name": "3f3884c1631ba85edaf2482c21912729", "fusion_lon": 0.0}, {"is_reserved": 0, "type": "electric_scooter", "bike_id": "ceb3b747d76dfdc4190dae4d78d8362b", "lat": 38.924487, "lon": -77.0401745, "rental_uris": {"android": "https://dc.lft.to/lastmile_qr_scan", "ios": "https://dc.lft.to/lastmile_qr_scan"}, "is_disabled": 0, "fusion_lat": 0.0, "name": "ceb3b747d76dfdc4190dae4d78d8362b", "fusion_lon": 0.0}, {"is_reserved": 0, "type": "electric_scooter", "bike_id": "1f0e3b74868b18dc74c6ba50322764ef", "lat": 38.91270633333333, "lon": -77.0261275, "rental_uris": {"android": "https://dc.lft.to/lastmile_qr_scan", "ios": "https://dc.lft.to/lastmile_qr_scan"}, "is_disabled": 0, "fusion_lat": 0.0, "name": "1f0e3b74868b18dc74c6ba50322764ef", "fusion_lon": 0.0}, {"is_reserved": 0, "type": "electric_scooter", "bike_id": "e727482de97089ace26fad3c3c1b411b", "lat": 38.89833, "lon": -77.00755516666666, "rental_uris": {"android": "https://dc.lft.to/lastmile_qr_scan", "ios": "https://dc.lft.to/lastmile_qr_scan"}, "is_disabled": 0, "fusion_lat": 0.0, "name": "e727482de97089ace26fad3c3c1b411b", "fusion_lon": 0.0}, {"is_reserved": 0, "type": "electric_scooter", "bike_id": "a5ac55688bc5ed856bbeedac985abad9", "lat": 38.913352833333335, "lon": -77.03188166666666, "rental_uris": {"android": "https://dc.lft.to/lastmile_qr_scan", "ios": "https://dc.lft.to/lastmile_qr_scan"}, "is_disabled": 0, "fusion_lat": 0.0, "name": "a5ac55688bc5ed856bbeedac985abad9", "fusion_lon": 0.0}, {"is_reserved": 0, "type": "electric_scooter", "bike_id": "84e758e62afb3559802042bb41bfbbdf", "lat": 38.91104466666667, "lon": -77.0427985, "rental_uris": {"android": "https://dc.lft.to/lastmile_qr_scan", "ios": "https://dc.lft.to/lastmile_qr_scan"}, "is_disabled": 0, "fusion_lat": 0.0, "name": "84e758e62afb3559802042bb41bfbbdf", "fusion_lon": 0.0}, {"is_reserved": 0, "type": "electric_scooter", "bike_id": "0403b77c011dedcf89bbf47d05b720e6", "lat": 38.9141695, "lon": -77.0317445, "rental_uris": {"android": "https://dc.lft.to/lastmile_qr_scan", "ios": "https://dc.lft.to/lastmile_qr_scan"}, "is_disabled": 0, "fusion_lat": 0.0, "name": "0403b77c011dedcf89bbf47d05b720e6", "fusion_lon": 0.0}, {"is_reserved": 0, "type": "electric_scooter", "bike_id": "4fe31ce197c354e56ac612069efb9fb1", "lat": 38.88773466666667, "lon": -76.93261633333333, "rental_uris": {"android": "https://dc.lft.to/lastmile_qr_scan", "ios": "https://dc.lft.to/lastmile_qr_scan"}, "is_disabled": 0, "fusion_lat": 0.0, "name": "4fe31ce197c354e56ac612069efb9fb1", "fusion_lon": 0.0}, {"is_reserved": 0, "type": "electric_scooter", "bike_id": "ccbc188036b118199a6b1d8afc5b0dd2", "lat": 38.9166915, "lon": -77.02393633333334, "rental_uris": {"android": "https://dc.lft.to/lastmile_qr_scan", "ios": "https://dc.lft.to/lastmile_qr_scan"}, "is_disabled": 0, "fusion_lat": 0.0, "name": "ccbc188036b118199a6b1d8afc5b0dd2", "fusion_lon": 0.0}, {"is_reserved": 0, "type": "electric_scooter", "bike_id": "9122c065ae40ece642c880b9a573f34a", "lat": 38.92504366666667, "lon": -77.02455216666667, "rental_uris": {"android": "https://dc.lft.to/lastmile_qr_scan", "ios": "https://dc.lft.to/lastmile_qr_scan"}, "is_disabled": 0, "fusion_lat": 0.0, "name": "9122c065ae40ece642c880b9a573f34a", "fusion_lon": 0.0}, {"is_reserved": 0, "type": "electric_scooter", "bike_id": "63d501a7a07b77421e1e346e785254f1", "lat": 38.904615666666665, "lon": -77.006284, "rental_uris": {"android": "https://dc.lft.to/lastmile_qr_scan", "ios": "https://dc.lft.to/lastmile_qr_scan"}, "is_disabled": 0, "fusion_lat": 0.0, "name": "63d501a7a07b77421e1e346e785254f1", "fusion_lon": 0.0}, {"is_reserved": 0, "type": "electric_bike", "bike_id": "cf50671fc96d4910a6d33d2c95948fc9", "lat": 38.863734666666666, "lon": -76.97009316666667, "rental_uris": {"android": "https://dc.lft.to/lastmile_qr_scan", "ios": "https://dc.lft.to/lastmile_qr_scan"}, "is_disabled": 0, "fusion_lat": 0.0, "name": "cf50671fc96d4910a6d33d2c95948fc9", "fusion_lon": 0.0}, {"is_reserved": 0, "type": "electric_scooter", "bike_id": "8c89fa75284672b0caf648db57aac676", "lat": 38.9099705, "lon": -77.040043, "rental_uris": {"android": "https://dc.lft.to/lastmile_qr_scan", "ios": "https://dc.lft.to/lastmile_qr_scan"}, "is_disabled": 0, "fusion_lat": 0.0, "name": "8c89fa75284672b0caf648db57aac676", "fusion_lon": 0.0}, {"is_reserved": 0, "type": "electric_scooter", "bike_id": "449348c5c3860c4b90098984fc206ef2", "lat": 38.928368, "lon": -77.02725916666667, "rental_uris": {"android": "https://dc.lft.to/lastmile_qr_scan", "ios": "https://dc.lft.to/lastmile_qr_scan"}, "is_disabled": 0, "fusion_lat": 0.0, "name": "449348c5c3860c4b90098984fc206ef2", "fusion_lon": 0.0}, {"is_reserved": 0, "type": "electric_scooter", "bike_id": "da99abc3786560f9effa7f81f8a86bcb", "lat": 38.89627733333333, "lon": -77.03222016666666, "rental_uris": {"android": "https://dc.lft.to/lastmile_qr_scan", "ios": "https://dc.lft.to/lastmile_qr_scan"}, "is_disabled": 0, "fusion_lat": 0.0, "name": "da99abc3786560f9effa7f81f8a86bcb", "fusion_lon": 0.0}, {"is_reserved": 0, "type": "electric_scooter", "bike_id": "5585388645e896bde2460f83e3295504", "lat": 38.905320333333336, "lon": -77.0021005, "rental_uris": {"android": "https://dc.lft.to/lastmile_qr_scan", "ios": "https://dc.lft.to/lastmile_qr_scan"}, "is_disabled": 0, "fusion_lat": 0.0, "name": "5585388645e896bde2460f83e3295504", "fusion_lon": 0.0}, {"is_reserved": 0, "type": "electric_scooter", "bike_id": "52569753c01953f899e45af623862f3d", "lat": 38.89887183333333, "lon": -76.93178183333333, "rental_uris": {"android": "https://dc.lft.to/lastmile_qr_scan", "ios": "https://dc.lft.to/lastmile_qr_scan"}, "is_disabled": 0, "fusion_lat": 0.0, "name": "52569753c01953f899e45af623862f3d", "fusion_lon": 0.0}, {"is_reserved": 0, "type": "electric_scooter", "bike_id": "6439a50a220f762d2c04403226dcb67c", "lat": 38.89611466666667, "lon": -77.04411916666666, "rental_uris": {"android": "https://dc.lft.to/lastmile_qr_scan", "ios": "https://dc.lft.to/lastmile_qr_scan"}, "is_disabled": 0, "fusion_lat": 0.0, "name": "6439a50a220f762d2c04403226dcb67c", "fusion_lon": 0.0}, {"is_reserved": 0, "type": "electric_scooter", "bike_id": "2f4e33e40bbc28b6c90f5950ed08bc2d", "lat": 38.93097266666667, "lon": -77.02411616666667, "rental_uris": {"android": "https://dc.lft.to/lastmile_qr_scan", "ios": "https://dc.lft.to/lastmile_qr_scan"}, "is_disabled": 0, "fusion_lat": 0.0, "name": "2f4e33e40bbc28b6c90f5950ed08bc2d", "fusion_lon": 0.0}, {"is_reserved": 0, "type": "electric_scooter", "bike_id": "6f9eff389d2d20fb097431fe2c302cc9", "lat": 38.90647416666667, "lon": -77.046463, "rental_uris": {"android": "https://dc.lft.to/lastmile_qr_scan", "ios": "https://dc.lft.to/lastmile_qr_scan"}, "is_disabled": 0, "fusion_lat": 0.0, "name": "6f9eff389d2d20fb097431fe2c302cc9", "fusion_lon": 0.0}, {"is_reserved": 0, "type": "electric_scooter", "bike_id": "d41444cd69acaaf46318eb9f065bd363", "lat": 38.918147, "lon": -77.03020983333333, "rental_uris": {"android": "https://dc.lft.to/lastmile_qr_scan", "ios": "https://dc.lft.to/lastmile_qr_scan"}, "is_disabled": 0, "fusion_lat": 0.0, "name": "d41444cd69acaaf46318eb9f065bd363", "fusion_lon": 0.0}, {"is_reserved": 0, "type": "electric_scooter", "bike_id": "03cb44374519f733c0f6b37dc9aefaaf", "lat": 38.90066783333333, "lon": -76.92745733333334, "rental_uris": {"android": "https://dc.lft.to/lastmile_qr_scan", "ios": "https://dc.lft.to/lastmile_qr_scan"}, "is_disabled": 0, "fusion_lat": 0.0, "name": "03cb44374519f733c0f6b37dc9aefaaf", "fusion_lon": 0.0}, {"is_reserved": 0, "type": "electric_scooter", "bike_id": "96e6cf252a8989f1fb196e236dfa59f8", "lat": 38.929494166666665, "lon": -77.00408316666666, "rental_uris": {"android": "https://dc.lft.to/lastmile_qr_scan", "ios": "https://dc.lft.to/lastmile_qr_scan"}, "is_disabled": 0, "fusion_lat": 0.0, "name": "96e6cf252a8989f1fb196e236dfa59f8", "fusion_lon": 0.0}, {"is_reserved": 0, "type": "electric_scooter", "bike_id": "906130f377e9298e1774de703ff9a25c", "lat": 38.91488666666667, "lon": -77.00216766666667, "rental_uris": {"android": "https://dc.lft.to/lastmile_qr_scan", "ios": "https://dc.lft.to/lastmile_qr_scan"}, "is_disabled": 0, "fusion_lat": 0.0, "name": "906130f377e9298e1774de703ff9a25c", "fusion_lon": 0.0}, {"is_reserved": 0, "type": "electric_scooter", "bike_id": "34ec41492cbbea3bc03e498ad82c6937", "lat": 38.87808283333333, "lon": -76.99488533333333, "rental_uris": {"android": "https://dc.lft.to/lastmile_qr_scan", "ios": "https://dc.lft.to/lastmile_qr_scan"}, "is_disabled": 0, "fusion_lat": 0.0, "name": "34ec41492cbbea3bc03e498ad82c6937", "fusion_lon": 0.0}, {"is_reserved": 0, "type": "electric_scooter", "bike_id": "a37b780824857b2f918e75604c8561c3", "lat": 38.88725483333333, "lon": -76.98355566666666, "rental_uris": {"android": "https://dc.lft.to/lastmile_qr_scan", "ios": "https://dc.lft.to/lastmile_qr_scan"}, "is_disabled": 0, "fusion_lat": 0.0, "name": "a37b780824857b2f918e75604c8561c3", "fusion_lon": 0.0}, {"is_reserved": 0, "type": "electric_scooter", "bike_id": "245ad9ffdf2d2d11d688e54f77ca92e3", "lat": 38.918111, "lon": -77.00979583333333, "rental_uris": {"android": "https://dc.lft.to/lastmile_qr_scan", "ios": "https://dc.lft.to/lastmile_qr_scan"}, "is_disabled": 0, "fusion_lat": 0.0, "name": "245ad9ffdf2d2d11d688e54f77ca92e3", "fusion_lon": 0.0}, {"is_reserved": 0, "type": "electric_scooter", "bike_id": "b1e1ab058c6678f4ca7e3fe86012e628", "lat": 38.93338766666667, "lon": -77.0240555, "rental_uris": {"android": "https://dc.lft.to/lastmile_qr_scan", "ios": "https://dc.lft.to/lastmile_qr_scan"}, "is_disabled": 0, "fusion_lat": 0.0, "name": "b1e1ab058c6678f4ca7e3fe86012e628", "fusion_lon": 0.0}, {"is_reserved": 0, "type": "electric_scooter", "bike_id": "a23d0348f335916980dd589b82b725f1", "lat": 38.942416333333334, "lon": -77.03580866666667, "rental_uris": {"android": "https://dc.lft.to/lastmile_qr_scan", "ios": "https://dc.lft.to/lastmile_qr_scan"}, "is_disabled": 0, "fusion_lat": 0.0, "name": "a23d0348f335916980dd589b82b725f1", "fusion_lon": 0.0}, {"is_reserved": 0, "type": "electric_scooter", "bike_id": "48d01779f88b6820d3ac76c65822e12b", "lat": 38.938826, "lon": -77.03282383333334, "rental_uris": {"android": "https://dc.lft.to/lastmile_qr_scan", "ios": "https://dc.lft.to/lastmile_qr_scan"}, "is_disabled": 0, "fusion_lat": 0.0, "name": "48d01779f88b6820d3ac76c65822e12b", "fusion_lon": 0.0}, {"is_reserved": 0, "type": "electric_scooter", "bike_id": "039c5d975bcd4a43f412fe79e2b6359d", "lat": 38.9263495, "lon": -77.0353565, "rental_uris": {"android": "https://dc.lft.to/lastmile_qr_scan", "ios": "https://dc.lft.to/lastmile_qr_scan"}, "is_disabled": 0, "fusion_lat": 0.0, "name": "039c5d975bcd4a43f412fe79e2b6359d", "fusion_lon": 0.0}, {"is_reserved": 0, "type": "electric_scooter", "bike_id": "8ab6b44470c4c6829615dec0f6dcc005", "lat": 38.917209166666666, "lon": -77.02972333333334, "rental_uris": {"android": "https://dc.lft.to/lastmile_qr_scan", "ios": "https://dc.lft.to/lastmile_qr_scan"}, "is_disabled": 0, "fusion_lat": 0.0, "name": "8ab6b44470c4c6829615dec0f6dcc005", "fusion_lon": 0.0}, {"is_reserved": 0, "type": "electric_scooter", "bike_id": "8474497fbfe63b55bc9a2c8f52712ed6", "lat": 38.949032, "lon": -77.03189683333333, "rental_uris": {"android": "https://dc.lft.to/lastmile_qr_scan", "ios": "https://dc.lft.to/lastmile_qr_scan"}, "is_disabled": 0, "fusion_lat": 0.0, "name": "8474497fbfe63b55bc9a2c8f52712ed6", "fusion_lon": 0.0}, {"is_reserved": 0, "type": "electric_scooter", "bike_id": "dfe2aca57ea4886a7de9dc8767bea221", "lat": 38.982237833333336, "lon": -77.02642466666667, "rental_uris": {"android": "https://dc.lft.to/lastmile_qr_scan", "ios": "https://dc.lft.to/lastmile_qr_scan"}, "is_disabled": 0, "fusion_lat": 0.0, "name": "dfe2aca57ea4886a7de9dc8767bea221", "fusion_lon": 0.0}, {"is_reserved": 0, "type": "electric_scooter", "bike_id": "5e832970ead5b31c582127b3bde454ac", "lat": 38.8746885, "lon": -77.00558383333333, "rental_uris": {"android": "https://dc.lft.to/lastmile_qr_scan", "ios": "https://dc.lft.to/lastmile_qr_scan"}, "is_disabled": 0, "fusion_lat": 0.0, "name": "5e832970ead5b31c582127b3bde454ac", "fusion_lon": 0.0}, {"is_reserved": 0, "type": "electric_scooter", "bike_id": "287adbee26b40f0ce6058a0405d1b8d4", "lat": 38.88510466666666, "lon": -76.996804, "rental_uris": {"android": "https://dc.lft.to/lastmile_qr_scan", "ios": "https://dc.lft.to/lastmile_qr_scan"}, "is_disabled": 0, "fusion_lat": 0.0, "name": "287adbee26b40f0ce6058a0405d1b8d4", "fusion_lon": 0.0}, {"is_reserved": 0, "type": "electric_scooter", "bike_id": "a8951da50eb3024bf707a1f0d1e92c8f", "lat": 38.922351166666665, "lon": -77.03895283333334, "rental_uris": {"android": "https://dc.lft.to/lastmile_qr_scan", "ios": "https://dc.lft.to/lastmile_qr_scan"}, "is_disabled": 0, "fusion_lat": 0.0, "name": "a8951da50eb3024bf707a1f0d1e92c8f", "fusion_lon": 0.0}, {"is_reserved": 0, "type": "electric_scooter", "bike_id": "6479a8146f6d35bc522f64dcdbee7991", "lat": 38.920842666666665, "lon": -77.02389933333333, "rental_uris": {"android": "https://dc.lft.to/lastmile_qr_scan", "ios": "https://dc.lft.to/lastmile_qr_scan"}, "is_disabled": 0, "fusion_lat": 0.0, "name": "6479a8146f6d35bc522f64dcdbee7991", "fusion_lon": 0.0}, {"is_reserved": 0, "type": "electric_scooter", "bike_id": "56f16d630981144b84210914183b80b7", "lat": 38.9231215, "lon": -77.04445016666666, "rental_uris": {"android": "https://dc.lft.to/lastmile_qr_scan", "ios": "https://dc.lft.to/lastmile_qr_scan"}, "is_disabled": 0, "fusion_lat": 0.0, "name": "56f16d630981144b84210914183b80b7", "fusion_lon": 0.0}, {"is_reserved": 0, "type": "electric_scooter", "bike_id": "4846f9dfc0cf3bda6dd69a460ec94f95", "lat": 38.91443833333334, "lon": -77.023954, "rental_uris": {"android": "https://dc.lft.to/lastmile_qr_scan", "ios": "https://dc.lft.to/lastmile_qr_scan"}, "is_disabled": 0, "fusion_lat": 0.0, "name": "4846f9dfc0cf3bda6dd69a460ec94f95", "fusion_lon": 0.0}, {"is_reserved": 0, "type": "electric_scooter", "bike_id": "b4aaeb6bb89a41b405d770de92a77144", "lat": 38.91576966666667, "lon": -77.0461755, "rental_uris": {"android": "https://dc.lft.to/lastmile_qr_scan", "ios": "https://dc.lft.to/lastmile_qr_scan"}, "is_disabled": 0, "fusion_lat": 0.0, "name": "b4aaeb6bb89a41b405d770de92a77144", "fusion_lon": 0.0}, {"is_reserved": 0, "type": "electric_scooter", "bike_id": "24d384f2eb73af4e6004197439532197", "lat": 38.9264295, "lon": -76.995529, "rental_uris": {"android": "https://dc.lft.to/lastmile_qr_scan", "ios": "https://dc.lft.to/lastmile_qr_scan"}, "is_disabled": 0, "fusion_lat": 0.0, "name": "24d384f2eb73af4e6004197439532197", "fusion_lon": 0.0}, {"is_reserved": 0, "type": "electric_scooter", "bike_id": "5192ee3c65c5292da649edf0c6df6a9f", "lat": 38.900703, "lon": -76.927444, "rental_uris": {"android": "https://dc.lft.to/lastmile_qr_scan", "ios": "https://dc.lft.to/lastmile_qr_scan"}, "is_disabled": 0, "fusion_lat": 0.0, "name": "5192ee3c65c5292da649edf0c6df6a9f", "fusion_lon": 0.0}, {"is_reserved": 0, "type": "electric_scooter", "bike_id": "b53e2b6832565037c286ad49957d1a86", "lat": 38.89565066666667, "lon": -77.03173733333334, "rental_uris": {"android": "https://dc.lft.to/lastmile_qr_scan", "ios": "https://dc.lft.to/lastmile_qr_scan"}, "is_disabled": 0, "fusion_lat": 0.0, "name": "b53e2b6832565037c286ad49957d1a86", "fusion_lon": 0.0}, {"is_reserved": 0, "type": "electric_scooter", "bike_id": "b57cdf4c8bef0d099f818f1c34d2c4d7", "lat": 38.929693666666665, "lon": -77.02339516666666, "rental_uris": {"android": "https://dc.lft.to/lastmile_qr_scan", "ios": "https://dc.lft.to/lastmile_qr_scan"}, "is_disabled": 0, "fusion_lat": 0.0, "name": "b57cdf4c8bef0d099f818f1c34d2c4d7", "fusion_lon": 0.0}, {"is_reserved": 0, "type": "electric_scooter", "bike_id": "0f1e40ce195cda55ea17d5b7bacdc352", "lat": 38.925669666666664, "lon": -76.97005716666666, "rental_uris": {"android": "https://dc.lft.to/lastmile_qr_scan", "ios": "https://dc.lft.to/lastmile_qr_scan"}, "is_disabled": 0, "fusion_lat": 0.0, "name": "0f1e40ce195cda55ea17d5b7bacdc352", "fusion_lon": 0.0}, {"is_reserved": 0, "type": "electric_scooter", "bike_id": "ea79494d26d4118598490449e02c6ef5", "lat": 38.94724466666667, "lon": -77.02468516666667, "rental_uris": {"android": "https://dc.lft.to/lastmile_qr_scan", "ios": "https://dc.lft.to/lastmile_qr_scan"}, "is_disabled": 0, "fusion_lat": 0.0, "name": "ea79494d26d4118598490449e02c6ef5", "fusion_lon": 0.0}, {"is_reserved": 0, "type": "electric_scooter", "bike_id": "db1271c04a4e4d80f5e1fc13e9d1745c", "lat": 38.90264766666667, "lon": -77.0033045, "rental_uris": {"android": "https://dc.lft.to/lastmile_qr_scan", "ios": "https://dc.lft.to/lastmile_qr_scan"}, "is_disabled": 0, "fusion_lat": 0.0, "name": "db1271c04a4e4d80f5e1fc13e9d1745c", "fusion_lon": 0.0}, {"is_reserved": 0, "type": "electric_scooter", "bike_id": "07a771d5f6fa71c6457ccc16764b2ca2", "lat": 38.935308166666665, "lon": -77.02352883333333, "rental_uris": {"android": "https://dc.lft.to/lastmile_qr_scan", "ios": "https://dc.lft.to/lastmile_qr_scan"}, "is_disabled": 0, "fusion_lat": 0.0, "name": "07a771d5f6fa71c6457ccc16764b2ca2", "fusion_lon": 0.0}, {"is_reserved": 0, "type": "electric_scooter", "bike_id": "f4fd9d1d83985a1d301ce88e39695480", "lat": 38.89619783333333, "lon": -76.97683883333333, "rental_uris": {"android": "https://dc.lft.to/lastmile_qr_scan", "ios": "https://dc.lft.to/lastmile_qr_scan"}, "is_disabled": 0, "fusion_lat": 0.0, "name": "f4fd9d1d83985a1d301ce88e39695480", "fusion_lon": 0.0}, {"is_reserved": 0, "type": "electric_scooter", "bike_id": "e1d30f6cb141c8b11fcb451197f36c7c", "lat": 38.900143166666666, "lon": -76.9302595, "rental_uris": {"android": "https://dc.lft.to/lastmile_qr_scan", "ios": "https://dc.lft.to/lastmile_qr_scan"}, "is_disabled": 0, "fusion_lat": 0.0, "name": "e1d30f6cb141c8b11fcb451197f36c7c", "fusion_lon": 0.0}, {"is_reserved": 0, "type": "electric_scooter", "bike_id": "eabfd5dba8221d2215b810ec8d9cd0b5", "lat": 38.88402383333333, "lon": -76.93046283333334, "rental_uris": {"android": "https://dc.lft.to/lastmile_qr_scan", "ios": "https://dc.lft.to/lastmile_qr_scan"}, "is_disabled": 0, "fusion_lat": 0.0, "name": "eabfd5dba8221d2215b810ec8d9cd0b5", "fusion_lon": 0.0}, {"is_reserved": 0, "type": "electric_scooter", "bike_id": "f62fa25dbdef1a4ef73150e32a6b79b2", "lat": 38.89645483333334, "lon": -76.99027466666666, "rental_uris": {"android": "https://dc.lft.to/lastmile_qr_scan", "ios": "https://dc.lft.to/lastmile_qr_scan"}, "is_disabled": 0, "fusion_lat": 0.0, "name": "f62fa25dbdef1a4ef73150e32a6b79b2", "fusion_lon": 0.0}, {"is_reserved": 0, "type": "electric_scooter", "bike_id": "14bb3de7e83b4f97d8919112d5efb187", "lat": 38.92311383333333, "lon": -77.029724, "rental_uris": {"android": "https://dc.lft.to/lastmile_qr_scan", "ios": "https://dc.lft.to/lastmile_qr_scan"}, "is_disabled": 0, "fusion_lat": 0.0, "name": "14bb3de7e83b4f97d8919112d5efb187", "fusion_lon": 0.0}, {"is_reserved": 0, "type": "electric_scooter", "bike_id": "1a9b7c725cfac905d32e619dc0d23ecd", "lat": 38.91482166666667, "lon": -77.02426, "rental_uris": {"android": "https://dc.lft.to/lastmile_qr_scan", "ios": "https://dc.lft.to/lastmile_qr_scan"}, "is_disabled": 0, "fusion_lat": 0.0, "name": "1a9b7c725cfac905d32e619dc0d23ecd", "fusion_lon": 0.0}, {"is_reserved": 0, "type": "electric_scooter", "bike_id": "e49e0e6247ddf59d9c3e46c46106bf7f", "lat": 38.899478, "lon": -77.0201525, "rental_uris": {"android": "https://dc.lft.to/lastmile_qr_scan", "ios": "https://dc.lft.to/lastmile_qr_scan"}, "is_disabled": 0, "fusion_lat": 0.0, "name": "e49e0e6247ddf59d9c3e46c46106bf7f", "fusion_lon": 0.0}, {"is_reserved": 0, "type": "electric_scooter", "bike_id": "52a9fe26c9e456f2dc21bd0dbd8b7258", "lat": 38.91740683333333, "lon": -77.00921083333333, "rental_uris": {"android": "https://dc.lft.to/lastmile_qr_scan", "ios": "https://dc.lft.to/lastmile_qr_scan"}, "is_disabled": 0, "fusion_lat": 0.0, "name": "52a9fe26c9e456f2dc21bd0dbd8b7258", "fusion_lon": 0.0}, {"is_reserved": 0, "type": "electric_scooter", "bike_id": "7bc68af35d42027c29e1b874eb355a83", "lat": 38.90644316666667, "lon": -77.070362, "rental_uris": {"android": "https://dc.lft.to/lastmile_qr_scan", "ios": "https://dc.lft.to/lastmile_qr_scan"}, "is_disabled": 0, "fusion_lat": 0.0, "name": "7bc68af35d42027c29e1b874eb355a83", "fusion_lon": 0.0}, {"is_reserved": 0, "type": "electric_scooter", "bike_id": "fdbf0f4f9cd88ea4bcaf8930b328526b", "lat": 38.89266933333333, "lon": -76.92998383333334, "rental_uris": {"android": "https://dc.lft.to/lastmile_qr_scan", "ios": "https://dc.lft.to/lastmile_qr_scan"}, "is_disabled": 0, "fusion_lat": 0.0, "name": "fdbf0f4f9cd88ea4bcaf8930b328526b", "fusion_lon": 0.0}, {"is_reserved": 0, "type": "electric_scooter", "bike_id": "6fcd44417131fb0e5916f5e121e649fe", "lat": 38.93004483333333, "lon": -77.01822, "rental_uris": {"android": "https://dc.lft.to/lastmile_qr_scan", "ios": "https://dc.lft.to/lastmile_qr_scan"}, "is_disabled": 0, "fusion_lat": 0.0, "name": "6fcd44417131fb0e5916f5e121e649fe", "fusion_lon": 0.0}, {"is_reserved": 0, "type": "electric_scooter", "bike_id": "94f58b6585514f3fd02f5cd4c51b9955", "lat": 38.90844166666667, "lon": -77.025875, "rental_uris": {"android": "https://dc.lft.to/lastmile_qr_scan", "ios": "https://dc.lft.to/lastmile_qr_scan"}, "is_disabled": 0, "fusion_lat": 0.0, "name": "94f58b6585514f3fd02f5cd4c51b9955", "fusion_lon": 0.0}, {"is_reserved": 0, "type": "electric_scooter", "bike_id": "9f2267d90508c075199988137f1d2a96", "lat": 38.9076555, "lon": -77.00221133333334, "rental_uris": {"android": "https://dc.lft.to/lastmile_qr_scan", "ios": "https://dc.lft.to/lastmile_qr_scan"}, "is_disabled": 0, "fusion_lat": 0.0, "name": "9f2267d90508c075199988137f1d2a96", "fusion_lon": 0.0}, {"is_reserved": 0, "type": "electric_scooter", "bike_id": "784a5860333828173cf402f242016e3e", "lat": 38.919336, "lon": -77.0342645, "rental_uris": {"android": "https://dc.lft.to/lastmile_qr_scan", "ios": "https://dc.lft.to/lastmile_qr_scan"}, "is_disabled": 0, "fusion_lat": 0.0, "name": "784a5860333828173cf402f242016e3e", "fusion_lon": 0.0}, {"is_reserved": 0, "type": "electric_bike", "bike_id": "d258469eab9081a5264dfa0d757bd23d", "lat": 38.92871916666667, "lon": -77.0380875, "rental_uris": {"android": "https://dc.lft.to/lastmile_qr_scan", "ios": "https://dc.lft.to/lastmile_qr_scan"}, "is_disabled": 0, "fusion_lat": 0.0, "name": "d258469eab9081a5264dfa0d757bd23d", "fusion_lon": 0.0}, {"is_reserved": 0, "type": "electric_scooter", "bike_id": "688c06855e1f66e897109589469cab82", "lat": 38.914951333333335, "lon": -77.01996133333333, "rental_uris": {"android": "https://dc.lft.to/lastmile_qr_scan", "ios": "https://dc.lft.to/lastmile_qr_scan"}, "is_disabled": 0, "fusion_lat": 0.0, "name": "688c06855e1f66e897109589469cab82", "fusion_lon": 0.0}, {"is_reserved": 0, "type": "electric_scooter", "bike_id": "31f98698b4f06641ac1306bbb68afa15", "lat": 38.91682866666667, "lon": -77.03204533333333, "rental_uris": {"android": "https://dc.lft.to/lastmile_qr_scan", "ios": "https://dc.lft.to/lastmile_qr_scan"}, "is_disabled": 0, "fusion_lat": 0.0, "name": "31f98698b4f06641ac1306bbb68afa15", "fusion_lon": 0.0}, {"is_reserved": 0, "type": "electric_scooter", "bike_id": "807c6c15663a675e13ef070031e802f6", "lat": 38.92373933333333, "lon": -77.08049583333333, "rental_uris": {"android": "https://dc.lft.to/lastmile_qr_scan", "ios": "https://dc.lft.to/lastmile_qr_scan"}, "is_disabled": 0, "fusion_lat": 0.0, "name": "807c6c15663a675e13ef070031e802f6", "fusion_lon": 0.0}, {"is_reserved": 0, "type": "electric_scooter", "bike_id": "d02497c8806f6e56a1d17b7a9b187cb5", "lat": 38.924821666666666, "lon": -77.028133, "rental_uris": {"android": "https://dc.lft.to/lastmile_qr_scan", "ios": "https://dc.lft.to/lastmile_qr_scan"}, "is_disabled": 0, "fusion_lat": 0.0, "name": "d02497c8806f6e56a1d17b7a9b187cb5", "fusion_lon": 0.0}, {"is_reserved": 0, "type": "electric_scooter", "bike_id": "ac11077a3bb6b81e36fa6aab50891f32", "lat": 38.897117333333334, "lon": -76.99117066666666, "rental_uris": {"android": "https://dc.lft.to/lastmile_qr_scan", "ios": "https://dc.lft.to/lastmile_qr_scan"}, "is_disabled": 0, "fusion_lat": 0.0, "name": "ac11077a3bb6b81e36fa6aab50891f32", "fusion_lon": 0.0}, {"is_reserved": 0, "type": "electric_scooter", "bike_id": "059265f437ffa090c4eb33ae9dfac1b3", "lat": 38.936383166666666, "lon": -77.06010316666666, "rental_uris": {"android": "https://dc.lft.to/lastmile_qr_scan", "ios": "https://dc.lft.to/lastmile_qr_scan"}, "is_disabled": 0, "fusion_lat": 0.0, "name": "059265f437ffa090c4eb33ae9dfac1b3", "fusion_lon": 0.0}, {"is_reserved": 0, "type": "electric_scooter", "bike_id": "7ff75910ea0482688771b4c560185af4", "lat": 38.91704433333334, "lon": -77.01076933333333, "rental_uris": {"android": "https://dc.lft.to/lastmile_qr_scan", "ios": "https://dc.lft.to/lastmile_qr_scan"}, "is_disabled": 0, "fusion_lat": 0.0, "name": "7ff75910ea0482688771b4c560185af4", "fusion_lon": 0.0}, {"is_reserved": 0, "type": "electric_scooter", "bike_id": "49091aa5cfdb39f722b9c2b96c517319", "lat": 38.864479833333334, "lon": -76.99116416666666, "rental_uris": {"android": "https://dc.lft.to/lastmile_qr_scan", "ios": "https://dc.lft.to/lastmile_qr_scan"}, "is_disabled": 0, "fusion_lat": 0.0, "name": "49091aa5cfdb39f722b9c2b96c517319", "fusion_lon": 0.0}, {"is_reserved": 0, "type": "electric_scooter", "bike_id": "f82089157fbb10bd3372f4c22e92605d", "lat": 38.917148833333336, "lon": -77.03851366666666, "rental_uris": {"android": "https://dc.lft.to/lastmile_qr_scan", "ios": "https://dc.lft.to/lastmile_qr_scan"}, "is_disabled": 0, "fusion_lat": 0.0, "name": "f82089157fbb10bd3372f4c22e92605d", "fusion_lon": 0.0}, {"is_reserved": 0, "type": "electric_scooter", "bike_id": "71e5e18f937de4e4f0b23de4daa5eaff", "lat": 38.9247025, "lon": -77.0298785, "rental_uris": {"android": "https://dc.lft.to/lastmile_qr_scan", "ios": "https://dc.lft.to/lastmile_qr_scan"}, "is_disabled": 0, "fusion_lat": 0.0, "name": "71e5e18f937de4e4f0b23de4daa5eaff", "fusion_lon": 0.0}, {"is_reserved": 0, "type": "electric_scooter", "bike_id": "fb1710b6dc0738afd40cf2caa3baeb54", "lat": 38.91421183333333, "lon": -77.018056, "rental_uris": {"android": "https://dc.lft.to/lastmile_qr_scan", "ios": "https://dc.lft.to/lastmile_qr_scan"}, "is_disabled": 0, "fusion_lat": 0.0, "name": "fb1710b6dc0738afd40cf2caa3baeb54", "fusion_lon": 0.0}, {"is_reserved": 0, "type": "electric_bike", "bike_id": "e12d744ad8471ecadf827344f723dadb", "lat": 39.09444416666667, "lon": -77.13461, "rental_uris": {"android": "https://dc.lft.to/lastmile_qr_scan", "ios": "https://dc.lft.to/lastmile_qr_scan"}, "is_disabled": 0, "fusion_lat": 0.0, "name": "e12d744ad8471ecadf827344f723dadb", "fusion_lon": 0.0}, {"is_reserved": 0, "type": "electric_scooter", "bike_id": "035d3b4feb01370d8b6143381bcfa1d3", "lat": 38.972385333333335, "lon": -77.027134, "rental_uris": {"android": "https://dc.lft.to/lastmile_qr_scan", "ios": "https://dc.lft.to/lastmile_qr_scan"}, "is_disabled": 0, "fusion_lat": 0.0, "name": "035d3b4feb01370d8b6143381bcfa1d3", "fusion_lon": 0.0}, {"is_reserved": 0, "type": "electric_scooter", "bike_id": "d69c1220353c33563d41e04315ef89e5", "lat": 38.930235833333334, "lon": -77.037867, "rental_uris": {"android": "https://dc.lft.to/lastmile_qr_scan", "ios": "https://dc.lft.to/lastmile_qr_scan"}, "is_disabled": 0, "fusion_lat": 0.0, "name": "d69c1220353c33563d41e04315ef89e5", "fusion_lon": 0.0}, {"is_reserved": 0, "type": "electric_scooter", "bike_id": "3e9fbbc4ee5ab981a01ad8fc9f605f07", "lat": 38.905044833333335, "lon": -77.0414655, "rental_uris": {"android": "https://dc.lft.to/lastmile_qr_scan", "ios": "https://dc.lft.to/lastmile_qr_scan"}, "is_disabled": 0, "fusion_lat": 0.0, "name": "3e9fbbc4ee5ab981a01ad8fc9f605f07", "fusion_lon": 0.0}, {"is_reserved": 0, "type": "electric_scooter", "bike_id": "68898b4ed628b02fcd613d9ce5219162", "lat": 38.885806, "lon": -77.0218015, "rental_uris": {"android": "https://dc.lft.to/lastmile_qr_scan", "ios": "https://dc.lft.to/lastmile_qr_scan"}, "is_disabled": 0, "fusion_lat": 0.0, "name": "68898b4ed628b02fcd613d9ce5219162", "fusion_lon": 0.0}, {"is_reserved": 0, "type": "electric_scooter", "bike_id": "1e76f2da240059f9e1ef7354ae18ae4e", "lat": 38.923916166666665, "lon": -77.0505405, "rental_uris": {"android": "https://dc.lft.to/lastmile_qr_scan", "ios": "https://dc.lft.to/lastmile_qr_scan"}, "is_disabled": 0, "fusion_lat": 0.0, "name": "1e76f2da240059f9e1ef7354ae18ae4e", "fusion_lon": 0.0}, {"is_reserved": 0, "type": "electric_scooter", "bike_id": "07b8803bdeb03c82ba5b30645b4ea57a", "lat": 38.9039735, "lon": -77.06296, "rental_uris": {"android": "https://dc.lft.to/lastmile_qr_scan", "ios": "https://dc.lft.to/lastmile_qr_scan"}, "is_disabled": 0, "fusion_lat": 0.0, "name": "07b8803bdeb03c82ba5b30645b4ea57a", "fusion_lon": 0.0}, {"is_reserved": 0, "type": "electric_scooter", "bike_id": "be455fbe3135d56fbd2447a2f8ed8b56", "lat": 38.904959833333336, "lon": -77.0259925, "rental_uris": {"android": "https://dc.lft.to/lastmile_qr_scan", "ios": "https://dc.lft.to/lastmile_qr_scan"}, "is_disabled": 0, "fusion_lat": 0.0, "name": "be455fbe3135d56fbd2447a2f8ed8b56", "fusion_lon": 0.0}, {"is_reserved": 0, "type": "electric_scooter", "bike_id": "df3c5f17e8023f7818820052f1ad5a29", "lat": 38.93620033333333, "lon": -77.05852283333333, "rental_uris": {"android": "https://dc.lft.to/lastmile_qr_scan", "ios": "https://dc.lft.to/lastmile_qr_scan"}, "is_disabled": 0, "fusion_lat": 0.0, "name": "df3c5f17e8023f7818820052f1ad5a29", "fusion_lon": 0.0}, {"is_reserved": 0, "type": "electric_scooter", "bike_id": "6b57673c4d2b84906f412c96951f29db", "lat": 38.936300833333334, "lon": -77.0365685, "rental_uris": {"android": "https://dc.lft.to/lastmile_qr_scan", "ios": "https://dc.lft.to/lastmile_qr_scan"}, "is_disabled": 0, "fusion_lat": 0.0, "name": "6b57673c4d2b84906f412c96951f29db", "fusion_lon": 0.0}, {"is_reserved": 0, "type": "electric_scooter", "bike_id": "64537f2ce5bca462821dc33eaa8f85cf", "lat": 38.899757, "lon": -77.02131033333333, "rental_uris": {"android": "https://dc.lft.to/lastmile_qr_scan", "ios": "https://dc.lft.to/lastmile_qr_scan"}, "is_disabled": 0, "fusion_lat": 0.0, "name": "64537f2ce5bca462821dc33eaa8f85cf", "fusion_lon": 0.0}, {"is_reserved": 0, "type": "electric_scooter", "bike_id": "d214ee687c467f09274caf5f5b840286", "lat": 38.907215, "lon": -77.01747183333333, "rental_uris": {"android": "https://dc.lft.to/lastmile_qr_scan", "ios": "https://dc.lft.to/lastmile_qr_scan"}, "is_disabled": 0, "fusion_lat": 0.0, "name": "d214ee687c467f09274caf5f5b840286", "fusion_lon": 0.0}, {"is_reserved": 0, "type": "electric_scooter", "bike_id": "76d05427a99d8611418bb0ad585c8bfa", "lat": 38.89628883333334, "lon": -77.03224016666667, "rental_uris": {"android": "https://dc.lft.to/lastmile_qr_scan", "ios": "https://dc.lft.to/lastmile_qr_scan"}, "is_disabled": 0, "fusion_lat": 0.0, "name": "76d05427a99d8611418bb0ad585c8bfa", "fusion_lon": 0.0}, {"is_reserved": 0, "type": "electric_scooter", "bike_id": "72ebfab4d6ba5314f957748a31112a85", "lat": 38.89226716666667, "lon": -77.031084, "rental_uris": {"android": "https://dc.lft.to/lastmile_qr_scan", "ios": "https://dc.lft.to/lastmile_qr_scan"}, "is_disabled": 0, "fusion_lat": 0.0, "name": "72ebfab4d6ba5314f957748a31112a85", "fusion_lon": 0.0}, {"is_reserved": 0, "type": "electric_scooter", "bike_id": "6f8edb2196917c8a013c365c71962d3e", "lat": 38.928272, "lon": -77.05517983333333, "rental_uris": {"android": "https://dc.lft.to/lastmile_qr_scan", "ios": "https://dc.lft.to/lastmile_qr_scan"}, "is_disabled": 0, "fusion_lat": 0.0, "name": "6f8edb2196917c8a013c365c71962d3e", "fusion_lon": 0.0}, {"is_reserved": 0, "type": "electric_bike", "bike_id": "897b1d8a58c02d2d2467b0cb119e74c9", "lat": 38.86451533333333, "lon": -76.98992866666667, "rental_uris": {"android": "https://dc.lft.to/lastmile_qr_scan", "ios": "https://dc.lft.to/lastmile_qr_scan"}, "is_disabled": 0, "fusion_lat": 0.0, "name": "897b1d8a58c02d2d2467b0cb119e74c9", "fusion_lon": 0.0}, {"is_reserved": 0, "type": "electric_scooter", "bike_id": "02a9deb609a1946707ca59b37a2432bd", "lat": 38.9174865, "lon": -77.02781033333333, "rental_uris": {"android": "https://dc.lft.to/lastmile_qr_scan", "ios": "https://dc.lft.to/lastmile_qr_scan"}, "is_disabled": 0, "fusion_lat": 0.0, "name": "02a9deb609a1946707ca59b37a2432bd", "fusion_lon": 0.0}, {"is_reserved": 0, "type": "electric_scooter", "bike_id": "71fbe1ff8ecb1b7fdc6570cbb7d9fba8", "lat": 38.915631166666664, "lon": -77.03670616666666, "rental_uris": {"android": "https://dc.lft.to/lastmile_qr_scan", "ios": "https://dc.lft.to/lastmile_qr_scan"}, "is_disabled": 0, "fusion_lat": 0.0, "name": "71fbe1ff8ecb1b7fdc6570cbb7d9fba8", "fusion_lon": 0.0}, {"is_reserved": 0, "type": "electric_scooter", "bike_id": "bf5bdaecb1929742c78d90d9b6921d42", "lat": 38.89189733333333, "lon": -76.998556, "rental_uris": {"android": "https://dc.lft.to/lastmile_qr_scan", "ios": "https://dc.lft.to/lastmile_qr_scan"}, "is_disabled": 0, "fusion_lat": 0.0, "name": "bf5bdaecb1929742c78d90d9b6921d42", "fusion_lon": 0.0}, {"is_reserved": 0, "type": "electric_scooter", "bike_id": "1a7dbcd8363fa356995173801e9febd5", "lat": 38.8991145, "lon": -76.93366133333333, "rental_uris": {"android": "https://dc.lft.to/lastmile_qr_scan", "ios": "https://dc.lft.to/lastmile_qr_scan"}, "is_disabled": 0, "fusion_lat": 0.0, "name": "1a7dbcd8363fa356995173801e9febd5", "fusion_lon": 0.0}, {"is_reserved": 0, "type": "electric_scooter", "bike_id": "815800e74aefb75dcd028a5e4643e5cc", "lat": 38.9019045, "lon": -77.04876366666667, "rental_uris": {"android": "https://dc.lft.to/lastmile_qr_scan", "ios": "https://dc.lft.to/lastmile_qr_scan"}, "is_disabled": 0, "fusion_lat": 0.0, "name": "815800e74aefb75dcd028a5e4643e5cc", "fusion_lon": 0.0}, {"is_reserved": 0, "type": "electric_scooter", "bike_id": "ff266b3f1c9d2c71844c0784446c1ce8", "lat": 38.91117633333333, "lon": -77.03825533333334, "rental_uris": {"android": "https://dc.lft.to/lastmile_qr_scan", "ios": "https://dc.lft.to/lastmile_qr_scan"}, "is_disabled": 0, "fusion_lat": 0.0, "name": "ff266b3f1c9d2c71844c0784446c1ce8", "fusion_lon": 0.0}, {"is_reserved": 0, "type": "electric_scooter", "bike_id": "42e596cd1f683711f1711c74e4ca6725", "lat": 38.924345333333335, "lon": -77.00321016666666, "rental_uris": {"android": "https://dc.lft.to/lastmile_qr_scan", "ios": "https://dc.lft.to/lastmile_qr_scan"}, "is_disabled": 0, "fusion_lat": 0.0, "name": "42e596cd1f683711f1711c74e4ca6725", "fusion_lon": 0.0}, {"is_reserved": 0, "type": "electric_bike", "bike_id": "c38f0b506722d7125fb60a97730e472d", "lat": 38.831388833333335, "lon": -77.11343233333334, "rental_uris": {"android": "https://dc.lft.to/lastmile_qr_scan", "ios": "https://dc.lft.to/lastmile_qr_scan"}, "is_disabled": 0, "fusion_lat": 0.0, "name": "c38f0b506722d7125fb60a97730e472d", "fusion_lon": 0.0}, {"is_reserved": 0, "type": "electric_scooter", "bike_id": "f8d91b967d3574471516b6bee42e236f", "lat": 38.946948166666665, "lon": -77.022457, "rental_uris": {"android": "https://dc.lft.to/lastmile_qr_scan", "ios": "https://dc.lft.to/lastmile_qr_scan"}, "is_disabled": 0, "fusion_lat": 0.0, "name": "f8d91b967d3574471516b6bee42e236f", "fusion_lon": 0.0}, {"is_reserved": 0, "type": "electric_scooter", "bike_id": "9fcc7437a1de3a23275c9ad82b0608c0", "lat": 38.89758766666667, "lon": -77.02124966666666, "rental_uris": {"android": "https://dc.lft.to/lastmile_qr_scan", "ios": "https://dc.lft.to/lastmile_qr_scan"}, "is_disabled": 0, "fusion_lat": 0.0, "name": "9fcc7437a1de3a23275c9ad82b0608c0", "fusion_lon": 0.0}, {"is_reserved": 0, "type": "electric_scooter", "bike_id": "d3f88b5f60f32ee148b8797cab904a76", "lat": 38.922507, "lon": -77.03355833333333, "rental_uris": {"android": "https://dc.lft.to/lastmile_qr_scan", "ios": "https://dc.lft.to/lastmile_qr_scan"}, "is_disabled": 0, "fusion_lat": 0.0, "name": "d3f88b5f60f32ee148b8797cab904a76", "fusion_lon": 0.0}, {"is_reserved": 0, "type": "electric_scooter", "bike_id": "57304ef793ee62d5b0652870e311cb7f", "lat": 38.885099, "lon": -77.0111635, "rental_uris": {"android": "https://dc.lft.to/lastmile_qr_scan", "ios": "https://dc.lft.to/lastmile_qr_scan"}, "is_disabled": 0, "fusion_lat": 0.0, "name": "57304ef793ee62d5b0652870e311cb7f", "fusion_lon": 0.0}, {"is_reserved": 0, "type": "electric_scooter", "bike_id": "2266aacf8122805c8fb161c630eeda50", "lat": 38.90114966666667, "lon": -77.03810766666666, "rental_uris": {"android": "https://dc.lft.to/lastmile_qr_scan", "ios": "https://dc.lft.to/lastmile_qr_scan"}, "is_disabled": 0, "fusion_lat": 0.0, "name": "2266aacf8122805c8fb161c630eeda50", "fusion_lon": 0.0}, {"is_reserved": 0, "type": "electric_scooter", "bike_id": "759507801c62b7e5d1b58c250924dcdc", "lat": 38.90618716666667, "lon": -76.95020966666667, "rental_uris": {"android": "https://dc.lft.to/lastmile_qr_scan", "ios": "https://dc.lft.to/lastmile_qr_scan"}, "is_disabled": 0, "fusion_lat": 0.0, "name": "759507801c62b7e5d1b58c250924dcdc", "fusion_lon": 0.0}, {"is_reserved": 0, "type": "electric_scooter", "bike_id": "c381c0c415e4871e82ce5fd8124c4938", "lat": 38.931807, "lon": -77.02849166666667, "rental_uris": {"android": "https://dc.lft.to/lastmile_qr_scan", "ios": "https://dc.lft.to/lastmile_qr_scan"}, "is_disabled": 0, "fusion_lat": 0.0, "name": "c381c0c415e4871e82ce5fd8124c4938", "fusion_lon": 0.0}, {"is_reserved": 0, "type": "electric_scooter", "bike_id": "0f71c2b8bedc3acf3f03122b21faea37", "lat": 38.905207833333336, "lon": -77.06531483333333, "rental_uris": {"android": "https://dc.lft.to/lastmile_qr_scan", "ios": "https://dc.lft.to/lastmile_qr_scan"}, "is_disabled": 0, "fusion_lat": 0.0, "name": "0f71c2b8bedc3acf3f03122b21faea37", "fusion_lon": 0.0}, {"is_reserved": 0, "type": "electric_scooter", "bike_id": "9fa8ca27dd7f3eeb2c2f4855432a1e58", "lat": 38.89215333333333, "lon": -77.02415716666667, "rental_uris": {"android": "https://dc.lft.to/lastmile_qr_scan", "ios": "https://dc.lft.to/lastmile_qr_scan"}, "is_disabled": 0, "fusion_lat": 0.0, "name": "9fa8ca27dd7f3eeb2c2f4855432a1e58", "fusion_lon": 0.0}, {"is_reserved": 0, "type": "electric_scooter", "bike_id": "0ef58a45fb796facd071d8080fe38eb0", "lat": 38.91715816666667, "lon": -77.03857116666667, "rental_uris": {"android": "https://dc.lft.to/lastmile_qr_scan", "ios": "https://dc.lft.to/lastmile_qr_scan"}, "is_disabled": 0, "fusion_lat": 0.0, "name": "0ef58a45fb796facd071d8080fe38eb0", "fusion_lon": 0.0}, {"is_reserved": 0, "type": "electric_scooter", "bike_id": "3dc11aabacada57ee736fe172fdd4ad1", "lat": 38.89953833333333, "lon": -77.04484183333334, "rental_uris": {"android": "https://dc.lft.to/lastmile_qr_scan", "ios": "https://dc.lft.to/lastmile_qr_scan"}, "is_disabled": 0, "fusion_lat": 0.0, "name": "3dc11aabacada57ee736fe172fdd4ad1", "fusion_lon": 0.0}, {"is_reserved": 0, "type": "electric_scooter", "bike_id": "c96ae3a525b3e9cacb1ff4fe6fc00673", "lat": 38.91934033333333, "lon": -77.02509583333334, "rental_uris": {"android": "https://dc.lft.to/lastmile_qr_scan", "ios": "https://dc.lft.to/lastmile_qr_scan"}, "is_disabled": 0, "fusion_lat": 0.0, "name": "c96ae3a525b3e9cacb1ff4fe6fc00673", "fusion_lon": 0.0}, {"is_reserved": 0, "type": "electric_scooter", "bike_id": "cfb1cdce60ef4bb73c1c16df6924db49", "lat": 38.920802333333334, "lon": -77.03565033333334, "rental_uris": {"android": "https://dc.lft.to/lastmile_qr_scan", "ios": "https://dc.lft.to/lastmile_qr_scan"}, "is_disabled": 0, "fusion_lat": 0.0, "name": "cfb1cdce60ef4bb73c1c16df6924db49", "fusion_lon": 0.0}, {"is_reserved": 0, "type": "electric_scooter", "bike_id": "86cc54f885a20bb4259f1fa22b949b5c", "lat": 38.91606, "lon": -77.04486766666666, "rental_uris": {"android": "https://dc.lft.to/lastmile_qr_scan", "ios": "https://dc.lft.to/lastmile_qr_scan"}, "is_disabled": 0, "fusion_lat": 0.0, "name": "86cc54f885a20bb4259f1fa22b949b5c", "fusion_lon": 0.0}, {"is_reserved": 0, "type": "electric_scooter", "bike_id": "ff4d81ec0b5c7388d475bf4f57101de8", "lat": 38.92036066666667, "lon": -77.01723183333333, "rental_uris": {"android": "https://dc.lft.to/lastmile_qr_scan", "ios": "https://dc.lft.to/lastmile_qr_scan"}, "is_disabled": 0, "fusion_lat": 0.0, "name": "ff4d81ec0b5c7388d475bf4f57101de8", "fusion_lon": 0.0}, {"is_reserved": 0, "type": "electric_scooter", "bike_id": "117b2203ce055e279968d1ea76c4bbec", "lat": 38.906871333333335, "lon": -77.01539766666667, "rental_uris": {"android": "https://dc.lft.to/lastmile_qr_scan", "ios": "https://dc.lft.to/lastmile_qr_scan"}, "is_disabled": 0, "fusion_lat": 0.0, "name": "117b2203ce055e279968d1ea76c4bbec", "fusion_lon": 0.0}, {"is_reserved": 0, "type": "electric_scooter", "bike_id": "749aa38872f5b7c8c258923c8c922879", "lat": 38.91070933333334, "lon": -77.0410755, "rental_uris": {"android": "https://dc.lft.to/lastmile_qr_scan", "ios": "https://dc.lft.to/lastmile_qr_scan"}, "is_disabled": 0, "fusion_lat": 0.0, "name": "749aa38872f5b7c8c258923c8c922879", "fusion_lon": 0.0}, {"is_reserved": 0, "type": "electric_scooter", "bike_id": "532fca71a3ef5a3d3dc733714215b0f6", "lat": 38.90411483333333, "lon": -76.97328133333333, "rental_uris": {"android": "https://dc.lft.to/lastmile_qr_scan", "ios": "https://dc.lft.to/lastmile_qr_scan"}, "is_disabled": 0, "fusion_lat": 0.0, "name": "532fca71a3ef5a3d3dc733714215b0f6", "fusion_lon": 0.0}, {"is_reserved": 0, "type": "electric_scooter", "bike_id": "bed0bfeabf80923beb4ad54365c27448", "lat": 38.90849816666667, "lon": -77.0101695, "rental_uris": {"android": "https://dc.lft.to/lastmile_qr_scan", "ios": "https://dc.lft.to/lastmile_qr_scan"}, "is_disabled": 0, "fusion_lat": 0.0, "name": "bed0bfeabf80923beb4ad54365c27448", "fusion_lon": 0.0}, {"is_reserved": 0, "type": "electric_scooter", "bike_id": "192a0654014cfd6ad4bd383b5608fc84", "lat": 38.876638, "lon": -76.99325533333334, "rental_uris": {"android": "https://dc.lft.to/lastmile_qr_scan", "ios": "https://dc.lft.to/lastmile_qr_scan"}, "is_disabled": 0, "fusion_lat": 0.0, "name": "192a0654014cfd6ad4bd383b5608fc84", "fusion_lon": 0.0}, {"is_reserved": 0, "type": "electric_scooter", "bike_id": "4eb8c66aa47540da9bbc3c5f64084f10", "lat": 38.92230716666667, "lon": -77.02234, "rental_uris": {"android": "https://dc.lft.to/lastmile_qr_scan", "ios": "https://dc.lft.to/lastmile_qr_scan"}, "is_disabled": 0, "fusion_lat": 0.0, "name": "4eb8c66aa47540da9bbc3c5f64084f10", "fusion_lon": 0.0}, {"is_reserved": 0, "type": "electric_scooter", "bike_id": "bc50840268a5ec20abacfb67b026af4a", "lat": 38.920899666666664, "lon": -77.04368, "rental_uris": {"android": "https://dc.lft.to/lastmile_qr_scan", "ios": "https://dc.lft.to/lastmile_qr_scan"}, "is_disabled": 0, "fusion_lat": 0.0, "name": "bc50840268a5ec20abacfb67b026af4a", "fusion_lon": 0.0}, {"is_reserved": 0, "type": "electric_scooter", "bike_id": "d66010e1ca7967d036babb4a54713b56", "lat": 38.90951533333333, "lon": -77.04884616666666, "rental_uris": {"android": "https://dc.lft.to/lastmile_qr_scan", "ios": "https://dc.lft.to/lastmile_qr_scan"}, "is_disabled": 0, "fusion_lat": 0.0, "name": "d66010e1ca7967d036babb4a54713b56", "fusion_lon": 0.0}, {"is_reserved": 0, "type": "electric_scooter", "bike_id": "64d458d88a14bc97aadf94c2854f1120", "lat": 38.88732483333333, "lon": -77.02208416666667, "rental_uris": {"android": "https://dc.lft.to/lastmile_qr_scan", "ios": "https://dc.lft.to/lastmile_qr_scan"}, "is_disabled": 0, "fusion_lat": 0.0, "name": "64d458d88a14bc97aadf94c2854f1120", "fusion_lon": 0.0}, {"is_reserved": 0, "type": "electric_scooter", "bike_id": "6ac44c87b46828b8e36a09414a78f46c", "lat": 38.9134195, "lon": -77.03204266666667, "rental_uris": {"android": "https://dc.lft.to/lastmile_qr_scan", "ios": "https://dc.lft.to/lastmile_qr_scan"}, "is_disabled": 0, "fusion_lat": 0.0, "name": "6ac44c87b46828b8e36a09414a78f46c", "fusion_lon": 0.0}, {"is_reserved": 0, "type": "electric_scooter", "bike_id": "b326a7093d7fc7484dee36ae93560d80", "lat": 38.90010216666667, "lon": -77.04661833333333, "rental_uris": {"android": "https://dc.lft.to/lastmile_qr_scan", "ios": "https://dc.lft.to/lastmile_qr_scan"}, "is_disabled": 0, "fusion_lat": 0.0, "name": "b326a7093d7fc7484dee36ae93560d80", "fusion_lon": 0.0}, {"is_reserved": 0, "type": "electric_scooter", "bike_id": "344896a7ddad395fd91ada707b5f89be", "lat": 38.88382716666667, "lon": -76.99355366666667, "rental_uris": {"android": "https://dc.lft.to/lastmile_qr_scan", "ios": "https://dc.lft.to/lastmile_qr_scan"}, "is_disabled": 0, "fusion_lat": 0.0, "name": "344896a7ddad395fd91ada707b5f89be", "fusion_lon": 0.0}, {"is_reserved": 0, "type": "electric_scooter", "bike_id": "1fb6afd57ad607e9d8d994fe795ed780", "lat": 38.9241695, "lon": -77.03636466666667, "rental_uris": {"android": "https://dc.lft.to/lastmile_qr_scan", "ios": "https://dc.lft.to/lastmile_qr_scan"}, "is_disabled": 0, "fusion_lat": 0.0, "name": "1fb6afd57ad607e9d8d994fe795ed780", "fusion_lon": 0.0}, {"is_reserved": 0, "type": "electric_scooter", "bike_id": "5af8558594b164321c6e50c060ade2de", "lat": 38.88419966666667, "lon": -77.02533883333334, "rental_uris": {"android": "https://dc.lft.to/lastmile_qr_scan", "ios": "https://dc.lft.to/lastmile_qr_scan"}, "is_disabled": 0, "fusion_lat": 0.0, "name": "5af8558594b164321c6e50c060ade2de", "fusion_lon": 0.0}, {"is_reserved": 0, "type": "electric_scooter", "bike_id": "abd1f36118b4b3b27a9b7d080e32b854", "lat": 38.9212025, "lon": -77.03658583333333, "rental_uris": {"android": "https://dc.lft.to/lastmile_qr_scan", "ios": "https://dc.lft.to/lastmile_qr_scan"}, "is_disabled": 0, "fusion_lat": 0.0, "name": "abd1f36118b4b3b27a9b7d080e32b854", "fusion_lon": 0.0}, {"is_reserved": 0, "type": "electric_scooter", "bike_id": "483ade6929797131daf6ba81478ce60f", "lat": 38.9008915, "lon": -77.04990016666666, "rental_uris": {"android": "https://dc.lft.to/lastmile_qr_scan", "ios": "https://dc.lft.to/lastmile_qr_scan"}, "is_disabled": 0, "fusion_lat": 0.0, "name": "483ade6929797131daf6ba81478ce60f", "fusion_lon": 0.0}, {"is_reserved": 0, "type": "electric_scooter", "bike_id": "76ced2d6329beb97edf57fb1b8a4ecd0", "lat": 38.927490166666665, "lon": -77.05361366666666, "rental_uris": {"android": "https://dc.lft.to/lastmile_qr_scan", "ios": "https://dc.lft.to/lastmile_qr_scan"}, "is_disabled": 0, "fusion_lat": 0.0, "name": "76ced2d6329beb97edf57fb1b8a4ecd0", "fusion_lon": 0.0}, {"is_reserved": 0, "type": "electric_scooter", "bike_id": "abe22e388dbf84bb7a752f57588a7b1a", "lat": 38.90509733333333, "lon": -77.04150033333333, "rental_uris": {"android": "https://dc.lft.to/lastmile_qr_scan", "ios": "https://dc.lft.to/lastmile_qr_scan"}, "is_disabled": 0, "fusion_lat": 0.0, "name": "abe22e388dbf84bb7a752f57588a7b1a", "fusion_lon": 0.0}, {"is_reserved": 0, "type": "electric_scooter", "bike_id": "3865f3adc707f5666de03c16eea5c5e3", "lat": 38.89965983333333, "lon": -76.938497, "rental_uris": {"android": "https://dc.lft.to/lastmile_qr_scan", "ios": "https://dc.lft.to/lastmile_qr_scan"}, "is_disabled": 0, "fusion_lat": 0.0, "name": "3865f3adc707f5666de03c16eea5c5e3", "fusion_lon": 0.0}, {"is_reserved": 0, "type": "electric_scooter", "bike_id": "d811e5b95be5137e9bc491d4d762da78", "lat": 38.952171166666666, "lon": -77.0160145, "rental_uris": {"android": "https://dc.lft.to/lastmile_qr_scan", "ios": "https://dc.lft.to/lastmile_qr_scan"}, "is_disabled": 0, "fusion_lat": 0.0, "name": "d811e5b95be5137e9bc491d4d762da78", "fusion_lon": 0.0}, {"is_reserved": 0, "type": "electric_scooter", "bike_id": "75a6735b7245ca30ea0c497f5e60bcc6", "lat": 38.91370766666667, "lon": -77.065679, "rental_uris": {"android": "https://dc.lft.to/lastmile_qr_scan", "ios": "https://dc.lft.to/lastmile_qr_scan"}, "is_disabled": 0, "fusion_lat": 0.0, "name": "75a6735b7245ca30ea0c497f5e60bcc6", "fusion_lon": 0.0}, {"is_reserved": 0, "type": "electric_scooter", "bike_id": "a035f065dd3bf75533f51d2cdef321eb", "lat": 38.973690500000004, "lon": -77.01864316666666, "rental_uris": {"android": "https://dc.lft.to/lastmile_qr_scan", "ios": "https://dc.lft.to/lastmile_qr_scan"}, "is_disabled": 0, "fusion_lat": 0.0, "name": "a035f065dd3bf75533f51d2cdef321eb", "fusion_lon": 0.0}, {"is_reserved": 0, "type": "electric_scooter", "bike_id": "c19dd3b1cbc746961961cbb5596cb69b", "lat": 38.90497666666667, "lon": -77.019982, "rental_uris": {"android": "https://dc.lft.to/lastmile_qr_scan", "ios": "https://dc.lft.to/lastmile_qr_scan"}, "is_disabled": 0, "fusion_lat": 0.0, "name": "c19dd3b1cbc746961961cbb5596cb69b", "fusion_lon": 0.0}, {"is_reserved": 0, "type": "electric_scooter", "bike_id": "8689efd827c8b18bdcefb4f83ba4f603", "lat": 38.897531666666666, "lon": -77.01962666666667, "rental_uris": {"android": "https://dc.lft.to/lastmile_qr_scan", "ios": "https://dc.lft.to/lastmile_qr_scan"}, "is_disabled": 0, "fusion_lat": 0.0, "name": "8689efd827c8b18bdcefb4f83ba4f603", "fusion_lon": 0.0}, {"is_reserved": 0, "type": "electric_scooter", "bike_id": "d53633d7c20387e08e33690880d827e1", "lat": 38.901394, "lon": -77.02813816666666, "rental_uris": {"android": "https://dc.lft.to/lastmile_qr_scan", "ios": "https://dc.lft.to/lastmile_qr_scan"}, "is_disabled": 0, "fusion_lat": 0.0, "name": "d53633d7c20387e08e33690880d827e1", "fusion_lon": 0.0}, {"is_reserved": 0, "type": "electric_scooter", "bike_id": "eadf37c3fd59c179cec079e94e82ef65", "lat": 38.9278725, "lon": -77.0256375, "rental_uris": {"android": "https://dc.lft.to/lastmile_qr_scan", "ios": "https://dc.lft.to/lastmile_qr_scan"}, "is_disabled": 0, "fusion_lat": 0.0, "name": "eadf37c3fd59c179cec079e94e82ef65", "fusion_lon": 0.0}, {"is_reserved": 0, "type": "electric_bike", "bike_id": "f56a0823206e4afad60faff6bc6b0def", "lat": 39.042348, "lon": -76.99734766666667, "rental_uris": {"android": "https://dc.lft.to/lastmile_qr_scan", "ios": "https://dc.lft.to/lastmile_qr_scan"}, "is_disabled": 0, "fusion_lat": 0.0, "name": "f56a0823206e4afad60faff6bc6b0def", "fusion_lon": 0.0}, {"is_reserved": 0, "type": "electric_bike", "bike_id": "10712949d27ed2ea4d5a9d88182acef2", "lat": 38.97344983333333, "lon": -76.99581433333333, "rental_uris": {"android": "https://dc.lft.to/lastmile_qr_scan", "ios": "https://dc.lft.to/lastmile_qr_scan"}, "is_disabled": 0, "fusion_lat": 0.0, "name": "10712949d27ed2ea4d5a9d88182acef2", "fusion_lon": 0.0}, {"is_reserved": 0, "type": "electric_scooter", "bike_id": "665bf2714c474b50f999db5050bd03bf", "lat": 38.9110715, "lon": -77.05922083333333, "rental_uris": {"android": "https://dc.lft.to/lastmile_qr_scan", "ios": "https://dc.lft.to/lastmile_qr_scan"}, "is_disabled": 0, "fusion_lat": 0.0, "name": "665bf2714c474b50f999db5050bd03bf", "fusion_lon": 0.0}, {"is_reserved": 0, "type": "electric_bike", "bike_id": "e55f12ea268f0f9d32a40d12e28bac72", "lat": 38.84491033333333, "lon": -76.9815735, "rental_uris": {"android": "https://dc.lft.to/lastmile_qr_scan", "ios": "https://dc.lft.to/lastmile_qr_scan"}, "is_disabled": 0, "fusion_lat": 0.0, "name": "e55f12ea268f0f9d32a40d12e28bac72", "fusion_lon": 0.0}, {"is_reserved": 0, "type": "electric_scooter", "bike_id": "bdc48034b86b235cf6acf86c93b7a150", "lat": 38.9027095, "lon": -77.02005466666667, "rental_uris": {"android": "https://dc.lft.to/lastmile_qr_scan", "ios": "https://dc.lft.to/lastmile_qr_scan"}, "is_disabled": 0, "fusion_lat": 0.0, "name": "bdc48034b86b235cf6acf86c93b7a150", "fusion_lon": 0.0}, {"is_reserved": 0, "type": "electric_scooter", "bike_id": "657642538f64449a35c498c0c3ab3738", "lat": 38.90024066666667, "lon": -77.00211416666667, "rental_uris": {"android": "https://dc.lft.to/lastmile_qr_scan", "ios": "https://dc.lft.to/lastmile_qr_scan"}, "is_disabled": 0, "fusion_lat": 0.0, "name": "657642538f64449a35c498c0c3ab3738", "fusion_lon": 0.0}, {"is_reserved": 0, "type": "electric_scooter", "bike_id": "a4e07188d6f1ad40e7e824eeb2f182f7", "lat": 38.91201983333333, "lon": -77.01200716666666, "rental_uris": {"android": "https://dc.lft.to/lastmile_qr_scan", "ios": "https://dc.lft.to/lastmile_qr_scan"}, "is_disabled": 0, "fusion_lat": 0.0, "name": "a4e07188d6f1ad40e7e824eeb2f182f7", "fusion_lon": 0.0}, {"is_reserved": 0, "type": "electric_scooter", "bike_id": "a111688cb68fcfce205a9ba510ad2055", "lat": 38.914377, "lon": -77.02182483333333, "rental_uris": {"android": "https://dc.lft.to/lastmile_qr_scan", "ios": "https://dc.lft.to/lastmile_qr_scan"}, "is_disabled": 0, "fusion_lat": 0.0, "name": "a111688cb68fcfce205a9ba510ad2055", "fusion_lon": 0.0}, {"is_reserved": 0, "type": "electric_scooter", "bike_id": "14db4a2e159210b73cbc0cfb23f5a1b0", "lat": 38.911063, "lon": -77.0178405, "rental_uris": {"android": "https://dc.lft.to/lastmile_qr_scan", "ios": "https://dc.lft.to/lastmile_qr_scan"}, "is_disabled": 0, "fusion_lat": 0.0, "name": "14db4a2e159210b73cbc0cfb23f5a1b0", "fusion_lon": 0.0}, {"is_reserved": 0, "type": "electric_scooter", "bike_id": "b3028a351d83f61b339edff256bcee0b", "lat": 38.90593533333333, "lon": -77.01625116666666, "rental_uris": {"android": "https://dc.lft.to/lastmile_qr_scan", "ios": "https://dc.lft.to/lastmile_qr_scan"}, "is_disabled": 0, "fusion_lat": 0.0, "name": "b3028a351d83f61b339edff256bcee0b", "fusion_lon": 0.0}, {"is_reserved": 0, "type": "electric_scooter", "bike_id": "774b9f5143597eac52147ae8224f49f0", "lat": 38.89226166666667, "lon": -77.04357066666667, "rental_uris": {"android": "https://dc.lft.to/lastmile_qr_scan", "ios": "https://dc.lft.to/lastmile_qr_scan"}, "is_disabled": 0, "fusion_lat": 0.0, "name": "774b9f5143597eac52147ae8224f49f0", "fusion_lon": 0.0}, {"is_reserved": 0, "type": "electric_scooter", "bike_id": "f1f0b3cb91a5f0df588d213cd64033b5", "lat": 38.916632166666666, "lon": -77.02697983333333, "rental_uris": {"android": "https://dc.lft.to/lastmile_qr_scan", "ios": "https://dc.lft.to/lastmile_qr_scan"}, "is_disabled": 0, "fusion_lat": 0.0, "name": "f1f0b3cb91a5f0df588d213cd64033b5", "fusion_lon": 0.0}, {"is_reserved": 0, "type": "electric_scooter", "bike_id": "9e63ad8cda25bd15e4b2ef8b0eec4fea", "lat": 38.903995, "lon": -77.06770183333333, "rental_uris": {"android": "https://dc.lft.to/lastmile_qr_scan", "ios": "https://dc.lft.to/lastmile_qr_scan"}, "is_disabled": 0, "fusion_lat": 0.0, "name": "9e63ad8cda25bd15e4b2ef8b0eec4fea", "fusion_lon": 0.0}, {"is_reserved": 0, "type": "electric_scooter", "bike_id": "c2e0542231c7e3cd9364fc287e64e7c5", "lat": 38.92923483333333, "lon": -76.99819283333333, "rental_uris": {"android": "https://dc.lft.to/lastmile_qr_scan", "ios": "https://dc.lft.to/lastmile_qr_scan"}, "is_disabled": 0, "fusion_lat": 0.0, "name": "c2e0542231c7e3cd9364fc287e64e7c5", "fusion_lon": 0.0}, {"is_reserved": 0, "type": "electric_scooter", "bike_id": "81d19d938767f3be003bbfc9f6d7ac4d", "lat": 38.911745, "lon": -77.01978416666667, "rental_uris": {"android": "https://dc.lft.to/lastmile_qr_scan", "ios": "https://dc.lft.to/lastmile_qr_scan"}, "is_disabled": 0, "fusion_lat": 0.0, "name": "81d19d938767f3be003bbfc9f6d7ac4d", "fusion_lon": 0.0}, {"is_reserved": 0, "type": "electric_bike", "bike_id": "b0cb50918a28a4908f684275dfd440d0", "lat": 38.90691316666667, "lon": -76.95251766666667, "rental_uris": {"android": "https://dc.lft.to/lastmile_qr_scan", "ios": "https://dc.lft.to/lastmile_qr_scan"}, "is_disabled": 0, "fusion_lat": 0.0, "name": "b0cb50918a28a4908f684275dfd440d0", "fusion_lon": 0.0}, {"is_reserved": 0, "type": "electric_scooter", "bike_id": "d60a67be9aa356f9de0552d811f9d3d7", "lat": 38.924155666666664, "lon": -77.01943966666667, "rental_uris": {"android": "https://dc.lft.to/lastmile_qr_scan", "ios": "https://dc.lft.to/lastmile_qr_scan"}, "is_disabled": 0, "fusion_lat": 0.0, "name": "d60a67be9aa356f9de0552d811f9d3d7", "fusion_lon": 0.0}, {"is_reserved": 0, "type": "electric_scooter", "bike_id": "5670f7395232f4f77471b1bc1c103bac", "lat": 38.93855833333333, "lon": -77.075788, "rental_uris": {"android": "https://dc.lft.to/lastmile_qr_scan", "ios": "https://dc.lft.to/lastmile_qr_scan"}, "is_disabled": 0, "fusion_lat": 0.0, "name": "5670f7395232f4f77471b1bc1c103bac", "fusion_lon": 0.0}, {"is_reserved": 0, "type": "electric_scooter", "bike_id": "919336818b3265527473d70fe8bb3bae", "lat": 38.9403875, "lon": -77.02492916666667, "rental_uris": {"android": "https://dc.lft.to/lastmile_qr_scan", "ios": "https://dc.lft.to/lastmile_qr_scan"}, "is_disabled": 0, "fusion_lat": 0.0, "name": "919336818b3265527473d70fe8bb3bae", "fusion_lon": 0.0}, {"is_reserved": 0, "type": "electric_scooter", "bike_id": "caa6491b27df94b3581e45e39c316b42", "lat": 38.8834205, "lon": -77.01989183333333, "rental_uris": {"android": "https://dc.lft.to/lastmile_qr_scan", "ios": "https://dc.lft.to/lastmile_qr_scan"}, "is_disabled": 0, "fusion_lat": 0.0, "name": "caa6491b27df94b3581e45e39c316b42", "fusion_lon": 0.0}, {"is_reserved": 0, "type": "electric_scooter", "bike_id": "07ca851e3b75fcbabe0e45a084e779d4", "lat": 38.9170175, "lon": -77.02673616666667, "rental_uris": {"android": "https://dc.lft.to/lastmile_qr_scan", "ios": "https://dc.lft.to/lastmile_qr_scan"}, "is_disabled": 0, "fusion_lat": 0.0, "name": "07ca851e3b75fcbabe0e45a084e779d4", "fusion_lon": 0.0}, {"is_reserved": 0, "type": "electric_scooter", "bike_id": "b2d0ece5ffe7a6feea1feb10cd598cbb", "lat": 38.93550283333333, "lon": -77.07275233333333, "rental_uris": {"android": "https://dc.lft.to/lastmile_qr_scan", "ios": "https://dc.lft.to/lastmile_qr_scan"}, "is_disabled": 0, "fusion_lat": 0.0, "name": "b2d0ece5ffe7a6feea1feb10cd598cbb", "fusion_lon": 0.0}, {"is_reserved": 0, "type": "electric_scooter", "bike_id": "b9511a938a7a2c19dd6b29e4e9c0507f", "lat": 38.90493416666666, "lon": -77.02967966666667, "rental_uris": {"android": "https://dc.lft.to/lastmile_qr_scan", "ios": "https://dc.lft.to/lastmile_qr_scan"}, "is_disabled": 0, "fusion_lat": 0.0, "name": "b9511a938a7a2c19dd6b29e4e9c0507f", "fusion_lon": 0.0}, {"is_reserved": 0, "type": "electric_scooter", "bike_id": "3be7a3ce33e8f57a2d584b4d48531076", "lat": 38.902734833333334, "lon": -77.0397625, "rental_uris": {"android": "https://dc.lft.to/lastmile_qr_scan", "ios": "https://dc.lft.to/lastmile_qr_scan"}, "is_disabled": 0, "fusion_lat": 0.0, "name": "3be7a3ce33e8f57a2d584b4d48531076", "fusion_lon": 0.0}, {"is_reserved": 0, "type": "electric_scooter", "bike_id": "2008c84c98c121f1972aaec00a6107fe", "lat": 38.89546883333333, "lon": -76.9833825, "rental_uris": {"android": "https://dc.lft.to/lastmile_qr_scan", "ios": "https://dc.lft.to/lastmile_qr_scan"}, "is_disabled": 0, "fusion_lat": 0.0, "name": "2008c84c98c121f1972aaec00a6107fe", "fusion_lon": 0.0}, {"is_reserved": 0, "type": "electric_scooter", "bike_id": "f0db9b39766f55e07b3cedfa96c117b4", "lat": 38.89883583333334, "lon": -76.98834833333333, "rental_uris": {"android": "https://dc.lft.to/lastmile_qr_scan", "ios": "https://dc.lft.to/lastmile_qr_scan"}, "is_disabled": 0, "fusion_lat": 0.0, "name": "f0db9b39766f55e07b3cedfa96c117b4", "fusion_lon": 0.0}, {"is_reserved": 0, "type": "electric_scooter", "bike_id": "7ef858db8021978a81e667f63ebe5a81", "lat": 38.915026166666664, "lon": -77.01225566666666, "rental_uris": {"android": "https://dc.lft.to/lastmile_qr_scan", "ios": "https://dc.lft.to/lastmile_qr_scan"}, "is_disabled": 0, "fusion_lat": 0.0, "name": "7ef858db8021978a81e667f63ebe5a81", "fusion_lon": 0.0}, {"is_reserved": 0, "type": "electric_scooter", "bike_id": "6834eace285baf217171ef56690247b3", "lat": 38.91623933333333, "lon": -77.02803783333333, "rental_uris": {"android": "https://dc.lft.to/lastmile_qr_scan", "ios": "https://dc.lft.to/lastmile_qr_scan"}, "is_disabled": 0, "fusion_lat": 0.0, "name": "6834eace285baf217171ef56690247b3", "fusion_lon": 0.0}, {"is_reserved": 0, "type": "electric_scooter", "bike_id": "76566cd0ace070932482cb5a1a481898", "lat": 38.919263666666666, "lon": -77.0727265, "rental_uris": {"android": "https://dc.lft.to/lastmile_qr_scan", "ios": "https://dc.lft.to/lastmile_qr_scan"}, "is_disabled": 0, "fusion_lat": 0.0, "name": "76566cd0ace070932482cb5a1a481898", "fusion_lon": 0.0}, {"is_reserved": 0, "type": "electric_scooter", "bike_id": "712f771a2d3bf78cbb78ac99288f7635", "lat": 38.90360866666666, "lon": -77.02199916666666, "rental_uris": {"android": "https://dc.lft.to/lastmile_qr_scan", "ios": "https://dc.lft.to/lastmile_qr_scan"}, "is_disabled": 0, "fusion_lat": 0.0, "name": "712f771a2d3bf78cbb78ac99288f7635", "fusion_lon": 0.0}, {"is_reserved": 0, "type": "electric_scooter", "bike_id": "fa2700bf4e2cc08d10566a95a2fd6bca", "lat": 38.89298516666667, "lon": -77.01231133333333, "rental_uris": {"android": "https://dc.lft.to/lastmile_qr_scan", "ios": "https://dc.lft.to/lastmile_qr_scan"}, "is_disabled": 0, "fusion_lat": 0.0, "name": "fa2700bf4e2cc08d10566a95a2fd6bca", "fusion_lon": 0.0}, {"is_reserved": 0, "type": "electric_scooter", "bike_id": "bb200bc3d608b6d3abb00e1417cdd104", "lat": 38.892192333333334, "lon": -77.04502183333334, "rental_uris": {"android": "https://dc.lft.to/lastmile_qr_scan", "ios": "https://dc.lft.to/lastmile_qr_scan"}, "is_disabled": 0, "fusion_lat": 0.0, "name": "bb200bc3d608b6d3abb00e1417cdd104", "fusion_lon": 0.0}, {"is_reserved": 0, "type": "electric_scooter", "bike_id": "2d9a258a9836d78be04147ce32b410b4", "lat": 38.93590116666667, "lon": -77.033699, "rental_uris": {"android": "https://dc.lft.to/lastmile_qr_scan", "ios": "https://dc.lft.to/lastmile_qr_scan"}, "is_disabled": 0, "fusion_lat": 0.0, "name": "2d9a258a9836d78be04147ce32b410b4", "fusion_lon": 0.0}, {"is_reserved": 0, "type": "electric_scooter", "bike_id": "fdbb41a9b4a01bde6a0858319123d258", "lat": 38.92297333333333, "lon": -76.99772766666666, "rental_uris": {"android": "https://dc.lft.to/lastmile_qr_scan", "ios": "https://dc.lft.to/lastmile_qr_scan"}, "is_disabled": 0, "fusion_lat": 0.0, "name": "fdbb41a9b4a01bde6a0858319123d258", "fusion_lon": 0.0}, {"is_reserved": 0, "type": "electric_scooter", "bike_id": "ffe1af5a604966f85f2aa018b31806b3", "lat": 38.89914, "lon": -76.98007166666666, "rental_uris": {"android": "https://dc.lft.to/lastmile_qr_scan", "ios": "https://dc.lft.to/lastmile_qr_scan"}, "is_disabled": 0, "fusion_lat": 0.0, "name": "ffe1af5a604966f85f2aa018b31806b3", "fusion_lon": 0.0}, {"is_reserved": 0, "type": "electric_scooter", "bike_id": "2171f71b82e34bcca3422fcbf8b77bd2", "lat": 38.91482716666667, "lon": -77.03174933333334, "rental_uris": {"android": "https://dc.lft.to/lastmile_qr_scan", "ios": "https://dc.lft.to/lastmile_qr_scan"}, "is_disabled": 0, "fusion_lat": 0.0, "name": "2171f71b82e34bcca3422fcbf8b77bd2", "fusion_lon": 0.0}, {"is_reserved": 0, "type": "electric_scooter", "bike_id": "72481564a17f412630d1a2d886dab9c0", "lat": 38.92146266666666, "lon": -77.02087516666667, "rental_uris": {"android": "https://dc.lft.to/lastmile_qr_scan", "ios": "https://dc.lft.to/lastmile_qr_scan"}, "is_disabled": 0, "fusion_lat": 0.0, "name": "72481564a17f412630d1a2d886dab9c0", "fusion_lon": 0.0}, {"is_reserved": 0, "type": "electric_scooter", "bike_id": "993de39182d42e2b4d674e1b57f6540d", "lat": 38.92817983333333, "lon": -77.06215633333333, "rental_uris": {"android": "https://dc.lft.to/lastmile_qr_scan", "ios": "https://dc.lft.to/lastmile_qr_scan"}, "is_disabled": 0, "fusion_lat": 0.0, "name": "993de39182d42e2b4d674e1b57f6540d", "fusion_lon": 0.0}, {"is_reserved": 0, "type": "electric_bike", "bike_id": "e31130a42f630c8942ce5e2f3c943713", "lat": 38.973108, "lon": -76.99488683333334, "rental_uris": {"android": "https://dc.lft.to/lastmile_qr_scan", "ios": "https://dc.lft.to/lastmile_qr_scan"}, "is_disabled": 0, "fusion_lat": 0.0, "name": "e31130a42f630c8942ce5e2f3c943713", "fusion_lon": 0.0}, {"is_reserved": 0, "type": "electric_scooter", "bike_id": "140a59ffa5c954b214a87e7a1e6c22b3", "lat": 38.9141935, "lon": -77.028242, "rental_uris": {"android": "https://dc.lft.to/lastmile_qr_scan", "ios": "https://dc.lft.to/lastmile_qr_scan"}, "is_disabled": 0, "fusion_lat": 0.0, "name": "140a59ffa5c954b214a87e7a1e6c22b3", "fusion_lon": 0.0}, {"is_reserved": 0, "type": "electric_scooter", "bike_id": "0215011615a7bd8b4900b48f94f46cba", "lat": 38.8874015, "lon": -77.02220816666667, "rental_uris": {"android": "https://dc.lft.to/lastmile_qr_scan", "ios": "https://dc.lft.to/lastmile_qr_scan"}, "is_disabled": 0, "fusion_lat": 0.0, "name": "0215011615a7bd8b4900b48f94f46cba", "fusion_lon": 0.0}, {"is_reserved": 0, "type": "electric_bike", "bike_id": "a60273e2d9e2cb2bcc6bd9f039dd3d2b", "lat": 38.85782616666667, "lon": -76.9874795, "rental_uris": {"android": "https://dc.lft.to/lastmile_qr_scan", "ios": "https://dc.lft.to/lastmile_qr_scan"}, "is_disabled": 0, "fusion_lat": 0.0, "name": "a60273e2d9e2cb2bcc6bd9f039dd3d2b", "fusion_lon": 0.0}, {"is_reserved": 0, "type": "electric_scooter", "bike_id": "d43b44d40b9f01da6eea50f7bf022f5e", "lat": 38.915653666666664, "lon": -76.983807, "rental_uris": {"android": "https://dc.lft.to/lastmile_qr_scan", "ios": "https://dc.lft.to/lastmile_qr_scan"}, "is_disabled": 0, "fusion_lat": 0.0, "name": "d43b44d40b9f01da6eea50f7bf022f5e", "fusion_lon": 0.0}, {"is_reserved": 0, "type": "electric_scooter", "bike_id": "dbfbfa8d7a108942020de8735870c13c", "lat": 38.89731366666667, "lon": -76.99512316666667, "rental_uris": {"android": "https://dc.lft.to/lastmile_qr_scan", "ios": "https://dc.lft.to/lastmile_qr_scan"}, "is_disabled": 0, "fusion_lat": 0.0, "name": "dbfbfa8d7a108942020de8735870c13c", "fusion_lon": 0.0}, {"is_reserved": 0, "type": "electric_scooter", "bike_id": "14d331b1b9241ec263721195525b5322", "lat": 38.920805666666666, "lon": -77.023876, "rental_uris": {"android": "https://dc.lft.to/lastmile_qr_scan", "ios": "https://dc.lft.to/lastmile_qr_scan"}, "is_disabled": 0, "fusion_lat": 0.0, "name": "14d331b1b9241ec263721195525b5322", "fusion_lon": 0.0}, {"is_reserved": 0, "type": "electric_scooter", "bike_id": "8d1e2ee2cdfce39e273ee7f7ba4bafaf", "lat": 38.921276166666665, "lon": -77.04571933333334, "rental_uris": {"android": "https://dc.lft.to/lastmile_qr_scan", "ios": "https://dc.lft.to/lastmile_qr_scan"}, "is_disabled": 0, "fusion_lat": 0.0, "name": "8d1e2ee2cdfce39e273ee7f7ba4bafaf", "fusion_lon": 0.0}, {"is_reserved": 0, "type": "electric_scooter", "bike_id": "ed40197cd02088c837f611d2ed2037c5", "lat": 38.914759333333336, "lon": -77.00212966666666, "rental_uris": {"android": "https://dc.lft.to/lastmile_qr_scan", "ios": "https://dc.lft.to/lastmile_qr_scan"}, "is_disabled": 0, "fusion_lat": 0.0, "name": "ed40197cd02088c837f611d2ed2037c5", "fusion_lon": 0.0}, {"is_reserved": 0, "type": "electric_scooter", "bike_id": "7527d656780d1bf317fb5abc9df90207", "lat": 38.94455516666667, "lon": -77.027999, "rental_uris": {"android": "https://dc.lft.to/lastmile_qr_scan", "ios": "https://dc.lft.to/lastmile_qr_scan"}, "is_disabled": 0, "fusion_lat": 0.0, "name": "7527d656780d1bf317fb5abc9df90207", "fusion_lon": 0.0}, {"is_reserved": 0, "type": "electric_scooter", "bike_id": "7aebd44b11e92085a92c3697038cbe02", "lat": 38.925126666666664, "lon": -77.02284, "rental_uris": {"android": "https://dc.lft.to/lastmile_qr_scan", "ios": "https://dc.lft.to/lastmile_qr_scan"}, "is_disabled": 0, "fusion_lat": 0.0, "name": "7aebd44b11e92085a92c3697038cbe02", "fusion_lon": 0.0}, {"is_reserved": 0, "type": "electric_scooter", "bike_id": "aff3f1a52aad2898fd0d1a80b3243941", "lat": 38.89224683333333, "lon": -77.04359183333334, "rental_uris": {"android": "https://dc.lft.to/lastmile_qr_scan", "ios": "https://dc.lft.to/lastmile_qr_scan"}, "is_disabled": 0, "fusion_lat": 0.0, "name": "aff3f1a52aad2898fd0d1a80b3243941", "fusion_lon": 0.0}, {"is_reserved": 0, "type": "electric_scooter", "bike_id": "18169d42de3d5a06389b700245a5423c", "lat": 38.92898133333333, "lon": -77.024949, "rental_uris": {"android": "https://dc.lft.to/lastmile_qr_scan", "ios": "https://dc.lft.to/lastmile_qr_scan"}, "is_disabled": 0, "fusion_lat": 0.0, "name": "18169d42de3d5a06389b700245a5423c", "fusion_lon": 0.0}, {"is_reserved": 0, "type": "electric_bike", "bike_id": "5aa7c28bba20165e9e108e208484d9d6", "lat": 38.8303035, "lon": -77.08377516666667, "rental_uris": {"android": "https://dc.lft.to/lastmile_qr_scan", "ios": "https://dc.lft.to/lastmile_qr_scan"}, "is_disabled": 0, "fusion_lat": 0.0, "name": "5aa7c28bba20165e9e108e208484d9d6", "fusion_lon": 0.0}, {"is_reserved": 0, "type": "electric_scooter", "bike_id": "d6659b8b331d40f19960f3b0af43a0cf", "lat": 38.9186485, "lon": -77.0134995, "rental_uris": {"android": "https://dc.lft.to/lastmile_qr_scan", "ios": "https://dc.lft.to/lastmile_qr_scan"}, "is_disabled": 0, "fusion_lat": 0.0, "name": "d6659b8b331d40f19960f3b0af43a0cf", "fusion_lon": 0.0}, {"is_reserved": 0, "type": "electric_scooter", "bike_id": "fa8623f959dbbecf302ef20787b78bce", "lat": 38.966509, "lon": -77.00895016666666, "rental_uris": {"android": "https://dc.lft.to/lastmile_qr_scan", "ios": "https://dc.lft.to/lastmile_qr_scan"}, "is_disabled": 0, "fusion_lat": 0.0, "name": "fa8623f959dbbecf302ef20787b78bce", "fusion_lon": 0.0}, {"is_reserved": 0, "type": "electric_scooter", "bike_id": "b4891938228d12897241fcc005138c33", "lat": 38.938707666666666, "lon": -77.02559666666667, "rental_uris": {"android": "https://dc.lft.to/lastmile_qr_scan", "ios": "https://dc.lft.to/lastmile_qr_scan"}, "is_disabled": 0, "fusion_lat": 0.0, "name": "b4891938228d12897241fcc005138c33", "fusion_lon": 0.0}, {"is_reserved": 0, "type": "electric_scooter", "bike_id": "18fd4fd7b05b1898ca9a0b9199263e8c", "lat": 38.926113666666666, "lon": -77.02158183333333, "rental_uris": {"android": "https://dc.lft.to/lastmile_qr_scan", "ios": "https://dc.lft.to/lastmile_qr_scan"}, "is_disabled": 0, "fusion_lat": 0.0, "name": "18fd4fd7b05b1898ca9a0b9199263e8c", "fusion_lon": 0.0}, {"is_reserved": 0, "type": "electric_scooter", "bike_id": "5087f10da267fefc627248b240d9328d", "lat": 38.90015, "lon": -77.044833, "rental_uris": {"android": "https://dc.lft.to/lastmile_qr_scan", "ios": "https://dc.lft.to/lastmile_qr_scan"}, "is_disabled": 0, "fusion_lat": 0.0, "name": "5087f10da267fefc627248b240d9328d", "fusion_lon": 0.0},