{"data": {"bikes": [{"rental_uris": {"ios": "https://dc.lft.to/lastmile_qr_scan", "android": "https://dc.lft.to/lastmile_qr_scan"}, "type": "electric_scooter", "name": "4b33be62d79032a5248e7bc026437561", "is_reserved": 0, "lon": -77.0238565, "is_disabled": 0, "fusion_lat": 0.0, "lat": 38.935184666666665, "bike_id": "4b33be62d79032a5248e7bc026437561", "fusion_lon": 0.0}, {"rental_uris": {"ios": "https://dc.lft.to/lastmile_qr_scan", "android": "https://dc.lft.to/lastmile_qr_scan"}, "type": "electric_scooter", "name": "ab6b8b673467e4ab71c74c6ffa338f2a", "is_reserved": 0, "lon": -76.97569316666667, "is_disabled": 0, "fusion_lat": 0.0, "lat": 38.9442295, "bike_id": "ab6b8b673467e4ab71c74c6ffa338f2a", "fusion_lon": 0.0}, {"rental_uris": {"ios": "https://dc.lft.to/lastmile_qr_scan", "android": "https://dc.lft.to/lastmile_qr_scan"}, "type": "electric_scooter", "name": "cfa7844689f7038f9d862c683a02330b", "is_reserved": 0, "lon": -77.05506133333333, "is_disabled": 0, "fusion_lat": 0.0, "lat": 38.928336333333334, "bike_id": "cfa7844689f7038f9d862c683a02330b", "fusion_lon": 0.0}, {"rental_uris": {"ios": "https://dc.lft.to/lastmile_qr_scan", "android": "https://dc.lft.to/lastmile_qr_scan"}, "type": "electric_bike", "name": "9a68573028d03aaa392f9740d199baa5", "is_reserved": 0, "lon": -76.99242716666667, "is_disabled": 0, "fusion_lat": 0.0, "lat": 38.96076716666666, "bike_id": "9a68573028d03aaa392f9740d199baa5", "fusion_lon": 0.0}, {"rental_uris": {"ios": "https://dc.lft.to/lastmile_qr_scan", "android": "https://dc.lft.to/lastmile_qr_scan"}, "type": "electric_bike", "name": "77bc464b36b1321238909b231fe6dd98", "is_reserved": 0, "lon": -77.00134816666667, "is_disabled": 0, "fusion_lat": 0.0, "lat": 38.99500283333333, "bike_id": "77bc464b36b1321238909b231fe6dd98", "fusion_lon": 0.0}, {"rental_uris": {"ios": "https://dc.lft.to/lastmile_qr_scan", "android": "https://dc.lft.to/lastmile_qr_scan"}, "type": "electric_scooter", "name": "35c5a9cc0adaa7f4a16775f28d296912", "is_reserved": 0, "lon": -76.99792083333334, "is_disabled": 0, "fusion_lat": 0.0, "lat": 38.8763035, "bike_id": "35c5a9cc0adaa7f4a16775f28d296912", "fusion_lon": 0.0}, {"rental_uris": {"ios": "https://dc.lft.to/lastmile_qr_scan", "android": "https://dc.lft.to/lastmile_qr_scan"}, "type": "electric_bike", "name": "0a2b406fa000bea50edb47db24323eb8", "is_reserved": 0, "lon": -76.95792083333333, "is_disabled": 0, "fusion_lat": 0.0, "lat": 38.98044433333333, "bike_id": "0a2b406fa000bea50edb47db24323eb8", "fusion_lon": 0.0}, {"rental_uris": {"ios": "https://dc.lft.to/lastmile_qr_scan", "android": "https://dc.lft.to/lastmile_qr_scan"}, "type": "electric_scooter", "name": "fced468a2d15a823505042314bfe5615", "is_reserved": 0, "lon": -77.060865, "is_disabled": 0, "fusion_lat": 0.0, "lat": 38.939933333333336, "bike_id": "fced468a2d15a823505042314bfe5615", "fusion_lon": 0.0}, {"rental_uris": {"ios": "https://dc.lft.to/lastmile_qr_scan", "android": "https://dc.lft.to/lastmile_qr_scan"}, "type": "electric_scooter", "name": "7ffe2174bba582f7c9d4ebc39c0d3acd", "is_reserved": 0, "lon": -77.041827, "is_disabled": 0, "fusion_lat": 0.0, "lat": 38.91753716666667, "bike_id": "7ffe2174bba582f7c9d4ebc39c0d3acd", "fusion_lon": 0.0}, {"rental_uris": {"ios": "https://dc.lft.to/lastmile_qr_scan", "android": "https://dc.lft.to/lastmile_qr_scan"}, "type": "electric_scooter", "name": "ff29204b5b2a04904ba5299c64d18edb", "is_reserved": 0, "lon": -77.07336966666666, "is_disabled": 0, "fusion_lat": 0.0, "lat": 38.96096266666667, "bike_id": "ff29204b5b2a04904ba5299c64d18edb", "fusion_lon": 0.0}, {"rental_uris": {"ios": "https://dc.lft.to/lastmile_qr_scan", "android": "https://dc.lft.to/lastmile_qr_scan"}, "type": "electric_scooter", "name": "d4788290a9c5853faf8c329e3638793c", "is_reserved": 0, "lon": -77.06286066666667, "is_disabled": 0, "fusion_lat": 0.0, "lat": 38.912440833333335, "bike_id": "d4788290a9c5853faf8c329e3638793c", "fusion_lon": 0.0}, {"rental_uris": {"ios": "https://dc.lft.to/lastmile_qr_scan", "android": "https://dc.lft.to/lastmile_qr_scan"}, "type": "electric_bike", "name": "642fb604ed3e67fdaddeb07430ff4618", "is_reserved": 0, "lon": -77.05156483333333, "is_disabled": 0, "fusion_lat": 0.0, "lat": 38.844622333333334, "bike_id": "642fb604ed3e67fdaddeb07430ff4618", "fusion_lon": 0.0}, {"rental_uris": {"ios": "https://dc.lft.to/lastmile_qr_scan", "android": "https://dc.lft.to/lastmile_qr_scan"}, "type": "electric_scooter", "name": "5a34d6bc7feae91051bc09243855f196", "is_reserved": 0, "lon": -76.985376, "is_disabled": 0, "fusion_lat": 0.0, "lat": 38.91292266666667, "bike_id": "5a34d6bc7feae91051bc09243855f196", "fusion_lon": 0.0}, {"rental_uris": {"ios": "https://dc.lft.to/lastmile_qr_scan", "android": "https://dc.lft.to/lastmile_qr_scan"}, "type": "electric_scooter", "name": "b082c39f82983014e13a69c17c5a7a7d", "is_reserved": 0, "lon": -77.026982, "is_disabled": 0, "fusion_lat": 0.0, "lat": 38.919155333333336, "bike_id": "b082c39f82983014e13a69c17c5a7a7d", "fusion_lon": 0.0}, {"rental_uris": {"ios": "https://dc.lft.to/lastmile_qr_scan", "android": "https://dc.lft.to/lastmile_qr_scan"}, "type": "electric_scooter", "name": "58240fd8720cab739072206109b5c9ae", "is_reserved": 0, "lon": -77.0343785, "is_disabled": 0, "fusion_lat": 0.0, "lat": 38.91798266666667, "bike_id": "58240fd8720cab739072206109b5c9ae", "fusion_lon": 0.0}, {"rental_uris": {"ios": "https://dc.lft.to/lastmile_qr_scan", "android": "https://dc.lft.to/lastmile_qr_scan"}, "type": "electric_scooter", "name": "fdb296ac191e2ec55dbf29bfb6ae295f", "is_reserved": 0, "lon": -76.98160183333333, "is_disabled": 0, "fusion_lat": 0.0, "lat": 38.86178683333333, "bike_id": "fdb296ac191e2ec55dbf29bfb6ae295f", "fusion_lon": 0.0}, {"rental_uris": {"ios": "https://dc.lft.to/lastmile_qr_scan", "android": "https://dc.lft.to/lastmile_qr_scan"}, "type": "electric_scooter", "name": "da0ca59ecfbdc21f8e84306cc8e34add", "is_reserved": 0, "lon": -77.0336625, "is_disabled": 0, "fusion_lat": 0.0, "lat": 38.91111, "bike_id": "da0ca59ecfbdc21f8e84306cc8e34add", "fusion_lon": 0.0}, {"rental_uris": {"ios": "https://dc.lft.to/lastmile_qr_scan", "android": "https://dc.lft.to/lastmile_qr_scan"}, "type": "electric_scooter", "name": "0f19bfccd6a5bfcef6f0935918b60d27", "is_reserved": 0, "lon": -77.02931766666667, "is_disabled": 0, "fusion_lat": 0.0, "lat": 38.904083666666665, "bike_id": "0f19bfccd6a5bfcef6f0935918b60d27", "fusion_lon": 0.0}, {"rental_uris": {"ios": "https://dc.lft.to/lastmile_qr_scan", "android": "https://dc.lft.to/lastmile_qr_scan"}, "type": "electric_scooter", "name": "bfebf999c43e80fc5a0bc2017b743e90", "is_reserved": 0, "lon": -77.04517733333333, "is_disabled": 0, "fusion_lat": 0.0, "lat": 38.923270333333335, "bike_id": "bfebf999c43e80fc5a0bc2017b743e90", "fusion_lon": 0.0}, {"rental_uris": {"ios": "https://dc.lft.to/lastmile_qr_scan", "android": "https://dc.lft.to/lastmile_qr_scan"}, "type": "electric_scooter", "name": "34272c660229859ec33df286a884132d", "is_reserved": 0, "lon": -77.0243775, "is_disabled": 0, "fusion_lat": 0.0, "lat": 38.918066, "bike_id": "34272c660229859ec33df286a884132d", "fusion_lon": 0.0}, {"rental_uris": {"ios": "https://dc.lft.to/lastmile_qr_scan", "android": "https://dc.lft.to/lastmile_qr_scan"}, "type": "electric_scooter", "name": "c3816d95ea7706122b75d2cf8dd5d3fb", "is_reserved": 0, "lon": -77.01548733333334, "is_disabled": 0, "fusion_lat": 0.0, "lat": 38.94328516666667, "bike_id": "c3816d95ea7706122b75d2cf8dd5d3fb", "fusion_lon": 0.0}, {"rental_uris": {"ios": "https://dc.lft.to/lastmile_qr_scan", "android": "https://dc.lft.to/lastmile_qr_scan"}, "type": "electric_scooter", "name": "d43e0996ce23984c564488b3050a311d", "is_reserved": 0, "lon": -77.03066683333333, "is_disabled": 0, "fusion_lat": 0.0, "lat": 38.897257, "bike_id": "d43e0996ce23984c564488b3050a311d", "fusion_lon": 0.0}, {"rental_uris": {"ios": "https://dc.lft.to/lastmile_qr_scan", "android": "https://dc.lft.to/lastmile_qr_scan"}, "type": "electric_scooter", "name": "bda94a87a20e281158204e8631a3556a", "is_reserved": 0, "lon": -77.02112583333333, "is_disabled": 0, "fusion_lat": 0.0, "lat": 38.92689683333333, "bike_id": "bda94a87a20e281158204e8631a3556a", "fusion_lon": 0.0}, {"rental_uris": {"ios": "https://dc.lft.to/lastmile_qr_scan", "android": "https://dc.lft.to/lastmile_qr_scan"}, "type": "electric_scooter", "name": "e2ef53569a4955fa34c79be629543d3a", "is_reserved": 0, "lon": -77.03637, "is_disabled": 0, "fusion_lat": 0.0, "lat": 38.9165165, "bike_id": "e2ef53569a4955fa34c79be629543d3a", "fusion_lon": 0.0}, {"rental_uris": {"ios": "https://dc.lft.to/lastmile_qr_scan", "android": "https://dc.lft.to/lastmile_qr_scan"}, "type": "electric_scooter", "name": "ef26752eb12ecfa5d01fcb9e2c132d94", "is_reserved": 0, "lon": -76.99250233333333, "is_disabled": 0, "fusion_lat": 0.0, "lat": 38.94065833333333, "bike_id": "ef26752eb12ecfa5d01fcb9e2c132d94", "fusion_lon": 0.0}, {"rental_uris": {"ios": "https://dc.lft.to/lastmile_qr_scan", "android": "https://dc.lft.to/lastmile_qr_scan"}, "type": "electric_scooter", "name": "330d2768781f47ae966712a73ec708c5", "is_reserved": 0, "lon": -77.00093066666666, "is_disabled": 0, "fusion_lat": 0.0, "lat": 38.919518833333335, "bike_id": "330d2768781f47ae966712a73ec708c5", "fusion_lon": 0.0}, {"rental_uris": {"ios": "https://dc.lft.to/lastmile_qr_scan", "android": "https://dc.lft.to/lastmile_qr_scan"}, "type": "electric_scooter", "name": "5543a9dad5ca0182da11a7d24f11c236", "is_reserved": 0, "lon": -77.02536483333333, "is_disabled": 0, "fusion_lat": 0.0, "lat": 38.915941, "bike_id": "5543a9dad5ca0182da11a7d24f11c236", "fusion_lon": 0.0}, {"rental_uris": {"ios": "https://dc.lft.to/lastmile_qr_scan", "android": "https://dc.lft.to/lastmile_qr_scan"}, "type": "electric_scooter", "name": "c406494e6ed56725ffb2da61512d0837", "is_reserved": 0, "lon": -77.02826983333334, "is_disabled": 0, "fusion_lat": 0.0, "lat": 38.9313415, "bike_id": "c406494e6ed56725ffb2da61512d0837", "fusion_lon": 0.0}, {"rental_uris": {"ios": "https://dc.lft.to/lastmile_qr_scan", "android": "https://dc.lft.to/lastmile_qr_scan"}, "type": "electric_bike", "name": "8a296c75def72d68b0efd1e3e5cd2711", "is_reserved": 0, "lon": -77.07749783333334, "is_disabled": 0, "fusion_lat": 0.0, "lat": 38.841928833333334, "bike_id": "8a296c75def72d68b0efd1e3e5cd2711", "fusion_lon": 0.0}, {"rental_uris": {"ios": "https://dc.lft.to/lastmile_qr_scan", "android": "https://dc.lft.to/lastmile_qr_scan"}, "type": "electric_bike", "name": "977bda7732258b18e9394ceb2df6cdf8", "is_reserved": 0, "lon": -76.97311466666666, "is_disabled": 0, "fusion_lat": 0.0, "lat": 38.9175985, "bike_id": "977bda7732258b18e9394ceb2df6cdf8", "fusion_lon": 0.0}, {"rental_uris": {"ios": "https://dc.lft.to/lastmile_qr_scan", "android": "https://dc.lft.to/lastmile_qr_scan"}, "type": "electric_scooter", "name": "c6de2d1f4a7bc795a859b82a45e77cc2", "is_reserved": 0, "lon": -76.99962483333333, "is_disabled": 0, "fusion_lat": 0.0, "lat": 38.908532, "bike_id": "c6de2d1f4a7bc795a859b82a45e77cc2", "fusion_lon": 0.0}, {"rental_uris": {"ios": "https://dc.lft.to/lastmile_qr_scan", "android": "https://dc.lft.to/lastmile_qr_scan"}, "type": "electric_scooter", "name": "bba6e49152b3432c5e60216849ef450b", "is_reserved": 0, "lon": -77.0312495, "is_disabled": 0, "fusion_lat": 0.0, "lat": 38.913282333333335, "bike_id": "bba6e49152b3432c5e60216849ef450b", "fusion_lon": 0.0}, {"rental_uris": {"ios": "https://dc.lft.to/lastmile_qr_scan", "android": "https://dc.lft.to/lastmile_qr_scan"}, "type": "electric_scooter", "name": "db5862cf816a0bf15655f85568da4e3f", "is_reserved": 0, "lon": -77.04437316666667, "is_disabled": 0, "fusion_lat": 0.0, "lat": 38.901286999999996, "bike_id": "db5862cf816a0bf15655f85568da4e3f", "fusion_lon": 0.0}, {"rental_uris": {"ios": "https://dc.lft.to/lastmile_qr_scan", "android": "https://dc.lft.to/lastmile_qr_scan"}, "type": "electric_bike", "name": "4915dc3e0df87fb2e0970b0fb45ee8e9", "is_reserved": 0, "lon": -76.96087083333333, "is_disabled": 0, "fusion_lat": 0.0, "lat": 38.918586166666664, "bike_id": "4915dc3e0df87fb2e0970b0fb45ee8e9", "fusion_lon": 0.0}, {"rental_uris": {"ios": "https://dc.lft.to/lastmile_qr_scan", "android": "https://dc.lft.to/lastmile_qr_scan"}, "type": "electric_scooter", "name": "4ee7ff40ff9fb1a189adc0d4cf908661", "is_reserved": 0, "lon": -77.00530483333333, "is_disabled": 0, "fusion_lat": 0.0, "lat": 38.87929883333334, "bike_id": "4ee7ff40ff9fb1a189adc0d4cf908661", "fusion_lon": 0.0}, {"rental_uris": {"ios": "https://dc.lft.to/lastmile_qr_scan", "android": "https://dc.lft.to/lastmile_qr_scan"}, "type": "electric_scooter", "name": "c41bb3ebbc20b7cbed18b2558f5aaceb", "is_reserved": 0, "lon": -77.05918933333334, "is_disabled": 0, "fusion_lat": 0.0, "lat": 38.93701216666667, "bike_id": "c41bb3ebbc20b7cbed18b2558f5aaceb", "fusion_lon": 0.0}, {"rental_uris": {"ios": "https://dc.lft.to/lastmile_qr_scan", "android": "https://dc.lft.to/lastmile_qr_scan"}, "type": "electric_scooter", "name": "8b9360c745ff19c8beb70b6a8e1d4793", "is_reserved": 0, "lon": -76.9995585, "is_disabled": 0, "fusion_lat": 0.0, "lat": 38.908613, "bike_id": "8b9360c745ff19c8beb70b6a8e1d4793", "fusion_lon": 0.0}, {"rental_uris": {"ios": "https://dc.lft.to/lastmile_qr_scan", "android": "https://dc.lft.to/lastmile_qr_scan"}, "type": "electric_scooter", "name": "53c3c5cb151059f4a2ec8bbe050c3be8", "is_reserved": 0, "lon": -77.04631, "is_disabled": 0, "fusion_lat": 0.0, "lat": 38.923366666666666, "bike_id": "53c3c5cb151059f4a2ec8bbe050c3be8", "fusion_lon": 0.0}, {"rental_uris": {"ios": "https://dc.lft.to/lastmile_qr_scan", "android": "https://dc.lft.to/lastmile_qr_scan"}, "type": "electric_scooter", "name": "8a39de1055765d8540de76c8263ded3a", "is_reserved": 0, "lon": -77.06609216666666, "is_disabled": 0, "fusion_lat": 0.0, "lat": 38.911078333333336, "bike_id": "8a39de1055765d8540de76c8263ded3a", "fusion_lon": 0.0}, {"rental_uris": {"ios": "https://dc.lft.to/lastmile_qr_scan", "android": "https://dc.lft.to/lastmile_qr_scan"}, "type": "electric_scooter", "name": "9d8b9c755d23f6b48d91a55e6a049e37", "is_reserved": 0, "lon": -77.04749016666666, "is_disabled": 0, "fusion_lat": 0.0, "lat": 38.89588966666667, "bike_id": "9d8b9c755d23f6b48d91a55e6a049e37", "fusion_lon": 0.0}, {"rental_uris": {"ios": "https://dc.lft.to/lastmile_qr_scan", "android": "https://dc.lft.to/lastmile_qr_scan"}, "type": "electric_scooter", "name": "4d4d6e753d9b5eeddfc7c29dba4d9807", "is_reserved": 0, "lon": -77.03153183333333, "is_disabled": 0, "fusion_lat": 0.0, "lat": 38.917043166666666, "bike_id": "4d4d6e753d9b5eeddfc7c29dba4d9807", "fusion_lon": 0.0}, {"rental_uris": {"ios": "https://dc.lft.to/lastmile_qr_scan", "android": "https://dc.lft.to/lastmile_qr_scan"}, "type": "electric_bike", "name": "3444f4652dd2ff052c227dfe162e367d", "is_reserved": 0, "lon": -76.99916783333333, "is_disabled": 0, "fusion_lat": 0.0, "lat": 38.994673666666664, "bike_id": "3444f4652dd2ff052c227dfe162e367d", "fusion_lon": 0.0}, {"rental_uris": {"ios": "https://dc.lft.to/lastmile_qr_scan", "android": "https://dc.lft.to/lastmile_qr_scan"}, "type": "electric_scooter", "name": "d702250ee1d29788d5b5e52bad0e8bb5", "is_reserved": 0, "lon": -77.0512115, "is_disabled": 0, "fusion_lat": 0.0, "lat": 38.925300666666665, "bike_id": "d702250ee1d29788d5b5e52bad0e8bb5", "fusion_lon": 0.0}, {"rental_uris": {"ios": "https://dc.lft.to/lastmile_qr_scan", "android": "https://dc.lft.to/lastmile_qr_scan"}, "type": "electric_scooter", "name": "d578553a3f4cdea4b7e16961d7ef906e", "is_reserved": 0, "lon": -77.04664833333334, "is_disabled": 0, "fusion_lat": 0.0, "lat": 38.8928145, "bike_id": "d578553a3f4cdea4b7e16961d7ef906e", "fusion_lon": 0.0}, {"rental_uris": {"ios": "https://dc.lft.to/lastmile_qr_scan", "android": "https://dc.lft.to/lastmile_qr_scan"}, "type": "electric_scooter", "name": "11f2ede4871fd1ea48952902713673c5", "is_reserved": 0, "lon": -77.041626, "is_disabled": 0, "fusion_lat": 0.0, "lat": 38.9109705, "bike_id": "11f2ede4871fd1ea48952902713673c5", "fusion_lon": 0.0}, {"rental_uris": {"ios": "https://dc.lft.to/lastmile_qr_scan", "android": "https://dc.lft.to/lastmile_qr_scan"}, "type": "electric_scooter", "name": "a413d10a5dc3d0553acceb734a3b9333", "is_reserved": 0, "lon": -77.047326, "is_disabled": 0, "fusion_lat": 0.0, "lat": 38.89552, "bike_id": "a413d10a5dc3d0553acceb734a3b9333", "fusion_lon": 0.0}, {"rental_uris": {"ios": "https://dc.lft.to/lastmile_qr_scan", "android": "https://dc.lft.to/lastmile_qr_scan"}, "type": "electric_scooter", "name": "4b660e202dd5ef69641325011805a2b5", "is_reserved": 0, "lon": -77.01820483333333, "is_disabled": 0, "fusion_lat": 0.0, "lat": 38.90523233333333, "bike_id": "4b660e202dd5ef69641325011805a2b5", "fusion_lon": 0.0}, {"rental_uris": {"ios": "https://dc.lft.to/lastmile_qr_scan", "android": "https://dc.lft.to/lastmile_qr_scan"}, "type": "electric_scooter", "name": "348e8bb2a26ce6fde9abe053dd7acad7", "is_reserved": 0, "lon": -77.00916433333333, "is_disabled": 0, "fusion_lat": 0.0, "lat": 38.912372, "bike_id": "348e8bb2a26ce6fde9abe053dd7acad7", "fusion_lon": 0.0}, {"rental_uris": {"ios": "https://dc.lft.to/lastmile_qr_scan", "android": "https://dc.lft.to/lastmile_qr_scan"}, "type": "electric_scooter", "name": "0e28777db4788b63adfa043e3e8c6d0d", "is_reserved": 0, "lon": -77.023174, "is_disabled": 0, "fusion_lat": 0.0, "lat": 38.9072925, "bike_id": "0e28777db4788b63adfa043e3e8c6d0d", "fusion_lon": 0.0}, {"rental_uris": {"ios": "https://dc.lft.to/lastmile_qr_scan", "android": "https://dc.lft.to/lastmile_qr_scan"}, "type": "electric_scooter", "name": "1693a9903ca4c871c2c6f90597d5a807", "is_reserved": 0, "lon": -77.01012583333333, "is_disabled": 0, "fusion_lat": 0.0, "lat": 38.912575333333336, "bike_id": "1693a9903ca4c871c2c6f90597d5a807", "fusion_lon": 0.0}, {"rental_uris": {"ios": "https://dc.lft.to/lastmile_qr_scan", "android": "https://dc.lft.to/lastmile_qr_scan"}, "type": "electric_scooter", "name": "a6c3d6e5deae78af67324eac73b2e410", "is_reserved": 0, "lon": -77.0269065, "is_disabled": 0, "fusion_lat": 0.0, "lat": 38.908373166666664, "bike_id": "a6c3d6e5deae78af67324eac73b2e410", "fusion_lon": 0.0}, {"rental_uris": {"ios": "https://dc.lft.to/lastmile_qr_scan", "android": "https://dc.lft.to/lastmile_qr_scan"}, "type": "electric_scooter", "name": "2f1d7a3785f47d0baebba90644f59dc9", "is_reserved": 0, "lon": -77.034995, "is_disabled": 0, "fusion_lat": 0.0, "lat": 38.915532666666664, "bike_id": "2f1d7a3785f47d0baebba90644f59dc9", "fusion_lon": 0.0}, {"rental_uris": {"ios": "https://dc.lft.to/lastmile_qr_scan", "android": "https://dc.lft.to/lastmile_qr_scan"}, "type": "electric_scooter", "name": "4a900756d51290040bfd9cf08b51d17c", "is_reserved": 0, "lon": -76.9844675, "is_disabled": 0, "fusion_lat": 0.0, "lat": 38.914717833333334, "bike_id": "4a900756d51290040bfd9cf08b51d17c", "fusion_lon": 0.0}, {"rental_uris": {"ios": "https://dc.lft.to/lastmile_qr_scan", "android": "https://dc.lft.to/lastmile_qr_scan"}, "type": "electric_scooter", "name": "cbae27a3a1ee194a511741841ee165c6", "is_reserved": 0, "lon": -77.06831466666667, "is_disabled": 0, "fusion_lat": 0.0, "lat": 38.9171835, "bike_id": "cbae27a3a1ee194a511741841ee165c6", "fusion_lon": 0.0}, {"rental_uris": {"ios": "https://dc.lft.to/lastmile_qr_scan", "android": "https://dc.lft.to/lastmile_qr_scan"}, "type": "electric_scooter", "name": "6763d0cff205b87776002b0e3144ca31", "is_reserved": 0, "lon": -77.04714116666666, "is_disabled": 0, "fusion_lat": 0.0, "lat": 38.912681666666664, "bike_id": "6763d0cff205b87776002b0e3144ca31", "fusion_lon": 0.0}, {"rental_uris": {"ios": "https://dc.lft.to/lastmile_qr_scan", "android": "https://dc.lft.to/lastmile_qr_scan"}, "type": "electric_bike", "name": "fdfe7f446a4533159d5b011b5286d515", "is_reserved": 0, "lon": -77.11412016666667, "is_disabled": 0, "fusion_lat": 0.0, "lat": 38.87323816666667, "bike_id": "fdfe7f446a4533159d5b011b5286d515", "fusion_lon": 0.0}, {"rental_uris": {"ios": "https://dc.lft.to/lastmile_qr_scan", "android": "https://dc.lft.to/lastmile_qr_scan"}, "type": "electric_scooter", "name": "d5abf0042119289360de1cca1987b1be", "is_reserved": 0, "lon": -77.04059433333333, "is_disabled": 0, "fusion_lat": 0.0, "lat": 38.925477, "bike_id": "d5abf0042119289360de1cca1987b1be", "fusion_lon": 0.0}, {"rental_uris": {"ios": "https://dc.lft.to/lastmile_qr_scan", "android": "https://dc.lft.to/lastmile_qr_scan"}, "type": "electric_scooter", "name": "bc833acb2d1b0957aa369f96be55dd6c", "is_reserved": 0, "lon": -77.04330433333334, "is_disabled": 0, "fusion_lat": 0.0, "lat": 38.93411533333333, "bike_id": "bc833acb2d1b0957aa369f96be55dd6c", "fusion_lon": 0.0}, {"rental_uris": {"ios": "https://dc.lft.to/lastmile_qr_scan", "android": "https://dc.lft.to/lastmile_qr_scan"}, "type": "electric_scooter", "name": "38ac24f2680b68120f0740238dd949b3", "is_reserved": 0, "lon": -77.044428, "is_disabled": 0, "fusion_lat": 0.0, "lat": 38.91262666666667, "bike_id": "38ac24f2680b68120f0740238dd949b3", "fusion_lon": 0.0}, {"rental_uris": {"ios": "https://dc.lft.to/lastmile_qr_scan", "android": "https://dc.lft.to/lastmile_qr_scan"}, "type": "electric_scooter", "name": "cb910de71dea31f06c4bf940bcbc3a23", "is_reserved": 0, "lon": -77.0486815, "is_disabled": 0, "fusion_lat": 0.0, "lat": 38.912667, "bike_id": "cb910de71dea31f06c4bf940bcbc3a23", "fusion_lon": 0.0}, {"rental_uris": {"ios": "https://dc.lft.to/lastmile_qr_scan", "android": "https://dc.lft.to/lastmile_qr_scan"}, "type": "electric_scooter", "name": "555dbb7d02caf30845b4f9640c57da6d", "is_reserved": 0, "lon": -77.028377, "is_disabled": 0, "fusion_lat": 0.0, "lat": 38.95728883333334, "bike_id": "555dbb7d02caf30845b4f9640c57da6d", "fusion_lon": 0.0}, {"rental_uris": {"ios": "https://dc.lft.to/lastmile_qr_scan", "android": "https://dc.lft.to/lastmile_qr_scan"}, "type": "electric_scooter", "name": "604559746754bb08dd44c60e10285907", "is_reserved": 0, "lon": -76.9837315, "is_disabled": 0, "fusion_lat": 0.0, "lat": 38.891374, "bike_id": "604559746754bb08dd44c60e10285907", "fusion_lon": 0.0}, {"rental_uris": {"ios": "https://dc.lft.to/lastmile_qr_scan", "android": "https://dc.lft.to/lastmile_qr_scan"}, "type": "electric_scooter", "name": "e5a81a6a77b2ced34d7b9bbab22ded01", "is_reserved": 0, "lon": -77.01612783333333, "is_disabled": 0, "fusion_lat": 0.0, "lat": 38.89799516666667, "bike_id": "e5a81a6a77b2ced34d7b9bbab22ded01", "fusion_lon": 0.0}, {"rental_uris": {"ios": "https://dc.lft.to/lastmile_qr_scan", "android": "https://dc.lft.to/lastmile_qr_scan"}, "type": "electric_scooter", "name": "e7c2e2a77fa5bde4f865eb0354c44f2d", "is_reserved": 0, "lon": -77.03237683333333, "is_disabled": 0, "fusion_lat": 0.0, "lat": 38.903929833333336, "bike_id": "e7c2e2a77fa5bde4f865eb0354c44f2d", "fusion_lon": 0.0}, {"rental_uris": {"ios": "https://dc.lft.to/lastmile_qr_scan", "android": "https://dc.lft.to/lastmile_qr_scan"}, "type": "electric_scooter", "name": "3a1bdcb4666c92046d97cd6779f1de4e", "is_reserved": 0, "lon": -77.04753633333333, "is_disabled": 0, "fusion_lat": 0.0, "lat": 38.90096783333333, "bike_id": "3a1bdcb4666c92046d97cd6779f1de4e", "fusion_lon": 0.0}, {"rental_uris": {"ios": "https://dc.lft.to/lastmile_qr_scan", "android": "https://dc.lft.to/lastmile_qr_scan"}, "type": "electric_bike", "name": "d24d10e314cf5c7a6c09aaeb8b08b08c", "is_reserved": 0, "lon": -76.98924983333333, "is_disabled": 0, "fusion_lat": 0.0, "lat": 38.8820305, "bike_id": "d24d10e314cf5c7a6c09aaeb8b08b08c", "fusion_lon": 0.0}, {"rental_uris": {"ios": "https://dc.lft.to/lastmile_qr_scan", "android": "https://dc.lft.to/lastmile_qr_scan"}, "type": "electric_scooter", "name": "a5f70242ffb815158e333df92fb6d78f", "is_reserved": 0, "lon": -77.00062, "is_disabled": 0, "fusion_lat": 0.0, "lat": 38.8768765, "bike_id": "a5f70242ffb815158e333df92fb6d78f", "fusion_lon": 0.0}, {"rental_uris": {"ios": "https://dc.lft.to/lastmile_qr_scan", "android": "https://dc.lft.to/lastmile_qr_scan"}, "type": "electric_scooter", "name": "8c33df064c8089dd98c8d4abc2442338", "is_reserved": 0, "lon": -77.03889316666667, "is_disabled": 0, "fusion_lat": 0.0, "lat": 38.92242666666667, "bike_id": "8c33df064c8089dd98c8d4abc2442338", "fusion_lon": 0.0}, {"rental_uris": {"ios": "https://dc.lft.to/lastmile_qr_scan", "android": "https://dc.lft.to/lastmile_qr_scan"}, "type": "electric_scooter", "name": "4f7c4add40e0f93ed54a87b158613a96", "is_reserved": 0, "lon": -77.031775, "is_disabled": 0, "fusion_lat": 0.0, "lat": 38.91793766666667, "bike_id": "4f7c4add40e0f93ed54a87b158613a96", "fusion_lon": 0.0}, {"rental_uris": {"ios": "https://dc.lft.to/lastmile_qr_scan", "android": "https://dc.lft.to/lastmile_qr_scan"}, "type": "electric_bike", "name": "9766882ae1d71d95dc9988d9e0850f35", "is_reserved": 0, "lon": -76.94534233333333, "is_disabled": 0, "fusion_lat": 0.0, "lat": 38.982906666666665, "bike_id": "9766882ae1d71d95dc9988d9e0850f35", "fusion_lon": 0.0}, {"rental_uris": {"ios": "https://dc.lft.to/lastmile_qr_scan", "android": "https://dc.lft.to/lastmile_qr_scan"}, "type": "electric_scooter", "name": "66d7c2f74ae9991fcfe0f56928269513", "is_reserved": 0, "lon": -77.04611416666667, "is_disabled": 0, "fusion_lat": 0.0, "lat": 38.920613833333334, "bike_id": "66d7c2f74ae9991fcfe0f56928269513", "fusion_lon": 0.0}, {"rental_uris": {"ios": "https://dc.lft.to/lastmile_qr_scan", "android": "https://dc.lft.to/lastmile_qr_scan"}, "type": "electric_scooter", "name": "dc393932143ff1f261ecd45d253e9339", "is_reserved": 0, "lon": -77.03356516666666, "is_disabled": 0, "fusion_lat": 0.0, "lat": 38.899637, "bike_id": "dc393932143ff1f261ecd45d253e9339", "fusion_lon": 0.0}, {"rental_uris": {"ios": "https://dc.lft.to/lastmile_qr_scan", "android": "https://dc.lft.to/lastmile_qr_scan"}, "type": "electric_scooter", "name": "5454855415d3bb932e2393ee6dcb2294", "is_reserved": 0, "lon": -77.00287816666666, "is_disabled": 0, "fusion_lat": 0.0, "lat": 38.877255166666664, "bike_id": "5454855415d3bb932e2393ee6dcb2294", "fusion_lon": 0.0}, {"rental_uris": {"ios": "https://dc.lft.to/lastmile_qr_scan", "android": "https://dc.lft.to/lastmile_qr_scan"}, "type": "electric_bike", "name": "d8c748d25881bee40cc770cb35c5e6c8", "is_reserved": 0, "lon": -77.007588, "is_disabled": 0, "fusion_lat": 0.0, "lat": 38.99786833333334, "bike_id": "d8c748d25881bee40cc770cb35c5e6c8", "fusion_lon": 0.0}, {"rental_uris": {"ios": "https://dc.lft.to/lastmile_qr_scan", "android": "https://dc.lft.to/lastmile_qr_scan"}, "type": "electric_scooter", "name": "b230f18e52ea7f4fa021fd3431867a71", "is_reserved": 0, "lon": -77.083975, "is_disabled": 0, "fusion_lat": 0.0, "lat": 38.90808233333333, "bike_id": "b230f18e52ea7f4fa021fd3431867a71", "fusion_lon": 0.0}, {"rental_uris": {"ios": "https://dc.lft.to/lastmile_qr_scan", "android": "https://dc.lft.to/lastmile_qr_scan"}, "type": "electric_bike", "name": "6f207aa1040697a9a1084e3dd29961e7", "is_reserved": 0, "lon": -76.95241183333333, "is_disabled": 0, "fusion_lat": 0.0, "lat": 38.884704, "bike_id": "6f207aa1040697a9a1084e3dd29961e7", "fusion_lon": 0.0}, {"rental_uris": {"ios": "https://dc.lft.to/lastmile_qr_scan", "android": "https://dc.lft.to/lastmile_qr_scan"}, "type": "electric_scooter", "name": "1a521b2a29a02e6545c77119e2fa586a", "is_reserved": 0, "lon": -77.02704583333333, "is_disabled": 0, "fusion_lat": 0.0, "lat": 38.905932166666666, "bike_id": "1a521b2a29a02e6545c77119e2fa586a", "fusion_lon": 0.0}, {"rental_uris": {"ios": "https://dc.lft.to/lastmile_qr_scan", "android": "https://dc.lft.to/lastmile_qr_scan"}, "type": "electric_scooter", "name": "b286b4744018afa5bf276f04c36a357b", "is_reserved": 0, "lon": -76.99871133333333, "is_disabled": 0, "fusion_lat": 0.0, "lat": 38.9003025, "bike_id": "b286b4744018afa5bf276f04c36a357b", "fusion_lon": 0.0}, {"rental_uris": {"ios": "https://dc.lft.to/lastmile_qr_scan", "android": "https://dc.lft.to/lastmile_qr_scan"}, "type": "electric_bike", "name": "882968e0889dd1e98cdd60f593f0954c", "is_reserved": 0, "lon": -77.00001933333333, "is_disabled": 0, "fusion_lat": 0.0, "lat": 38.92391166666667, "bike_id": "882968e0889dd1e98cdd60f593f0954c", "fusion_lon": 0.0}, {"rental_uris": {"ios": "https://dc.lft.to/lastmile_qr_scan", "android": "https://dc.lft.to/lastmile_qr_scan"}, "type": "electric_scooter", "name": "8823d65a459078c086543ff7757f8c13", "is_reserved": 0, "lon": -77.02834133333333, "is_disabled": 0, "fusion_lat": 0.0, "lat": 38.9024685, "bike_id": "8823d65a459078c086543ff7757f8c13", "fusion_lon": 0.0}, {"rental_uris": {"ios": "https://dc.lft.to/lastmile_qr_scan", "android": "https://dc.lft.to/lastmile_qr_scan"}, "type": "electric_scooter", "name": "db3b60a3710eec49ecf5e8a705a5053d", "is_reserved": 0, "lon": -77.02354433333333, "is_disabled": 0, "fusion_lat": 0.0, "lat": 38.94525466666666, "bike_id": "db3b60a3710eec49ecf5e8a705a5053d", "fusion_lon": 0.0}, {"rental_uris": {"ios": "https://dc.lft.to/lastmile_qr_scan", "android": "https://dc.lft.to/lastmile_qr_scan"}, "type": "electric_scooter", "name": "f1e716205d24c555f18383a568094399", "is_reserved": 0, "lon": -76.98574766666667, "is_disabled": 0, "fusion_lat": 0.0, "lat": 38.854476166666664, "bike_id": "f1e716205d24c555f18383a568094399", "fusion_lon": 0.0}, {"rental_uris": {"ios": "https://dc.lft.to/lastmile_qr_scan", "android": "https://dc.lft.to/lastmile_qr_scan"}, "type": "electric_scooter", "name": "62981caa50f480f715462106c63ac91f", "is_reserved": 0, "lon": -77.04119516666667, "is_disabled": 0, "fusion_lat": 0.0, "lat": 38.93102, "bike_id": "62981caa50f480f715462106c63ac91f", "fusion_lon": 0.0}, {"rental_uris": {"ios": "https://dc.lft.to/lastmile_qr_scan", "android": "https://dc.lft.to/lastmile_qr_scan"}, "type": "electric_scooter", "name": "fcd9d5ebf18ee11e89fcd011092afa22", "is_reserved": 0, "lon": -77.02403733333334, "is_disabled": 0, "fusion_lat": 0.0, "lat": 38.9056805, "bike_id": "fcd9d5ebf18ee11e89fcd011092afa22", "fusion_lon": 0.0}, {"rental_uris": {"ios": "https://dc.lft.to/lastmile_qr_scan", "android": "https://dc.lft.to/lastmile_qr_scan"}, "type": "electric_scooter", "name": "328a5ae7abd637595e7d389af90d1c6b", "is_reserved": 0, "lon": -77.03014933333333, "is_disabled": 0, "fusion_lat": 0.0, "lat": 38.92249916666667, "bike_id": "328a5ae7abd637595e7d389af90d1c6b", "fusion_lon": 0.0}, {"rental_uris": {"ios": "https://dc.lft.to/lastmile_qr_scan", "android": "https://dc.lft.to/lastmile_qr_scan"}, "type": "electric_bike", "name": "204006b0c3cc0b019750afae812d4532", "is_reserved": 0, "lon": -77.01228566666667, "is_disabled": 0, "fusion_lat": 0.0, "lat": 38.950951333333336, "bike_id": "204006b0c3cc0b019750afae812d4532", "fusion_lon": 0.0}, {"rental_uris": {"ios": "https://dc.lft.to/lastmile_qr_scan", "android": "https://dc.lft.to/lastmile_qr_scan"}, "type": "electric_scooter", "name": "89af356a6545436b00b1dc49e9e6aee6", "is_reserved": 0, "lon": -77.00200066666666, "is_disabled": 0, "fusion_lat": 0.0, "lat": 38.90039816666667, "bike_id": "89af356a6545436b00b1dc49e9e6aee6", "fusion_lon": 0.0}, {"rental_uris": {"ios": "https://dc.lft.to/lastmile_qr_scan", "android": "https://dc.lft.to/lastmile_qr_scan"}, "type": "electric_bike", "name": "8aba9d7861233003ef7c465b3ec1dfe6", "is_reserved": 0, "lon": -77.1284075, "is_disabled": 0, "fusion_lat": 0.0, "lat": 38.80052116666667, "bike_id": "8aba9d7861233003ef7c465b3ec1dfe6", "fusion_lon": 0.0}, {"rental_uris": {"ios": "https://dc.lft.to/lastmile_qr_scan", "android": "https://dc.lft.to/lastmile_qr_scan"}, "type": "electric_scooter", "name": "b5b2196b6f6261fd0bae937984e1f83d", "is_reserved": 0, "lon": -76.99115033333334, "is_disabled": 0, "fusion_lat": 0.0, "lat": 38.9090445, "bike_id": "b5b2196b6f6261fd0bae937984e1f83d", "fusion_lon": 0.0}, {"rental_uris": {"ios": "https://dc.lft.to/lastmile_qr_scan", "android": "https://dc.lft.to/lastmile_qr_scan"}, "type": "electric_scooter", "name": "96795d25c37da87c2a9fad22f1292d43", "is_reserved": 0, "lon": -77.03862, "is_disabled": 0, "fusion_lat": 0.0, "lat": 38.912646333333335, "bike_id": "96795d25c37da87c2a9fad22f1292d43", "fusion_lon": 0.0}, {"rental_uris": {"ios": "https://dc.lft.to/lastmile_qr_scan", "android": "https://dc.lft.to/lastmile_qr_scan"}, "type": "electric_scooter", "name": "16d20d3af1c569e7877a52ad9787d221", "is_reserved": 0, "lon": -77.01995116666667, "is_disabled": 0, "fusion_lat": 0.0, "lat": 38.876076166666664, "bike_id": "16d20d3af1c569e7877a52ad9787d221", "fusion_lon": 0.0}, {"rental_uris": {"ios": "https://dc.lft.to/lastmile_qr_scan", "android": "https://dc.lft.to/lastmile_qr_scan"}, "type": "electric_scooter", "name": "4e9f7b9039307d0f30c9a28177ce79ad", "is_reserved": 0, "lon": -77.01603083333333, "is_disabled": 0, "fusion_lat": 0.0, "lat": 38.91754616666667, "bike_id": "4e9f7b9039307d0f30c9a28177ce79ad", "fusion_lon": 0.0}, {"rental_uris": {"ios": "https://dc.lft.to/lastmile_qr_scan", "android": "https://dc.lft.to/lastmile_qr_scan"}, "type": "electric_scooter", "name": "56fc82066f91616bfc6e39ee0c6aa99c", "is_reserved": 0, "lon": -77.072137, "is_disabled": 0, "fusion_lat": 0.0, "lat": 38.906821666666666, "bike_id": "56fc82066f91616bfc6e39ee0c6aa99c", "fusion_lon": 0.0}, {"rental_uris": {"ios": "https://dc.lft.to/lastmile_qr_scan", "android": "https://dc.lft.to/lastmile_qr_scan"}, "type": "electric_scooter", "name": "c552c28ef5e1dbf3fe4d5ff2f955c21a", "is_reserved": 0, "lon": -77.01263333333333, "is_disabled": 0, "fusion_lat": 0.0, "lat": 38.89714333333333, "bike_id": "c552c28ef5e1dbf3fe4d5ff2f955c21a", "fusion_lon": 0.0}, {"rental_uris": {"ios": "https://dc.lft.to/lastmile_qr_scan", "android": "https://dc.lft.to/lastmile_qr_scan"}, "type": "electric_scooter", "name": "f753e461032495268508393823c8ccce", "is_reserved": 0, "lon": -77.0215985, "is_disabled": 0, "fusion_lat": 0.0, "lat": 38.88733383333334, "bike_id": "f753e461032495268508393823c8ccce", "fusion_lon": 0.0}, {"rental_uris": {"ios": "https://dc.lft.to/lastmile_qr_scan", "android": "https://dc.lft.to/lastmile_qr_scan"}, "type": "electric_scooter", "name": "641219ff925b5426bc2182b3a7d581f4", "is_reserved": 0, "lon": -76.98659433333333, "is_disabled": 0, "fusion_lat": 0.0, "lat": 38.9061635, "bike_id": "641219ff925b5426bc2182b3a7d581f4", "fusion_lon": 0.0}, {"rental_uris": {"ios": "https://dc.lft.to/lastmile_qr_scan", "android": "https://dc.lft.to/lastmile_qr_scan"}, "type": "electric_scooter", "name": "0a425682cdb19db1f006c41ac6b6afcb", "is_reserved": 0, "lon": -77.02390933333334, "is_disabled": 0, "fusion_lat": 0.0, "lat": 38.9207715, "bike_id": "0a425682cdb19db1f006c41ac6b6afcb", "fusion_lon": 0.0}, {"rental_uris": {"ios": "https://dc.lft.to/lastmile_qr_scan", "android": "https://dc.lft.to/lastmile_qr_scan"}, "type": "electric_scooter", "name": "07d45732c762eecab2f7515ab3e70d67", "is_reserved": 0, "lon": -77.039529, "is_disabled": 0, "fusion_lat": 0.0, "lat": 38.902641333333335, "bike_id": "07d45732c762eecab2f7515ab3e70d67", "fusion_lon": 0.0}, {"rental_uris": {"ios": "https://dc.lft.to/lastmile_qr_scan", "android": "https://dc.lft.to/lastmile_qr_scan"}, "type": "electric_scooter", "name": "b5df3dcbf512700c9ceafa73ba08b02e", "is_reserved": 0, "lon": -77.052242, "is_disabled": 0, "fusion_lat": 0.0, "lat": 38.903136, "bike_id": "b5df3dcbf512700c9ceafa73ba08b02e", "fusion_lon": 0.0}, {"rental_uris": {"ios": "https://dc.lft.to/lastmile_qr_scan", "android": "https://dc.lft.to/lastmile_qr_scan"}, "type": "electric_scooter", "name": "0aa335e5163d03c45c2ce5d03ba0e29b", "is_reserved": 0, "lon": -77.03174633333333, "is_disabled": 0, "fusion_lat": 0.0, "lat": 38.920973000000004, "bike_id": "0aa335e5163d03c45c2ce5d03ba0e29b", "fusion_lon": 0.0}, {"rental_uris": {"ios": "https://dc.lft.to/lastmile_qr_scan", "android": "https://dc.lft.to/lastmile_qr_scan"}, "type": "electric_bike", "name": "097f478d499b6f6067b6ef74ed11c03b", "is_reserved": 0, "lon": -77.06162733333333, "is_disabled": 0, "fusion_lat": 0.0, "lat": 38.929045, "bike_id": "097f478d499b6f6067b6ef74ed11c03b", "fusion_lon": 0.0}, {"rental_uris": {"ios": "https://dc.lft.to/lastmile_qr_scan", "android": "https://dc.lft.to/lastmile_qr_scan"}, "type": "electric_scooter", "name": "a83e120a7fdef3712fcb3e8ea6b0454b", "is_reserved": 0, "lon": -77.02013816666667, "is_disabled": 0, "fusion_lat": 0.0, "lat": 38.92322883333333, "bike_id": "a83e120a7fdef3712fcb3e8ea6b0454b", "fusion_lon": 0.0}, {"rental_uris": {"ios": "https://dc.lft.to/lastmile_qr_scan", "android": "https://dc.lft.to/lastmile_qr_scan"}, "type": "electric_scooter", "name": "e69f1c7d1ccc3799ee6925e251ba54a7", "is_reserved": 0, "lon": -77.036352, "is_disabled": 0, "fusion_lat": 0.0, "lat": 38.924901166666665, "bike_id": "e69f1c7d1ccc3799ee6925e251ba54a7", "fusion_lon": 0.0}, {"rental_uris": {"ios": "https://dc.lft.to/lastmile_qr_scan", "android": "https://dc.lft.to/lastmile_qr_scan"}, "type": "electric_scooter", "name": "ba5b72a6333edd636d958423860c6107", "is_reserved": 0, "lon": -77.00552166666667, "is_disabled": 0, "fusion_lat": 0.0, "lat": 38.911868, "bike_id": "ba5b72a6333edd636d958423860c6107", "fusion_lon": 0.0}, {"rental_uris": {"ios": "https://dc.lft.to/lastmile_qr_scan", "android": "https://dc.lft.to/lastmile_qr_scan"}, "type": "electric_scooter", "name": "64b956738806e6f317398d5d3c44c6b5", "is_reserved": 0, "lon": -77.00302316666667, "is_disabled": 0, "fusion_lat": 0.0, "lat": 38.90886733333333, "bike_id": "64b956738806e6f317398d5d3c44c6b5", "fusion_lon": 0.0}, {"rental_uris": {"ios": "https://dc.lft.to/lastmile_qr_scan", "android": "https://dc.lft.to/lastmile_qr_scan"}, "type": "electric_scooter", "name": "4bc2e21e30c6296722c0a8c6e5674a83", "is_reserved": 0, "lon": -77.01060066666666, "is_disabled": 0, "fusion_lat": 0.0, "lat": 38.9119305, "bike_id": "4bc2e21e30c6296722c0a8c6e5674a83", "fusion_lon": 0.0}, {"rental_uris": {"ios": "https://dc.lft.to/lastmile_qr_scan", "android": "https://dc.lft.to/lastmile_qr_scan"}, "type": "electric_scooter", "name": "97c1173db97d6e12b0e8514906cb3526", "is_reserved": 0, "lon": -76.985421, "is_disabled": 0, "fusion_lat": 0.0, "lat": 38.879643333333334, "bike_id": "97c1173db97d6e12b0e8514906cb3526", "fusion_lon": 0.0}, {"rental_uris": {"ios": "https://dc.lft.to/lastmile_qr_scan", "android": "https://dc.lft.to/lastmile_qr_scan"}, "type": "electric_scooter", "name": "290be79964425d0393540216c5eef698", "is_reserved": 0, "lon": -77.0356165, "is_disabled": 0, "fusion_lat": 0.0, "lat": 38.9274005, "bike_id": "290be79964425d0393540216c5eef698", "fusion_lon": 0.0}, {"rental_uris": {"ios": "https://dc.lft.to/lastmile_qr_scan", "android": "https://dc.lft.to/lastmile_qr_scan"}, "type": "electric_scooter", "name": "f4700d1aac2c7e953dedc0c7102fe55b", "is_reserved": 0, "lon": -77.023847, "is_disabled": 0, "fusion_lat": 0.0, "lat": 38.9031325, "bike_id": "f4700d1aac2c7e953dedc0c7102fe55b", "fusion_lon": 0.0}, {"rental_uris": {"ios": "https://dc.lft.to/lastmile_qr_scan", "android": "https://dc.lft.to/lastmile_qr_scan"}, "type": "electric_scooter", "name": "738e6aa7d91d151e26adab01e0a87e1c", "is_reserved": 0, "lon": -77.018877, "is_disabled": 0, "fusion_lat": 0.0, "lat": 38.87467016666667, "bike_id": "738e6aa7d91d151e26adab01e0a87e1c", "fusion_lon": 0.0}, {"rental_uris": {"ios": "https://dc.lft.to/lastmile_qr_scan", "android": "https://dc.lft.to/lastmile_qr_scan"}, "type": "electric_scooter", "name": "e7a89dc5f927cfa33e6006ce7d2bf4e8", "is_reserved": 0, "lon": -77.0531395, "is_disabled": 0, "fusion_lat": 0.0, "lat": 38.940947, "bike_id": "e7a89dc5f927cfa33e6006ce7d2bf4e8", "fusion_lon": 0.0}, {"rental_uris": {"ios": "https://dc.lft.to/lastmile_qr_scan", "android": "https://dc.lft.to/lastmile_qr_scan"}, "type": "electric_scooter", "name": "751c9ce01ea81ed9894f1a1408be3016", "is_reserved": 0, "lon": -77.04001966666667, "is_disabled": 0, "fusion_lat": 0.0, "lat": 38.93425966666667, "bike_id": "751c9ce01ea81ed9894f1a1408be3016", "fusion_lon": 0.0}, {"rental_uris": {"ios": "https://dc.lft.to/lastmile_qr_scan", "android": "https://dc.lft.to/lastmile_qr_scan"}, "type": "electric_bike", "name": "fae54bce02038b3240abda48065b9cb3", "is_reserved": 0, "lon": -76.96886616666667, "is_disabled": 0, "fusion_lat": 0.0, "lat": 38.86986016666667, "bike_id": "fae54bce02038b3240abda48065b9cb3", "fusion_lon": 0.0}, {"rental_uris": {"ios": "https://dc.lft.to/lastmile_qr_scan", "android": "https://dc.lft.to/lastmile_qr_scan"}, "type": "electric_bike", "name": "bc24ae93b1e4244373bc20a2d37403ee", "is_reserved": 0, "lon": -77.12891483333334, "is_disabled": 0, "fusion_lat": 0.0, "lat": 38.90612183333333, "bike_id": "bc24ae93b1e4244373bc20a2d37403ee", "fusion_lon": 0.0}, {"rental_uris": {"ios": "https://dc.lft.to/lastmile_qr_scan", "android": "https://dc.lft.to/lastmile_qr_scan"}, "type": "electric_scooter", "name": "083aac522185028af9eab010990517af", "is_reserved": 0, "lon": -77.06712683333333, "is_disabled": 0, "fusion_lat": 0.0, "lat": 38.91462966666667, "bike_id": "083aac522185028af9eab010990517af", "fusion_lon": 0.0}, {"rental_uris": {"ios": "https://dc.lft.to/lastmile_qr_scan", "android": "https://dc.lft.to/lastmile_qr_scan"}, "type": "electric_scooter", "name": "13edb5a3dda591a357aa1a3b5cccb042", "is_reserved": 0, "lon": -77.06387616666666, "is_disabled": 0, "fusion_lat": 0.0, "lat": 38.908615833333336, "bike_id": "13edb5a3dda591a357aa1a3b5cccb042", "fusion_lon": 0.0}, {"rental_uris": {"ios": "https://dc.lft.to/lastmile_qr_scan", "android": "https://dc.lft.to/lastmile_qr_scan"}, "type": "electric_scooter", "name": "d93f3367cc5eb373ccbb145eb3dedfc4", "is_reserved": 0, "lon": -77.02443883333333, "is_disabled": 0, "fusion_lat": 0.0, "lat": 38.903430166666666, "bike_id": "d93f3367cc5eb373ccbb145eb3dedfc4", "fusion_lon": 0.0}, {"rental_uris": {"ios": "https://dc.lft.to/lastmile_qr_scan", "android": "https://dc.lft.to/lastmile_qr_scan"}, "type": "electric_scooter", "name": "f0bbc7c623cbfcd8b268a597aa125192", "is_reserved": 0, "lon": -76.99144266666667, "is_disabled": 0, "fusion_lat": 0.0, "lat": 38.873414333333336, "bike_id": "f0bbc7c623cbfcd8b268a597aa125192", "fusion_lon": 0.0}, {"rental_uris": {"ios": "https://dc.lft.to/lastmile_qr_scan", "android": "https://dc.lft.to/lastmile_qr_scan"}, "type": "electric_bike", "name": "75cc47cf4e03ffff2c5a8ee6170fa1e1", "is_reserved": 0, "lon": -77.0040355, "is_disabled": 0, "fusion_lat": 0.0, "lat": 38.9854385, "bike_id": "75cc47cf4e03ffff2c5a8ee6170fa1e1", "fusion_lon": 0.0}, {"rental_uris": {"ios": "https://dc.lft.to/lastmile_qr_scan", "android": "https://dc.lft.to/lastmile_qr_scan"}, "type": "electric_bike", "name": "0734f0efa88b47b9797135adce9392fc", "is_reserved": 0, "lon": -77.04025283333333, "is_disabled": 0, "fusion_lat": 0.0, "lat": 38.911866, "bike_id": "0734f0efa88b47b9797135adce9392fc", "fusion_lon": 0.0}, {"rental_uris": {"ios": "https://dc.lft.to/lastmile_qr_scan", "android": "https://dc.lft.to/lastmile_qr_scan"}, "type": "electric_scooter", "name": "ba0e2d91f8038b17e2e318e296599d03", "is_reserved": 0, "lon": -77.04405566666667, "is_disabled": 0, "fusion_lat": 0.0, "lat": 38.92951633333333, "bike_id": "ba0e2d91f8038b17e2e318e296599d03", "fusion_lon": 0.0}, {"rental_uris": {"ios": "https://dc.lft.to/lastmile_qr_scan", "android": "https://dc.lft.to/lastmile_qr_scan"}, "type": "electric_bike", "name": "f9a6666d84ed663cc18d406d63db4f38", "is_reserved": 0, "lon": -77.098203, "is_disabled": 0, "fusion_lat": 0.0, "lat": 38.8501595, "bike_id": "f9a6666d84ed663cc18d406d63db4f38", "fusion_lon": 0.0}, {"rental_uris": {"ios": "https://dc.lft.to/lastmile_qr_scan", "android": "https://dc.lft.to/lastmile_qr_scan"}, "type": "electric_scooter", "name": "25ec6f881de04741ec22dd08dcb1be57", "is_reserved": 0, "lon": -76.9320795, "is_disabled": 0, "fusion_lat": 0.0, "lat": 38.896645666666664, "bike_id": "25ec6f881de04741ec22dd08dcb1be57", "fusion_lon": 0.0}, {"rental_uris": {"ios": "https://dc.lft.to/lastmile_qr_scan", "android": "https://dc.lft.to/lastmile_qr_scan"}, "type": "electric_scooter", "name": "e7238b72db74648618c4ef6bea49cb8c", "is_reserved": 0, "lon": -77.04260916666667, "is_disabled": 0, "fusion_lat": 0.0, "lat": 38.90441916666666, "bike_id": "e7238b72db74648618c4ef6bea49cb8c", "fusion_lon": 0.0}, {"rental_uris": {"ios": "https://dc.lft.to/lastmile_qr_scan", "android": "https://dc.lft.to/lastmile_qr_scan"}, "type": "electric_scooter", "name": "e2b8e5dc1104d0f34d4c8645f1aedc64", "is_reserved": 0, "lon": -77.01342266666667, "is_disabled": 0, "fusion_lat": 0.0, "lat": 38.896046166666665, "bike_id": "e2b8e5dc1104d0f34d4c8645f1aedc64", "fusion_lon": 0.0}, {"rental_uris": {"ios": "https://dc.lft.to/lastmile_qr_scan", "android": "https://dc.lft.to/lastmile_qr_scan"}, "type": "electric_scooter", "name": "fa1a8ced22f2cfcc0d10eda1b6ba18bf", "is_reserved": 0, "lon": -76.99937883333334, "is_disabled": 0, "fusion_lat": 0.0, "lat": 38.89164316666667, "bike_id": "fa1a8ced22f2cfcc0d10eda1b6ba18bf", "fusion_lon": 0.0}, {"rental_uris": {"ios": "https://dc.lft.to/lastmile_qr_scan", "android": "https://dc.lft.to/lastmile_qr_scan"}, "type": "electric_scooter", "name": "d322c6b3fbd6ef5054d6e45abe254469", "is_reserved": 0, "lon": -77.02558316666666, "is_disabled": 0, "fusion_lat": 0.0, "lat": 38.930917666666666, "bike_id": "d322c6b3fbd6ef5054d6e45abe254469", "fusion_lon": 0.0}, {"rental_uris": {"ios": "https://dc.lft.to/lastmile_qr_scan", "android": "https://dc.lft.to/lastmile_qr_scan"}, "type": "electric_scooter", "name": "d4aa68c3cf6276ba4762c2e7fa74192d", "is_reserved": 0, "lon": -77.042398, "is_disabled": 0, "fusion_lat": 0.0, "lat": 38.92190633333333, "bike_id": "d4aa68c3cf6276ba4762c2e7fa74192d", "fusion_lon": 0.0}, {"rental_uris": {"ios": "https://dc.lft.to/lastmile_qr_scan", "android": "https://dc.lft.to/lastmile_qr_scan"}, "type": "electric_scooter", "name": "fac2a52a5ae43a847b5e9c287ba63479", "is_reserved": 0, "lon": -77.02760166666667, "is_disabled": 0, "fusion_lat": 0.0, "lat": 38.957808166666666, "bike_id": "fac2a52a5ae43a847b5e9c287ba63479", "fusion_lon": 0.0}, {"rental_uris": {"ios": "https://dc.lft.to/lastmile_qr_scan", "android": "https://dc.lft.to/lastmile_qr_scan"}, "type": "electric_scooter", "name": "da70fbeb632e7cdd3735c459e92e7264", "is_reserved": 0, "lon": -77.03828483333334, "is_disabled": 0, "fusion_lat": 0.0, "lat": 38.911206, "bike_id": "da70fbeb632e7cdd3735c459e92e7264", "fusion_lon": 0.0}, {"rental_uris": {"ios": "https://dc.lft.to/lastmile_qr_scan", "android": "https://dc.lft.to/lastmile_qr_scan"}, "type": "electric_scooter", "name": "5f0626de736ecdbe4e7955ef08f6a0d3", "is_reserved": 0, "lon": -76.948681, "is_disabled": 0, "fusion_lat": 0.0, "lat": 38.894859, "bike_id": "5f0626de736ecdbe4e7955ef08f6a0d3", "fusion_lon": 0.0}, {"rental_uris": {"ios": "https://dc.lft.to/lastmile_qr_scan", "android": "https://dc.lft.to/lastmile_qr_scan"}, "type": "electric_scooter", "name": "3fddae71375127ff4800d790a7a43d41", "is_reserved": 0, "lon": -76.9264185, "is_disabled": 0, "fusion_lat": 0.0, "lat": 38.88369816666667, "bike_id": "3fddae71375127ff4800d790a7a43d41", "fusion_lon": 0.0}, {"rental_uris": {"ios": "https://dc.lft.to/lastmile_qr_scan", "android": "https://dc.lft.to/lastmile_qr_scan"}, "type": "electric_scooter", "name": "c56e23b39e3df3a96aa2c4c7b822d398", "is_reserved": 0, "lon": -77.03322183333333, "is_disabled": 0, "fusion_lat": 0.0, "lat": 38.887798833333335, "bike_id": "c56e23b39e3df3a96aa2c4c7b822d398", "fusion_lon": 0.0}, {"rental_uris": {"ios": "https://dc.lft.to/lastmile_qr_scan", "android": "https://dc.lft.to/lastmile_qr_scan"}, "type": "electric_scooter", "name": "8ec0372a8678a467945d45830bf43cfb", "is_reserved": 0, "lon": -76.98536433333334, "is_disabled": 0, "fusion_lat": 0.0, "lat": 38.912854833333334, "bike_id": "8ec0372a8678a467945d45830bf43cfb", "fusion_lon": 0.0}, {"rental_uris": {"ios": "https://dc.lft.to/lastmile_qr_scan", "android": "https://dc.lft.to/lastmile_qr_scan"}, "type": "electric_scooter", "name": "f6dcd285795c1071e69211427caf6b04", "is_reserved": 0, "lon": -77.0060305, "is_disabled": 0, "fusion_lat": 0.0, "lat": 38.875691833333335, "bike_id": "f6dcd285795c1071e69211427caf6b04", "fusion_lon": 0.0}, {"rental_uris": {"ios": "https://dc.lft.to/lastmile_qr_scan", "android": "https://dc.lft.to/lastmile_qr_scan"}, "type": "electric_scooter", "name": "7de561b5b259a9fab8fd4bfd41b422fb", "is_reserved": 0, "lon": -77.0453545, "is_disabled": 0, "fusion_lat": 0.0, "lat": 38.91324216666667, "bike_id": "7de561b5b259a9fab8fd4bfd41b422fb", "fusion_lon": 0.0}, {"rental_uris": {"ios": "https://dc.lft.to/lastmile_qr_scan", "android": "https://dc.lft.to/lastmile_qr_scan"}, "type": "electric_scooter", "name": "81d57f932c70220d6fa8089cd03d2db8", "is_reserved": 0, "lon": -76.98886733333333, "is_disabled": 0, "fusion_lat": 0.0, "lat": 38.899577, "bike_id": "81d57f932c70220d6fa8089cd03d2db8", "fusion_lon": 0.0}, {"rental_uris": {"ios": "https://dc.lft.to/lastmile_qr_scan", "android": "https://dc.lft.to/lastmile_qr_scan"}, "type": "electric_scooter", "name": "b24f7d1393aa62ba0b8605b0c5bf44d8", "is_reserved": 0, "lon": -77.02211666666666, "is_disabled": 0, "fusion_lat": 0.0, "lat": 38.91417783333333, "bike_id": "b24f7d1393aa62ba0b8605b0c5bf44d8", "fusion_lon": 0.0}, {"rental_uris": {"ios": "https://dc.lft.to/lastmile_qr_scan", "android": "https://dc.lft.to/lastmile_qr_scan"}, "type": "electric_scooter", "name": "10d5179d7476b3a268d0a2f09e5fba9a", "is_reserved": 0, "lon": -77.04147333333333, "is_disabled": 0, "fusion_lat": 0.0, "lat": 38.901351166666664, "bike_id": "10d5179d7476b3a268d0a2f09e5fba9a", "fusion_lon": 0.0}, {"rental_uris": {"ios": "https://dc.lft.to/lastmile_qr_scan", "android": "https://dc.lft.to/lastmile_qr_scan"}, "type": "electric_scooter", "name": "a0798747b5318522b6f25fc0b721ca35", "is_reserved": 0, "lon": -77.0435065, "is_disabled": 0, "fusion_lat": 0.0, "lat": 38.921700666666666, "bike_id": "a0798747b5318522b6f25fc0b721ca35", "fusion_lon": 0.0}, {"rental_uris": {"ios": "https://dc.lft.to/lastmile_qr_scan", "android": "https://dc.lft.to/lastmile_qr_scan"}, "type": "electric_scooter", "name": "0a60599d8a0e2b8d659288a8457b4b8c", "is_reserved": 0, "lon": -77.013243, "is_disabled": 0, "fusion_lat": 0.0, "lat": 38.920250833333334, "bike_id": "0a60599d8a0e2b8d659288a8457b4b8c", "fusion_lon": 0.0}, {"rental_uris": {"ios": "https://dc.lft.to/lastmile_qr_scan", "android": "https://dc.lft.to/lastmile_qr_scan"}, "type": "electric_scooter", "name": "4b1f197a0459c13c4c0cc3860170d6a5", "is_reserved": 0, "lon": -76.99105283333333, "is_disabled": 0, "fusion_lat": 0.0, "lat": 38.85724416666667, "bike_id": "4b1f197a0459c13c4c0cc3860170d6a5", "fusion_lon": 0.0}, {"rental_uris": {"ios": "https://dc.lft.to/lastmile_qr_scan", "android": "https://dc.lft.to/lastmile_qr_scan"}, "type": "electric_scooter", "name": "219609445c3279a6151955911e3ef344", "is_reserved": 0, "lon": -77.04342166666666, "is_disabled": 0, "fusion_lat": 0.0, "lat": 38.90319366666667, "bike_id": "219609445c3279a6151955911e3ef344", "fusion_lon": 0.0}, {"rental_uris": {"ios": "https://dc.lft.to/lastmile_qr_scan", "android": "https://dc.lft.to/lastmile_qr_scan"}, "type": "electric_scooter", "name": "de510d48da3195924ec584d9ab41dffb", "is_reserved": 0, "lon": -77.0155285, "is_disabled": 0, "fusion_lat": 0.0, "lat": 38.9026655, "bike_id": "de510d48da3195924ec584d9ab41dffb", "fusion_lon": 0.0}, {"rental_uris": {"ios": "https://dc.lft.to/lastmile_qr_scan", "android": "https://dc.lft.to/lastmile_qr_scan"}, "type": "electric_scooter", "name": "24434e49802e40aa01e8f4f557b7cd1b", "is_reserved": 0, "lon": -77.04157666666667, "is_disabled": 0, "fusion_lat": 0.0, "lat": 38.914202333333336, "bike_id": "24434e49802e40aa01e8f4f557b7cd1b", "fusion_lon": 0.0}, {"rental_uris": {"ios": "https://dc.lft.to/lastmile_qr_scan", "android": "https://dc.lft.to/lastmile_qr_scan"}, "type": "electric_scooter", "name": "fa138e842999dd6dd0578f8da7893c30", "is_reserved": 0, "lon": -77.042248, "is_disabled": 0, "fusion_lat": 0.0, "lat": 38.9218315, "bike_id": "fa138e842999dd6dd0578f8da7893c30", "fusion_lon": 0.0}, {"rental_uris": {"ios": "https://dc.lft.to/lastmile_qr_scan", "android": "https://dc.lft.to/lastmile_qr_scan"}, "type": "electric_scooter", "name": "b4f033a1ac7b712ab4086ad14e9af046", "is_reserved": 0, "lon": -77.017574, "is_disabled": 0, "fusion_lat": 0.0, "lat": 38.876869, "bike_id": "b4f033a1ac7b712ab4086ad14e9af046", "fusion_lon": 0.0}, {"rental_uris": {"ios": "https://dc.lft.to/lastmile_qr_scan", "android": "https://dc.lft.to/lastmile_qr_scan"}, "type": "electric_scooter", "name": "8bd22664ebe09f27668e95e7f67a9f06", "is_reserved": 0, "lon": -77.0532935, "is_disabled": 0, "fusion_lat": 0.0, "lat": 38.90229216666667, "bike_id": "8bd22664ebe09f27668e95e7f67a9f06", "fusion_lon": 0.0}, {"rental_uris": {"ios": "https://dc.lft.to/lastmile_qr_scan", "android": "https://dc.lft.to/lastmile_qr_scan"}, "type": "electric_scooter", "name": "2ee69f0f7e3f3c43220e7466a532ce6f", "is_reserved": 0, "lon": -77.02790633333333, "is_disabled": 0, "fusion_lat": 0.0, "lat": 38.95606883333333, "bike_id": "2ee69f0f7e3f3c43220e7466a532ce6f", "fusion_lon": 0.0}, {"rental_uris": {"ios": "https://dc.lft.to/lastmile_qr_scan", "android": "https://dc.lft.to/lastmile_qr_scan"}, "type": "electric_scooter", "name": "52119e19903dcb148777b94df67ae1b2", "is_reserved": 0, "lon": -77.022468, "is_disabled": 0, "fusion_lat": 0.0, "lat": 38.924016, "bike_id": "52119e19903dcb148777b94df67ae1b2", "fusion_lon": 0.0}, {"rental_uris": {"ios": "https://dc.lft.to/lastmile_qr_scan", "android": "https://dc.lft.to/lastmile_qr_scan"}, "type": "electric_scooter", "name": "6ce7f1379663452096c67747e2bf7fed", "is_reserved": 0, "lon": -77.00792166666666, "is_disabled": 0, "fusion_lat": 0.0, "lat": 38.87853533333333, "bike_id": "6ce7f1379663452096c67747e2bf7fed", "fusion_lon": 0.0}, {"rental_uris": {"ios": "https://dc.lft.to/lastmile_qr_scan", "android": "https://dc.lft.to/lastmile_qr_scan"}, "type": "electric_scooter", "name": "1a8f2ee1bd573b6d6b996f27a4a4430e", "is_reserved": 0, "lon": -77.03468316666667, "is_disabled": 0, "fusion_lat": 0.0, "lat": 38.9110435, "bike_id": "1a8f2ee1bd573b6d6b996f27a4a4430e", "fusion_lon": 0.0}, {"rental_uris": {"ios": "https://dc.lft.to/lastmile_qr_scan", "android": "https://dc.lft.to/lastmile_qr_scan"}, "type": "electric_scooter", "name": "db6eb2939685d78cf93fa841008e18f8", "is_reserved": 0, "lon": -76.97040333333334, "is_disabled": 0, "fusion_lat": 0.0, "lat": 38.8732145, "bike_id": "db6eb2939685d78cf93fa841008e18f8", "fusion_lon": 0.0}, {"rental_uris": {"ios": "https://dc.lft.to/lastmile_qr_scan", "android": "https://dc.lft.to/lastmile_qr_scan"}, "type": "electric_scooter", "name": "8e149b6a9eb36a2d6a0e82f59fb725fc", "is_reserved": 0, "lon": -77.0272235, "is_disabled": 0, "fusion_lat": 0.0, "lat": 38.9101535, "bike_id": "8e149b6a9eb36a2d6a0e82f59fb725fc", "fusion_lon": 0.0}, {"rental_uris": {"ios": "https://dc.lft.to/lastmile_qr_scan", "android": "https://dc.lft.to/lastmile_qr_scan"}, "type": "electric_scooter", "name": "666afcccaad4e0b53b9e3b9fbcf3a05a", "is_reserved": 0, "lon": -77.00873833333333, "is_disabled": 0, "fusion_lat": 0.0, "lat": 38.915494833333334, "bike_id": "666afcccaad4e0b53b9e3b9fbcf3a05a", "fusion_lon": 0.0}, {"rental_uris": {"ios": "https://dc.lft.to/lastmile_qr_scan", "android": "https://dc.lft.to/lastmile_qr_scan"}, "type": "electric_scooter", "name": "f488b911ef8e97b5c8d6754dae9bbc8d", "is_reserved": 0, "lon": -77.03852533333334, "is_disabled": 0, "fusion_lat": 0.0, "lat": 38.908629833333336, "bike_id": "f488b911ef8e97b5c8d6754dae9bbc8d", "fusion_lon": 0.0}, {"rental_uris": {"ios": "https://dc.lft.to/lastmile_qr_scan", "android": "https://dc.lft.to/lastmile_qr_scan"}, "type": "electric_scooter", "name": "9466c21d25508fc23877060c78377c7a", "is_reserved": 0, "lon": -77.02898133333333, "is_disabled": 0, "fusion_lat": 0.0, "lat": 38.9404345, "bike_id": "9466c21d25508fc23877060c78377c7a", "fusion_lon": 0.0}, {"rental_uris": {"ios": "https://dc.lft.to/lastmile_qr_scan", "android": "https://dc.lft.to/lastmile_qr_scan"}, "type": "electric_scooter", "name": "dfafea3a4757481e63f427f4197e81f7", "is_reserved": 0, "lon": -77.0486375, "is_disabled": 0, "fusion_lat": 0.0, "lat": 38.8922295, "bike_id": "dfafea3a4757481e63f427f4197e81f7", "fusion_lon": 0.0}, {"rental_uris": {"ios": "https://dc.lft.to/lastmile_qr_scan", "android": "https://dc.lft.to/lastmile_qr_scan"}, "type": "electric_scooter", "name": "6e1a5b84fd07eb0a907678435acdd2f7", "is_reserved": 0, "lon": -77.03537566666667, "is_disabled": 0, "fusion_lat": 0.0, "lat": 38.92392733333333, "bike_id": "6e1a5b84fd07eb0a907678435acdd2f7", "fusion_lon": 0.0}, {"rental_uris": {"ios": "https://dc.lft.to/lastmile_qr_scan", "android": "https://dc.lft.to/lastmile_qr_scan"}, "type": "electric_bike", "name": "bf1112c4fd316e36277f1cdfd4233014", "is_reserved": 0, "lon": -77.06695033333334, "is_disabled": 0, "fusion_lat": 0.0, "lat": 38.831712, "bike_id": "bf1112c4fd316e36277f1cdfd4233014", "fusion_lon": 0.0}, {"rental_uris": {"ios": "https://dc.lft.to/lastmile_qr_scan", "android": "https://dc.lft.to/lastmile_qr_scan"}, "type": "electric_scooter", "name": "a974b7f7e6a6ca8ad820f4382204e022", "is_reserved": 0, "lon": -77.0186605, "is_disabled": 0, "fusion_lat": 0.0, "lat": 38.930535, "bike_id": "a974b7f7e6a6ca8ad820f4382204e022", "fusion_lon": 0.0}, {"rental_uris": {"ios": "https://dc.lft.to/lastmile_qr_scan", "android": "https://dc.lft.to/lastmile_qr_scan"}, "type": "electric_scooter", "name": "c9013004af7172bd26f8bded6dbd4a80", "is_reserved": 0, "lon": -77.03236316666667, "is_disabled": 0, "fusion_lat": 0.0, "lat": 38.9156525, "bike_id": "c9013004af7172bd26f8bded6dbd4a80", "fusion_lon": 0.0}, {"rental_uris": {"ios": "https://dc.lft.to/lastmile_qr_scan", "android": "https://dc.lft.to/lastmile_qr_scan"}, "type": "electric_bike", "name": "272aa6733dadebe6e700a5184fb5ad41", "is_reserved": 0, "lon": -76.90738083333333, "is_disabled": 0, "fusion_lat": 0.0, "lat": 38.89617116666667, "bike_id": "272aa6733dadebe6e700a5184fb5ad41", "fusion_lon": 0.0}, {"rental_uris": {"ios": "https://dc.lft.to/lastmile_qr_scan", "android": "https://dc.lft.to/lastmile_qr_scan"}, "type": "electric_scooter", "name": "03227b264424cce3ed71ee870437067d", "is_reserved": 0, "lon": -77.05762183333333, "is_disabled": 0, "fusion_lat": 0.0, "lat": 38.925053166666665, "bike_id": "03227b264424cce3ed71ee870437067d", "fusion_lon": 0.0}, {"rental_uris": {"ios": "https://dc.lft.to/lastmile_qr_scan", "android": "https://dc.lft.to/lastmile_qr_scan"}, "type": "electric_scooter", "name": "273102bec0054d54ffa4ea2df972b3e8", "is_reserved": 0, "lon": -77.02014316666667, "is_disabled": 0, "fusion_lat": 0.0, "lat": 38.91113516666667, "bike_id": "273102bec0054d54ffa4ea2df972b3e8", "fusion_lon": 0.0}, {"rental_uris": {"ios": "https://dc.lft.to/lastmile_qr_scan", "android": "https://dc.lft.to/lastmile_qr_scan"}, "type": "electric_scooter", "name": "b4c63a284b2ac67dcb85dd405aca573a", "is_reserved": 0, "lon": -77.007417, "is_disabled": 0, "fusion_lat": 0.0, "lat": 38.878205333333334, "bike_id": "b4c63a284b2ac67dcb85dd405aca573a", "fusion_lon": 0.0}, {"rental_uris": {"ios": "https://dc.lft.to/lastmile_qr_scan", "android": "https://dc.lft.to/lastmile_qr_scan"}, "type": "electric_scooter", "name": "c5837e3fd2fa18601ace84be4099b92a", "is_reserved": 0, "lon": -77.0074865, "is_disabled": 0, "fusion_lat": 0.0, "lat": 38.899107666666666, "bike_id": "c5837e3fd2fa18601ace84be4099b92a", "fusion_lon": 0.0}, {"rental_uris": {"ios": "https://dc.lft.to/lastmile_qr_scan", "android": "https://dc.lft.to/lastmile_qr_scan"}, "type": "electric_bike", "name": "89a3d3902a5b51ee84d4cbee8eb937be", "is_reserved": 0, "lon": -76.9954495, "is_disabled": 0, "fusion_lat": 0.0, "lat": 38.86216, "bike_id": "89a3d3902a5b51ee84d4cbee8eb937be", "fusion_lon": 0.0}, {"rental_uris": {"ios": "https://dc.lft.to/lastmile_qr_scan", "android": "https://dc.lft.to/lastmile_qr_scan"}, "type": "electric_scooter", "name": "97337c7a9ed5ee8edf885586435a0f5c", "is_reserved": 0, "lon": -77.03022433333334, "is_disabled": 0, "fusion_lat": 0.0, "lat": 38.8784905, "bike_id": "97337c7a9ed5ee8edf885586435a0f5c", "fusion_lon": 0.0}, {"rental_uris": {"ios": "https://dc.lft.to/lastmile_qr_scan", "android": "https://dc.lft.to/lastmile_qr_scan"}, "type": "electric_scooter", "name": "c854d7509387a7cb34fa7584e7e95f94", "is_reserved": 0, "lon": -77.031513, "is_disabled": 0, "fusion_lat": 0.0, "lat": 38.8875275, "bike_id": "c854d7509387a7cb34fa7584e7e95f94", "fusion_lon": 0.0}, {"rental_uris": {"ios": "https://dc.lft.to/lastmile_qr_scan", "android": "https://dc.lft.to/lastmile_qr_scan"}, "type": "electric_bike", "name": "1eb20ca6f465341917b65944e09f281c", "is_reserved": 0, "lon": -77.04505216666666, "is_disabled": 0, "fusion_lat": 0.0, "lat": 38.897128, "bike_id": "1eb20ca6f465341917b65944e09f281c", "fusion_lon": 0.0}, {"rental_uris": {"ios": "https://dc.lft.to/lastmile_qr_scan", "android": "https://dc.lft.to/lastmile_qr_scan"}, "type": "electric_scooter", "name": "b970fb5bf26f3f508477b88d5bc9a6eb", "is_reserved": 0, "lon": -77.03859816666667, "is_disabled": 0, "fusion_lat": 0.0, "lat": 38.911924666666664, "bike_id": "b970fb5bf26f3f508477b88d5bc9a6eb", "fusion_lon": 0.0}, {"rental_uris": {"ios": "https://dc.lft.to/lastmile_qr_scan", "android": "https://dc.lft.to/lastmile_qr_scan"}, "type": "electric_scooter", "name": "3e24243dbb59c34e7cb41e085e3f474a", "is_reserved": 0, "lon": -77.024744, "is_disabled": 0, "fusion_lat": 0.0, "lat": 38.916934833333336, "bike_id": "3e24243dbb59c34e7cb41e085e3f474a", "fusion_lon": 0.0}, {"rental_uris": {"ios": "https://dc.lft.to/lastmile_qr_scan", "android": "https://dc.lft.to/lastmile_qr_scan"}, "type": "electric_scooter", "name": "5fd4ca13e3510064849fcea263735dfd", "is_reserved": 0, "lon": -77.04647816666666, "is_disabled": 0, "fusion_lat": 0.0, "lat": 38.900670166666664, "bike_id": "5fd4ca13e3510064849fcea263735dfd", "fusion_lon": 0.0}, {"rental_uris": {"ios": "https://dc.lft.to/lastmile_qr_scan", "android": "https://dc.lft.to/lastmile_qr_scan"}, "type": "electric_scooter", "name": "e0a256b17d746f290afd50755ef0ac8b", "is_reserved": 0, "lon": -77.0020585, "is_disabled": 0, "fusion_lat": 0.0, "lat": 38.901632166666666, "bike_id": "e0a256b17d746f290afd50755ef0ac8b", "fusion_lon": 0.0}, {"rental_uris": {"ios": "https://dc.lft.to/lastmile_qr_scan", "android": "https://dc.lft.to/lastmile_qr_scan"}, "type": "electric_scooter", "name": "310a0cdcdb69697eabfbe749ba873046", "is_reserved": 0, "lon": -77.03981933333333, "is_disabled": 0, "fusion_lat": 0.0, "lat": 38.909727833333335, "bike_id": "310a0cdcdb69697eabfbe749ba873046", "fusion_lon": 0.0}, {"rental_uris": {"ios": "https://dc.lft.to/lastmile_qr_scan", "android": "https://dc.lft.to/lastmile_qr_scan"}, "type": "electric_scooter", "name": "e0a9395d02ee51c7de06875ea20bab6d", "is_reserved": 0, "lon": -77.0681535, "is_disabled": 0, "fusion_lat": 0.0, "lat": 38.95212166666666, "bike_id": "e0a9395d02ee51c7de06875ea20bab6d", "fusion_lon": 0.0}, {"rental_uris": {"ios": "https://dc.lft.to/lastmile_qr_scan", "android": "https://dc.lft.to/lastmile_qr_scan"}, "type": "electric_scooter", "name": "2db893b35cf875b9e9197e6c2d2a1f88", "is_reserved": 0, "lon": -77.0074575, "is_disabled": 0, "fusion_lat": 0.0, "lat": 38.878373833333335, "bike_id": "2db893b35cf875b9e9197e6c2d2a1f88", "fusion_lon": 0.0}, {"rental_uris": {"ios": "https://dc.lft.to/lastmile_qr_scan", "android": "https://dc.lft.to/lastmile_qr_scan"}, "type": "electric_scooter", "name": "88680ad30553733bfe58ecaac6c8c088", "is_reserved": 0, "lon": -77.05861483333334, "is_disabled": 0, "fusion_lat": 0.0, "lat": 38.9042815, "bike_id": "88680ad30553733bfe58ecaac6c8c088", "fusion_lon": 0.0}, {"rental_uris": {"ios": "https://dc.lft.to/lastmile_qr_scan", "android": "https://dc.lft.to/lastmile_qr_scan"}, "type": "electric_scooter", "name": "895c01456e966987c5da9023cd9e06e1", "is_reserved": 0, "lon": -77.01101816666667, "is_disabled": 0, "fusion_lat": 0.0, "lat": 38.8853975, "bike_id": "895c01456e966987c5da9023cd9e06e1", "fusion_lon": 0.0}, {"rental_uris": {"ios": "https://dc.lft.to/lastmile_qr_scan", "android": "https://dc.lft.to/lastmile_qr_scan"}, "type": "electric_bike", "name": "46fa49ef76473db0a3623d3600a6cfe3", "is_reserved": 0, "lon": -76.96105833333333, "is_disabled": 0, "fusion_lat": 0.0, "lat": 38.949691666666666, "bike_id": "46fa49ef76473db0a3623d3600a6cfe3", "fusion_lon": 0.0}, {"rental_uris": {"ios": "https://dc.lft.to/lastmile_qr_scan", "android": "https://dc.lft.to/lastmile_qr_scan"}, "type": "electric_scooter", "name": "77a57745c8b10e8d58286d24ee36bf94", "is_reserved": 0, "lon": -76.99035333333333, "is_disabled": 0, "fusion_lat": 0.0, "lat": 38.902747, "bike_id": "77a57745c8b10e8d58286d24ee36bf94", "fusion_lon": 0.0}, {"rental_uris": {"ios": "https://dc.lft.to/lastmile_qr_scan", "android": "https://dc.lft.to/lastmile_qr_scan"}, "type": "electric_bike", "name": "96c98cf938d4fec1a39c9c925cb155c6", "is_reserved": 0, "lon": -76.98094783333333, "is_disabled": 0, "fusion_lat": 0.0, "lat": 38.953557333333336, "bike_id": "96c98cf938d4fec1a39c9c925cb155c6", "fusion_lon": 0.0}, {"rental_uris": {"ios": "https://dc.lft.to/lastmile_qr_scan", "android": "https://dc.lft.to/lastmile_qr_scan"}, "type": "electric_scooter", "name": "6549b4bc484b5c6a3a68c3a8c4175b87", "is_reserved": 0, "lon": -77.0089525, "is_disabled": 0, "fusion_lat": 0.0, "lat": 38.89866166666667, "bike_id": "6549b4bc484b5c6a3a68c3a8c4175b87", "fusion_lon": 0.0}, {"rental_uris": {"ios": "https://dc.lft.to/lastmile_qr_scan", "android": "https://dc.lft.to/lastmile_qr_scan"}, "type": "electric_scooter", "name": "705d2305348f08289944aeb690ddf516", "is_reserved": 0, "lon": -77.05786333333333, "is_disabled": 0, "fusion_lat": 0.0, "lat": 38.9051995, "bike_id": "705d2305348f08289944aeb690ddf516", "fusion_lon": 0.0}, {"rental_uris": {"ios": "https://dc.lft.to/lastmile_qr_scan", "android": "https://dc.lft.to/lastmile_qr_scan"}, "type": "electric_scooter", "name": "3bcd4c86223598e985a3e895eca031f2", "is_reserved": 0, "lon": -77.03168733333334, "is_disabled": 0, "fusion_lat": 0.0, "lat": 38.918266333333335, "bike_id": "3bcd4c86223598e985a3e895eca031f2", "fusion_lon": 0.0}, {"rental_uris": {"ios": "https://dc.lft.to/lastmile_qr_scan", "android": "https://dc.lft.to/lastmile_qr_scan"}, "type": "electric_scooter", "name": "109b16e16a7dcb86dfdf011522caf7a2", "is_reserved": 0, "lon": -76.99637783333333, "is_disabled": 0, "fusion_lat": 0.0, "lat": 38.887657833333336, "bike_id": "109b16e16a7dcb86dfdf011522caf7a2", "fusion_lon": 0.0}, {"rental_uris": {"ios": "https://dc.lft.to/lastmile_qr_scan", "android": "https://dc.lft.to/lastmile_qr_scan"}, "type": "electric_scooter", "name": "ab54bb14b21350b27c2b2e5cc9a9b73a", "is_reserved": 0, "lon": -77.032593, "is_disabled": 0, "fusion_lat": 0.0, "lat": 38.935215666666664, "bike_id": "ab54bb14b21350b27c2b2e5cc9a9b73a", "fusion_lon": 0.0}, {"rental_uris": {"ios": "https://dc.lft.to/lastmile_qr_scan", "android": "https://dc.lft.to/lastmile_qr_scan"}, "type": "electric_scooter", "name": "dead1b79846e56370fcccce07d19d35d", "is_reserved": 0, "lon": -77.02649533333333, "is_disabled": 0, "fusion_lat": 0.0, "lat": 38.92674866666667, "bike_id": "dead1b79846e56370fcccce07d19d35d", "fusion_lon": 0.0}, {"rental_uris": {"ios": "https://dc.lft.to/lastmile_qr_scan", "android": "https://dc.lft.to/lastmile_qr_scan"}, "type": "electric_scooter", "name": "42861046930763081e2570aa11b5aef0", "is_reserved": 0, "lon": -77.047384, "is_disabled": 0, "fusion_lat": 0.0, "lat": 38.90865983333333, "bike_id": "42861046930763081e2570aa11b5aef0", "fusion_lon": 0.0}, {"rental_uris": {"ios": "https://dc.lft.to/lastmile_qr_scan", "android": "https://dc.lft.to/lastmile_qr_scan"}, "type": "electric_scooter", "name": "3264ac1af71fcb7cc51ec47ead3d9a31", "is_reserved": 0, "lon": -77.02153516666667, "is_disabled": 0, "fusion_lat": 0.0, "lat": 38.88741983333333, "bike_id": "3264ac1af71fcb7cc51ec47ead3d9a31", "fusion_lon": 0.0}, {"rental_uris": {"ios": "https://dc.lft.to/lastmile_qr_scan", "android": "https://dc.lft.to/lastmile_qr_scan"}, "type": "electric_bike", "name": "ae8c6e050fa70090182ddbd09d8858aa", "is_reserved": 0, "lon": -76.99546783333334, "is_disabled": 0, "fusion_lat": 0.0, "lat": 38.8316205, "bike_id": "ae8c6e050fa70090182ddbd09d8858aa", "fusion_lon": 0.0}, {"rental_uris": {"ios": "https://dc.lft.to/lastmile_qr_scan", "android": "https://dc.lft.to/lastmile_qr_scan"}, "type": "electric_scooter", "name": "152ed31b8991aff916a8cc5148cdce4c", "is_reserved": 0, "lon": -76.97936583333333, "is_disabled": 0, "fusion_lat": 0.0, "lat": 38.906619666666664, "bike_id": "152ed31b8991aff916a8cc5148cdce4c", "fusion_lon": 0.0}, {"rental_uris": {"ios": "https://dc.lft.to/lastmile_qr_scan", "android": "https://dc.lft.to/lastmile_qr_scan"}, "type": "electric_scooter", "name": "a101c4aa20e43ea7c6a3f173485a167a", "is_reserved": 0, "lon": -77.022168, "is_disabled": 0, "fusion_lat": 0.0, "lat": 38.896235, "bike_id": "a101c4aa20e43ea7c6a3f173485a167a", "fusion_lon": 0.0}, {"rental_uris": {"ios": "https://dc.lft.to/lastmile_qr_scan", "android": "https://dc.lft.to/lastmile_qr_scan"}, "type": "electric_scooter", "name": "328b5015dd12b1a62b965d99893e01d0", "is_reserved": 0, "lon": -77.009045, "is_disabled": 0, "fusion_lat": 0.0, "lat": 38.876599666666664, "bike_id": "328b5015dd12b1a62b965d99893e01d0", "fusion_lon": 0.0}, {"rental_uris": {"ios": "https://dc.lft.to/lastmile_qr_scan", "android": "https://dc.lft.to/lastmile_qr_scan"}, "type": "electric_scooter", "name": "133193f30412d81dcb1ba55056fb448d", "is_reserved": 0, "lon": -77.0191465, "is_disabled": 0, "fusion_lat": 0.0, "lat": 38.9056075, "bike_id": "133193f30412d81dcb1ba55056fb448d", "fusion_lon": 0.0}, {"rental_uris": {"ios": "https://dc.lft.to/lastmile_qr_scan", "android": "https://dc.lft.to/lastmile_qr_scan"}, "type": "electric_scooter", "name": "535f360bdc5f26ade5a08589f2628094", "is_reserved": 0, "lon": -77.04287516666666, "is_disabled": 0, "fusion_lat": 0.0, "lat": 38.92279933333333, "bike_id": "535f360bdc5f26ade5a08589f2628094", "fusion_lon": 0.0}, {"rental_uris": {"ios": "https://dc.lft.to/lastmile_qr_scan", "android": "https://dc.lft.to/lastmile_qr_scan"}, "type": "electric_bike", "name": "f77b66274015d62c19c1f004249382a8", "is_reserved": 0, "lon": -77.221818, "is_disabled": 0, "fusion_lat": 0.0, "lat": 38.871747666666664, "bike_id": "f77b66274015d62c19c1f004249382a8", "fusion_lon": 0.0}, {"rental_uris": {"ios": "https://dc.lft.to/lastmile_qr_scan", "android": "https://dc.lft.to/lastmile_qr_scan"}, "type": "electric_scooter", "name": "e03b8b6fa2e4dc37148c4f70e4d379f1", "is_reserved": 0, "lon": -77.03434733333333, "is_disabled": 0, "fusion_lat": 0.0, "lat": 38.91809116666667, "bike_id": "e03b8b6fa2e4dc37148c4f70e4d379f1", "fusion_lon": 0.0}, {"rental_uris": {"ios": "https://dc.lft.to/lastmile_qr_scan", "android": "https://dc.lft.to/lastmile_qr_scan"}, "type": "electric_scooter", "name": "6439cc4a853f62c48f847609877257f4", "is_reserved": 0, "lon": -77.02556866666667, "is_disabled": 0, "fusion_lat": 0.0, "lat": 38.92037066666666, "bike_id": "6439cc4a853f62c48f847609877257f4", "fusion_lon": 0.0}, {"rental_uris": {"ios": "https://dc.lft.to/lastmile_qr_scan", "android": "https://dc.lft.to/lastmile_qr_scan"}, "type": "electric_scooter", "name": "e400e2177336ce7e4c3d122b1400cbbb", "is_reserved": 0, "lon": -77.02177383333333, "is_disabled": 0, "fusion_lat": 0.0, "lat": 38.91988933333333, "bike_id": "e400e2177336ce7e4c3d122b1400cbbb", "fusion_lon": 0.0}, {"rental_uris": {"ios": "https://dc.lft.to/lastmile_qr_scan", "android": "https://dc.lft.to/lastmile_qr_scan"}, "type": "electric_scooter", "name": "be87a8a631b5ffe0cbd40fd395792f9a", "is_reserved": 0, "lon": -77.00363916666667, "is_disabled": 0, "fusion_lat": 0.0, "lat": 38.915521166666664, "bike_id": "be87a8a631b5ffe0cbd40fd395792f9a", "fusion_lon": 0.0}, {"rental_uris": {"ios": "https://dc.lft.to/lastmile_qr_scan", "android": "https://dc.lft.to/lastmile_qr_scan"}, "type": "electric_scooter", "name": "235bcf146f82c48314bd4042ac1a2d30", "is_reserved": 0, "lon": -77.0515505, "is_disabled": 0, "fusion_lat": 0.0, "lat": 38.897766, "bike_id": "235bcf146f82c48314bd4042ac1a2d30", "fusion_lon": 0.0}, {"rental_uris": {"ios": "https://dc.lft.to/lastmile_qr_scan", "android": "https://dc.lft.to/lastmile_qr_scan"}, "type": "electric_scooter", "name": "028a76fdbd6e47301256219147a1e2d7", "is_reserved": 0, "lon": -77.03206216666666, "is_disabled": 0, "fusion_lat": 0.0, "lat": 38.914257, "bike_id": "028a76fdbd6e47301256219147a1e2d7", "fusion_lon": 0.0}, {"rental_uris": {"ios": "https://dc.lft.to/lastmile_qr_scan", "android": "https://dc.lft.to/lastmile_qr_scan"}, "type": "electric_bike", "name": "7453b88f4170ebd9ac9f1160f03ee38a", "is_reserved": 0, "lon": -76.976149, "is_disabled": 0, "fusion_lat": 0.0, "lat": 38.89295116666667, "bike_id": "7453b88f4170ebd9ac9f1160f03ee38a", "fusion_lon": 0.0}, {"rental_uris": {"ios": "https://dc.lft.to/lastmile_qr_scan", "android": "https://dc.lft.to/lastmile_qr_scan"}, "type": "electric_scooter", "name": "c61bb51824eda9f2ddc3a9117d32a526", "is_reserved": 0, "lon": -77.0025255, "is_disabled": 0, "fusion_lat": 0.0, "lat": 38.912703666666665, "bike_id": "c61bb51824eda9f2ddc3a9117d32a526", "fusion_lon": 0.0}, {"rental_uris": {"ios": "https://dc.lft.to/lastmile_qr_scan", "android": "https://dc.lft.to/lastmile_qr_scan"}, "type": "electric_scooter", "name": "6b166a4a6c63dbfa1d8ddf229d737c28", "is_reserved": 0, "lon": -77.009294, "is_disabled": 0, "fusion_lat": 0.0, "lat": 38.87116616666667, "bike_id": "6b166a4a6c63dbfa1d8ddf229d737c28", "fusion_lon": 0.0}, {"rental_uris": {"ios": "https://dc.lft.to/lastmile_qr_scan", "android": "https://dc.lft.to/lastmile_qr_scan"}, "type": "electric_scooter", "name": "c272b43142641d53480ea4195b310759", "is_reserved": 0, "lon": -77.01847283333333, "is_disabled": 0, "fusion_lat": 0.0, "lat": 38.949959166666666, "bike_id": "c272b43142641d53480ea4195b310759", "fusion_lon": 0.0}, {"rental_uris": {"ios": "https://dc.lft.to/lastmile_qr_scan", "android": "https://dc.lft.to/lastmile_qr_scan"}, "type": "electric_bike", "name": "3e6fab4c21942664643745239db00a17", "is_reserved": 0, "lon": -76.97854016666666, "is_disabled": 0, "fusion_lat": 0.0, "lat": 38.98380866666667, "bike_id": "3e6fab4c21942664643745239db00a17", "fusion_lon": 0.0}, {"rental_uris": {"ios": "https://dc.lft.to/lastmile_qr_scan", "android": "https://dc.lft.to/lastmile_qr_scan"}, "type": "electric_bike", "name": "5aee1057ddd80d883b9e3171c15759a0", "is_reserved": 0, "lon": -77.08877266666667, "is_disabled": 0, "fusion_lat": 0.0, "lat": 38.93884166666667, "bike_id": "5aee1057ddd80d883b9e3171c15759a0", "fusion_lon": 0.0}, {"rental_uris": {"ios": "https://dc.lft.to/lastmile_qr_scan", "android": "https://dc.lft.to/lastmile_qr_scan"}, "type": "electric_scooter", "name": "8764fe08676bb30c2350671281f53372", "is_reserved": 0, "lon": -76.98698166666667, "is_disabled": 0, "fusion_lat": 0.0, "lat": 38.88842783333333, "bike_id": "8764fe08676bb30c2350671281f53372", "fusion_lon": 0.0}, {"rental_uris": {"ios": "https://dc.lft.to/lastmile_qr_scan", "android": "https://dc.lft.to/lastmile_qr_scan"}, "type": "electric_scooter", "name": "a1d2d413bdc575c662fc7c3e5c391e9f", "is_reserved": 0, "lon": -77.01342933333333, "is_disabled": 0, "fusion_lat": 0.0, "lat": 38.919183833333335, "bike_id": "a1d2d413bdc575c662fc7c3e5c391e9f", "fusion_lon": 0.0}, {"rental_uris": {"ios": "https://dc.lft.to/lastmile_qr_scan", "android": "https://dc.lft.to/lastmile_qr_scan"}, "type": "electric_bike", "name": "69ac3d7e25345ceb6b59ac3c14c45582", "is_reserved": 0, "lon": -77.09955933333333, "is_disabled": 0, "fusion_lat": 0.0, "lat": 38.8578735, "bike_id": "69ac3d7e25345ceb6b59ac3c14c45582", "fusion_lon": 0.0}, {"rental_uris": {"ios": "https://dc.lft.to/lastmile_qr_scan", "android": "https://dc.lft.to/lastmile_qr_scan"}, "type": "electric_scooter", "name": "3ebacae76c701959264b81861d788838", "is_reserved": 0, "lon": -77.00572566666666, "is_disabled": 0, "fusion_lat": 0.0, "lat": 38.87454733333333, "bike_id": "3ebacae76c701959264b81861d788838", "fusion_lon": 0.0}, {"rental_uris": {"ios": "https://dc.lft.to/lastmile_qr_scan", "android": "https://dc.lft.to/lastmile_qr_scan"}, "type": "electric_scooter", "name": "0c6e001d66244cdbb35578e9207e2499", "is_reserved": 0, "lon": -76.97938183333333, "is_disabled": 0, "fusion_lat": 0.0, "lat": 38.91600483333333, "bike_id": "0c6e001d66244cdbb35578e9207e2499", "fusion_lon": 0.0}, {"rental_uris": {"ios": "https://dc.lft.to/lastmile_qr_scan", "android": "https://dc.lft.to/lastmile_qr_scan"}, "type": "electric_scooter", "name": "d1f3d1e171f45552e504e976dafd5650", "is_reserved": 0, "lon": -77.0165555, "is_disabled": 0, "fusion_lat": 0.0, "lat": 38.91333383333333, "bike_id": "d1f3d1e171f45552e504e976dafd5650", "fusion_lon": 0.0}, {"rental_uris": {"ios": "https://dc.lft.to/lastmile_qr_scan", "android": "https://dc.lft.to/lastmile_qr_scan"}, "type": "electric_scooter", "name": "7972812824194fba24e7146a841e3204", "is_reserved": 0, "lon": -77.03951416666666, "is_disabled": 0, "fusion_lat": 0.0, "lat": 38.89738116666667, "bike_id": "7972812824194fba24e7146a841e3204", "fusion_lon": 0.0}, {"rental_uris": {"ios": "https://dc.lft.to/lastmile_qr_scan", "android": "https://dc.lft.to/lastmile_qr_scan"}, "type": "electric_scooter", "name": "6b0c6ac2ea0aca950e0e766d2424e5b5", "is_reserved": 0, "lon": -77.00941316666666, "is_disabled": 0, "fusion_lat": 0.0, "lat": 38.9126315, "bike_id": "6b0c6ac2ea0aca950e0e766d2424e5b5", "fusion_lon": 0.0}, {"rental_uris": {"ios": "https://dc.lft.to/lastmile_qr_scan", "android": "https://dc.lft.to/lastmile_qr_scan"}, "type": "electric_scooter", "name": "d9f6246a44abe6d40d5676a2c54e7c58", "is_reserved": 0, "lon": -77.01209833333333, "is_disabled": 0, "fusion_lat": 0.0, "lat": 38.9182095, "bike_id": "d9f6246a44abe6d40d5676a2c54e7c58", "fusion_lon": 0.0}, {"rental_uris": {"ios": "https://dc.lft.to/lastmile_qr_scan", "android": "https://dc.lft.to/lastmile_qr_scan"}, "type": "electric_scooter", "name": "34fa140309e07eb1eb2d83f5f62d44e0", "is_reserved": 0, "lon": -77.0716555, "is_disabled": 0, "fusion_lat": 0.0, "lat": 38.9077625, "bike_id": "34fa140309e07eb1eb2d83f5f62d44e0", "fusion_lon": 0.0}, {"rental_uris": {"ios": "https://dc.lft.to/lastmile_qr_scan", "android": "https://dc.lft.to/lastmile_qr_scan"}, "type": "electric_scooter", "name": "ad6b15fa374f73cdbba90e353535147f", "is_reserved": 0, "lon": -77.035004, "is_disabled": 0, "fusion_lat": 0.0, "lat": 38.915502000000004, "bike_id": "ad6b15fa374f73cdbba90e353535147f", "fusion_lon": 0.0}, {"rental_uris": {"ios": "https://dc.lft.to/lastmile_qr_scan", "android": "https://dc.lft.to/lastmile_qr_scan"}, "type": "electric_scooter", "name": "4643dd15a3b4f33ca5904f39df96aed9", "is_reserved": 0, "lon": -77.04117433333333, "is_disabled": 0, "fusion_lat": 0.0, "lat": 38.928795666666666, "bike_id": "4643dd15a3b4f33ca5904f39df96aed9", "fusion_lon": 0.0}, {"rental_uris": {"ios": "https://dc.lft.to/lastmile_qr_scan", "android": "https://dc.lft.to/lastmile_qr_scan"}, "type": "electric_scooter", "name": "39c75f81431fe3db3b6e6741738df715", "is_reserved": 0, "lon": -77.05515083333333, "is_disabled": 0, "fusion_lat": 0.0, "lat": 38.928351, "bike_id": "39c75f81431fe3db3b6e6741738df715", "fusion_lon": 0.0}, {"rental_uris": {"ios": "https://dc.lft.to/lastmile_qr_scan", "android": "https://dc.lft.to/lastmile_qr_scan"}, "type": "electric_scooter", "name": "39e7ce5fedcaab089f2078db0739cfee", "is_reserved": 0, "lon": -77.046923, "is_disabled": 0, "fusion_lat": 0.0, "lat": 38.92055783333333, "bike_id": "39e7ce5fedcaab089f2078db0739cfee", "fusion_lon": 0.0}, {"rental_uris": {"ios": "https://dc.lft.to/lastmile_qr_scan", "android": "https://dc.lft.to/lastmile_qr_scan"}, "type": "electric_scooter", "name": "b821177a6bf1e4d7f66a3dd504e779e9", "is_reserved": 0, "lon": -77.02832833333333, "is_disabled": 0, "fusion_lat": 0.0, "lat": 38.9323395, "bike_id": "b821177a6bf1e4d7f66a3dd504e779e9", "fusion_lon": 0.0}, {"rental_uris": {"ios": "https://dc.lft.to/lastmile_qr_scan", "android": "https://dc.lft.to/lastmile_qr_scan"}, "type": "electric_scooter", "name": "2793e464725822e6d8134dbb2eb20132", "is_reserved": 0, "lon": -77.00710233333334, "is_disabled": 0, "fusion_lat": 0.0, "lat": 38.8767345, "bike_id": "2793e464725822e6d8134dbb2eb20132", "fusion_lon": 0.0}, {"rental_uris": {"ios": "https://dc.lft.to/lastmile_qr_scan", "android": "https://dc.lft.to/lastmile_qr_scan"}, "type": "electric_scooter", "name": "78b4b6df7b20d9a5dad9a1d8ff68cf1b", "is_reserved": 0, "lon": -77.0490375, "is_disabled": 0, "fusion_lat": 0.0, "lat": 38.900817833333335, "bike_id": "78b4b6df7b20d9a5dad9a1d8ff68cf1b", "fusion_lon": 0.0}, {"rental_uris": {"ios": "https://dc.lft.to/lastmile_qr_scan", "android": "https://dc.lft.to/lastmile_qr_scan"}, "type": "electric_scooter", "name": "f600581d4b8f63fc0c5ff63eb270bc1a", "is_reserved": 0, "lon": -77.02945566666666, "is_disabled": 0, "fusion_lat": 0.0, "lat": 38.909027333333334, "bike_id": "f600581d4b8f63fc0c5ff63eb270bc1a", "fusion_lon": 0.0}, {"rental_uris": {"ios": "https://dc.lft.to/lastmile_qr_scan", "android": "https://dc.lft.to/lastmile_qr_scan"}, "type": "electric_scooter", "name": "67b66d662c511ae645d906c62d4c2deb", "is_reserved": 0, "lon": -77.059127, "is_disabled": 0, "fusion_lat": 0.0, "lat": 38.905073333333334, "bike_id": "67b66d662c511ae645d906c62d4c2deb", "fusion_lon": 0.0}, {"rental_uris": {"ios": "https://dc.lft.to/lastmile_qr_scan", "android": "https://dc.lft.to/lastmile_qr_scan"}, "type": "electric_bike", "name": "a20c6209ffb7861162a67b4b678aaa7c", "is_reserved": 0, "lon": -77.00418066666667, "is_disabled": 0, "fusion_lat": 0.0, "lat": 38.985311, "bike_id": "a20c6209ffb7861162a67b4b678aaa7c", "fusion_lon": 0.0}, {"rental_uris": {"ios": "https://dc.lft.to/lastmile_qr_scan", "android": "https://dc.lft.to/lastmile_qr_scan"}, "type": "electric_scooter", "name": "6acd7f550a4b2bf5595171f8c66c8c7a", "is_reserved": 0, "lon": -77.00380633333333, "is_disabled": 0, "fusion_lat": 0.0, "lat": 38.87943583333333, "bike_id": "6acd7f550a4b2bf5595171f8c66c8c7a", "fusion_lon": 0.0}, {"rental_uris": {"ios": "https://dc.lft.to/lastmile_qr_scan", "android": "https://dc.lft.to/lastmile_qr_scan"}, "type": "electric_scooter", "name": "cedd4a3fa74a2f1113cea2a336dd7b8e", "is_reserved": 0, "lon": -77.02101716666667, "is_disabled": 0, "fusion_lat": 0.0, "lat": 38.943121833333336, "bike_id": "cedd4a3fa74a2f1113cea2a336dd7b8e", "fusion_lon": 0.0}, {"rental_uris": {"ios": "https://dc.lft.to/lastmile_qr_scan", "android": "https://dc.lft.to/lastmile_qr_scan"}, "type": "electric_scooter", "name": "fcf91bc3f79c53f71bb324f83d802fd7", "is_reserved": 0, "lon": -77.02007066666667, "is_disabled": 0, "fusion_lat": 0.0, "lat": 38.88136933333333, "bike_id": "fcf91bc3f79c53f71bb324f83d802fd7", "fusion_lon": 0.0}, {"rental_uris": {"ios": "https://dc.lft.to/lastmile_qr_scan", "android": "https://dc.lft.to/lastmile_qr_scan"}, "type": "electric_scooter", "name": "c9a7186c5f1856621820379e139ecdbc", "is_reserved": 0, "lon": -77.04656416666667, "is_disabled": 0, "fusion_lat": 0.0, "lat": 38.903871, "bike_id": "c9a7186c5f1856621820379e139ecdbc", "fusion_lon": 0.0}, {"rental_uris": {"ios": "https://dc.lft.to/lastmile_qr_scan", "android": "https://dc.lft.to/lastmile_qr_scan"}, "type": "electric_bike", "name": "f51af114c9142877d71156b9b5c9974c", "is_reserved": 0, "lon": -76.99911733333333, "is_disabled": 0, "fusion_lat": 0.0, "lat": 38.864476833333335, "bike_id": "f51af114c9142877d71156b9b5c9974c", "fusion_lon": 0.0}, {"rental_uris": {"ios": "https://dc.lft.to/lastmile_qr_scan", "android": "https://dc.lft.to/lastmile_qr_scan"}, "type": "electric_scooter", "name": "09720b04617607e63580bad253ceb926", "is_reserved": 0, "lon": -77.04374116666666, "is_disabled": 0, "fusion_lat": 0.0, "lat": 38.935053, "bike_id": "09720b04617607e63580bad253ceb926", "fusion_lon": 0.0}, {"rental_uris": {"ios": "https://dc.lft.to/lastmile_qr_scan", "android": "https://dc.lft.to/lastmile_qr_scan"}, "type": "electric_scooter", "name": "18850631d826b77782b080198f0e74f6", "is_reserved": 0, "lon": -77.03296216666666, "is_disabled": 0, "fusion_lat": 0.0, "lat": 38.917022, "bike_id": "18850631d826b77782b080198f0e74f6", "fusion_lon": 0.0}, {"rental_uris": {"ios": "https://dc.lft.to/lastmile_qr_scan", "android": "https://dc.lft.to/lastmile_qr_scan"}, "type": "electric_scooter", "name": "ce5ff706d01c4597f8da43c9c92c8e52", "is_reserved": 0, "lon": -77.03124166666667, "is_disabled": 0, "fusion_lat": 0.0, "lat": 38.89605783333333, "bike_id": "ce5ff706d01c4597f8da43c9c92c8e52", "fusion_lon": 0.0}, {"rental_uris": {"ios": "https://dc.lft.to/lastmile_qr_scan", "android": "https://dc.lft.to/lastmile_qr_scan"}, "type": "electric_bike", "name": "76d964d11f444abf5b38695c3cb61aa6", "is_reserved": 0, "lon": -77.02279416666667, "is_disabled": 0, "fusion_lat": 0.0, "lat": 38.92696883333333, "bike_id": "76d964d11f444abf5b38695c3cb61aa6", "fusion_lon": 0.0}, {"rental_uris": {"ios": "https://dc.lft.to/lastmile_qr_scan", "android": "https://dc.lft.to/lastmile_qr_scan"}, "type": "electric_scooter", "name": "168e9a0bceec60412a59f4280cfc3e1a", "is_reserved": 0, "lon": -77.00824466666667, "is_disabled": 0, "fusion_lat": 0.0, "lat": 38.91565966666667, "bike_id": "168e9a0bceec60412a59f4280cfc3e1a", "fusion_lon": 0.0}, {"rental_uris": {"ios": "https://dc.lft.to/lastmile_qr_scan", "android": "https://dc.lft.to/lastmile_qr_scan"}, "type": "electric_scooter", "name": "98ec5b0fa5201f823d0f8258ccc2099d", "is_reserved": 0, "lon": -77.0631925, "is_disabled": 0, "fusion_lat": 0.0, "lat": 38.91337633333333, "bike_id": "98ec5b0fa5201f823d0f8258ccc2099d", "fusion_lon": 0.0}, {"rental_uris": {"ios": "https://dc.lft.to/lastmile_qr_scan", "android": "https://dc.lft.to/lastmile_qr_scan"}, "type": "electric_scooter", "name": "d501991eaa445ac09e330e34b47a7fd5", "is_reserved": 0, "lon": -77.02184533333333, "is_disabled": 0, "fusion_lat": 0.0, "lat": 38.929139, "bike_id": "d501991eaa445ac09e330e34b47a7fd5", "fusion_lon": 0.0}, {"rental_uris": {"ios": "https://dc.lft.to/lastmile_qr_scan", "android": "https://dc.lft.to/lastmile_qr_scan"}, "type": "electric_scooter", "name": "dc64964d51dbaf7a943b387948318e5a", "is_reserved": 0, "lon": -77.03074233333334, "is_disabled": 0, "fusion_lat": 0.0, "lat": 38.92394733333333, "bike_id": "dc64964d51dbaf7a943b387948318e5a", "fusion_lon": 0.0}, {"rental_uris": {"ios": "https://dc.lft.to/lastmile_qr_scan", "android": "https://dc.lft.to/lastmile_qr_scan"}, "type": "electric_scooter", "name": "6a71404bf8861eb37c2cde6d3189292a", "is_reserved": 0, "lon": -77.04012466666667, "is_disabled": 0, "fusion_lat": 0.0, "lat": 38.921696833333336, "bike_id": "6a71404bf8861eb37c2cde6d3189292a", "fusion_lon": 0.0}, {"rental_uris": {"ios": "https://dc.lft.to/lastmile_qr_scan", "android": "https://dc.lft.to/lastmile_qr_scan"}, "type": "electric_scooter", "name": "b75e72717fd3f046eb35d8c4511d5682", "is_reserved": 0, "lon": -76.9869345, "is_disabled": 0, "fusion_lat": 0.0, "lat": 38.907014333333336, "bike_id": "b75e72717fd3f046eb35d8c4511d5682", "fusion_lon": 0.0}, {"rental_uris": {"ios": "https://dc.lft.to/lastmile_qr_scan", "android": "https://dc.lft.to/lastmile_qr_scan"}, "type": "electric_scooter", "name": "4ddb4c6939fb4410b2add4167b797882", "is_reserved": 0, "lon": -77.00207566666667, "is_disabled": 0, "fusion_lat": 0.0, "lat": 38.90026483333333, "bike_id": "4ddb4c6939fb4410b2add4167b797882", "fusion_lon": 0.0}, {"rental_uris": {"ios": "https://dc.lft.to/lastmile_qr_scan", "android": "https://dc.lft.to/lastmile_qr_scan"}, "type": "electric_scooter", "name": "bf012409e6279154ce459eb70874627c", "is_reserved": 0, "lon": -77.021635, "is_disabled": 0, "fusion_lat": 0.0, "lat": 38.916172, "bike_id": "bf012409e6279154ce459eb70874627c", "fusion_lon": 0.0}, {"rental_uris": {"ios": "https://dc.lft.to/lastmile_qr_scan", "android": "https://dc.lft.to/lastmile_qr_scan"}, "type": "electric_scooter", "name": "3816f91d2d70d0af19d10c434c2bea4a", "is_reserved": 0, "lon": -77.08777483333333, "is_disabled": 0, "fusion_lat": 0.0, "lat": 38.93556733333333, "bike_id": "3816f91d2d70d0af19d10c434c2bea4a", "fusion_lon": 0.0}, {"rental_uris": {"ios": "https://dc.lft.to/lastmile_qr_scan", "android": "https://dc.lft.to/lastmile_qr_scan"}, "type": "electric_bike", "name": "57f7f69859773a4ca6dae41d9fedf904", "is_reserved": 0, "lon": -77.11282383333334, "is_disabled": 0, "fusion_lat": 0.0, "lat": 38.831051, "bike_id": "57f7f69859773a4ca6dae41d9fedf904", "fusion_lon": 0.0}, {"rental_uris": {"ios": "https://dc.lft.to/lastmile_qr_scan", "android": "https://dc.lft.to/lastmile_qr_scan"}, "type": "electric_scooter", "name": "e81f037ca235c5be737da8f302afa5d1", "is_reserved": 0, "lon": -77.02598566666667, "is_disabled": 0, "fusion_lat": 0.0, "lat": 38.9460465, "bike_id": "e81f037ca235c5be737da8f302afa5d1", "fusion_lon": 0.0}, {"rental_uris": {"ios": "https://dc.lft.to/lastmile_qr_scan", "android": "https://dc.lft.to/lastmile_qr_scan"}, "type": "electric_bike", "name": "121dd21c8545704fa8b45a40038d4f30", "is_reserved": 0, "lon": -77.21662133333334, "is_disabled": 0, "fusion_lat": 0.0, "lat": 38.895073833333335, "bike_id": "121dd21c8545704fa8b45a40038d4f30", "fusion_lon": 0.0}, {"rental_uris": {"ios": "https://dc.lft.to/lastmile_qr_scan", "android": "https://dc.lft.to/lastmile_qr_scan"}, "type": "electric_scooter", "name": "da6695b61232078a4d531b0a3bf2189f", "is_reserved": 0, "lon": -77.05513133333334, "is_disabled": 0, "fusion_lat": 0.0, "lat": 38.9283015, "bike_id": "da6695b61232078a4d531b0a3bf2189f", "fusion_lon": 0.0}, {"rental_uris": {"ios": "https://dc.lft.to/lastmile_qr_scan", "android": "https://dc.lft.to/lastmile_qr_scan"}, "type": "electric_scooter", "name": "73b404e91a9ca3315e07217ccc1e2edd", "is_reserved": 0, "lon": -77.04123166666666, "is_disabled": 0, "fusion_lat": 0.0, "lat": 38.93384833333333, "bike_id": "73b404e91a9ca3315e07217ccc1e2edd", "fusion_lon": 0.0}, {"rental_uris": {"ios": "https://dc.lft.to/lastmile_qr_scan", "android": "https://dc.lft.to/lastmile_qr_scan"}, "type": "electric_scooter", "name": "86c8a2729df33e37615c0a14abdea56a", "is_reserved": 0, "lon": -77.01583583333333, "is_disabled": 0, "fusion_lat": 0.0, "lat": 38.87628516666667, "bike_id": "86c8a2729df33e37615c0a14abdea56a", "fusion_lon": 0.0}, {"rental_uris": {"ios": "https://dc.lft.to/lastmile_qr_scan", "android": "https://dc.lft.to/lastmile_qr_scan"}, "type": "electric_scooter", "name": "c54cabb8d6232bedd7ee57c39f938a5b", "is_reserved": 0, "lon": -77.04079083333333, "is_disabled": 0, "fusion_lat": 0.0, "lat": 38.9053445, "bike_id": "c54cabb8d6232bedd7ee57c39f938a5b", "fusion_lon": 0.0}, {"rental_uris": {"ios": "https://dc.lft.to/lastmile_qr_scan", "android": "https://dc.lft.to/lastmile_qr_scan"}, "type": "electric_bike", "name": "26a15814a1034e3d9c880ff0a72b3ea4", "is_reserved": 0, "lon": -77.06525683333334, "is_disabled": 0, "fusion_lat": 0.0, "lat": 38.992313833333334, "bike_id": "26a15814a1034e3d9c880ff0a72b3ea4", "fusion_lon": 0.0}, {"rental_uris": {"ios": "https://dc.lft.to/lastmile_qr_scan", "android": "https://dc.lft.to/lastmile_qr_scan"}, "type": "electric_bike", "name": "46c7bdb9f51d6b9724c6927041c3301d", "is_reserved": 0, "lon": -77.09724733333333, "is_disabled": 0, "fusion_lat": 0.0, "lat": 38.80740183333333, "bike_id": "46c7bdb9f51d6b9724c6927041c3301d", "fusion_lon": 0.0}, {"rental_uris": {"ios": "https://dc.lft.to/lastmile_qr_scan", "android": "https://dc.lft.to/lastmile_qr_scan"}, "type": "electric_scooter", "name": "cb159cc4be987ee8eecaae2c91f2099c", "is_reserved": 0, "lon": -77.01507633333334, "is_disabled": 0, "fusion_lat": 0.0, "lat": 38.90974833333333, "bike_id": "cb159cc4be987ee8eecaae2c91f2099c", "fusion_lon": 0.0}, {"rental_uris": {"ios": "https://dc.lft.to/lastmile_qr_scan", "android": "https://dc.lft.to/lastmile_qr_scan"}, "type": "electric_bike", "name": "7cac8756ed94e502c58328028ff2454c", "is_reserved": 0, "lon": -77.032437, "is_disabled": 0, "fusion_lat": 0.0, "lat": 38.961597833333336, "bike_id": "7cac8756ed94e502c58328028ff2454c", "fusion_lon": 0.0}, {"rental_uris": {"ios": "https://dc.lft.to/lastmile_qr_scan", "android": "https://dc.lft.to/lastmile_qr_scan"}, "type": "electric_scooter", "name": "9a6b117e2b4c7c57a6d0b2cd394d9a14", "is_reserved": 0, "lon": -76.98153366666666, "is_disabled": 0, "fusion_lat": 0.0, "lat": 38.899386, "bike_id": "9a6b117e2b4c7c57a6d0b2cd394d9a14", "fusion_lon": 0.0}, {"rental_uris": {"ios": "https://dc.lft.to/lastmile_qr_scan", "android": "https://dc.lft.to/lastmile_qr_scan"}, "type": "electric_scooter", "name": "29713c8c3e8120ab1ff75f6fb2d90351", "is_reserved": 0, "lon": -77.03430133333333, "is_disabled": 0, "fusion_lat": 0.0, "lat": 38.9063445, "bike_id": "29713c8c3e8120ab1ff75f6fb2d90351", "fusion_lon": 0.0}, {"rental_uris": {"ios": "https://dc.lft.to/lastmile_qr_scan", "android": "https://dc.lft.to/lastmile_qr_scan"}, "type": "electric_bike", "name": "8d88270394a1e60909024cc7978ff540", "is_reserved": 0, "lon": -76.9824945, "is_disabled": 0, "fusion_lat": 0.0, "lat": 38.95243383333333, "bike_id": "8d88270394a1e60909024cc7978ff540", "fusion_lon": 0.0}, {"rental_uris": {"ios": "https://dc.lft.to/lastmile_qr_scan", "android": "https://dc.lft.to/lastmile_qr_scan"}, "type": "electric_scooter", "name": "fad813468d6bf876c53d5617402ef25e", "is_reserved": 0, "lon": -77.00543816666666, "is_disabled": 0, "fusion_lat": 0.0, "lat": 38.87846033333334, "bike_id": "fad813468d6bf876c53d5617402ef25e", "fusion_lon": 0.0}, {"rental_uris": {"ios": "https://dc.lft.to/lastmile_qr_scan", "android": "https://dc.lft.to/lastmile_qr_scan"}, "type": "electric_scooter", "name": "ee222c208b0b69c146abe84035bbef53", "is_reserved": 0, "lon": -77.033214, "is_disabled": 0, "fusion_lat": 0.0, "lat": 38.918017666666664, "bike_id": "ee222c208b0b69c146abe84035bbef53", "fusion_lon": 0.0}, {"rental_uris": {"ios": "https://dc.lft.to/lastmile_qr_scan", "android": "https://dc.lft.to/lastmile_qr_scan"}, "type": "electric_scooter", "name": "d7609cf94175a52db6a763786b8d0426", "is_reserved": 0, "lon": -77.04570966666667, "is_disabled": 0, "fusion_lat": 0.0, "lat": 38.92068916666667, "bike_id": "d7609cf94175a52db6a763786b8d0426", "fusion_lon": 0.0}, {"rental_uris": {"ios": "https://dc.lft.to/lastmile_qr_scan", "android": "https://dc.lft.to/lastmile_qr_scan"}, "type": "electric_scooter", "name": "5f005cc8c9be068649319c3a12ad7127", "is_reserved": 0, "lon": -77.04174166666667, "is_disabled": 0, "fusion_lat": 0.0, "lat": 38.916069, "bike_id": "5f005cc8c9be068649319c3a12ad7127", "fusion_lon": 0.0}, {"rental_uris": {"ios": "https://dc.lft.to/lastmile_qr_scan", "android": "https://dc.lft.to/lastmile_qr_scan"}, "type": "electric_scooter", "name": "10de98f682271e687e45445855c3bb28", "is_reserved": 0, "lon": -77.03894483333333, "is_disabled": 0, "fusion_lat": 0.0, "lat": 38.93137933333333, "bike_id": "10de98f682271e687e45445855c3bb28", "fusion_lon": 0.0}, {"rental_uris": {"ios": "https://dc.lft.to/lastmile_qr_scan", "android": "https://dc.lft.to/lastmile_qr_scan"}, "type": "electric_scooter", "name": "c77c1eeb87395b51c654e0abc9105000", "is_reserved": 0, "lon": -77.0157875, "is_disabled": 0, "fusion_lat": 0.0, "lat": 38.916821, "bike_id": "c77c1eeb87395b51c654e0abc9105000", "fusion_lon": 0.0}, {"rental_uris": {"ios": "https://dc.lft.to/lastmile_qr_scan", "android": "https://dc.lft.to/lastmile_qr_scan"}, "type": "electric_bike", "name": "9d236954a40f7d309f3f5064e512d3a6", "is_reserved": 0, "lon": -76.98012416666667, "is_disabled": 0, "fusion_lat": 0.0, "lat": 38.853166333333334, "bike_id": "9d236954a40f7d309f3f5064e512d3a6", "fusion_lon": 0.0}, {"rental_uris": {"ios": "https://dc.lft.to/lastmile_qr_scan", "android": "https://dc.lft.to/lastmile_qr_scan"}, "type": "electric_scooter", "name": "a5c3f2bddb6065926f7b71500a1b9ff4", "is_reserved": 0, "lon": -77.01957616666667, "is_disabled": 0, "fusion_lat": 0.0, "lat": 38.92323233333333, "bike_id": "a5c3f2bddb6065926f7b71500a1b9ff4", "fusion_lon": 0.0}, {"rental_uris": {"ios": "https://dc.lft.to/lastmile_qr_scan", "android": "https://dc.lft.to/lastmile_qr_scan"}, "type": "electric_scooter", "name": "108b7923faf81bdc53ec8c1727eee5ef", "is_reserved": 0, "lon": -77.01739716666667, "is_disabled": 0, "fusion_lat": 0.0, "lat": 38.880137166666664, "bike_id": "108b7923faf81bdc53ec8c1727eee5ef", "fusion_lon": 0.0}, {"rental_uris": {"ios": "https://dc.lft.to/lastmile_qr_scan", "android": "https://dc.lft.to/lastmile_qr_scan"}, "type": "electric_scooter", "name": "0bfbb0d7581659ee14cc1cf13b83b35a", "is_reserved": 0, "lon": -77.0413685, "is_disabled": 0, "fusion_lat": 0.0, "lat": 38.90623216666667, "bike_id": "0bfbb0d7581659ee14cc1cf13b83b35a", "fusion_lon": 0.0}, {"rental_uris": {"ios": "https://dc.lft.to/lastmile_qr_scan", "android": "https://dc.lft.to/lastmile_qr_scan"}, "type": "electric_scooter", "name": "cf1411675445804ac4b3f1c764df9432", "is_reserved": 0, "lon": -77.06143833333333, "is_disabled": 0, "fusion_lat": 0.0, "lat": 38.91298916666667, "bike_id": "cf1411675445804ac4b3f1c764df9432", "fusion_lon": 0.0}, {"rental_uris": {"ios": "https://dc.lft.to/lastmile_qr_scan", "android": "https://dc.lft.to/lastmile_qr_scan"}, "type": "electric_scooter", "name": "b7546acefb10c72a669b064b192c86f0", "is_reserved": 0, "lon": -77.01615683333333, "is_disabled": 0, "fusion_lat": 0.0, "lat": 38.906068833333336, "bike_id": "b7546acefb10c72a669b064b192c86f0", "fusion_lon": 0.0}, {"rental_uris": {"ios": "https://dc.lft.to/lastmile_qr_scan", "android": "https://dc.lft.to/lastmile_qr_scan"}, "type": "electric_scooter", "name": "395339400df944a94789d6815dfb2863", "is_reserved": 0, "lon": -76.99004583333334, "is_disabled": 0, "fusion_lat": 0.0, "lat": 38.864236166666664, "bike_id": "395339400df944a94789d6815dfb2863", "fusion_lon": 0.0}, {"rental_uris": {"ios": "https://dc.lft.to/lastmile_qr_scan", "android": "https://dc.lft.to/lastmile_qr_scan"}, "type": "electric_scooter", "name": "8f72273ccf522cff15aa77fb0bbbcaa7", "is_reserved": 0, "lon": -76.9921675, "is_disabled": 0, "fusion_lat": 0.0, "lat": 38.8896705, "bike_id": "8f72273ccf522cff15aa77fb0bbbcaa7", "fusion_lon": 0.0}, {"rental_uris": {"ios": "https://dc.lft.to/lastmile_qr_scan", "android": "https://dc.lft.to/lastmile_qr_scan"}, "type": "electric_bike", "name": "1568bd516746e95d6058af42ec434b07", "is_reserved": 0, "lon": -77.00508566666667, "is_disabled": 0, "fusion_lat": 0.0, "lat": 38.87917183333333, "bike_id": "1568bd516746e95d6058af42ec434b07", "fusion_lon": 0.0}, {"rental_uris": {"ios": "https://dc.lft.to/lastmile_qr_scan", "android": "https://dc.lft.to/lastmile_qr_scan"}, "type": "electric_scooter", "name": "5f5dc125bf9609f35e8719787f332e1f", "is_reserved": 0, "lon": -77.03022466666667, "is_disabled": 0, "fusion_lat": 0.0, "lat": 38.87846033333334, "bike_id": "5f5dc125bf9609f35e8719787f332e1f", "fusion_lon": 0.0}, {"rental_uris": {"ios": "https://dc.lft.to/lastmile_qr_scan", "android": "https://dc.lft.to/lastmile_qr_scan"}, "type": "electric_scooter", "name": "8d3b3af9f7d329f3a483b0862e92f11a", "is_reserved": 0, "lon": -77.0087435, "is_disabled": 0, "fusion_lat": 0.0, "lat": 38.911796, "bike_id": "8d3b3af9f7d329f3a483b0862e92f11a", "fusion_lon": 0.0}, {"rental_uris": {"ios": "https://dc.lft.to/lastmile_qr_scan", "android": "https://dc.lft.to/lastmile_qr_scan"}, "type": "electric_scooter", "name": "08e7a93ef3e5afef570e4b146fafaaf9", "is_reserved": 0, "lon": -76.98812633333333, "is_disabled": 0, "fusion_lat": 0.0, "lat": 38.91133383333333, "bike_id": "08e7a93ef3e5afef570e4b146fafaaf9", "fusion_lon": 0.0}, {"rental_uris": {"ios": "https://dc.lft.to/lastmile_qr_scan", "android": "https://dc.lft.to/lastmile_qr_scan"}, "type": "electric_scooter", "name": "c3f4228e52fed30160827c5d07ad1e95", "is_reserved": 0, "lon": -77.03726, "is_disabled": 0, "fusion_lat": 0.0, "lat": 38.92024766666667, "bike_id": "c3f4228e52fed30160827c5d07ad1e95", "fusion_lon": 0.0}, {"rental_uris": {"ios": "https://dc.lft.to/lastmile_qr_scan", "android": "https://dc.lft.to/lastmile_qr_scan"}, "type": "electric_scooter", "name": "f5c81c9f507c909642eafa41975a41b3", "is_reserved": 0, "lon": -77.02446133333333, "is_disabled": 0, "fusion_lat": 0.0, "lat": 38.93798233333333, "bike_id": "f5c81c9f507c909642eafa41975a41b3", "fusion_lon": 0.0}, {"rental_uris": {"ios": "https://dc.lft.to/lastmile_qr_scan", "android": "https://dc.lft.to/lastmile_qr_scan"},