{"data": {"bikes": [{"rental_uris": {"ios": "https://dc.lft.to/lastmile_qr_scan", "android": "https://dc.lft.to/lastmile_qr_scan"}, "lon": -77.00120683333333, "type": "electric_scooter", "fusion_lat": 0.0, "lat": 38.9170525, "name": "caf09abb19c268a6e6b411b2f8275118", "fusion_lon": 0.0, "bike_id": "caf09abb19c268a6e6b411b2f8275118", "is_disabled": 0, "is_reserved": 0}, {"rental_uris": {"ios": "https://dc.lft.to/lastmile_qr_scan", "android": "https://dc.lft.to/lastmile_qr_scan"}, "lon": -76.9818505, "type": "electric_scooter", "fusion_lat": 0.0, "lat": 38.895819333333336, "name": "75ed2164ccfd96a25a05e14f6197b072", "fusion_lon": 0.0, "bike_id": "75ed2164ccfd96a25a05e14f6197b072", "is_disabled": 0, "is_reserved": 0}, {"rental_uris": {"ios": "https://dc.lft.to/lastmile_qr_scan", "android": "https://dc.lft.to/lastmile_qr_scan"}, "lon": -77.03195416666667, "type": "electric_scooter", "fusion_lat": 0.0, "lat": 38.913241166666666, "name": "233a34dbd42fc70ca4b2e2d51c6927e8", "fusion_lon": 0.0, "bike_id": "233a34dbd42fc70ca4b2e2d51c6927e8", "is_disabled": 0, "is_reserved": 0}, {"rental_uris": {"ios": "https://dc.lft.to/lastmile_qr_scan", "android": "https://dc.lft.to/lastmile_qr_scan"}, "lon": -77.01928533333333, "type": "electric_scooter", "fusion_lat": 0.0, "lat": 38.90246633333334, "name": "50bb825ec94a58601b66c0449b568c48", "fusion_lon": 0.0, "bike_id": "50bb825ec94a58601b66c0449b568c48", "is_disabled": 0, "is_reserved": 0}, {"rental_uris": {"ios": "https://dc.lft.to/lastmile_qr_scan", "android": "https://dc.lft.to/lastmile_qr_scan"}, "lon": -77.04171216666667, "type": "electric_scooter", "fusion_lat": 0.0, "lat": 38.914673666666665, "name": "1aff305c7dd95d5e63785b069db14225", "fusion_lon": 0.0, "bike_id": "1aff305c7dd95d5e63785b069db14225", "is_disabled": 0, "is_reserved": 0}, {"rental_uris": {"ios": "https://dc.lft.to/lastmile_qr_scan", "android": "https://dc.lft.to/lastmile_qr_scan"}, "lon": -77.03665866666667, "type": "electric_scooter", "fusion_lat": 0.0, "lat": 38.918121166666666, "name": "d91e4b4be66c884bb66ab3df290a4784", "fusion_lon": 0.0, "bike_id": "d91e4b4be66c884bb66ab3df290a4784", "is_disabled": 0, "is_reserved": 0}, {"rental_uris": {"ios": "https://dc.lft.to/lastmile_qr_scan", "android": "https://dc.lft.to/lastmile_qr_scan"}, "lon": -77.03195433333333, "type": "electric_scooter", "fusion_lat": 0.0, "lat": 38.917888833333336, "name": "f13484c06877557620d4e45ae20e8f73", "fusion_lon": 0.0, "bike_id": "f13484c06877557620d4e45ae20e8f73", "is_disabled": 0, "is_reserved": 0}, {"rental_uris": {"ios": "https://dc.lft.to/lastmile_qr_scan", "android": "https://dc.lft.to/lastmile_qr_scan"}, "lon": -76.90962916666666, "type": "electric_bike", "fusion_lat": 0.0, "lat": 38.85427583333333, "name": "5450123194a35f2a9ede406b71a03c38", "fusion_lon": 0.0, "bike_id": "5450123194a35f2a9ede406b71a03c38", "is_disabled": 0, "is_reserved": 0}, {"rental_uris": {"ios": "https://dc.lft.to/lastmile_qr_scan", "android": "https://dc.lft.to/lastmile_qr_scan"}, "lon": -77.018707, "type": "electric_scooter", "fusion_lat": 0.0, "lat": 38.88745816666667, "name": "3f343959a891ba2f18e8551405128b46", "fusion_lon": 0.0, "bike_id": "3f343959a891ba2f18e8551405128b46", "is_disabled": 0, "is_reserved": 0}, {"rental_uris": {"ios": "https://dc.lft.to/lastmile_qr_scan", "android": "https://dc.lft.to/lastmile_qr_scan"}, "lon": -77.0437545, "type": "electric_scooter", "fusion_lat": 0.0, "lat": 38.8922235, "name": "75867920ccfe30e9ed37d4795d02cfb2", "fusion_lon": 0.0, "bike_id": "75867920ccfe30e9ed37d4795d02cfb2", "is_disabled": 0, "is_reserved": 0}, {"rental_uris": {"ios": "https://dc.lft.to/lastmile_qr_scan", "android": "https://dc.lft.to/lastmile_qr_scan"}, "lon": -77.02877766666667, "type": "electric_scooter", "fusion_lat": 0.0, "lat": 38.91128716666667, "name": "2c8a9a21e8d327fb56d6c2d2b30aa72d", "fusion_lon": 0.0, "bike_id": "2c8a9a21e8d327fb56d6c2d2b30aa72d", "is_disabled": 0, "is_reserved": 0}, {"rental_uris": {"ios": "https://dc.lft.to/lastmile_qr_scan", "android": "https://dc.lft.to/lastmile_qr_scan"}, "lon": -76.99187533333334, "type": "electric_bike", "fusion_lat": 0.0, "lat": 38.9024525, "name": "6eae21d7dc389dab9d4778fd88cc9ece", "fusion_lon": 0.0, "bike_id": "6eae21d7dc389dab9d4778fd88cc9ece", "is_disabled": 0, "is_reserved": 0}, {"rental_uris": {"ios": "https://dc.lft.to/lastmile_qr_scan", "android": "https://dc.lft.to/lastmile_qr_scan"}, "lon": -77.0419845, "type": "electric_scooter", "fusion_lat": 0.0, "lat": 38.920023666666665, "name": "bffeb34f8e9fc516bd093f5c559475d5", "fusion_lon": 0.0, "bike_id": "bffeb34f8e9fc516bd093f5c559475d5", "is_disabled": 0, "is_reserved": 0}, {"rental_uris": {"ios": "https://dc.lft.to/lastmile_qr_scan", "android": "https://dc.lft.to/lastmile_qr_scan"}, "lon": -77.032338, "type": "electric_scooter", "fusion_lat": 0.0, "lat": 38.931377166666664, "name": "5fd530ae9ffc03e98e7953350b54835a", "fusion_lon": 0.0, "bike_id": "5fd530ae9ffc03e98e7953350b54835a", "is_disabled": 0, "is_reserved": 0}, {"rental_uris": {"ios": "https://dc.lft.to/lastmile_qr_scan", "android": "https://dc.lft.to/lastmile_qr_scan"}, "lon": -77.04276366666667, "type": "electric_scooter", "fusion_lat": 0.0, "lat": 38.90267583333333, "name": "3126e3969c93df5c880a7ea6b3d2631c", "fusion_lon": 0.0, "bike_id": "3126e3969c93df5c880a7ea6b3d2631c", "is_disabled": 0, "is_reserved": 0}, {"rental_uris": {"ios": "https://dc.lft.to/lastmile_qr_scan", "android": "https://dc.lft.to/lastmile_qr_scan"}, "lon": -77.04890833333333, "type": "electric_scooter", "fusion_lat": 0.0, "lat": 38.90542533333333, "name": "2840f0b68dac126d83bf722170d1cb4c", "fusion_lon": 0.0, "bike_id": "2840f0b68dac126d83bf722170d1cb4c", "is_disabled": 0, "is_reserved": 0}, {"rental_uris": {"ios": "https://dc.lft.to/lastmile_qr_scan", "android": "https://dc.lft.to/lastmile_qr_scan"}, "lon": -77.0109155, "type": "electric_scooter", "fusion_lat": 0.0, "lat": 38.89486866666667, "name": "36cb47269e83906ff9973e979b5db8ca", "fusion_lon": 0.0, "bike_id": "36cb47269e83906ff9973e979b5db8ca", "is_disabled": 0, "is_reserved": 0}, {"rental_uris": {"ios": "https://dc.lft.to/lastmile_qr_scan", "android": "https://dc.lft.to/lastmile_qr_scan"}, "lon": -77.02710933333333, "type": "electric_scooter", "fusion_lat": 0.0, "lat": 38.906694, "name": "fbb86e036f64b4a0e0837f772583fc47", "fusion_lon": 0.0, "bike_id": "fbb86e036f64b4a0e0837f772583fc47", "is_disabled": 0, "is_reserved": 0}, {"rental_uris": {"ios": "https://dc.lft.to/lastmile_qr_scan", "android": "https://dc.lft.to/lastmile_qr_scan"}, "lon": -77.10689016666667, "type": "electric_bike", "fusion_lat": 0.0, "lat": 38.935772666666665, "name": "2841123184ba2825a242355e214d9248", "fusion_lon": 0.0, "bike_id": "2841123184ba2825a242355e214d9248", "is_disabled": 0, "is_reserved": 0}, {"rental_uris": {"ios": "https://dc.lft.to/lastmile_qr_scan", "android": "https://dc.lft.to/lastmile_qr_scan"}, "lon": -77.0465975, "type": "electric_scooter", "fusion_lat": 0.0, "lat": 38.8933645, "name": "35041484f0b7198216177921b9978694", "fusion_lon": 0.0, "bike_id": "35041484f0b7198216177921b9978694", "is_disabled": 0, "is_reserved": 0}, {"rental_uris": {"ios": "https://dc.lft.to/lastmile_qr_scan", "android": "https://dc.lft.to/lastmile_qr_scan"}, "lon": -77.018399, "type": "electric_bike", "fusion_lat": 0.0, "lat": 38.90862833333333, "name": "746d1e0d617e989d6301475304cd9e7d", "fusion_lon": 0.0, "bike_id": "746d1e0d617e989d6301475304cd9e7d", "is_disabled": 0, "is_reserved": 0}, {"rental_uris": {"ios": "https://dc.lft.to/lastmile_qr_scan", "android": "https://dc.lft.to/lastmile_qr_scan"}, "lon": -76.991604, "type": "electric_scooter", "fusion_lat": 0.0, "lat": 38.900439166666665, "name": "8356d8df9bb0270c21faf9cc5bb7a504", "fusion_lon": 0.0, "bike_id": "8356d8df9bb0270c21faf9cc5bb7a504", "is_disabled": 0, "is_reserved": 0}, {"rental_uris": {"ios": "https://dc.lft.to/lastmile_qr_scan", "android": "https://dc.lft.to/lastmile_qr_scan"}, "lon": -77.03309516666667, "type": "electric_scooter", "fusion_lat": 0.0, "lat": 38.9015345, "name": "702597ff5cb50c6be3b5b2a5a04c4257", "fusion_lon": 0.0, "bike_id": "702597ff5cb50c6be3b5b2a5a04c4257", "is_disabled": 0, "is_reserved": 0}, {"rental_uris": {"ios": "https://dc.lft.to/lastmile_qr_scan", "android": "https://dc.lft.to/lastmile_qr_scan"}, "lon": -76.99809633333334, "type": "electric_scooter", "fusion_lat": 0.0, "lat": 38.900317666666666, "name": "0672f58d58512bf21d766cac14e26f04", "fusion_lon": 0.0, "bike_id": "0672f58d58512bf21d766cac14e26f04", "is_disabled": 0, "is_reserved": 0}, {"rental_uris": {"ios": "https://dc.lft.to/lastmile_qr_scan", "android": "https://dc.lft.to/lastmile_qr_scan"}, "lon": -77.353144, "type": "electric_bike", "fusion_lat": 0.0, "lat": 38.95003783333333, "name": "ac2f2728fee3f62a9b819ac3b75175d5", "fusion_lon": 0.0, "bike_id": "ac2f2728fee3f62a9b819ac3b75175d5", "is_disabled": 0, "is_reserved": 0}, {"rental_uris": {"ios": "https://dc.lft.to/lastmile_qr_scan", "android": "https://dc.lft.to/lastmile_qr_scan"}, "lon": -77.04744383333333, "type": "electric_scooter", "fusion_lat": 0.0, "lat": 38.9177275, "name": "af24b974a62419e310d1decad214505f", "fusion_lon": 0.0, "bike_id": "af24b974a62419e310d1decad214505f", "is_disabled": 0, "is_reserved": 0}, {"rental_uris": {"ios": "https://dc.lft.to/lastmile_qr_scan", "android": "https://dc.lft.to/lastmile_qr_scan"}, "lon": -76.9317525, "type": "electric_scooter", "fusion_lat": 0.0, "lat": 38.898849166666665, "name": "c8702b333a4d4e8402fcfd3efb14dc79", "fusion_lon": 0.0, "bike_id": "c8702b333a4d4e8402fcfd3efb14dc79", "is_disabled": 0, "is_reserved": 0}, {"rental_uris": {"ios": "https://dc.lft.to/lastmile_qr_scan", "android": "https://dc.lft.to/lastmile_qr_scan"}, "lon": -77.028458, "type": "electric_scooter", "fusion_lat": 0.0, "lat": 38.942628666666664, "name": "decfc18c31b78b92fd9fedd80a42561a", "fusion_lon": 0.0, "bike_id": "decfc18c31b78b92fd9fedd80a42561a", "is_disabled": 0, "is_reserved": 0}, {"rental_uris": {"ios": "https://dc.lft.to/lastmile_qr_scan", "android": "https://dc.lft.to/lastmile_qr_scan"}, "lon": -77.00729, "type": "electric_scooter", "fusion_lat": 0.0, "lat": 38.8849375, "name": "af222cb1cc472af99be96ecff65a62d0", "fusion_lon": 0.0, "bike_id": "af222cb1cc472af99be96ecff65a62d0", "is_disabled": 0, "is_reserved": 0}, {"rental_uris": {"ios": "https://dc.lft.to/lastmile_qr_scan", "android": "https://dc.lft.to/lastmile_qr_scan"}, "lon": -77.0021265, "type": "electric_scooter", "fusion_lat": 0.0, "lat": 38.90220733333334, "name": "81dcb4ce051f15e62d0241d25597964a", "fusion_lon": 0.0, "bike_id": "81dcb4ce051f15e62d0241d25597964a", "is_disabled": 0, "is_reserved": 0}, {"rental_uris": {"ios": "https://dc.lft.to/lastmile_qr_scan", "android": "https://dc.lft.to/lastmile_qr_scan"}, "lon": -77.03121166666666, "type": "electric_scooter", "fusion_lat": 0.0, "lat": 38.90428216666667, "name": "22a6491926d067cf43f59e77b51d3213", "fusion_lon": 0.0, "bike_id": "22a6491926d067cf43f59e77b51d3213", "is_disabled": 0, "is_reserved": 0}, {"rental_uris": {"ios": "https://dc.lft.to/lastmile_qr_scan", "android": "https://dc.lft.to/lastmile_qr_scan"}, "lon": -77.10764766666667, "type": "electric_bike", "fusion_lat": 0.0, "lat": 38.892271, "name": "15ccfe78350c2279eda4e9571b2226b4", "fusion_lon": 0.0, "bike_id": "15ccfe78350c2279eda4e9571b2226b4", "is_disabled": 0, "is_reserved": 0}, {"rental_uris": {"ios": "https://dc.lft.to/lastmile_qr_scan", "android": "https://dc.lft.to/lastmile_qr_scan"}, "lon": -77.04364983333333, "type": "electric_scooter", "fusion_lat": 0.0, "lat": 38.90383466666667, "name": "9b0deaed6ff134e0dc645bb0bd927cf3", "fusion_lon": 0.0, "bike_id": "9b0deaed6ff134e0dc645bb0bd927cf3", "is_disabled": 0, "is_reserved": 0}, {"rental_uris": {"ios": "https://dc.lft.to/lastmile_qr_scan", "android": "https://dc.lft.to/lastmile_qr_scan"}, "lon": -76.91661933333333, "type": "electric_bike", "fusion_lat": 0.0, "lat": 38.8685975, "name": "a83536b1a35ae830837919493cf94fa3", "fusion_lon": 0.0, "bike_id": "a83536b1a35ae830837919493cf94fa3", "is_disabled": 0, "is_reserved": 0}, {"rental_uris": {"ios": "https://dc.lft.to/lastmile_qr_scan", "android": "https://dc.lft.to/lastmile_qr_scan"}, "lon": -77.02700733333333, "type": "electric_scooter", "fusion_lat": 0.0, "lat": 38.91706966666667, "name": "f9c0f0f21fa295c5549a34f254ab74ac", "fusion_lon": 0.0, "bike_id": "f9c0f0f21fa295c5549a34f254ab74ac", "is_disabled": 0, "is_reserved": 0}, {"rental_uris": {"ios": "https://dc.lft.to/lastmile_qr_scan", "android": "https://dc.lft.to/lastmile_qr_scan"}, "lon": -77.00578966666667, "type": "electric_scooter", "fusion_lat": 0.0, "lat": 38.8719455, "name": "eee8fee6c578481811930fc014945e50", "fusion_lon": 0.0, "bike_id": "eee8fee6c578481811930fc014945e50", "is_disabled": 0, "is_reserved": 0}, {"rental_uris": {"ios": "https://dc.lft.to/lastmile_qr_scan", "android": "https://dc.lft.to/lastmile_qr_scan"}, "lon": -76.9984615, "type": "electric_scooter", "fusion_lat": 0.0, "lat": 38.9004145, "name": "9a86497bcffe1eccbaf282ee278c4536", "fusion_lon": 0.0, "bike_id": "9a86497bcffe1eccbaf282ee278c4536", "is_disabled": 0, "is_reserved": 0}, {"rental_uris": {"ios": "https://dc.lft.to/lastmile_qr_scan", "android": "https://dc.lft.to/lastmile_qr_scan"}, "lon": -77.035381, "type": "electric_scooter", "fusion_lat": 0.0, "lat": 38.924149166666666, "name": "49c06b6f7c7139b8ecddc37825f369df", "fusion_lon": 0.0, "bike_id": "49c06b6f7c7139b8ecddc37825f369df", "is_disabled": 0, "is_reserved": 0}, {"rental_uris": {"ios": "https://dc.lft.to/lastmile_qr_scan", "android": "https://dc.lft.to/lastmile_qr_scan"}, "lon": -77.02882, "type": "electric_scooter", "fusion_lat": 0.0, "lat": 38.91693183333334, "name": "51fdf1f730cbc12ded71f116fa50607e", "fusion_lon": 0.0, "bike_id": "51fdf1f730cbc12ded71f116fa50607e", "is_disabled": 0, "is_reserved": 0}, {"rental_uris": {"ios": "https://dc.lft.to/lastmile_qr_scan", "android": "https://dc.lft.to/lastmile_qr_scan"}, "lon": -76.94654183333333, "type": "electric_scooter", "fusion_lat": 0.0, "lat": 38.89824983333333, "name": "1b091aea8989828e137130e164de6109", "fusion_lon": 0.0, "bike_id": "1b091aea8989828e137130e164de6109", "is_disabled": 0, "is_reserved": 0}, {"rental_uris": {"ios": "https://dc.lft.to/lastmile_qr_scan", "android": "https://dc.lft.to/lastmile_qr_scan"}, "lon": -77.04145283333334, "type": "electric_scooter", "fusion_lat": 0.0, "lat": 38.91183933333333, "name": "a88b4bd2fd63173b0291207faecbb396", "fusion_lon": 0.0, "bike_id": "a88b4bd2fd63173b0291207faecbb396", "is_disabled": 0, "is_reserved": 0}, {"rental_uris": {"ios": "https://dc.lft.to/lastmile_qr_scan", "android": "https://dc.lft.to/lastmile_qr_scan"}, "lon": -77.032697, "type": "electric_scooter", "fusion_lat": 0.0, "lat": 38.9073155, "name": "fb7482786fb998dcd94a70180956df8e", "fusion_lon": 0.0, "bike_id": "fb7482786fb998dcd94a70180956df8e", "is_disabled": 0, "is_reserved": 0}, {"rental_uris": {"ios": "https://dc.lft.to/lastmile_qr_scan", "android": "https://dc.lft.to/lastmile_qr_scan"}, "lon": -77.049031, "type": "electric_bike", "fusion_lat": 0.0, "lat": 38.87495583333333, "name": "d5fb061b93424e9462a7c295d7711610", "fusion_lon": 0.0, "bike_id": "d5fb061b93424e9462a7c295d7711610", "is_disabled": 0, "is_reserved": 0}, {"rental_uris": {"ios": "https://dc.lft.to/lastmile_qr_scan", "android": "https://dc.lft.to/lastmile_qr_scan"}, "lon": -77.00465233333334, "type": "electric_scooter", "fusion_lat": 0.0, "lat": 38.877586, "name": "d16bbb07bba763ea0159ffd9a485bd71", "fusion_lon": 0.0, "bike_id": "d16bbb07bba763ea0159ffd9a485bd71", "is_disabled": 0, "is_reserved": 0}, {"rental_uris": {"ios": "https://dc.lft.to/lastmile_qr_scan", "android": "https://dc.lft.to/lastmile_qr_scan"}, "lon": -77.0342935, "type": "electric_scooter", "fusion_lat": 0.0, "lat": 38.939767833333335, "name": "67131041c0c13c40101a2d254d33b069", "fusion_lon": 0.0, "bike_id": "67131041c0c13c40101a2d254d33b069", "is_disabled": 0, "is_reserved": 0}, {"rental_uris": {"ios": "https://dc.lft.to/lastmile_qr_scan", "android": "https://dc.lft.to/lastmile_qr_scan"}, "lon": -77.0296065, "type": "electric_scooter", "fusion_lat": 0.0, "lat": 38.91684683333333, "name": "fc1cfbbe44b06d3bf99500197a33d08f", "fusion_lon": 0.0, "bike_id": "fc1cfbbe44b06d3bf99500197a33d08f", "is_disabled": 0, "is_reserved": 0}, {"rental_uris": {"ios": "https://dc.lft.to/lastmile_qr_scan", "android": "https://dc.lft.to/lastmile_qr_scan"}, "lon": -77.02372216666667, "type": "electric_scooter", "fusion_lat": 0.0, "lat": 38.901981666666664, "name": "a2e3ace58f9a524f02c16c0a7c1b330d", "fusion_lon": 0.0, "bike_id": "a2e3ace58f9a524f02c16c0a7c1b330d", "is_disabled": 0, "is_reserved": 0}, {"rental_uris": {"ios": "https://dc.lft.to/lastmile_qr_scan", "android": "https://dc.lft.to/lastmile_qr_scan"}, "lon": -77.04688933333334, "type": "electric_scooter", "fusion_lat": 0.0, "lat": 38.892221, "name": "5b5120f26030ea59d2eadcc6a79c5e83", "fusion_lon": 0.0, "bike_id": "5b5120f26030ea59d2eadcc6a79c5e83", "is_disabled": 0, "is_reserved": 0}, {"rental_uris": {"ios": "https://dc.lft.to/lastmile_qr_scan", "android": "https://dc.lft.to/lastmile_qr_scan"}, "lon": -76.98572116666666, "type": "electric_scooter", "fusion_lat": 0.0, "lat": 38.898873333333334, "name": "8c33632421c68ce320f83598cb7db823", "fusion_lon": 0.0, "bike_id": "8c33632421c68ce320f83598cb7db823", "is_disabled": 0, "is_reserved": 0}, {"rental_uris": {"ios": "https://dc.lft.to/lastmile_qr_scan", "android": "https://dc.lft.to/lastmile_qr_scan"}, "lon": -77.10034033333334, "type": "electric_bike", "fusion_lat": 0.0, "lat": 38.990614666666666, "name": "d91d5b4a495e48eb6edf67ab490eea0d", "fusion_lon": 0.0, "bike_id": "d91d5b4a495e48eb6edf67ab490eea0d", "is_disabled": 0, "is_reserved": 0}, {"rental_uris": {"ios": "https://dc.lft.to/lastmile_qr_scan", "android": "https://dc.lft.to/lastmile_qr_scan"}, "lon": -77.01817583333333, "type": "electric_scooter", "fusion_lat": 0.0, "lat": 38.91189516666667, "name": "f68edd918b33e30ae9163a0a4ebe70ac", "fusion_lon": 0.0, "bike_id": "f68edd918b33e30ae9163a0a4ebe70ac", "is_disabled": 0, "is_reserved": 0}, {"rental_uris": {"ios": "https://dc.lft.to/lastmile_qr_scan", "android": "https://dc.lft.to/lastmile_qr_scan"}, "lon": -77.06276833333334, "type": "electric_scooter", "fusion_lat": 0.0, "lat": 38.906864666666664, "name": "6c6639bc1143f8846d1b3cb0c8cdf85b", "fusion_lon": 0.0, "bike_id": "6c6639bc1143f8846d1b3cb0c8cdf85b", "is_disabled": 0, "is_reserved": 0}, {"rental_uris": {"ios": "https://dc.lft.to/lastmile_qr_scan", "android": "https://dc.lft.to/lastmile_qr_scan"}, "lon": -77.032231, "type": "electric_scooter", "fusion_lat": 0.0, "lat": 38.929953, "name": "49f69354148bcefc4b1efd43fb85fa6b", "fusion_lon": 0.0, "bike_id": "49f69354148bcefc4b1efd43fb85fa6b", "is_disabled": 0, "is_reserved": 0}, {"rental_uris": {"ios": "https://dc.lft.to/lastmile_qr_scan", "android": "https://dc.lft.to/lastmile_qr_scan"}, "lon": -77.03384883333334, "type": "electric_scooter", "fusion_lat": 0.0, "lat": 38.92158583333333, "name": "fe88165684660b972e0e5b6b44e08cc8", "fusion_lon": 0.0, "bike_id": "fe88165684660b972e0e5b6b44e08cc8", "is_disabled": 0, "is_reserved": 0}, {"rental_uris": {"ios": "https://dc.lft.to/lastmile_qr_scan", "android": "https://dc.lft.to/lastmile_qr_scan"}, "lon": -77.036432, "type": "electric_scooter", "fusion_lat": 0.0, "lat": 38.916365666666664, "name": "803963b1bd09d04379617e1d46cc25bf", "fusion_lon": 0.0, "bike_id": "803963b1bd09d04379617e1d46cc25bf", "is_disabled": 0, "is_reserved": 0}, {"rental_uris": {"ios": "https://dc.lft.to/lastmile_qr_scan", "android": "https://dc.lft.to/lastmile_qr_scan"}, "lon": -77.020668, "type": "electric_scooter", "fusion_lat": 0.0, "lat": 38.904064, "name": "825960eadd7e789e73f2da8ace63fdc5", "fusion_lon": 0.0, "bike_id": "825960eadd7e789e73f2da8ace63fdc5", "is_disabled": 0, "is_reserved": 0}, {"rental_uris": {"ios": "https://dc.lft.to/lastmile_qr_scan", "android": "https://dc.lft.to/lastmile_qr_scan"}, "lon": -77.02700266666666, "type": "electric_scooter", "fusion_lat": 0.0, "lat": 38.90017483333333, "name": "dc8d98be3a56ef8c750ebc0c0a6fd94f", "fusion_lon": 0.0, "bike_id": "dc8d98be3a56ef8c750ebc0c0a6fd94f", "is_disabled": 0, "is_reserved": 0}, {"rental_uris": {"ios": "https://dc.lft.to/lastmile_qr_scan", "android": "https://dc.lft.to/lastmile_qr_scan"}, "lon": -77.0343655, "type": "electric_scooter", "fusion_lat": 0.0, "lat": 38.927344, "name": "fcbdae4014c9a79c62f3af558acb66b9", "fusion_lon": 0.0, "bike_id": "fcbdae4014c9a79c62f3af558acb66b9", "is_disabled": 0, "is_reserved": 0}, {"rental_uris": {"ios": "https://dc.lft.to/lastmile_qr_scan", "android": "https://dc.lft.to/lastmile_qr_scan"}, "lon": -77.04625183333333, "type": "electric_bike", "fusion_lat": 0.0, "lat": 38.9991035, "name": "f2f12de4e2634ec92eea4c20b1efec1b", "fusion_lon": 0.0, "bike_id": "f2f12de4e2634ec92eea4c20b1efec1b", "is_disabled": 0, "is_reserved": 0}, {"rental_uris": {"ios": "https://dc.lft.to/lastmile_qr_scan", "android": "https://dc.lft.to/lastmile_qr_scan"}, "lon": -77.017635, "type": "electric_scooter", "fusion_lat": 0.0, "lat": 38.92109766666667, "name": "6b17f72bc5dd1ea341c1cde487e5bc53", "fusion_lon": 0.0, "bike_id": "6b17f72bc5dd1ea341c1cde487e5bc53", "is_disabled": 0, "is_reserved": 0}, {"rental_uris": {"ios": "https://dc.lft.to/lastmile_qr_scan", "android": "https://dc.lft.to/lastmile_qr_scan"}, "lon": -77.0365185, "type": "electric_bike", "fusion_lat": 0.0, "lat": 38.95633866666667, "name": "b296e74fbd387a34fbd8c6c33c1fe5de", "fusion_lon": 0.0, "bike_id": "b296e74fbd387a34fbd8c6c33c1fe5de", "is_disabled": 0, "is_reserved": 0}, {"rental_uris": {"ios": "https://dc.lft.to/lastmile_qr_scan", "android": "https://dc.lft.to/lastmile_qr_scan"}, "lon": -77.00507033333334, "type": "electric_scooter", "fusion_lat": 0.0, "lat": 38.875351, "name": "58f56d955da6b629c765b16337ae4ded", "fusion_lon": 0.0, "bike_id": "58f56d955da6b629c765b16337ae4ded", "is_disabled": 0, "is_reserved": 0}, {"rental_uris": {"ios": "https://dc.lft.to/lastmile_qr_scan", "android": "https://dc.lft.to/lastmile_qr_scan"}, "lon": -77.02184166666666, "type": "electric_scooter", "fusion_lat": 0.0, "lat": 38.91062483333333, "name": "51742d4956bb59919faca275e657435f", "fusion_lon": 0.0, "bike_id": "51742d4956bb59919faca275e657435f", "is_disabled": 0, "is_reserved": 0}, {"rental_uris": {"ios": "https://dc.lft.to/lastmile_qr_scan", "android": "https://dc.lft.to/lastmile_qr_scan"}, "lon": -77.064766, "type": "electric_bike", "fusion_lat": 0.0, "lat": 38.97383516666667, "name": "b2281f7b2c3f28e6b69b8f81f5816b34", "fusion_lon": 0.0, "bike_id": "b2281f7b2c3f28e6b69b8f81f5816b34", "is_disabled": 0, "is_reserved": 0}, {"rental_uris": {"ios": "https://dc.lft.to/lastmile_qr_scan", "android": "https://dc.lft.to/lastmile_qr_scan"}, "lon": -77.00213883333333, "type": "electric_scooter", "fusion_lat": 0.0, "lat": 38.90514616666667, "name": "61793f3d91172fe5a6ef04b649f6b6d2", "fusion_lon": 0.0, "bike_id": "61793f3d91172fe5a6ef04b649f6b6d2", "is_disabled": 0, "is_reserved": 0}, {"rental_uris": {"ios": "https://dc.lft.to/lastmile_qr_scan", "android": "https://dc.lft.to/lastmile_qr_scan"}, "lon": -77.0250365, "type": "electric_scooter", "fusion_lat": 0.0, "lat": 38.942879833333336, "name": "675b0d3a08024ec769118a75e4109b56", "fusion_lon": 0.0, "bike_id": "675b0d3a08024ec769118a75e4109b56", "is_disabled": 0, "is_reserved": 0}, {"rental_uris": {"ios": "https://dc.lft.to/lastmile_qr_scan", "android": "https://dc.lft.to/lastmile_qr_scan"}, "lon": -77.03147133333333, "type": "electric_scooter", "fusion_lat": 0.0, "lat": 38.909668, "name": "69450c22594744e120a6dae6492de9d0", "fusion_lon": 0.0, "bike_id": "69450c22594744e120a6dae6492de9d0", "is_disabled": 0, "is_reserved": 0}, {"rental_uris": {"ios": "https://dc.lft.to/lastmile_qr_scan", "android": "https://dc.lft.to/lastmile_qr_scan"}, "lon": -76.991717, "type": "electric_scooter", "fusion_lat": 0.0, "lat": 38.879213166666666, "name": "cdac9afc1c9cfc5adaa6846ccc3ff545", "fusion_lon": 0.0, "bike_id": "cdac9afc1c9cfc5adaa6846ccc3ff545", "is_disabled": 0, "is_reserved": 0}, {"rental_uris": {"ios": "https://dc.lft.to/lastmile_qr_scan", "android": "https://dc.lft.to/lastmile_qr_scan"}, "lon": -77.0025885, "type": "electric_scooter", "fusion_lat": 0.0, "lat": 38.901217333333335, "name": "a07149dc65ff51b73d3f701cb5ae1a85", "fusion_lon": 0.0, "bike_id": "a07149dc65ff51b73d3f701cb5ae1a85", "is_disabled": 0, "is_reserved": 0}, {"rental_uris": {"ios": "https://dc.lft.to/lastmile_qr_scan", "android": "https://dc.lft.to/lastmile_qr_scan"}, "lon": -76.987018, "type": "electric_scooter", "fusion_lat": 0.0, "lat": 38.9001105, "name": "30e2c7daf9d8d24c9be698911801ee26", "fusion_lon": 0.0, "bike_id": "30e2c7daf9d8d24c9be698911801ee26", "is_disabled": 0, "is_reserved": 0}, {"rental_uris": {"ios": "https://dc.lft.to/lastmile_qr_scan", "android": "https://dc.lft.to/lastmile_qr_scan"}, "lon": -77.02051483333334, "type": "electric_scooter", "fusion_lat": 0.0, "lat": 38.9155395, "name": "5b553e711ce8cf3830aeac0a9419b140", "fusion_lon": 0.0, "bike_id": "5b553e711ce8cf3830aeac0a9419b140", "is_disabled": 0, "is_reserved": 0}, {"rental_uris": {"ios": "https://dc.lft.to/lastmile_qr_scan", "android": "https://dc.lft.to/lastmile_qr_scan"}, "lon": -76.99001266666667, "type": "electric_scooter", "fusion_lat": 0.0, "lat": 38.86506883333333, "name": "513978d2840909002666ba03db54b0f6", "fusion_lon": 0.0, "bike_id": "513978d2840909002666ba03db54b0f6", "is_disabled": 0, "is_reserved": 0}, {"rental_uris": {"ios": "https://dc.lft.to/lastmile_qr_scan", "android": "https://dc.lft.to/lastmile_qr_scan"}, "lon": -76.934317, "type": "electric_scooter", "fusion_lat": 0.0, "lat": 38.89963383333333, "name": "08078176f28fde134631aa0e04148d26", "fusion_lon": 0.0, "bike_id": "08078176f28fde134631aa0e04148d26", "is_disabled": 0, "is_reserved": 0}, {"rental_uris": {"ios": "https://dc.lft.to/lastmile_qr_scan", "android": "https://dc.lft.to/lastmile_qr_scan"}, "lon": -77.05326133333334, "type": "electric_scooter", "fusion_lat": 0.0, "lat": 38.9065205, "name": "e8e60153751f64c36e5b51c6685ee25a", "fusion_lon": 0.0, "bike_id": "e8e60153751f64c36e5b51c6685ee25a", "is_disabled": 0, "is_reserved": 0}, {"rental_uris": {"ios": "https://dc.lft.to/lastmile_qr_scan", "android": "https://dc.lft.to/lastmile_qr_scan"}, "lon": -77.027063, "type": "electric_scooter", "fusion_lat": 0.0, "lat": 38.897350333333335, "name": "f165c70d905b04316728e09f7a0daa02", "fusion_lon": 0.0, "bike_id": "f165c70d905b04316728e09f7a0daa02", "is_disabled": 0, "is_reserved": 0}, {"rental_uris": {"ios": "https://dc.lft.to/lastmile_qr_scan", "android": "https://dc.lft.to/lastmile_qr_scan"}, "lon": -76.986424, "type": "electric_scooter", "fusion_lat": 0.0, "lat": 38.900177666666664, "name": "63e8fb28238c801c86fc94edc02c8270", "fusion_lon": 0.0, "bike_id": "63e8fb28238c801c86fc94edc02c8270", "is_disabled": 0, "is_reserved": 0}, {"rental_uris": {"ios": "https://dc.lft.to/lastmile_qr_scan", "android": "https://dc.lft.to/lastmile_qr_scan"}, "lon": -77.004282, "type": "electric_scooter", "fusion_lat": 0.0, "lat": 38.875296, "name": "eedbfec0fae1764105ff15aeff79ae57", "fusion_lon": 0.0, "bike_id": "eedbfec0fae1764105ff15aeff79ae57", "is_disabled": 0, "is_reserved": 0}, {"rental_uris": {"ios": "https://dc.lft.to/lastmile_qr_scan", "android": "https://dc.lft.to/lastmile_qr_scan"}, "lon": -77.00359466666667, "type": "electric_scooter", "fusion_lat": 0.0, "lat": 38.8926115, "name": "df615f5b3ced070cb457d78eb5374ac7", "fusion_lon": 0.0, "bike_id": "df615f5b3ced070cb457d78eb5374ac7", "is_disabled": 0, "is_reserved": 0}, {"rental_uris": {"ios": "https://dc.lft.to/lastmile_qr_scan", "android": "https://dc.lft.to/lastmile_qr_scan"}, "lon": -77.00315216666667, "type": "electric_scooter", "fusion_lat": 0.0, "lat": 38.9011995, "name": "160724a9c2ad9dd7879c7b23d8996318", "fusion_lon": 0.0, "bike_id": "160724a9c2ad9dd7879c7b23d8996318", "is_disabled": 0, "is_reserved": 0}, {"rental_uris": {"ios": "https://dc.lft.to/lastmile_qr_scan", "android": "https://dc.lft.to/lastmile_qr_scan"}, "lon": -77.021838, "type": "electric_scooter", "fusion_lat": 0.0, "lat": 38.909753333333335, "name": "4e275f88cfb1ac3a43ea59553eafb45a", "fusion_lon": 0.0, "bike_id": "4e275f88cfb1ac3a43ea59553eafb45a", "is_disabled": 0, "is_reserved": 0}, {"rental_uris": {"ios": "https://dc.lft.to/lastmile_qr_scan", "android": "https://dc.lft.to/lastmile_qr_scan"}, "lon": -77.03356433333333, "type": "electric_scooter", "fusion_lat": 0.0, "lat": 38.91100433333333, "name": "c3e755edcbb5d46ebb40091791eef3ae", "fusion_lon": 0.0, "bike_id": "c3e755edcbb5d46ebb40091791eef3ae", "is_disabled": 0, "is_reserved": 0}, {"rental_uris": {"ios": "https://dc.lft.to/lastmile_qr_scan", "android": "https://dc.lft.to/lastmile_qr_scan"}, "lon": -77.01385566666667, "type": "electric_scooter", "fusion_lat": 0.0, "lat": 38.928588, "name": "88b5df913886a1a0b35260c6854a5275", "fusion_lon": 0.0, "bike_id": "88b5df913886a1a0b35260c6854a5275", "is_disabled": 0, "is_reserved": 0}, {"rental_uris": {"ios": "https://dc.lft.to/lastmile_qr_scan", "android": "https://dc.lft.to/lastmile_qr_scan"}, "lon": -77.00270216666667, "type": "electric_scooter", "fusion_lat": 0.0, "lat": 38.877386666666666, "name": "d73bec569fda4082a20ff3faac15e758", "fusion_lon": 0.0, "bike_id": "d73bec569fda4082a20ff3faac15e758", "is_disabled": 0, "is_reserved": 0}, {"rental_uris": {"ios": "https://dc.lft.to/lastmile_qr_scan", "android": "https://dc.lft.to/lastmile_qr_scan"}, "lon": -76.9655395, "type": "electric_bike", "fusion_lat": 0.0, "lat": 38.950986, "name": "4eb65151cfeb169d3d98b78c5c4da6a3", "fusion_lon": 0.0, "bike_id": "4eb65151cfeb169d3d98b78c5c4da6a3", "is_disabled": 0, "is_reserved": 0}, {"rental_uris": {"ios": "https://dc.lft.to/lastmile_qr_scan", "android": "https://dc.lft.to/lastmile_qr_scan"}, "lon": -77.002199, "type": "electric_scooter", "fusion_lat": 0.0, "lat": 38.904774, "name": "a0c1095618dca93bd1b516401fda1f52", "fusion_lon": 0.0, "bike_id": "a0c1095618dca93bd1b516401fda1f52", "is_disabled": 0, "is_reserved": 0}, {"rental_uris": {"ios": "https://dc.lft.to/lastmile_qr_scan", "android": "https://dc.lft.to/lastmile_qr_scan"}, "lon": -76.93177066666667, "type": "electric_scooter", "fusion_lat": 0.0, "lat": 38.89882166666666, "name": "74527f76b20a8760c3235205808335a3", "fusion_lon": 0.0, "bike_id": "74527f76b20a8760c3235205808335a3", "is_disabled": 0, "is_reserved": 0}, {"rental_uris": {"ios": "https://dc.lft.to/lastmile_qr_scan", "android": "https://dc.lft.to/lastmile_qr_scan"}, "lon": -77.022894, "type": "electric_scooter", "fusion_lat": 0.0, "lat": 38.91772266666667, "name": "74487350291d8ecb802eb51c26a11cc9", "fusion_lon": 0.0, "bike_id": "74487350291d8ecb802eb51c26a11cc9", "is_disabled": 0, "is_reserved": 0}, {"rental_uris": {"ios": "https://dc.lft.to/lastmile_qr_scan", "android": "https://dc.lft.to/lastmile_qr_scan"}, "lon": -77.10723333333334, "type": "electric_bike", "fusion_lat": 0.0, "lat": 38.855146833333336, "name": "af73ea0e70653a96a5cbe335f31c8b19", "fusion_lon": 0.0, "bike_id": "af73ea0e70653a96a5cbe335f31c8b19", "is_disabled": 0, "is_reserved": 0}, {"rental_uris": {"ios": "https://dc.lft.to/lastmile_qr_scan", "android": "https://dc.lft.to/lastmile_qr_scan"}, "lon": -76.9485495, "type": "electric_scooter", "fusion_lat": 0.0, "lat": 38.88300316666667, "name": "2f1d93d2bdebcb354e92a39ee5e3919f", "fusion_lon": 0.0, "bike_id": "2f1d93d2bdebcb354e92a39ee5e3919f", "is_disabled": 0, "is_reserved": 0}, {"rental_uris": {"ios": "https://dc.lft.to/lastmile_qr_scan", "android": "https://dc.lft.to/lastmile_qr_scan"}, "lon": -77.03352416666667, "type": "electric_scooter", "fusion_lat": 0.0, "lat": 38.8850775, "name": "d7d96c672db8cbb997432bb526f390e1", "fusion_lon": 0.0, "bike_id": "d7d96c672db8cbb997432bb526f390e1", "is_disabled": 0, "is_reserved": 0}, {"rental_uris": {"ios": "https://dc.lft.to/lastmile_qr_scan", "android": "https://dc.lft.to/lastmile_qr_scan"}, "lon": -77.031982, "type": "electric_scooter", "fusion_lat": 0.0, "lat": 38.914768, "name": "b15c33c1483d7fe1ae2d15c299b8a664", "fusion_lon": 0.0, "bike_id": "b15c33c1483d7fe1ae2d15c299b8a664", "is_disabled": 0, "is_reserved": 0}, {"rental_uris": {"ios": "https://dc.lft.to/lastmile_qr_scan", "android": "https://dc.lft.to/lastmile_qr_scan"}, "lon": -77.04998133333333, "type": "electric_scooter", "fusion_lat": 0.0, "lat": 38.9012315, "name": "5ac6995f4319b901fb3b6db854c9a616", "fusion_lon": 0.0, "bike_id": "5ac6995f4319b901fb3b6db854c9a616", "is_disabled": 0, "is_reserved": 0}, {"rental_uris": {"ios": "https://dc.lft.to/lastmile_qr_scan", "android": "https://dc.lft.to/lastmile_qr_scan"}, "lon": -77.00843766666667, "type": "electric_bike", "fusion_lat": 0.0, "lat": 38.92458583333333, "name": "fb34130407d7fc0a74aeecb50284b4a7", "fusion_lon": 0.0, "bike_id": "fb34130407d7fc0a74aeecb50284b4a7", "is_disabled": 0, "is_reserved": 0}, {"rental_uris": {"ios": "https://dc.lft.to/lastmile_qr_scan", "android": "https://dc.lft.to/lastmile_qr_scan"}, "lon": -76.99269333333334, "type": "electric_scooter", "fusion_lat": 0.0, "lat": 38.8968745, "name": "2459fb46ce7858c2ad6142ee5848b3e7", "fusion_lon": 0.0, "bike_id": "2459fb46ce7858c2ad6142ee5848b3e7", "is_disabled": 0, "is_reserved": 0}, {"rental_uris": {"ios": "https://dc.lft.to/lastmile_qr_scan", "android": "https://dc.lft.to/lastmile_qr_scan"}, "lon": -77.04432433333334, "type": "electric_scooter", "fusion_lat": 0.0, "lat": 38.9056195, "name": "bee9449acbf396d0578642dd8cce5be0", "fusion_lon": 0.0, "bike_id": "bee9449acbf396d0578642dd8cce5be0", "is_disabled": 0, "is_reserved": 0}, {"rental_uris": {"ios": "https://dc.lft.to/lastmile_qr_scan", "android": "https://dc.lft.to/lastmile_qr_scan"}, "lon": -77.03701183333334, "type": "electric_bike", "fusion_lat": 0.0, "lat": 38.93561666666667, "name": "7e115fafd5e1c48d3fad6b70c43b14a0", "fusion_lon": 0.0, "bike_id": "7e115fafd5e1c48d3fad6b70c43b14a0", "is_disabled": 0, "is_reserved": 0}, {"rental_uris": {"ios": "https://dc.lft.to/lastmile_qr_scan", "android": "https://dc.lft.to/lastmile_qr_scan"}, "lon": -77.06528466666667, "type": "electric_scooter", "fusion_lat": 0.0, "lat": 38.9112945, "name": "f2244cad691adbb9c7572e598ef80e4b", "fusion_lon": 0.0, "bike_id": "f2244cad691adbb9c7572e598ef80e4b", "is_disabled": 0, "is_reserved": 0}, {"rental_uris": {"ios": "https://dc.lft.to/lastmile_qr_scan", "android": "https://dc.lft.to/lastmile_qr_scan"}, "lon": -76.94849883333333, "type": "electric_scooter", "fusion_lat": 0.0, "lat": 38.8948415, "name": "4bd557ac974650af0dff49d5251d3cc6", "fusion_lon": 0.0, "bike_id": "4bd557ac974650af0dff49d5251d3cc6", "is_disabled": 0, "is_reserved": 0}, {"rental_uris": {"ios": "https://dc.lft.to/lastmile_qr_scan", "android": "https://dc.lft.to/lastmile_qr_scan"}, "lon": -77.02002766666666, "type": "electric_scooter", "fusion_lat": 0.0, "lat": 38.911525166666664, "name": "e26e446023e2ef9ce8b021196ecacce8", "fusion_lon": 0.0, "bike_id": "e26e446023e2ef9ce8b021196ecacce8", "is_disabled": 0, "is_reserved": 0}, {"rental_uris": {"ios": "https://dc.lft.to/lastmile_qr_scan", "android": "https://dc.lft.to/lastmile_qr_scan"}, "lon": -77.0320315, "type": "electric_scooter", "fusion_lat": 0.0, "lat": 38.91156, "name": "61ea9d00193d2387ab47660947b6de51", "fusion_lon": 0.0, "bike_id": "61ea9d00193d2387ab47660947b6de51", "is_disabled": 0, "is_reserved": 0}, {"rental_uris": {"ios": "https://dc.lft.to/lastmile_qr_scan", "android": "https://dc.lft.to/lastmile_qr_scan"}, "lon": -76.99514316666667, "type": "electric_scooter", "fusion_lat": 0.0, "lat": 38.894801, "name": "ceeffcc4cfb38e1a902aab35b13ba382", "fusion_lon": 0.0, "bike_id": "ceeffcc4cfb38e1a902aab35b13ba382", "is_disabled": 0, "is_reserved": 0}, {"rental_uris": {"ios": "https://dc.lft.to/lastmile_qr_scan", "android": "https://dc.lft.to/lastmile_qr_scan"}, "lon": -77.03227533333333, "type": "electric_scooter", "fusion_lat": 0.0, "lat": 38.93873883333333, "name": "b2a747fa2e945a0946a6b524edbf3141", "fusion_lon": 0.0, "bike_id": "b2a747fa2e945a0946a6b524edbf3141", "is_disabled": 0, "is_reserved": 0}, {"rental_uris": {"ios": "https://dc.lft.to/lastmile_qr_scan", "android": "https://dc.lft.to/lastmile_qr_scan"}, "lon": -76.99745483333334, "type": "electric_scooter", "fusion_lat": 0.0, "lat": 38.921803, "name": "02f4d04409d55ddc6ecec1e76bc0563c", "fusion_lon": 0.0, "bike_id": "02f4d04409d55ddc6ecec1e76bc0563c", "is_disabled": 0, "is_reserved": 0}, {"rental_uris": {"ios": "https://dc.lft.to/lastmile_qr_scan", "android": "https://dc.lft.to/lastmile_qr_scan"}, "lon": -77.04032533333333, "type": "electric_scooter", "fusion_lat": 0.0, "lat": 38.92431783333333, "name": "5334a6f4549f51f30912077e4631ac3c", "fusion_lon": 0.0, "bike_id": "5334a6f4549f51f30912077e4631ac3c", "is_disabled": 0, "is_reserved": 0}, {"rental_uris": {"ios": "https://dc.lft.to/lastmile_qr_scan", "android": "https://dc.lft.to/lastmile_qr_scan"}, "lon": -77.01514983333334, "type": "electric_scooter", "fusion_lat": 0.0, "lat": 38.88729216666667, "name": "3ec4b18597b736afb0623eb729f8ab69", "fusion_lon": 0.0, "bike_id": "3ec4b18597b736afb0623eb729f8ab69", "is_disabled": 0, "is_reserved": 0}, {"rental_uris": {"ios": "https://dc.lft.to/lastmile_qr_scan", "android": "https://dc.lft.to/lastmile_qr_scan"}, "lon": -77.03892133333333, "type": "electric_scooter", "fusion_lat": 0.0, "lat": 38.9025285, "name": "b4c4125616b9145a3c9269eac69d26bb", "fusion_lon": 0.0, "bike_id": "b4c4125616b9145a3c9269eac69d26bb", "is_disabled": 0, "is_reserved": 0}, {"rental_uris": {"ios": "https://dc.lft.to/lastmile_qr_scan", "android": "https://dc.lft.to/lastmile_qr_scan"}, "lon": -77.04880633333333, "type": "electric_scooter", "fusion_lat": 0.0, "lat": 38.912349, "name": "709338089977b2020818d0deb2a2b6a9", "fusion_lon": 0.0, "bike_id": "709338089977b2020818d0deb2a2b6a9", "is_disabled": 0, "is_reserved": 0}, {"rental_uris": {"ios": "https://dc.lft.to/lastmile_qr_scan", "android": "https://dc.lft.to/lastmile_qr_scan"}, "lon": -77.0308375, "type": "electric_scooter", "fusion_lat": 0.0, "lat": 38.90987833333333, "name": "1ec4fbb31426016f91f805fb796ecee2", "fusion_lon": 0.0, "bike_id": "1ec4fbb31426016f91f805fb796ecee2", "is_disabled": 0, "is_reserved": 0}, {"rental_uris": {"ios": "https://dc.lft.to/lastmile_qr_scan", "android": "https://dc.lft.to/lastmile_qr_scan"}, "lon": -77.03856433333333, "type": "electric_scooter", "fusion_lat": 0.0, "lat": 38.91205033333333, "name": "d3fa34442be45bac5698145117116f1e", "fusion_lon": 0.0, "bike_id": "d3fa34442be45bac5698145117116f1e", "is_disabled": 0, "is_reserved": 0}, {"rental_uris": {"ios": "https://dc.lft.to/lastmile_qr_scan", "android": "https://dc.lft.to/lastmile_qr_scan"}, "lon": -77.01992583333333, "type": "electric_scooter", "fusion_lat": 0.0, "lat": 38.90461466666667, "name": "32fba8efd15306d68721950403be1039", "fusion_lon": 0.0, "bike_id": "32fba8efd15306d68721950403be1039", "is_disabled": 0, "is_reserved": 0}, {"rental_uris": {"ios": "https://dc.lft.to/lastmile_qr_scan", "android": "https://dc.lft.to/lastmile_qr_scan"}, "lon": -76.90432116666666, "type": "electric_bike", "fusion_lat": 0.0, "lat": 38.89773066666667, "name": "846de2576d13eda09010e598586fe743", "fusion_lon": 0.0, "bike_id": "846de2576d13eda09010e598586fe743", "is_disabled": 0, "is_reserved": 0}, {"rental_uris": {"ios": "https://dc.lft.to/lastmile_qr_scan", "android": "https://dc.lft.to/lastmile_qr_scan"}, "lon": -77.02328266666666, "type": "electric_scooter", "fusion_lat": 0.0, "lat": 38.929406666666665, "name": "4b05d062558df8a014ffbd60bf850e72", "fusion_lon": 0.0, "bike_id": "4b05d062558df8a014ffbd60bf850e72", "is_disabled": 0, "is_reserved": 0}, {"rental_uris": {"ios": "https://dc.lft.to/lastmile_qr_scan", "android": "https://dc.lft.to/lastmile_qr_scan"}, "lon": -77.01753416666666, "type": "electric_scooter", "fusion_lat": 0.0, "lat": 38.917171333333336, "name": "8f6adefd6aa6e04b6c8aaf051738b5af", "fusion_lon": 0.0, "bike_id": "8f6adefd6aa6e04b6c8aaf051738b5af", "is_disabled": 0, "is_reserved": 0}, {"rental_uris": {"ios": "https://dc.lft.to/lastmile_qr_scan", "android": "https://dc.lft.to/lastmile_qr_scan"}, "lon": -77.00727433333333, "type": "electric_scooter", "fusion_lat": 0.0, "lat": 38.8849195, "name": "ea3eb851e4b2630ddec3d7a7bc030ec5", "fusion_lon": 0.0, "bike_id": "ea3eb851e4b2630ddec3d7a7bc030ec5", "is_disabled": 0, "is_reserved": 0}, {"rental_uris": {"ios": "https://dc.lft.to/lastmile_qr_scan", "android": "https://dc.lft.to/lastmile_qr_scan"}, "lon": -77.03457283333333, "type": "electric_scooter", "fusion_lat": 0.0, "lat": 38.90358883333333, "name": "2094aac548e46c29e8061b6e193cf91b", "fusion_lon": 0.0, "bike_id": "2094aac548e46c29e8061b6e193cf91b", "is_disabled": 0, "is_reserved": 0}, {"rental_uris": {"ios": "https://dc.lft.to/lastmile_qr_scan", "android": "https://dc.lft.to/lastmile_qr_scan"}, "lon": -77.01204433333334, "type": "electric_scooter", "fusion_lat": 0.0, "lat": 38.915206166666664, "name": "fab285441df6d6c4f7acff9f4ad5407d", "fusion_lon": 0.0, "bike_id": "fab285441df6d6c4f7acff9f4ad5407d", "is_disabled": 0, "is_reserved": 0}, {"rental_uris": {"ios": "https://dc.lft.to/lastmile_qr_scan", "android": "https://dc.lft.to/lastmile_qr_scan"}, "lon": -77.03172916666666, "type": "electric_scooter", "fusion_lat": 0.0, "lat": 38.8935145, "name": "5476fc721a8ce1d428d07b6ea79f7d3a", "fusion_lon": 0.0, "bike_id": "5476fc721a8ce1d428d07b6ea79f7d3a", "is_disabled": 0, "is_reserved": 0}, {"rental_uris": {"ios": "https://dc.lft.to/lastmile_qr_scan", "android": "https://dc.lft.to/lastmile_qr_scan"}, "lon": -77.04241516666667, "type": "electric_scooter", "fusion_lat": 0.0, "lat": 38.911028, "name": "403f8d7486b5fc5e805cd1520477d2f4", "fusion_lon": 0.0, "bike_id": "403f8d7486b5fc5e805cd1520477d2f4", "is_disabled": 0, "is_reserved": 0}, {"rental_uris": {"ios": "https://dc.lft.to/lastmile_qr_scan", "android": "https://dc.lft.to/lastmile_qr_scan"}, "lon": -77.06406316666667, "type": "electric_bike", "fusion_lat": 0.0, "lat": 38.84344766666667, "name": "c61e50cc72a604a42c201775321b2abe", "fusion_lon": 0.0, "bike_id": "c61e50cc72a604a42c201775321b2abe", "is_disabled": 0, "is_reserved": 0}, {"rental_uris": {"ios": "https://dc.lft.to/lastmile_qr_scan", "android": "https://dc.lft.to/lastmile_qr_scan"}, "lon": -77.03423866666667, "type": "electric_bike", "fusion_lat": 0.0, "lat": 38.92429466666667, "name": "61f7f9e20acbad6ce57dbd0f12170244", "fusion_lon": 0.0, "bike_id": "61f7f9e20acbad6ce57dbd0f12170244", "is_disabled": 0, "is_reserved": 0}, {"rental_uris": {"ios": "https://dc.lft.to/lastmile_qr_scan", "android": "https://dc.lft.to/lastmile_qr_scan"}, "lon": -77.040356, "type": "electric_scooter", "fusion_lat": 0.0, "lat": 38.92345383333333, "name": "d32255b131500a43df0660e7245aed80", "fusion_lon": 0.0, "bike_id": "d32255b131500a43df0660e7245aed80", "is_disabled": 0, "is_reserved": 0}, {"rental_uris": {"ios": "https://dc.lft.to/lastmile_qr_scan", "android": "https://dc.lft.to/lastmile_qr_scan"}, "lon": -77.03000416666667, "type": "electric_scooter", "fusion_lat": 0.0, "lat": 38.9000285, "name": "6b4db677c830f05b9710369a41de5f72", "fusion_lon": 0.0, "bike_id": "6b4db677c830f05b9710369a41de5f72", "is_disabled": 0, "is_reserved": 0}, {"rental_uris": {"ios": "https://dc.lft.to/lastmile_qr_scan", "android": "https://dc.lft.to/lastmile_qr_scan"}, "lon": -76.95533533333334, "type": "electric_scooter", "fusion_lat": 0.0, "lat": 38.88873433333333, "name": "3d1c101253aa0d4f76c7fe678d76a0c0", "fusion_lon": 0.0, "bike_id": "3d1c101253aa0d4f76c7fe678d76a0c0", "is_disabled": 0, "is_reserved": 0}, {"rental_uris": {"ios": "https://dc.lft.to/lastmile_qr_scan", "android": "https://dc.lft.to/lastmile_qr_scan"}, "lon": -77.024034, "type": "electric_scooter", "fusion_lat": 0.0, "lat": 38.915882, "name": "bf5d27505f4171cc6b8badc8635265f9", "fusion_lon": 0.0, "bike_id": "bf5d27505f4171cc6b8badc8635265f9", "is_disabled": 0, "is_reserved": 0}, {"rental_uris": {"ios": "https://dc.lft.to/lastmile_qr_scan", "android": "https://dc.lft.to/lastmile_qr_scan"}, "lon": -77.0281635, "type": "electric_scooter", "fusion_lat": 0.0, "lat": 38.910264166666664, "name": "3e06c94a916212f1455b0a1ff6c589f8", "fusion_lon": 0.0, "bike_id": "3e06c94a916212f1455b0a1ff6c589f8", "is_disabled": 0, "is_reserved": 0}, {"rental_uris": {"ios": "https://dc.lft.to/lastmile_qr_scan", "android": "https://dc.lft.to/lastmile_qr_scan"}, "lon": -77.03369933333333, "type": "electric_scooter", "fusion_lat": 0.0, "lat": 38.88754266666667, "name": "9eeb86c444c9596e88eb5bfa575b8eb4", "fusion_lon": 0.0, "bike_id": "9eeb86c444c9596e88eb5bfa575b8eb4", "is_disabled": 0, "is_reserved": 0}, {"rental_uris": {"ios": "https://dc.lft.to/lastmile_qr_scan", "android": "https://dc.lft.to/lastmile_qr_scan"}, "lon": -77.04347466666667, "type": "electric_scooter", "fusion_lat": 0.0, "lat": 38.90508033333333, "name": "f4cf497bfee84f103e53f0a8641cb8f1", "fusion_lon": 0.0, "bike_id": "f4cf497bfee84f103e53f0a8641cb8f1", "is_disabled": 0, "is_reserved": 0}, {"rental_uris": {"ios": "https://dc.lft.to/lastmile_qr_scan", "android": "https://dc.lft.to/lastmile_qr_scan"}, "lon": -76.99844183333333, "type": "electric_scooter", "fusion_lat": 0.0, "lat": 38.90035666666667, "name": "290089cb1cf2d9f2413732e8f989553e", "fusion_lon": 0.0, "bike_id": "290089cb1cf2d9f2413732e8f989553e", "is_disabled": 0, "is_reserved": 0}, {"rental_uris": {"ios": "https://dc.lft.to/lastmile_qr_scan", "android": "https://dc.lft.to/lastmile_qr_scan"}, "lon": -77.03836866666667, "type": "electric_scooter", "fusion_lat": 0.0, "lat": 38.90380616666667, "name": "f28f9d0060b576f96b37473a6ee88b62", "fusion_lon": 0.0, "bike_id": "f28f9d0060b576f96b37473a6ee88b62", "is_disabled": 0, "is_reserved": 0}, {"rental_uris": {"ios": "https://dc.lft.to/lastmile_qr_scan", "android": "https://dc.lft.to/lastmile_qr_scan"}, "lon": -76.98856383333333, "type": "electric_scooter", "fusion_lat": 0.0, "lat": 38.90345766666667, "name": "dc466d71203eb59bc361f2a17f2642c1", "fusion_lon": 0.0, "bike_id": "dc466d71203eb59bc361f2a17f2642c1", "is_disabled": 0, "is_reserved": 0}, {"rental_uris": {"ios": "https://dc.lft.to/lastmile_qr_scan", "android": "https://dc.lft.to/lastmile_qr_scan"}, "lon": -77.02311333333333, "type": "electric_scooter", "fusion_lat": 0.0, "lat": 38.909069, "name": "07d9f2bac3a15f5950d20205a88f6995", "fusion_lon": 0.0, "bike_id": "07d9f2bac3a15f5950d20205a88f6995", "is_disabled": 0, "is_reserved": 0}, {"rental_uris": {"ios": "https://dc.lft.to/lastmile_qr_scan", "android": "https://dc.lft.to/lastmile_qr_scan"}, "lon": -77.02715983333333, "type": "electric_scooter", "fusion_lat": 0.0, "lat": 38.89984366666667, "name": "6394a8de55270171ed7d46f406a842fb", "fusion_lon": 0.0, "bike_id": "6394a8de55270171ed7d46f406a842fb", "is_disabled": 0, "is_reserved": 0}, {"rental_uris": {"ios": "https://dc.lft.to/lastmile_qr_scan", "android": "https://dc.lft.to/lastmile_qr_scan"}, "lon": -77.03837933333334, "type": "electric_scooter", "fusion_lat": 0.0, "lat": 38.912811833333336, "name": "0ede199298abb6846c3c9dacfb36397e", "fusion_lon": 0.0, "bike_id": "0ede199298abb6846c3c9dacfb36397e", "is_disabled": 0, "is_reserved": 0}, {"rental_uris": {"ios": "https://dc.lft.to/lastmile_qr_scan", "android": "https://dc.lft.to/lastmile_qr_scan"}, "lon": -77.03871983333333, "type": "electric_scooter", "fusion_lat": 0.0, "lat": 38.9125835, "name": "9daee3700b7756c353c2253352723f1a", "fusion_lon": 0.0, "bike_id": "9daee3700b7756c353c2253352723f1a", "is_disabled": 0, "is_reserved": 0}, {"rental_uris": {"ios": "https://dc.lft.to/lastmile_qr_scan", "android": "https://dc.lft.to/lastmile_qr_scan"}, "lon": -77.04170683333334, "type": "electric_scooter", "fusion_lat": 0.0, "lat": 38.90357816666667, "name": "41c198318f07626032b46c1ee4c0eca5", "fusion_lon": 0.0, "bike_id": "41c198318f07626032b46c1ee4c0eca5", "is_disabled": 0, "is_reserved": 0}, {"rental_uris": {"ios": "https://dc.lft.to/lastmile_qr_scan", "android": "https://dc.lft.to/lastmile_qr_scan"}, "lon": -77.0331445, "type": "electric_scooter", "fusion_lat": 0.0, "lat": 38.90829933333333, "name": "ec4d3d8204be7f97b342d77d2c8bc524", "fusion_lon": 0.0, "bike_id": "ec4d3d8204be7f97b342d77d2c8bc524", "is_disabled": 0, "is_reserved": 0}, {"rental_uris": {"ios": "https://dc.lft.to/lastmile_qr_scan", "android": "https://dc.lft.to/lastmile_qr_scan"}, "lon": -77.04716666666667, "type": "electric_scooter", "fusion_lat": 0.0, "lat": 38.9096005, "name": "4eeeaf2b8caefe89ccd73a76c8925984", "fusion_lon": 0.0, "bike_id": "4eeeaf2b8caefe89ccd73a76c8925984", "is_disabled": 0, "is_reserved": 0}, {"rental_uris": {"ios": "https://dc.lft.to/lastmile_qr_scan", "android": "https://dc.lft.to/lastmile_qr_scan"}, "lon": -77.03315616666667, "type": "electric_scooter", "fusion_lat": 0.0, "lat": 38.901354833333336, "name": "046bab24d7c70d2f7604b636c6a5502c", "fusion_lon": 0.0, "bike_id": "046bab24d7c70d2f7604b636c6a5502c", "is_disabled": 0, "is_reserved": 0}, {"rental_uris": {"ios": "https://dc.lft.to/lastmile_qr_scan", "android": "https://dc.lft.to/lastmile_qr_scan"}, "lon": -77.02154816666666, "type": "electric_scooter", "fusion_lat": 0.0, "lat": 38.9282585, "name": "6c921eb33ff81fbef1db68af7fed8197", "fusion_lon": 0.0, "bike_id": "6c921eb33ff81fbef1db68af7fed8197", "is_disabled": 0, "is_reserved": 0}, {"rental_uris": {"ios": "https://dc.lft.to/lastmile_qr_scan", "android": "https://dc.lft.to/lastmile_qr_scan"}, "lon": -77.01769366666667, "type": "electric_bike", "fusion_lat": 0.0, "lat": 38.87705283333333, "name": "be22f9a06c2abe30669dbf080e84323e", "fusion_lon": 0.0, "bike_id": "be22f9a06c2abe30669dbf080e84323e", "is_disabled": 0, "is_reserved": 0}, {"rental_uris": {"ios": "https://dc.lft.to/lastmile_qr_scan", "android": "https://dc.lft.to/lastmile_qr_scan"}, "lon": -77.0319265, "type": "electric_scooter", "fusion_lat": 0.0, "lat": 38.92175133333333, "name": "a860f18a16ed8cd212f6494c37fd94a9", "fusion_lon": 0.0, "bike_id": "a860f18a16ed8cd212f6494c37fd94a9", "is_disabled": 0, "is_reserved": 0}, {"rental_uris": {"ios": "https://dc.lft.to/lastmile_qr_scan", "android": "https://dc.lft.to/lastmile_qr_scan"}, "lon": -76.94972566666667, "type": "electric_scooter", "fusion_lat": 0.0, "lat": 38.893740333333334, "name": "37e7573a8e75091489b0f6dcb27914dd", "fusion_lon": 0.0, "bike_id": "37e7573a8e75091489b0f6dcb27914dd", "is_disabled": 0, "is_reserved": 0}, {"rental_uris": {"ios": "https://dc.lft.to/lastmile_qr_scan", "android": "https://dc.lft.to/lastmile_qr_scan"}, "lon": -77.03194966666666, "type": "electric_scooter", "fusion_lat": 0.0, "lat": 38.90042016666666, "name": "e05abfe1789f56bf0b7ff43b913aed7b", "fusion_lon": 0.0, "bike_id": "e05abfe1789f56bf0b7ff43b913aed7b", "is_disabled": 0, "is_reserved": 0}, {"rental_uris": {"ios": "https://dc.lft.to/lastmile_qr_scan", "android": "https://dc.lft.to/lastmile_qr_scan"}, "lon": -77.03336966666667, "type": "electric_scooter", "fusion_lat": 0.0, "lat": 38.89855766666667, "name": "a5d604ea912a24d6e80bc53a2debe9f8", "fusion_lon": 0.0, "bike_id": "a5d604ea912a24d6e80bc53a2debe9f8", "is_disabled": 0, "is_reserved": 0}, {"rental_uris": {"ios": "https://dc.lft.to/lastmile_qr_scan", "android": "https://dc.lft.to/lastmile_qr_scan"}, "lon": -77.04543216666667, "type": "electric_scooter", "fusion_lat": 0.0, "lat": 38.89483033333333, "name": "4a1ae1c6d8aeaa73a36a11755e0423a7", "fusion_lon": 0.0, "bike_id": "4a1ae1c6d8aeaa73a36a11755e0423a7", "is_disabled": 0, "is_reserved": 0}, {"rental_uris": {"ios": "https://dc.lft.to/lastmile_qr_scan", "android": "https://dc.lft.to/lastmile_qr_scan"}, "lon": -77.02697016666667, "type": "electric_scooter", "fusion_lat": 0.0, "lat": 38.90941383333333, "name": "4afea0b612c4b66dffded43ea2b135dc", "fusion_lon": 0.0, "bike_id": "4afea0b612c4b66dffded43ea2b135dc", "is_disabled": 0, "is_reserved": 0}, {"rental_uris": {"ios": "https://dc.lft.to/lastmile_qr_scan", "android": "https://dc.lft.to/lastmile_qr_scan"}, "lon": -77.02709583333333, "type": "electric_scooter", "fusion_lat": 0.0, "lat": 38.9067075, "name": "f71a0cc32ab27d6e6e028957c0f8ec11", "fusion_lon": 0.0, "bike_id": "f71a0cc32ab27d6e6e028957c0f8ec11", "is_disabled": 0, "is_reserved": 0}, {"rental_uris": {"ios": "https://dc.lft.to/lastmile_qr_scan", "android": "https://dc.lft.to/lastmile_qr_scan"}, "lon": -77.02657666666667, "type": "electric_scooter", "fusion_lat": 0.0, "lat": 38.881101666666666, "name": "91b938e9da205835682aad155ca65282", "fusion_lon": 0.0, "bike_id": "91b938e9da205835682aad155ca65282", "is_disabled": 0, "is_reserved": 0}, {"rental_uris": {"ios": "https://dc.lft.to/lastmile_qr_scan", "android": "https://dc.lft.to/lastmile_qr_scan"}, "lon": -76.98344933333334, "type": "electric_scooter", "fusion_lat": 0.0, "lat": 38.91534383333333, "name": "e9545fe465a357b9f00619fa47c97579", "fusion_lon": 0.0, "bike_id": "e9545fe465a357b9f00619fa47c97579", "is_disabled": 0, "is_reserved": 0}, {"rental_uris": {"ios": "https://dc.lft.to/lastmile_qr_scan", "android": "https://dc.lft.to/lastmile_qr_scan"}, "lon": -77.073083, "type": "electric_scooter", "fusion_lat": 0.0, "lat": 38.936097, "name": "2550d78aa0778e3b0b86b4e37497b52a", "fusion_lon": 0.0, "bike_id": "2550d78aa0778e3b0b86b4e37497b52a", "is_disabled": 0, "is_reserved": 0}, {"rental_uris": {"ios": "https://dc.lft.to/lastmile_qr_scan", "android": "https://dc.lft.to/lastmile_qr_scan"}, "lon": -77.05507966666667, "type": "electric_scooter", "fusion_lat": 0.0, "lat": 38.89964766666667, "name": "c616b173f94b32658bc483b19eeed41b", "fusion_lon": 0.0, "bike_id": "c616b173f94b32658bc483b19eeed41b", "is_disabled": 0, "is_reserved": 0}, {"rental_uris": {"ios": "https://dc.lft.to/lastmile_qr_scan", "android": "https://dc.lft.to/lastmile_qr_scan"}, "lon": -77.03214916666667, "type": "electric_scooter", "fusion_lat": 0.0, "lat": 38.909759666666666, "name": "813754a42d91c86dc63b3acf703bf139", "fusion_lon": 0.0, "bike_id": "813754a42d91c86dc63b3acf703bf139", "is_disabled": 0, "is_reserved": 0}, {"rental_uris": {"ios": "https://dc.lft.to/lastmile_qr_scan", "android": "https://dc.lft.to/lastmile_qr_scan"}, "lon": -77.02690066666666, "type": "electric_scooter", "fusion_lat": 0.0, "lat": 38.91715883333333, "name": "de9700cf68a7cb74eaef695f4aed3ef3", "fusion_lon": 0.0, "bike_id": "de9700cf68a7cb74eaef695f4aed3ef3", "is_disabled": 0, "is_reserved": 0}, {"rental_uris": {"ios": "https://dc.lft.to/lastmile_qr_scan", "android": "https://dc.lft.to/lastmile_qr_scan"}, "lon": -77.04207766666667, "type": "electric_scooter", "fusion_lat": 0.0, "lat": 38.90378333333334, "name": "a10ee11544987617b195a7eadc9d59d6", "fusion_lon": 0.0, "bike_id": "a10ee11544987617b195a7eadc9d59d6", "is_disabled": 0, "is_reserved": 0}, {"rental_uris": {"ios": "https://dc.lft.to/lastmile_qr_scan", "android": "https://dc.lft.to/lastmile_qr_scan"}, "lon": -76.94801966666667, "type": "electric_bike", "fusion_lat": 0.0, "lat": 38.896320333333335, "name": "3a2f8a0cbcb7859571b6a15ddcac2da6", "fusion_lon": 0.0, "bike_id": "3a2f8a0cbcb7859571b6a15ddcac2da6", "is_disabled": 0, "is_reserved": 0}, {"rental_uris": {"ios": "https://dc.lft.to/lastmile_qr_scan", "android": "https://dc.lft.to/lastmile_qr_scan"}, "lon": -77.00660316666666, "type": "electric_scooter", "fusion_lat": 0.0, "lat": 38.876447666666664, "name": "a12cc039eff0578cc15c997c2c204309", "fusion_lon": 0.0, "bike_id": "a12cc039eff0578cc15c997c2c204309", "is_disabled": 0, "is_reserved": 0}, {"rental_uris": {"ios": "https://dc.lft.to/lastmile_qr_scan", "android": "https://dc.lft.to/lastmile_qr_scan"}, "lon": -77.03657483333333, "type": "electric_scooter", "fusion_lat": 0.0, "lat": 38.91307316666666, "name": "655d288b9e3c649286377e18fa8b6a78", "fusion_lon": 0.0, "bike_id": "655d288b9e3c649286377e18fa8b6a78", "is_disabled": 0, "is_reserved": 0}, {"rental_uris": {"ios": "https://dc.lft.to/lastmile_qr_scan", "android": "https://dc.lft.to/lastmile_qr_scan"}, "lon": -76.9907245, "type": "electric_scooter", "fusion_lat": 0.0, "lat": 38.86361016666667, "name": "64565a5e55f7a097340fd6d8cb354787", "fusion_lon": 0.0, "bike_id": "64565a5e55f7a097340fd6d8cb354787", "is_disabled": 0, "is_reserved": 0}, {"rental_uris": {"ios": "https://dc.lft.to/lastmile_qr_scan", "android": "https://dc.lft.to/lastmile_qr_scan"}, "lon": -76.996324, "type": "electric_scooter", "fusion_lat": 0.0, "lat": 38.846203, "name": "ffb960a793946b76a7154ac307bf93c2", "fusion_lon": 0.0, "bike_id": "ffb960a793946b76a7154ac307bf93c2", "is_disabled": 0, "is_reserved": 0}, {"rental_uris": {"ios": "https://dc.lft.to/lastmile_qr_scan", "android": "https://dc.lft.to/lastmile_qr_scan"}, "lon": -77.02381216666667, "type": "electric_scooter", "fusion_lat": 0.0, "lat": 38.952438, "name": "c7bb9c0a9bc4543d3c944ba19fd0bf9c", "fusion_lon": 0.0, "bike_id": "c7bb9c0a9bc4543d3c944ba19fd0bf9c", "is_disabled": 0, "is_reserved": 0}, {"rental_uris": {"ios": "https://dc.lft.to/lastmile_qr_scan", "android": "https://dc.lft.to/lastmile_qr_scan"}, "lon": -77.01881216666666, "type": "electric_scooter", "fusion_lat": 0.0, "lat": 38.907134166666665, "name": "4adb32c4770d997715c972337b4a8ca5", "fusion_lon": 0.0, "bike_id": "4adb32c4770d997715c972337b4a8ca5", "is_disabled": 0, "is_reserved": 0}, {"rental_uris": {"ios": "https://dc.lft.to/lastmile_qr_scan", "android": "https://dc.lft.to/lastmile_qr_scan"}, "lon": -76.9901975, "type": "electric_scooter", "fusion_lat": 0.0, "lat": 38.861015, "name": "a95d20ffbccae2f1584dd3b85e5b21d6", "fusion_lon": 0.0, "bike_id": "a95d20ffbccae2f1584dd3b85e5b21d6", "is_disabled": 0, "is_reserved": 0}, {"rental_uris": {"ios": "https://dc.lft.to/lastmile_qr_scan", "android": "https://dc.lft.to/lastmile_qr_scan"}, "lon": -77.03069683333334, "type": "electric_scooter", "fusion_lat": 0.0, "lat": 38.905749166666666, "name": "83734ce711309b221eadf57974d3d359", "fusion_lon": 0.0, "bike_id": "83734ce711309b221eadf57974d3d359", "is_disabled": 0, "is_reserved": 0}, {"rental_uris": {"ios": "https://dc.lft.to/lastmile_qr_scan", "android": "https://dc.lft.to/lastmile_qr_scan"}, "lon": -76.99734733333334, "type": "electric_scooter", "fusion_lat": 0.0, "lat": 38.90017866666667, "name": "ea1c462743378b1e59097eabdc5c0c2c", "fusion_lon": 0.0, "bike_id": "ea1c462743378b1e59097eabdc5c0c2c", "is_disabled": 0, "is_reserved": 0}, {"rental_uris": {"ios": "https://dc.lft.to/lastmile_qr_scan", "android": "https://dc.lft.to/lastmile_qr_scan"}, "lon": -77.02138183333334, "type": "electric_scooter", "fusion_lat": 0.0, "lat": 38.9376735, "name": "7b36c6ecbe62828c6fd2b5ff08372467", "fusion_lon": 0.0, "bike_id": "7b36c6ecbe62828c6fd2b5ff08372467", "is_disabled": 0, "is_reserved": 0}, {"rental_uris": {"ios": "https://dc.lft.to/lastmile_qr_scan", "android": "https://dc.lft.to/lastmile_qr_scan"}, "lon": -77.06116766666666, "type": "electric_bike", "fusion_lat": 0.0, "lat": 38.90920766666667, "name": "ca942a67cd797de5900ceef003b3ddd2", "fusion_lon": 0.0, "bike_id": "ca942a67cd797de5900ceef003b3ddd2", "is_disabled": 0, "is_reserved": 0}, {"rental_uris": {"ios": "https://dc.lft.to/lastmile_qr_scan", "android": "https://dc.lft.to/lastmile_qr_scan"}, "lon": -76.9476075, "type": "electric_scooter", "fusion_lat": 0.0, "lat": 38.900574666666664, "name": "f4e5397ced76234b37826726931a1b30", "fusion_lon": 0.0, "bike_id": "f4e5397ced76234b37826726931a1b30", "is_disabled": 0, "is_reserved": 0}, {"rental_uris": {"ios": "https://dc.lft.to/lastmile_qr_scan", "android": "https://dc.lft.to/lastmile_qr_scan"}, "lon": -77.0453005, "type": "electric_scooter", "fusion_lat": 0.0, "lat": 38.90785366666667, "name": "04f4a954f897d77b2ced2edff3a9d8e7", "fusion_lon": 0.0, "bike_id": "04f4a954f897d77b2ced2edff3a9d8e7", "is_disabled": 0, "is_reserved": 0}, {"rental_uris": {"ios": "https://dc.lft.to/lastmile_qr_scan", "android": "https://dc.lft.to/lastmile_qr_scan"}, "lon": -76.9945365, "type": "electric_scooter", "fusion_lat": 0.0, "lat": 38.900292, "name": "1f166f37bb90ab1f9bc5d3c597f983a7", "fusion_lon": 0.0, "bike_id": "1f166f37bb90ab1f9bc5d3c597f983a7", "is_disabled": 0, "is_reserved": 0}, {"rental_uris": {"ios": "https://dc.lft.to/lastmile_qr_scan", "android": "https://dc.lft.to/lastmile_qr_scan"}, "lon": -77.043912, "type": "electric_scooter", "fusion_lat": 0.0, "lat": 38.917937, "name": "c5977cf1733ba59d4bb6947a04fefbaa", "fusion_lon": 0.0, "bike_id": "c5977cf1733ba59d4bb6947a04fefbaa", "is_disabled": 0, "is_reserved": 0}, {"rental_uris": {"ios": "https://dc.lft.to/lastmile_qr_scan", "android": "https://dc.lft.to/lastmile_qr_scan"}, "lon": -77.03910516666667, "type": "electric_bike", "fusion_lat": 0.0, "lat": 38.92321666666667, "name": "959c2b2743234eff74f9d2e7089ffebf", "fusion_lon": 0.0, "bike_id": "959c2b2743234eff74f9d2e7089ffebf", "is_disabled": 0, "is_reserved": 0}, {"rental_uris": {"ios": "https://dc.lft.to/lastmile_qr_scan", "android": "https://dc.lft.to/lastmile_qr_scan"}, "lon": -77.04649316666666, "type": "electric_bike", "fusion_lat": 0.0, "lat": 38.8520905, "name": "809770d3193431067c0d6bbdc0f0a350", "fusion_lon": 0.0, "bike_id": "809770d3193431067c0d6bbdc0f0a350", "is_disabled": 0, "is_reserved": 0}, {"rental_uris": {"ios": "https://dc.lft.to/lastmile_qr_scan", "android": "https://dc.lft.to/lastmile_qr_scan"}, "lon": -77.02434266666667, "type": "electric_scooter", "fusion_lat": 0.0, "lat": 38.92053333333333, "name": "91e1c27ffcaa2d057a74f89de2ecb60f", "fusion_lon": 0.0, "bike_id": "91e1c27ffcaa2d057a74f89de2ecb60f", "is_disabled": 0, "is_reserved": 0}, {"rental_uris": {"ios": "https://dc.lft.to/lastmile_qr_scan", "android": "https://dc.lft.to/lastmile_qr_scan"}, "lon": -77.02563216666667, "type": "electric_scooter", "fusion_lat": 0.0, "lat": 38.9253525, "name": "b9762590e2227a38a64f8bf105fcf3c7", "fusion_lon": 0.0, "bike_id": "b9762590e2227a38a64f8bf105fcf3c7", "is_disabled": 0, "is_reserved": 0}, {"rental_uris": {"ios": "https://dc.lft.to/lastmile_qr_scan", "android": "https://dc.lft.to/lastmile_qr_scan"}, "lon": -77.01103766666667, "type": "electric_scooter", "fusion_lat": 0.0, "lat": 38.895090333333336, "name": "1863c2ef36faf6d4e9bcbf4ef7619786", "fusion_lon": 0.0, "bike_id": "1863c2ef36faf6d4e9bcbf4ef7619786", "is_disabled": 0, "is_reserved": 0}, {"rental_uris": {"ios": "https://dc.lft.to/lastmile_qr_scan", "android": "https://dc.lft.to/lastmile_qr_scan"}, "lon": -77.0387195, "type": "electric_scooter", "fusion_lat": 0.0, "lat": 38.9125725, "name": "e14159a6a77212fe0a994fa4eb279a72", "fusion_lon": 0.0, "bike_id": "e14159a6a77212fe0a994fa4eb279a72", "is_disabled": 0, "is_reserved": 0}, {"rental_uris": {"ios": "https://dc.lft.to/lastmile_qr_scan", "android": "https://dc.lft.to/lastmile_qr_scan"}, "lon": -77.04158616666666, "type": "electric_scooter", "fusion_lat": 0.0, "lat": 38.914191333333335, "name": "937d5f61eb99c6eb1158a6e5c0d5ee1d", "fusion_lon": 0.0, "bike_id": "937d5f61eb99c6eb1158a6e5c0d5ee1d", "is_disabled": 0, "is_reserved": 0}, {"rental_uris": {"ios": "https://dc.lft.to/lastmile_qr_scan", "android": "https://dc.lft.to/lastmile_qr_scan"}, "lon": -76.99947166666666, "type": "electric_scooter", "fusion_lat": 0.0, "lat": 38.842904833333336, "name": "bf96c8b51bfdebcb1ee1f1ebc01edd93", "fusion_lon": 0.0, "bike_id": "bf96c8b51bfdebcb1ee1f1ebc01edd93", "is_disabled": 0, "is_reserved": 0}, {"rental_uris": {"ios": "https://dc.lft.to/lastmile_qr_scan", "android": "https://dc.lft.to/lastmile_qr_scan"}, "lon": -77.045802, "type": "electric_scooter", "fusion_lat": 0.0, "lat": 38.917804833333335, "name": "6991b2f44b017672797297269c2feef7", "fusion_lon": 0.0, "bike_id": "6991b2f44b017672797297269c2feef7", "is_disabled": 0, "is_reserved": 0}, {"rental_uris": {"ios": "https://dc.lft.to/lastmile_qr_scan", "android": "https://dc.lft.to/lastmile_qr_scan"}, "lon": -77.03313833333333, "type": "electric_scooter", "fusion_lat": 0.0, "lat": 38.900553, "name": "ffd355a0152d5027e94c95b74ba6945a", "fusion_lon": 0.0, "bike_id": "ffd355a0152d5027e94c95b74ba6945a", "is_disabled": 0, "is_reserved": 0}, {"rental_uris": {"ios": "https://dc.lft.to/lastmile_qr_scan", "android": "https://dc.lft.to/lastmile_qr_scan"}, "lon": -77.04156066666667, "type": "electric_scooter", "fusion_lat": 0.0, "lat": 38.91798983333333, "name": "a2797dde1a551680fb8427a959ec85c8", "fusion_lon": 0.0, "bike_id": "a2797dde1a551680fb8427a959ec85c8", "is_disabled": 0, "is_reserved": 0}, {"rental_uris": {"ios": "https://dc.lft.to/lastmile_qr_scan", "android": "https://dc.lft.to/lastmile_qr_scan"}, "lon": -76.94735716666666, "type": "electric_scooter", "fusion_lat": 0.0, "lat": 38.89666583333333, "name": "9205baee55decaa266988bbc902b2cf8", "fusion_lon": 0.0, "bike_id": "9205baee55decaa266988bbc902b2cf8", "is_disabled": 0, "is_reserved": 0}, {"rental_uris": {"ios": "https://dc.lft.to/lastmile_qr_scan", "android": "https://dc.lft.to/lastmile_qr_scan"}, "lon": -77.01097933333334, "type": "electric_scooter", "fusion_lat": 0.0, "lat": 38.918185333333334, "name": "a50322046214895c6085d193e58248f4", "fusion_lon": 0.0, "bike_id": "a50322046214895c6085d193e58248f4", "is_disabled": 0, "is_reserved": 0}, {"rental_uris": {"ios": "https://dc.lft.to/lastmile_qr_scan", "android": "https://dc.lft.to/lastmile_qr_scan"}, "lon": -77.02384166666667, "type": "electric_scooter", "fusion_lat": 0.0, "lat": 38.909516333333336, "name": "7b0fa70ea62fac7c9c90491f8687ddd1", "fusion_lon": 0.0, "bike_id": "7b0fa70ea62fac7c9c90491f8687ddd1", "is_disabled": 0, "is_reserved": 0}, {"rental_uris": {"ios": "https://dc.lft.to/lastmile_qr_scan", "android": "https://dc.lft.to/lastmile_qr_scan"}, "lon": -77.023193, "type": "electric_scooter", "fusion_lat": 0.0, "lat": 38.91764583333333, "name": "43d7c615456e037b8db7046087425f74", "fusion_lon": 0.0, "bike_id": "43d7c615456e037b8db7046087425f74", "is_disabled": 0, "is_reserved": 0}, {"rental_uris": {"ios": "https://dc.lft.to/lastmile_qr_scan", "android": "https://dc.lft.to/lastmile_qr_scan"}, "lon": -77.0010585, "type": "electric_scooter", "fusion_lat": 0.0, "lat": 38.894310833333336, "name": "57c6475cf54c5dc0b581118427540c06", "fusion_lon": 0.0, "bike_id": "57c6475cf54c5dc0b581118427540c06", "is_disabled": 0, "is_reserved": 0}, {"rental_uris": {"ios": "https://dc.lft.to/lastmile_qr_scan", "android": "https://dc.lft.to/lastmile_qr_scan"}, "lon": -77.021054, "type": "electric_scooter", "fusion_lat": 0.0, "lat": 38.91011566666667, "name": "2aebfcfd72b88f759b97e46ec7491028", "fusion_lon": 0.0, "bike_id": "2aebfcfd72b88f759b97e46ec7491028", "is_disabled": 0, "is_reserved": 0}, {"rental_uris": {"ios": "https://dc.lft.to/lastmile_qr_scan", "android": "https://dc.lft.to/lastmile_qr_scan"}, "lon": -77.0254065, "type": "electric_scooter", "fusion_lat": 0.0, "lat": 38.94095216666667, "name": "aa876e4639712a39ded20a54efed2cc0", "fusion_lon": 0.0, "bike_id": "aa876e4639712a39ded20a54efed2cc0", "is_disabled": 0, "is_reserved": 0}, {"rental_uris": {"ios": "https://dc.lft.to/lastmile_qr_scan", "android": "https://dc.lft.to/lastmile_qr_scan"}, "lon": -76.9478255, "type": "electric_bike", "fusion_lat": 0.0, "lat": 38.89437266666667, "name": "597d73724dc96b7b6a36412f37a0be78", "fusion_lon": 0.0, "bike_id": "597d73724dc96b7b6a36412f37a0be78", "is_disabled": 0, "is_reserved": 0}, {"rental_uris": {"ios": "https://dc.lft.to/lastmile_qr_scan", "android": "https://dc.lft.to/lastmile_qr_scan"}, "lon": -77.3609075, "type": "electric_bike", "fusion_lat": 0.0, "lat": 38.939597, "name": "d3d10e684aa8cf76b793c5d03d6649d8", "fusion_lon": 0.0, "bike_id": "d3d10e684aa8cf76b793c5d03d6649d8", "is_disabled": 0, "is_reserved": 0}, {"rental_uris": {"ios": "https://dc.lft.to/lastmile_qr_scan", "android": "https://dc.lft.to/lastmile_qr_scan"}, "lon": -77.03294816666667, "type": "electric_scooter", "fusion_lat": 0.0, "lat": 38.92221166666667, "name": "ca5c751f694e3d4382589189a710652a", "fusion_lon": 0.0, "bike_id": "ca5c751f694e3d4382589189a710652a", "is_disabled": 0, "is_reserved": 0}, {"rental_uris": {"ios": "https://dc.lft.to/lastmile_qr_scan", "android": "https://dc.lft.to/lastmile_qr_scan"}, "lon": -76.97986466666667, "type": "electric_bike", "fusion_lat": 0.0, "lat": 38.87754183333333, "name": "245c944ce9d4e60514dadb70700bf30f", "fusion_lon": 0.0, "bike_id": "245c944ce9d4e60514dadb70700bf30f", "is_disabled": 0, "is_reserved": 0}, {"rental_uris": {"ios": "https://dc.lft.to/lastmile_qr_scan", "android": "https://dc.lft.to/lastmile_qr_scan"}, "lon": -77.0123515, "type": "electric_scooter", "fusion_lat": 0.0, "lat": 38.915518666666664, "name": "50761529fc1b38716101bbf95eceafa1", "fusion_lon": 0.0, "bike_id": "50761529fc1b38716101bbf95eceafa1", "is_disabled": 0, "is_reserved": 0}, {"rental_uris": {"ios": "https://dc.lft.to/lastmile_qr_scan", "android": "https://dc.lft.to/lastmile_qr_scan"}, "lon": -77.03447183333333, "type": "electric_scooter", "fusion_lat": 0.0, "lat": 38.908164, "name": "3f5dd4b56a805d1b623a415ff5ad166d", "fusion_lon": 0.0, "bike_id": "3f5dd4b56a805d1b623a415ff5ad166d", "is_disabled": 0, "is_reserved": 0}, {"rental_uris": {"ios": "https://dc.lft.to/lastmile_qr_scan", "android": "https://dc.lft.to/lastmile_qr_scan"}, "lon": -77.0274025, "type": "electric_scooter", "fusion_lat": 0.0, "lat": 38.928519666666666, "name": "8cb30822b62ad4e117c54fd48ca41291", "fusion_lon": 0.0, "bike_id": "8cb30822b62ad4e117c54fd48ca41291", "is_disabled": 0, "is_reserved": 0}, {"rental_uris": {"ios": "https://dc.lft.to/lastmile_qr_scan", "android": "https://dc.lft.to/lastmile_qr_scan"}, "lon": -77.04652566666667, "type": "electric_scooter", "fusion_lat": 0.0, "lat": 38.9054515, "name": "beb5af5becacae7ee32210985665c324", "fusion_lon": 0.0, "bike_id": "beb5af5becacae7ee32210985665c324", "is_disabled": 0, "is_reserved": 0}, {"rental_uris": {"ios": "https://dc.lft.to/lastmile_qr_scan", "android": "https://dc.lft.to/lastmile_qr_scan"}, "lon": -77.035007, "type": "electric_scooter", "fusion_lat": 0.0, "lat": 38.92849666666667, "name": "b665d03b476f4cea4f58fb67d9c23d01", "fusion_lon": 0.0, "bike_id": "b665d03b476f4cea4f58fb67d9c23d01", "is_disabled": 0, "is_reserved": 0}, {"rental_uris": {"ios": "https://dc.lft.to/lastmile_qr_scan", "android": "https://dc.lft.to/lastmile_qr_scan"}, "lon": -77.03815616666667, "type": "electric_scooter", "fusion_lat": 0.0, "lat": 38.902748, "name": "56e9c678ca8f8025df31b3995fbd84e0", "fusion_lon": 0.0, "bike_id": "56e9c678ca8f8025df31b3995fbd84e0", "is_disabled": 0, "is_reserved": 0}, {"rental_uris": {"ios": "https://dc.lft.to/lastmile_qr_scan", "android": "https://dc.lft.to/lastmile_qr_scan"}, "lon": -77.04264933333333, "type": "electric_scooter", "fusion_lat": 0.0, "lat": 38.917046666666664, "name": "81ab27dfd91aae9f4c100f51416687fc", "fusion_lon": 0.0, "bike_id": "81ab27dfd91aae9f4c100f51416687fc", "is_disabled": 0, "is_reserved": 0}, {"rental_uris": {"ios": "https://dc.lft.to/lastmile_qr_scan", "android": "https://dc.lft.to/lastmile_qr_scan"}, "lon": -77.04690633333334, "type": "electric_scooter", "fusion_lat": 0.0, "lat": 38.9156355, "name": "982fb40d3c691e97dcfd2ad51f44c965", "fusion_lon": 0.0, "bike_id": "982fb40d3c691e97dcfd2ad51f44c965", "is_disabled": 0, "is_reserved": 0}, {"rental_uris": {"ios": "https://dc.lft.to/lastmile_qr_scan", "android": "https://dc.lft.to/lastmile_qr_scan"}, "lon": -77.03268333333334, "type": "electric_scooter", "fusion_lat": 0.0, "lat": 38.938244833333336, "name": "c78c2a58d9d89230c1f2ad825e99f48f", "fusion_lon": 0.0, "bike_id": "c78c2a58d9d89230c1f2ad825e99f48f", "is_disabled": 0, "is_reserved": 0}, {"rental_uris": {"ios": "https://dc.lft.to/lastmile_qr_scan", "android": "https://dc.lft.to/lastmile_qr_scan"}, "lon": -77.02835033333334, "type": "electric_scooter", "fusion_lat": 0.0, "lat": 38.88768366666667, "name": "a284b9aeb27d772ecbe6126177de8378", "fusion_lon": 0.0, "bike_id": "a284b9aeb27d772ecbe6126177de8378", "is_disabled": 0, "is_reserved": 0}, {"rental_uris": {"ios": "https://dc.lft.to/lastmile_qr_scan", "android": "https://dc.lft.to/lastmile_qr_scan"}, "lon": -77.01434433333333, "type": "electric_scooter", "fusion_lat": 0.0, "lat": 38.92992383333333, "name": "fe623c9eb45601a3df54c3f8917c42ef", "fusion_lon": 0.0, "bike_id": "fe623c9eb45601a3df54c3f8917c42ef", "is_disabled": 0, "is_reserved": 0}, {"rental_uris": {"ios": "https://dc.lft.to/lastmile_qr_scan", "android": "https://dc.lft.to/lastmile_qr_scan"}, "lon": -77.04180366666667, "type": "electric_scooter", "fusion_lat": 0.0, "lat": 38.9186265, "name": "e755eeb0cbe9657a34a20714578dfa9f", "fusion_lon": 0.0, "bike_id": "e755eeb0cbe9657a34a20714578dfa9f", "is_disabled": 0, "is_reserved": 0}, {"rental_uris": {"ios": "https://dc.lft.to/lastmile_qr_scan", "android": "https://dc.lft.to/lastmile_qr_scan"}, "lon": -77.01591883333333, "type": "electric_scooter", "fusion_lat": 0.0, "lat": 38.95709133333333, "name": "ddff8f44b672c9cfd7561e649c52c2a3", "fusion_lon": 0.0, "bike_id": "ddff8f44b672c9cfd7561e649c52c2a3", "is_disabled": 0, "is_reserved": 0}, {"rental_uris": {"ios": "https://dc.lft.to/lastmile_qr_scan", "android": "https://dc.lft.to/lastmile_qr_scan"}, "lon": -77.03455933333333, "type": "electric_scooter", "fusion_lat": 0.0, "lat": 38.918335666666664, "name": "284541ba022a7c05ced7bd69529a3c57", "fusion_lon": 0.0, "bike_id": "284541ba022a7c05ced7bd69529a3c57", "is_disabled": 0, "is_reserved": 0}, {"rental_uris": {"ios": "https://dc.lft.to/lastmile_qr_scan", "android": "https://dc.lft.to/lastmile_qr_scan"}, "lon": -77.04262266666667, "type": "electric_scooter", "fusion_lat": 0.0, "lat": 38.921964, "name": "d9483bcad5cb4d38863fe6e42f5c2c0b", "fusion_lon": 0.0, "bike_id": "d9483bcad5cb4d38863fe6e42f5c2c0b", "is_disabled": 0, "is_reserved": 0}, {"rental_uris": {"ios": "https://dc.lft.to/lastmile_qr_scan", "android": "https://dc.lft.to/lastmile_qr_scan"}, "lon": -77.03650916666666, "type": "electric_scooter", "fusion_lat": 0.0, "lat": 38.95628983333334, "name": "32efd66564ed550cbe13782eb9acaf0a", "fusion_lon": 0.0, "bike_id": "32efd66564ed550cbe13782eb9acaf0a", "is_disabled": 0, "is_reserved": 0}, {"rental_uris": {"ios": "https://dc.lft.to/lastmile_qr_scan", "android": "https://dc.lft.to/lastmile_qr_scan"}, "lon": -77.02239816666666, "type": "electric_scooter", "fusion_lat": 0.0, "lat": 38.91116133333333, "name": "107ea80faf0de528aae6962761f5e016", "fusion_lon": 0.0, "bike_id": "107ea80faf0de528aae6962761f5e016", "is_disabled": 0, "is_reserved": 0}, {"rental_uris": {"ios": "https://dc.lft.to/lastmile_qr_scan", "android": "https://dc.lft.to/lastmile_qr_scan"}, "lon": -77.0920975, "type": "electric_scooter", "fusion_lat": 0.0, "lat": 38.91717283333333, "name": "4bd666064b9a92598fd1e64f395cd709", "fusion_lon": 0.0, "bike_id": "4bd666064b9a92598fd1e64f395cd709", "is_disabled": 0, "is_reserved": 0}, {"rental_uris": {"ios": "https://dc.lft.to/lastmile_qr_scan", "android": "https://dc.lft.to/lastmile_qr_scan"}, "lon": -76.94669033333334, "type": "electric_scooter", "fusion_lat": 0.0, "lat": 38.89869083333333, "name": "d1021c619e85190f256f1427c87dac69", "fusion_lon": 0.0, "bike_id": "d1021c619e85190f256f1427c87dac69", "is_disabled": 0, "is_reserved": 0}, {"rental_uris": {"ios": "https://dc.lft.to/lastmile_qr_scan", "android": "https://dc.lft.to/lastmile_qr_scan"}, "lon": -76.997016, "type": "electric_scooter", "fusion_lat": 0.0, "lat": 38.90835916666666, "name": "400e52a00021d909dbd9e6bdec51ff7c", "fusion_lon": 0.0, "bike_id": "400e52a00021d909dbd9e6bdec51ff7c", "is_disabled": 0, "is_reserved": 0}, {"rental_uris": {"ios": "https://dc.lft.to/lastmile_qr_scan", "android": "https://dc.lft.to/lastmile_qr_scan"}, "lon": -77.03301483333334, "type": "electric_scooter", "fusion_lat": 0.0, "lat": 38.909779, "name": "c76e970d9f5ccfa80a86876e1b1ce2b9", "fusion_lon": 0.0, "bike_id": "c76e970d9f5ccfa80a86876e1b1ce2b9", "is_disabled": 0, "is_reserved": 0}, {"rental_uris": {"ios": "https://dc.lft.to/lastmile_qr_scan", "android": "https://dc.lft.to/lastmile_qr_scan"}, "lon": -77.02776416666667, "type": "electric_scooter", "fusion_lat": 0.0, "lat": 38.913110333333336, "name": "863ac88b6c8e4a36eb6c061ee3266f6a", "fusion_lon": 0.0, "bike_id": "863ac88b6c8e4a36eb6c061ee3266f6a", "is_disabled": 0, "is_reserved": 0}, {"rental_uris": {"ios": "https://dc.lft.to/lastmile_qr_scan", "android": "https://dc.lft.to/lastmile_qr_scan"}, "lon": -77.04689716666667, "type": "electric_scooter", "fusion_lat": 0.0, "lat": 38.921312666666665, "name": "0ca809912a6dc1055d0d526333e6067e", "fusion_lon": 0.0, "bike_id": "0ca809912a6dc1055d0d526333e6067e", "is_disabled": 0, "is_reserved": 0}, {"rental_uris": {"ios": "https://dc.lft.to/lastmile_qr_scan", "android": "https://dc.lft.to/lastmile_qr_scan"}, "lon": -77.01849816666666, "type": "electric_bike", "fusion_lat": 0.0, "lat": 38.931069666666666, "name": "d5fb99ac54bb2105e2146faffc12022c", "fusion_lon": 0.0, "bike_id": "d5fb99ac54bb2105e2146faffc12022c", "is_disabled": 0, "is_reserved": 0}, {"rental_uris": {"ios": "https://dc.lft.to/lastmile_qr_scan", "android": "https://dc.lft.to/lastmile_qr_scan"}, "lon": -77.02102683333334, "type": "electric_scooter", "fusion_lat": 0.0, "lat": 38.93447333333334, "name": "b9b49e8a2c83abdc6a4b5d2fa7b238e0", "fusion_lon": 0.0, "bike_id": "b9b49e8a2c83abdc6a4b5d2fa7b238e0", "is_disabled": 0, "is_reserved": 0}, {"rental_uris": {"ios": "https://dc.lft.to/lastmile_qr_scan", "android": "https://dc.lft.to/lastmile_qr_scan"}, "lon": -77.03943133333334, "type": "electric_scooter", "fusion_lat": 0.0, "lat": 38.908170166666665, "name": "0eac9cf177d4c1314eb5976de8b186fd", "fusion_lon": 0.0, "bike_id": "0eac9cf177d4c1314eb5976de8b186fd", "is_disabled": 0, "is_reserved": 0}, {"rental_uris": {"ios": "https://dc.lft.to/lastmile_qr_scan", "android": "https://dc.lft.to/lastmile_qr_scan"}, "lon": -77.038355, "type": "electric_scooter", "fusion_lat": 0.0, "lat": 38.9038095, "name": "625c330c0e0d6ad6941b880fb3c78bf0", "fusion_lon": 0.0, "bike_id": "625c330c0e0d6ad6941b880fb3c78bf0", "is_disabled": 0, "is_reserved": 0}, {"rental_uris": {"ios": "https://dc.lft.to/lastmile_qr_scan", "android": "https://dc.lft.to/lastmile_qr_scan"}, "lon": -77.0381535, "type": "electric_scooter", "fusion_lat": 0.0, "lat": 38.935957, "name": "1214971459bf6a9d19c59e5723fbb2a1", "fusion_lon": 0.0, "bike_id": "1214971459bf6a9d19c59e5723fbb2a1", "is_disabled": 0, "is_reserved": 0}, {"rental_uris": {"ios": "https://dc.lft.to/lastmile_qr_scan", "android": "https://dc.lft.to/lastmile_qr_scan"}, "lon": -77.03216916666666, "type": "electric_scooter", "fusion_lat": 0.0, "lat": 38.91699366666667, "name": "65b13ae485126c6b9e702c749232a751", "fusion_lon": 0.0, "bike_id": "65b13ae485126c6b9e702c749232a751", "is_disabled": 0, "is_reserved": 0}, {"rental_uris": {"ios": "https://dc.lft.to/lastmile_qr_scan", "android": "https://dc.lft.to/lastmile_qr_scan"}, "lon": -77.02320083333333, "type": "electric_scooter", "fusion_lat": 0.0, "lat": 38.883573166666665, "name": "8abd50ee0c31743207de558241a93c57", "fusion_lon": 0.0, "bike_id": "8abd50ee0c31743207de558241a93c57", "is_disabled": 0, "is_reserved": 0}, {"rental_uris": {"ios": "https://dc.lft.to/lastmile_qr_scan", "android": "https://dc.lft.to/lastmile_qr_scan"}, "lon": -77.044115, "type": "electric_scooter", "fusion_lat": 0.0, "lat": 38.87428666666667, "name": "407dcb77cbcacfd7299754e23a4585d0", "fusion_lon": 0.0, "bike_id": "407dcb77cbcacfd7299754e23a4585d0", "is_disabled": 0, "is_reserved": 0}, {"rental_uris": {"ios": "https://dc.lft.to/lastmile_qr_scan", "android": "https://dc.lft.to/lastmile_qr_scan"}, "lon": -77.03958133333333, "type": "electric_scooter", "fusion_lat": 0.0, "lat": 38.9025465, "name": "848b0724f383edab5a37a0f5fb869ae6", "fusion_lon": 0.0, "bike_id": "848b0724f383edab5a37a0f5fb869ae6", "is_disabled": 0, "is_reserved": 0}, {"rental_uris": {"ios": "https://dc.lft.to/lastmile_qr_scan", "android": "https://dc.lft.to/lastmile_qr_scan"}, "lon": -77.13094566666666, "type": "electric_bike", "fusion_lat": 0.0, "lat": 38.861606, "name": "e58e2db96746cf30dcb44784677001ab", "fusion_lon": 0.0, "bike_id": "e58e2db96746cf30dcb44784677001ab", "is_disabled": 0, "is_reserved": 0}, {"rental_uris": {"ios": "https://dc.lft.to/lastmile_qr_scan", "android": "https://dc.lft.to/lastmile_qr_scan"}, "lon": -77.031281, "type": "electric_scooter", "fusion_lat": 0.0, "lat": 38.973777, "name": "b5595a4ac0c45f9abb7fcbb867a22213", "fusion_lon": 0.0, "bike_id": "b5595a4ac0c45f9abb7fcbb867a22213", "is_disabled": 0, "is_reserved": 0}, {"rental_uris": {"ios": "https://dc.lft.to/lastmile_qr_scan", "android": "https://dc.lft.to/lastmile_qr_scan"}, "lon": -77.0470465, "type": "electric_scooter", "fusion_lat": 0.0, "lat": 38.921076666666664, "name": "0cbe615fde03cbaf640eefbde699b2cb", "fusion_lon": 0.0, "bike_id": "0cbe615fde03cbaf640eefbde699b2cb", "is_disabled": 0, "is_reserved": 0}, {"rental_uris": {"ios": "https://dc.lft.to/lastmile_qr_scan", "android": "https://dc.lft.to/lastmile_qr_scan"}, "lon": -77.02408916666667, "type": "electric_bike", "fusion_lat": 0.0, "lat": 38.93463333333333, "name": "4474824f43669e28125f707abef2821f", "fusion_lon": 0.0, "bike_id": "4474824f43669e28125f707abef2821f", "is_disabled": 0, "is_reserved": 0}, {"rental_uris": {"ios": "https://dc.lft.to/lastmile_qr_scan", "android": "https://dc.lft.to/lastmile_qr_scan"}, "lon": -77.031955, "type": "electric_scooter", "fusion_lat": 0.0, "lat": 38.91400866666667, "name": "17974b6b396cbc31ac772bf6c5aedabb", "fusion_lon": 0.0, "bike_id": "17974b6b396cbc31ac772bf6c5aedabb", "is_disabled": 0, "is_reserved": 0}, {"rental_uris": {"ios": "https://dc.lft.to/lastmile_qr_scan", "android": "https://dc.lft.to/lastmile_qr_scan"}, "lon": -77.04183983333333, "type": "electric_scooter", "fusion_lat": 0.0, "lat": 38.9014905, "name": "e60bdf3aecdf5a106fc29b647822f9c0", "fusion_lon": 0.0, "bike_id": "e60bdf3aecdf5a106fc29b647822f9c0", "is_disabled": 0, "is_reserved": 0}, {"rental_uris": {"ios": "https://dc.lft.to/lastmile_qr_scan", "android": "https://dc.lft.to/lastmile_qr_scan"}, "lon": -77.091651, "type": "electric_bike", "fusion_lat": 0.0, "lat": 38.967554666666665, "name": "39584149fe2a02e12d501cc7ed7a6554", "fusion_lon": 0.0, "bike_id": "39584149fe2a02e12d501cc7ed7a6554", "is_disabled": 0, "is_reserved": 0}, {"rental_uris": {"ios": "https://dc.lft.to/lastmile_qr_scan", "android": "https://dc.lft.to/lastmile_qr_scan"}, "lon": -77.03341666666667, "type": "electric_scooter", "fusion_lat": 0.0, "lat": 38.917171, "name": "297671df35b9d70683a6374699b57f7b", "fusion_lon": 0.0, "bike_id": "297671df35b9d70683a6374699b57f7b", "is_disabled": 0, "is_reserved": 0}, {"rental_uris": {"ios": "https://dc.lft.to/lastmile_qr_scan", "android": "https://dc.lft.to/lastmile_qr_scan"}, "lon": -77.05600783333334, "type": "electric_scooter", "fusion_lat": 0.0, "lat": 38.936952166666664, "name": "5ac66dc451575fa02f714d4088603152", "fusion_lon": 0.0, "bike_id": "5ac66dc451575fa02f714d4088603152", "is_disabled": 0, "is_reserved": 0}, {"rental_uris": {"ios": "https://dc.lft.to/lastmile_qr_scan", "android": "https://dc.lft.to/lastmile_qr_scan"}, "lon": -77.01340483333334, "type": "electric_scooter", "fusion_lat": 0.0, "lat": 38.96608066666667, "name": "f6fb3a9d465729d7a28f9f7a5ad97c11", "fusion_lon": 0.0, "bike_id": "f6fb3a9d465729d7a28f9f7a5ad97c11", "is_disabled": 0, "is_reserved": 0}, {"rental_uris": {"ios": "https://dc.lft.to/lastmile_qr_scan", "android": "https://dc.lft.to/lastmile_qr_scan"}, "lon": -77.0372385, "type": "electric_scooter", "fusion_lat": 0.0, "lat": 38.926285166666666, "name": "ceac5fdfc88977f38ddd467e8059dc79", "fusion_lon": 0.0, "bike_id": "ceac5fdfc88977f38ddd467e8059dc79", "is_disabled": 0, "is_reserved": 0}, {"rental_uris": {"ios": "https://dc.lft.to/lastmile_qr_scan", "android": "https://dc.lft.to/lastmile_qr_scan"}, "lon": -77.02417666666666, "type": "electric_bike", "fusion_lat": 0.0, "lat": 38.9372855, "name": "675ca8cd7bc7fa9433940ea59f92c009", "fusion_lon": 0.0, "bike_id": "675ca8cd7bc7fa9433940ea59f92c009", "is_disabled": 0, "is_reserved": 0}, {"rental_uris": {"ios": "https://dc.lft.to/lastmile_qr_scan", "android": "https://dc.lft.to/lastmile_qr_scan"}, "lon": -77.03233983333334, "type": "electric_scooter", "fusion_lat": 0.0, "lat": 38.896386, "name": "1719ef7023614d96c6f194793b9ab5e1", "fusion_lon": 0.0, "bike_id": "1719ef7023614d96c6f194793b9ab5e1", "is_disabled": 0, "is_reserved": 0}, {"rental_uris": {"ios": "https://dc.lft.to/lastmile_qr_scan", "android": "https://dc.lft.to/lastmile_qr_scan"}, "lon": -76.96177083333333, "type": "electric_bike", "fusion_lat": 0.0, "lat": 38.91858583333333, "name": "3baee2b7abb85acc02469329c9148c4e", "fusion_lon": 0.0, "bike_id": "3baee2b7abb85acc02469329c9148c4e", "is_disabled": 0, "is_reserved": 0}, {"rental_uris": {"ios": "https://dc.lft.to/lastmile_qr_scan", "android": "https://dc.lft.to/lastmile_qr_scan"}, "lon": -77.107289, "type": "electric_bike", "fusion_lat": 0.0, "lat": 38.855491, "name": "280f279a25f5384a8860ea77fc808f3a", "fusion_lon": 0.0, "bike_id": "280f279a25f5384a8860ea77fc808f3a", "is_disabled": 0, "is_reserved": 0}, {"rental_uris": {"ios": "https://dc.lft.to/lastmile_qr_scan", "android": "https://dc.lft.to/lastmile_qr_scan"}, "lon": -77.06615483333333, "type": "electric_scooter", "fusion_lat": 0.0, "lat": 38.9052105, "name": "2b3be00796f4ca978b1fa874d9e855f4", "fusion_lon": 0.0, "bike_id": "2b3be00796f4ca978b1fa874d9e855f4", "is_disabled": 0, "is_reserved": 0}, {"rental_uris": {"ios": "https://dc.lft.to/lastmile_qr_scan", "android": "https://dc.lft.to/lastmile_qr_scan"}, "lon": -77.066752, "type": "electric_scooter", "fusion_lat": 0.0, "lat": 38.914054166666666, "name": "a342ef051fa2c366d3a914a167d535c4", "fusion_lon": 0.0, "bike_id": "a342ef051fa2c366d3a914a167d535c4", "is_disabled": 0, "is_reserved": 0}, {"rental_uris": {"ios": "https://dc.lft.to/lastmile_qr_scan", "android": "https://dc.lft.to/lastmile_qr_scan"}, "lon": -77.04408316666667, "type": "electric_scooter", "fusion_lat": 0.0, "lat": 38.91084016666667, "name": "0d7fcf67af0e542d8c1fd7dc05ec8b54", "fusion_lon": 0.0, "bike_id": "0d7fcf67af0e542d8c1fd7dc05ec8b54", "is_disabled": 0, "is_reserved": 0}, {"rental_uris": {"ios": "https://dc.lft.to/lastmile_qr_scan", "android": "https://dc.lft.to/lastmile_qr_scan"}, "lon": -77.03871916666667, "type": "electric_scooter", "fusion_lat": 0.0, "lat": 38.91257266666667, "name": "a387083d5e2370d3c84e72e00c0c80b1", "fusion_lon": 0.0, "bike_id": "a387083d5e2370d3c84e72e00c0c80b1", "is_disabled": 0, "is_reserved": 0}, {"rental_uris": {"ios": "https://dc.lft.to/lastmile_qr_scan", "android": "https://dc.lft.to/lastmile_qr_scan"}, "lon": -77.02769266666667, "type": "electric_scooter", "fusion_lat": 0.0, "lat": 38.913172, "name": "0c1acdc982dc1f214e48646a843f96c3", "fusion_lon": 0.0, "bike_id": "0c1acdc982dc1f214e48646a843f96c3", "is_disabled": 0, "is_reserved": 0}, {"rental_uris": {"ios": "https://dc.lft.to/lastmile_qr_scan", "android": "https://dc.lft.to/lastmile_qr_scan"}, "lon": -77.026781, "type": "electric_bike", "fusion_lat": 0.0, "lat": 38.997461, "name": "8dcb59607a150a2d09e8ca4aa3e603dd", "fusion_lon": 0.0, "bike_id": "8dcb59607a150a2d09e8ca4aa3e603dd", "is_disabled": 0, "is_reserved": 0}, {"rental_uris": {"ios": "https://dc.lft.to/lastmile_qr_scan", "android": "https://dc.lft.to/lastmile_qr_scan"}, "lon": -77.01522016666667, "type": "electric_scooter", "fusion_lat": 0.0, "lat": 38.91880866666666, "name": "be08651483598dbc10670b95e1f2ba91", "fusion_lon": 0.0, "bike_id": "be08651483598dbc10670b95e1f2ba91", "is_disabled": 0, "is_reserved": 0}, {"rental_uris": {"ios": "https://dc.lft.to/lastmile_qr_scan", "android": "https://dc.lft.to/lastmile_qr_scan"}, "lon": -77.00250283333334, "type": "electric_bike", "fusion_lat": 0.0, "lat": 38.911700333333336, "name": "c4aae2f452f1db42336e9a1b01089aa0", "fusion_lon": 0.0, "bike_id": "c4aae2f452f1db42336e9a1b01089aa0", "is_disabled": 0, "is_reserved": 0}, {"rental_uris": {"ios": "https://dc.lft.to/lastmile_qr_scan", "android": "https://dc.lft.to/lastmile_qr_scan"}, "lon": -77.01819316666666, "type": "electric_scooter", "fusion_lat": 0.0, "lat": 38.90805983333333, "name": "a26b0e25930a0527729469cb03fa18df", "fusion_lon": 0.0, "bike_id": "a26b0e25930a0527729469cb03fa18df", "is_disabled": 0, "is_reserved": 0}, {"rental_uris": {"ios": "https://dc.lft.to/lastmile_qr_scan", "android": "https://dc.lft.to/lastmile_qr_scan"}, "lon": -77.03191983333333, "type": "electric_bike", "fusion_lat": 0.0, "lat": 38.916963833333334, "name": "0e9ff3282cb1e01c2911d9c7d00e138d", "fusion_lon": 0.0, "bike_id": "0e9ff3282cb1e01c2911d9c7d00e138d", "is_disabled": 0, "is_reserved": 0}, {"rental_uris": {"ios": "https://dc.lft.to/lastmile_qr_scan", "android": "https://dc.lft.to/lastmile_qr_scan"}, "lon": -76.97613633333333, "type": "electric_bike", "fusion_lat": 0.0, "lat": 38.913098833333336, "name": "9d7849989bfc2f4800bce8918f59e2ca", "fusion_lon": 0.0, "bike_id": "9d7849989bfc2f4800bce8918f59e2ca", "is_disabled": 0, "is_reserved": 0}, {"rental_uris": {"ios": "https://dc.lft.to/lastmile_qr_scan", "android": "https://dc.lft.to/lastmile_qr_scan"}, "lon": -77.00449466666667, "type": "electric_scooter", "fusion_lat": 0.0, "lat": 38.876952, "name": "276941525d5b0cf490b18eeb5ad7ca75", "fusion_lon": 0.0, "bike_id": "276941525d5b0cf490b18eeb5ad7ca75", "is_disabled": 0, "is_reserved": 0}, {"rental_uris": {"ios": "https://dc.lft.to/lastmile_qr_scan", "android": "https://dc.lft.to/lastmile_qr_scan"}, "lon": -77.02321233333333, "type": "electric_scooter", "fusion_lat": 0.0, "lat": 38.88736466666667, "name": "68707322918fbcb671ee9378e44a02a2", "fusion_lon": 0.0, "bike_id": "68707322918fbcb671ee9378e44a02a2", "is_disabled": 0, "is_reserved": 0}, {"rental_uris": {"ios": "https://dc.lft.to/lastmile_qr_scan", "android": "https://dc.lft.to/lastmile_qr_scan"}, "lon": -77.04394883333333, "type": "electric_scooter", "fusion_lat": 0.0, "lat": 38.9227605, "name": "f5686650aea4fa7e049b9251aff63af2", "fusion_lon": 0.0, "bike_id": "f5686650aea4fa7e049b9251aff63af2", "is_disabled": 0, "is_reserved": 0}, {"rental_uris": {"ios": "https://dc.lft.to/lastmile_qr_scan", "android": "https://dc.lft.to/lastmile_qr_scan"}, "lon": -77.02003316666666, "type": "electric_scooter", "fusion_lat": 0.0, "lat": 38.89247533333333, "name": "3ccfb6a654541faabfaf4415e02ed152", "fusion_lon": 0.0, "bike_id": "3ccfb6a654541faabfaf4415e02ed152", "is_disabled": 0, "is_reserved": 0}, {"rental_uris": {"ios": "https://dc.lft.to/lastmile_qr_scan", "android": "https://dc.lft.to/lastmile_qr_scan"}, "lon": -76.9718895, "type": "electric_scooter", "fusion_lat": 0.0, "lat": 38.91263166666667, "name": "5d656b3a385a9f2a5302c6c7a7c86b9c", "fusion_lon": 0.0, "bike_id": "5d656b3a385a9f2a5302c6c7a7c86b9c", "is_disabled": 0, "is_reserved": 0}, {"rental_uris": {"ios": "https://dc.lft.to/lastmile_qr_scan", "android": "https://dc.lft.to/lastmile_qr_scan"}, "lon": -76.990399, "type": "electric_scooter", "fusion_lat": 0.0, "lat": 38.858714166666665, "name": "ae7f5373d0fe89c410ce5dffdefa7cf7", "fusion_lon": 0.0, "bike_id": "ae7f5373d0fe89c410ce5dffdefa7cf7", "is_disabled": 0, "is_reserved": 0}, {"rental_uris": {"ios": "https://dc.lft.to/lastmile_qr_scan", "android": "https://dc.lft.to/lastmile_qr_scan"}, "lon": -77.0107665, "type": "electric_scooter", "fusion_lat": 0.0, "lat": 38.871062, "name": "c6c885ef6da63722b44c92f9acc9fc69", "fusion_lon": 0.0, "bike_id": "c6c885ef6da63722b44c92f9acc9fc69", "is_disabled": 0, "is_reserved": 0}, {"rental_uris": {"ios": "https://dc.lft.to/lastmile_qr_scan", "android": "https://dc.lft.to/lastmile_qr_scan"}, "lon": -76.9771, "type": "electric_scooter", "fusion_lat": 0.0, "lat": 38.89878133333333, "name": "7747ebb65155e91399ff0b6f1f272260", "fusion_lon": 0.0, "bike_id": "7747ebb65155e91399ff0b6f1f272260", "is_disabled": 0, "is_reserved": 0}, {"rental_uris": {"ios": "https://dc.lft.to/lastmile_qr_scan", "android": "https://dc.lft.to/lastmile_qr_scan"}, "lon": -76.97220583333333, "type": "electric_bike", "fusion_lat": 0.0, "lat": 38.84480166666667, "name": "bdbbc2b5f8820ee35d70bd8bd4b89bba", "fusion_lon": 0.0, "bike_id": "bdbbc2b5f8820ee35d70bd8bd4b89bba", "is_disabled": 0, "is_reserved": 0}, {"rental_uris": {"ios": "https://dc.lft.to/lastmile_qr_scan", "android": "https://dc.lft.to/lastmile_qr_scan"}, "lon": -77.03191983333333, "type": "electric_scooter", "fusion_lat": 0.0, "lat": 38.91794983333333, "name": "db1e7ffd61143bb40244210278544a5d", "fusion_lon": 0.0, "bike_id": "db1e7ffd61143bb40244210278544a5d", "is_disabled": 0, "is_reserved": 0}, {"rental_uris": {"ios": "https://dc.lft.to/lastmile_qr_scan", "android": "https://dc.lft.to/lastmile_qr_scan"}, "lon": -77.02431366666667, "type": "electric_scooter", "fusion_lat": 0.0, "lat": 38.92052983333333, "name": "2be6796ab72c4038330ef4985be8c1ab", "fusion_lon": 0.0, "bike_id": "2be6796ab72c4038330ef4985be8c1ab", "is_disabled": 0, "is_reserved": 0}, {"rental_uris": {"ios": "https://dc.lft.to/lastmile_qr_scan", "android": "https://dc.lft.to/lastmile_qr_scan"}, "lon": -77.00732, "type": "electric_scooter", "fusion_lat": 0.0, "lat": 38.959694999999996, "name": "c05ff26fb0bb1ae718019043d04f61d7", "fusion_lon": 0.0, "bike_id": "c05ff26fb0bb1ae718019043d04f61d7", "is_disabled": 0, "is_reserved": 0}, {"rental_uris": {"ios": "https://dc.lft.to/lastmile_qr_scan", "android": "https://dc.lft.to/lastmile_qr_scan"}, "lon": -77.03474, "type": "electric_bike", "fusion_lat": 0.0, "lat": 38.929845, "name": "dca91379ac54b86d19822e7aa0dcfa31", "fusion_lon": 0.0, "bike_id": "dca91379ac54b86d19822e7aa0dcfa31", "is_disabled": 0, "is_reserved": 0}, {"rental_uris": {"ios": "https://dc.lft.to/lastmile_qr_scan", "android": "https://dc.lft.to/lastmile_qr_scan"}, "lon": -77.03810283333334, "type": "electric_scooter", "fusion_lat": 0.0, "lat": 38.915652, "name": "54dfad99ed8348d1af867640f353c80f", "fusion_lon": 0.0, "bike_id": "54dfad99ed8348d1af867640f353c80f", "is_disabled": 0, "is_reserved": 0}, {"rental_uris": {"ios": "https://dc.lft.to/lastmile_qr_scan", "android": "https://dc.lft.to/lastmile_qr_scan"}, "lon": -76.94925716666667, "type": "electric_scooter", "fusion_lat": 0.0, "lat": 38.8955805, "name": "4b12903b1ea71353856b0c8120246c5f", "fusion_lon": 0.0, "bike_id": "4b12903b1ea71353856b0c8120246c5f", "is_disabled": 0, "is_reserved": 0}, {"rental_uris": {"ios": "https://dc.lft.to/lastmile_qr_scan", "android": "https://dc.lft.to/lastmile_qr_scan"}, "lon": -77.05500133333334, "type": "electric_scooter", "fusion_lat": 0.0, "lat": 38.8997135, "name": "db25e4c7a1727ce7660c18e9bf38c44a", "fusion_lon": 0.0, "bike_id": "db25e4c7a1727ce7660c18e9bf38c44a", "is_disabled": 0, "is_reserved": 0}, {"rental_uris": {"ios": "https://dc.lft.to/lastmile_qr_scan", "android": "https://dc.lft.to/lastmile_qr_scan"}, "lon": -76.95191066666666, "type": "electric_scooter", "fusion_lat": 0.0, "lat": 38.891321833333336, "name": "5d1968086ed287e21d93a2ad0829adee", "fusion_lon": 0.0, "bike_id": "5d1968086ed287e21d93a2ad0829adee", "is_disabled": 0, "is_reserved": 0}, {"rental_uris": {"ios": "https://dc.lft.to/lastmile_qr_scan", "android": "https://dc.lft.to/lastmile_qr_scan"}, "lon": -77.00928816666666, "type": "electric_scooter", "fusion_lat": 0.0, "lat": 38.90930383333333, "name": "3290a92fa67a1f5c73247f32eda3ddc1", "fusion_lon": 0.0, "bike_id": "3290a92fa67a1f5c73247f32eda3ddc1", "is_disabled": 0, "is_reserved": 0}, {"rental_uris": {"ios": "https://dc.lft.to/lastmile_qr_scan", "android": "https://dc.lft.to/lastmile_qr_scan"}, "lon": -77.00884283333333, "type": "electric_scooter", "fusion_lat": 0.0, "lat": 38.90520516666667, "name": "09060d7bafddd20886bcf3bd8ebda3ad", "fusion_lon": 0.0, "bike_id": "09060d7bafddd20886bcf3bd8ebda3ad", "is_disabled": 0, "is_reserved": 0}, {"rental_uris": {"ios": "https://dc.lft.to/lastmile_qr_scan", "android": "https://dc.lft.to/lastmile_qr_scan"}, "lon": -77.0164255, "type": "electric_scooter", "fusion_lat": 0.0, "lat": 38.92935816666667, "name": "b3f66183056e40887f0c9f7b253de995", "fusion_lon": 0.0, "bike_id": "b3f66183056e40887f0c9f7b253de995", "is_disabled": 0, "is_reserved": 0}, {"rental_uris": {"ios": "https://dc.lft.to/lastmile_qr_scan", "android": "https://dc.lft.to/lastmile_qr_scan"}, "lon": -77.03844616666666, "type": "electric_scooter", "fusion_lat": 0.0, "lat": 38.907481, "name": "88e1444f0a705411df8bab948b1d799d", "fusion_lon": 0.0, "bike_id": "88e1444f0a705411df8bab948b1d799d", "is_disabled": 0, "is_reserved": 0}, {"rental_uris": {"ios": "https://dc.lft.to/lastmile_qr_scan", "android": "https://dc.lft.to/lastmile_qr_scan"}, "lon": -77.03269666666667, "type": "electric_scooter", "fusion_lat": 0.0, "lat": 38.916176666666665, "name": "2558fa457e6887a37a5118593c7a5914", "fusion_lon": 0.0, "bike_id": "2558fa457e6887a37a5118593c7a5914", "is_disabled": 0, "is_reserved": 0}, {"rental_uris": {"ios": "https://dc.lft.to/lastmile_qr_scan", "android": "https://dc.lft.to/lastmile_qr_scan"}, "lon": -77.10330966666666, "type": "electric_bike", "fusion_lat": 0.0, "lat": 38.965064, "name": "9adbe2e0dcf2918a2f6320c45816919a", "fusion_lon": 0.0, "bike_id": "9adbe2e0dcf2918a2f6320c45816919a", "is_disabled": 0, "is_reserved": 0}, {"rental_uris": {"ios": "https://dc.lft.to/lastmile_qr_scan", "android": "https://dc.lft.to/lastmile_qr_scan"}, "lon": -77.00189033333334, "type": "electric_scooter", "fusion_lat": 0.0, "lat": 38.900017, "name": "ca2375a495815e1e5d957ddcbe583a7a", "fusion_lon": 0.0, "bike_id": "ca2375a495815e1e5d957ddcbe583a7a", "is_disabled": 0, "is_reserved": 0}, {"rental_uris": {"ios": "https://dc.lft.to/lastmile_qr_scan", "android": "https://dc.lft.to/lastmile_qr_scan"}, "lon": -77.1784345, "type": "electric_bike", "fusion_lat": 0.0, "lat": 39.088628666666665, "name": "07452aef4d66b0ed5ea4f232bdb465d1", "fusion_lon": 0.0, "bike_id": "07452aef4d66b0ed5ea4f232bdb465d1", "is_disabled": 0, "is_reserved": 0}, {"rental_uris": {"ios": "https://dc.lft.to/lastmile_qr_scan", "android": "https://dc.lft.to/lastmile_qr_scan"}, "lon": -76.98903566666667, "type": "electric_scooter", "fusion_lat": 0.0, "lat": 38.86691533333333, "name": "9d6af3ade20ed27bfd1b199685c398af", "fusion_lon": 0.0, "bike_id": "9d6af3ade20ed27bfd1b199685c398af", "is_disabled": 0, "is_reserved": 0}, {"rental_uris": {"ios": "https://dc.lft.to/lastmile_qr_scan", "android": "https://dc.lft.to/lastmile_qr_scan"}, "lon": -77.04422766666667, "type": "electric_scooter", "fusion_lat": 0.0, "lat": 38.92230433333334, "name": "eb083ee6f1f9a9b7e49e39b2910904f6", "fusion_lon": 0.0, "bike_id": "eb083ee6f1f9a9b7e49e39b2910904f6", "is_disabled": 0, "is_reserved": 0}, {"rental_uris": {"ios": "https://dc.lft.to/lastmile_qr_scan", "android": "https://dc.lft.to/lastmile_qr_scan"}, "lon": -76.953621, "type": "electric_bike", "fusion_lat": 0.0, "lat": 38.93952433333333, "name": "90133e0f923c99df364fb2ded899a42e", "fusion_lon": 0.0, "bike_id": "90133e0f923c99df364fb2ded899a42e", "is_disabled": 0, "is_reserved": 0}, {"rental_uris": {"ios": "https://dc.lft.to/lastmile_qr_scan", "android": "https://dc.lft.to/lastmile_qr_scan"}, "lon": -77.01888733333334, "type": "electric_scooter", "fusion_lat": 0.0, "lat": 38.902405333333334, "name": "2c52dee3165c9c9604c76277d289b094", "fusion_lon": 0.0, "bike_id": "2c52dee3165c9c9604c76277d289b094", "is_disabled": 0, "is_reserved": 0}, {"rental_uris": {"ios": "https://dc.lft.to/lastmile_qr_scan", "android": "https://dc.lft.to/lastmile_qr_scan"}, "lon": -77.03654466666667, "type": "electric_scooter", "fusion_lat": 0.0, "lat": 38.902827333333335, "name": "361063c0feaca7a8ef8024d343ed44f4", "fusion_lon": 0.0, "bike_id": "361063c0feaca7a8ef8024d343ed44f4", "is_disabled": 0, "is_reserved": 0}, {"rental_uris": {"ios": "https://dc.lft.to/lastmile_qr_scan", "android": "https://dc.lft.to/lastmile_qr_scan"}, "lon": -77.032618, "type": "electric_scooter", "fusion_lat": 0.0, "lat": 38.92740116666667, "name": "ba043d60722cfdabf4d1d23c11d1bfeb", "fusion_lon": 0.0, "bike_id": "ba043d60722cfdabf4d1d23c11d1bfeb", "is_disabled": 0, "is_reserved": 0}, {"rental_uris": {"ios": "https://dc.lft.to/lastmile_qr_scan", "android": "https://dc.lft.to/lastmile_qr_scan"}, "lon": -77.02709316666666, "type": "electric_scooter", "fusion_lat": 0.0, "lat": 38.94999266666667, "name": "71f9e4f8db5b5813a42499c8d1505bdd", "fusion_lon": 0.0, "bike_id": "71f9e4f8db5b5813a42499c8d1505bdd", "is_disabled": 0, "is_reserved": 0}, {"rental_uris": {"ios": "https://dc.lft.to/lastmile_qr_scan", "android": "https://dc.lft.to/lastmile_qr_scan"},