{"data": {"bikes": [{"name": "6a787cea5e423711baba2061470e651e", "fusion_lat": 0.0, "type": "electric_scooter", "lat": 38.90573333333333, "is_reserved": 0, "is_disabled": 0, "fusion_lon": 0.0, "bike_id": "6a787cea5e423711baba2061470e651e", "lon": -77.0296865, "rental_uris": {"ios": "https://dc.lft.to/lastmile_qr_scan", "android": "https://dc.lft.to/lastmile_qr_scan"}}, {"name": "9c6675281e5d47ce86e5d8d6a85acbe1", "fusion_lat": 0.0, "type": "electric_scooter", "lat": 38.93909166666667, "is_reserved": 0, "is_disabled": 0, "fusion_lon": 0.0, "bike_id": "9c6675281e5d47ce86e5d8d6a85acbe1", "lon": -77.060491, "rental_uris": {"ios": "https://dc.lft.to/lastmile_qr_scan", "android": "https://dc.lft.to/lastmile_qr_scan"}}, {"name": "3d31ec1b5e2a9175442e7bef32bf8737", "fusion_lat": 0.0, "type": "electric_scooter", "lat": 38.905738666666664, "is_reserved": 0, "is_disabled": 0, "fusion_lon": 0.0, "bike_id": "3d31ec1b5e2a9175442e7bef32bf8737", "lon": -77.0297675, "rental_uris": {"ios": "https://dc.lft.to/lastmile_qr_scan", "android": "https://dc.lft.to/lastmile_qr_scan"}}, {"name": "f35a9e85f36a8f89320c8302d0bc4669", "fusion_lat": 0.0, "type": "electric_scooter", "lat": 38.920434666666665, "is_reserved": 0, "is_disabled": 0, "fusion_lon": 0.0, "bike_id": "f35a9e85f36a8f89320c8302d0bc4669", "lon": -77.03451466666667, "rental_uris": {"ios": "https://dc.lft.to/lastmile_qr_scan", "android": "https://dc.lft.to/lastmile_qr_scan"}}, {"name": "ec9707a0e4636258e1864a8974488a0d", "fusion_lat": 0.0, "type": "electric_scooter", "lat": 38.900650666666664, "is_reserved": 0, "is_disabled": 0, "fusion_lon": 0.0, "bike_id": "ec9707a0e4636258e1864a8974488a0d", "lon": -77.045174, "rental_uris": {"ios": "https://dc.lft.to/lastmile_qr_scan", "android": "https://dc.lft.to/lastmile_qr_scan"}}, {"name": "5ab8cd73025e879941356c1fbddf624b", "fusion_lat": 0.0, "type": "electric_scooter", "lat": 38.918765666666665, "is_reserved": 0, "is_disabled": 0, "fusion_lon": 0.0, "bike_id": "5ab8cd73025e879941356c1fbddf624b", "lon": -77.04139133333334, "rental_uris": {"ios": "https://dc.lft.to/lastmile_qr_scan", "android": "https://dc.lft.to/lastmile_qr_scan"}}, {"name": "1d7ee44a2f10a1534bc8583e7186c02c", "fusion_lat": 0.0, "type": "electric_scooter", "lat": 38.9141735, "is_reserved": 0, "is_disabled": 0, "fusion_lon": 0.0, "bike_id": "1d7ee44a2f10a1534bc8583e7186c02c", "lon": -77.026424, "rental_uris": {"ios": "https://dc.lft.to/lastmile_qr_scan", "android": "https://dc.lft.to/lastmile_qr_scan"}}, {"name": "ed9bc78e183bc89d6633778e52179ee2", "fusion_lat": 0.0, "type": "electric_scooter", "lat": 38.90477816666667, "is_reserved": 0, "is_disabled": 0, "fusion_lon": 0.0, "bike_id": "ed9bc78e183bc89d6633778e52179ee2", "lon": -77.04831083333333, "rental_uris": {"ios": "https://dc.lft.to/lastmile_qr_scan", "android": "https://dc.lft.to/lastmile_qr_scan"}}, {"name": "6a6871f9800aee552a599c78f8a6be84", "fusion_lat": 0.0, "type": "electric_bike", "lat": 39.038820333333334, "is_reserved": 0, "is_disabled": 0, "fusion_lon": 0.0, "bike_id": "6a6871f9800aee552a599c78f8a6be84", "lon": -76.99050183333334, "rental_uris": {"ios": "https://dc.lft.to/lastmile_qr_scan", "android": "https://dc.lft.to/lastmile_qr_scan"}}, {"name": "06a1c4846dfcb33158c33d976bc21648", "fusion_lat": 0.0, "type": "electric_scooter", "lat": 38.885023, "is_reserved": 0, "is_disabled": 0, "fusion_lon": 0.0, "bike_id": "06a1c4846dfcb33158c33d976bc21648", "lon": -77.03067066666667, "rental_uris": {"ios": "https://dc.lft.to/lastmile_qr_scan", "android": "https://dc.lft.to/lastmile_qr_scan"}}, {"name": "cd1479d59bb0a83c87c6f17565a6a230", "fusion_lat": 0.0, "type": "electric_bike", "lat": 38.9348705, "is_reserved": 0, "is_disabled": 0, "fusion_lon": 0.0, "bike_id": "cd1479d59bb0a83c87c6f17565a6a230", "lon": -77.029832, "rental_uris": {"ios": "https://dc.lft.to/lastmile_qr_scan", "android": "https://dc.lft.to/lastmile_qr_scan"}}, {"name": "fc6f6c390a02117ab8827a0e9b1667ed", "fusion_lat": 0.0, "type": "electric_scooter", "lat": 38.907387666666665, "is_reserved": 0, "is_disabled": 0, "fusion_lon": 0.0, "bike_id": "fc6f6c390a02117ab8827a0e9b1667ed", "lon": -77.02949333333333, "rental_uris": {"ios": "https://dc.lft.to/lastmile_qr_scan", "android": "https://dc.lft.to/lastmile_qr_scan"}}, {"name": "86aa15e6bf75b045c092bd2a0c86db7f", "fusion_lat": 0.0, "type": "electric_scooter", "lat": 38.8948905, "is_reserved": 0, "is_disabled": 0, "fusion_lon": 0.0, "bike_id": "86aa15e6bf75b045c092bd2a0c86db7f", "lon": -77.02020083333333, "rental_uris": {"ios": "https://dc.lft.to/lastmile_qr_scan", "android": "https://dc.lft.to/lastmile_qr_scan"}}, {"name": "c3ff87b16df4184f3b6c8cfa6c580eb0", "fusion_lat": 0.0, "type": "electric_scooter", "lat": 38.935597, "is_reserved": 0, "is_disabled": 0, "fusion_lon": 0.0, "bike_id": "c3ff87b16df4184f3b6c8cfa6c580eb0", "lon": -77.08189566666667, "rental_uris": {"ios": "https://dc.lft.to/lastmile_qr_scan", "android": "https://dc.lft.to/lastmile_qr_scan"}}, {"name": "63b338e4fdc780c3648a83f302af9cbf", "fusion_lat": 0.0, "type": "electric_scooter", "lat": 38.8841625, "is_reserved": 0, "is_disabled": 0, "fusion_lon": 0.0, "bike_id": "63b338e4fdc780c3648a83f302af9cbf", "lon": -76.97602866666666, "rental_uris": {"ios": "https://dc.lft.to/lastmile_qr_scan", "android": "https://dc.lft.to/lastmile_qr_scan"}}, {"name": "82744c322c4c9d97bae547edc6079e67", "fusion_lat": 0.0, "type": "electric_scooter", "lat": 38.905690166666666, "is_reserved": 0, "is_disabled": 0, "fusion_lon": 0.0, "bike_id": "82744c322c4c9d97bae547edc6079e67", "lon": -77.04503866666667, "rental_uris": {"ios": "https://dc.lft.to/lastmile_qr_scan", "android": "https://dc.lft.to/lastmile_qr_scan"}}, {"name": "d6d6b476cd3b0c7f45ad10d29ece4323", "fusion_lat": 0.0, "type": "electric_scooter", "lat": 38.918075333333334, "is_reserved": 0, "is_disabled": 0, "fusion_lon": 0.0, "bike_id": "d6d6b476cd3b0c7f45ad10d29ece4323", "lon": -77.03218766666667, "rental_uris": {"ios": "https://dc.lft.to/lastmile_qr_scan", "android": "https://dc.lft.to/lastmile_qr_scan"}}, {"name": "001e3c23b005a0f5b26963ba1bea4fc0", "fusion_lat": 0.0, "type": "electric_bike", "lat": 38.863603833333336, "is_reserved": 0, "is_disabled": 0, "fusion_lon": 0.0, "bike_id": "001e3c23b005a0f5b26963ba1bea4fc0", "lon": -76.970112, "rental_uris": {"ios": "https://dc.lft.to/lastmile_qr_scan", "android": "https://dc.lft.to/lastmile_qr_scan"}}, {"name": "2efae6c0b5e113e8d9ec014553176c2f", "fusion_lat": 0.0, "type": "electric_scooter", "lat": 38.91769033333333, "is_reserved": 0, "is_disabled": 0, "fusion_lon": 0.0, "bike_id": "2efae6c0b5e113e8d9ec014553176c2f", "lon": -77.0150275, "rental_uris": {"ios": "https://dc.lft.to/lastmile_qr_scan", "android": "https://dc.lft.to/lastmile_qr_scan"}}, {"name": "9d717aca85771fb3f45c5c4e32a7ae58", "fusion_lat": 0.0, "type": "electric_bike", "lat": 38.96538733333333, "is_reserved": 0, "is_disabled": 0, "fusion_lon": 0.0, "bike_id": "9d717aca85771fb3f45c5c4e32a7ae58", "lon": -77.03529366666666, "rental_uris": {"ios": "https://dc.lft.to/lastmile_qr_scan", "android": "https://dc.lft.to/lastmile_qr_scan"}}, {"name": "fd237986095e57c08ae8d6fe9c3afa49", "fusion_lat": 0.0, "type": "electric_scooter", "lat": 38.903226, "is_reserved": 0, "is_disabled": 0, "fusion_lon": 0.0, "bike_id": "fd237986095e57c08ae8d6fe9c3afa49", "lon": -77.053339, "rental_uris": {"ios": "https://dc.lft.to/lastmile_qr_scan", "android": "https://dc.lft.to/lastmile_qr_scan"}}, {"name": "651bc35337a5b0125dd511ed930ae012", "fusion_lat": 0.0, "type": "electric_scooter", "lat": 38.915560666666664, "is_reserved": 0, "is_disabled": 0, "fusion_lon": 0.0, "bike_id": "651bc35337a5b0125dd511ed930ae012", "lon": -77.03854066666666, "rental_uris": {"ios": "https://dc.lft.to/lastmile_qr_scan", "android": "https://dc.lft.to/lastmile_qr_scan"}}, {"name": "8817c5809ecf20816f5a5e2f2ebf36eb", "fusion_lat": 0.0, "type": "electric_bike", "lat": 38.819401, "is_reserved": 0, "is_disabled": 0, "fusion_lon": 0.0, "bike_id": "8817c5809ecf20816f5a5e2f2ebf36eb", "lon": -77.00211666666667, "rental_uris": {"ios": "https://dc.lft.to/lastmile_qr_scan", "android": "https://dc.lft.to/lastmile_qr_scan"}}, {"name": "e125f204f90452cfdabfad7485afe5f9", "fusion_lat": 0.0, "type": "electric_scooter", "lat": 38.94202166666667, "is_reserved": 0, "is_disabled": 0, "fusion_lon": 0.0, "bike_id": "e125f204f90452cfdabfad7485afe5f9", "lon": -77.025143, "rental_uris": {"ios": "https://dc.lft.to/lastmile_qr_scan", "android": "https://dc.lft.to/lastmile_qr_scan"}}, {"name": "08163809affad79ed497ace687d7a735", "fusion_lat": 0.0, "type": "electric_scooter", "lat": 38.914062, "is_reserved": 0, "is_disabled": 0, "fusion_lon": 0.0, "bike_id": "08163809affad79ed497ace687d7a735", "lon": -77.027248, "rental_uris": {"ios": "https://dc.lft.to/lastmile_qr_scan", "android": "https://dc.lft.to/lastmile_qr_scan"}}, {"name": "1b739db523732823728e82d95e2df530", "fusion_lat": 0.0, "type": "electric_scooter", "lat": 38.90285316666667, "is_reserved": 0, "is_disabled": 0, "fusion_lon": 0.0, "bike_id": "1b739db523732823728e82d95e2df530", "lon": -77.03839816666667, "rental_uris": {"ios": "https://dc.lft.to/lastmile_qr_scan", "android": "https://dc.lft.to/lastmile_qr_scan"}}, {"name": "016db3f488814f7458986d6078d0336b", "fusion_lat": 0.0, "type": "electric_scooter", "lat": 38.91800666666666, "is_reserved": 0, "is_disabled": 0, "fusion_lon": 0.0, "bike_id": "016db3f488814f7458986d6078d0336b", "lon": -77.04016216666666, "rental_uris": {"ios": "https://dc.lft.to/lastmile_qr_scan", "android": "https://dc.lft.to/lastmile_qr_scan"}}, {"name": "ef72439811cab31421692512e9e914bf", "fusion_lat": 0.0, "type": "electric_scooter", "lat": 38.907227666666664, "is_reserved": 0, "is_disabled": 0, "fusion_lon": 0.0, "bike_id": "ef72439811cab31421692512e9e914bf", "lon": -77.04509933333334, "rental_uris": {"ios": "https://dc.lft.to/lastmile_qr_scan", "android": "https://dc.lft.to/lastmile_qr_scan"}}, {"name": "304d1a99af859e434be05a8a68ee6a5e", "fusion_lat": 0.0, "type": "electric_scooter", "lat": 38.934695166666664, "is_reserved": 0, "is_disabled": 0, "fusion_lon": 0.0, "bike_id": "304d1a99af859e434be05a8a68ee6a5e", "lon": -77.0285905, "rental_uris": {"ios": "https://dc.lft.to/lastmile_qr_scan", "android": "https://dc.lft.to/lastmile_qr_scan"}}, {"name": "7cb89dcf2ecf35bd5577ad51adcd6ed7", "fusion_lat": 0.0, "type": "electric_scooter", "lat": 38.927073666666665, "is_reserved": 0, "is_disabled": 0, "fusion_lon": 0.0, "bike_id": "7cb89dcf2ecf35bd5577ad51adcd6ed7", "lon": -77.037291, "rental_uris": {"ios": "https://dc.lft.to/lastmile_qr_scan", "android": "https://dc.lft.to/lastmile_qr_scan"}}, {"name": "5800b0351fac48505405cf826d612dd9", "fusion_lat": 0.0, "type": "electric_scooter", "lat": 38.915797, "is_reserved": 0, "is_disabled": 0, "fusion_lon": 0.0, "bike_id": "5800b0351fac48505405cf826d612dd9", "lon": -77.03183133333333, "rental_uris": {"ios": "https://dc.lft.to/lastmile_qr_scan", "android": "https://dc.lft.to/lastmile_qr_scan"}}, {"name": "bd8b43a3afca2ca2d6e499dcfb9b47c5", "fusion_lat": 0.0, "type": "electric_scooter", "lat": 38.922343, "is_reserved": 0, "is_disabled": 0, "fusion_lon": 0.0, "bike_id": "bd8b43a3afca2ca2d6e499dcfb9b47c5", "lon": -77.04250366666666, "rental_uris": {"ios": "https://dc.lft.to/lastmile_qr_scan", "android": "https://dc.lft.to/lastmile_qr_scan"}}, {"name": "7f2c49e056b932249e92445c1a4e9196", "fusion_lat": 0.0, "type": "electric_bike", "lat": 38.8524835, "is_reserved": 0, "is_disabled": 0, "fusion_lon": 0.0, "bike_id": "7f2c49e056b932249e92445c1a4e9196", "lon": -77.1142745, "rental_uris": {"ios": "https://dc.lft.to/lastmile_qr_scan", "android": "https://dc.lft.to/lastmile_qr_scan"}}, {"name": "8c6f0e33df0b48682eb2d50767aea41e", "fusion_lat": 0.0, "type": "electric_scooter", "lat": 38.9587045, "is_reserved": 0, "is_disabled": 0, "fusion_lon": 0.0, "bike_id": "8c6f0e33df0b48682eb2d50767aea41e", "lon": -77.02052516666667, "rental_uris": {"ios": "https://dc.lft.to/lastmile_qr_scan", "android": "https://dc.lft.to/lastmile_qr_scan"}}, {"name": "97c95ed6122ceff4a3913c0731e21036", "fusion_lat": 0.0, "type": "electric_scooter", "lat": 38.92909083333333, "is_reserved": 0, "is_disabled": 0, "fusion_lon": 0.0, "bike_id": "97c95ed6122ceff4a3913c0731e21036", "lon": -77.02620383333333, "rental_uris": {"ios": "https://dc.lft.to/lastmile_qr_scan", "android": "https://dc.lft.to/lastmile_qr_scan"}}, {"name": "3dba2d4414be93aa388d72807d1ed40f", "fusion_lat": 0.0, "type": "electric_scooter", "lat": 38.909627, "is_reserved": 0, "is_disabled": 0, "fusion_lon": 0.0, "bike_id": "3dba2d4414be93aa388d72807d1ed40f", "lon": -77.0413605, "rental_uris": {"ios": "https://dc.lft.to/lastmile_qr_scan", "android": "https://dc.lft.to/lastmile_qr_scan"}}, {"name": "2fdabe1adc40a91988f7d143c7823634", "fusion_lat": 0.0, "type": "electric_scooter", "lat": 38.842969333333336, "is_reserved": 0, "is_disabled": 0, "fusion_lon": 0.0, "bike_id": "2fdabe1adc40a91988f7d143c7823634", "lon": -76.99951533333333, "rental_uris": {"ios": "https://dc.lft.to/lastmile_qr_scan", "android": "https://dc.lft.to/lastmile_qr_scan"}}, {"name": "3f3ed5c9972877e9d5f6ee0f0b39ccdb", "fusion_lat": 0.0, "type": "electric_scooter", "lat": 38.909735, "is_reserved": 0, "is_disabled": 0, "fusion_lon": 0.0, "bike_id": "3f3ed5c9972877e9d5f6ee0f0b39ccdb", "lon": -77.0217555, "rental_uris": {"ios": "https://dc.lft.to/lastmile_qr_scan", "android": "https://dc.lft.to/lastmile_qr_scan"}}, {"name": "8d5964192e84b96e01c50f3a558022df", "fusion_lat": 0.0, "type": "electric_scooter", "lat": 38.90031066666667, "is_reserved": 0, "is_disabled": 0, "fusion_lon": 0.0, "bike_id": "8d5964192e84b96e01c50f3a558022df", "lon": -76.9885095, "rental_uris": {"ios": "https://dc.lft.to/lastmile_qr_scan", "android": "https://dc.lft.to/lastmile_qr_scan"}}, {"name": "1edab472f13dc3769b250fd0369ed97b", "fusion_lat": 0.0, "type": "electric_scooter", "lat": 38.9134845, "is_reserved": 0, "is_disabled": 0, "fusion_lon": 0.0, "bike_id": "1edab472f13dc3769b250fd0369ed97b", "lon": -77.0034725, "rental_uris": {"ios": "https://dc.lft.to/lastmile_qr_scan", "android": "https://dc.lft.to/lastmile_qr_scan"}}, {"name": "8f3d71e79ea323030574368f6d0c2718", "fusion_lat": 0.0, "type": "electric_scooter", "lat": 38.924551, "is_reserved": 0, "is_disabled": 0, "fusion_lon": 0.0, "bike_id": "8f3d71e79ea323030574368f6d0c2718", "lon": -77.03281433333333, "rental_uris": {"ios": "https://dc.lft.to/lastmile_qr_scan", "android": "https://dc.lft.to/lastmile_qr_scan"}}, {"name": "80c127335b709c6e675bf201e0f0f01c", "fusion_lat": 0.0, "type": "electric_scooter", "lat": 38.90874766666666, "is_reserved": 0, "is_disabled": 0, "fusion_lon": 0.0, "bike_id": "80c127335b709c6e675bf201e0f0f01c", "lon": -77.085979, "rental_uris": {"ios": "https://dc.lft.to/lastmile_qr_scan", "android": "https://dc.lft.to/lastmile_qr_scan"}}, {"name": "560f9ac3c91d5933c23bea84e280aa0f", "fusion_lat": 0.0, "type": "electric_scooter", "lat": 38.93556483333333, "is_reserved": 0, "is_disabled": 0, "fusion_lon": 0.0, "bike_id": "560f9ac3c91d5933c23bea84e280aa0f", "lon": -77.023696, "rental_uris": {"ios": "https://dc.lft.to/lastmile_qr_scan", "android": "https://dc.lft.to/lastmile_qr_scan"}}, {"name": "aa72c1c93aa4a8d80bbec680b5348803", "fusion_lat": 0.0, "type": "electric_scooter", "lat": 38.93890833333333, "is_reserved": 0, "is_disabled": 0, "fusion_lon": 0.0, "bike_id": "aa72c1c93aa4a8d80bbec680b5348803", "lon": -77.02461966666667, "rental_uris": {"ios": "https://dc.lft.to/lastmile_qr_scan", "android": "https://dc.lft.to/lastmile_qr_scan"}}, {"name": "0a082d5ef1c7cbd8258e9334222f4199", "fusion_lat": 0.0, "type": "electric_scooter", "lat": 38.936068166666665, "is_reserved": 0, "is_disabled": 0, "fusion_lon": 0.0, "bike_id": "0a082d5ef1c7cbd8258e9334222f4199", "lon": -77.0558895, "rental_uris": {"ios": "https://dc.lft.to/lastmile_qr_scan", "android": "https://dc.lft.to/lastmile_qr_scan"}}, {"name": "ed3ca05dbd0c18df6389f13eeb9176f9", "fusion_lat": 0.0, "type": "electric_scooter", "lat": 38.88356783333333, "is_reserved": 0, "is_disabled": 0, "fusion_lon": 0.0, "bike_id": "ed3ca05dbd0c18df6389f13eeb9176f9", "lon": -76.99614566666666, "rental_uris": {"ios": "https://dc.lft.to/lastmile_qr_scan", "android": "https://dc.lft.to/lastmile_qr_scan"}}, {"name": "b7de830ada05d6e4a4e9a5f985c19233", "fusion_lat": 0.0, "type": "electric_scooter", "lat": 38.923398166666665, "is_reserved": 0, "is_disabled": 0, "fusion_lon": 0.0, "bike_id": "b7de830ada05d6e4a4e9a5f985c19233", "lon": -77.04188583333334, "rental_uris": {"ios": "https://dc.lft.to/lastmile_qr_scan", "android": "https://dc.lft.to/lastmile_qr_scan"}}, {"name": "433f3590aa8cc5c50f3826bcf7164136", "fusion_lat": 0.0, "type": "electric_scooter", "lat": 38.909521166666664, "is_reserved": 0, "is_disabled": 0, "fusion_lon": 0.0, "bike_id": "433f3590aa8cc5c50f3826bcf7164136", "lon": -77.04942366666667, "rental_uris": {"ios": "https://dc.lft.to/lastmile_qr_scan", "android": "https://dc.lft.to/lastmile_qr_scan"}}, {"name": "2b9327914c23f1c9e0d140f902745d16", "fusion_lat": 0.0, "type": "electric_scooter", "lat": 38.91781133333333, "is_reserved": 0, "is_disabled": 0, "fusion_lon": 0.0, "bike_id": "2b9327914c23f1c9e0d140f902745d16", "lon": -77.0230005, "rental_uris": {"ios": "https://dc.lft.to/lastmile_qr_scan", "android": "https://dc.lft.to/lastmile_qr_scan"}}, {"name": "ca2a2d8d6f23199490a3b7cccbe16860", "fusion_lat": 0.0, "type": "electric_scooter", "lat": 38.8874235, "is_reserved": 0, "is_disabled": 0, "fusion_lon": 0.0, "bike_id": "ca2a2d8d6f23199490a3b7cccbe16860", "lon": -77.03226166666667, "rental_uris": {"ios": "https://dc.lft.to/lastmile_qr_scan", "android": "https://dc.lft.to/lastmile_qr_scan"}}, {"name": "195000de562c32a04272b95bcace1ab9", "fusion_lat": 0.0, "type": "electric_scooter", "lat": 38.92038816666667, "is_reserved": 0, "is_disabled": 0, "fusion_lon": 0.0, "bike_id": "195000de562c32a04272b95bcace1ab9", "lon": -77.071534, "rental_uris": {"ios": "https://dc.lft.to/lastmile_qr_scan", "android": "https://dc.lft.to/lastmile_qr_scan"}}, {"name": "c4b396e98b2464c280fe4cde02f00b96", "fusion_lat": 0.0, "type": "electric_scooter", "lat": 38.92941033333334, "is_reserved": 0, "is_disabled": 0, "fusion_lon": 0.0, "bike_id": "c4b396e98b2464c280fe4cde02f00b96", "lon": -77.03615216666667, "rental_uris": {"ios": "https://dc.lft.to/lastmile_qr_scan", "android": "https://dc.lft.to/lastmile_qr_scan"}}, {"name": "414848746a0b50627fe47d486fd39740", "fusion_lat": 0.0, "type": "electric_scooter", "lat": 38.901302666666666, "is_reserved": 0, "is_disabled": 0, "fusion_lon": 0.0, "bike_id": "414848746a0b50627fe47d486fd39740", "lon": -77.04216416666667, "rental_uris": {"ios": "https://dc.lft.to/lastmile_qr_scan", "android": "https://dc.lft.to/lastmile_qr_scan"}}, {"name": "19f1764abca0e0d910a078584e44fe70", "fusion_lat": 0.0, "type": "electric_scooter", "lat": 38.946039, "is_reserved": 0, "is_disabled": 0, "fusion_lon": 0.0, "bike_id": "19f1764abca0e0d910a078584e44fe70", "lon": -77.02980983333333, "rental_uris": {"ios": "https://dc.lft.to/lastmile_qr_scan", "android": "https://dc.lft.to/lastmile_qr_scan"}}, {"name": "5ad0dd4050d4daadb4ac4f9eea074f9d", "fusion_lat": 0.0, "type": "electric_bike", "lat": 38.9257955, "is_reserved": 0, "is_disabled": 0, "fusion_lon": 0.0, "bike_id": "5ad0dd4050d4daadb4ac4f9eea074f9d", "lon": -76.99492533333333, "rental_uris": {"ios": "https://dc.lft.to/lastmile_qr_scan", "android": "https://dc.lft.to/lastmile_qr_scan"}}, {"name": "808c72c4fe94f59be084339a6c3784fc", "fusion_lat": 0.0, "type": "electric_scooter", "lat": 38.91930416666667, "is_reserved": 0, "is_disabled": 0, "fusion_lon": 0.0, "bike_id": "808c72c4fe94f59be084339a6c3784fc", "lon": -77.03219816666666, "rental_uris": {"ios": "https://dc.lft.to/lastmile_qr_scan", "android": "https://dc.lft.to/lastmile_qr_scan"}}, {"name": "3dc79094739940d49522fd2930b00996", "fusion_lat": 0.0, "type": "electric_scooter", "lat": 38.90055366666667, "is_reserved": 0, "is_disabled": 0, "fusion_lon": 0.0, "bike_id": "3dc79094739940d49522fd2930b00996", "lon": -77.00066816666667, "rental_uris": {"ios": "https://dc.lft.to/lastmile_qr_scan", "android": "https://dc.lft.to/lastmile_qr_scan"}}, {"name": "01d69fc39e9169939d8f85c6b109b3e1", "fusion_lat": 0.0, "type": "electric_scooter", "lat": 38.9160545, "is_reserved": 0, "is_disabled": 0, "fusion_lon": 0.0, "bike_id": "01d69fc39e9169939d8f85c6b109b3e1", "lon": -77.0415695, "rental_uris": {"ios": "https://dc.lft.to/lastmile_qr_scan", "android": "https://dc.lft.to/lastmile_qr_scan"}}, {"name": "9fd59c8e1642cd8d627962b07cd2e6a9", "fusion_lat": 0.0, "type": "electric_scooter", "lat": 38.925755, "is_reserved": 0, "is_disabled": 0, "fusion_lon": 0.0, "bike_id": "9fd59c8e1642cd8d627962b07cd2e6a9", "lon": -77.04370633333333, "rental_uris": {"ios": "https://dc.lft.to/lastmile_qr_scan", "android": "https://dc.lft.to/lastmile_qr_scan"}}, {"name": "d3c7846ea8e53b58e26c631e1d960770", "fusion_lat": 0.0, "type": "electric_scooter", "lat": 38.93609216666667, "is_reserved": 0, "is_disabled": 0, "fusion_lon": 0.0, "bike_id": "d3c7846ea8e53b58e26c631e1d960770", "lon": -77.05864183333334, "rental_uris": {"ios": "https://dc.lft.to/lastmile_qr_scan", "android": "https://dc.lft.to/lastmile_qr_scan"}}, {"name": "0334ee909db01e3536af6b6aff90e145", "fusion_lat": 0.0, "type": "electric_scooter", "lat": 38.91130416666667, "is_reserved": 0, "is_disabled": 0, "fusion_lon": 0.0, "bike_id": "0334ee909db01e3536af6b6aff90e145", "lon": -77.03728083333333, "rental_uris": {"ios": "https://dc.lft.to/lastmile_qr_scan", "android": "https://dc.lft.to/lastmile_qr_scan"}}, {"name": "95805e71420610528cd684b3e3a12554", "fusion_lat": 0.0, "type": "electric_scooter", "lat": 38.903303, "is_reserved": 0, "is_disabled": 0, "fusion_lon": 0.0, "bike_id": "95805e71420610528cd684b3e3a12554", "lon": -77.03861483333333, "rental_uris": {"ios": "https://dc.lft.to/lastmile_qr_scan", "android": "https://dc.lft.to/lastmile_qr_scan"}}, {"name": "9050d5c30369274340ffd9e1d4076d43", "fusion_lat": 0.0, "type": "electric_scooter", "lat": 38.918064, "is_reserved": 0, "is_disabled": 0, "fusion_lon": 0.0, "bike_id": "9050d5c30369274340ffd9e1d4076d43", "lon": -77.02815316666667, "rental_uris": {"ios": "https://dc.lft.to/lastmile_qr_scan", "android": "https://dc.lft.to/lastmile_qr_scan"}}, {"name": "49e28bf3907f376ddd69d791eb1d9a4b", "fusion_lat": 0.0, "type": "electric_scooter", "lat": 38.9220685, "is_reserved": 0, "is_disabled": 0, "fusion_lon": 0.0, "bike_id": "49e28bf3907f376ddd69d791eb1d9a4b", "lon": -77.04244633333333, "rental_uris": {"ios": "https://dc.lft.to/lastmile_qr_scan", "android": "https://dc.lft.to/lastmile_qr_scan"}}, {"name": "280bb6c8af7b3c2100ccc989cdbbd05a", "fusion_lat": 0.0, "type": "electric_scooter", "lat": 38.9308695, "is_reserved": 0, "is_disabled": 0, "fusion_lon": 0.0, "bike_id": "280bb6c8af7b3c2100ccc989cdbbd05a", "lon": -77.02403366666667, "rental_uris": {"ios": "https://dc.lft.to/lastmile_qr_scan", "android": "https://dc.lft.to/lastmile_qr_scan"}}, {"name": "cc1f8318fc7512d59e66d6f129ef73d3", "fusion_lat": 0.0, "type": "electric_scooter", "lat": 38.93965, "is_reserved": 0, "is_disabled": 0, "fusion_lon": 0.0, "bike_id": "cc1f8318fc7512d59e66d6f129ef73d3", "lon": -77.0328345, "rental_uris": {"ios": "https://dc.lft.to/lastmile_qr_scan", "android": "https://dc.lft.to/lastmile_qr_scan"}}, {"name": "a8d42b8128f9d3acd917886f737f8d7b", "fusion_lat": 0.0, "type": "electric_scooter", "lat": 38.901405, "is_reserved": 0, "is_disabled": 0, "fusion_lon": 0.0, "bike_id": "a8d42b8128f9d3acd917886f737f8d7b", "lon": -76.9997045, "rental_uris": {"ios": "https://dc.lft.to/lastmile_qr_scan", "android": "https://dc.lft.to/lastmile_qr_scan"}}, {"name": "b557f895cb2b6439ea8aae0fdee76dae", "fusion_lat": 0.0, "type": "electric_scooter", "lat": 38.90286416666667, "is_reserved": 0, "is_disabled": 0, "fusion_lon": 0.0, "bike_id": "b557f895cb2b6439ea8aae0fdee76dae", "lon": -77.03196283333334, "rental_uris": {"ios": "https://dc.lft.to/lastmile_qr_scan", "android": "https://dc.lft.to/lastmile_qr_scan"}}, {"name": "92d3603d152efb88325a85f9de1fde95", "fusion_lat": 0.0, "type": "electric_scooter", "lat": 38.914267333333335, "is_reserved": 0, "is_disabled": 0, "fusion_lon": 0.0, "bike_id": "92d3603d152efb88325a85f9de1fde95", "lon": -77.02608666666667, "rental_uris": {"ios": "https://dc.lft.to/lastmile_qr_scan", "android": "https://dc.lft.to/lastmile_qr_scan"}}, {"name": "82f331919ea453c8a45af0bbb6822e54", "fusion_lat": 0.0, "type": "electric_scooter", "lat": 38.889373, "is_reserved": 0, "is_disabled": 0, "fusion_lon": 0.0, "bike_id": "82f331919ea453c8a45af0bbb6822e54", "lon": -76.94784116666666, "rental_uris": {"ios": "https://dc.lft.to/lastmile_qr_scan", "android": "https://dc.lft.to/lastmile_qr_scan"}}, {"name": "d145514ee8a58de56d3137c8ba9e7535", "fusion_lat": 0.0, "type": "electric_bike", "lat": 38.83861116666667, "is_reserved": 0, "is_disabled": 0, "fusion_lon": 0.0, "bike_id": "d145514ee8a58de56d3137c8ba9e7535", "lon": -77.0886815, "rental_uris": {"ios": "https://dc.lft.to/lastmile_qr_scan", "android": "https://dc.lft.to/lastmile_qr_scan"}}, {"name": "b46c340d34e3546aeb69e6c981ef32db", "fusion_lat": 0.0, "type": "electric_bike", "lat": 38.9732725, "is_reserved": 0, "is_disabled": 0, "fusion_lon": 0.0, "bike_id": "b46c340d34e3546aeb69e6c981ef32db", "lon": -77.02146833333333, "rental_uris": {"ios": "https://dc.lft.to/lastmile_qr_scan", "android": "https://dc.lft.to/lastmile_qr_scan"}}, {"name": "f1f7a6b521546943f9f194ba9ad30891", "fusion_lat": 0.0, "type": "electric_scooter", "lat": 38.926362166666664, "is_reserved": 0, "is_disabled": 0, "fusion_lon": 0.0, "bike_id": "f1f7a6b521546943f9f194ba9ad30891", "lon": -77.0350845, "rental_uris": {"ios": "https://dc.lft.to/lastmile_qr_scan", "android": "https://dc.lft.to/lastmile_qr_scan"}}, {"name": "f8b7bc4dca32184629bf9f3991f59a61", "fusion_lat": 0.0, "type": "electric_scooter", "lat": 38.920666833333335, "is_reserved": 0, "is_disabled": 0, "fusion_lon": 0.0, "bike_id": "f8b7bc4dca32184629bf9f3991f59a61", "lon": -76.97797083333333, "rental_uris": {"ios": "https://dc.lft.to/lastmile_qr_scan", "android": "https://dc.lft.to/lastmile_qr_scan"}}, {"name": "21dfcde1c2ae59e83e66eb072d820fcb", "fusion_lat": 0.0, "type": "electric_scooter", "lat": 38.9191565, "is_reserved": 0, "is_disabled": 0, "fusion_lon": 0.0, "bike_id": "21dfcde1c2ae59e83e66eb072d820fcb", "lon": -77.02416916666667, "rental_uris": {"ios": "https://dc.lft.to/lastmile_qr_scan", "android": "https://dc.lft.to/lastmile_qr_scan"}}, {"name": "fd75a2ae289e4d39a140cc8a2a8487ca", "fusion_lat": 0.0, "type": "electric_scooter", "lat": 38.9172035, "is_reserved": 0, "is_disabled": 0, "fusion_lon": 0.0, "bike_id": "fd75a2ae289e4d39a140cc8a2a8487ca", "lon": -77.008158, "rental_uris": {"ios": "https://dc.lft.to/lastmile_qr_scan", "android": "https://dc.lft.to/lastmile_qr_scan"}}, {"name": "db4c6ee0209edf26cf7a41a8eeae447a", "fusion_lat": 0.0, "type": "electric_scooter", "lat": 38.925191166666664, "is_reserved": 0, "is_disabled": 0, "fusion_lon": 0.0, "bike_id": "db4c6ee0209edf26cf7a41a8eeae447a", "lon": -77.02558666666667, "rental_uris": {"ios": "https://dc.lft.to/lastmile_qr_scan", "android": "https://dc.lft.to/lastmile_qr_scan"}}, {"name": "4fad5d08f13c861d6fdc0c02c15b5787", "fusion_lat": 0.0, "type": "electric_bike", "lat": 38.96444016666667, "is_reserved": 0, "is_disabled": 0, "fusion_lon": 0.0, "bike_id": "4fad5d08f13c861d6fdc0c02c15b5787", "lon": -77.031628, "rental_uris": {"ios": "https://dc.lft.to/lastmile_qr_scan", "android": "https://dc.lft.to/lastmile_qr_scan"}}, {"name": "8e03a63ff435a510eb71dcfea1864e68", "fusion_lat": 0.0, "type": "electric_scooter", "lat": 38.907882666666666, "is_reserved": 0, "is_disabled": 0, "fusion_lon": 0.0, "bike_id": "8e03a63ff435a510eb71dcfea1864e68", "lon": -77.03859, "rental_uris": {"ios": "https://dc.lft.to/lastmile_qr_scan", "android": "https://dc.lft.to/lastmile_qr_scan"}}, {"name": "ae7ba9fe1f6a41e6612ab2cf6147354f", "fusion_lat": 0.0, "type": "electric_scooter", "lat": 38.911008, "is_reserved": 0, "is_disabled": 0, "fusion_lon": 0.0, "bike_id": "ae7ba9fe1f6a41e6612ab2cf6147354f", "lon": -77.02972183333333, "rental_uris": {"ios": "https://dc.lft.to/lastmile_qr_scan", "android": "https://dc.lft.to/lastmile_qr_scan"}}, {"name": "ed2e8bf40bd60a5c04c7b40229036171", "fusion_lat": 0.0, "type": "electric_scooter", "lat": 38.90924, "is_reserved": 0, "is_disabled": 0, "fusion_lon": 0.0, "bike_id": "ed2e8bf40bd60a5c04c7b40229036171", "lon": -77.04157333333333, "rental_uris": {"ios": "https://dc.lft.to/lastmile_qr_scan", "android": "https://dc.lft.to/lastmile_qr_scan"}}, {"name": "f63c4d3981a5ce4a37e32c3db41b2c7b", "fusion_lat": 0.0, "type": "electric_scooter", "lat": 38.88333466666667, "is_reserved": 0, "is_disabled": 0, "fusion_lon": 0.0, "bike_id": "f63c4d3981a5ce4a37e32c3db41b2c7b", "lon": -77.015349, "rental_uris": {"ios": "https://dc.lft.to/lastmile_qr_scan", "android": "https://dc.lft.to/lastmile_qr_scan"}}, {"name": "342447dba044dd374a7d01ba8fa33667", "fusion_lat": 0.0, "type": "electric_scooter", "lat": 38.865381166666666, "is_reserved": 0, "is_disabled": 0, "fusion_lon": 0.0, "bike_id": "342447dba044dd374a7d01ba8fa33667", "lon": -76.98708116666667, "rental_uris": {"ios": "https://dc.lft.to/lastmile_qr_scan", "android": "https://dc.lft.to/lastmile_qr_scan"}}, {"name": "7306e8ee80d07a23cb5986752319e032", "fusion_lat": 0.0, "type": "electric_scooter", "lat": 38.927590333333335, "is_reserved": 0, "is_disabled": 0, "fusion_lon": 0.0, "bike_id": "7306e8ee80d07a23cb5986752319e032", "lon": -77.0326945, "rental_uris": {"ios": "https://dc.lft.to/lastmile_qr_scan", "android": "https://dc.lft.to/lastmile_qr_scan"}}, {"name": "ba393e0a60e3e4ff712d05c3168d2919", "fusion_lat": 0.0, "type": "electric_scooter", "lat": 38.90484166666667, "is_reserved": 0, "is_disabled": 0, "fusion_lon": 0.0, "bike_id": "ba393e0a60e3e4ff712d05c3168d2919", "lon": -77.02722633333333, "rental_uris": {"ios": "https://dc.lft.to/lastmile_qr_scan", "android": "https://dc.lft.to/lastmile_qr_scan"}}, {"name": "609fe9639a6d314f893958e2b715cb97", "fusion_lat": 0.0, "type": "electric_scooter", "lat": 38.91221783333334, "is_reserved": 0, "is_disabled": 0, "fusion_lon": 0.0, "bike_id": "609fe9639a6d314f893958e2b715cb97", "lon": -77.03178466666667, "rental_uris": {"ios": "https://dc.lft.to/lastmile_qr_scan", "android": "https://dc.lft.to/lastmile_qr_scan"}}, {"name": "d6f94b4d431a357240f7ab88bcfd42c3", "fusion_lat": 0.0, "type": "electric_scooter", "lat": 38.89590883333334, "is_reserved": 0, "is_disabled": 0, "fusion_lon": 0.0, "bike_id": "d6f94b4d431a357240f7ab88bcfd42c3", "lon": -76.9935685, "rental_uris": {"ios": "https://dc.lft.to/lastmile_qr_scan", "android": "https://dc.lft.to/lastmile_qr_scan"}}, {"name": "bca8e9a4f6d68174d6e6dc5d917e4c46", "fusion_lat": 0.0, "type": "electric_scooter", "lat": 38.8922125, "is_reserved": 0, "is_disabled": 0, "fusion_lon": 0.0, "bike_id": "bca8e9a4f6d68174d6e6dc5d917e4c46", "lon": -77.022278, "rental_uris": {"ios": "https://dc.lft.to/lastmile_qr_scan", "android": "https://dc.lft.to/lastmile_qr_scan"}}, {"name": "7c47cf1e28155b040b68b57e66cf8e05", "fusion_lat": 0.0, "type": "electric_bike", "lat": 38.9170245, "is_reserved": 0, "is_disabled": 0, "fusion_lon": 0.0, "bike_id": "7c47cf1e28155b040b68b57e66cf8e05", "lon": -77.0429065, "rental_uris": {"ios": "https://dc.lft.to/lastmile_qr_scan", "android": "https://dc.lft.to/lastmile_qr_scan"}}, {"name": "46dae55b0382a1da6ff198c6717f5662", "fusion_lat": 0.0, "type": "electric_scooter", "lat": 38.9124735, "is_reserved": 0, "is_disabled": 0, "fusion_lon": 0.0, "bike_id": "46dae55b0382a1da6ff198c6717f5662", "lon": -77.038393, "rental_uris": {"ios": "https://dc.lft.to/lastmile_qr_scan", "android": "https://dc.lft.to/lastmile_qr_scan"}}, {"name": "247f0f107dc22bee6ae4349eac633fe6", "fusion_lat": 0.0, "type": "electric_scooter", "lat": 38.929863, "is_reserved": 0, "is_disabled": 0, "fusion_lon": 0.0, "bike_id": "247f0f107dc22bee6ae4349eac633fe6", "lon": -77.01450616666666, "rental_uris": {"ios": "https://dc.lft.to/lastmile_qr_scan", "android": "https://dc.lft.to/lastmile_qr_scan"}}, {"name": "173f4c55c523718e35dca566f17e3cc0", "fusion_lat": 0.0, "type": "electric_scooter", "lat": 38.9431355, "is_reserved": 0, "is_disabled": 0, "fusion_lon": 0.0, "bike_id": "173f4c55c523718e35dca566f17e3cc0", "lon": -77.02486883333333, "rental_uris": {"ios": "https://dc.lft.to/lastmile_qr_scan", "android": "https://dc.lft.to/lastmile_qr_scan"}}, {"name": "37ccce37a76fbec4d5245b783707ea57", "fusion_lat": 0.0, "type": "electric_scooter", "lat": 38.862486, "is_reserved": 0, "is_disabled": 0, "fusion_lon": 0.0, "bike_id": "37ccce37a76fbec4d5245b783707ea57", "lon": -76.99532966666666, "rental_uris": {"ios": "https://dc.lft.to/lastmile_qr_scan", "android": "https://dc.lft.to/lastmile_qr_scan"}}, {"name": "841cf12670bef3ce52aae47b5e6dc0e8", "fusion_lat": 0.0, "type": "electric_bike", "lat": 38.862670666666666, "is_reserved": 0, "is_disabled": 0, "fusion_lon": 0.0, "bike_id": "841cf12670bef3ce52aae47b5e6dc0e8", "lon": -77.05965816666667, "rental_uris": {"ios": "https://dc.lft.to/lastmile_qr_scan", "android": "https://dc.lft.to/lastmile_qr_scan"}}, {"name": "4c8ecdbe21a72f83111e417d62970363", "fusion_lat": 0.0, "type": "electric_scooter", "lat": 38.88841566666667, "is_reserved": 0, "is_disabled": 0, "fusion_lon": 0.0, "bike_id": "4c8ecdbe21a72f83111e417d62970363", "lon": -77.04904583333334, "rental_uris": {"ios": "https://dc.lft.to/lastmile_qr_scan", "android": "https://dc.lft.to/lastmile_qr_scan"}}, {"name": "0b8d8cc67b895fffc8820bc86a507b7c", "fusion_lat": 0.0, "type": "electric_scooter", "lat": 38.900803333333336, "is_reserved": 0, "is_disabled": 0, "fusion_lon": 0.0, "bike_id": "0b8d8cc67b895fffc8820bc86a507b7c", "lon": -77.05020216666666, "rental_uris": {"ios": "https://dc.lft.to/lastmile_qr_scan", "android": "https://dc.lft.to/lastmile_qr_scan"}}, {"name": "17c75f7a13c2d70056b6f0fac93b1021", "fusion_lat": 0.0, "type": "electric_bike", "lat": 38.8399285, "is_reserved": 0, "is_disabled": 0, "fusion_lon": 0.0, "bike_id": "17c75f7a13c2d70056b6f0fac93b1021", "lon": -77.00567983333333, "rental_uris": {"ios": "https://dc.lft.to/lastmile_qr_scan", "android": "https://dc.lft.to/lastmile_qr_scan"}}, {"name": "681b0023a235475be20d52c6520a55be", "fusion_lat": 0.0, "type": "electric_scooter", "lat": 38.912676166666664, "is_reserved": 0, "is_disabled": 0, "fusion_lon": 0.0, "bike_id": "681b0023a235475be20d52c6520a55be", "lon": -77.03829533333334, "rental_uris": {"ios": "https://dc.lft.to/lastmile_qr_scan", "android": "https://dc.lft.to/lastmile_qr_scan"}}, {"name": "578a4501a1efeed531e1c0caf3ea4ad2", "fusion_lat": 0.0, "type": "electric_scooter", "lat": 38.90891666666667, "is_reserved": 0, "is_disabled": 0, "fusion_lon": 0.0, "bike_id": "578a4501a1efeed531e1c0caf3ea4ad2", "lon": -77.03211633333333, "rental_uris": {"ios": "https://dc.lft.to/lastmile_qr_scan", "android": "https://dc.lft.to/lastmile_qr_scan"}}, {"name": "b73bae4dab2eb541fce6832cd7716773", "fusion_lat": 0.0, "type": "electric_scooter", "lat": 38.87917133333333, "is_reserved": 0, "is_disabled": 0, "fusion_lon": 0.0, "bike_id": "b73bae4dab2eb541fce6832cd7716773", "lon": -77.02156316666667, "rental_uris": {"ios": "https://dc.lft.to/lastmile_qr_scan", "android": "https://dc.lft.to/lastmile_qr_scan"}}, {"name": "845f2717283f2168d87a950bf86ae3cf", "fusion_lat": 0.0, "type": "electric_bike", "lat": 38.85224766666666, "is_reserved": 0, "is_disabled": 0, "fusion_lon": 0.0, "bike_id": "845f2717283f2168d87a950bf86ae3cf", "lon": -77.129559, "rental_uris": {"ios": "https://dc.lft.to/lastmile_qr_scan", "android": "https://dc.lft.to/lastmile_qr_scan"}}, {"name": "b71fd47e3c2f711a67e17a10f4f98c19", "fusion_lat": 0.0, "type": "electric_scooter", "lat": 38.89555433333334, "is_reserved": 0, "is_disabled": 0, "fusion_lon": 0.0, "bike_id": "b71fd47e3c2f711a67e17a10f4f98c19", "lon": -76.98370933333334, "rental_uris": {"ios": "https://dc.lft.to/lastmile_qr_scan", "android": "https://dc.lft.to/lastmile_qr_scan"}}, {"name": "344ade19e55e37be32ddd9f02488b07e", "fusion_lat": 0.0, "type": "electric_scooter", "lat": 38.91952083333334, "is_reserved": 0, "is_disabled": 0, "fusion_lon": 0.0, "bike_id": "344ade19e55e37be32ddd9f02488b07e", "lon": -77.014002, "rental_uris": {"ios": "https://dc.lft.to/lastmile_qr_scan", "android": "https://dc.lft.to/lastmile_qr_scan"}}, {"name": "ea71cc7816e441dadb137d6a1de31a4e", "fusion_lat": 0.0, "type": "electric_scooter", "lat": 38.90069783333333, "is_reserved": 0, "is_disabled": 0, "fusion_lon": 0.0, "bike_id": "ea71cc7816e441dadb137d6a1de31a4e", "lon": -77.04878966666666, "rental_uris": {"ios": "https://dc.lft.to/lastmile_qr_scan", "android": "https://dc.lft.to/lastmile_qr_scan"}}, {"name": "9a607f67e7723c31544585abfbac9cf1", "fusion_lat": 0.0, "type": "electric_scooter", "lat": 38.91726966666667, "is_reserved": 0, "is_disabled": 0, "fusion_lon": 0.0, "bike_id": "9a607f67e7723c31544585abfbac9cf1", "lon": -77.03842883333333, "rental_uris": {"ios": "https://dc.lft.to/lastmile_qr_scan", "android": "https://dc.lft.to/lastmile_qr_scan"}}, {"name": "eff15dd40bee056cc48f05b3413866e2", "fusion_lat": 0.0, "type": "electric_scooter", "lat": 38.876703166666665, "is_reserved": 0, "is_disabled": 0, "fusion_lon": 0.0, "bike_id": "eff15dd40bee056cc48f05b3413866e2", "lon": -77.00422666666667, "rental_uris": {"ios": "https://dc.lft.to/lastmile_qr_scan", "android": "https://dc.lft.to/lastmile_qr_scan"}}, {"name": "db7deae5ce514ca1e105b9d42ed63770", "fusion_lat": 0.0, "type": "electric_bike", "lat": 38.86596883333333, "is_reserved": 0, "is_disabled": 0, "fusion_lon": 0.0, "bike_id": "db7deae5ce514ca1e105b9d42ed63770", "lon": -76.93238933333333, "rental_uris": {"ios": "https://dc.lft.to/lastmile_qr_scan", "android": "https://dc.lft.to/lastmile_qr_scan"}}, {"name": "d0c1824bd27f57c0e38adba9d49e0a4e", "fusion_lat": 0.0, "type": "electric_bike", "lat": 38.98454233333333, "is_reserved": 0, "is_disabled": 0, "fusion_lon": 0.0, "bike_id": "d0c1824bd27f57c0e38adba9d49e0a4e", "lon": -76.95525333333333, "rental_uris": {"ios": "https://dc.lft.to/lastmile_qr_scan", "android": "https://dc.lft.to/lastmile_qr_scan"}}, {"name": "12290dcc4bceabb1a1e96c0ab172e913", "fusion_lat": 0.0, "type": "electric_scooter", "lat": 38.929680833333336, "is_reserved": 0, "is_disabled": 0, "fusion_lon": 0.0, "bike_id": "12290dcc4bceabb1a1e96c0ab172e913", "lon": -77.01975283333333, "rental_uris": {"ios": "https://dc.lft.to/lastmile_qr_scan", "android": "https://dc.lft.to/lastmile_qr_scan"}}, {"name": "ec61eb97f6686e18c1fb89d864b14280", "fusion_lat": 0.0, "type": "electric_scooter", "lat": 38.880498833333334, "is_reserved": 0, "is_disabled": 0, "fusion_lon": 0.0, "bike_id": "ec61eb97f6686e18c1fb89d864b14280", "lon": -76.9598255, "rental_uris": {"ios": "https://dc.lft.to/lastmile_qr_scan", "android": "https://dc.lft.to/lastmile_qr_scan"}}, {"name": "97ca1e1a5da4cb2d23e4e44b4b0e07b2", "fusion_lat": 0.0, "type": "electric_scooter", "lat": 38.91578616666666, "is_reserved": 0, "is_disabled": 0, "fusion_lon": 0.0, "bike_id": "97ca1e1a5da4cb2d23e4e44b4b0e07b2", "lon": -77.03183633333333, "rental_uris": {"ios": "https://dc.lft.to/lastmile_qr_scan", "android": "https://dc.lft.to/lastmile_qr_scan"}}, {"name": "7eef09f079a349c1a8973518d73447ea", "fusion_lat": 0.0, "type": "electric_scooter", "lat": 38.86831383333333, "is_reserved": 0, "is_disabled": 0, "fusion_lon": 0.0, "bike_id": "7eef09f079a349c1a8973518d73447ea", "lon": -76.98613783333333, "rental_uris": {"ios": "https://dc.lft.to/lastmile_qr_scan", "android": "https://dc.lft.to/lastmile_qr_scan"}}, {"name": "437c5ae2f6c97ef2fb8602253bc2be4e", "fusion_lat": 0.0, "type": "electric_scooter", "lat": 38.9209105, "is_reserved": 0, "is_disabled": 0, "fusion_lon": 0.0, "bike_id": "437c5ae2f6c97ef2fb8602253bc2be4e", "lon": -77.01374366666667, "rental_uris": {"ios": "https://dc.lft.to/lastmile_qr_scan", "android": "https://dc.lft.to/lastmile_qr_scan"}}, {"name": "0ccb6f1af595aa52099b6593579ee7a1", "fusion_lat": 0.0, "type": "electric_scooter", "lat": 38.92754766666667, "is_reserved": 0, "is_disabled": 0, "fusion_lon": 0.0, "bike_id": "0ccb6f1af595aa52099b6593579ee7a1", "lon": -77.02297683333333, "rental_uris": {"ios": "https://dc.lft.to/lastmile_qr_scan", "android": "https://dc.lft.to/lastmile_qr_scan"}}, {"name": "1230b3b5dc714087e8193f7224c66b9d", "fusion_lat": 0.0, "type": "electric_scooter", "lat": 38.88580666666667, "is_reserved": 0, "is_disabled": 0, "fusion_lon": 0.0, "bike_id": "1230b3b5dc714087e8193f7224c66b9d", "lon": -76.99499616666667, "rental_uris": {"ios": "https://dc.lft.to/lastmile_qr_scan", "android": "https://dc.lft.to/lastmile_qr_scan"}}, {"name": "e0724d4b9f859c883f4ee744785b7439", "fusion_lat": 0.0, "type": "electric_scooter", "lat": 38.92484133333333, "is_reserved": 0, "is_disabled": 0, "fusion_lon": 0.0, "bike_id": "e0724d4b9f859c883f4ee744785b7439", "lon": -77.02998033333333, "rental_uris": {"ios": "https://dc.lft.to/lastmile_qr_scan", "android": "https://dc.lft.to/lastmile_qr_scan"}}, {"name": "9fa6c29ba1628c4321a178947697f234", "fusion_lat": 0.0, "type": "electric_scooter", "lat": 38.915974166666665, "is_reserved": 0, "is_disabled": 0, "fusion_lon": 0.0, "bike_id": "9fa6c29ba1628c4321a178947697f234", "lon": -77.04257616666666, "rental_uris": {"ios": "https://dc.lft.to/lastmile_qr_scan", "android": "https://dc.lft.to/lastmile_qr_scan"}}, {"name": "dd8eb44aaf7f82532da6aba3e8903270", "fusion_lat": 0.0, "type": "electric_scooter", "lat": 38.92806, "is_reserved": 0, "is_disabled": 0, "fusion_lon": 0.0, "bike_id": "dd8eb44aaf7f82532da6aba3e8903270", "lon": -77.01418333333334, "rental_uris": {"ios": "https://dc.lft.to/lastmile_qr_scan", "android": "https://dc.lft.to/lastmile_qr_scan"}}, {"name": "c10d6734a4f32360afdae200eb9c32ac", "fusion_lat": 0.0, "type": "electric_scooter", "lat": 38.921676166666664, "is_reserved": 0, "is_disabled": 0, "fusion_lon": 0.0, "bike_id": "c10d6734a4f32360afdae200eb9c32ac", "lon": -77.04223466666667, "rental_uris": {"ios": "https://dc.lft.to/lastmile_qr_scan", "android": "https://dc.lft.to/lastmile_qr_scan"}}, {"name": "36ebc97a46da72fc89a619821ec98dd9", "fusion_lat": 0.0, "type": "electric_scooter", "lat": 38.9248865, "is_reserved": 0, "is_disabled": 0, "fusion_lon": 0.0, "bike_id": "36ebc97a46da72fc89a619821ec98dd9", "lon": -77.027126, "rental_uris": {"ios": "https://dc.lft.to/lastmile_qr_scan", "android": "https://dc.lft.to/lastmile_qr_scan"}}, {"name": "30f56a756657917896b35a7d42f714a9", "fusion_lat": 0.0, "type": "electric_scooter", "lat": 38.9056875, "is_reserved": 0, "is_disabled": 0, "fusion_lon": 0.0, "bike_id": "30f56a756657917896b35a7d42f714a9", "lon": -77.03716683333333, "rental_uris": {"ios": "https://dc.lft.to/lastmile_qr_scan", "android": "https://dc.lft.to/lastmile_qr_scan"}}, {"name": "a8706bd823382a93354308230dee6489", "fusion_lat": 0.0, "type": "electric_scooter", "lat": 38.912605, "is_reserved": 0, "is_disabled": 0, "fusion_lon": 0.0, "bike_id": "a8706bd823382a93354308230dee6489", "lon": -77.08159033333334, "rental_uris": {"ios": "https://dc.lft.to/lastmile_qr_scan", "android": "https://dc.lft.to/lastmile_qr_scan"}}, {"name": "7805262c670c3926b63e29b1f104371f", "fusion_lat": 0.0, "type": "electric_scooter", "lat": 38.912730833333335, "is_reserved": 0, "is_disabled": 0, "fusion_lon": 0.0, "bike_id": "7805262c670c3926b63e29b1f104371f", "lon": -77.06094866666666, "rental_uris": {"ios": "https://dc.lft.to/lastmile_qr_scan", "android": "https://dc.lft.to/lastmile_qr_scan"}}, {"name": "a008ff0f6b445c5a16714f488f5d1d9d", "fusion_lat": 0.0, "type": "electric_scooter", "lat": 38.91916416666667, "is_reserved": 0, "is_disabled": 0, "fusion_lon": 0.0, "bike_id": "a008ff0f6b445c5a16714f488f5d1d9d", "lon": -77.01345066666667, "rental_uris": {"ios": "https://dc.lft.to/lastmile_qr_scan", "android": "https://dc.lft.to/lastmile_qr_scan"}}, {"name": "b173dee3e31698e8b2f7659c19b6e9b9", "fusion_lat": 0.0, "type": "electric_scooter", "lat": 38.918162333333335, "is_reserved": 0, "is_disabled": 0, "fusion_lon": 0.0, "bike_id": "b173dee3e31698e8b2f7659c19b6e9b9", "lon": -77.01024616666666, "rental_uris": {"ios": "https://dc.lft.to/lastmile_qr_scan", "android": "https://dc.lft.to/lastmile_qr_scan"}}, {"name": "6b90157f299d96ab56bcd272d034445b", "fusion_lat": 0.0, "type": "electric_scooter", "lat": 38.880699166666666, "is_reserved": 0, "is_disabled": 0, "fusion_lon": 0.0, "bike_id": "6b90157f299d96ab56bcd272d034445b", "lon": -76.93534266666667, "rental_uris": {"ios": "https://dc.lft.to/lastmile_qr_scan", "android": "https://dc.lft.to/lastmile_qr_scan"}}, {"name": "788b0c6091f706dd9fa68f959c521cb3", "fusion_lat": 0.0, "type": "electric_scooter", "lat": 38.842969833333335, "is_reserved": 0, "is_disabled": 0, "fusion_lon": 0.0, "bike_id": "788b0c6091f706dd9fa68f959c521cb3", "lon": -76.999435, "rental_uris": {"ios": "https://dc.lft.to/lastmile_qr_scan", "android": "https://dc.lft.to/lastmile_qr_scan"}}, {"name": "bebe4d1aeb120c884fae10e52f5507ed", "fusion_lat": 0.0, "type": "electric_scooter", "lat": 38.91820933333333, "is_reserved": 0, "is_disabled": 0, "fusion_lon": 0.0, "bike_id": "bebe4d1aeb120c884fae10e52f5507ed", "lon": -77.01211933333333, "rental_uris": {"ios": "https://dc.lft.to/lastmile_qr_scan", "android": "https://dc.lft.to/lastmile_qr_scan"}}, {"name": "3f4e92541ceb564b20d07de9eb9a8582", "fusion_lat": 0.0, "type": "electric_scooter", "lat": 38.884988166666666, "is_reserved": 0, "is_disabled": 0, "fusion_lon": 0.0, "bike_id": "3f4e92541ceb564b20d07de9eb9a8582", "lon": -77.02188766666667, "rental_uris": {"ios": "https://dc.lft.to/lastmile_qr_scan", "android": "https://dc.lft.to/lastmile_qr_scan"}}, {"name": "831809fc8a3158b6e08a01595fe0f58a", "fusion_lat": 0.0, "type": "electric_scooter", "lat": 38.918173833333334, "is_reserved": 0, "is_disabled": 0, "fusion_lon": 0.0, "bike_id": "831809fc8a3158b6e08a01595fe0f58a", "lon": -77.0026085, "rental_uris": {"ios": "https://dc.lft.to/lastmile_qr_scan", "android": "https://dc.lft.to/lastmile_qr_scan"}}, {"name": "7764158897eb4ad4218809f9fa8c505a", "fusion_lat": 0.0, "type": "electric_scooter", "lat": 38.909683333333334, "is_reserved": 0, "is_disabled": 0, "fusion_lon": 0.0, "bike_id": "7764158897eb4ad4218809f9fa8c505a", "lon": -77.0455495, "rental_uris": {"ios": "https://dc.lft.to/lastmile_qr_scan", "android": "https://dc.lft.to/lastmile_qr_scan"}}, {"name": "c53305af387bccd5ed10a9a7641ce6a4", "fusion_lat": 0.0, "type": "electric_scooter", "lat": 38.90444316666667, "is_reserved": 0, "is_disabled": 0, "fusion_lon": 0.0, "bike_id": "c53305af387bccd5ed10a9a7641ce6a4", "lon": -76.99621816666667, "rental_uris": {"ios": "https://dc.lft.to/lastmile_qr_scan", "android": "https://dc.lft.to/lastmile_qr_scan"}}, {"name": "ba56f68879455c5c1ec2fcb0dde31438", "fusion_lat": 0.0, "type": "electric_bike", "lat": 38.920097166666665, "is_reserved": 0, "is_disabled": 0, "fusion_lon": 0.0, "bike_id": "ba56f68879455c5c1ec2fcb0dde31438", "lon": -76.97494366666666, "rental_uris": {"ios": "https://dc.lft.to/lastmile_qr_scan", "android": "https://dc.lft.to/lastmile_qr_scan"}}, {"name": "03e449f8d9d5129a1009670bbaa99219", "fusion_lat": 0.0, "type": "electric_scooter", "lat": 38.89590466666667, "is_reserved": 0, "is_disabled": 0, "fusion_lon": 0.0, "bike_id": "03e449f8d9d5129a1009670bbaa99219", "lon": -76.93716583333334, "rental_uris": {"ios": "https://dc.lft.to/lastmile_qr_scan", "android": "https://dc.lft.to/lastmile_qr_scan"}}, {"name": "3d0f5d5d5a8df6a839752addd07c809f", "fusion_lat": 0.0, "type": "electric_scooter", "lat": 38.877692833333334, "is_reserved": 0, "is_disabled": 0, "fusion_lon": 0.0, "bike_id": "3d0f5d5d5a8df6a839752addd07c809f", "lon": -76.9942405, "rental_uris": {"ios": "https://dc.lft.to/lastmile_qr_scan", "android": "https://dc.lft.to/lastmile_qr_scan"}}, {"name": "c243ae2d26955f084358aeab1521f8da", "fusion_lat": 0.0, "type": "electric_scooter", "lat": 38.85616233333333, "is_reserved": 0, "is_disabled": 0, "fusion_lon": 0.0, "bike_id": "c243ae2d26955f084358aeab1521f8da", "lon": -76.98021033333333, "rental_uris": {"ios": "https://dc.lft.to/lastmile_qr_scan", "android": "https://dc.lft.to/lastmile_qr_scan"}}, {"name": "42d6e9135b0b5e0baeb01500b64df754", "fusion_lat": 0.0, "type": "electric_scooter", "lat": 38.903130166666664, "is_reserved": 0, "is_disabled": 0, "fusion_lon": 0.0, "bike_id": "42d6e9135b0b5e0baeb01500b64df754", "lon": -77.03456466666667, "rental_uris": {"ios": "https://dc.lft.to/lastmile_qr_scan", "android": "https://dc.lft.to/lastmile_qr_scan"}}, {"name": "f3d7fbeb21b8b852acccca5bcf5fa383", "fusion_lat": 0.0, "type": "electric_bike", "lat": 38.87560766666667, "is_reserved": 0, "is_disabled": 0, "fusion_lon": 0.0, "bike_id": "f3d7fbeb21b8b852acccca5bcf5fa383", "lon": -76.9675595, "rental_uris": {"ios": "https://dc.lft.to/lastmile_qr_scan", "android": "https://dc.lft.to/lastmile_qr_scan"}}, {"name": "b0d5ac744b2266d90016e885ef88a313", "fusion_lat": 0.0, "type": "electric_scooter", "lat": 38.90794366666667, "is_reserved": 0, "is_disabled": 0, "fusion_lon": 0.0, "bike_id": "b0d5ac744b2266d90016e885ef88a313", "lon": -76.9970105, "rental_uris": {"ios": "https://dc.lft.to/lastmile_qr_scan", "android": "https://dc.lft.to/lastmile_qr_scan"}}, {"name": "f169f6186ee8d65edcf2d27652cfc8ba", "fusion_lat": 0.0, "type": "electric_scooter", "lat": 38.904879333333334, "is_reserved": 0, "is_disabled": 0, "fusion_lon": 0.0, "bike_id": "f169f6186ee8d65edcf2d27652cfc8ba", "lon": -77.01459666666666, "rental_uris": {"ios": "https://dc.lft.to/lastmile_qr_scan", "android": "https://dc.lft.to/lastmile_qr_scan"}}, {"name": "299a98cf12287c69c59e73641cd2ce56", "fusion_lat": 0.0, "type": "electric_bike", "lat": 38.949668, "is_reserved": 0, "is_disabled": 0, "fusion_lon": 0.0, "bike_id": "299a98cf12287c69c59e73641cd2ce56", "lon": -76.97284116666667, "rental_uris": {"ios": "https://dc.lft.to/lastmile_qr_scan", "android": "https://dc.lft.to/lastmile_qr_scan"}}, {"name": "f2ea4b2f26c1def8eb149abf7e5e2702", "fusion_lat": 0.0, "type": "electric_scooter", "lat": 38.900363666666664, "is_reserved": 0, "is_disabled": 0, "fusion_lon": 0.0, "bike_id": "f2ea4b2f26c1def8eb149abf7e5e2702", "lon": -77.00635566666666, "rental_uris": {"ios": "https://dc.lft.to/lastmile_qr_scan", "android": "https://dc.lft.to/lastmile_qr_scan"}}, {"name": "c9f35a8dc2f6b66d72885ad24e1cadea", "fusion_lat": 0.0, "type": "electric_scooter", "lat": 38.92518033333333, "is_reserved": 0, "is_disabled": 0, "fusion_lon": 0.0, "bike_id": "c9f35a8dc2f6b66d72885ad24e1cadea", "lon": -77.0021575, "rental_uris": {"ios": "https://dc.lft.to/lastmile_qr_scan", "android": "https://dc.lft.to/lastmile_qr_scan"}}, {"name": "38e157cee1c5533cccc091669b58ce08", "fusion_lat": 0.0, "type": "electric_scooter", "lat": 38.9126665, "is_reserved": 0, "is_disabled": 0, "fusion_lon": 0.0, "bike_id": "38e157cee1c5533cccc091669b58ce08", "lon": -77.0402795, "rental_uris": {"ios": "https://dc.lft.to/lastmile_qr_scan", "android": "https://dc.lft.to/lastmile_qr_scan"}}, {"name": "749ca9988d2e0274c186a41f1dc0c672", "fusion_lat": 0.0, "type": "electric_scooter", "lat": 38.89683083333333, "is_reserved": 0, "is_disabled": 0, "fusion_lon": 0.0, "bike_id": "749ca9988d2e0274c186a41f1dc0c672", "lon": -76.99631683333334, "rental_uris": {"ios": "https://dc.lft.to/lastmile_qr_scan", "android": "https://dc.lft.to/lastmile_qr_scan"}}, {"name": "deb9c324b96bc25c156fdc1e64400245", "fusion_lat": 0.0, "type": "electric_scooter", "lat": 38.90746016666667, "is_reserved": 0, "is_disabled": 0, "fusion_lon": 0.0, "bike_id": "deb9c324b96bc25c156fdc1e64400245", "lon": -77.04666083333333, "rental_uris": {"ios": "https://dc.lft.to/lastmile_qr_scan", "android": "https://dc.lft.to/lastmile_qr_scan"}}, {"name": "e43b2681c6b39efbf0289e40d63be3af", "fusion_lat": 0.0, "type": "electric_scooter", "lat": 38.908563666666666, "is_reserved": 0, "is_disabled": 0, "fusion_lon": 0.0, "bike_id": "e43b2681c6b39efbf0289e40d63be3af", "lon": -77.00295366666667, "rental_uris": {"ios": "https://dc.lft.to/lastmile_qr_scan", "android": "https://dc.lft.to/lastmile_qr_scan"}}, {"name": "491786df0f746e9e1d598e37d4bdb50e", "fusion_lat": 0.0, "type": "electric_scooter", "lat": 38.918366166666665, "is_reserved": 0, "is_disabled": 0, "fusion_lon": 0.0, "bike_id": "491786df0f746e9e1d598e37d4bdb50e", "lon": -77.03639383333334, "rental_uris": {"ios": "https://dc.lft.to/lastmile_qr_scan", "android": "https://dc.lft.to/lastmile_qr_scan"}}, {"name": "ce4e50d73013ecd3cb4f411d992825f7", "fusion_lat": 0.0, "type": "electric_scooter", "lat": 38.920674166666664, "is_reserved": 0, "is_disabled": 0, "fusion_lon": 0.0, "bike_id": "ce4e50d73013ecd3cb4f411d992825f7", "lon": -77.043823, "rental_uris": {"ios": "https://dc.lft.to/lastmile_qr_scan", "android": "https://dc.lft.to/lastmile_qr_scan"}}, {"name": "d20efe01d053cd3b0a84e40b6bd5706f", "fusion_lat": 0.0, "type": "electric_scooter", "lat": 38.961167333333336, "is_reserved": 0, "is_disabled": 0, "fusion_lon": 0.0, "bike_id": "d20efe01d053cd3b0a84e40b6bd5706f", "lon": -77.02815966666667, "rental_uris": {"ios": "https://dc.lft.to/lastmile_qr_scan", "android": "https://dc.lft.to/lastmile_qr_scan"}}, {"name": "1a9cd9e164eb35f9bcafd7018d80cdc5", "fusion_lat": 0.0, "type": "electric_scooter", "lat": 38.916864333333336, "is_reserved": 0, "is_disabled": 0, "fusion_lon": 0.0, "bike_id": "1a9cd9e164eb35f9bcafd7018d80cdc5", "lon": -77.0285375, "rental_uris": {"ios": "https://dc.lft.to/lastmile_qr_scan", "android": "https://dc.lft.to/lastmile_qr_scan"}}, {"name": "14ebe53b2e4568a3988512c5409de3c9", "fusion_lat": 0.0, "type": "electric_scooter", "lat": 38.92324766666667, "is_reserved": 0, "is_disabled": 0, "fusion_lon": 0.0, "bike_id": "14ebe53b2e4568a3988512c5409de3c9", "lon": -77.04519816666667, "rental_uris": {"ios": "https://dc.lft.to/lastmile_qr_scan", "android": "https://dc.lft.to/lastmile_qr_scan"}}, {"name": "8419b3882eca026d576b4d200c459851", "fusion_lat": 0.0, "type": "electric_scooter", "lat": 38.90268866666667, "is_reserved": 0, "is_disabled": 0, "fusion_lon": 0.0, "bike_id": "8419b3882eca026d576b4d200c459851", "lon": -77.01776666666666, "rental_uris": {"ios": "https://dc.lft.to/lastmile_qr_scan", "android": "https://dc.lft.to/lastmile_qr_scan"}}, {"name": "4c43b807d9410dbca009d0819c59c53b", "fusion_lat": 0.0, "type": "electric_scooter", "lat": 38.91193716666667, "is_reserved": 0, "is_disabled": 0, "fusion_lon": 0.0, "bike_id": "4c43b807d9410dbca009d0819c59c53b", "lon": -76.99620483333334, "rental_uris": {"ios": "https://dc.lft.to/lastmile_qr_scan", "android": "https://dc.lft.to/lastmile_qr_scan"}}, {"name": "e7ea2e1a50091fe4d2306516f839b9a8", "fusion_lat": 0.0, "type": "electric_scooter", "lat": 38.8983425, "is_reserved": 0, "is_disabled": 0, "fusion_lon": 0.0, "bike_id": "e7ea2e1a50091fe4d2306516f839b9a8", "lon": -76.946453, "rental_uris": {"ios": "https://dc.lft.to/lastmile_qr_scan", "android": "https://dc.lft.to/lastmile_qr_scan"}}, {"name": "723783c38a36b798c1e162bfa949d69c", "fusion_lat": 0.0, "type": "electric_scooter", "lat": 38.91405366666667, "is_reserved": 0, "is_disabled": 0, "fusion_lon": 0.0, "bike_id": "723783c38a36b798c1e162bfa949d69c", "lon": -77.01805966666667, "rental_uris": {"ios": "https://dc.lft.to/lastmile_qr_scan", "android": "https://dc.lft.to/lastmile_qr_scan"}}, {"name": "793d772c80afd21577d93d076bcdbb34", "fusion_lat": 0.0, "type": "electric_scooter", "lat": 38.91697633333333, "is_reserved": 0, "is_disabled": 0, "fusion_lon": 0.0, "bike_id": "793d772c80afd21577d93d076bcdbb34", "lon": -77.04277816666666, "rental_uris": {"ios": "https://dc.lft.to/lastmile_qr_scan", "android": "https://dc.lft.to/lastmile_qr_scan"}}, {"name": "1f499b35b863aa0f279360916b2cd1db", "fusion_lat": 0.0, "type": "electric_scooter", "lat": 38.91617766666667, "is_reserved": 0, "is_disabled": 0, "fusion_lon": 0.0, "bike_id": "1f499b35b863aa0f279360916b2cd1db", "lon": -77.022939, "rental_uris": {"ios": "https://dc.lft.to/lastmile_qr_scan", "android": "https://dc.lft.to/lastmile_qr_scan"}}, {"name": "6f207a6f38b1497739b11bbf316a2e3a", "fusion_lat": 0.0, "type": "electric_bike", "lat": 38.838140333333335, "is_reserved": 0, "is_disabled": 0, "fusion_lon": 0.0, "bike_id": "6f207a6f38b1497739b11bbf316a2e3a", "lon": -77.09530266666667, "rental_uris": {"ios": "https://dc.lft.to/lastmile_qr_scan", "android": "https://dc.lft.to/lastmile_qr_scan"}}, {"name": "aba96d05094813a4d01c180358b3aa8e", "fusion_lat": 0.0, "type": "electric_scooter", "lat": 38.9053345, "is_reserved": 0, "is_disabled": 0, "fusion_lon": 0.0, "bike_id": "aba96d05094813a4d01c180358b3aa8e", "lon": -77.05764016666667, "rental_uris": {"ios": "https://dc.lft.to/lastmile_qr_scan", "android": "https://dc.lft.to/lastmile_qr_scan"}}, {"name": "7d23f1ee194d20e115cd27c988faa82a", "fusion_lat": 0.0, "type": "electric_scooter", "lat": 38.908035, "is_reserved": 0, "is_disabled": 0, "fusion_lon": 0.0, "bike_id": "7d23f1ee194d20e115cd27c988faa82a", "lon": -77.043411, "rental_uris": {"ios": "https://dc.lft.to/lastmile_qr_scan", "android": "https://dc.lft.to/lastmile_qr_scan"}}, {"name": "6b74e28023bb097f7ae5f27c504e5329", "fusion_lat": 0.0, "type": "electric_scooter", "lat": 38.894071, "is_reserved": 0, "is_disabled": 0, "fusion_lon": 0.0, "bike_id": "6b74e28023bb097f7ae5f27c504e5329", "lon": -76.94798466666667, "rental_uris": {"ios": "https://dc.lft.to/lastmile_qr_scan", "android": "https://dc.lft.to/lastmile_qr_scan"}}, {"name": "988d70822d0cea4fb6fec8f8fadfe5a7", "fusion_lat": 0.0, "type": "electric_scooter", "lat": 38.91931783333333, "is_reserved": 0, "is_disabled": 0, "fusion_lon": 0.0, "bike_id": "988d70822d0cea4fb6fec8f8fadfe5a7", "lon": -77.03423916666667, "rental_uris": {"ios": "https://dc.lft.to/lastmile_qr_scan", "android": "https://dc.lft.to/lastmile_qr_scan"}}, {"name": "ccf110622e586ec049e67decdd529b5c", "fusion_lat": 0.0, "type": "electric_scooter", "lat": 38.935847, "is_reserved": 0, "is_disabled": 0, "fusion_lon": 0.0, "bike_id": "ccf110622e586ec049e67decdd529b5c", "lon": -76.99112233333334, "rental_uris": {"ios": "https://dc.lft.to/lastmile_qr_scan", "android": "https://dc.lft.to/lastmile_qr_scan"}}, {"name": "576f718b000c7ac0d8ef12238a2d97c1", "fusion_lat": 0.0, "type": "electric_scooter", "lat": 38.8571115, "is_reserved": 0, "is_disabled": 0, "fusion_lon": 0.0, "bike_id": "576f718b000c7ac0d8ef12238a2d97c1", "lon": -76.9813055, "rental_uris": {"ios": "https://dc.lft.to/lastmile_qr_scan", "android": "https://dc.lft.to/lastmile_qr_scan"}}, {"name": "b33876fa425f5c5df54286e3b42d8fbb", "fusion_lat": 0.0, "type": "electric_bike", "lat": 38.90329933333334, "is_reserved": 0, "is_disabled": 0, "fusion_lon": 0.0, "bike_id": "b33876fa425f5c5df54286e3b42d8fbb", "lon": -76.97536033333333, "rental_uris": {"ios": "https://dc.lft.to/lastmile_qr_scan", "android": "https://dc.lft.to/lastmile_qr_scan"}}, {"name": "cf7c991174389085ff28d1df1edaad49", "fusion_lat": 0.0, "type": "electric_scooter", "lat": 38.9083935, "is_reserved": 0, "is_disabled": 0, "fusion_lon": 0.0, "bike_id": "cf7c991174389085ff28d1df1edaad49", "lon": -76.9970465, "rental_uris": {"ios": "https://dc.lft.to/lastmile_qr_scan", "android": "https://dc.lft.to/lastmile_qr_scan"}}, {"name": "0c0f0febf005ccdee9fcd4e858d7d39a", "fusion_lat": 0.0, "type": "electric_scooter", "lat": 38.90155266666667, "is_reserved": 0, "is_disabled": 0, "fusion_lon": 0.0, "bike_id": "0c0f0febf005ccdee9fcd4e858d7d39a", "lon": -76.93059066666666, "rental_uris": {"ios": "https://dc.lft.to/lastmile_qr_scan", "android": "https://dc.lft.to/lastmile_qr_scan"}}, {"name": "fae5ac4a37ba6914dd5589c585fa8fc3", "fusion_lat": 0.0, "type": "electric_scooter", "lat": 38.9252665, "is_reserved": 0, "is_disabled": 0, "fusion_lon": 0.0, "bike_id": "fae5ac4a37ba6914dd5589c585fa8fc3", "lon": -77.05529933333334, "rental_uris": {"ios": "https://dc.lft.to/lastmile_qr_scan", "android": "https://dc.lft.to/lastmile_qr_scan"}}, {"name": "11fc1a0886c9dfa1213fccff0d17f8bf", "fusion_lat": 0.0, "type": "electric_scooter", "lat": 38.92336733333333, "is_reserved": 0, "is_disabled": 0, "fusion_lon": 0.0, "bike_id": "11fc1a0886c9dfa1213fccff0d17f8bf", "lon": -77.03527033333333, "rental_uris": {"ios": "https://dc.lft.to/lastmile_qr_scan", "android": "https://dc.lft.to/lastmile_qr_scan"}}, {"name": "c74440b776d30de1f003ebc389930bb1", "fusion_lat": 0.0, "type": "electric_scooter", "lat": 38.884341, "is_reserved": 0, "is_disabled": 0, "fusion_lon": 0.0, "bike_id": "c74440b776d30de1f003ebc389930bb1", "lon": -76.95756183333333, "rental_uris": {"ios": "https://dc.lft.to/lastmile_qr_scan", "android": "https://dc.lft.to/lastmile_qr_scan"}}, {"name": "e691c28d01f139adb712a71608837cdb", "fusion_lat": 0.0, "type": "electric_scooter", "lat": 38.93144783333334, "is_reserved": 0, "is_disabled": 0, "fusion_lon": 0.0, "bike_id": "e691c28d01f139adb712a71608837cdb", "lon": -77.04059066666667, "rental_uris": {"ios": "https://dc.lft.to/lastmile_qr_scan", "android": "https://dc.lft.to/lastmile_qr_scan"}}, {"name": "b6bf236a444c3ab3c1a346379e045702", "fusion_lat": 0.0, "type": "electric_scooter", "lat": 38.9078675, "is_reserved": 0, "is_disabled": 0, "fusion_lon": 0.0, "bike_id": "b6bf236a444c3ab3c1a346379e045702", "lon": -77.0385935, "rental_uris": {"ios": "https://dc.lft.to/lastmile_qr_scan", "android": "https://dc.lft.to/lastmile_qr_scan"}}, {"name": "1f28a76e3967a647e67d38f1e2993dff", "fusion_lat": 0.0, "type": "electric_scooter", "lat": 38.911160833333334, "is_reserved": 0, "is_disabled": 0, "fusion_lon": 0.0, "bike_id": "1f28a76e3967a647e67d38f1e2993dff", "lon": -77.02924166666666, "rental_uris": {"ios": "https://dc.lft.to/lastmile_qr_scan", "android": "https://dc.lft.to/lastmile_qr_scan"}}, {"name": "a78c862288992c00aa384f9897104df8", "fusion_lat": 0.0, "type": "electric_scooter", "lat": 38.88747566666667, "is_reserved": 0, "is_disabled": 0, "fusion_lon": 0.0, "bike_id": "a78c862288992c00aa384f9897104df8", "lon": -77.02129833333333, "rental_uris": {"ios": "https://dc.lft.to/lastmile_qr_scan", "android": "https://dc.lft.to/lastmile_qr_scan"}}, {"name": "2d6a1b258eebe7e686bccab9c50e62ed", "fusion_lat": 0.0, "type": "electric_scooter", "lat": 38.91176933333333, "is_reserved": 0, "is_disabled": 0, "fusion_lon": 0.0, "bike_id": "2d6a1b258eebe7e686bccab9c50e62ed", "lon": -77.00133316666667, "rental_uris": {"ios": "https://dc.lft.to/lastmile_qr_scan", "android": "https://dc.lft.to/lastmile_qr_scan"}}, {"name": "515106c51f78d954d2cc0b48002dc286", "fusion_lat": 0.0, "type": "electric_scooter", "lat": 38.9162965, "is_reserved": 0, "is_disabled": 0, "fusion_lon": 0.0, "bike_id": "515106c51f78d954d2cc0b48002dc286", "lon": -77.03177316666667, "rental_uris": {"ios": "https://dc.lft.to/lastmile_qr_scan", "android": "https://dc.lft.to/lastmile_qr_scan"}}, {"name": "8a5140ed3a33e2143466766baa8db609", "fusion_lat": 0.0, "type": "electric_scooter", "lat": 38.905085666666665, "is_reserved": 0, "is_disabled": 0, "fusion_lon": 0.0, "bike_id": "8a5140ed3a33e2143466766baa8db609", "lon": -77.02622816666667, "rental_uris": {"ios": "https://dc.lft.to/lastmile_qr_scan", "android": "https://dc.lft.to/lastmile_qr_scan"}}, {"name": "10b5eb9a8326f19efa7110980447704e", "fusion_lat": 0.0, "type": "electric_scooter", "lat": 38.92630316666666, "is_reserved": 0, "is_disabled": 0, "fusion_lon": 0.0, "bike_id": "10b5eb9a8326f19efa7110980447704e", "lon": -77.04197333333333, "rental_uris": {"ios": "https://dc.lft.to/lastmile_qr_scan", "android": "https://dc.lft.to/lastmile_qr_scan"}}, {"name": "80bdc4c7cf9fe648d0aa5d67f139f3ec", "fusion_lat": 0.0, "type": "electric_scooter", "lat": 38.8621285, "is_reserved": 0, "is_disabled": 0, "fusion_lon": 0.0, "bike_id": "80bdc4c7cf9fe648d0aa5d67f139f3ec", "lon": -76.99470516666666, "rental_uris": {"ios": "https://dc.lft.to/lastmile_qr_scan", "android": "https://dc.lft.to/lastmile_qr_scan"}}, {"name": "3dbe6c3b1bc0013b3b1a658d7fc65adc", "fusion_lat": 0.0, "type": "electric_scooter", "lat": 38.92902683333333, "is_reserved": 0, "is_disabled": 0, "fusion_lon": 0.0, "bike_id": "3dbe6c3b1bc0013b3b1a658d7fc65adc", "lon": -77.0250265, "rental_uris": {"ios": "https://dc.lft.to/lastmile_qr_scan", "android": "https://dc.lft.to/lastmile_qr_scan"}}, {"name": "326be0971d9d3dcf18aadca94786fb3d", "fusion_lat": 0.0, "type": "electric_scooter", "lat": 38.92313933333333, "is_reserved": 0, "is_disabled": 0, "fusion_lon": 0.0, "bike_id": "326be0971d9d3dcf18aadca94786fb3d", "lon": -77.041074, "rental_uris": {"ios": "https://dc.lft.to/lastmile_qr_scan", "android": "https://dc.lft.to/lastmile_qr_scan"}}, {"name": "55985d72ffe646b71e8c4009133bf4da", "fusion_lat": 0.0, "type": "electric_scooter", "lat": 38.8970575, "is_reserved": 0, "is_disabled": 0, "fusion_lon": 0.0, "bike_id": "55985d72ffe646b71e8c4009133bf4da", "lon": -77.02179383333333, "rental_uris": {"ios": "https://dc.lft.to/lastmile_qr_scan", "android": "https://dc.lft.to/lastmile_qr_scan"}}, {"name": "ce7b53b7289984f9ffb7b7627758c927", "fusion_lat": 0.0, "type": "electric_scooter", "lat": 38.9483965, "is_reserved": 0, "is_disabled": 0, "fusion_lon": 0.0, "bike_id": "ce7b53b7289984f9ffb7b7627758c927", "lon": -77.0255315, "rental_uris": {"ios": "https://dc.lft.to/lastmile_qr_scan", "android": "https://dc.lft.to/lastmile_qr_scan"}}, {"name": "024e015c1ab4d59c525b7d084e633df1", "fusion_lat": 0.0, "type": "electric_scooter", "lat": 38.941877, "is_reserved": 0, "is_disabled": 0, "fusion_lon": 0.0, "bike_id": "024e015c1ab4d59c525b7d084e633df1", "lon": -77.024903, "rental_uris": {"ios": "https://dc.lft.to/lastmile_qr_scan", "android": "https://dc.lft.to/lastmile_qr_scan"}}, {"name": "9eead9aee9114f9b6d9c58ba3720780a", "fusion_lat": 0.0, "type": "electric_scooter", "lat": 38.8798445, "is_reserved": 0, "is_disabled": 0, "fusion_lon": 0.0, "bike_id": "9eead9aee9114f9b6d9c58ba3720780a", "lon": -76.98385966666666, "rental_uris": {"ios": "https://dc.lft.to/lastmile_qr_scan", "android": "https://dc.lft.to/lastmile_qr_scan"}}, {"name": "901d7eb69a106c9fee2a40334c985cc5", "fusion_lat": 0.0, "type": "electric_scooter", "lat": 38.92370566666666, "is_reserved": 0, "is_disabled": 0, "fusion_lon": 0.0, "bike_id": "901d7eb69a106c9fee2a40334c985cc5", "lon": -77.01911833333334, "rental_uris": {"ios": "https://dc.lft.to/lastmile_qr_scan", "android": "https://dc.lft.to/lastmile_qr_scan"}}, {"name": "2f32933fe195e5bfc774042e2f996168", "fusion_lat": 0.0, "type": "electric_bike", "lat": 38.948108, "is_reserved": 0, "is_disabled": 0, "fusion_lon": 0.0, "bike_id": "2f32933fe195e5bfc774042e2f996168", "lon": -77.02144433333333, "rental_uris": {"ios": "https://dc.lft.to/lastmile_qr_scan", "android": "https://dc.lft.to/lastmile_qr_scan"}}, {"name": "41c98717caf682e0980787688e27fe2a", "fusion_lat": 0.0, "type": "electric_bike", "lat": 38.8708025, "is_reserved": 0, "is_disabled": 0, "fusion_lon": 0.0, "bike_id": "41c98717caf682e0980787688e27fe2a", "lon": -77.110494, "rental_uris": {"ios": "https://dc.lft.to/lastmile_qr_scan", "android": "https://dc.lft.to/lastmile_qr_scan"}}, {"name": "54a24414bbf48a4639c497de83dd8ae6", "fusion_lat": 0.0, "type": "electric_scooter", "lat": 38.877524, "is_reserved": 0, "is_disabled": 0, "fusion_lon": 0.0, "bike_id": "54a24414bbf48a4639c497de83dd8ae6", "lon": -76.97246883333334, "rental_uris": {"ios": "https://dc.lft.to/lastmile_qr_scan", "android": "https://dc.lft.to/lastmile_qr_scan"}}, {"name": "325504073503d80cf7a37224c6f21168", "fusion_lat": 0.0, "type": "electric_bike", "lat": 38.815147333333336, "is_reserved": 0, "is_disabled": 0, "fusion_lon": 0.0, "bike_id": "325504073503d80cf7a37224c6f21168", "lon": -77.1265435, "rental_uris": {"ios": "https://dc.lft.to/lastmile_qr_scan", "android": "https://dc.lft.to/lastmile_qr_scan"}}, {"name": "1b1e6c6cabe5284ad9d6839ea9a822e0", "fusion_lat": 0.0, "type": "electric_scooter", "lat": 38.9119365, "is_reserved": 0, "is_disabled": 0, "fusion_lon": 0.0, "bike_id": "1b1e6c6cabe5284ad9d6839ea9a822e0", "lon": -77.03256083333333, "rental_uris": {"ios": "https://dc.lft.to/lastmile_qr_scan", "android": "https://dc.lft.to/lastmile_qr_scan"}}, {"name": "9a6a12692f3b6fccd018620c0fb03357", "fusion_lat": 0.0, "type": "electric_scooter", "lat": 38.909618333333334, "is_reserved": 0, "is_disabled": 0, "fusion_lon": 0.0, "bike_id": "9a6a12692f3b6fccd018620c0fb03357", "lon": -77.026846, "rental_uris": {"ios": "https://dc.lft.to/lastmile_qr_scan", "android": "https://dc.lft.to/lastmile_qr_scan"}}, {"name": "e6bc0e99f232f44d632c6c7d6f11e8b7", "fusion_lat": 0.0, "type": "electric_scooter", "lat": 38.91916366666667, "is_reserved": 0, "is_disabled": 0, "fusion_lon": 0.0, "bike_id": "e6bc0e99f232f44d632c6c7d6f11e8b7", "lon": -77.031106, "rental_uris": {"ios": "https://dc.lft.to/lastmile_qr_scan", "android": "https://dc.lft.to/lastmile_qr_scan"}}, {"name": "9f5aabb2d71492b9c290930f55c272d9", "fusion_lat": 0.0, "type": "electric_scooter", "lat": 38.9134, "is_reserved": 0, "is_disabled": 0, "fusion_lon": 0.0, "bike_id": "9f5aabb2d71492b9c290930f55c272d9", "lon": -77.04228966666666, "rental_uris": {"ios": "https://dc.lft.to/lastmile_qr_scan", "android": "https://dc.lft.to/lastmile_qr_scan"}}, {"name": "7c8be6b8382d5a5f8845785664822d35", "fusion_lat": 0.0, "type": "electric_scooter", "lat": 38.8954485, "is_reserved": 0, "is_disabled": 0, "fusion_lon": 0.0, "bike_id": "7c8be6b8382d5a5f8845785664822d35", "lon": -76.94878233333333, "rental_uris": {"ios": "https://dc.lft.to/lastmile_qr_scan", "android": "https://dc.lft.to/lastmile_qr_scan"}}, {"name": "e798ffd226f5a4e4cbbdfe77f4478736", "fusion_lat": 0.0, "type": "electric_scooter", "lat": 38.907336666666666, "is_reserved": 0, "is_disabled": 0, "fusion_lon": 0.0, "bike_id": "e798ffd226f5a4e4cbbdfe77f4478736", "lon": -77.03197183333333, "rental_uris": {"ios": "https://dc.lft.to/lastmile_qr_scan", "android": "https://dc.lft.to/lastmile_qr_scan"}}, {"name": "a7ee8863831bfec7037255bbcae8c6cb", "fusion_lat": 0.0, "type": "electric_scooter", "lat": 38.92708016666667, "is_reserved": 0, "is_disabled": 0, "fusion_lon": 0.0, "bike_id": "a7ee8863831bfec7037255bbcae8c6cb", "lon": -77.03728933333333, "rental_uris": {"ios": "https://dc.lft.to/lastmile_qr_scan", "android": "https://dc.lft.to/lastmile_qr_scan"}}, {"name": "8e9b2c3124889046c610099005d9764a", "fusion_lat": 0.0, "type": "electric_scooter", "lat": 38.899082166666666, "is_reserved": 0, "is_disabled": 0, "fusion_lon": 0.0, "bike_id": "8e9b2c3124889046c610099005d9764a", "lon": -77.01514666666667, "rental_uris": {"ios": "https://dc.lft.to/lastmile_qr_scan", "android": "https://dc.lft.to/lastmile_qr_scan"}}, {"name": "7259f7cb790f780d0f6d35da39e85052", "fusion_lat": 0.0, "type": "electric_scooter", "lat": 38.902375, "is_reserved": 0, "is_disabled": 0, "fusion_lon": 0.0, "bike_id": "7259f7cb790f780d0f6d35da39e85052", "lon": -77.0534335, "rental_uris": {"ios": "https://dc.lft.to/lastmile_qr_scan", "android": "https://dc.lft.to/lastmile_qr_scan"}}, {"name": "84275c6e7861eb80a8d439de930927cf", "fusion_lat": 0.0, "type": "electric_scooter", "lat": 38.862124333333334, "is_reserved": 0, "is_disabled": 0, "fusion_lon": 0.0, "bike_id": "84275c6e7861eb80a8d439de930927cf", "lon": -76.9947225, "rental_uris": {"ios": "https://dc.lft.to/lastmile_qr_scan", "android": "https://dc.lft.to/lastmile_qr_scan"}}, {"name": "3988162a784dff5265aecabbb2ea5fc1", "fusion_lat": 0.0, "type": "electric_scooter", "lat": 38.907222, "is_reserved": 0, "is_disabled": 0, "fusion_lon": 0.0, "bike_id": "3988162a784dff5265aecabbb2ea5fc1", "lon": -77.03266566666667, "rental_uris": {"ios": "https://dc.lft.to/lastmile_qr_scan", "android": "https://dc.lft.to/lastmile_qr_scan"}}, {"name": "f16c24e9bb9c3f00691258ddb7b2f468", "fusion_lat": 0.0, "type": "electric_bike", "lat": 39.05358666666667, "is_reserved": 0, "is_disabled": 0, "fusion_lon": 0.0, "bike_id": "f16c24e9bb9c3f00691258ddb7b2f468", "lon": -77.04731016666666, "rental_uris": {"ios": "https://dc.lft.to/lastmile_qr_scan", "android": "https://dc.lft.to/lastmile_qr_scan"}}, {"name": "553d17cc9e692af4b5e99f7900485a45", "fusion_lat": 0.0, "type": "electric_bike", "lat": 39.08853383333334, "is_reserved": 0, "is_disabled": 0, "fusion_lon": 0.0, "bike_id": "553d17cc9e692af4b5e99f7900485a45", "lon": -77.17841433333334, "rental_uris": {"ios": "https://dc.lft.to/lastmile_qr_scan", "android": "https://dc.lft.to/lastmile_qr_scan"}}, {"name": "c24a4b993448b76605c2feb5f57b37f7", "fusion_lat": 0.0, "type": "electric_scooter", "lat": 38.90289166666667, "is_reserved": 0, "is_disabled": 0, "fusion_lon": 0.0, "bike_id": "c24a4b993448b76605c2feb5f57b37f7", "lon": -77.03669566666666, "rental_uris": {"ios": "https://dc.lft.to/lastmile_qr_scan", "android": "https://dc.lft.to/lastmile_qr_scan"}}, {"name": "a7b8f933316c015dd6f529af9ef2f238", "fusion_lat": 0.0, "type": "electric_scooter", "lat": 38.9225185, "is_reserved": 0, "is_disabled": 0, "fusion_lon": 0.0, "bike_id": "a7b8f933316c015dd6f529af9ef2f238", "lon": -76.99386133333333, "rental_uris": {"ios": "https://dc.lft.to/lastmile_qr_scan", "android": "https://dc.lft.to/lastmile_qr_scan"}}, {"name": "b2be52ac0236ae102d470866daa3756b", "fusion_lat": 0.0, "type": "electric_bike", "lat": 38.9352345, "is_reserved": 0, "is_disabled": 0, "fusion_lon": 0.0, "bike_id": "b2be52ac0236ae102d470866daa3756b", "lon": -76.95063366666666, "rental_uris": {"ios": "https://dc.lft.to/lastmile_qr_scan", "android": "https://dc.lft.to/lastmile_qr_scan"}}, {"name": "ce2fa3195238746cac98efa595e32386", "fusion_lat": 0.0, "type": "electric_scooter", "lat": 38.905784, "is_reserved": 0, "is_disabled": 0, "fusion_lon": 0.0, "bike_id": "ce2fa3195238746cac98efa595e32386", "lon": -77.022261, "rental_uris": {"ios": "https://dc.lft.to/lastmile_qr_scan", "android": "https://dc.lft.to/lastmile_qr_scan"}}, {"name": "3c0ee1202343955a9f0a7d1638d09462", "fusion_lat": 0.0, "type": "electric_scooter", "lat": 38.86537833333333, "is_reserved": 0, "is_disabled": 0, "fusion_lon": 0.0, "bike_id": "3c0ee1202343955a9f0a7d1638d09462", "lon": -76.98708216666667, "rental_uris": {"ios": "https://dc.lft.to/lastmile_qr_scan", "android": "https://dc.lft.to/lastmile_qr_scan"}}, {"name": "c27675b88668b345d0409a7b6a51ebea", "fusion_lat": 0.0, "type": "electric_scooter", "lat": 38.90137, "is_reserved": 0, "is_disabled": 0, "fusion_lon": 0.0, "bike_id": "c27675b88668b345d0409a7b6a51ebea", "lon": -77.04203483333333, "rental_uris": {"ios": "https://dc.lft.to/lastmile_qr_scan", "android": "https://dc.lft.to/lastmile_qr_scan"}}, {"name": "08ac7911f200c2387199989770d039b0", "fusion_lat": 0.0, "type": "electric_bike", "lat": 38.928591, "is_reserved": 0, "is_disabled": 0, "fusion_lon": 0.0, "bike_id": "08ac7911f200c2387199989770d039b0", "lon": -77.22221, "rental_uris": {"ios": "https://dc.lft.to/lastmile_qr_scan", "android": "https://dc.lft.to/lastmile_qr_scan"}}, {"name": "f6219e622bd92c24f2ddd61e9a1b59aa", "fusion_lat": 0.0, "type": "electric_scooter", "lat": 38.9565145, "is_reserved": 0, "is_disabled": 0, "fusion_lon": 0.0, "bike_id": "f6219e622bd92c24f2ddd61e9a1b59aa", "lon": -77.032889, "rental_uris": {"ios": "https://dc.lft.to/lastmile_qr_scan", "android": "https://dc.lft.to/lastmile_qr_scan"}}, {"name": "10d99379f6c592a7b7ce7699c8a01187", "fusion_lat": 0.0, "type": "electric_scooter", "lat": 38.889202, "is_reserved": 0, "is_disabled": 0, "fusion_lon": 0.0, "bike_id": "10d99379f6c592a7b7ce7699c8a01187", "lon": -76.95373666666667, "rental_uris": {"ios": "https://dc.lft.to/lastmile_qr_scan", "android": "https://dc.lft.to/lastmile_qr_scan"}}, {"name": "1a739e61929f9729022f07207649ac02", "fusion_lat": 0.0, "type": "electric_scooter", "lat": 38.9288655, "is_reserved": 0, "is_disabled": 0, "fusion_lon": 0.0, "bike_id": "1a739e61929f9729022f07207649ac02", "lon": -77.02309433333333, "rental_uris": {"ios": "https://dc.lft.to/lastmile_qr_scan", "android": "https://dc.lft.to/lastmile_qr_scan"}}, {"name": "eb18d6a748756981f9e7c72cba1b7edf", "fusion_lat": 0.0, "type": "electric_scooter", "lat": 38.911976, "is_reserved": 0, "is_disabled": 0, "fusion_lon": 0.0, "bike_id": "eb18d6a748756981f9e7c72cba1b7edf", "lon": -77.04460033333334, "rental_uris": {"ios": "https://dc.lft.to/lastmile_qr_scan", "android": "https://dc.lft.to/lastmile_qr_scan"}}, {"name": "f753cee7d7e09059078a91d8e6a34af8", "fusion_lat": 0.0, "type": "electric_scooter", "lat": 38.9056985, "is_reserved": 0, "is_disabled": 0, "fusion_lon": 0.0, "bike_id": "f753cee7d7e09059078a91d8e6a34af8", "lon": -77.02754666666667, "rental_uris": {"ios": "https://dc.lft.to/lastmile_qr_scan", "android": "https://dc.lft.to/lastmile_qr_scan"}}, {"name": "978e8af256b5f92c4c06a7de8e522b2d", "fusion_lat": 0.0, "type": "electric_scooter", "lat": 38.89206266666667, "is_reserved": 0, "is_disabled": 0, "fusion_lon": 0.0, "bike_id": "978e8af256b5f92c4c06a7de8e522b2d", "lon": -77.00238566666667, "rental_uris": {"ios": "https://dc.lft.to/lastmile_qr_scan", "android": "https://dc.lft.to/lastmile_qr_scan"}}, {"name": "5983ef1e1ca0841db83288321ca40d7a", "fusion_lat": 0.0, "type": "electric_scooter", "lat": 38.93474966666667, "is_reserved": 0, "is_disabled": 0, "fusion_lon": 0.0, "bike_id": "5983ef1e1ca0841db83288321ca40d7a", "lon": -77.02847316666667, "rental_uris": {"ios": "https://dc.lft.to/lastmile_qr_scan", "android": "https://dc.lft.to/lastmile_qr_scan"}}, {"name": "d8dd67420425ff821ebdc7a72af118ef", "fusion_lat": 0.0, "type": "electric_scooter", "lat": 38.903735833333336, "is_reserved": 0, "is_disabled": 0, "fusion_lon": 0.0, "bike_id": "d8dd67420425ff821ebdc7a72af118ef", "lon": -77.04504133333333, "rental_uris": {"ios": "https://dc.lft.to/lastmile_qr_scan", "android": "https://dc.lft.to/lastmile_qr_scan"}}, {"name": "a54555d0727efbba17ebff89cb653d01", "fusion_lat": 0.0, "type": "electric_scooter", "lat": 38.90258716666666, "is_reserved": 0, "is_disabled": 0, "fusion_lon": 0.0, "bike_id": "a54555d0727efbba17ebff89cb653d01", "lon": -76.9959495, "rental_uris": {"ios": "https://dc.lft.to/lastmile_qr_scan", "android": "https://dc.lft.to/lastmile_qr_scan"}}, {"name": "e1ce477ca5c6f88b8280e018412e2706", "fusion_lat": 0.0, "type": "electric_scooter", "lat": 38.9376805, "is_reserved": 0, "is_disabled": 0, "fusion_lon": 0.0, "bike_id": "e1ce477ca5c6f88b8280e018412e2706", "lon": -77.03281666666666, "rental_uris": {"ios": "https://dc.lft.to/lastmile_qr_scan", "android": "https://dc.lft.to/lastmile_qr_scan"}}, {"name": "cb9987fc341e383816862131a9105ff1", "fusion_lat": 0.0, "type": "electric_scooter", "lat": 38.92646333333333, "is_reserved": 0, "is_disabled": 0, "fusion_lon": 0.0, "bike_id": "cb9987fc341e383816862131a9105ff1", "lon": -77.03696433333333, "rental_uris": {"ios": "https://dc.lft.to/lastmile_qr_scan", "android": "https://dc.lft.to/lastmile_qr_scan"}}, {"name": "38c2b6a4f5336693e79abe8e7f279fc9", "fusion_lat": 0.0, "type": "electric_scooter", "lat": 38.90960066666667, "is_reserved": 0, "is_disabled": 0, "fusion_lon": 0.0, "bike_id": "38c2b6a4f5336693e79abe8e7f279fc9", "lon": -77.03384666666666, "rental_uris": {"ios": "https://dc.lft.to/lastmile_qr_scan", "android": "https://dc.lft.to/lastmile_qr_scan"}}, {"name": "92f20fce7ec627af4cb256ac436c0adc", "fusion_lat": 0.0, "type": "electric_scooter", "lat": 38.91765916666667, "is_reserved": 0, "is_disabled": 0, "fusion_lon": 0.0, "bike_id": "92f20fce7ec627af4cb256ac436c0adc", "lon": -77.02707833333334, "rental_uris": {"ios": "https://dc.lft.to/lastmile_qr_scan", "android": "https://dc.lft.to/lastmile_qr_scan"}}, {"name": "f9afbf19e8ac7fe5408e452ccd9f7b07", "fusion_lat": 0.0, "type": "electric_scooter", "lat": 38.91706933333333, "is_reserved": 0, "is_disabled": 0, "fusion_lon": 0.0, "bike_id": "f9afbf19e8ac7fe5408e452ccd9f7b07", "lon": -77.03333816666667, "rental_uris": {"ios": "https://dc.lft.to/lastmile_qr_scan", "android": "https://dc.lft.to/lastmile_qr_scan"}}, {"name": "707900013c8a8d922ed266122ef3d4f2", "fusion_lat": 0.0, "type": "electric_scooter", "lat": 38.84431433333334, "is_reserved": 0, "is_disabled": 0, "fusion_lon": 0.0, "bike_id": "707900013c8a8d922ed266122ef3d4f2", "lon": -76.99783033333334, "rental_uris": {"ios": "https://dc.lft.to/lastmile_qr_scan", "android": "https://dc.lft.to/lastmile_qr_scan"}}, {"name": "9ce3345a0d04fa702baa19783cb03671", "fusion_lat": 0.0, "type": "electric_scooter", "lat": 38.892234, "is_reserved": 0, "is_disabled": 0, "fusion_lon": 0.0, "bike_id": "9ce3345a0d04fa702baa19783cb03671", "lon": -77.01371283333333, "rental_uris": {"ios": "https://dc.lft.to/lastmile_qr_scan", "android": "https://dc.lft.to/lastmile_qr_scan"}}, {"name": "0ab5f05aea6984abd8213da1ea17bfc9", "fusion_lat": 0.0, "type": "electric_scooter", "lat": 38.905572, "is_reserved": 0, "is_disabled": 0, "fusion_lon": 0.0, "bike_id": "0ab5f05aea6984abd8213da1ea17bfc9", "lon": -77.0058845, "rental_uris": {"ios": "https://dc.lft.to/lastmile_qr_scan", "android": "https://dc.lft.to/lastmile_qr_scan"}}, {"name": "96e4d4360c2b06c386608e8252cd1a0a", "fusion_lat": 0.0, "type": "electric_bike", "lat": 38.869131833333334, "is_reserved": 0, "is_disabled": 0, "fusion_lon": 0.0, "bike_id": "96e4d4360c2b06c386608e8252cd1a0a", "lon": -77.13172683333333, "rental_uris": {"ios": "https://dc.lft.to/lastmile_qr_scan", "android": "https://dc.lft.to/lastmile_qr_scan"}}, {"name": "2d87a993cfae2998074b007b446af861", "fusion_lat": 0.0, "type": "electric_scooter", "lat": 38.9009255, "is_reserved": 0, "is_disabled": 0, "fusion_lon": 0.0, "bike_id": "2d87a993cfae2998074b007b446af861", "lon": -77.01344133333333, "rental_uris": {"ios": "https://dc.lft.to/lastmile_qr_scan", "android": "https://dc.lft.to/lastmile_qr_scan"}}, {"name": "dc691631b5e424eb426a2d43c477bc09", "fusion_lat": 0.0, "type": "electric_scooter", "lat": 38.90648783333334, "is_reserved": 0, "is_disabled": 0, "fusion_lon": 0.0, "bike_id": "dc691631b5e424eb426a2d43c477bc09", "lon": -76.985724, "rental_uris": {"ios": "https://dc.lft.to/lastmile_qr_scan", "android": "https://dc.lft.to/lastmile_qr_scan"}}, {"name": "a06e6276366c91b2e278bef909a3bb08", "fusion_lat": 0.0, "type": "electric_scooter", "lat": 38.911193, "is_reserved": 0, "is_disabled": 0, "fusion_lon": 0.0, "bike_id": "a06e6276366c91b2e278bef909a3bb08", "lon": -77.03923766666666, "rental_uris": {"ios": "https://dc.lft.to/lastmile_qr_scan", "android": "https://dc.lft.to/lastmile_qr_scan"}}, {"name": "547f2e2a606d0f55d9def30c0cc33647", "fusion_lat": 0.0, "type": "electric_scooter", "lat": 38.932861833333334, "is_reserved": 0, "is_disabled": 0, "fusion_lon": 0.0, "bike_id": "547f2e2a606d0f55d9def30c0cc33647", "lon": -77.02532616666667, "rental_uris": {"ios": "https://dc.lft.to/lastmile_qr_scan", "android": "https://dc.lft.to/lastmile_qr_scan"}}, {"name": "27261dbdd4f51013d39285f0cf132279", "fusion_lat": 0.0, "type": "electric_scooter", "lat": 38.8992575, "is_reserved": 0, "is_disabled": 0, "fusion_lon": 0.0, "bike_id": "27261dbdd4f51013d39285f0cf132279", "lon": -77.00353566666666, "rental_uris": {"ios": "https://dc.lft.to/lastmile_qr_scan", "android": "https://dc.lft.to/lastmile_qr_scan"}}, {"name": "4d59aa1a688bfab48a75fba6767c0f93", "fusion_lat": 0.0, "type": "electric_scooter", "lat": 38.896258333333336, "is_reserved": 0, "is_disabled": 0, "fusion_lon": 0.0, "bike_id": "4d59aa1a688bfab48a75fba6767c0f93", "lon": -77.02825183333333, "rental_uris": {"ios": "https://dc.lft.to/lastmile_qr_scan", "android": "https://dc.lft.to/lastmile_qr_scan"}}, {"name": "ca1efa68843ffd1d6911d853b2619ad6", "fusion_lat": 0.0, "type": "electric_scooter", "lat": 38.893764166666664, "is_reserved": 0, "is_disabled": 0, "fusion_lon": 0.0, "bike_id": "ca1efa68843ffd1d6911d853b2619ad6", "lon": -76.94980916666667, "rental_uris": {"ios": "https://dc.lft.to/lastmile_qr_scan", "android": "https://dc.lft.to/lastmile_qr_scan"}}, {"name": "c03fb20fbfda2e2cdea64aa0999f2770", "fusion_lat": 0.0, "type": "electric_bike", "lat": 38.834393166666665, "is_reserved": 0, "is_disabled": 0, "fusion_lon": 0.0, "bike_id": "c03fb20fbfda2e2cdea64aa0999f2770", "lon": -77.00823766666667, "rental_uris": {"ios": "https://dc.lft.to/lastmile_qr_scan", "android": "https://dc.lft.to/lastmile_qr_scan"}}, {"name": "8d911c3db6c0f4f3c380bafbe34ee94d", "fusion_lat": 0.0, "type": "electric_scooter", "lat": 38.884395, "is_reserved": 0, "is_disabled": 0, "fusion_lon": 0.0, "bike_id": "8d911c3db6c0f4f3c380bafbe34ee94d", "lon": -76.99598399999999, "rental_uris": {"ios": "https://dc.lft.to/lastmile_qr_scan", "android": "https://dc.lft.to/lastmile_qr_scan"}}, {"name": "dd73978955661afc4893414ed5677fc8", "fusion_lat": 0.0, "type": "electric_scooter", "lat": 38.90033283333333, "is_reserved": 0, "is_disabled": 0, "fusion_lon": 0.0, "bike_id": "dd73978955661afc4893414ed5677fc8", "lon": -76.99831516666667, "rental_uris": {"ios": "https://dc.lft.to/lastmile_qr_scan", "android": "https://dc.lft.to/lastmile_qr_scan"}}, {"name": "0960e9fb8031ba678c5233b5d8ecc71e", "fusion_lat": 0.0, "type": "electric_scooter", "lat": 38.89601316666667, "is_reserved": 0, "is_disabled": 0, "fusion_lon": 0.0, "bike_id": "0960e9fb8031ba678c5233b5d8ecc71e", "lon": -77.04132933333334, "rental_uris": {"ios": "https://dc.lft.to/lastmile_qr_scan", "android": "https://dc.lft.to/lastmile_qr_scan"}}, {"name": "ed842920cc62ba622a46a27326c8ec25", "fusion_lat": 0.0, "type": "electric_scooter", "lat": 38.906492666666665, "is_reserved": 0, "is_disabled": 0, "fusion_lon": 0.0, "bike_id": "ed842920cc62ba622a46a27326c8ec25", "lon": -77.01410233333333, "rental_uris": {"ios": "https://dc.lft.to/lastmile_qr_scan", "android": "https://dc.lft.to/lastmile_qr_scan"}}, {"name": "b403d3a5c9f88a815e456bc4cd3c44a0", "fusion_lat": 0.0, "type": "electric_scooter", "lat": 38.92779, "is_reserved": 0, "is_disabled": 0, "fusion_lon": 0.0, "bike_id": "b403d3a5c9f88a815e456bc4cd3c44a0", "lon": -77.026652, "rental_uris": {"ios": "https://dc.lft.to/lastmile_qr_scan", "android": "https://dc.lft.to/lastmile_qr_scan"}}, {"name": "baa4936b130fad37a3b8c1a2234608c0", "fusion_lat": 0.0, "type": "electric_scooter", "lat": 38.9201985, "is_reserved": 0, "is_disabled": 0, "fusion_lon": 0.0, "bike_id": "baa4936b130fad37a3b8c1a2234608c0", "lon": -77.03974083333334, "rental_uris": {"ios": "https://dc.lft.to/lastmile_qr_scan", "android": "https://dc.lft.to/lastmile_qr_scan"}}, {"name": "2603e794db00a15c5f198f6a7de9fee3", "fusion_lat": 0.0, "type": "electric_scooter", "lat": 38.872353833333335, "is_reserved": 0, "is_disabled": 0, "fusion_lon": 0.0, "bike_id": "2603e794db00a15c5f198f6a7de9fee3", "lon": -77.01159683333333, "rental_uris": {"ios": "https://dc.lft.to/lastmile_qr_scan", "android": "https://dc.lft.to/lastmile_qr_scan"}}, {"name": "5b8064f3b2f22e04e8337c238ab8b338", "fusion_lat": 0.0, "type": "electric_scooter", "lat": 38.922487, "is_reserved": 0, "is_disabled": 0, "fusion_lon": 0.0, "bike_id": "5b8064f3b2f22e04e8337c238ab8b338", "lon": -77.044848, "rental_uris": {"ios": "https://dc.lft.to/lastmile_qr_scan", "android": "https://dc.lft.to/lastmile_qr_scan"}}, {"name": "0e3817919299f80a3409898cd8d2c5d7", "fusion_lat": 0.0, "type": "electric_scooter", "lat": 38.870838666666664, "is_reserved": 0, "is_disabled": 0, "fusion_lon": 0.0, "bike_id": "0e3817919299f80a3409898cd8d2c5d7", "lon": -76.96859383333333, "rental_uris": {"ios": "https://dc.lft.to/lastmile_qr_scan", "android": "https://dc.lft.to/lastmile_qr_scan"}}, {"name": "b8c3ae67a3a2f3fbfa2306f409da1c5e", "fusion_lat": 0.0, "type": "electric_bike", "lat": 39.030528833333335, "is_reserved": 0, "is_disabled": 0, "fusion_lon": 0.0, "bike_id": "b8c3ae67a3a2f3fbfa2306f409da1c5e", "lon": -77.09488983333334, "rental_uris": {"ios": "https://dc.lft.to/lastmile_qr_scan", "android": "https://dc.lft.to/lastmile_qr_scan"}}, {"name": "1295d46a23f720a45e8239570bb12dfa", "fusion_lat": 0.0, "type": "electric_scooter", "lat": 38.9002705, "is_reserved": 0, "is_disabled": 0, "fusion_lon": 0.0, "bike_id": "1295d46a23f720a45e8239570bb12dfa", "lon": -76.98843316666667, "rental_uris": {"ios": "https://dc.lft.to/lastmile_qr_scan", "android": "https://dc.lft.to/lastmile_qr_scan"}}, {"name": "409b54b370d75a864a46fd6906a617cc", "fusion_lat": 0.0, "type": "electric_scooter", "lat": 38.92483516666667, "is_reserved": 0, "is_disabled": 0, "fusion_lon": 0.0, "bike_id": "409b54b370d75a864a46fd6906a617cc", "lon": -77.03481616666667, "rental_uris": {"ios": "https://dc.lft.to/lastmile_qr_scan", "android": "https://dc.lft.to/lastmile_qr_scan"}}, {"name": "00057b4074d6a894d9b78350e81a71ba", "fusion_lat": 0.0, "type": "electric_scooter", "lat": 38.85529583333334, "is_reserved": 0, "is_disabled": 0, "fusion_lon": 0.0, "bike_id": "00057b4074d6a894d9b78350e81a71ba", "lon": -76.96920883333334, "rental_uris": {"ios": "https://dc.lft.to/lastmile_qr_scan", "android": "https://dc.lft.to/lastmile_qr_scan"}}, {"name": "2eb87c90efcc2bfde5710cae5aef4cfe", "fusion_lat": 0.0, "type": "electric_scooter", "lat": 38.920554333333335, "is_reserved": 0, "is_disabled": 0, "fusion_lon": 0.0, "bike_id": "2eb87c90efcc2bfde5710cae5aef4cfe", "lon": -77.02360633333333, "rental_uris": {"ios": "https://dc.lft.to/lastmile_qr_scan", "android": "https://dc.lft.to/lastmile_qr_scan"}}, {"name": "94bbb0e13315c0a530af79c41a096828", "fusion_lat": 0.0, "type": "electric_scooter", "lat": 38.92318233333334, "is_reserved": 0, "is_disabled": 0, "fusion_lon": 0.0, "bike_id": "94bbb0e13315c0a530af79c41a096828", "lon": -77.04111883333333, "rental_uris": {"ios": "https://dc.lft.to/lastmile_qr_scan", "android": "https://dc.lft.to/lastmile_qr_scan"}}, {"name": "00a0287d67bec72af5065cc880460826", "fusion_lat": 0.0, "type": "electric_bike", "lat": 38.89637716666667, "is_reserved": 0, "is_disabled": 0, "fusion_lon": 0.0, "bike_id": "00a0287d67bec72af5065cc880460826", "lon": -77.1045475, "rental_uris": {"ios": "https://dc.lft.to/lastmile_qr_scan", "android": "https://dc.lft.to/lastmile_qr_scan"}}, {"name": "095929895711b46fc7fa00a70dd8cd20", "fusion_lat": 0.0, "type": "electric_scooter", "lat": 38.923890666666665, "is_reserved": 0, "is_disabled": 0, "fusion_lon": 0.0, "bike_id": "095929895711b46fc7fa00a70dd8cd20", "lon": -77.02981, "rental_uris": {"ios": "https://dc.lft.to/lastmile_qr_scan", "android": "https://dc.lft.to/lastmile_qr_scan"}}, {"name": "9e06c80dddfcb0193a60bc0e290f25b0", "fusion_lat": 0.0, "type": "electric_scooter", "lat": 38.95265666666667, "is_reserved": 0, "is_disabled": 0, "fusion_lon": 0.0, "bike_id": "9e06c80dddfcb0193a60bc0e290f25b0", "lon": -77.0256695, "rental_uris": {"ios": "https://dc.lft.to/lastmile_qr_scan", "android": "https://dc.lft.to/lastmile_qr_scan"}}, {"name": "6e0d6fed45887421654ea4a6de84aa66", "fusion_lat": 0.0, "type": "electric_scooter", "lat": 38.89403016666667, "is_reserved": 0, "is_disabled": 0, "fusion_lon": 0.0, "bike_id": "6e0d6fed45887421654ea4a6de84aa66", "lon": -76.94804483333333, "rental_uris": {"ios": "https://dc.lft.to/lastmile_qr_scan", "android": "https://dc.lft.to/lastmile_qr_scan"}}, {"name": "2382e58b479b7aeb8626cb82617adf90", "fusion_lat": 0.0, "type": "electric_scooter", "lat": 38.864218666666666, "is_reserved": 0, "is_disabled": 0, "fusion_lon": 0.0, "bike_id": "2382e58b479b7aeb8626cb82617adf90", "lon": -76.98051666666667, "rental_uris": {"ios": "https://dc.lft.to/lastmile_qr_scan", "android": "https://dc.lft.to/lastmile_qr_scan"}}, {"name": "244f2d0cb4cdf2bbc219de6a81f0de46", "fusion_lat": 0.0, "type": "electric_scooter", "lat": 38.88404883333333, "is_reserved": 0, "is_disabled": 0, "fusion_lon": 0.0, "bike_id": "244f2d0cb4cdf2bbc219de6a81f0de46", "lon": -76.985874, "rental_uris": {"ios": "https://dc.lft.to/lastmile_qr_scan", "android": "https://dc.lft.to/lastmile_qr_scan"}}, {"name": "53ead5b8d738a3505d65b23f09046a0e", "fusion_lat": 0.0, "type": "electric_scooter", "lat": 38.92313433333333, "is_reserved": 0, "is_disabled": 0, "fusion_lon": 0.0, "bike_id": "53ead5b8d738a3505d65b23f09046a0e", "lon": -77.03539716666667, "rental_uris": {"ios": "https://dc.lft.to/lastmile_qr_scan", "android": "https://dc.lft.to/lastmile_qr_scan"}}, {"name": "314a8a5644a095870f1f4df454c30408", "fusion_lat": 0.0, "type": "electric_scooter", "lat": 38.905781, "is_reserved": 0, "is_disabled": 0, "fusion_lon": 0.0, "bike_id": "314a8a5644a095870f1f4df454c30408", "lon": -77.00568216666667, "rental_uris": {"ios": "https://dc.lft.to/lastmile_qr_scan", "android": "https://dc.lft.to/lastmile_qr_scan"}}, {"name": "4f32b93c189be6bee2d0d94d885c31de", "fusion_lat": 0.0, "type": "electric_scooter", "lat": 38.9263135, "is_reserved": 0, "is_disabled": 0, "fusion_lon": 0.0, "bike_id": "4f32b93c189be6bee2d0d94d885c31de", "lon": -77.03788133333333, "rental_uris": {"ios": "https://dc.lft.to/lastmile_qr_scan", "android": "https://dc.lft.to/lastmile_qr_scan"}}, {"name": "de57ef0ee8a700e07b155958780cd701", "fusion_lat": 0.0, "type": "electric_scooter", "lat": 38.907701333333335, "is_reserved": 0, "is_disabled": 0, "fusion_lon": 0.0, "bike_id": "de57ef0ee8a700e07b155958780cd701", "lon": -77.05974733333333, "rental_uris": {"ios": "https://dc.lft.to/lastmile_qr_scan", "android": "https://dc.lft.to/lastmile_qr_scan"}}, {"name": "8cb80100ad2c6e85668adc71037377b6", "fusion_lat": 0.0, "type": "electric_scooter", "lat": 38.92347766666666, "is_reserved": 0, "is_disabled": 0, "fusion_lon": 0.0, "bike_id": "8cb80100ad2c6e85668adc71037377b6", "lon": -77.034038, "rental_uris": {"ios": "https://dc.lft.to/lastmile_qr_scan", "android": "https://dc.lft.to/lastmile_qr_scan"}}, {"name": "a50afd8d807d82d2a891052a63e98139", "fusion_lat": 0.0, "type": "electric_scooter", "lat": 38.91336233333333, "is_reserved": 0, "is_disabled": 0, "fusion_lon": 0.0, "bike_id": "a50afd8d807d82d2a891052a63e98139", "lon": -77.048732, "rental_uris": {"ios": "https://dc.lft.to/lastmile_qr_scan", "android": "https://dc.lft.to/lastmile_qr_scan"}}, {"name": "5564b4f3201de6c05842efd8bc5f456f", "fusion_lat": 0.0, "type": "electric_scooter", "lat": 38.90735216666667, "is_reserved": 0, "is_disabled": 0, "fusion_lon": 0.0, "bike_id": "5564b4f3201de6c05842efd8bc5f456f", "lon": -77.0488345, "rental_uris": {"ios": "https://dc.lft.to/lastmile_qr_scan", "android": "https://dc.lft.to/lastmile_qr_scan"}}, {"name": "26c680fd75eade2b15b23b8917549912", "fusion_lat": 0.0, "type": "electric_scooter", "lat": 38.92704233333333, "is_reserved": 0, "is_disabled": 0, "fusion_lon": 0.0, "bike_id": "26c680fd75eade2b15b23b8917549912", "lon": -77.02431233333333, "rental_uris": {"ios": "https://dc.lft.to/lastmile_qr_scan", "android": "https://dc.lft.to/lastmile_qr_scan"}}, {"name": "ff71503f62cc30863d77cdb8fb187a29", "fusion_lat": 0.0, "type": "electric_bike", "lat": 38.9709045, "is_reserved": 0, "is_disabled": 0, "fusion_lon": 0.0, "bike_id": "ff71503f62cc30863d77cdb8fb187a29", "lon": -77.06962, "rental_uris": {"ios": "https://dc.lft.to/lastmile_qr_scan", "android": "https://dc.lft.to/lastmile_qr_scan"}}, {"name": "2e28a3f15fc690d2bb0e0f7c1cced2b1", "fusion_lat": 0.0, "type": "electric_scooter", "lat": 38.899688, "is_reserved": 0, "is_disabled": 0, "fusion_lon": 0.0, "bike_id": "2e28a3f15fc690d2bb0e0f7c1cced2b1", "lon": -77.0556515, "rental_uris": {"ios": "https://dc.lft.to/lastmile_qr_scan", "android": "https://dc.lft.to/lastmile_qr_scan"}}, {"name": "962fbbfa97416c4d41e6638a092de930", "fusion_lat": 0.0, "type": "electric_scooter", "lat": 38.91194516666667, "is_reserved": 0, "is_disabled": 0, "fusion_lon": 0.0, "bike_id": "962fbbfa97416c4d41e6638a092de930", "lon": -77.04542383333333, "rental_uris": {"ios": "https://dc.lft.to/lastmile_qr_scan", "android": "https://dc.lft.to/lastmile_qr_scan"}}, {"name": "27e85c6b9f1a24171b99ed6c04665e15", "fusion_lat": 0.0, "type": "electric_scooter", "lat": 38.912767833333334, "is_reserved": 0, "is_disabled": 0, "fusion_lon": 0.0, "bike_id": "27e85c6b9f1a24171b99ed6c04665e15", "lon": -77.04505766666666, "rental_uris": {"ios": "https://dc.lft.to/lastmile_qr_scan", "android": "https://dc.lft.to/lastmile_qr_scan"}}, {"name": "255b4b2c9c6e9850e29e0d2de05bf1de", "fusion_lat": 0.0, "type": "electric_bike", "lat": 38.91020183333333, "is_reserved": 0, "is_disabled": 0, "fusion_lon": 0.0, "bike_id": "255b4b2c9c6e9850e29e0d2de05bf1de", "lon": -77.06157383333333, "rental_uris": {"ios": "https://dc.lft.to/lastmile_qr_scan", "android": "https://dc.lft.to/lastmile_qr_scan"}}, {"name": "e1340d460b83919a6f2fd7fd153c195b", "fusion_lat": 0.0, "type": "electric_scooter", "lat": 38.915875666666665, "is_reserved": 0, "is_disabled": 0, "fusion_lon": 0.0, "bike_id": "e1340d460b83919a6f2fd7fd153c195b", "lon": -77.01720766666666, "rental_uris": {"ios": "https://dc.lft.to/lastmile_qr_scan", "android": "https://dc.lft.to/lastmile_qr_scan"}}, {"name": "18b743b24664c35cc4fa6bee25692d10", "fusion_lat": 0.0, "type": "electric_scooter", "lat": 38.89519033333333, "is_reserved": 0, "is_disabled": 0, "fusion_lon": 0.0, "bike_id": "18b743b24664c35cc4fa6bee25692d10", "lon": -77.01105466666667, "rental_uris": {"ios": "https://dc.lft.to/lastmile_qr_scan", "android": "https://dc.lft.to/lastmile_qr_scan"}}, {"name": "b1589751b645f1ec92df15ad671e5566", "fusion_lat": 0.0, "type": "electric_scooter", "lat": 38.935462666666666, "is_reserved": 0, "is_disabled": 0, "fusion_lon": 0.0, "bike_id": "b1589751b645f1ec92df15ad671e5566", "lon": -77.03414266666667, "rental_uris": {"ios": "https://dc.lft.to/lastmile_qr_scan", "android": "https://dc.lft.to/lastmile_qr_scan"}}, {"name": "7d3d906df23253b4cf929bcca5bcee33", "fusion_lat": 0.0, "type": "electric_scooter", "lat": 38.91257983333333, "is_reserved": 0, "is_disabled": 0, "fusion_lon": 0.0, "bike_id": "7d3d906df23253b4cf929bcca5bcee33", "lon": -77.03433216666667, "rental_uris": {"ios": "https://dc.lft.to/lastmile_qr_scan", "android": "https://dc.lft.to/lastmile_qr_scan"}}, {"name": "999681860616519597e53aa24d0a18f9", "fusion_lat": 0.0, "type": "electric_scooter", "lat": 38.900168666666666, "is_reserved": 0, "is_disabled": 0, "fusion_lon": 0.0, "bike_id": "999681860616519597e53aa24d0a18f9", "lon": -77.01115966666667, "rental_uris": {"ios": "https://dc.lft.to/lastmile_qr_scan", "android": "https://dc.lft.to/lastmile_qr_scan"}}, {"name": "b26b359525857682d8732b81c42d98c4", "fusion_lat": 0.0, "type": "electric_scooter", "lat": 38.90048866666667, "is_reserved": 0, "is_disabled": 0, "fusion_lon": 0.0, "bike_id": "b26b359525857682d8732b81c42d98c4", "lon": -76.98822766666666, "rental_uris": {"ios": "https://dc.lft.to/lastmile_qr_scan", "android": "https://dc.lft.to/lastmile_qr_scan"}}, {"name": "534f5b121a1397a7bc527066c9530fc3", "fusion_lat": 0.0, "type": "electric_scooter", "lat": 38.93250583333333, "is_reserved": 0, "is_disabled": 0, "fusion_lon": 0.0, "bike_id": "534f5b121a1397a7bc527066c9530fc3", "lon": -77.0401175, "rental_uris": {"ios": "https://dc.lft.to/lastmile_qr_scan", "android": "https://dc.lft.to/lastmile_qr_scan"}}, {"name": "5b55cbea3cc8a9521c2d94917bb680cc", "fusion_lat": 0.0, "type": "electric_scooter", "lat": 38.917304, "is_reserved": 0, "is_disabled": 0, "fusion_lon": 0.0, "bike_id": "5b55cbea3cc8a9521c2d94917bb680cc", "lon": -77.03841433333334, "rental_uris": {"ios": "https://dc.lft.to/lastmile_qr_scan", "android": "https://dc.lft.to/lastmile_qr_scan"}}, {"name": "4ad6be7a014605d318270cd7206ee09e", "fusion_lat": 0.0, "type": "electric_scooter", "lat": 38.91691933333333, "is_reserved": 0, "is_disabled": 0, "fusion_lon": 0.0, "bike_id": "4ad6be7a014605d318270cd7206ee09e", "lon": -77.02441583333334, "rental_uris": {"ios": "https://dc.lft.to/lastmile_qr_scan", "android": "https://dc.lft.to/lastmile_qr_scan"}}, {"name": "addeff32a306e5cc14d4426b46df3178", "fusion_lat": 0.0, "type": "electric_scooter", "lat": 38.911218833333336, "is_reserved": 0, "is_disabled": 0, "fusion_lon": 0.0, "bike_id": "addeff32a306e5cc14d4426b46df3178", "lon": -77.03299583333333, "rental_uris": {"ios": "https://dc.lft.to/lastmile_qr_scan", "android": "https://dc.lft.to/lastmile_qr_scan"}}, {"name": "f71edcb9548ae4ee38c717df1e0a3956", "fusion_lat": 0.0, "type": "electric_scooter", "lat": 38.9165725, "is_reserved": 0, "is_disabled": 0, "fusion_lon": 0.0, "bike_id": "f71edcb9548ae4ee38c717df1e0a3956", "lon": -77.02566883333333, "rental_uris": {"ios": "https://dc.lft.to/lastmile_qr_scan", "android": "https://dc.lft.to/lastmile_qr_scan"}},