{"data": {"bikes": [{"lat": 38.942040666666664, "type": "electric_scooter", "is_disabled": 0, "rental_uris": {"android": "https://dc.lft.to/lastmile_qr_scan", "ios": "https://dc.lft.to/lastmile_qr_scan"}, "is_reserved": 0, "bike_id": "a8baaacc4eb21b2ad0fae2d3b0b3f589", "name": "a8baaacc4eb21b2ad0fae2d3b0b3f589", "fusion_lon": 0.0, "lon": -77.018285, "fusion_lat": 0.0}, {"lat": 38.90611916666667, "type": "electric_scooter", "is_disabled": 0, "rental_uris": {"android": "https://dc.lft.to/lastmile_qr_scan", "ios": "https://dc.lft.to/lastmile_qr_scan"}, "is_reserved": 0, "bike_id": "ed4682d5fbc17589fea4ee8bd754679b", "name": "ed4682d5fbc17589fea4ee8bd754679b", "fusion_lon": 0.0, "lon": -77.0068795, "fusion_lat": 0.0}, {"lat": 38.9154695, "type": "electric_scooter", "is_disabled": 0, "rental_uris": {"android": "https://dc.lft.to/lastmile_qr_scan", "ios": "https://dc.lft.to/lastmile_qr_scan"}, "is_reserved": 0, "bike_id": "bb8755e7db19be498c69304fea52555a", "name": "bb8755e7db19be498c69304fea52555a", "fusion_lon": 0.0, "lon": -77.0122285, "fusion_lat": 0.0}, {"lat": 38.910533666666666, "type": "electric_scooter", "is_disabled": 0, "rental_uris": {"android": "https://dc.lft.to/lastmile_qr_scan", "ios": "https://dc.lft.to/lastmile_qr_scan"}, "is_reserved": 0, "bike_id": "5459c372996ab895a4f117f469daf287", "name": "5459c372996ab895a4f117f469daf287", "fusion_lon": 0.0, "lon": -77.04354033333334, "fusion_lat": 0.0}, {"lat": 38.92169616666666, "type": "electric_scooter", "is_disabled": 0, "rental_uris": {"android": "https://dc.lft.to/lastmile_qr_scan", "ios": "https://dc.lft.to/lastmile_qr_scan"}, "is_reserved": 0, "bike_id": "70a2fa60a63ac53585a4472f2060b055", "name": "70a2fa60a63ac53585a4472f2060b055", "fusion_lon": 0.0, "lon": -76.99399733333334, "fusion_lat": 0.0}, {"lat": 38.89515433333333, "type": "electric_scooter", "is_disabled": 0, "rental_uris": {"android": "https://dc.lft.to/lastmile_qr_scan", "ios": "https://dc.lft.to/lastmile_qr_scan"}, "is_reserved": 0, "bike_id": "397484a82b75c91f93b3c08b5bfdd33c", "name": "397484a82b75c91f93b3c08b5bfdd33c", "fusion_lon": 0.0, "lon": -76.94885033333334, "fusion_lat": 0.0}, {"lat": 38.89479133333333, "type": "electric_scooter", "is_disabled": 0, "rental_uris": {"android": "https://dc.lft.to/lastmile_qr_scan", "ios": "https://dc.lft.to/lastmile_qr_scan"}, "is_reserved": 0, "bike_id": "6afa10b907815f6f425c133b33ab5c1f", "name": "6afa10b907815f6f425c133b33ab5c1f", "fusion_lon": 0.0, "lon": -77.02008, "fusion_lat": 0.0}, {"lat": 38.8809135, "type": "electric_scooter", "is_disabled": 0, "rental_uris": {"android": "https://dc.lft.to/lastmile_qr_scan", "ios": "https://dc.lft.to/lastmile_qr_scan"}, "is_reserved": 0, "bike_id": "369a6f330a15a1d10d13fcae242f8ae4", "name": "369a6f330a15a1d10d13fcae242f8ae4", "fusion_lon": 0.0, "lon": -77.02574683333333, "fusion_lat": 0.0}, {"lat": 38.90266916666667, "type": "electric_scooter", "is_disabled": 0, "rental_uris": {"android": "https://dc.lft.to/lastmile_qr_scan", "ios": "https://dc.lft.to/lastmile_qr_scan"}, "is_reserved": 0, "bike_id": "fae768eb1a3083f67915355676a64265", "name": "fae768eb1a3083f67915355676a64265", "fusion_lon": 0.0, "lon": -77.02135366666667, "fusion_lat": 0.0}, {"lat": 38.9001725, "type": "electric_scooter", "is_disabled": 0, "rental_uris": {"android": "https://dc.lft.to/lastmile_qr_scan", "ios": "https://dc.lft.to/lastmile_qr_scan"}, "is_reserved": 0, "bike_id": "a0189cf1bda55af522318f141ce9bffc", "name": "a0189cf1bda55af522318f141ce9bffc", "fusion_lon": 0.0, "lon": -77.02007166666667, "fusion_lat": 0.0}, {"lat": 38.923165833333336, "type": "electric_scooter", "is_disabled": 0, "rental_uris": {"android": "https://dc.lft.to/lastmile_qr_scan", "ios": "https://dc.lft.to/lastmile_qr_scan"}, "is_reserved": 0, "bike_id": "0fbc22d954b0b08330c882b0b53ca01e", "name": "0fbc22d954b0b08330c882b0b53ca01e", "fusion_lon": 0.0, "lon": -77.039119, "fusion_lat": 0.0}, {"lat": 38.896809833333336, "type": "electric_scooter", "is_disabled": 0, "rental_uris": {"android": "https://dc.lft.to/lastmile_qr_scan", "ios": "https://dc.lft.to/lastmile_qr_scan"}, "is_reserved": 0, "bike_id": "7d33833e04512a0b913143066d685842", "name": "7d33833e04512a0b913143066d685842", "fusion_lon": 0.0, "lon": -76.935328, "fusion_lat": 0.0}, {"lat": 38.900426, "type": "electric_scooter", "is_disabled": 0, "rental_uris": {"android": "https://dc.lft.to/lastmile_qr_scan", "ios": "https://dc.lft.to/lastmile_qr_scan"}, "is_reserved": 0, "bike_id": "442482850509d8c26c74e08d6ffe0350", "name": "442482850509d8c26c74e08d6ffe0350", "fusion_lon": 0.0, "lon": -77.0337505, "fusion_lat": 0.0}, {"lat": 38.92417283333333, "type": "electric_scooter", "is_disabled": 0, "rental_uris": {"android": "https://dc.lft.to/lastmile_qr_scan", "ios": "https://dc.lft.to/lastmile_qr_scan"}, "is_reserved": 0, "bike_id": "4249a8110f36aaabd013f062142eed41", "name": "4249a8110f36aaabd013f062142eed41", "fusion_lon": 0.0, "lon": -77.0201175, "fusion_lat": 0.0}, {"lat": 38.91738866666667, "type": "electric_scooter", "is_disabled": 0, "rental_uris": {"android": "https://dc.lft.to/lastmile_qr_scan", "ios": "https://dc.lft.to/lastmile_qr_scan"}, "is_reserved": 0, "bike_id": "076f06ee5f18f4180d46f17d1d99193e", "name": "076f06ee5f18f4180d46f17d1d99193e", "fusion_lon": 0.0, "lon": -77.03641166666667, "fusion_lat": 0.0}, {"lat": 38.89843, "type": "electric_scooter", "is_disabled": 0, "rental_uris": {"android": "https://dc.lft.to/lastmile_qr_scan", "ios": "https://dc.lft.to/lastmile_qr_scan"}, "is_reserved": 0, "bike_id": "f3e42daeb5ed2c6048e57346e7cc02db", "name": "f3e42daeb5ed2c6048e57346e7cc02db", "fusion_lon": 0.0, "lon": -77.007575, "fusion_lat": 0.0}, {"lat": 38.89784733333333, "type": "electric_scooter", "is_disabled": 0, "rental_uris": {"android": "https://dc.lft.to/lastmile_qr_scan", "ios": "https://dc.lft.to/lastmile_qr_scan"}, "is_reserved": 0, "bike_id": "cc2ec9b606663ada2f261f4dcca2ec9f", "name": "cc2ec9b606663ada2f261f4dcca2ec9f", "fusion_lon": 0.0, "lon": -77.05030483333333, "fusion_lat": 0.0}, {"lat": 38.89796533333333, "type": "electric_scooter", "is_disabled": 0, "rental_uris": {"android": "https://dc.lft.to/lastmile_qr_scan", "ios": "https://dc.lft.to/lastmile_qr_scan"}, "is_reserved": 0, "bike_id": "d9955b994b1299c7f2536e79b0273175", "name": "d9955b994b1299c7f2536e79b0273175", "fusion_lon": 0.0, "lon": -77.0394815, "fusion_lat": 0.0}, {"lat": 38.899852333333335, "type": "electric_scooter", "is_disabled": 0, "rental_uris": {"android": "https://dc.lft.to/lastmile_qr_scan", "ios": "https://dc.lft.to/lastmile_qr_scan"}, "is_reserved": 0, "bike_id": "b3851c966e48d14d0b710e0cb54594fd", "name": "b3851c966e48d14d0b710e0cb54594fd", "fusion_lon": 0.0, "lon": -77.02188983333333, "fusion_lat": 0.0}, {"lat": 38.98508566666667, "type": "electric_bike", "is_disabled": 0, "rental_uris": {"android": "https://dc.lft.to/lastmile_qr_scan", "ios": "https://dc.lft.to/lastmile_qr_scan"}, "is_reserved": 0, "bike_id": "e97f901be0cdca611d1ade543e18f7ae", "name": "e97f901be0cdca611d1ade543e18f7ae", "fusion_lon": 0.0, "lon": -76.98215966666666, "fusion_lat": 0.0}, {"lat": 38.89975, "type": "electric_scooter", "is_disabled": 0, "rental_uris": {"android": "https://dc.lft.to/lastmile_qr_scan", "ios": "https://dc.lft.to/lastmile_qr_scan"}, "is_reserved": 0, "bike_id": "cbecaf57e037846badaa0d3848f738af", "name": "cbecaf57e037846badaa0d3848f738af", "fusion_lon": 0.0, "lon": -77.02965833333333, "fusion_lat": 0.0}, {"lat": 38.891072333333334, "type": "electric_scooter", "is_disabled": 0, "rental_uris": {"android": "https://dc.lft.to/lastmile_qr_scan", "ios": "https://dc.lft.to/lastmile_qr_scan"}, "is_reserved": 0, "bike_id": "d684d14bb246aff47823031c812264cb", "name": "d684d14bb246aff47823031c812264cb", "fusion_lon": 0.0, "lon": -77.00617433333333, "fusion_lat": 0.0}, {"lat": 38.91936366666667, "type": "electric_scooter", "is_disabled": 0, "rental_uris": {"android": "https://dc.lft.to/lastmile_qr_scan", "ios": "https://dc.lft.to/lastmile_qr_scan"}, "is_reserved": 0, "bike_id": "22eaccc137ac2aa07f67ae61983a2ae0", "name": "22eaccc137ac2aa07f67ae61983a2ae0", "fusion_lon": 0.0, "lon": -77.03167133333334, "fusion_lat": 0.0}, {"lat": 38.9026025, "type": "electric_scooter", "is_disabled": 0, "rental_uris": {"android": "https://dc.lft.to/lastmile_qr_scan", "ios": "https://dc.lft.to/lastmile_qr_scan"}, "is_reserved": 0, "bike_id": "c983a25107b5d67b6c3c2e9d62f9ae40", "name": "c983a25107b5d67b6c3c2e9d62f9ae40", "fusion_lon": 0.0, "lon": -77.0426975, "fusion_lat": 0.0}, {"lat": 38.9215045, "type": "electric_scooter", "is_disabled": 0, "rental_uris": {"android": "https://dc.lft.to/lastmile_qr_scan", "ios": "https://dc.lft.to/lastmile_qr_scan"}, "is_reserved": 0, "bike_id": "7d80553d0756f9d4cfde9be08e408e21", "name": "7d80553d0756f9d4cfde9be08e408e21", "fusion_lon": 0.0, "lon": -77.04586166666667, "fusion_lat": 0.0}, {"lat": 38.90243533333334, "type": "electric_scooter", "is_disabled": 0, "rental_uris": {"android": "https://dc.lft.to/lastmile_qr_scan", "ios": "https://dc.lft.to/lastmile_qr_scan"}, "is_reserved": 0, "bike_id": "8a99c7e65441e3b3685ea282f07ade2c", "name": "8a99c7e65441e3b3685ea282f07ade2c", "fusion_lon": 0.0, "lon": -77.045105, "fusion_lat": 0.0}, {"lat": 38.90973266666666, "type": "electric_scooter", "is_disabled": 0, "rental_uris": {"android": "https://dc.lft.to/lastmile_qr_scan", "ios": "https://dc.lft.to/lastmile_qr_scan"}, "is_reserved": 0, "bike_id": "e8bed8b8cd5f0534277559ab99b316e8", "name": "e8bed8b8cd5f0534277559ab99b316e8", "fusion_lon": 0.0, "lon": -77.04534, "fusion_lat": 0.0}, {"lat": 38.92657166666667, "type": "electric_scooter", "is_disabled": 0, "rental_uris": {"android": "https://dc.lft.to/lastmile_qr_scan", "ios": "https://dc.lft.to/lastmile_qr_scan"}, "is_reserved": 0, "bike_id": "5d9977bb5a038db4bf957a51163b60c1", "name": "5d9977bb5a038db4bf957a51163b60c1", "fusion_lon": 0.0, "lon": -77.02425283333334, "fusion_lat": 0.0}, {"lat": 38.87701916666666, "type": "electric_scooter", "is_disabled": 0, "rental_uris": {"android": "https://dc.lft.to/lastmile_qr_scan", "ios": "https://dc.lft.to/lastmile_qr_scan"}, "is_reserved": 0, "bike_id": "9fe352cbca3b157ae60aa424de5128a1", "name": "9fe352cbca3b157ae60aa424de5128a1", "fusion_lon": 0.0, "lon": -77.01784233333333, "fusion_lat": 0.0}, {"lat": 38.91046166666667, "type": "electric_scooter", "is_disabled": 0, "rental_uris": {"android": "https://dc.lft.to/lastmile_qr_scan", "ios": "https://dc.lft.to/lastmile_qr_scan"}, "is_reserved": 0, "bike_id": "3919e0ad3f905a7cda189748a90ecccd", "name": "3919e0ad3f905a7cda189748a90ecccd", "fusion_lon": 0.0, "lon": -77.04411533333334, "fusion_lat": 0.0}, {"lat": 38.898808833333334, "type": "electric_scooter", "is_disabled": 0, "rental_uris": {"android": "https://dc.lft.to/lastmile_qr_scan", "ios": "https://dc.lft.to/lastmile_qr_scan"}, "is_reserved": 0, "bike_id": "a8ec5db736944f9b3ae2100ca50d9ceb", "name": "a8ec5db736944f9b3ae2100ca50d9ceb", "fusion_lon": 0.0, "lon": -76.931855, "fusion_lat": 0.0}, {"lat": 38.900620333333336, "type": "electric_scooter", "is_disabled": 0, "rental_uris": {"android": "https://dc.lft.to/lastmile_qr_scan", "ios": "https://dc.lft.to/lastmile_qr_scan"}, "is_reserved": 0, "bike_id": "53b8f127af0531603e2d96e380b71c50", "name": "53b8f127af0531603e2d96e380b71c50", "fusion_lon": 0.0, "lon": -77.050797, "fusion_lat": 0.0}, {"lat": 38.8955845, "type": "electric_scooter", "is_disabled": 0, "rental_uris": {"android": "https://dc.lft.to/lastmile_qr_scan", "ios": "https://dc.lft.to/lastmile_qr_scan"}, "is_reserved": 0, "bike_id": "5bcb344b5f27b8531c1699afe98be622", "name": "5bcb344b5f27b8531c1699afe98be622", "fusion_lon": 0.0, "lon": -77.00413833333333, "fusion_lat": 0.0}, {"lat": 38.917375666666665, "type": "electric_scooter", "is_disabled": 0, "rental_uris": {"android": "https://dc.lft.to/lastmile_qr_scan", "ios": "https://dc.lft.to/lastmile_qr_scan"}, "is_reserved": 0, "bike_id": "66c9800e65354b88c3d99bccfd167360", "name": "66c9800e65354b88c3d99bccfd167360", "fusion_lon": 0.0, "lon": -77.03209433333333, "fusion_lat": 0.0}, {"lat": 38.896164166666665, "type": "electric_scooter", "is_disabled": 0, "rental_uris": {"android": "https://dc.lft.to/lastmile_qr_scan", "ios": "https://dc.lft.to/lastmile_qr_scan"}, "is_reserved": 0, "bike_id": "212c64427e777e1cd509a4d2396a4943", "name": "212c64427e777e1cd509a4d2396a4943", "fusion_lon": 0.0, "lon": -77.02659633333333, "fusion_lat": 0.0}, {"lat": 38.980273, "type": "electric_bike", "is_disabled": 0, "rental_uris": {"android": "https://dc.lft.to/lastmile_qr_scan", "ios": "https://dc.lft.to/lastmile_qr_scan"}, "is_reserved": 0, "bike_id": "b029b5dd37add7ae4278489f7b6feeb8", "name": "b029b5dd37add7ae4278489f7b6feeb8", "fusion_lon": 0.0, "lon": -76.929151, "fusion_lat": 0.0}, {"lat": 38.898487333333335, "type": "electric_scooter", "is_disabled": 0, "rental_uris": {"android": "https://dc.lft.to/lastmile_qr_scan", "ios": "https://dc.lft.to/lastmile_qr_scan"}, "is_reserved": 0, "bike_id": "88995a588df4cd291ee21ef8feb41780", "name": "88995a588df4cd291ee21ef8feb41780", "fusion_lon": 0.0, "lon": -76.94634433333333, "fusion_lat": 0.0}, {"lat": 38.91948633333333, "type": "electric_scooter", "is_disabled": 0, "rental_uris": {"android": "https://dc.lft.to/lastmile_qr_scan", "ios": "https://dc.lft.to/lastmile_qr_scan"}, "is_reserved": 0, "bike_id": "47d1e9c2da70c2a080feaef04b99d77a", "name": "47d1e9c2da70c2a080feaef04b99d77a", "fusion_lon": 0.0, "lon": -77.02483883333333, "fusion_lat": 0.0}, {"lat": 38.905955, "type": "electric_scooter", "is_disabled": 0, "rental_uris": {"android": "https://dc.lft.to/lastmile_qr_scan", "ios": "https://dc.lft.to/lastmile_qr_scan"}, "is_reserved": 0, "bike_id": "4a23be9f06069cd907666bc1f1787609", "name": "4a23be9f06069cd907666bc1f1787609", "fusion_lon": 0.0, "lon": -77.004836, "fusion_lat": 0.0}, {"lat": 38.915523666666665, "type": "electric_scooter", "is_disabled": 0, "rental_uris": {"android": "https://dc.lft.to/lastmile_qr_scan", "ios": "https://dc.lft.to/lastmile_qr_scan"}, "is_reserved": 0, "bike_id": "6453e06d375f814dc9aaf2fb52332cab", "name": "6453e06d375f814dc9aaf2fb52332cab", "fusion_lon": 0.0, "lon": -77.04617066666667, "fusion_lat": 0.0}, {"lat": 38.90240433333334, "type": "electric_scooter", "is_disabled": 0, "rental_uris": {"android": "https://dc.lft.to/lastmile_qr_scan", "ios": "https://dc.lft.to/lastmile_qr_scan"}, "is_reserved": 0, "bike_id": "25b731f0566bbf3a6a838953b65022cd", "name": "25b731f0566bbf3a6a838953b65022cd", "fusion_lon": 0.0, "lon": -77.04515, "fusion_lat": 0.0}, {"lat": 38.877362, "type": "electric_scooter", "is_disabled": 0, "rental_uris": {"android": "https://dc.lft.to/lastmile_qr_scan", "ios": "https://dc.lft.to/lastmile_qr_scan"}, "is_reserved": 0, "bike_id": "2adfc55a2c913059f78e06dfd486bc80", "name": "2adfc55a2c913059f78e06dfd486bc80", "fusion_lon": 0.0, "lon": -77.00066316666667, "fusion_lat": 0.0}, {"lat": 38.912686666666666, "type": "electric_scooter", "is_disabled": 0, "rental_uris": {"android": "https://dc.lft.to/lastmile_qr_scan", "ios": "https://dc.lft.to/lastmile_qr_scan"}, "is_reserved": 0, "bike_id": "d2bb760d8de425f56166ae3677d6727e", "name": "d2bb760d8de425f56166ae3677d6727e", "fusion_lon": 0.0, "lon": -77.04149616666666, "fusion_lat": 0.0}, {"lat": 38.927472333333334, "type": "electric_scooter", "is_disabled": 0, "rental_uris": {"android": "https://dc.lft.to/lastmile_qr_scan", "ios": "https://dc.lft.to/lastmile_qr_scan"}, "is_reserved": 0, "bike_id": "c2929f808289f71272dbad3711f6e331", "name": "c2929f808289f71272dbad3711f6e331", "fusion_lon": 0.0, "lon": -77.03308583333333, "fusion_lat": 0.0}, {"lat": 38.90288066666667, "type": "electric_scooter", "is_disabled": 0, "rental_uris": {"android": "https://dc.lft.to/lastmile_qr_scan", "ios": "https://dc.lft.to/lastmile_qr_scan"}, "is_reserved": 0, "bike_id": "0ffc92cf534d6d7f2fa8e372ef70fd2f", "name": "0ffc92cf534d6d7f2fa8e372ef70fd2f", "fusion_lon": 0.0, "lon": -77.02425316666667, "fusion_lat": 0.0}, {"lat": 38.899621833333335, "type": "electric_scooter", "is_disabled": 0, "rental_uris": {"android": "https://dc.lft.to/lastmile_qr_scan", "ios": "https://dc.lft.to/lastmile_qr_scan"}, "is_reserved": 0, "bike_id": "88ab06d204b389c9437f100bfbfdfc2a", "name": "88ab06d204b389c9437f100bfbfdfc2a", "fusion_lon": 0.0, "lon": -77.00337733333333, "fusion_lat": 0.0}, {"lat": 38.9076255, "type": "electric_scooter", "is_disabled": 0, "rental_uris": {"android": "https://dc.lft.to/lastmile_qr_scan", "ios": "https://dc.lft.to/lastmile_qr_scan"}, "is_reserved": 0, "bike_id": "644eebc828de3127054e52870b5fbd73", "name": "644eebc828de3127054e52870b5fbd73", "fusion_lon": 0.0, "lon": -77.0453915, "fusion_lat": 0.0}, {"lat": 38.90159583333333, "type": "electric_scooter", "is_disabled": 0, "rental_uris": {"android": "https://dc.lft.to/lastmile_qr_scan", "ios": "https://dc.lft.to/lastmile_qr_scan"}, "is_reserved": 0, "bike_id": "afbce6f574ce48dab8e77a998876ad3b", "name": "afbce6f574ce48dab8e77a998876ad3b", "fusion_lon": 0.0, "lon": -77.04179533333334, "fusion_lat": 0.0}, {"lat": 38.89838833333334, "type": "electric_scooter", "is_disabled": 0, "rental_uris": {"android": "https://dc.lft.to/lastmile_qr_scan", "ios": "https://dc.lft.to/lastmile_qr_scan"}, "is_reserved": 0, "bike_id": "1f16637cb9d113180160767822dc7fc8", "name": "1f16637cb9d113180160767822dc7fc8", "fusion_lon": 0.0, "lon": -77.03100716666667, "fusion_lat": 0.0}, {"lat": 38.94522033333333, "type": "electric_scooter", "is_disabled": 0, "rental_uris": {"android": "https://dc.lft.to/lastmile_qr_scan", "ios": "https://dc.lft.to/lastmile_qr_scan"}, "is_reserved": 0, "bike_id": "9e1c839a2e2ec47c6221af5414ed8e08", "name": "9e1c839a2e2ec47c6221af5414ed8e08", "fusion_lon": 0.0, "lon": -77.0298205, "fusion_lat": 0.0}, {"lat": 38.83096483333333, "type": "electric_bike", "is_disabled": 0, "rental_uris": {"android": "https://dc.lft.to/lastmile_qr_scan", "ios": "https://dc.lft.to/lastmile_qr_scan"}, "is_reserved": 0, "bike_id": "0f65374c9339952296786b725f85a440", "name": "0f65374c9339952296786b725f85a440", "fusion_lon": 0.0, "lon": -77.0429625, "fusion_lat": 0.0}, {"lat": 38.89533383333333, "type": "electric_scooter", "is_disabled": 0, "rental_uris": {"android": "https://dc.lft.to/lastmile_qr_scan", "ios": "https://dc.lft.to/lastmile_qr_scan"}, "is_reserved": 0, "bike_id": "e268d2d8301d70aec3181f78e519d320", "name": "e268d2d8301d70aec3181f78e519d320", "fusion_lon": 0.0, "lon": -77.02430183333334, "fusion_lat": 0.0}, {"lat": 38.88376, "type": "electric_scooter", "is_disabled": 0, "rental_uris": {"android": "https://dc.lft.to/lastmile_qr_scan", "ios": "https://dc.lft.to/lastmile_qr_scan"}, "is_reserved": 0, "bike_id": "a3210ecd1892ea04dac4b533951e1aee", "name": "a3210ecd1892ea04dac4b533951e1aee", "fusion_lon": 0.0, "lon": -76.9237465, "fusion_lat": 0.0}, {"lat": 38.919905166666666, "type": "electric_scooter", "is_disabled": 0, "rental_uris": {"android": "https://dc.lft.to/lastmile_qr_scan", "ios": "https://dc.lft.to/lastmile_qr_scan"}, "is_reserved": 0, "bike_id": "9b2fc3c333d09ca4cfb24146deef9ef2", "name": "9b2fc3c333d09ca4cfb24146deef9ef2", "fusion_lon": 0.0, "lon": -76.99256833333334, "fusion_lat": 0.0}, {"lat": 38.8636415, "type": "electric_scooter", "is_disabled": 0, "rental_uris": {"android": "https://dc.lft.to/lastmile_qr_scan", "ios": "https://dc.lft.to/lastmile_qr_scan"}, "is_reserved": 0, "bike_id": "3cf3e28704c05332fc39db93bc49d957", "name": "3cf3e28704c05332fc39db93bc49d957", "fusion_lon": 0.0, "lon": -76.99058, "fusion_lat": 0.0}, {"lat": 38.8462195, "type": "electric_scooter", "is_disabled": 0, "rental_uris": {"android": "https://dc.lft.to/lastmile_qr_scan", "ios": "https://dc.lft.to/lastmile_qr_scan"}, "is_reserved": 0, "bike_id": "de48232269342d466d2b54535eca4c09", "name": "de48232269342d466d2b54535eca4c09", "fusion_lon": 0.0, "lon": -76.99629983333334, "fusion_lat": 0.0}, {"lat": 38.8869705, "type": "electric_bike", "is_disabled": 0, "rental_uris": {"android": "https://dc.lft.to/lastmile_qr_scan", "ios": "https://dc.lft.to/lastmile_qr_scan"}, "is_reserved": 0, "bike_id": "4ad77258513dbbb7f58ab3d45cbee24b", "name": "4ad77258513dbbb7f58ab3d45cbee24b", "fusion_lon": 0.0, "lon": -76.996791, "fusion_lat": 0.0}, {"lat": 38.93704916666667, "type": "electric_bike", "is_disabled": 0, "rental_uris": {"android": "https://dc.lft.to/lastmile_qr_scan", "ios": "https://dc.lft.to/lastmile_qr_scan"}, "is_reserved": 0, "bike_id": "cc186c74d378809aa0c1bd0abe661903", "name": "cc186c74d378809aa0c1bd0abe661903", "fusion_lon": 0.0, "lon": -77.0297805, "fusion_lat": 0.0}, {"lat": 38.913153666666666, "type": "electric_scooter", "is_disabled": 0, "rental_uris": {"android": "https://dc.lft.to/lastmile_qr_scan", "ios": "https://dc.lft.to/lastmile_qr_scan"}, "is_reserved": 0, "bike_id": "147ca74a013d498be99d5fb9342d115f", "name": "147ca74a013d498be99d5fb9342d115f", "fusion_lon": 0.0, "lon": -77.04158283333334, "fusion_lat": 0.0}, {"lat": 38.922628333333336, "type": "electric_scooter", "is_disabled": 0, "rental_uris": {"android": "https://dc.lft.to/lastmile_qr_scan", "ios": "https://dc.lft.to/lastmile_qr_scan"}, "is_reserved": 0, "bike_id": "d03775049f480814c286d065611aee9d", "name": "d03775049f480814c286d065611aee9d", "fusion_lon": 0.0, "lon": -77.0412735, "fusion_lat": 0.0}, {"lat": 38.898460166666666, "type": "electric_scooter", "is_disabled": 0, "rental_uris": {"android": "https://dc.lft.to/lastmile_qr_scan", "ios": "https://dc.lft.to/lastmile_qr_scan"}, "is_reserved": 0, "bike_id": "92d385530ffb633d56d5ae1308e26556", "name": "92d385530ffb633d56d5ae1308e26556", "fusion_lon": 0.0, "lon": -77.04724966666667, "fusion_lat": 0.0}, {"lat": 38.92611616666667, "type": "electric_scooter", "is_disabled": 0, "rental_uris": {"android": "https://dc.lft.to/lastmile_qr_scan", "ios": "https://dc.lft.to/lastmile_qr_scan"}, "is_reserved": 0, "bike_id": "d8632f6a3685dc8688b21ed658326b69", "name": "d8632f6a3685dc8688b21ed658326b69", "fusion_lon": 0.0, "lon": -77.02163383333334, "fusion_lat": 0.0}, {"lat": 38.9512975, "type": "electric_scooter", "is_disabled": 0, "rental_uris": {"android": "https://dc.lft.to/lastmile_qr_scan", "ios": "https://dc.lft.to/lastmile_qr_scan"}, "is_reserved": 0, "bike_id": "089018f7eb42be7c4f8360b74920dc1a", "name": "089018f7eb42be7c4f8360b74920dc1a", "fusion_lon": 0.0, "lon": -77.01405416666667, "fusion_lat": 0.0}, {"lat": 38.908663, "type": "electric_scooter", "is_disabled": 0, "rental_uris": {"android": "https://dc.lft.to/lastmile_qr_scan", "ios": "https://dc.lft.to/lastmile_qr_scan"}, "is_reserved": 0, "bike_id": "787a04054fe1735a9a442a6189ee19f5", "name": "787a04054fe1735a9a442a6189ee19f5", "fusion_lon": 0.0, "lon": -77.0268655, "fusion_lat": 0.0}, {"lat": 38.90340466666667, "type": "electric_scooter", "is_disabled": 0, "rental_uris": {"android": "https://dc.lft.to/lastmile_qr_scan", "ios": "https://dc.lft.to/lastmile_qr_scan"}, "is_reserved": 0, "bike_id": "c0ae67c1001ada09841212e2ea32302b", "name": "c0ae67c1001ada09841212e2ea32302b", "fusion_lon": 0.0, "lon": -77.03827833333334, "fusion_lat": 0.0}, {"lat": 38.99896533333333, "type": "electric_bike", "is_disabled": 0, "rental_uris": {"android": "https://dc.lft.to/lastmile_qr_scan", "ios": "https://dc.lft.to/lastmile_qr_scan"}, "is_reserved": 0, "bike_id": "0ab7ce316f113b39db5e16d0a3f37ab4", "name": "0ab7ce316f113b39db5e16d0a3f37ab4", "fusion_lon": 0.0, "lon": -77.02859, "fusion_lat": 0.0}, {"lat": 38.91084583333333, "type": "electric_scooter", "is_disabled": 0, "rental_uris": {"android": "https://dc.lft.to/lastmile_qr_scan", "ios": "https://dc.lft.to/lastmile_qr_scan"}, "is_reserved": 0, "bike_id": "f7ff8c0298a51bc6fc10e77a65635723", "name": "f7ff8c0298a51bc6fc10e77a65635723", "fusion_lon": 0.0, "lon": -77.04485166666667, "fusion_lat": 0.0}, {"lat": 38.84514333333333, "type": "electric_bike", "is_disabled": 0, "rental_uris": {"android": "https://dc.lft.to/lastmile_qr_scan", "ios": "https://dc.lft.to/lastmile_qr_scan"}, "is_reserved": 0, "bike_id": "6972202d95ce6d530c506e206a5d7e4b", "name": "6972202d95ce6d530c506e206a5d7e4b", "fusion_lon": 0.0, "lon": -76.972058, "fusion_lat": 0.0}, {"lat": 38.94982666666667, "type": "electric_scooter", "is_disabled": 0, "rental_uris": {"android": "https://dc.lft.to/lastmile_qr_scan", "ios": "https://dc.lft.to/lastmile_qr_scan"}, "is_reserved": 0, "bike_id": "d48caddfa9d914132e0617dfc9f9c6f8", "name": "d48caddfa9d914132e0617dfc9f9c6f8", "fusion_lon": 0.0, "lon": -77.027046, "fusion_lat": 0.0}, {"lat": 38.9310355, "type": "electric_scooter", "is_disabled": 0, "rental_uris": {"android": "https://dc.lft.to/lastmile_qr_scan", "ios": "https://dc.lft.to/lastmile_qr_scan"}, "is_reserved": 0, "bike_id": "c081367e8c5998db5053699b517a025b", "name": "c081367e8c5998db5053699b517a025b", "fusion_lon": 0.0, "lon": -77.04123683333333, "fusion_lat": 0.0}, {"lat": 38.909121166666665, "type": "electric_scooter", "is_disabled": 0, "rental_uris": {"android": "https://dc.lft.to/lastmile_qr_scan", "ios": "https://dc.lft.to/lastmile_qr_scan"}, "is_reserved": 0, "bike_id": "2a2b4d994b26895a50cdd677c9145282", "name": "2a2b4d994b26895a50cdd677c9145282", "fusion_lon": 0.0, "lon": -77.0318275, "fusion_lat": 0.0}, {"lat": 38.892228, "type": "electric_scooter", "is_disabled": 0, "rental_uris": {"android": "https://dc.lft.to/lastmile_qr_scan", "ios": "https://dc.lft.to/lastmile_qr_scan"}, "is_reserved": 0, "bike_id": "abbf3935faa4266a89a26ec85af9ac0a", "name": "abbf3935faa4266a89a26ec85af9ac0a", "fusion_lon": 0.0, "lon": -77.022558, "fusion_lat": 0.0}, {"lat": 38.8651155, "type": "electric_scooter", "is_disabled": 0, "rental_uris": {"android": "https://dc.lft.to/lastmile_qr_scan", "ios": "https://dc.lft.to/lastmile_qr_scan"}, "is_reserved": 0, "bike_id": "2849ee0631c5aff58bef5330f633ff56", "name": "2849ee0631c5aff58bef5330f633ff56", "fusion_lon": 0.0, "lon": -76.990053, "fusion_lat": 0.0}, {"lat": 38.910408, "type": "electric_scooter", "is_disabled": 0, "rental_uris": {"android": "https://dc.lft.to/lastmile_qr_scan", "ios": "https://dc.lft.to/lastmile_qr_scan"}, "is_reserved": 0, "bike_id": "36bf8ff2631d4a16de8ecb2545da8369", "name": "36bf8ff2631d4a16de8ecb2545da8369", "fusion_lon": 0.0, "lon": -77.0137355, "fusion_lat": 0.0}, {"lat": 38.9078525, "type": "electric_scooter", "is_disabled": 0, "rental_uris": {"android": "https://dc.lft.to/lastmile_qr_scan", "ios": "https://dc.lft.to/lastmile_qr_scan"}, "is_reserved": 0, "bike_id": "e8102bfbd98153d5e7bba464510d8389", "name": "e8102bfbd98153d5e7bba464510d8389", "fusion_lon": 0.0, "lon": -77.04513033333333, "fusion_lat": 0.0}, {"lat": 38.93247233333334, "type": "electric_scooter", "is_disabled": 0, "rental_uris": {"android": "https://dc.lft.to/lastmile_qr_scan", "ios": "https://dc.lft.to/lastmile_qr_scan"}, "is_reserved": 0, "bike_id": "1d0c3fb795b03c2f50671d65e9e47750", "name": "1d0c3fb795b03c2f50671d65e9e47750", "fusion_lon": 0.0, "lon": -77.03851233333333, "fusion_lat": 0.0}, {"lat": 38.917051, "type": "electric_bike", "is_disabled": 0, "rental_uris": {"android": "https://dc.lft.to/lastmile_qr_scan", "ios": "https://dc.lft.to/lastmile_qr_scan"}, "is_reserved": 0, "bike_id": "7e006f14f22b9055f983dd5f2a0ad97c", "name": "7e006f14f22b9055f983dd5f2a0ad97c", "fusion_lon": 0.0, "lon": -77.09561733333334, "fusion_lat": 0.0}, {"lat": 38.89169066666667, "type": "electric_scooter", "is_disabled": 0, "rental_uris": {"android": "https://dc.lft.to/lastmile_qr_scan", "ios": "https://dc.lft.to/lastmile_qr_scan"}, "is_reserved": 0, "bike_id": "89b8230a1d8a3c8366f9e256ce52ad96", "name": "89b8230a1d8a3c8366f9e256ce52ad96", "fusion_lon": 0.0, "lon": -77.0154475, "fusion_lat": 0.0}, {"lat": 38.84517433333333, "type": "electric_bike", "is_disabled": 0, "rental_uris": {"android": "https://dc.lft.to/lastmile_qr_scan", "ios": "https://dc.lft.to/lastmile_qr_scan"}, "is_reserved": 0, "bike_id": "51db1925afd6be8d3de013cb1bc83e18", "name": "51db1925afd6be8d3de013cb1bc83e18", "fusion_lon": 0.0, "lon": -77.077927, "fusion_lat": 0.0}, {"lat": 38.903997333333336, "type": "electric_scooter", "is_disabled": 0, "rental_uris": {"android": "https://dc.lft.to/lastmile_qr_scan", "ios": "https://dc.lft.to/lastmile_qr_scan"}, "is_reserved": 0, "bike_id": "6d1e1a52dc85110869b7027bc0249278", "name": "6d1e1a52dc85110869b7027bc0249278", "fusion_lon": 0.0, "lon": -76.98945416666666, "fusion_lat": 0.0}, {"lat": 38.920542833333336, "type": "electric_scooter", "is_disabled": 0, "rental_uris": {"android": "https://dc.lft.to/lastmile_qr_scan", "ios": "https://dc.lft.to/lastmile_qr_scan"}, "is_reserved": 0, "bike_id": "79368ebb54503a489f3b041482aa754d", "name": "79368ebb54503a489f3b041482aa754d", "fusion_lon": 0.0, "lon": -77.026088, "fusion_lat": 0.0}, {"lat": 38.90362116666667, "type": "electric_scooter", "is_disabled": 0, "rental_uris": {"android": "https://dc.lft.to/lastmile_qr_scan", "ios": "https://dc.lft.to/lastmile_qr_scan"}, "is_reserved": 0, "bike_id": "82b113a51b09fb89de6a912b73f2feff", "name": "82b113a51b09fb89de6a912b73f2feff", "fusion_lon": 0.0, "lon": -77.062632, "fusion_lat": 0.0}, {"lat": 38.887063, "type": "electric_scooter", "is_disabled": 0, "rental_uris": {"android": "https://dc.lft.to/lastmile_qr_scan", "ios": "https://dc.lft.to/lastmile_qr_scan"}, "is_reserved": 0, "bike_id": "ceea4df1785e0ec83254c30866074e88", "name": "ceea4df1785e0ec83254c30866074e88", "fusion_lon": 0.0, "lon": -77.01367916666666, "fusion_lat": 0.0}, {"lat": 38.901375333333334, "type": "electric_scooter", "is_disabled": 0, "rental_uris": {"android": "https://dc.lft.to/lastmile_qr_scan", "ios": "https://dc.lft.to/lastmile_qr_scan"}, "is_reserved": 0, "bike_id": "6d9b9bb0e65666bcaeda85ef828e40cb", "name": "6d9b9bb0e65666bcaeda85ef828e40cb", "fusion_lon": 0.0, "lon": -77.01779566666667, "fusion_lat": 0.0}, {"lat": 38.9081555, "type": "electric_scooter", "is_disabled": 0, "rental_uris": {"android": "https://dc.lft.to/lastmile_qr_scan", "ios": "https://dc.lft.to/lastmile_qr_scan"}, "is_reserved": 0, "bike_id": "b7b51589f5f8d940e732f87fbdbed1d7", "name": "b7b51589f5f8d940e732f87fbdbed1d7", "fusion_lon": 0.0, "lon": -77.0393945, "fusion_lat": 0.0}, {"lat": 38.90569883333333, "type": "electric_scooter", "is_disabled": 0, "rental_uris": {"android": "https://dc.lft.to/lastmile_qr_scan", "ios": "https://dc.lft.to/lastmile_qr_scan"}, "is_reserved": 0, "bike_id": "74d459a06228af9c41af23fe80bd3da3", "name": "74d459a06228af9c41af23fe80bd3da3", "fusion_lon": 0.0, "lon": -77.00539066666667, "fusion_lat": 0.0}, {"lat": 38.90842683333333, "type": "electric_scooter", "is_disabled": 0, "rental_uris": {"android": "https://dc.lft.to/lastmile_qr_scan", "ios": "https://dc.lft.to/lastmile_qr_scan"}, "is_reserved": 0, "bike_id": "2e18937df38bfe8448c893d1d0d1e0df", "name": "2e18937df38bfe8448c893d1d0d1e0df", "fusion_lon": 0.0, "lon": -76.9970255, "fusion_lat": 0.0}, {"lat": 38.89623733333333, "type": "electric_scooter", "is_disabled": 0, "rental_uris": {"android": "https://dc.lft.to/lastmile_qr_scan", "ios": "https://dc.lft.to/lastmile_qr_scan"}, "is_reserved": 0, "bike_id": "6443a4ccd567a408f8fb7491739bd4c1", "name": "6443a4ccd567a408f8fb7491739bd4c1", "fusion_lon": 0.0, "lon": -77.02793683333333, "fusion_lat": 0.0}, {"lat": 38.86214566666666, "type": "electric_scooter", "is_disabled": 0, "rental_uris": {"android": "https://dc.lft.to/lastmile_qr_scan", "ios": "https://dc.lft.to/lastmile_qr_scan"}, "is_reserved": 0, "bike_id": "962f537f92b0439ddbd03e9686ce04dd", "name": "962f537f92b0439ddbd03e9686ce04dd", "fusion_lon": 0.0, "lon": -76.99466316666667, "fusion_lat": 0.0}, {"lat": 38.906163, "type": "electric_scooter", "is_disabled": 0, "rental_uris": {"android": "https://dc.lft.to/lastmile_qr_scan", "ios": "https://dc.lft.to/lastmile_qr_scan"}, "is_reserved": 0, "bike_id": "00c10c71c2f166259d43d19b557d9ea8", "name": "00c10c71c2f166259d43d19b557d9ea8", "fusion_lon": 0.0, "lon": -77.03964283333333, "fusion_lat": 0.0}, {"lat": 38.924734666666666, "type": "electric_scooter", "is_disabled": 0, "rental_uris": {"android": "https://dc.lft.to/lastmile_qr_scan", "ios": "https://dc.lft.to/lastmile_qr_scan"}, "is_reserved": 0, "bike_id": "1f85abd2599ea595e64689e9d1d8edb9", "name": "1f85abd2599ea595e64689e9d1d8edb9", "fusion_lon": 0.0, "lon": -77.02982916666667, "fusion_lat": 0.0}, {"lat": 38.9192165, "type": "electric_scooter", "is_disabled": 0, "rental_uris": {"android": "https://dc.lft.to/lastmile_qr_scan", "ios": "https://dc.lft.to/lastmile_qr_scan"}, "is_reserved": 0, "bike_id": "b176665f80f9de702ff94b89b63f2074", "name": "b176665f80f9de702ff94b89b63f2074", "fusion_lon": 0.0, "lon": -77.03386616666667, "fusion_lat": 0.0}, {"lat": 38.9057815, "type": "electric_scooter", "is_disabled": 0, "rental_uris": {"android": "https://dc.lft.to/lastmile_qr_scan", "ios": "https://dc.lft.to/lastmile_qr_scan"}, "is_reserved": 0, "bike_id": "8606f1ba1341a3ee3fce61342d337c8a", "name": "8606f1ba1341a3ee3fce61342d337c8a", "fusion_lon": 0.0, "lon": -77.039627, "fusion_lat": 0.0}, {"lat": 38.9541515, "type": "electric_scooter", "is_disabled": 0, "rental_uris": {"android": "https://dc.lft.to/lastmile_qr_scan", "ios": "https://dc.lft.to/lastmile_qr_scan"}, "is_reserved": 0, "bike_id": "b95bbe076bfc3d89bb6987772c2cfa41", "name": "b95bbe076bfc3d89bb6987772c2cfa41", "fusion_lon": 0.0, "lon": -77.028449, "fusion_lat": 0.0}, {"lat": 38.92853783333333, "type": "electric_scooter", "is_disabled": 0, "rental_uris": {"android": "https://dc.lft.to/lastmile_qr_scan", "ios": "https://dc.lft.to/lastmile_qr_scan"}, "is_reserved": 0, "bike_id": "3d9cb15046b3da5999c5f9a551ed173c", "name": "3d9cb15046b3da5999c5f9a551ed173c", "fusion_lon": 0.0, "lon": -77.014108, "fusion_lat": 0.0}, {"lat": 38.915136, "type": "electric_scooter", "is_disabled": 0, "rental_uris": {"android": "https://dc.lft.to/lastmile_qr_scan", "ios": "https://dc.lft.to/lastmile_qr_scan"}, "is_reserved": 0, "bike_id": "ab976f9c02ba3fb758b6c37d83649b6a", "name": "ab976f9c02ba3fb758b6c37d83649b6a", "fusion_lon": 0.0, "lon": -77.01578266666667, "fusion_lat": 0.0}, {"lat": 38.90415983333333, "type": "electric_scooter", "is_disabled": 0, "rental_uris": {"android": "https://dc.lft.to/lastmile_qr_scan", "ios": "https://dc.lft.to/lastmile_qr_scan"}, "is_reserved": 0, "bike_id": "3bcdc1610cfccf14275380d21c21231a", "name": "3bcdc1610cfccf14275380d21c21231a", "fusion_lon": 0.0, "lon": -77.02175883333334, "fusion_lat": 0.0}, {"lat": 38.89921566666666, "type": "electric_scooter", "is_disabled": 0, "rental_uris": {"android": "https://dc.lft.to/lastmile_qr_scan", "ios": "https://dc.lft.to/lastmile_qr_scan"}, "is_reserved": 0, "bike_id": "175f72a30f75924e72fa134bd1afd963", "name": "175f72a30f75924e72fa134bd1afd963", "fusion_lon": 0.0, "lon": -77.05422466666667, "fusion_lat": 0.0}, {"lat": 38.91409516666667, "type": "electric_scooter", "is_disabled": 0, "rental_uris": {"android": "https://dc.lft.to/lastmile_qr_scan", "ios": "https://dc.lft.to/lastmile_qr_scan"}, "is_reserved": 0, "bike_id": "67110186f5e701c79c0bb7e3368d2ed3", "name": "67110186f5e701c79c0bb7e3368d2ed3", "fusion_lon": 0.0, "lon": -77.0080375, "fusion_lat": 0.0}, {"lat": 38.90576016666667, "type": "electric_scooter", "is_disabled": 0, "rental_uris": {"android": "https://dc.lft.to/lastmile_qr_scan", "ios": "https://dc.lft.to/lastmile_qr_scan"}, "is_reserved": 0, "bike_id": "c5b60f9bcb5e984fbacf9ee627cf9933", "name": "c5b60f9bcb5e984fbacf9ee627cf9933", "fusion_lon": 0.0, "lon": -77.05170666666666, "fusion_lat": 0.0}, {"lat": 38.896061833333334, "type": "electric_scooter", "is_disabled": 0, "rental_uris": {"android": "https://dc.lft.to/lastmile_qr_scan", "ios": "https://dc.lft.to/lastmile_qr_scan"}, "is_reserved": 0, "bike_id": "49bf5fec4e19c976b748e84afbaa3612", "name": "49bf5fec4e19c976b748e84afbaa3612", "fusion_lon": 0.0, "lon": -77.00914783333333, "fusion_lat": 0.0}, {"lat": 38.97680583333333, "type": "electric_bike", "is_disabled": 0, "rental_uris": {"android": "https://dc.lft.to/lastmile_qr_scan", "ios": "https://dc.lft.to/lastmile_qr_scan"}, "is_reserved": 0, "bike_id": "572bb488e5e4ea8797cf9047cb165ced", "name": "572bb488e5e4ea8797cf9047cb165ced", "fusion_lon": 0.0, "lon": -76.97167316666666, "fusion_lat": 0.0}, {"lat": 38.89238533333334, "type": "electric_scooter", "is_disabled": 0, "rental_uris": {"android": "https://dc.lft.to/lastmile_qr_scan", "ios": "https://dc.lft.to/lastmile_qr_scan"}, "is_reserved": 0, "bike_id": "515906101a99a8bd67fb4081ed8c8aea", "name": "515906101a99a8bd67fb4081ed8c8aea", "fusion_lon": 0.0, "lon": -77.03182333333334, "fusion_lat": 0.0}, {"lat": 38.92483983333333, "type": "electric_scooter", "is_disabled": 0, "rental_uris": {"android": "https://dc.lft.to/lastmile_qr_scan", "ios": "https://dc.lft.to/lastmile_qr_scan"}, "is_reserved": 0, "bike_id": "bba2489b115976932243917739ed14ca", "name": "bba2489b115976932243917739ed14ca", "fusion_lon": 0.0, "lon": -77.027213, "fusion_lat": 0.0}, {"lat": 38.89237, "type": "electric_bike", "is_disabled": 0, "rental_uris": {"android": "https://dc.lft.to/lastmile_qr_scan", "ios": "https://dc.lft.to/lastmile_qr_scan"}, "is_reserved": 0, "bike_id": "ff601f23700b5b1b4fc7371905dc0d9d", "name": "ff601f23700b5b1b4fc7371905dc0d9d", "fusion_lon": 0.0, "lon": -76.95221066666667, "fusion_lat": 0.0}, {"lat": 38.92591916666667, "type": "electric_bike", "is_disabled": 0, "rental_uris": {"android": "https://dc.lft.to/lastmile_qr_scan", "ios": "https://dc.lft.to/lastmile_qr_scan"}, "is_reserved": 0, "bike_id": "1f021c6658c322e59fb2b7d8d53422ba", "name": "1f021c6658c322e59fb2b7d8d53422ba", "fusion_lon": 0.0, "lon": -76.8891165, "fusion_lat": 0.0}, {"lat": 38.8368875, "type": "electric_bike", "is_disabled": 0, "rental_uris": {"android": "https://dc.lft.to/lastmile_qr_scan", "ios": "https://dc.lft.to/lastmile_qr_scan"}, "is_reserved": 0, "bike_id": "0c11a52180d45377d3571ff39e3414f5", "name": "0c11a52180d45377d3571ff39e3414f5", "fusion_lon": 0.0, "lon": -77.00594633333333, "fusion_lat": 0.0}, {"lat": 38.9691275, "type": "electric_bike", "is_disabled": 0, "rental_uris": {"android": "https://dc.lft.to/lastmile_qr_scan", "ios": "https://dc.lft.to/lastmile_qr_scan"}, "is_reserved": 0, "bike_id": "fe12d9fe970fbc70c138537a5ed60f7a", "name": "fe12d9fe970fbc70c138537a5ed60f7a", "fusion_lon": 0.0, "lon": -77.026203, "fusion_lat": 0.0}, {"lat": 38.938878833333334, "type": "electric_scooter", "is_disabled": 0, "rental_uris": {"android": "https://dc.lft.to/lastmile_qr_scan", "ios": "https://dc.lft.to/lastmile_qr_scan"}, "is_reserved": 0, "bike_id": "6de2bc7f299b38e4a823036d6e7eeaee", "name": "6de2bc7f299b38e4a823036d6e7eeaee", "fusion_lon": 0.0, "lon": -77.02485116666666, "fusion_lat": 0.0}, {"lat": 38.90743783333333, "type": "electric_scooter", "is_disabled": 0, "rental_uris": {"android": "https://dc.lft.to/lastmile_qr_scan", "ios": "https://dc.lft.to/lastmile_qr_scan"}, "is_reserved": 0, "bike_id": "f746442945cd41407dc4b9c4d8836f7b", "name": "f746442945cd41407dc4b9c4d8836f7b", "fusion_lon": 0.0, "lon": -77.03441383333333, "fusion_lat": 0.0}, {"lat": 38.903698, "type": "electric_scooter", "is_disabled": 0, "rental_uris": {"android": "https://dc.lft.to/lastmile_qr_scan", "ios": "https://dc.lft.to/lastmile_qr_scan"}, "is_reserved": 0, "bike_id": "c8c4bc80c6fee580a565073379152fd0", "name": "c8c4bc80c6fee580a565073379152fd0", "fusion_lon": 0.0, "lon": -77.03752983333334, "fusion_lat": 0.0}, {"lat": 38.89910533333333, "type": "electric_scooter", "is_disabled": 0, "rental_uris": {"android": "https://dc.lft.to/lastmile_qr_scan", "ios": "https://dc.lft.to/lastmile_qr_scan"}, "is_reserved": 0, "bike_id": "20dc2619c1268cd622071c60f09c9d27", "name": "20dc2619c1268cd622071c60f09c9d27", "fusion_lon": 0.0, "lon": -76.9338945, "fusion_lat": 0.0}, {"lat": 38.88742033333333, "type": "electric_scooter", "is_disabled": 0, "rental_uris": {"android": "https://dc.lft.to/lastmile_qr_scan", "ios": "https://dc.lft.to/lastmile_qr_scan"}, "is_reserved": 0, "bike_id": "302fe37d9271618098cb7fba2431c7f8", "name": "302fe37d9271618098cb7fba2431c7f8", "fusion_lon": 0.0, "lon": -77.01531533333333, "fusion_lat": 0.0}, {"lat": 38.90970183333334, "type": "electric_scooter", "is_disabled": 0, "rental_uris": {"android": "https://dc.lft.to/lastmile_qr_scan", "ios": "https://dc.lft.to/lastmile_qr_scan"}, "is_reserved": 0, "bike_id": "71c63a2f560e2f080a3a560b74bf75db", "name": "71c63a2f560e2f080a3a560b74bf75db", "fusion_lon": 0.0, "lon": -77.03145666666667, "fusion_lat": 0.0}, {"lat": 38.911088166666666, "type": "electric_bike", "is_disabled": 0, "rental_uris": {"android": "https://dc.lft.to/lastmile_qr_scan", "ios": "https://dc.lft.to/lastmile_qr_scan"}, "is_reserved": 0, "bike_id": "512fda42438f22c2529c0f125f45b45d", "name": "512fda42438f22c2529c0f125f45b45d", "fusion_lon": 0.0, "lon": -77.0734145, "fusion_lat": 0.0}, {"lat": 38.87148416666667, "type": "electric_scooter", "is_disabled": 0, "rental_uris": {"android": "https://dc.lft.to/lastmile_qr_scan", "ios": "https://dc.lft.to/lastmile_qr_scan"}, "is_reserved": 0, "bike_id": "f4e10b7710663aa5a1892c3784b79ee9", "name": "f4e10b7710663aa5a1892c3784b79ee9", "fusion_lon": 0.0, "lon": -76.97896233333333, "fusion_lat": 0.0}, {"lat": 38.892095, "type": "electric_scooter", "is_disabled": 0, "rental_uris": {"android": "https://dc.lft.to/lastmile_qr_scan", "ios": "https://dc.lft.to/lastmile_qr_scan"}, "is_reserved": 0, "bike_id": "144ccaa383e6c1b22c4682a14aecc280", "name": "144ccaa383e6c1b22c4682a14aecc280", "fusion_lon": 0.0, "lon": -76.9879575, "fusion_lat": 0.0}, {"lat": 38.944432, "type": "electric_scooter", "is_disabled": 0, "rental_uris": {"android": "https://dc.lft.to/lastmile_qr_scan", "ios": "https://dc.lft.to/lastmile_qr_scan"}, "is_reserved": 0, "bike_id": "3c3543c3e36d18889bf4680166de9cfb", "name": "3c3543c3e36d18889bf4680166de9cfb", "fusion_lon": 0.0, "lon": -77.02911966666667, "fusion_lat": 0.0}, {"lat": 38.9005565, "type": "electric_scooter", "is_disabled": 0, "rental_uris": {"android": "https://dc.lft.to/lastmile_qr_scan", "ios": "https://dc.lft.to/lastmile_qr_scan"}, "is_reserved": 0, "bike_id": "e24d72b774809b5453d4ee5b1bce59c4", "name": "e24d72b774809b5453d4ee5b1bce59c4", "fusion_lon": 0.0, "lon": -77.000691, "fusion_lat": 0.0}, {"lat": 38.9242645, "type": "electric_scooter", "is_disabled": 0, "rental_uris": {"android": "https://dc.lft.to/lastmile_qr_scan", "ios": "https://dc.lft.to/lastmile_qr_scan"}, "is_reserved": 0, "bike_id": "20d217089d0abc5352ba8ee2434f0f3f", "name": "20d217089d0abc5352ba8ee2434f0f3f", "fusion_lon": 0.0, "lon": -77.05624933333333, "fusion_lat": 0.0}, {"lat": 38.9865585, "type": "electric_scooter", "is_disabled": 0, "rental_uris": {"android": "https://dc.lft.to/lastmile_qr_scan", "ios": "https://dc.lft.to/lastmile_qr_scan"}, "is_reserved": 0, "bike_id": "d0c84febad800d8020be1fbbf9e132b5", "name": "d0c84febad800d8020be1fbbf9e132b5", "fusion_lon": 0.0, "lon": -77.02644216666667, "fusion_lat": 0.0}, {"lat": 38.88663233333333, "type": "electric_scooter", "is_disabled": 0, "rental_uris": {"android": "https://dc.lft.to/lastmile_qr_scan", "ios": "https://dc.lft.to/lastmile_qr_scan"}, "is_reserved": 0, "bike_id": "55811deb4180748594415ab2f1527eb4", "name": "55811deb4180748594415ab2f1527eb4", "fusion_lon": 0.0, "lon": -77.03387083333334, "fusion_lat": 0.0}, {"lat": 38.91874133333334, "type": "electric_bike", "is_disabled": 0, "rental_uris": {"android": "https://dc.lft.to/lastmile_qr_scan", "ios": "https://dc.lft.to/lastmile_qr_scan"}, "is_reserved": 0, "bike_id": "d159bf89f122fd3f6e89efcb9940898a", "name": "d159bf89f122fd3f6e89efcb9940898a", "fusion_lon": 0.0, "lon": -76.96174333333333, "fusion_lat": 0.0}, {"lat": 38.90750833333333, "type": "electric_scooter", "is_disabled": 0, "rental_uris": {"android": "https://dc.lft.to/lastmile_qr_scan", "ios": "https://dc.lft.to/lastmile_qr_scan"}, "is_reserved": 0, "bike_id": "d0911e0900f46777a7ace4b3fc69f173", "name": "d0911e0900f46777a7ace4b3fc69f173", "fusion_lon": 0.0, "lon": -77.03466516666667, "fusion_lat": 0.0}, {"lat": 38.91227966666667, "type": "electric_scooter", "is_disabled": 0, "rental_uris": {"android": "https://dc.lft.to/lastmile_qr_scan", "ios": "https://dc.lft.to/lastmile_qr_scan"}, "is_reserved": 0, "bike_id": "32bd99865c2d8501805404d9610627d3", "name": "32bd99865c2d8501805404d9610627d3", "fusion_lon": 0.0, "lon": -77.03209066666666, "fusion_lat": 0.0}, {"lat": 38.9142365, "type": "electric_scooter", "is_disabled": 0, "rental_uris": {"android": "https://dc.lft.to/lastmile_qr_scan", "ios": "https://dc.lft.to/lastmile_qr_scan"}, "is_reserved": 0, "bike_id": "a865ec29f3aac59d7eb6ad191a97affe", "name": "a865ec29f3aac59d7eb6ad191a97affe", "fusion_lon": 0.0, "lon": -77.0415735, "fusion_lat": 0.0}, {"lat": 38.906695, "type": "electric_scooter", "is_disabled": 0, "rental_uris": {"android": "https://dc.lft.to/lastmile_qr_scan", "ios": "https://dc.lft.to/lastmile_qr_scan"}, "is_reserved": 0, "bike_id": "5aa676ea6a0295da2777edc934cdee37", "name": "5aa676ea6a0295da2777edc934cdee37", "fusion_lon": 0.0, "lon": -77.04174416666666, "fusion_lat": 0.0}, {"lat": 38.90589633333333, "type": "electric_scooter", "is_disabled": 0, "rental_uris": {"android": "https://dc.lft.to/lastmile_qr_scan", "ios": "https://dc.lft.to/lastmile_qr_scan"}, "is_reserved": 0, "bike_id": "93f61e8134c37db1f4a9238de37c8860", "name": "93f61e8134c37db1f4a9238de37c8860", "fusion_lon": 0.0, "lon": -77.04355166666667, "fusion_lat": 0.0}, {"lat": 38.84846483333333, "type": "electric_bike", "is_disabled": 0, "rental_uris": {"android": "https://dc.lft.to/lastmile_qr_scan", "ios": "https://dc.lft.to/lastmile_qr_scan"}, "is_reserved": 0, "bike_id": "f5dd1a7464f7e497888933cf96c41dd8", "name": "f5dd1a7464f7e497888933cf96c41dd8", "fusion_lon": 0.0, "lon": -77.08049316666667, "fusion_lat": 0.0}, {"lat": 38.95894166666667, "type": "electric_bike", "is_disabled": 0, "rental_uris": {"android": "https://dc.lft.to/lastmile_qr_scan", "ios": "https://dc.lft.to/lastmile_qr_scan"}, "is_reserved": 0, "bike_id": "c83a94ada5e2b588a9a8fcd840862a5e", "name": "c83a94ada5e2b588a9a8fcd840862a5e", "fusion_lon": 0.0, "lon": -76.96681016666666, "fusion_lat": 0.0}, {"lat": 38.92550216666667, "type": "electric_scooter", "is_disabled": 0, "rental_uris": {"android": "https://dc.lft.to/lastmile_qr_scan", "ios": "https://dc.lft.to/lastmile_qr_scan"}, "is_reserved": 0, "bike_id": "7c1b49191cca4aa5abcceef26d473e88", "name": "7c1b49191cca4aa5abcceef26d473e88", "fusion_lon": 0.0, "lon": -77.05189516666667, "fusion_lat": 0.0}, {"lat": 38.8866225, "type": "electric_scooter", "is_disabled": 0, "rental_uris": {"android": "https://dc.lft.to/lastmile_qr_scan", "ios": "https://dc.lft.to/lastmile_qr_scan"}, "is_reserved": 0, "bike_id": "6d53b1a51aba87b9948bf5c8dfea8630", "name": "6d53b1a51aba87b9948bf5c8dfea8630", "fusion_lon": 0.0, "lon": -77.0338325, "fusion_lat": 0.0}, {"lat": 38.875738, "type": "electric_scooter", "is_disabled": 0, "rental_uris": {"android": "https://dc.lft.to/lastmile_qr_scan", "ios": "https://dc.lft.to/lastmile_qr_scan"}, "is_reserved": 0, "bike_id": "b9339de75e8ec5a8045067807f91c750", "name": "b9339de75e8ec5a8045067807f91c750", "fusion_lon": 0.0, "lon": -77.01992283333334, "fusion_lat": 0.0}, {"lat": 38.899919, "type": "electric_scooter", "is_disabled": 0, "rental_uris": {"android": "https://dc.lft.to/lastmile_qr_scan", "ios": "https://dc.lft.to/lastmile_qr_scan"}, "is_reserved": 0, "bike_id": "be46ea44bef4063da21e24b0513e3fa6", "name": "be46ea44bef4063da21e24b0513e3fa6", "fusion_lon": 0.0, "lon": -76.99857616666667, "fusion_lat": 0.0}, {"lat": 38.95357816666667, "type": "electric_bike", "is_disabled": 0, "rental_uris": {"android": "https://dc.lft.to/lastmile_qr_scan", "ios": "https://dc.lft.to/lastmile_qr_scan"}, "is_reserved": 0, "bike_id": "f7652ff2ae824d96de9d91ed3d8ca060", "name": "f7652ff2ae824d96de9d91ed3d8ca060", "fusion_lon": 0.0, "lon": -76.98092183333333, "fusion_lat": 0.0}, {"lat": 38.9330525, "type": "electric_scooter", "is_disabled": 0, "rental_uris": {"android": "https://dc.lft.to/lastmile_qr_scan", "ios": "https://dc.lft.to/lastmile_qr_scan"}, "is_reserved": 0, "bike_id": "b332e59ead9660f91bfff866119f6af9", "name": "b332e59ead9660f91bfff866119f6af9", "fusion_lon": 0.0, "lon": -77.03580333333333, "fusion_lat": 0.0}, {"lat": 38.921497333333335, "type": "electric_scooter", "is_disabled": 0, "rental_uris": {"android": "https://dc.lft.to/lastmile_qr_scan", "ios": "https://dc.lft.to/lastmile_qr_scan"}, "is_reserved": 0, "bike_id": "bc6f2635371de85895cdb132e8f94586", "name": "bc6f2635371de85895cdb132e8f94586", "fusion_lon": 0.0, "lon": -77.03506, "fusion_lat": 0.0}, {"lat": 38.902662666666664, "type": "electric_scooter", "is_disabled": 0, "rental_uris": {"android": "https://dc.lft.to/lastmile_qr_scan", "ios": "https://dc.lft.to/lastmile_qr_scan"}, "is_reserved": 0, "bike_id": "401b07b3d3d841c16f945b1ee1291516", "name": "401b07b3d3d841c16f945b1ee1291516", "fusion_lon": 0.0, "lon": -77.03851183333333, "fusion_lat": 0.0}, {"lat": 38.89339233333333, "type": "electric_scooter", "is_disabled": 0, "rental_uris": {"android": "https://dc.lft.to/lastmile_qr_scan", "ios": "https://dc.lft.to/lastmile_qr_scan"}, "is_reserved": 0, "bike_id": "58ea4941b891c1637474da6300e1698d", "name": "58ea4941b891c1637474da6300e1698d", "fusion_lon": 0.0, "lon": -77.04654483333333, "fusion_lat": 0.0}, {"lat": 38.91118916666667, "type": "electric_scooter", "is_disabled": 0, "rental_uris": {"android": "https://dc.lft.to/lastmile_qr_scan", "ios": "https://dc.lft.to/lastmile_qr_scan"}, "is_reserved": 0, "bike_id": "321d8e57787a463681de87e3ea3d7695", "name": "321d8e57787a463681de87e3ea3d7695", "fusion_lon": 0.0, "lon": -77.031455, "fusion_lat": 0.0}, {"lat": 38.89673333333333, "type": "electric_scooter", "is_disabled": 0, "rental_uris": {"android": "https://dc.lft.to/lastmile_qr_scan", "ios": "https://dc.lft.to/lastmile_qr_scan"}, "is_reserved": 0, "bike_id": "ada65e7f6a3de9fe4343df66eacec6af", "name": "ada65e7f6a3de9fe4343df66eacec6af", "fusion_lon": 0.0, "lon": -76.94715916666667, "fusion_lat": 0.0}, {"lat": 38.908520833333334, "type": "electric_scooter", "is_disabled": 0, "rental_uris": {"android": "https://dc.lft.to/lastmile_qr_scan", "ios": "https://dc.lft.to/lastmile_qr_scan"}, "is_reserved": 0, "bike_id": "24bcd1ef479ddd4d26576a64eb795fc4", "name": "24bcd1ef479ddd4d26576a64eb795fc4", "fusion_lon": 0.0, "lon": -77.02379583333334, "fusion_lat": 0.0}, {"lat": 38.924526666666665, "type": "electric_bike", "is_disabled": 0, "rental_uris": {"android": "https://dc.lft.to/lastmile_qr_scan", "ios": "https://dc.lft.to/lastmile_qr_scan"}, "is_reserved": 0, "bike_id": "7efd21b737e8eb1dda1901c55f3bd387", "name": "7efd21b737e8eb1dda1901c55f3bd387", "fusion_lon": 0.0, "lon": -77.00212516666667, "fusion_lat": 0.0}, {"lat": 38.91785616666667, "type": "electric_scooter", "is_disabled": 0, "rental_uris": {"android": "https://dc.lft.to/lastmile_qr_scan", "ios": "https://dc.lft.to/lastmile_qr_scan"}, "is_reserved": 0, "bike_id": "0993f19da93bdf0282600c09d38b40c1", "name": "0993f19da93bdf0282600c09d38b40c1", "fusion_lon": 0.0, "lon": -77.02309566666666, "fusion_lat": 0.0}, {"lat": 38.904314166666666, "type": "electric_scooter", "is_disabled": 0, "rental_uris": {"android": "https://dc.lft.to/lastmile_qr_scan", "ios": "https://dc.lft.to/lastmile_qr_scan"}, "is_reserved": 0, "bike_id": "18af3dbe38f1740ce61defd6aeb314c6", "name": "18af3dbe38f1740ce61defd6aeb314c6", "fusion_lon": 0.0, "lon": -77.0488785, "fusion_lat": 0.0}, {"lat": 38.921550333333336, "type": "electric_scooter", "is_disabled": 0, "rental_uris": {"android": "https://dc.lft.to/lastmile_qr_scan", "ios": "https://dc.lft.to/lastmile_qr_scan"}, "is_reserved": 0, "bike_id": "ac7bfcde174cac8d05256bc2a907cc98", "name": "ac7bfcde174cac8d05256bc2a907cc98", "fusion_lon": 0.0, "lon": -77.034774, "fusion_lat": 0.0}, {"lat": 38.897948666666665, "type": "electric_scooter", "is_disabled": 0, "rental_uris": {"android": "https://dc.lft.to/lastmile_qr_scan", "ios": "https://dc.lft.to/lastmile_qr_scan"}, "is_reserved": 0, "bike_id": "e68e2a5a00fda3d21cf935238a964259", "name": "e68e2a5a00fda3d21cf935238a964259", "fusion_lon": 0.0, "lon": -76.930541, "fusion_lat": 0.0}, {"lat": 38.9182665, "type": "electric_scooter", "is_disabled": 0, "rental_uris": {"android": "https://dc.lft.to/lastmile_qr_scan", "ios": "https://dc.lft.to/lastmile_qr_scan"}, "is_reserved": 0, "bike_id": "1c2feed52819a95d506aa2b82899440e", "name": "1c2feed52819a95d506aa2b82899440e", "fusion_lon": 0.0, "lon": -77.03221533333334, "fusion_lat": 0.0}, {"lat": 38.9215515, "type": "electric_scooter", "is_disabled": 0, "rental_uris": {"android": "https://dc.lft.to/lastmile_qr_scan", "ios": "https://dc.lft.to/lastmile_qr_scan"}, "is_reserved": 0, "bike_id": "410b41796a7f74c000cfe99ec35d4bf1", "name": "410b41796a7f74c000cfe99ec35d4bf1", "fusion_lon": 0.0, "lon": -77.03481483333333, "fusion_lat": 0.0}, {"lat": 38.8951275, "type": "electric_scooter", "is_disabled": 0, "rental_uris": {"android": "https://dc.lft.to/lastmile_qr_scan", "ios": "https://dc.lft.to/lastmile_qr_scan"}, "is_reserved": 0, "bike_id": "6776f81eee4171d2e38396751ddc9701", "name": "6776f81eee4171d2e38396751ddc9701", "fusion_lon": 0.0, "lon": -77.02210233333334, "fusion_lat": 0.0}, {"lat": 38.89486566666667, "type": "electric_scooter", "is_disabled": 0, "rental_uris": {"android": "https://dc.lft.to/lastmile_qr_scan", "ios": "https://dc.lft.to/lastmile_qr_scan"}, "is_reserved": 0, "bike_id": "88daa77f4de09580822db19ae72000b9", "name": "88daa77f4de09580822db19ae72000b9", "fusion_lon": 0.0, "lon": -77.02220783333334, "fusion_lat": 0.0}, {"lat": 38.84622066666667, "type": "electric_scooter", "is_disabled": 0, "rental_uris": {"android": "https://dc.lft.to/lastmile_qr_scan", "ios": "https://dc.lft.to/lastmile_qr_scan"}, "is_reserved": 0, "bike_id": "ea468306b5934504fecd29e408de5b02", "name": "ea468306b5934504fecd29e408de5b02", "fusion_lon": 0.0, "lon": -76.99633383333334, "fusion_lat": 0.0}, {"lat": 38.90191683333333, "type": "electric_scooter", "is_disabled": 0, "rental_uris": {"android": "https://dc.lft.to/lastmile_qr_scan", "ios": "https://dc.lft.to/lastmile_qr_scan"}, "is_reserved": 0, "bike_id": "9884f72f6f300a11929990f334c488c4", "name": "9884f72f6f300a11929990f334c488c4", "fusion_lon": 0.0, "lon": -77.02409116666666, "fusion_lat": 0.0}, {"lat": 38.899445166666666, "type": "electric_scooter", "is_disabled": 0, "rental_uris": {"android": "https://dc.lft.to/lastmile_qr_scan", "ios": "https://dc.lft.to/lastmile_qr_scan"}, "is_reserved": 0, "bike_id": "55627c0e1015abbda1fa5c389924beeb", "name": "55627c0e1015abbda1fa5c389924beeb", "fusion_lon": 0.0, "lon": -77.01501466666667, "fusion_lat": 0.0}, {"lat": 38.892482, "type": "electric_scooter", "is_disabled": 0, "rental_uris": {"android": "https://dc.lft.to/lastmile_qr_scan", "ios": "https://dc.lft.to/lastmile_qr_scan"}, "is_reserved": 0, "bike_id": "752e56c4730ce3fd9460b15df3ea5dcf", "name": "752e56c4730ce3fd9460b15df3ea5dcf", "fusion_lon": 0.0, "lon": -77.04658266666667, "fusion_lat": 0.0}, {"lat": 38.831575, "type": "electric_bike", "is_disabled": 0, "rental_uris": {"android": "https://dc.lft.to/lastmile_qr_scan", "ios": "https://dc.lft.to/lastmile_qr_scan"}, "is_reserved": 0, "bike_id": "7091b25b28fdfaf4aca70bed77c1b361", "name": "7091b25b28fdfaf4aca70bed77c1b361", "fusion_lon": 0.0, "lon": -76.99688433333333, "fusion_lat": 0.0}, {"lat": 38.90959983333333, "type": "electric_scooter", "is_disabled": 0, "rental_uris": {"android": "https://dc.lft.to/lastmile_qr_scan", "ios": "https://dc.lft.to/lastmile_qr_scan"}, "is_reserved": 0, "bike_id": "786b46e04e761f6c0526d0bc37255a0e", "name": "786b46e04e761f6c0526d0bc37255a0e", "fusion_lon": 0.0, "lon": -77.0343405, "fusion_lat": 0.0}, {"lat": 38.909929, "type": "electric_scooter", "is_disabled": 0, "rental_uris": {"android": "https://dc.lft.to/lastmile_qr_scan", "ios": "https://dc.lft.to/lastmile_qr_scan"}, "is_reserved": 0, "bike_id": "e173dcfd55074af84a0904ac07201b1d", "name": "e173dcfd55074af84a0904ac07201b1d", "fusion_lon": 0.0, "lon": -77.0321875, "fusion_lat": 0.0}, {"lat": 38.95311933333333, "type": "electric_scooter", "is_disabled": 0, "rental_uris": {"android": "https://dc.lft.to/lastmile_qr_scan", "ios": "https://dc.lft.to/lastmile_qr_scan"}, "is_reserved": 0, "bike_id": "68523b002922a5bd1ec13cfa471651fe", "name": "68523b002922a5bd1ec13cfa471651fe", "fusion_lon": 0.0, "lon": -77.03600366666667, "fusion_lat": 0.0}, {"lat": 38.952651833333334, "type": "electric_bike", "is_disabled": 0, "rental_uris": {"android": "https://dc.lft.to/lastmile_qr_scan", "ios": "https://dc.lft.to/lastmile_qr_scan"}, "is_reserved": 0, "bike_id": "523692b7f72c56d6c2d2ec1819d18f9e", "name": "523692b7f72c56d6c2d2ec1819d18f9e", "fusion_lon": 0.0, "lon": -77.069718, "fusion_lat": 0.0}, {"lat": 38.886607166666664, "type": "electric_bike", "is_disabled": 0, "rental_uris": {"android": "https://dc.lft.to/lastmile_qr_scan", "ios": "https://dc.lft.to/lastmile_qr_scan"}, "is_reserved": 0, "bike_id": "e1cb736340ae729c4db5b9d15be1ef08", "name": "e1cb736340ae729c4db5b9d15be1ef08", "fusion_lon": 0.0, "lon": -77.16220683333333, "fusion_lat": 0.0}, {"lat": 38.9084205, "type": "electric_scooter", "is_disabled": 0, "rental_uris": {"android": "https://dc.lft.to/lastmile_qr_scan", "ios": "https://dc.lft.to/lastmile_qr_scan"}, "is_reserved": 0, "bike_id": "1928894c7a6e11099c1a28316bf5792c", "name": "1928894c7a6e11099c1a28316bf5792c", "fusion_lon": 0.0, "lon": -77.03450616666667, "fusion_lat": 0.0}, {"lat": 38.889874166666665, "type": "electric_scooter", "is_disabled": 0, "rental_uris": {"android": "https://dc.lft.to/lastmile_qr_scan", "ios": "https://dc.lft.to/lastmile_qr_scan"}, "is_reserved": 0, "bike_id": "730c96b540f28b5bfbac0c71ee10a726", "name": "730c96b540f28b5bfbac0c71ee10a726", "fusion_lon": 0.0, "lon": -77.003382, "fusion_lat": 0.0}, {"lat": 38.9367205, "type": "electric_scooter", "is_disabled": 0, "rental_uris": {"android": "https://dc.lft.to/lastmile_qr_scan", "ios": "https://dc.lft.to/lastmile_qr_scan"}, "is_reserved": 0, "bike_id": "22829791bf22ce81a05496d6ff786a39", "name": "22829791bf22ce81a05496d6ff786a39", "fusion_lon": 0.0, "lon": -77.0592695, "fusion_lat": 0.0}, {"lat": 38.90368133333333, "type": "electric_scooter", "is_disabled": 0, "rental_uris": {"android": "https://dc.lft.to/lastmile_qr_scan", "ios": "https://dc.lft.to/lastmile_qr_scan"}, "is_reserved": 0, "bike_id": "b97a1039959e03c9e9a9f39b184e073a", "name": "b97a1039959e03c9e9a9f39b184e073a", "fusion_lon": 0.0, "lon": -77.037469, "fusion_lat": 0.0}, {"lat": 38.88121783333333, "type": "electric_scooter", "is_disabled": 0, "rental_uris": {"android": "https://dc.lft.to/lastmile_qr_scan", "ios": "https://dc.lft.to/lastmile_qr_scan"}, "is_reserved": 0, "bike_id": "5543f5c33f0266fd70662204d02facce", "name": "5543f5c33f0266fd70662204d02facce", "fusion_lon": 0.0, "lon": -77.016432, "fusion_lat": 0.0}, {"lat": 38.885805833333336, "type": "electric_scooter", "is_disabled": 0, "rental_uris": {"android": "https://dc.lft.to/lastmile_qr_scan", "ios": "https://dc.lft.to/lastmile_qr_scan"}, "is_reserved": 0, "bike_id": "1e28ca7a9a9bd046fd8de9c531a0230c", "name": "1e28ca7a9a9bd046fd8de9c531a0230c", "fusion_lon": 0.0, "lon": -77.01222233333333, "fusion_lat": 0.0}, {"lat": 38.8646805, "type": "electric_scooter", "is_disabled": 0, "rental_uris": {"android": "https://dc.lft.to/lastmile_qr_scan", "ios": "https://dc.lft.to/lastmile_qr_scan"}, "is_reserved": 0, "bike_id": "3e0459d095236c24fa66c6a739b0729f", "name": "3e0459d095236c24fa66c6a739b0729f", "fusion_lon": 0.0, "lon": -76.99604716666667, "fusion_lat": 0.0}, {"lat": 38.882976666666664, "type": "electric_scooter", "is_disabled": 0, "rental_uris": {"android": "https://dc.lft.to/lastmile_qr_scan", "ios": "https://dc.lft.to/lastmile_qr_scan"}, "is_reserved": 0, "bike_id": "dbe1fa6e2facb3dc66721aa3ae14dfa4", "name": "dbe1fa6e2facb3dc66721aa3ae14dfa4", "fusion_lon": 0.0, "lon": -77.01775033333334, "fusion_lat": 0.0}, {"lat": 38.9091435, "type": "electric_scooter", "is_disabled": 0, "rental_uris": {"android": "https://dc.lft.to/lastmile_qr_scan", "ios": "https://dc.lft.to/lastmile_qr_scan"}, "is_reserved": 0, "bike_id": "4aa7256bb9a5690fa438959065873863", "name": "4aa7256bb9a5690fa438959065873863", "fusion_lon": 0.0, "lon": -77.04429616666667, "fusion_lat": 0.0}, {"lat": 38.915531666666666, "type": "electric_scooter", "is_disabled": 0, "rental_uris": {"android": "https://dc.lft.to/lastmile_qr_scan", "ios": "https://dc.lft.to/lastmile_qr_scan"}, "is_reserved": 0, "bike_id": "f3ff872f7f2e7aee4199d06bd4be57de", "name": "f3ff872f7f2e7aee4199d06bd4be57de", "fusion_lon": 0.0, "lon": -77.01235466666667, "fusion_lat": 0.0}, {"lat": 38.896148, "type": "electric_scooter", "is_disabled": 0, "rental_uris": {"android": "https://dc.lft.to/lastmile_qr_scan", "ios": "https://dc.lft.to/lastmile_qr_scan"}, "is_reserved": 0, "bike_id": "95b2677f245008580e39683947ed6fab", "name": "95b2677f245008580e39683947ed6fab", "fusion_lon": 0.0, "lon": -77.02660383333334, "fusion_lat": 0.0}, {"lat": 38.898256, "type": "electric_scooter", "is_disabled": 0, "rental_uris": {"android": "https://dc.lft.to/lastmile_qr_scan", "ios": "https://dc.lft.to/lastmile_qr_scan"}, "is_reserved": 0, "bike_id": "e7eb76b75c3e7b6a6656af7d6bba71f5", "name": "e7eb76b75c3e7b6a6656af7d6bba71f5", "fusion_lon": 0.0, "lon": -77.03160433333333, "fusion_lat": 0.0}, {"lat": 38.8851005, "type": "electric_scooter", "is_disabled": 0, "rental_uris": {"android": "https://dc.lft.to/lastmile_qr_scan", "ios": "https://dc.lft.to/lastmile_qr_scan"}, "is_reserved": 0, "bike_id": "fd3abd2c3e0fb862000573403e2c8fd6", "name": "fd3abd2c3e0fb862000573403e2c8fd6", "fusion_lon": 0.0, "lon": -77.02065716666667, "fusion_lat": 0.0}, {"lat": 38.87178133333333, "type": "electric_scooter", "is_disabled": 0, "rental_uris": {"android": "https://dc.lft.to/lastmile_qr_scan", "ios": "https://dc.lft.to/lastmile_qr_scan"}, "is_reserved": 0, "bike_id": "5b7c911df1d3df0035fe4ceb820fe5b9", "name": "5b7c911df1d3df0035fe4ceb820fe5b9", "fusion_lon": 0.0, "lon": -77.00631283333334, "fusion_lat": 0.0}, {"lat": 38.9151735, "type": "electric_scooter", "is_disabled": 0, "rental_uris": {"android": "https://dc.lft.to/lastmile_qr_scan", "ios": "https://dc.lft.to/lastmile_qr_scan"}, "is_reserved": 0, "bike_id": "aafed4ec9502ef25dbe4636243e92839", "name": "aafed4ec9502ef25dbe4636243e92839", "fusion_lon": 0.0, "lon": -76.98347483333333, "fusion_lat": 0.0}, {"lat": 38.907955, "type": "electric_scooter", "is_disabled": 0, "rental_uris": {"android": "https://dc.lft.to/lastmile_qr_scan", "ios": "https://dc.lft.to/lastmile_qr_scan"}, "is_reserved": 0, "bike_id": "74dfd6e97fafe288bf197cf33967bd78", "name": "74dfd6e97fafe288bf197cf33967bd78", "fusion_lon": 0.0, "lon": -77.0498215, "fusion_lat": 0.0}, {"lat": 38.920929, "type": "electric_scooter", "is_disabled": 0, "rental_uris": {"android": "https://dc.lft.to/lastmile_qr_scan", "ios": "https://dc.lft.to/lastmile_qr_scan"}, "is_reserved": 0, "bike_id": "e6960d7a59304debbbcfe30ddfa86eb6", "name": "e6960d7a59304debbbcfe30ddfa86eb6", "fusion_lon": 0.0, "lon": -77.0259435, "fusion_lat": 0.0}, {"lat": 38.906814, "type": "electric_bike", "is_disabled": 0, "rental_uris": {"android": "https://dc.lft.to/lastmile_qr_scan", "ios": "https://dc.lft.to/lastmile_qr_scan"}, "is_reserved": 0, "bike_id": "a3a109e35cfc424e28162676b295d965", "name": "a3a109e35cfc424e28162676b295d965", "fusion_lon": 0.0, "lon": -76.95193783333333, "fusion_lat": 0.0}, {"lat": 38.88293016666667, "type": "electric_scooter", "is_disabled": 0, "rental_uris": {"android": "https://dc.lft.to/lastmile_qr_scan", "ios": "https://dc.lft.to/lastmile_qr_scan"}, "is_reserved": 0, "bike_id": "75d9c646929133693ccd272af3458927", "name": "75d9c646929133693ccd272af3458927", "fusion_lon": 0.0, "lon": -76.99506666666667, "fusion_lat": 0.0}, {"lat": 38.87706133333333, "type": "electric_scooter", "is_disabled": 0, "rental_uris": {"android": "https://dc.lft.to/lastmile_qr_scan", "ios": "https://dc.lft.to/lastmile_qr_scan"}, "is_reserved": 0, "bike_id": "44da41004389401853169a94c043599d", "name": "44da41004389401853169a94c043599d", "fusion_lon": 0.0, "lon": -77.016579, "fusion_lat": 0.0}, {"lat": 38.88450233333333, "type": "electric_scooter", "is_disabled": 0, "rental_uris": {"android": "https://dc.lft.to/lastmile_qr_scan", "ios": "https://dc.lft.to/lastmile_qr_scan"}, "is_reserved": 0, "bike_id": "f714c5bd40cdfce67ad0283eec69cfa8", "name": "f714c5bd40cdfce67ad0283eec69cfa8", "fusion_lon": 0.0, "lon": -76.95095266666667, "fusion_lat": 0.0}, {"lat": 38.911933166666664, "type": "electric_scooter", "is_disabled": 0, "rental_uris": {"android": "https://dc.lft.to/lastmile_qr_scan", "ios": "https://dc.lft.to/lastmile_qr_scan"}, "is_reserved": 0, "bike_id": "4cb9b1bb8abdca53d2d1ae3d6df918a0", "name": "4cb9b1bb8abdca53d2d1ae3d6df918a0", "fusion_lon": 0.0, "lon": -77.0024755, "fusion_lat": 0.0}, {"lat": 38.89295933333333, "type": "electric_bike", "is_disabled": 0, "rental_uris": {"android": "https://dc.lft.to/lastmile_qr_scan", "ios": "https://dc.lft.to/lastmile_qr_scan"}, "is_reserved": 0, "bike_id": "ea914a3401af68c742be0f0fedb6e51d", "name": "ea914a3401af68c742be0f0fedb6e51d", "fusion_lon": 0.0, "lon": -76.97619633333333, "fusion_lat": 0.0}, {"lat": 38.9139525, "type": "electric_scooter", "is_disabled": 0, "rental_uris": {"android": "https://dc.lft.to/lastmile_qr_scan", "ios": "https://dc.lft.to/lastmile_qr_scan"}, "is_reserved": 0, "bike_id": "09d347a71482e7352fb71852259c7bb7", "name": "09d347a71482e7352fb71852259c7bb7", "fusion_lon": 0.0, "lon": -77.032077, "fusion_lat": 0.0}, {"lat": 38.90367833333333, "type": "electric_scooter", "is_disabled": 0, "rental_uris": {"android": "https://dc.lft.to/lastmile_qr_scan", "ios": "https://dc.lft.to/lastmile_qr_scan"}, "is_reserved": 0, "bike_id": "a7bd970369e3cb22b442afaa9b8ca65d", "name": "a7bd970369e3cb22b442afaa9b8ca65d", "fusion_lon": 0.0, "lon": -77.03444316666666, "fusion_lat": 0.0}, {"lat": 38.93568466666667, "type": "electric_scooter", "is_disabled": 0, "rental_uris": {"android": "https://dc.lft.to/lastmile_qr_scan", "ios": "https://dc.lft.to/lastmile_qr_scan"}, "is_reserved": 0, "bike_id": "70994e378c57d8004025cb6d060855dd", "name": "70994e378c57d8004025cb6d060855dd", "fusion_lon": 0.0, "lon": -77.024971, "fusion_lat": 0.0}, {"lat": 38.93417566666667, "type": "electric_scooter", "is_disabled": 0, "rental_uris": {"android": "https://dc.lft.to/lastmile_qr_scan", "ios": "https://dc.lft.to/lastmile_qr_scan"}, "is_reserved": 0, "bike_id": "d8ff5ea4e9871698f420e796ef1866e8", "name": "d8ff5ea4e9871698f420e796ef1866e8", "fusion_lon": 0.0, "lon": -77.04266, "fusion_lat": 0.0}, {"lat": 38.919887, "type": "electric_scooter", "is_disabled": 0, "rental_uris": {"android": "https://dc.lft.to/lastmile_qr_scan", "ios": "https://dc.lft.to/lastmile_qr_scan"}, "is_reserved": 0, "bike_id": "7f7bd742d48d03f41a09647958d51b40", "name": "7f7bd742d48d03f41a09647958d51b40", "fusion_lon": 0.0, "lon": -77.04160483333334, "fusion_lat": 0.0}, {"lat": 38.8766255, "type": "electric_scooter", "is_disabled": 0, "rental_uris": {"android": "https://dc.lft.to/lastmile_qr_scan", "ios": "https://dc.lft.to/lastmile_qr_scan"}, "is_reserved": 0, "bike_id": "bd9c0ff63dfd45b72d177fcf0298b474", "name": "bd9c0ff63dfd45b72d177fcf0298b474", "fusion_lon": 0.0, "lon": -77.00810366666667, "fusion_lat": 0.0}, {"lat": 38.91707533333334, "type": "electric_bike", "is_disabled": 0, "rental_uris": {"android": "https://dc.lft.to/lastmile_qr_scan", "ios": "https://dc.lft.to/lastmile_qr_scan"}, "is_reserved": 0, "bike_id": "328ad784473fd4474e2e1e22947f4b20", "name": "328ad784473fd4474e2e1e22947f4b20", "fusion_lon": 0.0, "lon": -77.221004, "fusion_lat": 0.0}, {"lat": 38.95613783333334, "type": "electric_scooter", "is_disabled": 0, "rental_uris": {"android": "https://dc.lft.to/lastmile_qr_scan", "ios": "https://dc.lft.to/lastmile_qr_scan"}, "is_reserved": 0, "bike_id": "ac3086842e08b3268426e182d36c4075", "name": "ac3086842e08b3268426e182d36c4075", "fusion_lon": 0.0, "lon": -77.0279685, "fusion_lat": 0.0}, {"lat": 38.89743983333334, "type": "electric_scooter", "is_disabled": 0, "rental_uris": {"android": "https://dc.lft.to/lastmile_qr_scan", "ios": "https://dc.lft.to/lastmile_qr_scan"}, "is_reserved": 0, "bike_id": "6f36495b471c31c553d059cbf76414f2", "name": "6f36495b471c31c553d059cbf76414f2", "fusion_lon": 0.0, "lon": -77.00370933333333, "fusion_lat": 0.0}, {"lat": 38.9367095, "type": "electric_bike", "is_disabled": 0, "rental_uris": {"android": "https://dc.lft.to/lastmile_qr_scan", "ios": "https://dc.lft.to/lastmile_qr_scan"}, "is_reserved": 0, "bike_id": "791ae30fa667633e8d34a79dcfa29eee", "name": "791ae30fa667633e8d34a79dcfa29eee", "fusion_lon": 0.0, "lon": -76.95206866666666, "fusion_lat": 0.0}, {"lat": 38.8665825, "type": "electric_scooter", "is_disabled": 0, "rental_uris": {"android": "https://dc.lft.to/lastmile_qr_scan", "ios": "https://dc.lft.to/lastmile_qr_scan"}, "is_reserved": 0, "bike_id": "406fbc403afe12e40098320d185f7574", "name": "406fbc403afe12e40098320d185f7574", "fusion_lon": 0.0, "lon": -76.98885783333333, "fusion_lat": 0.0}, {"lat": 39.0388565, "type": "electric_bike", "is_disabled": 0, "rental_uris": {"android": "https://dc.lft.to/lastmile_qr_scan", "ios": "https://dc.lft.to/lastmile_qr_scan"}, "is_reserved": 0, "bike_id": "bf7909996388b21259f588a8fbd80352", "name": "bf7909996388b21259f588a8fbd80352", "fusion_lon": 0.0, "lon": -77.10909966666667, "fusion_lat": 0.0}, {"lat": 38.862168833333335, "type": "electric_scooter", "is_disabled": 0, "rental_uris": {"android": "https://dc.lft.to/lastmile_qr_scan", "ios": "https://dc.lft.to/lastmile_qr_scan"}, "is_reserved": 0, "bike_id": "c9e4b662fe1c8c3ddc1c42daed5fc37a", "name": "c9e4b662fe1c8c3ddc1c42daed5fc37a", "fusion_lon": 0.0, "lon": -76.994678, "fusion_lat": 0.0}, {"lat": 38.892144333333334, "type": "electric_bike", "is_disabled": 0, "rental_uris": {"android": "https://dc.lft.to/lastmile_qr_scan", "ios": "https://dc.lft.to/lastmile_qr_scan"}, "is_reserved": 0, "bike_id": "7ac1ba06ff82738aee9b1457601ef4d4", "name": "7ac1ba06ff82738aee9b1457601ef4d4", "fusion_lon": 0.0, "lon": -76.98555683333333, "fusion_lat": 0.0}, {"lat": 38.93958633333333, "type": "electric_scooter", "is_disabled": 0, "rental_uris": {"android": "https://dc.lft.to/lastmile_qr_scan", "ios": "https://dc.lft.to/lastmile_qr_scan"}, "is_reserved": 0, "bike_id": "1014160c9aede1159a9bf970f7edc480", "name": "1014160c9aede1159a9bf970f7edc480", "fusion_lon": 0.0, "lon": -77.02778016666667, "fusion_lat": 0.0}, {"lat": 38.89981066666667, "type": "electric_scooter", "is_disabled": 0, "rental_uris": {"android": "https://dc.lft.to/lastmile_qr_scan", "ios": "https://dc.lft.to/lastmile_qr_scan"}, "is_reserved": 0, "bike_id": "04c0422fdc2542c4ac382a50b86a8a96", "name": "04c0422fdc2542c4ac382a50b86a8a96", "fusion_lon": 0.0, "lon": -77.0502795, "fusion_lat": 0.0}, {"lat": 38.92605783333333, "type": "electric_scooter", "is_disabled": 0, "rental_uris": {"android": "https://dc.lft.to/lastmile_qr_scan", "ios": "https://dc.lft.to/lastmile_qr_scan"}, "is_reserved": 0, "bike_id": "f7950a9605ebdf158a0fd80f6fc63b96", "name": "f7950a9605ebdf158a0fd80f6fc63b96", "fusion_lon": 0.0, "lon": -77.024153, "fusion_lat": 0.0}, {"lat": 38.9126405, "type": "electric_scooter", "is_disabled": 0, "rental_uris": {"android": "https://dc.lft.to/lastmile_qr_scan", "ios": "https://dc.lft.to/lastmile_qr_scan"}, "is_reserved": 0, "bike_id": "9b3565156745340f33d186cd9fce239e", "name": "9b3565156745340f33d186cd9fce239e", "fusion_lon": 0.0, "lon": -77.041504, "fusion_lat": 0.0}, {"lat": 38.915684666666664, "type": "electric_scooter", "is_disabled": 0, "rental_uris": {"android": "https://dc.lft.to/lastmile_qr_scan", "ios": "https://dc.lft.to/lastmile_qr_scan"}, "is_reserved": 0, "bike_id": "c0691257a1bd889213e31c3b8c813dae", "name": "c0691257a1bd889213e31c3b8c813dae", "fusion_lon": 0.0, "lon": -77.04691783333334, "fusion_lat": 0.0}, {"lat": 38.9255395, "type": "electric_scooter", "is_disabled": 0, "rental_uris": {"android": "https://dc.lft.to/lastmile_qr_scan", "ios": "https://dc.lft.to/lastmile_qr_scan"}, "is_reserved": 0, "bike_id": "68f0d80a77c1b8a475577f44eff6a4ce", "name": "68f0d80a77c1b8a475577f44eff6a4ce", "fusion_lon": 0.0, "lon": -77.027124, "fusion_lat": 0.0}, {"lat": 38.919210166666666, "type": "electric_scooter", "is_disabled": 0, "rental_uris": {"android": "https://dc.lft.to/lastmile_qr_scan", "ios": "https://dc.lft.to/lastmile_qr_scan"}, "is_reserved": 0, "bike_id": "d44d00f15efdad722bb35928505ab44f", "name": "d44d00f15efdad722bb35928505ab44f", "fusion_lon": 0.0, "lon": -77.0174775, "fusion_lat": 0.0}, {"lat": 38.9181985, "type": "electric_scooter", "is_disabled": 0, "rental_uris": {"android": "https://dc.lft.to/lastmile_qr_scan", "ios": "https://dc.lft.to/lastmile_qr_scan"}, "is_reserved": 0, "bike_id": "d31345f83490cde8f07d849f09ffb56a", "name": "d31345f83490cde8f07d849f09ffb56a", "fusion_lon": 0.0, "lon": -77.041834, "fusion_lat": 0.0}, {"lat": 38.86243016666667, "type": "electric_scooter", "is_disabled": 0, "rental_uris": {"android": "https://dc.lft.to/lastmile_qr_scan", "ios": "https://dc.lft.to/lastmile_qr_scan"}, "is_reserved": 0, "bike_id": "2e4791e418cc2187681231db0ca55719", "name": "2e4791e418cc2187681231db0ca55719", "fusion_lon": 0.0, "lon": -76.99493883333334, "fusion_lat": 0.0}, {"lat": 38.9109585, "type": "electric_scooter", "is_disabled": 0, "rental_uris": {"android": "https://dc.lft.to/lastmile_qr_scan", "ios": "https://dc.lft.to/lastmile_qr_scan"}, "is_reserved": 0, "bike_id": "3952f88b0b3d70816d289fc9fbeaa10b", "name": "3952f88b0b3d70816d289fc9fbeaa10b", "fusion_lon": 0.0, "lon": -77.08771483333334, "fusion_lat": 0.0}, {"lat": 38.91856166666667, "type": "electric_bike", "is_disabled": 0, "rental_uris": {"android": "https://dc.lft.to/lastmile_qr_scan", "ios": "https://dc.lft.to/lastmile_qr_scan"}, "is_reserved": 0, "bike_id": "86ff5ff467640cc632896fc9b4568c56", "name": "86ff5ff467640cc632896fc9b4568c56", "fusion_lon": 0.0, "lon": -76.960863, "fusion_lat": 0.0}, {"lat": 38.9250445, "type": "electric_scooter", "is_disabled": 0, "rental_uris": {"android": "https://dc.lft.to/lastmile_qr_scan", "ios": "https://dc.lft.to/lastmile_qr_scan"}, "is_reserved": 0, "bike_id": "5ad50e8eedcac0b34409c1667a9a2271", "name": "5ad50e8eedcac0b34409c1667a9a2271", "fusion_lon": 0.0, "lon": -77.05221516666667, "fusion_lat": 0.0}, {"lat": 38.8945375, "type": "electric_bike", "is_disabled": 0, "rental_uris": {"android": "https://dc.lft.to/lastmile_qr_scan", "ios": "https://dc.lft.to/lastmile_qr_scan"}, "is_reserved": 0, "bike_id": "bb7ab0caf50933998320e308bf933028", "name": "bb7ab0caf50933998320e308bf933028", "fusion_lon": 0.0, "lon": -77.1582635, "fusion_lat": 0.0}, {"lat": 38.935594333333334, "type": "electric_scooter", "is_disabled": 0, "rental_uris": {"android": "https://dc.lft.to/lastmile_qr_scan", "ios": "https://dc.lft.to/lastmile_qr_scan"}, "is_reserved": 0, "bike_id": "1bab2b47b2e054ea6d9bb0ac72ec73de", "name": "1bab2b47b2e054ea6d9bb0ac72ec73de", "fusion_lon": 0.0, "lon": -77.03471033333334, "fusion_lat": 0.0}, {"lat": 38.9149735, "type": "electric_scooter", "is_disabled": 0, "rental_uris": {"android": "https://dc.lft.to/lastmile_qr_scan", "ios": "https://dc.lft.to/lastmile_qr_scan"}, "is_reserved": 0, "bike_id": "eae7dd86256939b4b2126f8ec7bd23f4", "name": "eae7dd86256939b4b2126f8ec7bd23f4", "fusion_lon": 0.0, "lon": -76.98370366666667, "fusion_lat": 0.0}, {"lat": 38.9024265, "type": "electric_scooter", "is_disabled": 0, "rental_uris": {"android": "https://dc.lft.to/lastmile_qr_scan", "ios": "https://dc.lft.to/lastmile_qr_scan"}, "is_reserved": 0, "bike_id": "1bf4b8035748d74936ec444d9f023e34", "name": "1bf4b8035748d74936ec444d9f023e34", "fusion_lon": 0.0, "lon": -77.04567666666667, "fusion_lat": 0.0}, {"lat": 38.92848816666667, "type": "electric_scooter", "is_disabled": 0, "rental_uris": {"android": "https://dc.lft.to/lastmile_qr_scan", "ios": "https://dc.lft.to/lastmile_qr_scan"}, "is_reserved": 0, "bike_id": "4b2005ae061bcf0a4fd1e4c43ca9ef17", "name": "4b2005ae061bcf0a4fd1e4c43ca9ef17", "fusion_lon": 0.0, "lon": -77.056264, "fusion_lat": 0.0}, {"lat": 38.91055716666666, "type": "electric_scooter", "is_disabled": 0, "rental_uris": {"android": "https://dc.lft.to/lastmile_qr_scan", "ios": "https://dc.lft.to/lastmile_qr_scan"}, "is_reserved": 0, "bike_id": "ee09d9e5d76e78594649a176296c8297", "name": "ee09d9e5d76e78594649a176296c8297", "fusion_lon": 0.0, "lon": -77.02211966666667, "fusion_lat": 0.0}, {"lat": 38.90772233333333, "type": "electric_scooter", "is_disabled": 0, "rental_uris": {"android": "https://dc.lft.to/lastmile_qr_scan", "ios": "https://dc.lft.to/lastmile_qr_scan"}, "is_reserved": 0, "bike_id": "9d7ea16f09dc9e3e597ba1f40a749d84", "name": "9d7ea16f09dc9e3e597ba1f40a749d84", "fusion_lon": 0.0, "lon": -77.03855033333333, "fusion_lat": 0.0}, {"lat": 38.839326, "type": "electric_bike", "is_disabled": 0, "rental_uris": {"android": "https://dc.lft.to/lastmile_qr_scan", "ios": "https://dc.lft.to/lastmile_qr_scan"}, "is_reserved": 0, "bike_id": "ea89a90a0f8d3bf43f82a603cb7b85ef", "name": "ea89a90a0f8d3bf43f82a603cb7b85ef", "fusion_lon": 0.0, "lon": -77.07895916666666, "fusion_lat": 0.0}, {"lat": 38.90105583333333, "type": "electric_scooter", "is_disabled": 0, "rental_uris": {"android": "https://dc.lft.to/lastmile_qr_scan", "ios": "https://dc.lft.to/lastmile_qr_scan"}, "is_reserved": 0, "bike_id": "4d203fd156ce41181f1ef67925736a2a", "name": "4d203fd156ce41181f1ef67925736a2a", "fusion_lon": 0.0, "lon": -77.05036, "fusion_lat": 0.0}, {"lat": 38.9049515, "type": "electric_scooter", "is_disabled": 0, "rental_uris": {"android": "https://dc.lft.to/lastmile_qr_scan", "ios": "https://dc.lft.to/lastmile_qr_scan"}, "is_reserved": 0, "bike_id": "89ff8463e0d60a283fd690eac87714fb", "name": "89ff8463e0d60a283fd690eac87714fb", "fusion_lon": 0.0, "lon": -77.046535, "fusion_lat": 0.0}, {"lat": 38.898456833333334, "type": "electric_scooter", "is_disabled": 0, "rental_uris": {"android": "https://dc.lft.to/lastmile_qr_scan", "ios": "https://dc.lft.to/lastmile_qr_scan"}, "is_reserved": 0, "bike_id": "08d35e635fa3ca6618718e3281e7f583", "name": "08d35e635fa3ca6618718e3281e7f583", "fusion_lon": 0.0, "lon": -77.043444, "fusion_lat": 0.0}, {"lat": 38.934283666666666, "type": "electric_scooter", "is_disabled": 0, "rental_uris": {"android": "https://dc.lft.to/lastmile_qr_scan", "ios": "https://dc.lft.to/lastmile_qr_scan"}, "is_reserved": 0, "bike_id": "4a2a6d66ad72f7d1defe04a7f5e0e859", "name": "4a2a6d66ad72f7d1defe04a7f5e0e859", "fusion_lon": 0.0, "lon": -77.04149883333334, "fusion_lat": 0.0}, {"lat": 38.899752166666666, "type": "electric_scooter", "is_disabled": 0, "rental_uris": {"android": "https://dc.lft.to/lastmile_qr_scan", "ios": "https://dc.lft.to/lastmile_qr_scan"}, "is_reserved": 0, "bike_id": "4af8d22d118e7cb2145e18af30e67d19", "name": "4af8d22d118e7cb2145e18af30e67d19", "fusion_lon": 0.0, "lon": -77.04610716666667, "fusion_lat": 0.0}, {"lat": 38.898469, "type": "electric_scooter", "is_disabled": 0, "rental_uris": {"android": "https://dc.lft.to/lastmile_qr_scan", "ios": "https://dc.lft.to/lastmile_qr_scan"}, "is_reserved": 0, "bike_id": "3c71309fc16b69ef784dcdf1cc44afd6", "name": "3c71309fc16b69ef784dcdf1cc44afd6", "fusion_lon": 0.0, "lon": -76.94634216666667, "fusion_lat": 0.0}, {"lat": 38.93151683333333, "type": "electric_scooter", "is_disabled": 0, "rental_uris": {"android": "https://dc.lft.to/lastmile_qr_scan", "ios": "https://dc.lft.to/lastmile_qr_scan"}, "is_reserved": 0, "bike_id": "4f60a8e1d0338fbe3af0d45865762a0e", "name": "4f60a8e1d0338fbe3af0d45865762a0e", "fusion_lon": 0.0, "lon": -77.03452183333333, "fusion_lat": 0.0}, {"lat": 38.89336933333333, "type": "electric_bike", "is_disabled": 0, "rental_uris": {"android": "https://dc.lft.to/lastmile_qr_scan", "ios": "https://dc.lft.to/lastmile_qr_scan"}, "is_reserved": 0, "bike_id": "7886a171f2523f205b0c7de76744a572", "name": "7886a171f2523f205b0c7de76744a572", "fusion_lon": 0.0, "lon": -77.12403, "fusion_lat": 0.0}, {"lat": 38.921173833333334, "type": "electric_scooter", "is_disabled": 0, "rental_uris": {"android": "https://dc.lft.to/lastmile_qr_scan", "ios": "https://dc.lft.to/lastmile_qr_scan"}, "is_reserved": 0, "bike_id": "9c8db7ce83af62be295e1959101dc3b9", "name": "9c8db7ce83af62be295e1959101dc3b9", "fusion_lon": 0.0, "lon": -77.04687216666666, "fusion_lat": 0.0}, {"lat": 38.893065, "type": "electric_scooter", "is_disabled": 0, "rental_uris": {"android": "https://dc.lft.to/lastmile_qr_scan", "ios": "https://dc.lft.to/lastmile_qr_scan"}, "is_reserved": 0, "bike_id": "8bb373656b6c2c36ee9e9b7a3d638bca", "name": "8bb373656b6c2c36ee9e9b7a3d638bca", "fusion_lon": 0.0, "lon": -77.01229133333334, "fusion_lat": 0.0}, {"lat": 38.9201645, "type": "electric_scooter", "is_disabled": 0, "rental_uris": {"android": "https://dc.lft.to/lastmile_qr_scan", "ios": "https://dc.lft.to/lastmile_qr_scan"}, "is_reserved": 0, "bike_id": "d8beebd3bd3f359e49ff5ed81cc33cba", "name": "d8beebd3bd3f359e49ff5ed81cc33cba", "fusion_lon": 0.0, "lon": -77.02405016666667, "fusion_lat": 0.0}, {"lat": 38.9122705, "type": "electric_scooter", "is_disabled": 0, "rental_uris": {"android": "https://dc.lft.to/lastmile_qr_scan", "ios": "https://dc.lft.to/lastmile_qr_scan"}, "is_reserved": 0, "bike_id": "b031041b38d7c40c78b84118b821ff8e", "name": "b031041b38d7c40c78b84118b821ff8e", "fusion_lon": 0.0, "lon": -77.03208816666667, "fusion_lat": 0.0}, {"lat": 38.92108266666666, "type": "electric_scooter", "is_disabled": 0, "rental_uris": {"android": "https://dc.lft.to/lastmile_qr_scan", "ios": "https://dc.lft.to/lastmile_qr_scan"}, "is_reserved": 0, "bike_id": "72f011c53157037f596762c66d6b0a39", "name": "72f011c53157037f596762c66d6b0a39", "fusion_lon": 0.0, "lon": -77.03052216666667, "fusion_lat": 0.0}, {"lat": 38.9039685, "type": "electric_scooter", "is_disabled": 0, "rental_uris": {"android": "https://dc.lft.to/lastmile_qr_scan", "ios": "https://dc.lft.to/lastmile_qr_scan"}, "is_reserved": 0, "bike_id": "c2c702127d0debba4c9e49058c3a7a59", "name": "c2c702127d0debba4c9e49058c3a7a59", "fusion_lon": 0.0, "lon": -77.02803883333333, "fusion_lat": 0.0}, {"lat": 38.95313016666667, "type": "electric_scooter", "is_disabled": 0, "rental_uris": {"android": "https://dc.lft.to/lastmile_qr_scan", "ios": "https://dc.lft.to/lastmile_qr_scan"}, "is_reserved": 0, "bike_id": "d106efb46d5915cc38d71246e81b4372", "name": "d106efb46d5915cc38d71246e81b4372", "fusion_lon": 0.0, "lon": -77.03599716666666, "fusion_lat": 0.0}, {"lat": 38.908221166666664, "type": "electric_scooter", "is_disabled": 0, "rental_uris": {"android": "https://dc.lft.to/lastmile_qr_scan", "ios": "https://dc.lft.to/lastmile_qr_scan"}, "is_reserved": 0, "bike_id": "66c0c0a9965bab18cdf93fe998009c5d", "name": "66c0c0a9965bab18cdf93fe998009c5d", "fusion_lon": 0.0, "lon": -77.04163633333333, "fusion_lat": 0.0}, {"lat": 38.874779333333336, "type": "electric_scooter", "is_disabled": 0, "rental_uris": {"android": "https://dc.lft.to/lastmile_qr_scan", "ios": "https://dc.lft.to/lastmile_qr_scan"}, "is_reserved": 0, "bike_id": "f86033f10e2ee02cc7b87eead5701a18", "name": "f86033f10e2ee02cc7b87eead5701a18", "fusion_lon": 0.0, "lon": -77.01233533333334, "fusion_lat": 0.0}, {"lat": 39.095971, "type": "electric_bike", "is_disabled": 0, "rental_uris": {"android": "https://dc.lft.to/lastmile_qr_scan", "ios": "https://dc.lft.to/lastmile_qr_scan"}, "is_reserved": 0, "bike_id": "11bbeb2e3701b8efa52e43bdb1ccfd5c", "name": "11bbeb2e3701b8efa52e43bdb1ccfd5c", "fusion_lon": 0.0, "lon": -77.14778966666667, "fusion_lat": 0.0}, {"lat": 38.892225, "type": "electric_scooter", "is_disabled": 0, "rental_uris": {"android": "https://dc.lft.to/lastmile_qr_scan", "ios": "https://dc.lft.to/lastmile_qr_scan"}, "is_reserved": 0, "bike_id": "b66b091ccc244a33044fa9512198bf3e", "name": "b66b091ccc244a33044fa9512198bf3e", "fusion_lon": 0.0, "lon": -77.02260866666667, "fusion_lat": 0.0}, {"lat": 38.8951125, "type": "electric_scooter", "is_disabled": 0, "rental_uris": {"android": "https://dc.lft.to/lastmile_qr_scan", "ios": "https://dc.lft.to/lastmile_qr_scan"}, "is_reserved": 0, "bike_id": "318c02bcd73007fa20a0afb7d4682af9", "name": "318c02bcd73007fa20a0afb7d4682af9", "fusion_lon": 0.0, "lon": -76.94886466666667, "fusion_lat": 0.0}, {"lat": 38.9993475, "type": "electric_bike", "is_disabled": 0, "rental_uris": {"android": "https://dc.lft.to/lastmile_qr_scan", "ios": "https://dc.lft.to/lastmile_qr_scan"}, "is_reserved": 0, "bike_id": "4d7fb503d1aa58b5e0f085d3f3885800", "name": "4d7fb503d1aa58b5e0f085d3f3885800", "fusion_lon": 0.0, "lon": -77.00123833333333, "fusion_lat": 0.0}, {"lat": 38.90864833333333, "type": "electric_scooter", "is_disabled": 0, "rental_uris": {"android": "https://dc.lft.to/lastmile_qr_scan", "ios": "https://dc.lft.to/lastmile_qr_scan"}, "is_reserved": 0, "bike_id": "b40c1d61b62e450af15969dbfc465ee5", "name": "b40c1d61b62e450af15969dbfc465ee5", "fusion_lon": 0.0, "lon": -77.00359683333333, "fusion_lat": 0.0}, {"lat": 38.9056825, "type": "electric_scooter", "is_disabled": 0, "rental_uris": {"android": "https://dc.lft.to/lastmile_qr_scan", "ios": "https://dc.lft.to/lastmile_qr_scan"}, "is_reserved": 0, "bike_id": "8a36d3ea23e846e675317ad90d59eebd", "name": "8a36d3ea23e846e675317ad90d59eebd", "fusion_lon": 0.0, "lon": -77.00554016666666, "fusion_lat": 0.0}, {"lat": 38.860377166666666, "type": "electric_scooter", "is_disabled": 0, "rental_uris": {"android": "https://dc.lft.to/lastmile_qr_scan", "ios": "https://dc.lft.to/lastmile_qr_scan"}, "is_reserved": 0, "bike_id": "274f6b23ed16536da40f4b0dadf6bdea", "name": "274f6b23ed16536da40f4b0dadf6bdea", "fusion_lon": 0.0, "lon": -76.9969105, "fusion_lat": 0.0}, {"lat": 38.931534166666665, "type": "electric_scooter", "is_disabled": 0, "rental_uris": {"android": "https://dc.lft.to/lastmile_qr_scan", "ios": "https://dc.lft.to/lastmile_qr_scan"}, "is_reserved": 0, "bike_id": "99e4873be3fb797feb33da0eb1dfbe29", "name": "99e4873be3fb797feb33da0eb1dfbe29", "fusion_lon": 0.0, "lon": -77.03610633333334, "fusion_lat": 0.0}, {"lat": 38.85545666666667, "type": "electric_bike", "is_disabled": 0, "rental_uris": {"android": "https://dc.lft.to/lastmile_qr_scan", "ios": "https://dc.lft.to/lastmile_qr_scan"}, "is_reserved": 0, "bike_id": "fd9ae30ac4f6407acc9a75a6cec6bf01", "name": "fd9ae30ac4f6407acc9a75a6cec6bf01", "fusion_lon": 0.0, "lon": -77.1069335, "fusion_lat": 0.0}, {"lat": 38.8419375, "type": "electric_bike", "is_disabled": 0, "rental_uris": {"android": "https://dc.lft.to/lastmile_qr_scan", "ios": "https://dc.lft.to/lastmile_qr_scan"}, "is_reserved": 0, "bike_id": "992a828ad5ccb8a9a0e05905119bb112", "name": "992a828ad5ccb8a9a0e05905119bb112", "fusion_lon": 0.0, "lon": -77.07748266666667, "fusion_lat": 0.0}, {"lat": 38.89734416666667, "type": "electric_scooter", "is_disabled": 0, "rental_uris": {"android": "https://dc.lft.to/lastmile_qr_scan", "ios": "https://dc.lft.to/lastmile_qr_scan"}, "is_reserved": 0, "bike_id": "7aa427488e1ae6a82858b43f4a377fe3", "name": "7aa427488e1ae6a82858b43f4a377fe3", "fusion_lon": 0.0, "lon": -76.94703516666667, "fusion_lat": 0.0}, {"lat": 38.900241666666666, "type": "electric_scooter", "is_disabled": 0, "rental_uris": {"android": "https://dc.lft.to/lastmile_qr_scan", "ios": "https://dc.lft.to/lastmile_qr_scan"}, "is_reserved": 0, "bike_id": "0895dce9c7b935c9d214fcad254c2b03", "name": "0895dce9c7b935c9d214fcad254c2b03", "fusion_lon": 0.0, "lon": -76.99590316666666, "fusion_lat": 0.0}, {"lat": 38.89844633333333, "type": "electric_scooter", "is_disabled": 0, "rental_uris": {"android": "https://dc.lft.to/lastmile_qr_scan", "ios": "https://dc.lft.to/lastmile_qr_scan"}, "is_reserved": 0, "bike_id": "54b8a0d6155514d815d17fd4475482fc", "name": "54b8a0d6155514d815d17fd4475482fc", "fusion_lon": 0.0, "lon": -77.019559, "fusion_lat": 0.0}, {"lat": 38.8926385, "type": "electric_scooter", "is_disabled": 0, "rental_uris": {"android": "https://dc.lft.to/lastmile_qr_scan", "ios": "https://dc.lft.to/lastmile_qr_scan"}, "is_reserved": 0, "bike_id": "8330b2cafc43d425ec3f61042c4caa2c", "name": "8330b2cafc43d425ec3f61042c4caa2c", "fusion_lon": 0.0, "lon": -76.94158433333334, "fusion_lat": 0.0}, {"lat": 38.917472333333336, "type": "electric_scooter", "is_disabled": 0, "rental_uris": {"android": "https://dc.lft.to/lastmile_qr_scan", "ios": "https://dc.lft.to/lastmile_qr_scan"}, "is_reserved": 0, "bike_id": "716ea0813725b124e0c298c9498565a7", "name": "716ea0813725b124e0c298c9498565a7", "fusion_lon": 0.0, "lon": -77.03658716666666, "fusion_lat": 0.0}, {"lat": 38.89556483333333, "type": "electric_scooter", "is_disabled": 0, "rental_uris": {"android": "https://dc.lft.to/lastmile_qr_scan", "ios": "https://dc.lft.to/lastmile_qr_scan"}, "is_reserved": 0, "bike_id": "ecfb2dda3ab80fd0859e9034b0ae3135", "name": "ecfb2dda3ab80fd0859e9034b0ae3135", "fusion_lon": 0.0, "lon": -77.00921616666666, "fusion_lat": 0.0}, {"lat": 38.86507733333333, "type": "electric_scooter", "is_disabled": 0, "rental_uris": {"android": "https://dc.lft.to/lastmile_qr_scan", "ios": "https://dc.lft.to/lastmile_qr_scan"}, "is_reserved": 0, "bike_id": "cd50a8339c41b201aea9743e7e58bedc", "name": "cd50a8339c41b201aea9743e7e58bedc", "fusion_lon": 0.0, "lon": -76.99002716666666, "fusion_lat": 0.0}, {"lat": 38.90256, "type": "electric_scooter", "is_disabled": 0, "rental_uris": {"android": "https://dc.lft.to/lastmile_qr_scan", "ios": "https://dc.lft.to/lastmile_qr_scan"}, "is_reserved": 0, "bike_id": "23d1474bc746b5448f29b6107b994190", "name": "23d1474bc746b5448f29b6107b994190", "fusion_lon": 0.0, "lon": -77.02935716666667, "fusion_lat": 0.0}, {"lat": 38.9248585, "type": "electric_scooter", "is_disabled": 0, "rental_uris": {"android": "https://dc.lft.to/lastmile_qr_scan", "ios": "https://dc.lft.to/lastmile_qr_scan"}, "is_reserved": 0, "bike_id": "7bb20aec2324dace20b81c4ff25836e3", "name": "7bb20aec2324dace20b81c4ff25836e3", "fusion_lon": 0.0, "lon": -77.0272415, "fusion_lat": 0.0}, {"lat": 38.88643533333333, "type": "electric_scooter", "is_disabled": 0, "rental_uris": {"android": "https://dc.lft.to/lastmile_qr_scan", "ios": "https://dc.lft.to/lastmile_qr_scan"}, "is_reserved": 0, "bike_id": "0a5d4f13ee175bafb4deb85d0e66d6e7", "name": "0a5d4f13ee175bafb4deb85d0e66d6e7", "fusion_lon": 0.0, "lon": -77.02250766666667, "fusion_lat": 0.0}, {"lat": 38.922487333333336, "type": "electric_scooter", "is_disabled": 0, "rental_uris": {"android": "https://dc.lft.to/lastmile_qr_scan", "ios": "https://dc.lft.to/lastmile_qr_scan"}, "is_reserved": 0, "bike_id": "c14398366774de176ed666eea7afbf44", "name": "c14398366774de176ed666eea7afbf44", "fusion_lon": 0.0, "lon": -77.02846483333333, "fusion_lat": 0.0}, {"lat": 38.899213833333334, "type": "electric_scooter", "is_disabled": 0, "rental_uris": {"android": "https://dc.lft.to/lastmile_qr_scan", "ios": "https://dc.lft.to/lastmile_qr_scan"}, "is_reserved": 0, "bike_id": "d251c912df7471fbaa474d7d53fb5c1c", "name": "d251c912df7471fbaa474d7d53fb5c1c", "fusion_lon": 0.0, "lon": -76.9336415, "fusion_lat": 0.0}, {"lat": 38.876270833333336, "type": "electric_scooter", "is_disabled": 0, "rental_uris": {"android": "https://dc.lft.to/lastmile_qr_scan", "ios": "https://dc.lft.to/lastmile_qr_scan"}, "is_reserved": 0, "bike_id": "066a3b2f402722acb9c8e25aef879952", "name": "066a3b2f402722acb9c8e25aef879952", "fusion_lon": 0.0, "lon": -76.96528533333333, "fusion_lat": 0.0}, {"lat": 38.922848333333334, "type": "electric_scooter", "is_disabled": 0, "rental_uris": {"android": "https://dc.lft.to/lastmile_qr_scan", "ios": "https://dc.lft.to/lastmile_qr_scan"}, "is_reserved": 0, "bike_id": "c119c0592eded7246ecf6b7e2223223f", "name": "c119c0592eded7246ecf6b7e2223223f", "fusion_lon": 0.0, "lon": -77.04466066666667, "fusion_lat": 0.0}, {"lat": 38.932778, "type": "electric_scooter", "is_disabled": 0, "rental_uris": {"android": "https://dc.lft.to/lastmile_qr_scan", "ios": "https://dc.lft.to/lastmile_qr_scan"}, "is_reserved": 0, "bike_id": "cafa3b717d576a2abc697d0ba0d12cef", "name": "cafa3b717d576a2abc697d0ba0d12cef", "fusion_lon": 0.0, "lon": -77.0391975, "fusion_lat": 0.0}, {"lat": 38.916794, "type": "electric_bike", "is_disabled": 0, "rental_uris": {"android": "https://dc.lft.to/lastmile_qr_scan", "ios": "https://dc.lft.to/lastmile_qr_scan"}, "is_reserved": 0, "bike_id": "a03c9b5f79c9febebdd94c61838a45ad", "name": "a03c9b5f79c9febebdd94c61838a45ad", "fusion_lon": 0.0, "lon": -77.09576216666666, "fusion_lat": 0.0}, {"lat": 38.914084833333334, "type": "electric_scooter", "is_disabled": 0, "rental_uris": {"android": "https://dc.lft.to/lastmile_qr_scan", "ios": "https://dc.lft.to/lastmile_qr_scan"}, "is_reserved": 0, "bike_id": "fa0c6277ecdf3af626797a14abd1593f", "name": "fa0c6277ecdf3af626797a14abd1593f", "fusion_lon": 0.0, "lon": -77.032168, "fusion_lat": 0.0}, {"lat": 38.9225895, "type": "electric_scooter", "is_disabled": 0, "rental_uris": {"android": "https://dc.lft.to/lastmile_qr_scan", "ios": "https://dc.lft.to/lastmile_qr_scan"}, "is_reserved": 0, "bike_id": "219b6c8d1653bcbd8d6dbb2f4f925aa3", "name": "219b6c8d1653bcbd8d6dbb2f4f925aa3", "fusion_lon": 0.0, "lon": -77.04207266666667, "fusion_lat": 0.0}, {"lat": 38.865344, "type": "electric_bike", "is_disabled": 0, "rental_uris": {"android": "https://dc.lft.to/lastmile_qr_scan", "ios": "https://dc.lft.to/lastmile_qr_scan"}, "is_reserved": 0, "bike_id": "9d6edf3daa1ccc9848ef2e95b9356cf8", "name": "9d6edf3daa1ccc9848ef2e95b9356cf8", "fusion_lon": 0.0, "lon": -77.128163, "fusion_lat": 0.0}, {"lat": 38.86371233333333, "type": "electric_scooter", "is_disabled": 0, "rental_uris": {"android": "https://dc.lft.to/lastmile_qr_scan", "ios": "https://dc.lft.to/lastmile_qr_scan"}, "is_reserved": 0, "bike_id": "2d4adf142c099f5bcded70df6f4875a8", "name": "2d4adf142c099f5bcded70df6f4875a8", "fusion_lon": 0.0, "lon": -76.99058533333333, "fusion_lat": 0.0}, {"lat": 38.8244365, "type": "electric_bike", "is_disabled": 0, "rental_uris": {"android": "https://dc.lft.to/lastmile_qr_scan", "ios": "https://dc.lft.to/lastmile_qr_scan"}, "is_reserved": 0, "bike_id": "2da7b5d413ea41105fb13378b65a6d8f", "name": "2da7b5d413ea41105fb13378b65a6d8f", "fusion_lon": 0.0, "lon": -77.07042566666667, "fusion_lat": 0.0}, {"lat": 38.896143, "type": "electric_scooter", "is_disabled": 0, "rental_uris": {"android": "https://dc.lft.to/lastmile_qr_scan", "ios": "https://dc.lft.to/lastmile_qr_scan"}, "is_reserved": 0, "bike_id": "c3e0858690f0ae62fcf50a54c9a5ab12", "name": "c3e0858690f0ae62fcf50a54c9a5ab12", "fusion_lon": 0.0, "lon": -77.04791883333333, "fusion_lat": 0.0}, {"lat": 38.89223333333333, "type": "electric_scooter", "is_disabled": 0, "rental_uris": {"android": "https://dc.lft.to/lastmile_qr_scan", "ios": "https://dc.lft.to/lastmile_qr_scan"}, "is_reserved": 0, "bike_id": "bf1f251af17e894767d7f47f2477b755", "name": "bf1f251af17e894767d7f47f2477b755", "fusion_lon": 0.0, "lon": -77.022621, "fusion_lat": 0.0}, {"lat": 38.91901216666667, "type": "electric_scooter", "is_disabled": 0, "rental_uris": {"android": "https://dc.lft.to/lastmile_qr_scan", "ios": "https://dc.lft.to/lastmile_qr_scan"}, "is_reserved": 0, "bike_id": "4378856a985a06ab878bc9e73d99a83f", "name": "4378856a985a06ab878bc9e73d99a83f", "fusion_lon": 0.0, "lon": -77.00317566666666, "fusion_lat": 0.0}, {"lat": 38.893897, "type": "electric_scooter", "is_disabled": 0, "rental_uris": {"android": "https://dc.lft.to/lastmile_qr_scan", "ios": "https://dc.lft.to/lastmile_qr_scan"}, "is_reserved": 0, "bike_id": "2febee77adce0b543fe6ef4cb50d148b", "name": "2febee77adce0b543fe6ef4cb50d148b", "fusion_lon": 0.0, "lon": -76.94992883333333, "fusion_lat": 0.0}, {"lat": 38.92858016666667, "type": "electric_scooter", "is_disabled": 0, "rental_uris": {"android": "https://dc.lft.to/lastmile_qr_scan", "ios": "https://dc.lft.to/lastmile_qr_scan"}, "is_reserved": 0, "bike_id": "3de8481c96c06a7309581bd0d6f491ad", "name": "3de8481c96c06a7309581bd0d6f491ad", "fusion_lon": 0.0, "lon": -77.01419916666667, "fusion_lat": 0.0}, {"lat": 38.91835416666667, "type": "electric_scooter", "is_disabled": 0, "rental_uris": {"android": "https://dc.lft.to/lastmile_qr_scan", "ios": "https://dc.lft.to/lastmile_qr_scan"}, "is_reserved": 0, "bike_id": "c6009972a4c8df8d621d14069caaaffe", "name": "c6009972a4c8df8d621d14069caaaffe", "fusion_lon": 0.0, "lon": -77.02532783333334, "fusion_lat": 0.0}, {"lat": 38.87698833333334, "type": "electric_scooter", "is_disabled": 0, "rental_uris": {"android": "https://dc.lft.to/lastmile_qr_scan", "ios": "https://dc.lft.to/lastmile_qr_scan"}, "is_reserved": 0, "bike_id": "5106b99f99a6d737dab64c41f4130a5d", "name": "5106b99f99a6d737dab64c41f4130a5d", "fusion_lon": 0.0, "lon": -77.0178505, "fusion_lat": 0.0}, {"lat": 38.86164433333333, "type": "electric_scooter", "is_disabled": 0, "rental_uris": {"android": "https://dc.lft.to/lastmile_qr_scan", "ios": "https://dc.lft.to/lastmile_qr_scan"}, "is_reserved": 0, "bike_id": "7b6db1c6d96357e73d396fcd1c4e345a", "name": "7b6db1c6d96357e73d396fcd1c4e345a", "fusion_lon": 0.0, "lon": -76.985753, "fusion_lat": 0.0}, {"lat": 38.93024416666667, "type": "electric_scooter", "is_disabled": 0, "rental_uris": {"android": "https://dc.lft.to/lastmile_qr_scan", "ios": "https://dc.lft.to/lastmile_qr_scan"}, "is_reserved": 0, "bike_id": "f4852889117e423220f4bd6ec634d23e", "name": "f4852889117e423220f4bd6ec634d23e", "fusion_lon": 0.0, "lon": -77.03798166666667, "fusion_lat": 0.0}, {"lat": 38.85433166666667, "type": "electric_bike", "is_disabled": 0, "rental_uris": {"android": "https://dc.lft.to/lastmile_qr_scan", "ios": "https://dc.lft.to/lastmile_qr_scan"}, "is_reserved": 0, "bike_id": "3d97fa5530b8087ec294e634de15a045", "name": "3d97fa5530b8087ec294e634de15a045", "fusion_lon": 0.0, "lon": -76.90964816666667, "fusion_lat": 0.0}, {"lat": 38.905362, "type": "electric_scooter", "is_disabled": 0, "rental_uris": {"android": "https://dc.lft.to/lastmile_qr_scan", "ios": "https://dc.lft.to/lastmile_qr_scan"}, "is_reserved": 0, "bike_id": "c3171ad2917d76e356add27e3cc58391", "name": "c3171ad2917d76e356add27e3cc58391", "fusion_lon": 0.0, "lon": -77.05046516666667, "fusion_lat": 0.0}, {"lat": 38.93248916666667, "type": "electric_scooter", "is_disabled": 0, "rental_uris": {"android": "https://dc.lft.to/lastmile_qr_scan", "ios": "https://dc.lft.to/lastmile_qr_scan"}, "is_reserved": 0, "bike_id": "136d51c0f599c51f9921b670db12ab4c", "name": "136d51c0f599c51f9921b670db12ab4c", "fusion_lon": 0.0, "lon": -77.03852833333333, "fusion_lat": 0.0}, {"lat": 38.89981083333333, "type": "electric_scooter", "is_disabled": 0, "rental_uris": {"android": "https://dc.lft.to/lastmile_qr_scan", "ios": "https://dc.lft.to/lastmile_qr_scan"}, "is_reserved": 0, "bike_id": "b490196297df9b0585bd8be0aaf60ae7", "name": "b490196297df9b0585bd8be0aaf60ae7", "fusion_lon": 0.0, "lon": -77.04188866666667, "fusion_lat": 0.0}, {"lat": 38.8901525, "type": "electric_scooter", "is_disabled": 0, "rental_uris": {"android": "https://dc.lft.to/lastmile_qr_scan", "ios": "https://dc.lft.to/lastmile_qr_scan"}, "is_reserved": 0, "bike_id": "3483ba9490b6e65ce6691ba56314b058", "name": "3483ba9490b6e65ce6691ba56314b058", "fusion_lon": 0.0, "lon": -76.937422, "fusion_lat": 0.0}, {"lat": 38.927460333333336, "type": "electric_scooter", "is_disabled": 0, "rental_uris": {"android": "https://dc.lft.to/lastmile_qr_scan", "ios": "https://dc.lft.to/lastmile_qr_scan"}, "is_reserved": 0, "bike_id": "97368c0cdd98ea1b1a0f8e01ecdd9f5e", "name": "97368c0cdd98ea1b1a0f8e01ecdd9f5e", "fusion_lon": 0.0, "lon": -77.02237516666666, "fusion_lat": 0.0}, {"lat": 38.879151, "type": "electric_bike", "is_disabled": 0, "rental_uris": {"android": "https://dc.lft.to/lastmile_qr_scan", "ios": "https://dc.lft.to/lastmile_qr_scan"}, "is_reserved": 0, "bike_id": "e1f0eacbdc4448851ef8887f772627d2", "name": "e1f0eacbdc4448851ef8887f772627d2", "fusion_lon": 0.0, "lon": -77.10746183333333, "fusion_lat": 0.0}, {"lat": 38.91801066666667, "type": "electric_scooter", "is_disabled": 0, "rental_uris": {"android": "https://dc.lft.to/lastmile_qr_scan", "ios": "https://dc.lft.to/lastmile_qr_scan"},