{"data": {"bikes": [{"rental_uris": {"ios": "https://dc.lft.to/lastmile_qr_scan", "android": "https://dc.lft.to/lastmile_qr_scan"}, "type": "electric_scooter", "name": "9deb711a69815626ead50a5b52f7e752", "is_reserved": 0, "lon": -77.01995616666666, "is_disabled": 0, "fusion_lat": 0.0, "lat": 38.93051366666667, "bike_id": "9deb711a69815626ead50a5b52f7e752", "fusion_lon": 0.0}, {"rental_uris": {"ios": "https://dc.lft.to/lastmile_qr_scan", "android": "https://dc.lft.to/lastmile_qr_scan"}, "type": "electric_scooter", "name": "b3e8d44f66bfc0126482dbb662cbc755", "is_reserved": 0, "lon": -77.04002916666667, "is_disabled": 0, "fusion_lat": 0.0, "lat": 38.9142385, "bike_id": "b3e8d44f66bfc0126482dbb662cbc755", "fusion_lon": 0.0}, {"rental_uris": {"ios": "https://dc.lft.to/lastmile_qr_scan", "android": "https://dc.lft.to/lastmile_qr_scan"}, "type": "electric_scooter", "name": "983ab20bef9688a7571b2f7f9353eda5", "is_reserved": 0, "lon": -77.03269133333333, "is_disabled": 0, "fusion_lat": 0.0, "lat": 38.9387635, "bike_id": "983ab20bef9688a7571b2f7f9353eda5", "fusion_lon": 0.0}, {"rental_uris": {"ios": "https://dc.lft.to/lastmile_qr_scan", "android": "https://dc.lft.to/lastmile_qr_scan"}, "type": "electric_scooter", "name": "d2bedbbc40c709e5e0d79082bf220974", "is_reserved": 0, "lon": -76.981867, "is_disabled": 0, "fusion_lat": 0.0, "lat": 38.905814166666666, "bike_id": "d2bedbbc40c709e5e0d79082bf220974", "fusion_lon": 0.0}, {"rental_uris": {"ios": "https://dc.lft.to/lastmile_qr_scan", "android": "https://dc.lft.to/lastmile_qr_scan"}, "type": "electric_scooter", "name": "4ce7bb02687535ea7ea50b89cd9d972a", "is_reserved": 0, "lon": -77.03805816666667, "is_disabled": 0, "fusion_lat": 0.0, "lat": 38.930742, "bike_id": "4ce7bb02687535ea7ea50b89cd9d972a", "fusion_lon": 0.0}, {"rental_uris": {"ios": "https://dc.lft.to/lastmile_qr_scan", "android": "https://dc.lft.to/lastmile_qr_scan"}, "type": "electric_scooter", "name": "386af8b8fe12cb1e4c40025f6529a5ab", "is_reserved": 0, "lon": -77.074055, "is_disabled": 0, "fusion_lat": 0.0, "lat": 38.937465333333336, "bike_id": "386af8b8fe12cb1e4c40025f6529a5ab", "fusion_lon": 0.0}, {"rental_uris": {"ios": "https://dc.lft.to/lastmile_qr_scan", "android": "https://dc.lft.to/lastmile_qr_scan"}, "type": "electric_scooter", "name": "c81afad6723e70425e7c7a59298219c3", "is_reserved": 0, "lon": -77.02356716666667, "is_disabled": 0, "fusion_lat": 0.0, "lat": 38.945201, "bike_id": "c81afad6723e70425e7c7a59298219c3", "fusion_lon": 0.0}, {"rental_uris": {"ios": "https://dc.lft.to/lastmile_qr_scan", "android": "https://dc.lft.to/lastmile_qr_scan"}, "type": "electric_scooter", "name": "75c18266cbcb9d3d637322dbb9ba702a", "is_reserved": 0, "lon": -77.03133833333334, "is_disabled": 0, "fusion_lat": 0.0, "lat": 38.9237755, "bike_id": "75c18266cbcb9d3d637322dbb9ba702a", "fusion_lon": 0.0}, {"rental_uris": {"ios": "https://dc.lft.to/lastmile_qr_scan", "android": "https://dc.lft.to/lastmile_qr_scan"}, "type": "electric_scooter", "name": "da6cecf4c9fc823fcff567f9a3c99e35", "is_reserved": 0, "lon": -77.024045, "is_disabled": 0, "fusion_lat": 0.0, "lat": 38.917153666666664, "bike_id": "da6cecf4c9fc823fcff567f9a3c99e35", "fusion_lon": 0.0}, {"rental_uris": {"ios": "https://dc.lft.to/lastmile_qr_scan", "android": "https://dc.lft.to/lastmile_qr_scan"}, "type": "electric_scooter", "name": "fb9bf6a428a664ef57f6d614fafc0430", "is_reserved": 0, "lon": -77.04469483333334, "is_disabled": 0, "fusion_lat": 0.0, "lat": 38.909359333333335, "bike_id": "fb9bf6a428a664ef57f6d614fafc0430", "fusion_lon": 0.0}, {"rental_uris": {"ios": "https://dc.lft.to/lastmile_qr_scan", "android": "https://dc.lft.to/lastmile_qr_scan"}, "type": "electric_scooter", "name": "277ba2415854ca4afce2ccba59169ad3", "is_reserved": 0, "lon": -77.00033033333334, "is_disabled": 0, "fusion_lat": 0.0, "lat": 38.90760233333334, "bike_id": "277ba2415854ca4afce2ccba59169ad3", "fusion_lon": 0.0}, {"rental_uris": {"ios": "https://dc.lft.to/lastmile_qr_scan", "android": "https://dc.lft.to/lastmile_qr_scan"}, "type": "electric_bike", "name": "2a7fad0df30d7ebbb7abd0ee33f49dc6", "is_reserved": 0, "lon": -76.95059733333333, "is_disabled": 0, "fusion_lat": 0.0, "lat": 39.085117333333336, "bike_id": "2a7fad0df30d7ebbb7abd0ee33f49dc6", "fusion_lon": 0.0}, {"rental_uris": {"ios": "https://dc.lft.to/lastmile_qr_scan", "android": "https://dc.lft.to/lastmile_qr_scan"}, "type": "electric_scooter", "name": "a197a32d29fded3a52cd7f9d0a61da8d", "is_reserved": 0, "lon": -77.02298566666667, "is_disabled": 0, "fusion_lat": 0.0, "lat": 38.900777833333336, "bike_id": "a197a32d29fded3a52cd7f9d0a61da8d", "fusion_lon": 0.0}, {"rental_uris": {"ios": "https://dc.lft.to/lastmile_qr_scan", "android": "https://dc.lft.to/lastmile_qr_scan"}, "type": "electric_scooter", "name": "ff60a077c2c5502e7ac64c4f33f9b47b", "is_reserved": 0, "lon": -76.99489633333333, "is_disabled": 0, "fusion_lat": 0.0, "lat": 38.882305833333334, "bike_id": "ff60a077c2c5502e7ac64c4f33f9b47b", "fusion_lon": 0.0}, {"rental_uris": {"ios": "https://dc.lft.to/lastmile_qr_scan", "android": "https://dc.lft.to/lastmile_qr_scan"}, "type": "electric_scooter", "name": "a921a203db2aca4c7e0524acb554856e", "is_reserved": 0, "lon": -77.034903, "is_disabled": 0, "fusion_lat": 0.0, "lat": 38.91914233333333, "bike_id": "a921a203db2aca4c7e0524acb554856e", "fusion_lon": 0.0}, {"rental_uris": {"ios": "https://dc.lft.to/lastmile_qr_scan", "android": "https://dc.lft.to/lastmile_qr_scan"}, "type": "electric_scooter", "name": "c4217f8282265da7a9b149244ef56741", "is_reserved": 0, "lon": -77.04363233333333, "is_disabled": 0, "fusion_lat": 0.0, "lat": 38.92241333333333, "bike_id": "c4217f8282265da7a9b149244ef56741", "fusion_lon": 0.0}, {"rental_uris": {"ios": "https://dc.lft.to/lastmile_qr_scan", "android": "https://dc.lft.to/lastmile_qr_scan"}, "type": "electric_scooter", "name": "a2d172031f76da7493525ddb643e0623", "is_reserved": 0, "lon": -77.0067435, "is_disabled": 0, "fusion_lat": 0.0, "lat": 38.87664616666667, "bike_id": "a2d172031f76da7493525ddb643e0623", "fusion_lon": 0.0}, {"rental_uris": {"ios": "https://dc.lft.to/lastmile_qr_scan", "android": "https://dc.lft.to/lastmile_qr_scan"}, "type": "electric_scooter", "name": "9f675df1807fad977bc256460e4e8241", "is_reserved": 0, "lon": -77.0220655, "is_disabled": 0, "fusion_lat": 0.0, "lat": 38.91075466666667, "bike_id": "9f675df1807fad977bc256460e4e8241", "fusion_lon": 0.0}, {"rental_uris": {"ios": "https://dc.lft.to/lastmile_qr_scan", "android": "https://dc.lft.to/lastmile_qr_scan"}, "type": "electric_bike", "name": "dd4e8232c643e56d4d45f23697f538bd", "is_reserved": 0, "lon": -77.12903466666667, "is_disabled": 0, "fusion_lat": 0.0, "lat": 38.79970816666667, "bike_id": "dd4e8232c643e56d4d45f23697f538bd", "fusion_lon": 0.0}, {"rental_uris": {"ios": "https://dc.lft.to/lastmile_qr_scan", "android": "https://dc.lft.to/lastmile_qr_scan"}, "type": "electric_scooter", "name": "d074718bd15208d74272e51df9ba6461", "is_reserved": 0, "lon": -77.05502916666667, "is_disabled": 0, "fusion_lat": 0.0, "lat": 38.929763333333334, "bike_id": "d074718bd15208d74272e51df9ba6461", "fusion_lon": 0.0}, {"rental_uris": {"ios": "https://dc.lft.to/lastmile_qr_scan", "android": "https://dc.lft.to/lastmile_qr_scan"}, "type": "electric_scooter", "name": "c769598f3292bc4a37049dbfbba9a4af", "is_reserved": 0, "lon": -77.03654816666666, "is_disabled": 0, "fusion_lat": 0.0, "lat": 38.9230085, "bike_id": "c769598f3292bc4a37049dbfbba9a4af", "fusion_lon": 0.0}, {"rental_uris": {"ios": "https://dc.lft.to/lastmile_qr_scan", "android": "https://dc.lft.to/lastmile_qr_scan"}, "type": "electric_bike", "name": "7d15d59b4b02bcc2879694fb0e66cdd6", "is_reserved": 0, "lon": -76.91807133333333, "is_disabled": 0, "fusion_lat": 0.0, "lat": 39.000013333333335, "bike_id": "7d15d59b4b02bcc2879694fb0e66cdd6", "fusion_lon": 0.0}, {"rental_uris": {"ios": "https://dc.lft.to/lastmile_qr_scan", "android": "https://dc.lft.to/lastmile_qr_scan"}, "type": "electric_scooter", "name": "d8e1e3ffd940845d9776d3d0210b6c92", "is_reserved": 0, "lon": -77.00062883333334, "is_disabled": 0, "fusion_lat": 0.0, "lat": 38.87679716666667, "bike_id": "d8e1e3ffd940845d9776d3d0210b6c92", "fusion_lon": 0.0}, {"rental_uris": {"ios": "https://dc.lft.to/lastmile_qr_scan", "android": "https://dc.lft.to/lastmile_qr_scan"}, "type": "electric_scooter", "name": "89a811f105159020b9785d5251209774", "is_reserved": 0, "lon": -76.93225933333333, "is_disabled": 0, "fusion_lat": 0.0, "lat": 38.8805915, "bike_id": "89a811f105159020b9785d5251209774", "fusion_lon": 0.0}, {"rental_uris": {"ios": "https://dc.lft.to/lastmile_qr_scan", "android": "https://dc.lft.to/lastmile_qr_scan"}, "type": "electric_scooter", "name": "87a5a62a71bca89316924a1d44303ff5", "is_reserved": 0, "lon": -77.02510433333333, "is_disabled": 0, "fusion_lat": 0.0, "lat": 38.920048666666666, "bike_id": "87a5a62a71bca89316924a1d44303ff5", "fusion_lon": 0.0}, {"rental_uris": {"ios": "https://dc.lft.to/lastmile_qr_scan", "android": "https://dc.lft.to/lastmile_qr_scan"}, "type": "electric_scooter", "name": "d051df43f09777b4ba0b159dcb01e886", "is_reserved": 0, "lon": -77.0413335, "is_disabled": 0, "fusion_lat": 0.0, "lat": 38.89345183333333, "bike_id": "d051df43f09777b4ba0b159dcb01e886", "fusion_lon": 0.0}, {"rental_uris": {"ios": "https://dc.lft.to/lastmile_qr_scan", "android": "https://dc.lft.to/lastmile_qr_scan"}, "type": "electric_bike", "name": "896046c1e059b0de4c1923df0275be55", "is_reserved": 0, "lon": -77.04392683333333, "is_disabled": 0, "fusion_lat": 0.0, "lat": 38.90726166666666, "bike_id": "896046c1e059b0de4c1923df0275be55", "fusion_lon": 0.0}, {"rental_uris": {"ios": "https://dc.lft.to/lastmile_qr_scan", "android": "https://dc.lft.to/lastmile_qr_scan"}, "type": "electric_scooter", "name": "771ce2656f7823c72917fcb6a977a77a", "is_reserved": 0, "lon": -77.034545, "is_disabled": 0, "fusion_lat": 0.0, "lat": 38.9072805, "bike_id": "771ce2656f7823c72917fcb6a977a77a", "fusion_lon": 0.0}, {"rental_uris": {"ios": "https://dc.lft.to/lastmile_qr_scan", "android": "https://dc.lft.to/lastmile_qr_scan"}, "type": "electric_scooter", "name": "0d389e1805d92ecd630594079088687b", "is_reserved": 0, "lon": -77.05728633333334, "is_disabled": 0, "fusion_lat": 0.0, "lat": 38.933528333333335, "bike_id": "0d389e1805d92ecd630594079088687b", "fusion_lon": 0.0}, {"rental_uris": {"ios": "https://dc.lft.to/lastmile_qr_scan", "android": "https://dc.lft.to/lastmile_qr_scan"}, "type": "electric_scooter", "name": "8baefae3724288fbdcbaf578ef03febf", "is_reserved": 0, "lon": -77.038424, "is_disabled": 0, "fusion_lat": 0.0, "lat": 38.909909999999996, "bike_id": "8baefae3724288fbdcbaf578ef03febf", "fusion_lon": 0.0}, {"rental_uris": {"ios": "https://dc.lft.to/lastmile_qr_scan", "android": "https://dc.lft.to/lastmile_qr_scan"}, "type": "electric_scooter", "name": "5841c812a9ccdd301e3e0689e0c70f3f", "is_reserved": 0, "lon": -77.03462666666667, "is_disabled": 0, "fusion_lat": 0.0, "lat": 38.90554933333333, "bike_id": "5841c812a9ccdd301e3e0689e0c70f3f", "fusion_lon": 0.0}, {"rental_uris": {"ios": "https://dc.lft.to/lastmile_qr_scan", "android": "https://dc.lft.to/lastmile_qr_scan"}, "type": "electric_scooter", "name": "5dd70a1a6a33208bff5d5f5894c79d5c", "is_reserved": 0, "lon": -77.03172766666667, "is_disabled": 0, "fusion_lat": 0.0, "lat": 38.906128333333335, "bike_id": "5dd70a1a6a33208bff5d5f5894c79d5c", "fusion_lon": 0.0}, {"rental_uris": {"ios": "https://dc.lft.to/lastmile_qr_scan", "android": "https://dc.lft.to/lastmile_qr_scan"}, "type": "electric_scooter", "name": "330985a0eedc9dd44f981c6e97f99d95", "is_reserved": 0, "lon": -77.00209333333333, "is_disabled": 0, "fusion_lat": 0.0, "lat": 38.898138, "bike_id": "330985a0eedc9dd44f981c6e97f99d95", "fusion_lon": 0.0}, {"rental_uris": {"ios": "https://dc.lft.to/lastmile_qr_scan", "android": "https://dc.lft.to/lastmile_qr_scan"}, "type": "electric_bike", "name": "bf34d00c0abf47721c69ee7f40a1a741", "is_reserved": 0, "lon": -77.22184983333334, "is_disabled": 0, "fusion_lat": 0.0, "lat": 38.8717025, "bike_id": "bf34d00c0abf47721c69ee7f40a1a741", "fusion_lon": 0.0}, {"rental_uris": {"ios": "https://dc.lft.to/lastmile_qr_scan", "android": "https://dc.lft.to/lastmile_qr_scan"}, "type": "electric_scooter", "name": "f6f410a60ac7d563425a54f85b758f46", "is_reserved": 0, "lon": -77.00049, "is_disabled": 0, "fusion_lat": 0.0, "lat": 38.907614333333335, "bike_id": "f6f410a60ac7d563425a54f85b758f46", "fusion_lon": 0.0}, {"rental_uris": {"ios": "https://dc.lft.to/lastmile_qr_scan", "android": "https://dc.lft.to/lastmile_qr_scan"}, "type": "electric_scooter", "name": "a9a0bf75cefc99488c39685486321fce", "is_reserved": 0, "lon": -77.00061366666667, "is_disabled": 0, "fusion_lat": 0.0, "lat": 38.88112683333333, "bike_id": "a9a0bf75cefc99488c39685486321fce", "fusion_lon": 0.0}, {"rental_uris": {"ios": "https://dc.lft.to/lastmile_qr_scan", "android": "https://dc.lft.to/lastmile_qr_scan"}, "type": "electric_scooter", "name": "9a38fd87f615606c6856154312e1ee71", "is_reserved": 0, "lon": -77.05111, "is_disabled": 0, "fusion_lat": 0.0, "lat": 38.8977105, "bike_id": "9a38fd87f615606c6856154312e1ee71", "fusion_lon": 0.0}, {"rental_uris": {"ios": "https://dc.lft.to/lastmile_qr_scan", "android": "https://dc.lft.to/lastmile_qr_scan"}, "type": "electric_scooter", "name": "e46b07f2370d16b486ab55e24cf83d2a", "is_reserved": 0, "lon": -77.04468616666666, "is_disabled": 0, "fusion_lat": 0.0, "lat": 38.9191855, "bike_id": "e46b07f2370d16b486ab55e24cf83d2a", "fusion_lon": 0.0}, {"rental_uris": {"ios": "https://dc.lft.to/lastmile_qr_scan", "android": "https://dc.lft.to/lastmile_qr_scan"}, "type": "electric_scooter", "name": "17026692fb66ca18b5b3795ee7bc921f", "is_reserved": 0, "lon": -77.0260955, "is_disabled": 0, "fusion_lat": 0.0, "lat": 38.92432316666667, "bike_id": "17026692fb66ca18b5b3795ee7bc921f", "fusion_lon": 0.0}, {"rental_uris": {"ios": "https://dc.lft.to/lastmile_qr_scan", "android": "https://dc.lft.to/lastmile_qr_scan"}, "type": "electric_scooter", "name": "a61161a5a7fe2b42ef70636771c3517a", "is_reserved": 0, "lon": -76.9573675, "is_disabled": 0, "fusion_lat": 0.0, "lat": 38.88392483333333, "bike_id": "a61161a5a7fe2b42ef70636771c3517a", "fusion_lon": 0.0}, {"rental_uris": {"ios": "https://dc.lft.to/lastmile_qr_scan", "android": "https://dc.lft.to/lastmile_qr_scan"}, "type": "electric_scooter", "name": "650590beb65ee23f9c1d2479b583e0e5", "is_reserved": 0, "lon": -77.03443466666667, "is_disabled": 0, "fusion_lat": 0.0, "lat": 38.918024333333335, "bike_id": "650590beb65ee23f9c1d2479b583e0e5", "fusion_lon": 0.0}, {"rental_uris": {"ios": "https://dc.lft.to/lastmile_qr_scan", "android": "https://dc.lft.to/lastmile_qr_scan"}, "type": "electric_scooter", "name": "f143728f52f84fc5fc732c722e36f0a3", "is_reserved": 0, "lon": -77.02934883333333, "is_disabled": 0, "fusion_lat": 0.0, "lat": 38.90411266666667, "bike_id": "f143728f52f84fc5fc732c722e36f0a3", "fusion_lon": 0.0}, {"rental_uris": {"ios": "https://dc.lft.to/lastmile_qr_scan", "android": "https://dc.lft.to/lastmile_qr_scan"}, "type": "electric_scooter", "name": "d1c856e8f1cfe91c204fa171d39293f9", "is_reserved": 0, "lon": -77.062779, "is_disabled": 0, "fusion_lat": 0.0, "lat": 38.912412, "bike_id": "d1c856e8f1cfe91c204fa171d39293f9", "fusion_lon": 0.0}, {"rental_uris": {"ios": "https://dc.lft.to/lastmile_qr_scan", "android": "https://dc.lft.to/lastmile_qr_scan"}, "type": "electric_scooter", "name": "f626b0f5ecee2a27912e5b3ca2605c61", "is_reserved": 0, "lon": -77.02111566666666, "is_disabled": 0, "fusion_lat": 0.0, "lat": 38.9269105, "bike_id": "f626b0f5ecee2a27912e5b3ca2605c61", "fusion_lon": 0.0}, {"rental_uris": {"ios": "https://dc.lft.to/lastmile_qr_scan", "android": "https://dc.lft.to/lastmile_qr_scan"}, "type": "electric_scooter", "name": "590f4b92cc9ff964ca6f09161cfbacc9", "is_reserved": 0, "lon": -77.02792966666667, "is_disabled": 0, "fusion_lat": 0.0, "lat": 38.90116366666667, "bike_id": "590f4b92cc9ff964ca6f09161cfbacc9", "fusion_lon": 0.0}, {"rental_uris": {"ios": "https://dc.lft.to/lastmile_qr_scan", "android": "https://dc.lft.to/lastmile_qr_scan"}, "type": "electric_scooter", "name": "ed2467f226d4a177e919f45b69cbbf84", "is_reserved": 0, "lon": -77.0281055, "is_disabled": 0, "fusion_lat": 0.0, "lat": 38.89906633333333, "bike_id": "ed2467f226d4a177e919f45b69cbbf84", "fusion_lon": 0.0}, {"rental_uris": {"ios": "https://dc.lft.to/lastmile_qr_scan", "android": "https://dc.lft.to/lastmile_qr_scan"}, "type": "electric_scooter", "name": "0508e0470980b685a8453fdd3ca7b71d", "is_reserved": 0, "lon": -77.038525, "is_disabled": 0, "fusion_lat": 0.0, "lat": 38.90958216666667, "bike_id": "0508e0470980b685a8453fdd3ca7b71d", "fusion_lon": 0.0}, {"rental_uris": {"ios": "https://dc.lft.to/lastmile_qr_scan", "android": "https://dc.lft.to/lastmile_qr_scan"}, "type": "electric_scooter", "name": "0b269e0203eef0b3a55258d6299116b9", "is_reserved": 0, "lon": -77.04337933333333, "is_disabled": 0, "fusion_lat": 0.0, "lat": 38.9130225, "bike_id": "0b269e0203eef0b3a55258d6299116b9", "fusion_lon": 0.0}, {"rental_uris": {"ios": "https://dc.lft.to/lastmile_qr_scan", "android": "https://dc.lft.to/lastmile_qr_scan"}, "type": "electric_scooter", "name": "7dda3ff093aebce5d4bc5e8f20bbd351", "is_reserved": 0, "lon": -77.025059, "is_disabled": 0, "fusion_lat": 0.0, "lat": 38.91954366666667, "bike_id": "7dda3ff093aebce5d4bc5e8f20bbd351", "fusion_lon": 0.0}, {"rental_uris": {"ios": "https://dc.lft.to/lastmile_qr_scan", "android": "https://dc.lft.to/lastmile_qr_scan"}, "type": "electric_scooter", "name": "0c034e9ead0b6e7ef6de9e2984e3347f", "is_reserved": 0, "lon": -76.98539016666666, "is_disabled": 0, "fusion_lat": 0.0, "lat": 38.912985166666665, "bike_id": "0c034e9ead0b6e7ef6de9e2984e3347f", "fusion_lon": 0.0}, {"rental_uris": {"ios": "https://dc.lft.to/lastmile_qr_scan", "android": "https://dc.lft.to/lastmile_qr_scan"}, "type": "electric_scooter", "name": "4f17a7735649cf7935e554ad4b74f344", "is_reserved": 0, "lon": -77.02675866666667, "is_disabled": 0, "fusion_lat": 0.0, "lat": 38.91704816666667, "bike_id": "4f17a7735649cf7935e554ad4b74f344", "fusion_lon": 0.0}, {"rental_uris": {"ios": "https://dc.lft.to/lastmile_qr_scan", "android": "https://dc.lft.to/lastmile_qr_scan"}, "type": "electric_scooter", "name": "e08047bd52e11637f31d41397e226331", "is_reserved": 0, "lon": -77.02962583333333, "is_disabled": 0, "fusion_lat": 0.0, "lat": 38.9167615, "bike_id": "e08047bd52e11637f31d41397e226331", "fusion_lon": 0.0}, {"rental_uris": {"ios": "https://dc.lft.to/lastmile_qr_scan", "android": "https://dc.lft.to/lastmile_qr_scan"}, "type": "electric_scooter", "name": "78ad6ce710789cf3ea9fc1789445d623", "is_reserved": 0, "lon": -77.045629, "is_disabled": 0, "fusion_lat": 0.0, "lat": 38.90082366666667, "bike_id": "78ad6ce710789cf3ea9fc1789445d623", "fusion_lon": 0.0}, {"rental_uris": {"ios": "https://dc.lft.to/lastmile_qr_scan", "android": "https://dc.lft.to/lastmile_qr_scan"}, "type": "electric_scooter", "name": "4878c0295674795601cbe374dfbe452a", "is_reserved": 0, "lon": -77.028132, "is_disabled": 0, "fusion_lat": 0.0, "lat": 38.892291166666666, "bike_id": "4878c0295674795601cbe374dfbe452a", "fusion_lon": 0.0}, {"rental_uris": {"ios": "https://dc.lft.to/lastmile_qr_scan", "android": "https://dc.lft.to/lastmile_qr_scan"}, "type": "electric_scooter", "name": "a6773420d9cab653f6f5975464696869", "is_reserved": 0, "lon": -77.038121, "is_disabled": 0, "fusion_lat": 0.0, "lat": 38.9311615, "bike_id": "a6773420d9cab653f6f5975464696869", "fusion_lon": 0.0}, {"rental_uris": {"ios": "https://dc.lft.to/lastmile_qr_scan", "android": "https://dc.lft.to/lastmile_qr_scan"}, "type": "electric_bike", "name": "e82faff8a04ecd004c013c3449afbffc", "is_reserved": 0, "lon": -77.02228816666667, "is_disabled": 0, "fusion_lat": 0.0, "lat": 38.912664666666664, "bike_id": "e82faff8a04ecd004c013c3449afbffc", "fusion_lon": 0.0}, {"rental_uris": {"ios": "https://dc.lft.to/lastmile_qr_scan", "android": "https://dc.lft.to/lastmile_qr_scan"}, "type": "electric_scooter", "name": "deafbed4e3879a78a4c21843bb8b7ccf", "is_reserved": 0, "lon": -77.07163733333333, "is_disabled": 0, "fusion_lat": 0.0, "lat": 38.9076, "bike_id": "deafbed4e3879a78a4c21843bb8b7ccf", "fusion_lon": 0.0}, {"rental_uris": {"ios": "https://dc.lft.to/lastmile_qr_scan", "android": "https://dc.lft.to/lastmile_qr_scan"}, "type": "electric_scooter", "name": "a1970392ec4a6f205a3a792d816de00c", "is_reserved": 0, "lon": -76.92951016666666, "is_disabled": 0, "fusion_lat": 0.0, "lat": 38.903368666666665, "bike_id": "a1970392ec4a6f205a3a792d816de00c", "fusion_lon": 0.0}, {"rental_uris": {"ios": "https://dc.lft.to/lastmile_qr_scan", "android": "https://dc.lft.to/lastmile_qr_scan"}, "type": "electric_scooter", "name": "9c3c61a016579fa80f817fb7a378e977", "is_reserved": 0, "lon": -77.0634725, "is_disabled": 0, "fusion_lat": 0.0, "lat": 38.94365716666667, "bike_id": "9c3c61a016579fa80f817fb7a378e977", "fusion_lon": 0.0}, {"rental_uris": {"ios": "https://dc.lft.to/lastmile_qr_scan", "android": "https://dc.lft.to/lastmile_qr_scan"}, "type": "electric_scooter", "name": "876a4f2ace5b94398ee330123f675b0a", "is_reserved": 0, "lon": -77.02366666666667, "is_disabled": 0, "fusion_lat": 0.0, "lat": 38.90644416666667, "bike_id": "876a4f2ace5b94398ee330123f675b0a", "fusion_lon": 0.0}, {"rental_uris": {"ios": "https://dc.lft.to/lastmile_qr_scan", "android": "https://dc.lft.to/lastmile_qr_scan"}, "type": "electric_bike", "name": "ddd47d846f7079cd5dda706a223c993d", "is_reserved": 0, "lon": -76.9630575, "is_disabled": 0, "fusion_lat": 0.0, "lat": 38.897028, "bike_id": "ddd47d846f7079cd5dda706a223c993d", "fusion_lon": 0.0}, {"rental_uris": {"ios": "https://dc.lft.to/lastmile_qr_scan", "android": "https://dc.lft.to/lastmile_qr_scan"}, "type": "electric_scooter", "name": "1f40b8d5004be2d6455a6be2e7f9be7c", "is_reserved": 0, "lon": -77.04014583333333, "is_disabled": 0, "fusion_lat": 0.0, "lat": 38.922426, "bike_id": "1f40b8d5004be2d6455a6be2e7f9be7c", "fusion_lon": 0.0}, {"rental_uris": {"ios": "https://dc.lft.to/lastmile_qr_scan", "android": "https://dc.lft.to/lastmile_qr_scan"}, "type": "electric_scooter", "name": "71fe281d83e6c3bf1bafda1079fea8cd", "is_reserved": 0, "lon": -77.040292, "is_disabled": 0, "fusion_lat": 0.0, "lat": 38.899311833333336, "bike_id": "71fe281d83e6c3bf1bafda1079fea8cd", "fusion_lon": 0.0}, {"rental_uris": {"ios": "https://dc.lft.to/lastmile_qr_scan", "android": "https://dc.lft.to/lastmile_qr_scan"}, "type": "electric_scooter", "name": "615ebc4d77ae14640c8468e32c4e6cc2", "is_reserved": 0, "lon": -77.006389, "is_disabled": 0, "fusion_lat": 0.0, "lat": 38.878666833333334, "bike_id": "615ebc4d77ae14640c8468e32c4e6cc2", "fusion_lon": 0.0}, {"rental_uris": {"ios": "https://dc.lft.to/lastmile_qr_scan", "android": "https://dc.lft.to/lastmile_qr_scan"}, "type": "electric_scooter", "name": "0c7ab24c7c9fb8826fe7ad8f1f2b2695", "is_reserved": 0, "lon": -77.050834, "is_disabled": 0, "fusion_lat": 0.0, "lat": 38.90390216666667, "bike_id": "0c7ab24c7c9fb8826fe7ad8f1f2b2695", "fusion_lon": 0.0}, {"rental_uris": {"ios": "https://dc.lft.to/lastmile_qr_scan", "android": "https://dc.lft.to/lastmile_qr_scan"}, "type": "electric_scooter", "name": "a0a47a6e5689f273992e43cfd719e78a", "is_reserved": 0, "lon": -76.9438235, "is_disabled": 0, "fusion_lat": 0.0, "lat": 38.89115483333333, "bike_id": "a0a47a6e5689f273992e43cfd719e78a", "fusion_lon": 0.0}, {"rental_uris": {"ios": "https://dc.lft.to/lastmile_qr_scan", "android": "https://dc.lft.to/lastmile_qr_scan"}, "type": "electric_scooter", "name": "614aa3c93cc9286bcc52f829eee88e2a", "is_reserved": 0, "lon": -77.03621516666666, "is_disabled": 0, "fusion_lat": 0.0, "lat": 38.9233405, "bike_id": "614aa3c93cc9286bcc52f829eee88e2a", "fusion_lon": 0.0}, {"rental_uris": {"ios": "https://dc.lft.to/lastmile_qr_scan", "android": "https://dc.lft.to/lastmile_qr_scan"}, "type": "electric_scooter", "name": "c25adb114832f2ecb5d3db1899a81e63", "is_reserved": 0, "lon": -76.95258616666666, "is_disabled": 0, "fusion_lat": 0.0, "lat": 38.89275133333334, "bike_id": "c25adb114832f2ecb5d3db1899a81e63", "fusion_lon": 0.0}, {"rental_uris": {"ios": "https://dc.lft.to/lastmile_qr_scan", "android": "https://dc.lft.to/lastmile_qr_scan"}, "type": "electric_scooter", "name": "25ca0017f7303539500b713bd8565ca6", "is_reserved": 0, "lon": -76.94654383333334, "is_disabled": 0, "fusion_lat": 0.0, "lat": 38.898304, "bike_id": "25ca0017f7303539500b713bd8565ca6", "fusion_lon": 0.0}, {"rental_uris": {"ios": "https://dc.lft.to/lastmile_qr_scan", "android": "https://dc.lft.to/lastmile_qr_scan"}, "type": "electric_scooter", "name": "2afc6739972ea74ff96a307597da92d6", "is_reserved": 0, "lon": -77.03854166666666, "is_disabled": 0, "fusion_lat": 0.0, "lat": 38.910922, "bike_id": "2afc6739972ea74ff96a307597da92d6", "fusion_lon": 0.0}, {"rental_uris": {"ios": "https://dc.lft.to/lastmile_qr_scan", "android": "https://dc.lft.to/lastmile_qr_scan"}, "type": "electric_scooter", "name": "98ff2da88955323766bbd6489dbdd388", "is_reserved": 0, "lon": -76.97548033333334, "is_disabled": 0, "fusion_lat": 0.0, "lat": 38.87577683333333, "bike_id": "98ff2da88955323766bbd6489dbdd388", "fusion_lon": 0.0}, {"rental_uris": {"ios": "https://dc.lft.to/lastmile_qr_scan", "android": "https://dc.lft.to/lastmile_qr_scan"}, "type": "electric_bike", "name": "9ac738056d81f0d2a1560c662bffe8e2", "is_reserved": 0, "lon": -77.09524766666667, "is_disabled": 0, "fusion_lat": 0.0, "lat": 38.8381455, "bike_id": "9ac738056d81f0d2a1560c662bffe8e2", "fusion_lon": 0.0}, {"rental_uris": {"ios": "https://dc.lft.to/lastmile_qr_scan", "android": "https://dc.lft.to/lastmile_qr_scan"}, "type": "electric_scooter", "name": "ea7593fdab155614c2cb21b8f6d45be4", "is_reserved": 0, "lon": -77.06522916666667, "is_disabled": 0, "fusion_lat": 0.0, "lat": 38.905122666666664, "bike_id": "ea7593fdab155614c2cb21b8f6d45be4", "fusion_lon": 0.0}, {"rental_uris": {"ios": "https://dc.lft.to/lastmile_qr_scan", "android": "https://dc.lft.to/lastmile_qr_scan"}, "type": "electric_scooter", "name": "8deb04467cb670e1c21dd1e699f3a99b", "is_reserved": 0, "lon": -77.02830483333334, "is_disabled": 0, "fusion_lat": 0.0, "lat": 38.89342883333333, "bike_id": "8deb04467cb670e1c21dd1e699f3a99b", "fusion_lon": 0.0}, {"rental_uris": {"ios": "https://dc.lft.to/lastmile_qr_scan", "android": "https://dc.lft.to/lastmile_qr_scan"}, "type": "electric_scooter", "name": "f075d8da6533f5e275b105b033b17483", "is_reserved": 0, "lon": -77.0111785, "is_disabled": 0, "fusion_lat": 0.0, "lat": 38.89570283333333, "bike_id": "f075d8da6533f5e275b105b033b17483", "fusion_lon": 0.0}, {"rental_uris": {"ios": "https://dc.lft.to/lastmile_qr_scan", "android": "https://dc.lft.to/lastmile_qr_scan"}, "type": "electric_scooter", "name": "e529d47dec4a3b0bd18eb99c024a9160", "is_reserved": 0, "lon": -76.98702866666666, "is_disabled": 0, "fusion_lat": 0.0, "lat": 38.85965216666666, "bike_id": "e529d47dec4a3b0bd18eb99c024a9160", "fusion_lon": 0.0}, {"rental_uris": {"ios": "https://dc.lft.to/lastmile_qr_scan", "android": "https://dc.lft.to/lastmile_qr_scan"}, "type": "electric_scooter", "name": "f546865039847175df62590086f5008f", "is_reserved": 0, "lon": -77.02717616666666, "is_disabled": 0, "fusion_lat": 0.0, "lat": 38.9101795, "bike_id": "f546865039847175df62590086f5008f", "fusion_lon": 0.0}, {"rental_uris": {"ios": "https://dc.lft.to/lastmile_qr_scan", "android": "https://dc.lft.to/lastmile_qr_scan"}, "type": "electric_scooter", "name": "1bba585a4afa61ab663fd4947ae0f3c0", "is_reserved": 0, "lon": -77.05323866666667, "is_disabled": 0, "fusion_lat": 0.0, "lat": 38.90643816666667, "bike_id": "1bba585a4afa61ab663fd4947ae0f3c0", "fusion_lon": 0.0}, {"rental_uris": {"ios": "https://dc.lft.to/lastmile_qr_scan", "android": "https://dc.lft.to/lastmile_qr_scan"}, "type": "electric_scooter", "name": "60595d59f561a8ac96c034ce80b5ff04", "is_reserved": 0, "lon": -77.02666216666667, "is_disabled": 0, "fusion_lat": 0.0, "lat": 38.8961155, "bike_id": "60595d59f561a8ac96c034ce80b5ff04", "fusion_lon": 0.0}, {"rental_uris": {"ios": "https://dc.lft.to/lastmile_qr_scan", "android": "https://dc.lft.to/lastmile_qr_scan"}, "type": "electric_scooter", "name": "2b29b05d147084765b6e28a1a9d33c63", "is_reserved": 0, "lon": -77.01216833333334, "is_disabled": 0, "fusion_lat": 0.0, "lat": 38.8697175, "bike_id": "2b29b05d147084765b6e28a1a9d33c63", "fusion_lon": 0.0}, {"rental_uris": {"ios": "https://dc.lft.to/lastmile_qr_scan", "android": "https://dc.lft.to/lastmile_qr_scan"}, "type": "electric_scooter", "name": "99b855d3ccc821a7241aa501b3b602a7", "is_reserved": 0, "lon": -77.00054683333333, "is_disabled": 0, "fusion_lat": 0.0, "lat": 38.873702, "bike_id": "99b855d3ccc821a7241aa501b3b602a7", "fusion_lon": 0.0}, {"rental_uris": {"ios": "https://dc.lft.to/lastmile_qr_scan", "android": "https://dc.lft.to/lastmile_qr_scan"}, "type": "electric_scooter", "name": "6586747370e0e754ca2fcdcce50ccecb", "is_reserved": 0, "lon": -77.024037, "is_disabled": 0, "fusion_lat": 0.0, "lat": 38.91326766666667, "bike_id": "6586747370e0e754ca2fcdcce50ccecb", "fusion_lon": 0.0}, {"rental_uris": {"ios": "https://dc.lft.to/lastmile_qr_scan", "android": "https://dc.lft.to/lastmile_qr_scan"}, "type": "electric_scooter", "name": "846dc5302a44321aa23c057e6818fe5c", "is_reserved": 0, "lon": -77.08181, "is_disabled": 0, "fusion_lat": 0.0, "lat": 38.9332335, "bike_id": "846dc5302a44321aa23c057e6818fe5c", "fusion_lon": 0.0}, {"rental_uris": {"ios": "https://dc.lft.to/lastmile_qr_scan", "android": "https://dc.lft.to/lastmile_qr_scan"}, "type": "electric_scooter", "name": "0ea60e20944bb56776d525510ae5f799", "is_reserved": 0, "lon": -76.97364566666667, "is_disabled": 0, "fusion_lat": 0.0, "lat": 38.850242, "bike_id": "0ea60e20944bb56776d525510ae5f799", "fusion_lon": 0.0}, {"rental_uris": {"ios": "https://dc.lft.to/lastmile_qr_scan", "android": "https://dc.lft.to/lastmile_qr_scan"}, "type": "electric_scooter", "name": "2bcdd10dc2cd63af18ad0ee489f80034", "is_reserved": 0, "lon": -77.04350583333333, "is_disabled": 0, "fusion_lat": 0.0, "lat": 38.913503, "bike_id": "2bcdd10dc2cd63af18ad0ee489f80034", "fusion_lon": 0.0}, {"rental_uris": {"ios": "https://dc.lft.to/lastmile_qr_scan", "android": "https://dc.lft.to/lastmile_qr_scan"}, "type": "electric_scooter", "name": "dd99bddc23545402f3c41fe9c2f7c62e", "is_reserved": 0, "lon": -76.9545375, "is_disabled": 0, "fusion_lat": 0.0, "lat": 38.883932333333334, "bike_id": "dd99bddc23545402f3c41fe9c2f7c62e", "fusion_lon": 0.0}, {"rental_uris": {"ios": "https://dc.lft.to/lastmile_qr_scan", "android": "https://dc.lft.to/lastmile_qr_scan"}, "type": "electric_scooter", "name": "d320380017e0f7435716eba7d994761c", "is_reserved": 0, "lon": -76.99515083333333, "is_disabled": 0, "fusion_lat": 0.0, "lat": 38.88989383333333, "bike_id": "d320380017e0f7435716eba7d994761c", "fusion_lon": 0.0}, {"rental_uris": {"ios": "https://dc.lft.to/lastmile_qr_scan", "android": "https://dc.lft.to/lastmile_qr_scan"}, "type": "electric_scooter", "name": "b9ab10d7f1af344a018e9b63a70a51b0", "is_reserved": 0, "lon": -76.990199, "is_disabled": 0, "fusion_lat": 0.0, "lat": 38.864368, "bike_id": "b9ab10d7f1af344a018e9b63a70a51b0", "fusion_lon": 0.0}, {"rental_uris": {"ios": "https://dc.lft.to/lastmile_qr_scan", "android": "https://dc.lft.to/lastmile_qr_scan"}, "type": "electric_scooter", "name": "ad2d49a004ff6bd146eb0aae3337b482", "is_reserved": 0, "lon": -77.02958383333333, "is_disabled": 0, "fusion_lat": 0.0, "lat": 38.9125205, "bike_id": "ad2d49a004ff6bd146eb0aae3337b482", "fusion_lon": 0.0}, {"rental_uris": {"ios": "https://dc.lft.to/lastmile_qr_scan", "android": "https://dc.lft.to/lastmile_qr_scan"}, "type": "electric_scooter", "name": "e17f4a68f3feca55ebb488072d7b99db", "is_reserved": 0, "lon": -77.03866383333333, "is_disabled": 0, "fusion_lat": 0.0, "lat": 38.90809733333333, "bike_id": "e17f4a68f3feca55ebb488072d7b99db", "fusion_lon": 0.0}, {"rental_uris": {"ios": "https://dc.lft.to/lastmile_qr_scan", "android": "https://dc.lft.to/lastmile_qr_scan"}, "type": "electric_scooter", "name": "c318b46809d1a5b4051bf114475cad0e", "is_reserved": 0, "lon": -76.96527783333333, "is_disabled": 0, "fusion_lat": 0.0, "lat": 38.876325, "bike_id": "c318b46809d1a5b4051bf114475cad0e", "fusion_lon": 0.0}, {"rental_uris": {"ios": "https://dc.lft.to/lastmile_qr_scan", "android": "https://dc.lft.to/lastmile_qr_scan"}, "type": "electric_scooter", "name": "fc23ec2cf23a2e47a97afb5a4bb2e974", "is_reserved": 0, "lon": -77.016121, "is_disabled": 0, "fusion_lat": 0.0, "lat": 38.906090666666664, "bike_id": "fc23ec2cf23a2e47a97afb5a4bb2e974", "fusion_lon": 0.0}, {"rental_uris": {"ios": "https://dc.lft.to/lastmile_qr_scan", "android": "https://dc.lft.to/lastmile_qr_scan"}, "type": "electric_scooter", "name": "a72b083b581352b5254c68afc0920375", "is_reserved": 0, "lon": -77.03779883333333, "is_disabled": 0, "fusion_lat": 0.0, "lat": 38.92533366666667, "bike_id": "a72b083b581352b5254c68afc0920375", "fusion_lon": 0.0}, {"rental_uris": {"ios": "https://dc.lft.to/lastmile_qr_scan", "android": "https://dc.lft.to/lastmile_qr_scan"}, "type": "electric_scooter", "name": "21cf65dd7ad13763de8243ce2afd7d4f", "is_reserved": 0, "lon": -76.99476533333333, "is_disabled": 0, "fusion_lat": 0.0, "lat": 38.862155, "bike_id": "21cf65dd7ad13763de8243ce2afd7d4f", "fusion_lon": 0.0}, {"rental_uris": {"ios": "https://dc.lft.to/lastmile_qr_scan", "android": "https://dc.lft.to/lastmile_qr_scan"}, "type": "electric_scooter", "name": "a9b02ef9ef611a1a685939d341aa22cb", "is_reserved": 0, "lon": -76.99516366666667, "is_disabled": 0, "fusion_lat": 0.0, "lat": 38.8878455, "bike_id": "a9b02ef9ef611a1a685939d341aa22cb", "fusion_lon": 0.0}, {"rental_uris": {"ios": "https://dc.lft.to/lastmile_qr_scan", "android": "https://dc.lft.to/lastmile_qr_scan"}, "type": "electric_scooter", "name": "e7e32bfd220e835a4146ca50d5295c9f", "is_reserved": 0, "lon": -77.02484866666667, "is_disabled": 0, "fusion_lat": 0.0, "lat": 38.9388425, "bike_id": "e7e32bfd220e835a4146ca50d5295c9f", "fusion_lon": 0.0}, {"rental_uris": {"ios": "https://dc.lft.to/lastmile_qr_scan", "android": "https://dc.lft.to/lastmile_qr_scan"}, "type": "electric_scooter", "name": "973beb217e3f5e15ca4cfcd8fefe43ed", "is_reserved": 0, "lon": -77.043328, "is_disabled": 0, "fusion_lat": 0.0, "lat": 38.93432333333333, "bike_id": "973beb217e3f5e15ca4cfcd8fefe43ed", "fusion_lon": 0.0}, {"rental_uris": {"ios": "https://dc.lft.to/lastmile_qr_scan", "android": "https://dc.lft.to/lastmile_qr_scan"}, "type": "electric_scooter", "name": "394d3550a8d2a154c8826fa5fcbe4dae", "is_reserved": 0, "lon": -77.040636, "is_disabled": 0, "fusion_lat": 0.0, "lat": 38.91770916666667, "bike_id": "394d3550a8d2a154c8826fa5fcbe4dae", "fusion_lon": 0.0}, {"rental_uris": {"ios": "https://dc.lft.to/lastmile_qr_scan", "android": "https://dc.lft.to/lastmile_qr_scan"}, "type": "electric_scooter", "name": "1f4ca698de6dcc5e86b0124cf0113de5", "is_reserved": 0, "lon": -77.06320566666666, "is_disabled": 0, "fusion_lat": 0.0, "lat": 38.94335383333333, "bike_id": "1f4ca698de6dcc5e86b0124cf0113de5", "fusion_lon": 0.0}, {"rental_uris": {"ios": "https://dc.lft.to/lastmile_qr_scan", "android": "https://dc.lft.to/lastmile_qr_scan"}, "type": "electric_bike", "name": "eb95ea1d92f80efb9a30de8df0df2c75", "is_reserved": 0, "lon": -77.1140975, "is_disabled": 0, "fusion_lat": 0.0, "lat": 38.8732705, "bike_id": "eb95ea1d92f80efb9a30de8df0df2c75", "fusion_lon": 0.0}, {"rental_uris": {"ios": "https://dc.lft.to/lastmile_qr_scan", "android": "https://dc.lft.to/lastmile_qr_scan"}, "type": "electric_scooter", "name": "42a54d91fbe73006db0c8fbd448ac320", "is_reserved": 0, "lon": -77.04876633333333, "is_disabled": 0, "fusion_lat": 0.0, "lat": 38.91055266666667, "bike_id": "42a54d91fbe73006db0c8fbd448ac320", "fusion_lon": 0.0}, {"rental_uris": {"ios": "https://dc.lft.to/lastmile_qr_scan", "android": "https://dc.lft.to/lastmile_qr_scan"}, "type": "electric_scooter", "name": "81156a62a26af5f8a69ab237108d8fb6", "is_reserved": 0, "lon": -77.04867933333334, "is_disabled": 0, "fusion_lat": 0.0, "lat": 38.9126435, "bike_id": "81156a62a26af5f8a69ab237108d8fb6", "fusion_lon": 0.0}, {"rental_uris": {"ios": "https://dc.lft.to/lastmile_qr_scan", "android": "https://dc.lft.to/lastmile_qr_scan"}, "type": "electric_scooter", "name": "59d9850ea2cd42780dc62d9821157ee0", "is_reserved": 0, "lon": -77.04349216666667, "is_disabled": 0, "fusion_lat": 0.0, "lat": 38.910383, "bike_id": "59d9850ea2cd42780dc62d9821157ee0", "fusion_lon": 0.0}, {"rental_uris": {"ios": "https://dc.lft.to/lastmile_qr_scan", "android": "https://dc.lft.to/lastmile_qr_scan"}, "type": "electric_scooter", "name": "29c90dddd411ac2ce716595d3d0f9f2b", "is_reserved": 0, "lon": -77.02842366666667, "is_disabled": 0, "fusion_lat": 0.0, "lat": 38.9025915, "bike_id": "29c90dddd411ac2ce716595d3d0f9f2b", "fusion_lon": 0.0}, {"rental_uris": {"ios": "https://dc.lft.to/lastmile_qr_scan", "android": "https://dc.lft.to/lastmile_qr_scan"}, "type": "electric_scooter", "name": "2fb020ef646e74179e9082984fe63436", "is_reserved": 0, "lon": -77.02832716666667, "is_disabled": 0, "fusion_lat": 0.0, "lat": 38.957260833333336, "bike_id": "2fb020ef646e74179e9082984fe63436", "fusion_lon": 0.0}, {"rental_uris": {"ios": "https://dc.lft.to/lastmile_qr_scan", "android": "https://dc.lft.to/lastmile_qr_scan"}, "type": "electric_scooter", "name": "5f5f39ee8771e097582bd5b70b6e3ccc", "is_reserved": 0, "lon": -76.98375483333334, "is_disabled": 0, "fusion_lat": 0.0, "lat": 38.8913655, "bike_id": "5f5f39ee8771e097582bd5b70b6e3ccc", "fusion_lon": 0.0}, {"rental_uris": {"ios": "https://dc.lft.to/lastmile_qr_scan", "android": "https://dc.lft.to/lastmile_qr_scan"}, "type": "electric_scooter", "name": "5a7c98188829f6411aa62d7da91b6a62", "is_reserved": 0, "lon": -77.03250366666667, "is_disabled": 0, "fusion_lat": 0.0, "lat": 38.90412366666666, "bike_id": "5a7c98188829f6411aa62d7da91b6a62", "fusion_lon": 0.0}, {"rental_uris": {"ios": "https://dc.lft.to/lastmile_qr_scan", "android": "https://dc.lft.to/lastmile_qr_scan"}, "type": "electric_scooter", "name": "268630af98f8d07a07bc6d3175876d79", "is_reserved": 0, "lon": -77.06834783333333, "is_disabled": 0, "fusion_lat": 0.0, "lat": 38.91729183333333, "bike_id": "268630af98f8d07a07bc6d3175876d79", "fusion_lon": 0.0}, {"rental_uris": {"ios": "https://dc.lft.to/lastmile_qr_scan", "android": "https://dc.lft.to/lastmile_qr_scan"}, "type": "electric_scooter", "name": "6c17b44f799bb65a18838a15b24f6957", "is_reserved": 0, "lon": -76.98451816666666, "is_disabled": 0, "fusion_lat": 0.0, "lat": 38.914690666666665, "bike_id": "6c17b44f799bb65a18838a15b24f6957", "fusion_lon": 0.0}, {"rental_uris": {"ios": "https://dc.lft.to/lastmile_qr_scan", "android": "https://dc.lft.to/lastmile_qr_scan"}, "type": "electric_scooter", "name": "24ffc76ce926fc60a434f3148ae25bba", "is_reserved": 0, "lon": -77.008218, "is_disabled": 0, "fusion_lat": 0.0, "lat": 38.91567083333333, "bike_id": "24ffc76ce926fc60a434f3148ae25bba", "fusion_lon": 0.0}, {"rental_uris": {"ios": "https://dc.lft.to/lastmile_qr_scan", "android": "https://dc.lft.to/lastmile_qr_scan"}, "type": "electric_scooter", "name": "df41a753f12f00434507acf620fb99d3", "is_reserved": 0, "lon": -77.06324083333334, "is_disabled": 0, "fusion_lat": 0.0, "lat": 38.91343283333333, "bike_id": "df41a753f12f00434507acf620fb99d3", "fusion_lon": 0.0}, {"rental_uris": {"ios": "https://dc.lft.to/lastmile_qr_scan", "android": "https://dc.lft.to/lastmile_qr_scan"}, "type": "electric_scooter", "name": "b69ca26f0a0cc926d91f83b65571c50b", "is_reserved": 0, "lon": -77.021883, "is_disabled": 0, "fusion_lat": 0.0, "lat": 38.9291585, "bike_id": "b69ca26f0a0cc926d91f83b65571c50b", "fusion_lon": 0.0}, {"rental_uris": {"ios": "https://dc.lft.to/lastmile_qr_scan", "android": "https://dc.lft.to/lastmile_qr_scan"}, "type": "electric_scooter", "name": "190e4876a1b074ac5faa20b67bb43432", "is_reserved": 0, "lon": -77.02958833333334, "is_disabled": 0, "fusion_lat": 0.0, "lat": 38.898499, "bike_id": "190e4876a1b074ac5faa20b67bb43432", "fusion_lon": 0.0}, {"rental_uris": {"ios": "https://dc.lft.to/lastmile_qr_scan", "android": "https://dc.lft.to/lastmile_qr_scan"}, "type": "electric_scooter", "name": "92a104c1ccf4e4a604c6266f8875082e", "is_reserved": 0, "lon": -77.0326965, "is_disabled": 0, "fusion_lat": 0.0, "lat": 38.9297585, "bike_id": "92a104c1ccf4e4a604c6266f8875082e", "fusion_lon": 0.0}, {"rental_uris": {"ios": "https://dc.lft.to/lastmile_qr_scan", "android": "https://dc.lft.to/lastmile_qr_scan"}, "type": "electric_bike", "name": "fa84dac0b739a0a9171d90d476436415", "is_reserved": 0, "lon": -77.020084, "is_disabled": 0, "fusion_lat": 0.0, "lat": 39.0262395, "bike_id": "fa84dac0b739a0a9171d90d476436415", "fusion_lon": 0.0}, {"rental_uris": {"ios": "https://dc.lft.to/lastmile_qr_scan", "android": "https://dc.lft.to/lastmile_qr_scan"}, "type": "electric_scooter", "name": "ec2e5b1557afa097da5f8fd90719b66f", "is_reserved": 0, "lon": -77.0418265, "is_disabled": 0, "fusion_lat": 0.0, "lat": 38.91414316666667, "bike_id": "ec2e5b1557afa097da5f8fd90719b66f", "fusion_lon": 0.0}, {"rental_uris": {"ios": "https://dc.lft.to/lastmile_qr_scan", "android": "https://dc.lft.to/lastmile_qr_scan"}, "type": "electric_scooter", "name": "7b3933b064b4505fe59823c9f03e1da0", "is_reserved": 0, "lon": -77.03922666666666, "is_disabled": 0, "fusion_lat": 0.0, "lat": 38.898587666666664, "bike_id": "7b3933b064b4505fe59823c9f03e1da0", "fusion_lon": 0.0}, {"rental_uris": {"ios": "https://dc.lft.to/lastmile_qr_scan", "android": "https://dc.lft.to/lastmile_qr_scan"}, "type": "electric_bike", "name": "e551e6e261b5f2c8524b1869e4d4fcc2", "is_reserved": 0, "lon": -77.11282033333333, "is_disabled": 0, "fusion_lat": 0.0, "lat": 38.831078, "bike_id": "e551e6e261b5f2c8524b1869e4d4fcc2", "fusion_lon": 0.0}, {"rental_uris": {"ios": "https://dc.lft.to/lastmile_qr_scan", "android": "https://dc.lft.to/lastmile_qr_scan"}, "type": "electric_scooter", "name": "c5aacba31f2635816a20dbdfefa0d70d", "is_reserved": 0, "lon": -77.08780866666666, "is_disabled": 0, "fusion_lat": 0.0, "lat": 38.93562716666667, "bike_id": "c5aacba31f2635816a20dbdfefa0d70d", "fusion_lon": 0.0}, {"rental_uris": {"ios": "https://dc.lft.to/lastmile_qr_scan", "android": "https://dc.lft.to/lastmile_qr_scan"}, "type": "electric_scooter", "name": "0f24dead1eb7be07090365394a7aba7d", "is_reserved": 0, "lon": -77.0413655, "is_disabled": 0, "fusion_lat": 0.0, "lat": 38.922656, "bike_id": "0f24dead1eb7be07090365394a7aba7d", "fusion_lon": 0.0}, {"rental_uris": {"ios": "https://dc.lft.to/lastmile_qr_scan", "android": "https://dc.lft.to/lastmile_qr_scan"}, "type": "electric_scooter", "name": "8a3e75decd40010631f35b0892dcf6ee", "is_reserved": 0, "lon": -77.03217566666666, "is_disabled": 0, "fusion_lat": 0.0, "lat": 38.914070833333334, "bike_id": "8a3e75decd40010631f35b0892dcf6ee", "fusion_lon": 0.0}, {"rental_uris": {"ios": "https://dc.lft.to/lastmile_qr_scan", "android": "https://dc.lft.to/lastmile_qr_scan"}, "type": "electric_scooter", "name": "f27a9754f894358d3558f568a54fa1bf", "is_reserved": 0, "lon": -77.0108525, "is_disabled": 0, "fusion_lat": 0.0, "lat": 38.903351666666666, "bike_id": "f27a9754f894358d3558f568a54fa1bf", "fusion_lon": 0.0}, {"rental_uris": {"ios": "https://dc.lft.to/lastmile_qr_scan", "android": "https://dc.lft.to/lastmile_qr_scan"}, "type": "electric_bike", "name": "e00efcbc6f4e463bd7b485741db58b4d", "is_reserved": 0, "lon": -76.98352533333333, "is_disabled": 0, "fusion_lat": 0.0, "lat": 38.862686, "bike_id": "e00efcbc6f4e463bd7b485741db58b4d", "fusion_lon": 0.0}, {"rental_uris": {"ios": "https://dc.lft.to/lastmile_qr_scan", "android": "https://dc.lft.to/lastmile_qr_scan"}, "type": "electric_scooter", "name": "d03b124c64b02517b0c986c46284e885", "is_reserved": 0, "lon": -77.02383566666667, "is_disabled": 0, "fusion_lat": 0.0, "lat": 38.908508499999996, "bike_id": "d03b124c64b02517b0c986c46284e885", "fusion_lon": 0.0}, {"rental_uris": {"ios": "https://dc.lft.to/lastmile_qr_scan", "android": "https://dc.lft.to/lastmile_qr_scan"}, "type": "electric_scooter", "name": "11e1a07fac3922dded7fb34379957df8", "is_reserved": 0, "lon": -77.01638816666667, "is_disabled": 0, "fusion_lat": 0.0, "lat": 38.903883, "bike_id": "11e1a07fac3922dded7fb34379957df8", "fusion_lon": 0.0}, {"rental_uris": {"ios": "https://dc.lft.to/lastmile_qr_scan", "android": "https://dc.lft.to/lastmile_qr_scan"}, "type": "electric_scooter", "name": "93bd58e93f13fdf1819bc891d1fd392b", "is_reserved": 0, "lon": -77.01630433333334, "is_disabled": 0, "fusion_lat": 0.0, "lat": 38.887570833333335, "bike_id": "93bd58e93f13fdf1819bc891d1fd392b", "fusion_lon": 0.0}, {"rental_uris": {"ios": "https://dc.lft.to/lastmile_qr_scan", "android": "https://dc.lft.to/lastmile_qr_scan"}, "type": "electric_scooter", "name": "61be92498754d834db6bc53429186ee0", "is_reserved": 0, "lon": -77.032134, "is_disabled": 0, "fusion_lat": 0.0, "lat": 38.909726666666664, "bike_id": "61be92498754d834db6bc53429186ee0", "fusion_lon": 0.0}, {"rental_uris": {"ios": "https://dc.lft.to/lastmile_qr_scan", "android": "https://dc.lft.to/lastmile_qr_scan"}, "type": "electric_scooter", "name": "5525b8e4ead53be162d2f6f3f91b176c", "is_reserved": 0, "lon": -77.04246, "is_disabled": 0, "fusion_lat": 0.0, "lat": 38.909353, "bike_id": "5525b8e4ead53be162d2f6f3f91b176c", "fusion_lon": 0.0}, {"rental_uris": {"ios": "https://dc.lft.to/lastmile_qr_scan", "android": "https://dc.lft.to/lastmile_qr_scan"}, "type": "electric_scooter", "name": "7a382b98906a8a4b94348c1ed25a70b7", "is_reserved": 0, "lon": -77.0361825, "is_disabled": 0, "fusion_lat": 0.0, "lat": 38.90331716666667, "bike_id": "7a382b98906a8a4b94348c1ed25a70b7", "fusion_lon": 0.0}, {"rental_uris": {"ios": "https://dc.lft.to/lastmile_qr_scan", "android": "https://dc.lft.to/lastmile_qr_scan"}, "type": "electric_scooter", "name": "affb3f8866c4b44e288574b5281a63eb", "is_reserved": 0, "lon": -77.03644533333333, "is_disabled": 0, "fusion_lat": 0.0, "lat": 38.9182315, "bike_id": "affb3f8866c4b44e288574b5281a63eb", "fusion_lon": 0.0}, {"rental_uris": {"ios": "https://dc.lft.to/lastmile_qr_scan", "android": "https://dc.lft.to/lastmile_qr_scan"}, "type": "electric_scooter", "name": "551def49068ea652d6ac872bd98dc746", "is_reserved": 0, "lon": -76.982306, "is_disabled": 0, "fusion_lat": 0.0, "lat": 38.91648966666666, "bike_id": "551def49068ea652d6ac872bd98dc746", "fusion_lon": 0.0}, {"rental_uris": {"ios": "https://dc.lft.to/lastmile_qr_scan", "android": "https://dc.lft.to/lastmile_qr_scan"}, "type": "electric_scooter", "name": "4cbf98c3aeb31644dba98b98d45ee114", "is_reserved": 0, "lon": -77.0126435, "is_disabled": 0, "fusion_lat": 0.0, "lat": 38.915638, "bike_id": "4cbf98c3aeb31644dba98b98d45ee114", "fusion_lon": 0.0}, {"rental_uris": {"ios": "https://dc.lft.to/lastmile_qr_scan", "android": "https://dc.lft.to/lastmile_qr_scan"}, "type": "electric_scooter", "name": "e80ca82b3e70c9aa4e02a9c6fa66e795", "is_reserved": 0, "lon": -77.02771066666666, "is_disabled": 0, "fusion_lat": 0.0, "lat": 38.90463916666667, "bike_id": "e80ca82b3e70c9aa4e02a9c6fa66e795", "fusion_lon": 0.0}, {"rental_uris": {"ios": "https://dc.lft.to/lastmile_qr_scan", "android": "https://dc.lft.to/lastmile_qr_scan"}, "type": "electric_bike", "name": "4b3a42ae9a87db88fcccfa529c120777", "is_reserved": 0, "lon": -77.089843, "is_disabled": 0, "fusion_lat": 0.0, "lat": 38.9117925, "bike_id": "4b3a42ae9a87db88fcccfa529c120777", "fusion_lon": 0.0}, {"rental_uris": {"ios": "https://dc.lft.to/lastmile_qr_scan", "android": "https://dc.lft.to/lastmile_qr_scan"}, "type": "electric_scooter", "name": "a3b93e14bc68b366ecfdd31fe5bec80d", "is_reserved": 0, "lon": -77.0070815, "is_disabled": 0, "fusion_lat": 0.0, "lat": 38.900321166666664, "bike_id": "a3b93e14bc68b366ecfdd31fe5bec80d", "fusion_lon": 0.0}, {"rental_uris": {"ios": "https://dc.lft.to/lastmile_qr_scan", "android": "https://dc.lft.to/lastmile_qr_scan"}, "type": "electric_scooter", "name": "346f41b2913783c41a30642d20423692", "is_reserved": 0, "lon": -77.07824183333334, "is_disabled": 0, "fusion_lat": 0.0, "lat": 38.922618666666665, "bike_id": "346f41b2913783c41a30642d20423692", "fusion_lon": 0.0}, {"rental_uris": {"ios": "https://dc.lft.to/lastmile_qr_scan", "android": "https://dc.lft.to/lastmile_qr_scan"}, "type": "electric_scooter", "name": "008dec395c0dd3791b09d0faf06ea270", "is_reserved": 0, "lon": -77.02676916666667, "is_disabled": 0, "fusion_lat": 0.0, "lat": 38.90050383333333, "bike_id": "008dec395c0dd3791b09d0faf06ea270", "fusion_lon": 0.0}, {"rental_uris": {"ios": "https://dc.lft.to/lastmile_qr_scan", "android": "https://dc.lft.to/lastmile_qr_scan"}, "type": "electric_scooter", "name": "0dabfeb2a0720e38c63a297c270de16f", "is_reserved": 0, "lon": -77.03538216666666, "is_disabled": 0, "fusion_lat": 0.0, "lat": 38.923373833333336, "bike_id": "0dabfeb2a0720e38c63a297c270de16f", "fusion_lon": 0.0}, {"rental_uris": {"ios": "https://dc.lft.to/lastmile_qr_scan", "android": "https://dc.lft.to/lastmile_qr_scan"}, "type": "electric_scooter", "name": "423a11065092b773cf58c5a628c79c16", "is_reserved": 0, "lon": -77.018722, "is_disabled": 0, "fusion_lat": 0.0, "lat": 38.9142205, "bike_id": "423a11065092b773cf58c5a628c79c16", "fusion_lon": 0.0}, {"rental_uris": {"ios": "https://dc.lft.to/lastmile_qr_scan", "android": "https://dc.lft.to/lastmile_qr_scan"}, "type": "electric_scooter", "name": "731dd0734a149cd9381409eee19e59c5", "is_reserved": 0, "lon": -77.02003033333334, "is_disabled": 0, "fusion_lat": 0.0, "lat": 38.9015775, "bike_id": "731dd0734a149cd9381409eee19e59c5", "fusion_lon": 0.0}, {"rental_uris": {"ios": "https://dc.lft.to/lastmile_qr_scan", "android": "https://dc.lft.to/lastmile_qr_scan"}, "type": "electric_scooter", "name": "927b012d0c972921a57929df801c17af", "is_reserved": 0, "lon": -77.02390783333334, "is_disabled": 0, "fusion_lat": 0.0, "lat": 38.926007, "bike_id": "927b012d0c972921a57929df801c17af", "fusion_lon": 0.0}, {"rental_uris": {"ios": "https://dc.lft.to/lastmile_qr_scan", "android": "https://dc.lft.to/lastmile_qr_scan"}, "type": "electric_scooter", "name": "3a9dc6776c32014718abbb3e8a58cb45", "is_reserved": 0, "lon": -77.0281255, "is_disabled": 0, "fusion_lat": 0.0, "lat": 38.909346166666666, "bike_id": "3a9dc6776c32014718abbb3e8a58cb45", "fusion_lon": 0.0}, {"rental_uris": {"ios": "https://dc.lft.to/lastmile_qr_scan", "android": "https://dc.lft.to/lastmile_qr_scan"}, "type": "electric_scooter", "name": "98fd132354eb52cb556b46ce4c9948ca", "is_reserved": 0, "lon": -77.01214166666666, "is_disabled": 0, "fusion_lat": 0.0, "lat": 38.900061666666666, "bike_id": "98fd132354eb52cb556b46ce4c9948ca", "fusion_lon": 0.0}, {"rental_uris": {"ios": "https://dc.lft.to/lastmile_qr_scan", "android": "https://dc.lft.to/lastmile_qr_scan"}, "type": "electric_scooter", "name": "9626df98ea21acc65da7a0299e634685", "is_reserved": 0, "lon": -77.01997583333333, "is_disabled": 0, "fusion_lat": 0.0, "lat": 38.915301666666664, "bike_id": "9626df98ea21acc65da7a0299e634685", "fusion_lon": 0.0}, {"rental_uris": {"ios": "https://dc.lft.to/lastmile_qr_scan", "android": "https://dc.lft.to/lastmile_qr_scan"}, "type": "electric_scooter", "name": "c5758cc0dea4172683f79586b4b9bcb1", "is_reserved": 0, "lon": -77.04508416666667, "is_disabled": 0, "fusion_lat": 0.0, "lat": 38.892273, "bike_id": "c5758cc0dea4172683f79586b4b9bcb1", "fusion_lon": 0.0}, {"rental_uris": {"ios": "https://dc.lft.to/lastmile_qr_scan", "android": "https://dc.lft.to/lastmile_qr_scan"}, "type": "electric_scooter", "name": "6b696eae38375c9b459e155ac555e0e3", "is_reserved": 0, "lon": -77.04351783333334, "is_disabled": 0, "fusion_lat": 0.0, "lat": 38.921708, "bike_id": "6b696eae38375c9b459e155ac555e0e3", "fusion_lon": 0.0}, {"rental_uris": {"ios": "https://dc.lft.to/lastmile_qr_scan", "android": "https://dc.lft.to/lastmile_qr_scan"}, "type": "electric_scooter", "name": "552bce3d8d52836023e3d185d7f99318", "is_reserved": 0, "lon": -77.05069883333333, "is_disabled": 0, "fusion_lat": 0.0, "lat": 38.900716833333334, "bike_id": "552bce3d8d52836023e3d185d7f99318", "fusion_lon": 0.0}, {"rental_uris": {"ios": "https://dc.lft.to/lastmile_qr_scan", "android": "https://dc.lft.to/lastmile_qr_scan"}, "type": "electric_scooter", "name": "9063e6435cdd67f9eb2f7877195c1159", "is_reserved": 0, "lon": -76.991022, "is_disabled": 0, "fusion_lat": 0.0, "lat": 38.8572595, "bike_id": "9063e6435cdd67f9eb2f7877195c1159", "fusion_lon": 0.0}, {"rental_uris": {"ios": "https://dc.lft.to/lastmile_qr_scan", "android": "https://dc.lft.to/lastmile_qr_scan"}, "type": "electric_scooter", "name": "2127318466eb08ec76a932f30605f759", "is_reserved": 0, "lon": -77.03778833333334, "is_disabled": 0, "fusion_lat": 0.0, "lat": 38.90730966666667, "bike_id": "2127318466eb08ec76a932f30605f759", "fusion_lon": 0.0}, {"rental_uris": {"ios": "https://dc.lft.to/lastmile_qr_scan", "android": "https://dc.lft.to/lastmile_qr_scan"}, "type": "electric_scooter", "name": "d3e2ab5f5b11a30342900ba1763242b0", "is_reserved": 0, "lon": -77.04456466666667, "is_disabled": 0, "fusion_lat": 0.0, "lat": 38.923165166666664, "bike_id": "d3e2ab5f5b11a30342900ba1763242b0", "fusion_lon": 0.0}, {"rental_uris": {"ios": "https://dc.lft.to/lastmile_qr_scan", "android": "https://dc.lft.to/lastmile_qr_scan"}, "type": "electric_scooter", "name": "69ce3443a58be9106e99551af5b58e1c", "is_reserved": 0, "lon": -76.9809975, "is_disabled": 0, "fusion_lat": 0.0, "lat": 38.85720666666667, "bike_id": "69ce3443a58be9106e99551af5b58e1c", "fusion_lon": 0.0}, {"rental_uris": {"ios": "https://dc.lft.to/lastmile_qr_scan", "android": "https://dc.lft.to/lastmile_qr_scan"}, "type": "electric_scooter", "name": "56dd9b1b406f2c6ba086fe8238748ee7", "is_reserved": 0, "lon": -77.04874416666667, "is_disabled": 0, "fusion_lat": 0.0, "lat": 38.90974966666667, "bike_id": "56dd9b1b406f2c6ba086fe8238748ee7", "fusion_lon": 0.0}, {"rental_uris": {"ios": "https://dc.lft.to/lastmile_qr_scan", "android": "https://dc.lft.to/lastmile_qr_scan"}, "type": "electric_scooter", "name": "23926e7fd7bd2b724c51fe35c4032066", "is_reserved": 0, "lon": -77.03070866666667, "is_disabled": 0, "fusion_lat": 0.0, "lat": 38.92478066666666, "bike_id": "23926e7fd7bd2b724c51fe35c4032066", "fusion_lon": 0.0}, {"rental_uris": {"ios": "https://dc.lft.to/lastmile_qr_scan", "android": "https://dc.lft.to/lastmile_qr_scan"}, "type": "electric_scooter", "name": "5448a4930ee713a727ed8b4290c83ad6", "is_reserved": 0, "lon": -77.0238845, "is_disabled": 0, "fusion_lat": 0.0, "lat": 38.91292883333333, "bike_id": "5448a4930ee713a727ed8b4290c83ad6", "fusion_lon": 0.0}, {"rental_uris": {"ios": "https://dc.lft.to/lastmile_qr_scan", "android": "https://dc.lft.to/lastmile_qr_scan"}, "type": "electric_scooter", "name": "8e1c6cef733bea1c64c52252ef7fe8da", "is_reserved": 0, "lon": -77.06399933333333, "is_disabled": 0, "fusion_lat": 0.0, "lat": 38.90867383333333, "bike_id": "8e1c6cef733bea1c64c52252ef7fe8da", "fusion_lon": 0.0}, {"rental_uris": {"ios": "https://dc.lft.to/lastmile_qr_scan", "android": "https://dc.lft.to/lastmile_qr_scan"}, "type": "electric_bike", "name": "52bbebfd3ea01f3b6a68299bec9be414", "is_reserved": 0, "lon": -76.97322716666666, "is_disabled": 0, "fusion_lat": 0.0, "lat": 38.85786933333333, "bike_id": "52bbebfd3ea01f3b6a68299bec9be414", "fusion_lon": 0.0}, {"rental_uris": {"ios": "https://dc.lft.to/lastmile_qr_scan", "android": "https://dc.lft.to/lastmile_qr_scan"}, "type": "electric_scooter", "name": "25dfe6487e17caa42d63914c7afa65dc", "is_reserved": 0, "lon": -77.04317116666667, "is_disabled": 0, "fusion_lat": 0.0, "lat": 38.923255833333336, "bike_id": "25dfe6487e17caa42d63914c7afa65dc", "fusion_lon": 0.0}, {"rental_uris": {"ios": "https://dc.lft.to/lastmile_qr_scan", "android": "https://dc.lft.to/lastmile_qr_scan"}, "type": "electric_scooter", "name": "0b5d3a193a6f9f95de86738a506e35ed", "is_reserved": 0, "lon": -77.060003, "is_disabled": 0, "fusion_lat": 0.0, "lat": 38.90250266666666, "bike_id": "0b5d3a193a6f9f95de86738a506e35ed", "fusion_lon": 0.0}, {"rental_uris": {"ios": "https://dc.lft.to/lastmile_qr_scan", "android": "https://dc.lft.to/lastmile_qr_scan"}, "type": "electric_scooter", "name": "2e6c52973bce2834b0b188f596f12de1", "is_reserved": 0, "lon": -77.0169865, "is_disabled": 0, "fusion_lat": 0.0, "lat": 38.904687833333334, "bike_id": "2e6c52973bce2834b0b188f596f12de1", "fusion_lon": 0.0}, {"rental_uris": {"ios": "https://dc.lft.to/lastmile_qr_scan", "android": "https://dc.lft.to/lastmile_qr_scan"}, "type": "electric_scooter", "name": "735e76b073ad30e129a8c8d332b1444f", "is_reserved": 0, "lon": -76.99335166666667, "is_disabled": 0, "fusion_lat": 0.0, "lat": 38.9203355, "bike_id": "735e76b073ad30e129a8c8d332b1444f", "fusion_lon": 0.0}, {"rental_uris": {"ios": "https://dc.lft.to/lastmile_qr_scan", "android": "https://dc.lft.to/lastmile_qr_scan"}, "type": "electric_scooter", "name": "15ee3aefb4786097d9906474e9956689", "is_reserved": 0, "lon": -76.9803415, "is_disabled": 0, "fusion_lat": 0.0, "lat": 38.91679, "bike_id": "15ee3aefb4786097d9906474e9956689", "fusion_lon": 0.0}, {"rental_uris": {"ios": "https://dc.lft.to/lastmile_qr_scan", "android": "https://dc.lft.to/lastmile_qr_scan"}, "type": "electric_scooter", "name": "69b5f57aee37a3c710bc55a96464415b", "is_reserved": 0, "lon": -77.03867866666667, "is_disabled": 0, "fusion_lat": 0.0, "lat": 38.92149966666667, "bike_id": "69b5f57aee37a3c710bc55a96464415b", "fusion_lon": 0.0}, {"rental_uris": {"ios": "https://dc.lft.to/lastmile_qr_scan", "android": "https://dc.lft.to/lastmile_qr_scan"}, "type": "electric_scooter", "name": "2425a86eb4f1b206d79cb85a5fcb8efb", "is_reserved": 0, "lon": -77.01740266666667, "is_disabled": 0, "fusion_lat": 0.0, "lat": 38.9124315, "bike_id": "2425a86eb4f1b206d79cb85a5fcb8efb", "fusion_lon": 0.0}, {"rental_uris": {"ios": "https://dc.lft.to/lastmile_qr_scan", "android": "https://dc.lft.to/lastmile_qr_scan"}, "type": "electric_scooter", "name": "fc4fccb60762a5e57cc0dd3975b436ae", "is_reserved": 0, "lon": -77.04394333333333, "is_disabled": 0, "fusion_lat": 0.0, "lat": 38.92348066666667, "bike_id": "fc4fccb60762a5e57cc0dd3975b436ae", "fusion_lon": 0.0}, {"rental_uris": {"ios": "https://dc.lft.to/lastmile_qr_scan", "android": "https://dc.lft.to/lastmile_qr_scan"}, "type": "electric_scooter", "name": "5d64977bf2fdb67a806c5063cdf62183", "is_reserved": 0, "lon": -77.0098835, "is_disabled": 0, "fusion_lat": 0.0, "lat": 38.872927, "bike_id": "5d64977bf2fdb67a806c5063cdf62183", "fusion_lon": 0.0}, {"rental_uris": {"ios": "https://dc.lft.to/lastmile_qr_scan", "android": "https://dc.lft.to/lastmile_qr_scan"}, "type": "electric_scooter", "name": "5709dfdd9e964814097107f1951dca53", "is_reserved": 0, "lon": -77.049043, "is_disabled": 0, "fusion_lat": 0.0, "lat": 38.919346833333336, "bike_id": "5709dfdd9e964814097107f1951dca53", "fusion_lon": 0.0}, {"rental_uris": {"ios": "https://dc.lft.to/lastmile_qr_scan", "android": "https://dc.lft.to/lastmile_qr_scan"}, "type": "electric_bike", "name": "5df95b4a708a3f66b8a44a96ebeaea0c", "is_reserved": 0, "lon": -77.00000783333333, "is_disabled": 0, "fusion_lat": 0.0, "lat": 38.923863, "bike_id": "5df95b4a708a3f66b8a44a96ebeaea0c", "fusion_lon": 0.0}, {"rental_uris": {"ios": "https://dc.lft.to/lastmile_qr_scan", "android": "https://dc.lft.to/lastmile_qr_scan"}, "type": "electric_scooter", "name": "a0acb709a44293f85b4ca580a86604ae", "is_reserved": 0, "lon": -77.0402395, "is_disabled": 0, "fusion_lat": 0.0, "lat": 38.89923666666667, "bike_id": "a0acb709a44293f85b4ca580a86604ae", "fusion_lon": 0.0}, {"rental_uris": {"ios": "https://dc.lft.to/lastmile_qr_scan", "android": "https://dc.lft.to/lastmile_qr_scan"}, "type": "electric_scooter", "name": "3346be24a41499645ba03b294a692f8a", "is_reserved": 0, "lon": -77.034415, "is_disabled": 0, "fusion_lat": 0.0, "lat": 38.9070005, "bike_id": "3346be24a41499645ba03b294a692f8a", "fusion_lon": 0.0}, {"rental_uris": {"ios": "https://dc.lft.to/lastmile_qr_scan", "android": "https://dc.lft.to/lastmile_qr_scan"}, "type": "electric_bike", "name": "3bb11783dfbbaa45d30c955fa2ac6606", "is_reserved": 0, "lon": -76.94164216666667, "is_disabled": 0, "fusion_lat": 0.0, "lat": 38.86554183333333, "bike_id": "3bb11783dfbbaa45d30c955fa2ac6606", "fusion_lon": 0.0}, {"rental_uris": {"ios": "https://dc.lft.to/lastmile_qr_scan", "android": "https://dc.lft.to/lastmile_qr_scan"}, "type": "electric_scooter", "name": "de3ee88e73edbef1fd0d333e2433ffd7", "is_reserved": 0, "lon": -77.01836516666667, "is_disabled": 0, "fusion_lat": 0.0, "lat": 38.909626, "bike_id": "de3ee88e73edbef1fd0d333e2433ffd7", "fusion_lon": 0.0}, {"rental_uris": {"ios": "https://dc.lft.to/lastmile_qr_scan", "android": "https://dc.lft.to/lastmile_qr_scan"}, "type": "electric_bike", "name": "55544517a2048d9e5901b8f719d44dad", "is_reserved": 0, "lon": -77.106161, "is_disabled": 0, "fusion_lat": 0.0, "lat": 38.83724016666667, "bike_id": "55544517a2048d9e5901b8f719d44dad", "fusion_lon": 0.0}, {"rental_uris": {"ios": "https://dc.lft.to/lastmile_qr_scan", "android": "https://dc.lft.to/lastmile_qr_scan"}, "type": "electric_scooter", "name": "c0e807de4d9964cb1970b2d2ab07b9b4", "is_reserved": 0, "lon": -77.03972883333333, "is_disabled": 0, "fusion_lat": 0.0, "lat": 38.90713566666667, "bike_id": "c0e807de4d9964cb1970b2d2ab07b9b4", "fusion_lon": 0.0}, {"rental_uris": {"ios": "https://dc.lft.to/lastmile_qr_scan", "android": "https://dc.lft.to/lastmile_qr_scan"}, "type": "electric_scooter", "name": "ea3d32718fa08b85507bab9093d881ca", "is_reserved": 0, "lon": -77.04070716666666, "is_disabled": 0, "fusion_lat": 0.0, "lat": 38.92383816666667, "bike_id": "ea3d32718fa08b85507bab9093d881ca", "fusion_lon": 0.0}, {"rental_uris": {"ios": "https://dc.lft.to/lastmile_qr_scan", "android": "https://dc.lft.to/lastmile_qr_scan"}, "type": "electric_scooter", "name": "b289c7c9cb6e14616e9ed1cbb5ae03b6", "is_reserved": 0, "lon": -76.991288, "is_disabled": 0, "fusion_lat": 0.0, "lat": 38.90907033333333, "bike_id": "b289c7c9cb6e14616e9ed1cbb5ae03b6", "fusion_lon": 0.0}, {"rental_uris": {"ios": "https://dc.lft.to/lastmile_qr_scan", "android": "https://dc.lft.to/lastmile_qr_scan"}, "type": "electric_scooter", "name": "f775d6e2f3392f35bffb4418290c8e37", "is_reserved": 0, "lon": -77.00586916666667, "is_disabled": 0, "fusion_lat": 0.0, "lat": 38.90923133333333, "bike_id": "f775d6e2f3392f35bffb4418290c8e37", "fusion_lon": 0.0}, {"rental_uris": {"ios": "https://dc.lft.to/lastmile_qr_scan", "android": "https://dc.lft.to/lastmile_qr_scan"}, "type": "electric_scooter", "name": "678197ee2a28c86c09fec049b4c6755c", "is_reserved": 0, "lon": -77.02733766666667, "is_disabled": 0, "fusion_lat": 0.0, "lat": 38.93467883333334, "bike_id": "678197ee2a28c86c09fec049b4c6755c", "fusion_lon": 0.0}, {"rental_uris": {"ios": "https://dc.lft.to/lastmile_qr_scan", "android": "https://dc.lft.to/lastmile_qr_scan"}, "type": "electric_scooter", "name": "945aa7deda6b6c903fe290a6507de6bd", "is_reserved": 0, "lon": -77.03213566666666, "is_disabled": 0, "fusion_lat": 0.0, "lat": 38.89838016666667, "bike_id": "945aa7deda6b6c903fe290a6507de6bd", "fusion_lon": 0.0}, {"rental_uris": {"ios": "https://dc.lft.to/lastmile_qr_scan", "android": "https://dc.lft.to/lastmile_qr_scan"}, "type": "electric_scooter", "name": "d9dd155968e37172e5f13b5e213b6e0f", "is_reserved": 0, "lon": -77.03959566666667, "is_disabled": 0, "fusion_lat": 0.0, "lat": 38.893134333333336, "bike_id": "d9dd155968e37172e5f13b5e213b6e0f", "fusion_lon": 0.0}, {"rental_uris": {"ios": "https://dc.lft.to/lastmile_qr_scan", "android": "https://dc.lft.to/lastmile_qr_scan"}, "type": "electric_scooter", "name": "e09a1aaf4d5e55dfdbb972488cba2a52", "is_reserved": 0, "lon": -77.02392033333334, "is_disabled": 0, "fusion_lat": 0.0, "lat": 38.920795, "bike_id": "e09a1aaf4d5e55dfdbb972488cba2a52", "fusion_lon": 0.0}, {"rental_uris": {"ios": "https://dc.lft.to/lastmile_qr_scan", "android": "https://dc.lft.to/lastmile_qr_scan"}, "type": "electric_scooter", "name": "7fd08f7e6f9bc3ee92995c64af39f8c3", "is_reserved": 0, "lon": -77.01973783333334, "is_disabled": 0, "fusion_lat": 0.0, "lat": 38.8760195, "bike_id": "7fd08f7e6f9bc3ee92995c64af39f8c3", "fusion_lon": 0.0}, {"rental_uris": {"ios": "https://dc.lft.to/lastmile_qr_scan", "android": "https://dc.lft.to/lastmile_qr_scan"}, "type": "electric_bike", "name": "14325f90ef3ecb50313c0a39ccde61a9", "is_reserved": 0, "lon": -77.12840616666666, "is_disabled": 0, "fusion_lat": 0.0, "lat": 38.800541, "bike_id": "14325f90ef3ecb50313c0a39ccde61a9", "fusion_lon": 0.0}, {"rental_uris": {"ios": "https://dc.lft.to/lastmile_qr_scan", "android": "https://dc.lft.to/lastmile_qr_scan"}, "type": "electric_scooter", "name": "b2a08c68fcf114ba130a1053ca0d5b76", "is_reserved": 0, "lon": -77.00365016666667, "is_disabled": 0, "fusion_lat": 0.0, "lat": 38.87664516666667, "bike_id": "b2a08c68fcf114ba130a1053ca0d5b76", "fusion_lon": 0.0}, {"rental_uris": {"ios": "https://dc.lft.to/lastmile_qr_scan", "android": "https://dc.lft.to/lastmile_qr_scan"}, "type": "electric_scooter", "name": "c16c1b383bdd0dd9213adeca05e4b126", "is_reserved": 0, "lon": -77.00020283333333, "is_disabled": 0, "fusion_lat": 0.0, "lat": 38.9069635, "bike_id": "c16c1b383bdd0dd9213adeca05e4b126", "fusion_lon": 0.0}, {"rental_uris": {"ios": "https://dc.lft.to/lastmile_qr_scan", "android": "https://dc.lft.to/lastmile_qr_scan"}, "type": "electric_scooter", "name": "59b510312c5cafe43c0a720b4b1b0e91", "is_reserved": 0, "lon": -77.0294355, "is_disabled": 0, "fusion_lat": 0.0, "lat": 38.90249816666667, "bike_id": "59b510312c5cafe43c0a720b4b1b0e91", "fusion_lon": 0.0}, {"rental_uris": {"ios": "https://dc.lft.to/lastmile_qr_scan", "android": "https://dc.lft.to/lastmile_qr_scan"}, "type": "electric_scooter", "name": "8f1e8fafe67f537a4cafb169589202b3", "is_reserved": 0, "lon": -77.07868966666666, "is_disabled": 0, "fusion_lat": 0.0, "lat": 38.924662833333336, "bike_id": "8f1e8fafe67f537a4cafb169589202b3", "fusion_lon": 0.0}, {"rental_uris": {"ios": "https://dc.lft.to/lastmile_qr_scan", "android": "https://dc.lft.to/lastmile_qr_scan"}, "type": "electric_scooter", "name": "b706e296c52ff4fe38bc986b5bb282fa", "is_reserved": 0, "lon": -77.056404, "is_disabled": 0, "fusion_lat": 0.0, "lat": 38.936048166666666, "bike_id": "b706e296c52ff4fe38bc986b5bb282fa", "fusion_lon": 0.0}, {"rental_uris": {"ios": "https://dc.lft.to/lastmile_qr_scan", "android": "https://dc.lft.to/lastmile_qr_scan"}, "type": "electric_scooter", "name": "22584cd07af50cbac5456e45546285c6", "is_reserved": 0, "lon": -77.04689166666667, "is_disabled": 0, "fusion_lat": 0.0, "lat": 38.89739466666666, "bike_id": "22584cd07af50cbac5456e45546285c6", "fusion_lon": 0.0}, {"rental_uris": {"ios": "https://dc.lft.to/lastmile_qr_scan", "android": "https://dc.lft.to/lastmile_qr_scan"}, "type": "electric_scooter", "name": "1cbf1e57134822e46bbceb854447f1be", "is_reserved": 0, "lon": -77.0395555, "is_disabled": 0, "fusion_lat": 0.0, "lat": 38.892496, "bike_id": "1cbf1e57134822e46bbceb854447f1be", "fusion_lon": 0.0}, {"rental_uris": {"ios": "https://dc.lft.to/lastmile_qr_scan", "android": "https://dc.lft.to/lastmile_qr_scan"}, "type": "electric_scooter", "name": "6543989ba740d9c43597dcc443cd0eaf", "is_reserved": 0, "lon": -77.0327565, "is_disabled": 0, "fusion_lat": 0.0, "lat": 38.919827166666664, "bike_id": "6543989ba740d9c43597dcc443cd0eaf", "fusion_lon": 0.0}, {"rental_uris": {"ios": "https://dc.lft.to/lastmile_qr_scan", "android": "https://dc.lft.to/lastmile_qr_scan"}, "type": "electric_scooter", "name": "0a77cdf6795ef2777375690ed47ea58b", "is_reserved": 0, "lon": -77.01008033333333, "is_disabled": 0, "fusion_lat": 0.0, "lat": 38.912667, "bike_id": "0a77cdf6795ef2777375690ed47ea58b", "fusion_lon": 0.0}, {"rental_uris": {"ios": "https://dc.lft.to/lastmile_qr_scan", "android": "https://dc.lft.to/lastmile_qr_scan"}, "type": "electric_scooter", "name": "69ce407e24c2b8099d8fc681536ddfca", "is_reserved": 0, "lon": -77.03640483333334, "is_disabled": 0, "fusion_lat": 0.0, "lat": 38.925984, "bike_id": "69ce407e24c2b8099d8fc681536ddfca", "fusion_lon": 0.0}, {"rental_uris": {"ios": "https://dc.lft.to/lastmile_qr_scan", "android": "https://dc.lft.to/lastmile_qr_scan"}, "type": "electric_scooter", "name": "d61894cdfa796d14ebf277fd325ec0da", "is_reserved": 0, "lon": -77.06431066666667, "is_disabled": 0, "fusion_lat": 0.0, "lat": 38.90918333333333, "bike_id": "d61894cdfa796d14ebf277fd325ec0da", "fusion_lon": 0.0}, {"rental_uris": {"ios": "https://dc.lft.to/lastmile_qr_scan", "android": "https://dc.lft.to/lastmile_qr_scan"}, "type": "electric_scooter", "name": "63c14e5966075cd24b88f480f78af26c", "is_reserved": 0, "lon": -77.05014783333333, "is_disabled": 0, "fusion_lat": 0.0, "lat": 38.89743766666667, "bike_id": "63c14e5966075cd24b88f480f78af26c", "fusion_lon": 0.0}, {"rental_uris": {"ios": "https://dc.lft.to/lastmile_qr_scan", "android": "https://dc.lft.to/lastmile_qr_scan"}, "type": "electric_bike", "name": "0779942a01b6b70eef31fb967ba4f75c", "is_reserved": 0, "lon": -76.97952866666667, "is_disabled": 0, "fusion_lat": 0.0, "lat": 38.952419, "bike_id": "0779942a01b6b70eef31fb967ba4f75c", "fusion_lon": 0.0}, {"rental_uris": {"ios": "https://dc.lft.to/lastmile_qr_scan", "android": "https://dc.lft.to/lastmile_qr_scan"}, "type": "electric_scooter", "name": "166137c0128d83062756a9e8731802cb", "is_reserved": 0, "lon": -77.04430833333333, "is_disabled": 0, "fusion_lat": 0.0, "lat": 38.921293666666664, "bike_id": "166137c0128d83062756a9e8731802cb", "fusion_lon": 0.0}, {"rental_uris": {"ios": "https://dc.lft.to/lastmile_qr_scan", "android": "https://dc.lft.to/lastmile_qr_scan"}, "type": "electric_scooter", "name": "01fc24e0888e6a31443e2e9c09b88a8f", "is_reserved": 0, "lon": -77.03058933333334, "is_disabled": 0, "fusion_lat": 0.0, "lat": 38.923887, "bike_id": "01fc24e0888e6a31443e2e9c09b88a8f", "fusion_lon": 0.0}, {"rental_uris": {"ios": "https://dc.lft.to/lastmile_qr_scan", "android": "https://dc.lft.to/lastmile_qr_scan"}, "type": "electric_scooter", "name": "29293c31369d543f5beb4911ad14882f", "is_reserved": 0, "lon": -77.00483966666667, "is_disabled": 0, "fusion_lat": 0.0, "lat": 38.87467133333333, "bike_id": "29293c31369d543f5beb4911ad14882f", "fusion_lon": 0.0}, {"rental_uris": {"ios": "https://dc.lft.to/lastmile_qr_scan", "android": "https://dc.lft.to/lastmile_qr_scan"}, "type": "electric_scooter", "name": "aabb8b705dce215308c7cbaf33c41880", "is_reserved": 0, "lon": -77.0239165, "is_disabled": 0, "fusion_lat": 0.0, "lat": 38.920782833333334, "bike_id": "aabb8b705dce215308c7cbaf33c41880", "fusion_lon": 0.0}, {"rental_uris": {"ios": "https://dc.lft.to/lastmile_qr_scan", "android": "https://dc.lft.to/lastmile_qr_scan"}, "type": "electric_bike", "name": "77c436fe8fa330b5b792159c00fa6b48", "is_reserved": 0, "lon": -76.93874766666667, "is_disabled": 0, "fusion_lat": 0.0, "lat": 38.97765233333333, "bike_id": "77c436fe8fa330b5b792159c00fa6b48", "fusion_lon": 0.0}, {"rental_uris": {"ios": "https://dc.lft.to/lastmile_qr_scan", "android": "https://dc.lft.to/lastmile_qr_scan"}, "type": "electric_scooter", "name": "244c7dd7cee7c9230296ba59c34d65dd", "is_reserved": 0, "lon": -77.03304116666666, "is_disabled": 0, "fusion_lat": 0.0, "lat": 38.909599, "bike_id": "244c7dd7cee7c9230296ba59c34d65dd", "fusion_lon": 0.0}, {"rental_uris": {"ios": "https://dc.lft.to/lastmile_qr_scan", "android": "https://dc.lft.to/lastmile_qr_scan"}, "type": "electric_scooter", "name": "242f47a7da7d7f5f1b1f360b676e3e8e", "is_reserved": 0, "lon": -77.00073566666667, "is_disabled": 0, "fusion_lat": 0.0, "lat": 38.89489, "bike_id": "242f47a7da7d7f5f1b1f360b676e3e8e", "fusion_lon": 0.0}, {"rental_uris": {"ios": "https://dc.lft.to/lastmile_qr_scan", "android": "https://dc.lft.to/lastmile_qr_scan"}, "type": "electric_scooter", "name": "45cf8e9011844df6267599eb686d1e11", "is_reserved": 0, "lon": -77.01763383333333, "is_disabled": 0, "fusion_lat": 0.0, "lat": 38.87673566666667, "bike_id": "45cf8e9011844df6267599eb686d1e11", "fusion_lon": 0.0}, {"rental_uris": {"ios": "https://dc.lft.to/lastmile_qr_scan", "android": "https://dc.lft.to/lastmile_qr_scan"}, "type": "electric_scooter", "name": "c7eeab51c921f59f6490208d4e10a9b6", "is_reserved": 0, "lon": -76.93747083333334, "is_disabled": 0, "fusion_lat": 0.0, "lat": 38.89009716666666, "bike_id": "c7eeab51c921f59f6490208d4e10a9b6", "fusion_lon": 0.0}, {"rental_uris": {"ios": "https://dc.lft.to/lastmile_qr_scan", "android": "https://dc.lft.to/lastmile_qr_scan"}, "type": "electric_scooter", "name": "d665b5b8e5320320a48b5ca8c7b92028", "is_reserved": 0, "lon": -77.055102, "is_disabled": 0, "fusion_lat": 0.0, "lat": 38.928306166666665, "bike_id": "d665b5b8e5320320a48b5ca8c7b92028", "fusion_lon": 0.0}, {"rental_uris": {"ios": "https://dc.lft.to/lastmile_qr_scan", "android": "https://dc.lft.to/lastmile_qr_scan"}, "type": "electric_scooter", "name": "3f64e59c3896d0a96d47bd282db637dd", "is_reserved": 0, "lon": -77.06094316666666, "is_disabled": 0, "fusion_lat": 0.0, "lat": 38.93984833333333, "bike_id": "3f64e59c3896d0a96d47bd282db637dd", "fusion_lon": 0.0}, {"rental_uris": {"ios": "https://dc.lft.to/lastmile_qr_scan", "android": "https://dc.lft.to/lastmile_qr_scan"}, "type": "electric_scooter", "name": "440d257d44b792341b07645f6b0e180c", "is_reserved": 0, "lon": -77.0319525, "is_disabled": 0, "fusion_lat": 0.0, "lat": 38.91098566666667, "bike_id": "440d257d44b792341b07645f6b0e180c", "fusion_lon": 0.0}, {"rental_uris": {"ios": "https://dc.lft.to/lastmile_qr_scan", "android": "https://dc.lft.to/lastmile_qr_scan"}, "type": "electric_bike", "name": "64603e2503ff0ab06f7e74639188fd0f", "is_reserved": 0, "lon": -77.00134316666667, "is_disabled": 0, "fusion_lat": 0.0, "lat": 38.99498916666667, "bike_id": "64603e2503ff0ab06f7e74639188fd0f", "fusion_lon": 0.0}, {"rental_uris": {"ios": "https://dc.lft.to/lastmile_qr_scan", "android": "https://dc.lft.to/lastmile_qr_scan"}, "type": "electric_scooter", "name": "bcd9026d452c0ee53bdacb2819cb9def", "is_reserved": 0, "lon": -77.0733295, "is_disabled": 0, "fusion_lat": 0.0, "lat": 38.960926666666666, "bike_id": "bcd9026d452c0ee53bdacb2819cb9def", "fusion_lon": 0.0}, {"rental_uris": {"ios": "https://dc.lft.to/lastmile_qr_scan", "android": "https://dc.lft.to/lastmile_qr_scan"}, "type": "electric_scooter", "name": "2a769ca55387c556246d42d47648f128", "is_reserved": 0, "lon": -77.07167466666667, "is_disabled": 0, "fusion_lat": 0.0, "lat": 38.907629666666665, "bike_id": "2a769ca55387c556246d42d47648f128", "fusion_lon": 0.0}, {"rental_uris": {"ios": "https://dc.lft.to/lastmile_qr_scan", "android": "https://dc.lft.to/lastmile_qr_scan"}, "type": "electric_bike", "name": "464a1f93929c1d48bc6a3fdfae96df03", "is_reserved": 0, "lon": -76.99259366666666, "is_disabled": 0, "fusion_lat": 0.0, "lat": 38.9607935, "bike_id": "464a1f93929c1d48bc6a3fdfae96df03", "fusion_lon": 0.0}, {"rental_uris": {"ios": "https://dc.lft.to/lastmile_qr_scan", "android": "https://dc.lft.to/lastmile_qr_scan"}, "type": "electric_scooter", "name": "410cdcf2f192793fd34dfa3687f0a7ef", "is_reserved": 0, "lon": -76.9979265, "is_disabled": 0, "fusion_lat": 0.0, "lat": 38.8763415, "bike_id": "410cdcf2f192793fd34dfa3687f0a7ef", "fusion_lon": 0.0}, {"rental_uris": {"ios": "https://dc.lft.to/lastmile_qr_scan", "android": "https://dc.lft.to/lastmile_qr_scan"}, "type": "electric_scooter", "name": "937d4931443060971d947333d21e694c", "is_reserved": 0, "lon": -76.975678, "is_disabled": 0, "fusion_lat": 0.0, "lat": 38.94423883333333, "bike_id": "937d4931443060971d947333d21e694c", "fusion_lon": 0.0}, {"rental_uris": {"ios": "https://dc.lft.to/lastmile_qr_scan", "android": "https://dc.lft.to/lastmile_qr_scan"}, "type": "electric_bike", "name": "249c941869aab2c06ad9540c1e9de601", "is_reserved": 0, "lon": -76.95794016666666, "is_disabled": 0, "fusion_lat": 0.0, "lat": 38.980442, "bike_id": "249c941869aab2c06ad9540c1e9de601", "fusion_lon": 0.0}, {"rental_uris": {"ios": "https://dc.lft.to/lastmile_qr_scan", "android": "https://dc.lft.to/lastmile_qr_scan"}, "type": "electric_scooter", "name": "205b42b1914c795313741158a9bc966d", "is_reserved": 0, "lon": -77.033873, "is_disabled": 0, "fusion_lat": 0.0, "lat": 38.937343166666665, "bike_id": "205b42b1914c795313741158a9bc966d", "fusion_lon": 0.0}, {"rental_uris": {"ios": "https://dc.lft.to/lastmile_qr_scan", "android": "https://dc.lft.to/lastmile_qr_scan"}, "type": "electric_scooter", "name": "3aed559a2dc602a63ba29163fbe99fbf", "is_reserved": 0, "lon": -76.99411833333333, "is_disabled": 0, "fusion_lat": 0.0, "lat": 38.877853, "bike_id": "3aed559a2dc602a63ba29163fbe99fbf", "fusion_lon": 0.0}, {"rental_uris": {"ios": "https://dc.lft.to/lastmile_qr_scan", "android": "https://dc.lft.to/lastmile_qr_scan"}, "type": "electric_scooter", "name": "825bb57fee1b5889e5e69f50df0c8bb1", "is_reserved": 0, "lon": -77.0063205, "is_disabled": 0, "fusion_lat": 0.0, "lat": 38.9057765, "bike_id": "825bb57fee1b5889e5e69f50df0c8bb1", "fusion_lon": 0.0}, {"rental_uris": {"ios": "https://dc.lft.to/lastmile_qr_scan", "android": "https://dc.lft.to/lastmile_qr_scan"}, "type": "electric_scooter", "name": "e1fe3052b868cc0c287443f8b9580b56", "is_reserved": 0, "lon": -77.04666, "is_disabled": 0, "fusion_lat": 0.0, "lat": 38.90540683333333, "bike_id": "e1fe3052b868cc0c287443f8b9580b56", "fusion_lon": 0.0}, {"rental_uris": {"ios": "https://dc.lft.to/lastmile_qr_scan", "android": "https://dc.lft.to/lastmile_qr_scan"}, "type": "electric_scooter", "name": "9bd3cc1dcf72843e6bbaf6acfbb1bd12", "is_reserved": 0, "lon": -77.03550783333333, "is_disabled": 0, "fusion_lat": 0.0, "lat": 38.9233835, "bike_id": "9bd3cc1dcf72843e6bbaf6acfbb1bd12", "fusion_lon": 0.0}, {"rental_uris": {"ios": "https://dc.lft.to/lastmile_qr_scan", "android": "https://dc.lft.to/lastmile_qr_scan"}, "type": "electric_scooter", "name": "d40f2cde5dc1e55e9714aa1b797f514d", "is_reserved": 0, "lon": -76.9984465, "is_disabled": 0, "fusion_lat": 0.0, "lat": 38.902991, "bike_id": "d40f2cde5dc1e55e9714aa1b797f514d", "fusion_lon": 0.0}, {"rental_uris": {"ios": "https://dc.lft.to/lastmile_qr_scan", "android": "https://dc.lft.to/lastmile_qr_scan"}, "type": "electric_scooter", "name": "8fd07ca3038770fd6829404796f1bf72", "is_reserved": 0, "lon": -77.02006683333333, "is_disabled": 0, "fusion_lat": 0.0, "lat": 38.90450716666667, "bike_id": "8fd07ca3038770fd6829404796f1bf72", "fusion_lon": 0.0}, {"rental_uris": {"ios": "https://dc.lft.to/lastmile_qr_scan", "android": "https://dc.lft.to/lastmile_qr_scan"}, "type": "electric_scooter", "name": "fa3beb77b1a412fd9884f3223a6b777e", "is_reserved": 0, "lon": -77.03726716666667, "is_disabled": 0, "fusion_lat": 0.0, "lat": 38.926478333333336, "bike_id": "fa3beb77b1a412fd9884f3223a6b777e", "fusion_lon": 0.0}, {"rental_uris": {"ios": "https://dc.lft.to/lastmile_qr_scan", "android": "https://dc.lft.to/lastmile_qr_scan"}, "type": "electric_bike", "name": "af1dc437751b2f9937dd0c8511de4dc7", "is_reserved": 0, "lon": -76.90289283333334, "is_disabled": 0, "fusion_lat": 0.0, "lat": 39.002963333333334, "bike_id": "af1dc437751b2f9937dd0c8511de4dc7", "fusion_lon": 0.0}, {"rental_uris": {"ios": "https://dc.lft.to/lastmile_qr_scan", "android": "https://dc.lft.to/lastmile_qr_scan"}, "type": "electric_bike", "name": "5ff1d14c83df59be5a1167267d149a92", "is_reserved": 0, "lon": -76.9689145, "is_disabled": 0, "fusion_lat": 0.0, "lat": 38.8698315, "bike_id": "5ff1d14c83df59be5a1167267d149a92", "fusion_lon": 0.0}, {"rental_uris": {"ios": "https://dc.lft.to/lastmile_qr_scan", "android": "https://dc.lft.to/lastmile_qr_scan"}, "type": "electric_scooter", "name": "441d372fc15afa4db6a7394ce815d61a", "is_reserved": 0, "lon": -77.0198545, "is_disabled": 0, "fusion_lat": 0.0, "lat": 38.89975583333333, "bike_id": "441d372fc15afa4db6a7394ce815d61a", "fusion_lon": 0.0}, {"rental_uris": {"ios": "https://dc.lft.to/lastmile_qr_scan", "android": "https://dc.lft.to/lastmile_qr_scan"}, "type": "electric_scooter", "name": "40bb6e17f6ca932c6e89c184ef6bce4c", "is_reserved": 0, "lon": -77.02202466666667, "is_disabled": 0, "fusion_lat": 0.0, "lat": 38.910983, "bike_id": "40bb6e17f6ca932c6e89c184ef6bce4c", "fusion_lon": 0.0}, {"rental_uris": {"ios": "https://dc.lft.to/lastmile_qr_scan", "android": "https://dc.lft.to/lastmile_qr_scan"}, "type": "electric_scooter", "name": "a63987986057eb948ce8dec201bfa7f6", "is_reserved": 0, "lon": -77.00928366666666, "is_disabled": 0, "fusion_lat": 0.0, "lat": 38.8745395, "bike_id": "a63987986057eb948ce8dec201bfa7f6", "fusion_lon": 0.0}, {"rental_uris": {"ios": "https://dc.lft.to/lastmile_qr_scan", "android": "https://dc.lft.to/lastmile_qr_scan"}, "type": "electric_scooter", "name": "7643e4994a599707dc8a245b2dfbdc1a", "is_reserved": 0, "lon": -77.03559183333333, "is_disabled": 0, "fusion_lat": 0.0, "lat": 38.92728983333333, "bike_id": "7643e4994a599707dc8a245b2dfbdc1a", "fusion_lon": 0.0}, {"rental_uris": {"ios": "https://dc.lft.to/lastmile_qr_scan", "android": "https://dc.lft.to/lastmile_qr_scan"}, "type": "electric_scooter", "name": "7aba893418774ffeed301fb76fd2c5be", "is_reserved": 0, "lon": -76.9914625, "is_disabled": 0, "fusion_lat": 0.0, "lat": 38.873404, "bike_id": "7aba893418774ffeed301fb76fd2c5be", "fusion_lon": 0.0}, {"rental_uris": {"ios": "https://dc.lft.to/lastmile_qr_scan", "android": "https://dc.lft.to/lastmile_qr_scan"}, "type": "electric_bike", "name": "d87b37c49ba30081f8cccf43902c37e7", "is_reserved": 0, "lon": -77.129013, "is_disabled": 0, "fusion_lat": 0.0, "lat": 38.90612433333333, "bike_id": "d87b37c49ba30081f8cccf43902c37e7", "fusion_lon": 0.0}, {"rental_uris": {"ios": "https://dc.lft.to/lastmile_qr_scan", "android": "https://dc.lft.to/lastmile_qr_scan"}, "type": "electric_scooter", "name": "240e940acf753d3f91c64a447e184cff", "is_reserved": 0, "lon": -77.018792, "is_disabled": 0, "fusion_lat": 0.0, "lat": 38.9026065, "bike_id": "240e940acf753d3f91c64a447e184cff", "fusion_lon": 0.0}, {"rental_uris": {"ios": "https://dc.lft.to/lastmile_qr_scan", "android": "https://dc.lft.to/lastmile_qr_scan"}, "type": "electric_scooter", "name": "d1d033c9fb1c1e92404acc48ab670c69", "is_reserved": 0, "lon": -77.044702, "is_disabled": 0, "fusion_lat": 0.0, "lat": 38.90399033333333, "bike_id": "d1d033c9fb1c1e92404acc48ab670c69", "fusion_lon": 0.0}, {"rental_uris": {"ios": "https://dc.lft.to/lastmile_qr_scan", "android": "https://dc.lft.to/lastmile_qr_scan"}, "type": "electric_scooter", "name": "03c928ae51a72804643fdb7db579fb7a", "is_reserved": 0, "lon": -76.9854285, "is_disabled": 0, "fusion_lat": 0.0, "lat": 38.879693, "bike_id": "03c928ae51a72804643fdb7db579fb7a", "fusion_lon": 0.0}, {"rental_uris": {"ios": "https://dc.lft.to/lastmile_qr_scan", "android": "https://dc.lft.to/lastmile_qr_scan"}, "type": "electric_scooter", "name": "6567d0220fc77e318234573cded93163", "is_reserved": 0, "lon": -77.04006866666667, "is_disabled": 0, "fusion_lat": 0.0, "lat": 38.93432216666667, "bike_id": "6567d0220fc77e318234573cded93163", "fusion_lon": 0.0}, {"rental_uris": {"ios": "https://dc.lft.to/lastmile_qr_scan", "android": "https://dc.lft.to/lastmile_qr_scan"}, "type": "electric_scooter", "name": "944586149d5c13dfdc8b20a9848c604b", "is_reserved": 0, "lon": -76.99631566666666, "is_disabled": 0, "fusion_lat": 0.0, "lat": 38.900053666666665, "bike_id": "944586149d5c13dfdc8b20a9848c604b", "fusion_lon": 0.0}, {"rental_uris": {"ios": "https://dc.lft.to/lastmile_qr_scan", "android": "https://dc.lft.to/lastmile_qr_scan"}, "type": "electric_scooter", "name": "009e3b6ec858d94ba60fb186ec012254", "is_reserved": 0, "lon": -77.06695883333333, "is_disabled": 0, "fusion_lat": 0.0, "lat": 38.909830666666664, "bike_id": "009e3b6ec858d94ba60fb186ec012254", "fusion_lon": 0.0}, {"rental_uris": {"ios": "https://dc.lft.to/lastmile_qr_scan", "android": "https://dc.lft.to/lastmile_qr_scan"}, "type": "electric_scooter", "name": "a65254b9905d0bde79e33fd97d30f34c", "is_reserved": 0, "lon": -77.0291575, "is_disabled": 0, "fusion_lat": 0.0, "lat": 38.9333215, "bike_id": "a65254b9905d0bde79e33fd97d30f34c", "fusion_lon": 0.0}, {"rental_uris": {"ios": "https://dc.lft.to/lastmile_qr_scan", "android": "https://dc.lft.to/lastmile_qr_scan"}, "type": "electric_scooter", "name": "06d6ffb3a611426c565a961f1847e0bd", "is_reserved": 0, "lon": -77.03204183333334, "is_disabled": 0, "fusion_lat": 0.0, "lat": 38.911522166666664, "bike_id": "06d6ffb3a611426c565a961f1847e0bd", "fusion_lon": 0.0}, {"rental_uris": {"ios": "https://dc.lft.to/lastmile_qr_scan", "android": "https://dc.lft.to/lastmile_qr_scan"}, "type": "electric_scooter", "name": "a5c360057c4df650d5b96685244eb750", "is_reserved": 0, "lon": -77.01511683333334, "is_disabled": 0, "fusion_lat": 0.0, "lat": 38.910487333333336, "bike_id": "a5c360057c4df650d5b96685244eb750", "fusion_lon": 0.0}, {"rental_uris": {"ios": "https://dc.lft.to/lastmile_qr_scan", "android": "https://dc.lft.to/lastmile_qr_scan"}, "type": "electric_scooter", "name": "2986601db399c79ff834d5dfc01f7cf1", "is_reserved": 0, "lon": -77.01655183333334, "is_disabled": 0, "fusion_lat": 0.0, "lat": 38.929385333333336, "bike_id": "2986601db399c79ff834d5dfc01f7cf1", "fusion_lon": 0.0}, {"rental_uris": {"ios": "https://dc.lft.to/lastmile_qr_scan", "android": "https://dc.lft.to/lastmile_qr_scan"}, "type": "electric_scooter", "name": "7ca1f1380781f91f922030f235dea912", "is_reserved": 0, "lon": -76.986938, "is_disabled": 0, "fusion_lat": 0.0, "lat": 38.912979166666666, "bike_id": "7ca1f1380781f91f922030f235dea912", "fusion_lon": 0.0}, {"rental_uris": {"ios": "https://dc.lft.to/lastmile_qr_scan", "android": "https://dc.lft.to/lastmile_qr_scan"}, "type": "electric_scooter", "name": "cae54a593869a7d4564f1e140fcfa31b", "is_reserved": 0, "lon": -77.036272, "is_disabled": 0, "fusion_lat": 0.0, "lat": 38.90626433333333, "bike_id": "cae54a593869a7d4564f1e140fcfa31b", "fusion_lon": 0.0}, {"rental_uris": {"ios": "https://dc.lft.to/lastmile_qr_scan", "android": "https://dc.lft.to/lastmile_qr_scan"}, "type": "electric_bike", "name": "b2cf6a7733d0eaf8bd1485a66a1d843c", "is_reserved": 0, "lon": -77.03884833333333, "is_disabled": 0, "fusion_lat": 0.0, "lat": 39.02636066666667, "bike_id": "b2cf6a7733d0eaf8bd1485a66a1d843c", "fusion_lon": 0.0}, {"rental_uris": {"ios": "https://dc.lft.to/lastmile_qr_scan", "android": "https://dc.lft.to/lastmile_qr_scan"}, "type": "electric_scooter", "name": "cf1fdd7ba114c125fd275ce35f49aecd", "is_reserved": 0, "lon": -77.05221133333333, "is_disabled": 0, "fusion_lat": 0.0, "lat": 38.889130333333334, "bike_id": "cf1fdd7ba114c125fd275ce35f49aecd", "fusion_lon": 0.0}, {"rental_uris": {"ios": "https://dc.lft.to/lastmile_qr_scan", "android": "https://dc.lft.to/lastmile_qr_scan"}, "type": "electric_scooter", "name": "ddd656a1bbef0bdaa525b8be25a3ae07", "is_reserved": 0, "lon": -77.01161766666667, "is_disabled": 0, "fusion_lat": 0.0, "lat": 38.8964935, "bike_id": "ddd656a1bbef0bdaa525b8be25a3ae07", "fusion_lon": 0.0}, {"rental_uris": {"ios": "https://dc.lft.to/lastmile_qr_scan", "android": "https://dc.lft.to/lastmile_qr_scan"}, "type": "electric_scooter", "name": "4f82f36419528a9c9e5c332d44048896", "is_reserved": 0, "lon": -76.93184283333333, "is_disabled": 0, "fusion_lat": 0.0, "lat": 38.898760333333335, "bike_id": "4f82f36419528a9c9e5c332d44048896", "fusion_lon": 0.0}, {"rental_uris": {"ios": "https://dc.lft.to/lastmile_qr_scan", "android": "https://dc.lft.to/lastmile_qr_scan"}, "type": "electric_bike", "name": "06d7fd4979808d8d02245ec50b7107c2", "is_reserved": 0, "lon": -77.09626133333333, "is_disabled": 0, "fusion_lat": 0.0, "lat": 38.952503166666666, "bike_id": "06d7fd4979808d8d02245ec50b7107c2", "fusion_lon": 0.0}, {"rental_uris": {"ios": "https://dc.lft.to/lastmile_qr_scan", "android": "https://dc.lft.to/lastmile_qr_scan"}, "type": "electric_bike", "name": "458a2c25970820ba3036833bda321b4a", "is_reserved": 0, "lon": -77.12740916666667, "is_disabled": 0, "fusion_lat": 0.0, "lat": 38.895645, "bike_id": "458a2c25970820ba3036833bda321b4a", "fusion_lon": 0.0}, {"rental_uris": {"ios": "https://dc.lft.to/lastmile_qr_scan", "android": "https://dc.lft.to/lastmile_qr_scan"}, "type": "electric_scooter", "name": "8ed05b85f4af837cea3cbf74e7be27ce", "is_reserved": 0, "lon": -77.0055035, "is_disabled": 0, "fusion_lat": 0.0, "lat": 38.876416, "bike_id": "8ed05b85f4af837cea3cbf74e7be27ce", "fusion_lon": 0.0}, {"rental_uris": {"ios": "https://dc.lft.to/lastmile_qr_scan", "android": "https://dc.lft.to/lastmile_qr_scan"}, "type": "electric_scooter", "name": "0be5b81fb9568a88047af00d37271619", "is_reserved": 0, "lon": -76.985035, "is_disabled": 0, "fusion_lat": 0.0, "lat": 38.87999083333333, "bike_id": "0be5b81fb9568a88047af00d37271619", "fusion_lon": 0.0}, {"rental_uris": {"ios": "https://dc.lft.to/lastmile_qr_scan", "android": "https://dc.lft.to/lastmile_qr_scan"}, "type": "electric_bike", "name": "3f83c9433a8089c616ee374aafce30f5", "is_reserved": 0, "lon": -77.08530083333333, "is_disabled": 0, "fusion_lat": 0.0, "lat": 38.856500833333335, "bike_id": "3f83c9433a8089c616ee374aafce30f5", "fusion_lon": 0.0}, {"rental_uris": {"ios": "https://dc.lft.to/lastmile_qr_scan", "android": "https://dc.lft.to/lastmile_qr_scan"}, "type": "electric_scooter", "name": "b31feee31ab9407c220ee1d4f04307a6", "is_reserved": 0, "lon": -77.0342055, "is_disabled": 0, "fusion_lat": 0.0, "lat": 38.92200233333333, "bike_id": "b31feee31ab9407c220ee1d4f04307a6", "fusion_lon": 0.0}, {"rental_uris": {"ios": "https://dc.lft.to/lastmile_qr_scan", "android": "https://dc.lft.to/lastmile_qr_scan"}, "type": "electric_scooter", "name": "06392d3ba5b80c4fb99c31b9ab12bfb7", "is_reserved": 0, "lon": -77.06629066666666, "is_disabled": 0, "fusion_lat": 0.0, "lat": 38.905152, "bike_id": "06392d3ba5b80c4fb99c31b9ab12bfb7", "fusion_lon": 0.0}, {"rental_uris": {"ios": "https://dc.lft.to/lastmile_qr_scan", "android": "https://dc.lft.to/lastmile_qr_scan"}, "type": "electric_scooter", "name": "6256529811596a7361d5bab1e920f450", "is_reserved": 0, "lon": -77.02501616666666, "is_disabled": 0, "fusion_lat": 0.0, "lat": 38.935507666666666, "bike_id": "6256529811596a7361d5bab1e920f450", "fusion_lon": 0.0}, {"rental_uris": {"ios": "https://dc.lft.to/lastmile_qr_scan", "android": "https://dc.lft.to/lastmile_qr_scan"}, "type": "electric_bike", "name": "ed539de379605c2004e37ffa53716f97", "is_reserved": 0, "lon": -77.12650333333333, "is_disabled": 0, "fusion_lat": 0.0, "lat": 38.819108666666665, "bike_id": "ed539de379605c2004e37ffa53716f97", "fusion_lon": 0.0}, {"rental_uris": {"ios": "https://dc.lft.to/lastmile_qr_scan", "android": "https://dc.lft.to/lastmile_qr_scan"}, "type": "electric_scooter", "name": "da3016aad8df4ee862457770780512d2", "is_reserved": 0, "lon": -77.00157683333333, "is_disabled": 0, "fusion_lat": 0.0, "lat": 38.82133316666667, "bike_id": "da3016aad8df4ee862457770780512d2", "fusion_lon": 0.0}, {"rental_uris": {"ios": "https://dc.lft.to/lastmile_qr_scan", "android": "https://dc.lft.to/lastmile_qr_scan"}, "type": "electric_scooter", "name": "33b8aac3766a50038381742bc0183ec3", "is_reserved": 0, "lon": -76.999456, "is_disabled": 0, "fusion_lat": 0.0, "lat": 38.89092983333333, "bike_id": "33b8aac3766a50038381742bc0183ec3", "fusion_lon": 0.0}, {"rental_uris": {"ios": "https://dc.lft.to/lastmile_qr_scan", "android": "https://dc.lft.to/lastmile_qr_scan"}, "type": "electric_scooter", "name": "f486266e2ccb73c0c9963f48cfb58171", "is_reserved": 0, "lon": -77.01724383333334, "is_disabled": 0, "fusion_lat": 0.0, "lat": 38.892257, "bike_id": "f486266e2ccb73c0c9963f48cfb58171", "fusion_lon": 0.0}, {"rental_uris": {"ios": "https://dc.lft.to/lastmile_qr_scan", "android": "https://dc.lft.to/lastmile_qr_scan"}, "type": "electric_scooter", "name": "bc6d2c8456a9a5784067a38f8be1715c", "is_reserved": 0, "lon": -77.07554383333333, "is_disabled": 0, "fusion_lat": 0.0, "lat": 38.90625383333333, "bike_id": "bc6d2c8456a9a5784067a38f8be1715c", "fusion_lon": 0.0}, {"rental_uris": {"ios": "https://dc.lft.to/lastmile_qr_scan", "android": "https://dc.lft.to/lastmile_qr_scan"}, "type": "electric_scooter", "name": "2e90c81f16015bca88e46f2c4adca1e9", "is_reserved": 0, "lon": -77.02965083333333, "is_disabled": 0, "fusion_lat": 0.0, "lat": 38.898491, "bike_id": "2e90c81f16015bca88e46f2c4adca1e9", "fusion_lon": 0.0}, {"rental_uris": {"ios": "https://dc.lft.to/lastmile_qr_scan", "android": "https://dc.lft.to/lastmile_qr_scan"}, "type": "electric_scooter", "name": "95cf4d0100d0d420902b61b91e55b626", "is_reserved": 0, "lon": -77.07252483333333, "is_disabled": 0, "fusion_lat": 0.0, "lat": 38.934339666666666, "bike_id": "95cf4d0100d0d420902b61b91e55b626", "fusion_lon": 0.0}, {"rental_uris": {"ios": "https://dc.lft.to/lastmile_qr_scan", "android": "https://dc.lft.to/lastmile_qr_scan"}, "type": "electric_scooter", "name": "c2282c6ed42ebf9f33dc057c5c338847", "is_reserved": 0, "lon": -77.0307015, "is_disabled": 0, "fusion_lat": 0.0, "lat": 38.89826033333333, "bike_id": "c2282c6ed42ebf9f33dc057c5c338847", "fusion_lon": 0.0}, {"rental_uris": {"ios": "https://dc.lft.to/lastmile_qr_scan", "android": "https://dc.lft.to/lastmile_qr_scan"}, "type": "electric_bike", "name": "99d6ffb573ee4b8023f59c85119fe59b", "is_reserved": 0, "lon": -76.97542033333333, "is_disabled": 0, "fusion_lat": 0.0, "lat": 38.904283666666664, "bike_id": "99d6ffb573ee4b8023f59c85119fe59b", "fusion_lon": 0.0}, {"rental_uris": {"ios": "https://dc.lft.to/lastmile_qr_scan", "android": "https://dc.lft.to/lastmile_qr_scan"}, "type": "electric_bike", "name": "8a8e3b07b148e3d1a5ecba17244920f1", "is_reserved": 0, "lon": -76.95160483333333, "is_disabled": 0, "fusion_lat": 0.0, "lat": 39.08445733333333, "bike_id": "8a8e3b07b148e3d1a5ecba17244920f1", "fusion_lon": 0.0}, {"rental_uris": {"ios": "https://dc.lft.to/lastmile_qr_scan", "android": "https://dc.lft.to/lastmile_qr_scan"}, "type": "electric_scooter", "name": "d261b08ce089aa96930f579164e61b94", "is_reserved": 0, "lon": -77.01954166666667, "is_disabled": 0, "fusion_lat": 0.0, "lat": 38.9504705, "bike_id": "d261b08ce089aa96930f579164e61b94", "fusion_lon": 0.0}, {"rental_uris": {"ios": "https://dc.lft.to/lastmile_qr_scan", "android": "https://dc.lft.to/lastmile_qr_scan"}, "type": "electric_scooter", "name": "3be7ca65c600b98fa7dbed13f4a99d5b", "is_reserved": 0, "lon": -77.02642966666667, "is_disabled": 0, "fusion_lat": 0.0, "lat": 38.8960335, "bike_id": "3be7ca65c600b98fa7dbed13f4a99d5b", "fusion_lon": 0.0}, {"rental_uris": {"ios": "https://dc.lft.to/lastmile_qr_scan", "android": "https://dc.lft.to/lastmile_qr_scan"}, "type": "electric_scooter", "name": "86beff418ebda06db2f31b34ec2e596b", "is_reserved": 0, "lon": -77.01390016666667, "is_disabled": 0, "fusion_lat": 0.0, "lat": 38.919516333333334, "bike_id": "86beff418ebda06db2f31b34ec2e596b", "fusion_lon": 0.0}, {"rental_uris": {"ios": "https://dc.lft.to/lastmile_qr_scan", "android": "https://dc.lft.to/lastmile_qr_scan"}, "type": "electric_scooter", "name": "fe723e84b59a8a3ba28690cdbf7deee8", "is_reserved": 0, "lon": -77.02959033333333, "is_disabled": 0, "fusion_lat": 0.0, "lat": 38.9168865, "bike_id": "fe723e84b59a8a3ba28690cdbf7deee8", "fusion_lon": 0.0}, {"rental_uris": {"ios": "https://dc.lft.to/lastmile_qr_scan", "android": "https://dc.lft.to/lastmile_qr_scan"}, "type": "electric_scooter", "name": "45bc2945f91dab8089d3631d066b20b4", "is_reserved": 0, "lon": -77.02379166666667, "is_disabled": 0, "fusion_lat": 0.0, "lat": 38.902282166666666, "bike_id": "45bc2945f91dab8089d3631d066b20b4", "fusion_lon": 0.0}, {"rental_uris": {"ios": "https://dc.lft.to/lastmile_qr_scan", "android": "https://dc.lft.to/lastmile_qr_scan"}, "type": "electric_scooter", "name": "9f0279821152d85b5d5fa3133194b05c", "is_reserved": 0, "lon": -76.95740033333334, "is_disabled": 0, "fusion_lat": 0.0, "lat": 38.883921666666666, "bike_id": "9f0279821152d85b5d5fa3133194b05c", "fusion_lon": 0.0}, {"rental_uris": {"ios": "https://dc.lft.to/lastmile_qr_scan", "android": "https://dc.lft.to/lastmile_qr_scan"}, "type": "electric_scooter", "name": "c74dc12cbec8c87c0990c693ba7d5e1f", "is_reserved": 0, "lon": -76.98357566666667, "is_disabled": 0, "fusion_lat": 0.0, "lat": 38.8873805, "bike_id": "c74dc12cbec8c87c0990c693ba7d5e1f", "fusion_lon": 0.0}, {"rental_uris": {"ios": "https://dc.lft.to/lastmile_qr_scan", "android": "https://dc.lft.to/lastmile_qr_scan"}, "type": "electric_scooter", "name": "b6c83a87d3db52c915ef98e22726983c", "is_reserved": 0, "lon": -77.0075635, "is_disabled": 0, "fusion_lat": 0.0, "lat": 38.92530466666667, "bike_id": "b6c83a87d3db52c915ef98e22726983c", "fusion_lon": 0.0}, {"rental_uris": {"ios": "https://dc.lft.to/lastmile_qr_scan", "android": "https://dc.lft.to/lastmile_qr_scan"}, "type": "electric_scooter", "name": "0edbb0249e4e4e73b85d9196e1482a23", "is_reserved": 0, "lon": -77.03825516666667, "is_disabled": 0, "fusion_lat": 0.0, "lat": 38.92174266666667, "bike_id": "0edbb0249e4e4e73b85d9196e1482a23", "fusion_lon": 0.0}, {"rental_uris": {"ios": "https://dc.lft.to/lastmile_qr_scan", "android": "https://dc.lft.to/lastmile_qr_scan"}, "type": "electric_scooter", "name": "6cc48a9c5b4a67a20ecf09476c989dec", "is_reserved": 0, "lon": -77.02683933333333, "is_disabled": 0, "fusion_lat": 0.0, "lat": 38.884898166666666, "bike_id": "6cc48a9c5b4a67a20ecf09476c989dec", "fusion_lon": 0.0}, {"rental_uris": {"ios": "https://dc.lft.to/lastmile_qr_scan", "android": "https://dc.lft.to/lastmile_qr_scan"}, "type": "electric_bike", "name": "191fdbd8c3602515de1ff82e1c3fa8fd", "is_reserved": 0, "lon": -77.09011433333333, "is_disabled": 0, "fusion_lat": 0.0, "lat": 38.926453, "bike_id": "191fdbd8c3602515de1ff82e1c3fa8fd", "fusion_lon": 0.0}, {"rental_uris": {"ios": "https://dc.lft.to/lastmile_qr_scan", "android": "https://dc.lft.to/lastmile_qr_scan"}, "type": "electric_bike", "name": "06075dba75e20898864f8792fe569d22", "is_reserved": 0, "lon": -77.12695166666667, "is_disabled": 0, "fusion_lat": 0.0, "lat": 38.89567566666667, "bike_id": "06075dba75e20898864f8792fe569d22", "fusion_lon": 0.0}, {"rental_uris": {"ios": "https://dc.lft.to/lastmile_qr_scan", "android": "https://dc.lft.to/lastmile_qr_scan"}, "type": "electric_bike", "name": "67d0db03cdfffbcb932fae2acb5a7aad", "is_reserved": 0, "lon": -76.95702683333333, "is_disabled": 0, "fusion_lat": 0.0, "lat": 38.85087083333333, "bike_id": "67d0db03cdfffbcb932fae2acb5a7aad", "fusion_lon": 0.0}, {"rental_uris": {"ios": "https://dc.lft.to/lastmile_qr_scan", "android": "https://dc.lft.to/lastmile_qr_scan"}, "type": "electric_scooter", "name": "796191d1b29cb1e939d5d9120611122d", "is_reserved": 0, "lon": -76.9914845, "is_disabled": 0, "fusion_lat": 0.0, "lat": 38.900355166666664, "bike_id": "796191d1b29cb1e939d5d9120611122d", "fusion_lon": 0.0}, {"rental_uris": {"ios": "https://dc.lft.to/lastmile_qr_scan", "android": "https://dc.lft.to/lastmile_qr_scan"}, "type": "electric_scooter", "name": "9cc56ca701cbf504ba0cbabc4960ad5f", "is_reserved": 0, "lon": -77.01377583333333, "is_disabled": 0, "fusion_lat": 0.0, "lat": 38.869682833333336, "bike_id": "9cc56ca701cbf504ba0cbabc4960ad5f", "fusion_lon": 0.0}, {"rental_uris": {"ios": "https://dc.lft.to/lastmile_qr_scan", "android": "https://dc.lft.to/lastmile_qr_scan"}, "type": "electric_bike", "name": "ca5a858a8baf7ba8a8bf797145842a63", "is_reserved": 0, "lon": -76.99695566666666, "is_disabled": 0, "fusion_lat": 0.0, "lat": 38.83862933333333, "bike_id": "ca5a858a8baf7ba8a8bf797145842a63", "fusion_lon": 0.0}, {"rental_uris": {"ios": "https://dc.lft.to/lastmile_qr_scan", "android": "https://dc.lft.to/lastmile_qr_scan"}, "type": "electric_scooter", "name": "226156c2ac5f987b331d7de62c162b8b", "is_reserved": 0, "lon": -77.03590216666667, "is_disabled": 0, "fusion_lat": 0.0, "lat": 38.917812833333336, "bike_id": "226156c2ac5f987b331d7de62c162b8b", "fusion_lon": 0.0}, {"rental_uris": {"ios": "https://dc.lft.to/lastmile_qr_scan", "android": "https://dc.lft.to/lastmile_qr_scan"}, "type": "electric_scooter", "name": "b8a4602e6fcb6716f6cf1eed6354a7a0", "is_reserved": 0, "lon": -76.980762, "is_disabled": 0, "fusion_lat": 0.0, "lat": 38.9018065, "bike_id": "b8a4602e6fcb6716f6cf1eed6354a7a0", "fusion_lon": 0.0}, {"rental_uris": {"ios": "https://dc.lft.to/lastmile_qr_scan", "android": "https://dc.lft.to/lastmile_qr_scan"},